{"last_updated":1761228668,"ttl":60,"version":"2.2","data":{"bikes":[{"bike_id":"0987f624-06c9-475c-a644-1021e759ae9e","system_id":"levelo_inurba_marseille","lat":43.231504,"lon":5.43696,"is_reserved":false,"is_disabled":false,"rental_uris":{"android":"levelo://app?vid=0987f624-06c9-475c-a644-1021e759ae9e","ios":"levelo://app?vid=0987f624-06c9-475c-a644-1021e759ae9e"},"vehicle_type_id":"4","last_reported":1761228669,"current_range_meters":2800,"station_id":"ce4bhmp2rcd13ifvqgog","pricing_plan_id":"cebpf4jnsgd1na2vs0mg"},{"bike_id":"111849aa-4ca0-44f5-a745-a01b2147ed68","system_id":"levelo_inurba_marseille","lat":43.33774,"lon":5.37471,"is_reserved":false,"is_disabled":false,"rental_uris":{"android":"levelo://app?vid=111849aa-4ca0-44f5-a745-a01b2147ed68","ios":"levelo://app?vid=111849aa-4ca0-44f5-a745-a01b2147ed68"},"vehicle_type_id":"4","last_reported":1761228669,"current_range_meters":2800,"station_id":"","pricing_plan_id":"cebpf4jnsgd1na2vs0mg"},{"bike_id":"da3c5d5d-639d-4a11-88e1-f7b9c2ad220a","system_id":"levelo_inurba_marseille","lat":43.31725,"lon":5.37804,"is_reserved":false,"is_disabled":true,"rental_uris":{"android":"levelo://app?vid=da3c5d5d-639d-4a11-88e1-f7b9c2ad220a","ios":"levelo://app?vid=da3c5d5d-639d-4a11-88e1-f7b9c2ad220a"},"vehicle_type_id":"4","last_reported":1761228669,"current_range_meters":2800,"station_id":"","pricing_plan_id":"cebpf4jnsgd1na2vs0mg"},{"bike_id":"3201e625-69d5-420e-838c-f4c3f44666ef","system_id":"levelo_inurba_marseille","lat":43.33789,"lon":5.37423,"is_reserved":false,"is_disabled":false,"rental_uris":{"android":"levelo://app?vid=3201e625-69d5-420e-838c-f4c3f44666ef","ios":"levelo://app?vid=3201e625-69d5-420e-838c-f4c3f44666ef"},"vehicle_type_id":"4","last_reported":1761228669,"current_range_meters":3200,"station_id":"","pricing_plan_id":"cebpf4jnsgd1na2vs0mg"},{"bike_id":"80f6aae4-96df-4213-90fb-f7479cd34156","system_id":"levelo_inurba_marseille","lat":43.295663,"lon":5.37523,"is_reserved":false,"is_disabled":false,"rental_uris":{"android":"levelo://app?vid=80f6aae4-96df-4213-90fb-f7479cd34156","ios":"levelo://app?vid=80f6aae4-96df-4213-90fb-f7479cd34156"},"vehicle_type_id":"4","last_reported":1761228669,"current_range_meters":3200,"station_id":"ce4bh292rcd13ifvqdf0","pricing_plan_id":"cebpf4jnsgd1na2vs0mg"},{"bike_id":"647f4a54-59fc-452c-ab8d-b80c978e4cde","system_id":"levelo_inurba_marseille","lat":43.29759,"lon":5.42784,"is_reserved":false,"is_disabled":false,"rental_uris":{"android":"levelo://app?vid=647f4a54-59fc-452c-ab8d-b80c978e4cde","ios":"levelo://app?vid=647f4a54-59fc-452c-ab8d-b80c978e4cde"},"vehicle_type_id":"4","last_reported":1761228669,"current_range_meters":3600,"station_id":"st_d3md5207bmas73dh9klg","pricing_plan_id":"cebpf4jnsgd1na2vs0mg"},{"bike_id":"22f1b5c8-725e-49ea-b631-e5f9bcfa6687","system_id":"levelo_inurba_marseille","lat":43.29577,"lon":5.37514,"is_reserved":false,"is_disabled":false,"rental_uris":{"android":"levelo://app?vid=22f1b5c8-725e-49ea-b631-e5f9bcfa6687","ios":"levelo://app?vid=22f1b5c8-725e-49ea-b631-e5f9bcfa6687"},"vehicle_type_id":"4","last_reported":1761228669,"current_range_meters":3600,"station_id":"ce4bgh92rcd13ifvqb50","pricing_plan_id":"cebpf4jnsgd1na2vs0mg"},{"bike_id":"a4a48d16-dc25-42dd-bcd3-b0a2f5fe887b","system_id":"levelo_inurba_marseille","lat":43.32659,"lon":5.40992,"is_reserved":false,"is_disabled":false,"rental_uris":{"android":"levelo://app?vid=a4a48d16-dc25-42dd-bcd3-b0a2f5fe887b","ios":"levelo://app?vid=a4a48d16-dc25-42dd-bcd3-b0a2f5fe887b"},"vehicle_type_id":"4","last_reported":1761228669,"current_range_meters":4000,"station_id":"ce4bhpp2rcd13ifvqhgg","pricing_plan_id":"cebpf4jnsgd1na2vs0mg"},{"bike_id":"fe8be89c-7036-4d49-9325-c1d856208439","system_id":"levelo_inurba_marseille","lat":43.308928,"lon":5.396644,"is_reserved":false,"is_disabled":false,"rental_uris":{"android":"levelo://app?vid=fe8be89c-7036-4d49-9325-c1d856208439","ios":"levelo://app?vid=fe8be89c-7036-4d49-9325-c1d856208439"},"vehicle_type_id":"4","last_reported":1761228669,"current_range_meters":4000,"station_id":"ce4bh012rcd13ifvqcv0","pricing_plan_id":"cebpf4jnsgd1na2vs0mg"},{"bike_id":"b7e41c34-cad5-468c-aadc-3ef8a1845b5a","system_id":"levelo_inurba_marseille","lat":43.281613,"lon":5.361181,"is_reserved":false,"is_disabled":false,"rental_uris":{"android":"levelo://app?vid=b7e41c34-cad5-468c-aadc-3ef8a1845b5a","ios":"levelo://app?vid=b7e41c34-cad5-468c-aadc-3ef8a1845b5a"},"vehicle_type_id":"4","last_reported":1761228669,"current_range_meters":4400,"station_id":"","pricing_plan_id":"cebpf4jnsgd1na2vs0mg"},{"bike_id":"2515fba1-c874-4e74-a956-3fd66cfc2d91","system_id":"levelo_inurba_marseille","lat":43.30434,"lon":5.38892,"is_reserved":false,"is_disabled":false,"rental_uris":{"android":"levelo://app?vid=2515fba1-c874-4e74-a956-3fd66cfc2d91","ios":"levelo://app?vid=2515fba1-c874-4e74-a956-3fd66cfc2d91"},"vehicle_type_id":"4","last_reported":1761228669,"current_range_meters":4800,"station_id":"ce4bgk12rcd13ifvqbi0","pricing_plan_id":"cebpf4jnsgd1na2vs0mg"},{"bike_id":"ac1df8dc-41e5-4954-977f-6f21ed12d11a","system_id":"levelo_inurba_marseille","lat":43.21743,"lon":5.34614,"is_reserved":false,"is_disabled":false,"rental_uris":{"android":"levelo://app?vid=ac1df8dc-41e5-4954-977f-6f21ed12d11a","ios":"levelo://app?vid=ac1df8dc-41e5-4954-977f-6f21ed12d11a"},"vehicle_type_id":"4","last_reported":1761228669,"current_range_meters":5600,"station_id":"st_cvj6r9ubvosntc0bgbag","pricing_plan_id":"cebpf4jnsgd1na2vs0mg"},{"bike_id":"6665c1e8-1f0f-402b-8f71-557b78104323","system_id":"levelo_inurba_marseille","lat":43.32043,"lon":5.415636,"is_reserved":false,"is_disabled":false,"rental_uris":{"android":"levelo://app?vid=6665c1e8-1f0f-402b-8f71-557b78104323","ios":"levelo://app?vid=6665c1e8-1f0f-402b-8f71-557b78104323"},"vehicle_type_id":"4","last_reported":1761228669,"current_range_meters":5600,"station_id":"ce4bhq92rcd13ifvqhkg","pricing_plan_id":"cebpf4jnsgd1na2vs0mg"},{"bike_id":"63235d9c-b387-4c4c-9f11-328f8f4a2799","system_id":"levelo_inurba_marseille","lat":43.30156,"lon":5.38099,"is_reserved":false,"is_disabled":false,"rental_uris":{"android":"levelo://app?vid=63235d9c-b387-4c4c-9f11-328f8f4a2799","ios":"levelo://app?vid=63235d9c-b387-4c4c-9f11-328f8f4a2799"},"vehicle_type_id":"4","last_reported":1761228669,"current_range_meters":5600,"station_id":"ce4bgjp2rcd13ifvqbh0","pricing_plan_id":"cebpf4jnsgd1na2vs0mg"},{"bike_id":"70173d68-8d47-4d68-8d7f-f076f0b099c0","system_id":"levelo_inurba_marseille","lat":43.33023,"lon":5.39047,"is_reserved":false,"is_disabled":false,"rental_uris":{"android":"levelo://app?vid=70173d68-8d47-4d68-8d7f-f076f0b099c0","ios":"levelo://app?vid=70173d68-8d47-4d68-8d7f-f076f0b099c0"},"vehicle_type_id":"4","last_reported":1761228669,"current_range_meters":6000,"station_id":"ce4bhr92rcd13ifvqhrg","pricing_plan_id":"cebpf4jnsgd1na2vs0mg"},{"bike_id":"7ef6bd1c-dffa-4c27-9976-6108d21db7e3","system_id":"levelo_inurba_marseille","lat":43.28968,"lon":5.37826,"is_reserved":false,"is_disabled":false,"rental_uris":{"android":"levelo://app?vid=7ef6bd1c-dffa-4c27-9976-6108d21db7e3","ios":"levelo://app?vid=7ef6bd1c-dffa-4c27-9976-6108d21db7e3"},"vehicle_type_id":"4","last_reported":1761228669,"current_range_meters":6000,"station_id":"ce4bh9p2rcd13ifvqed0","pricing_plan_id":"cebpf4jnsgd1na2vs0mg"},{"bike_id":"02f7835e-8895-43db-bc46-dc0659a292d5","system_id":"levelo_inurba_marseille","lat":43.29331,"lon":5.3707,"is_reserved":false,"is_disabled":false,"rental_uris":{"android":"levelo://app?vid=02f7835e-8895-43db-bc46-dc0659a292d5","ios":"levelo://app?vid=02f7835e-8895-43db-bc46-dc0659a292d5"},"vehicle_type_id":"4","last_reported":1761228669,"current_range_meters":6000,"station_id":"","pricing_plan_id":"cebpf4jnsgd1na2vs0mg"},{"bike_id":"3de35322-0741-470d-b565-7d8eb37ff45d","system_id":"levelo_inurba_marseille","lat":43.22558,"lon":5.41615,"is_reserved":false,"is_disabled":false,"rental_uris":{"android":"levelo://app?vid=3de35322-0741-470d-b565-7d8eb37ff45d","ios":"levelo://app?vid=3de35322-0741-470d-b565-7d8eb37ff45d"},"vehicle_type_id":"4","last_reported":1761228669,"current_range_meters":6000,"station_id":"st_d2o4gvlbi1j2169b742g","pricing_plan_id":"cebpf4jnsgd1na2vs0mg"},{"bike_id":"62dd50a9-98f2-4559-a119-ef7be93a7201","system_id":"levelo_inurba_marseille","lat":43.28853,"lon":5.35856,"is_reserved":false,"is_disabled":false,"rental_uris":{"android":"levelo://app?vid=62dd50a9-98f2-4559-a119-ef7be93a7201","ios":"levelo://app?vid=62dd50a9-98f2-4559-a119-ef7be93a7201"},"vehicle_type_id":"4","last_reported":1761228669,"current_range_meters":6000,"station_id":"ce4bhb12rcd13ifvqem0","pricing_plan_id":"cebpf4jnsgd1na2vs0mg"},{"bike_id":"62540222-2793-4b9e-b352-f15a780ea830","system_id":"levelo_inurba_marseille","lat":43.2826,"lon":5.3506,"is_reserved":false,"is_disabled":false,"rental_uris":{"android":"levelo://app?vid=62540222-2793-4b9e-b352-f15a780ea830","ios":"levelo://app?vid=62540222-2793-4b9e-b352-f15a780ea830"},"vehicle_type_id":"4","last_reported":1761228669,"current_range_meters":6800,"station_id":"ce4bhbp2rcd13ifvqerg","pricing_plan_id":"cebpf4jnsgd1na2vs0mg"},{"bike_id":"d9a2a0a6-f03f-4ffa-a319-65e25dfdddff","system_id":"levelo_inurba_marseille","lat":43.30594,"lon":5.3936,"is_reserved":false,"is_disabled":false,"rental_uris":{"android":"levelo://app?vid=d9a2a0a6-f03f-4ffa-a319-65e25dfdddff","ios":"levelo://app?vid=d9a2a0a6-f03f-4ffa-a319-65e25dfdddff"},"vehicle_type_id":"4","last_reported":1761228669,"current_range_meters":6800,"station_id":"ce4bh0p2rcd13ifvqd80","pricing_plan_id":"cebpf4jnsgd1na2vs0mg"},{"bike_id":"e160c397-fee2-4a8b-b125-aac488c4b4fd","system_id":"levelo_inurba_marseille","lat":43.30373,"lon":5.42477,"is_reserved":false,"is_disabled":false,"rental_uris":{"android":"levelo://app?vid=e160c397-fee2-4a8b-b125-aac488c4b4fd","ios":"levelo://app?vid=e160c397-fee2-4a8b-b125-aac488c4b4fd"},"vehicle_type_id":"4","last_reported":1761228669,"current_range_meters":6800,"station_id":"ce4bhoh2rcd13ifvqh6g","pricing_plan_id":"cebpf4jnsgd1na2vs0mg"},{"bike_id":"425824bb-7575-4a8b-8537-3d0aae156345","system_id":"levelo_inurba_marseille","lat":43.28833,"lon":5.39305,"is_reserved":false,"is_disabled":false,"rental_uris":{"android":"levelo://app?vid=425824bb-7575-4a8b-8537-3d0aae156345","ios":"levelo://app?vid=425824bb-7575-4a8b-8537-3d0aae156345"},"vehicle_type_id":"4","last_reported":1761228669,"current_range_meters":7200,"station_id":"ce4bh2p2rcd13ifvqdi0","pricing_plan_id":"cebpf4jnsgd1na2vs0mg"},{"bike_id":"e6f4e10e-6d72-487a-8252-3250c4b27f98","system_id":"levelo_inurba_marseille","lat":43.21191,"lon":5.35083,"is_reserved":false,"is_disabled":false,"rental_uris":{"android":"levelo://app?vid=e6f4e10e-6d72-487a-8252-3250c4b27f98","ios":"levelo://app?vid=e6f4e10e-6d72-487a-8252-3250c4b27f98"},"vehicle_type_id":"4","last_reported":1761228669,"current_range_meters":7200,"station_id":"st_cvj6sg6p6f1abm77japg","pricing_plan_id":"cebpf4jnsgd1na2vs0mg"},{"bike_id":"3e1fbb52-9d7c-457a-a18c-113cbc58722a","system_id":"levelo_inurba_marseille","lat":43.31607,"lon":5.38165,"is_reserved":false,"is_disabled":false,"rental_uris":{"android":"levelo://app?vid=3e1fbb52-9d7c-457a-a18c-113cbc58722a","ios":"levelo://app?vid=3e1fbb52-9d7c-457a-a18c-113cbc58722a"},"vehicle_type_id":"4","last_reported":1761228669,"current_range_meters":7200,"station_id":"","pricing_plan_id":"cebpf4jnsgd1na2vs0mg"},{"bike_id":"82576c51-8b9b-43eb-aa43-fc4a18c9ea5b","system_id":"levelo_inurba_marseille","lat":43.21758,"lon":5.34605,"is_reserved":false,"is_disabled":false,"rental_uris":{"android":"levelo://app?vid=82576c51-8b9b-43eb-aa43-fc4a18c9ea5b","ios":"levelo://app?vid=82576c51-8b9b-43eb-aa43-fc4a18c9ea5b"},"vehicle_type_id":"4","last_reported":1761228669,"current_range_meters":8000,"station_id":"st_cvj6r9ubvosntc0bgbag","pricing_plan_id":"cebpf4jnsgd1na2vs0mg"},{"bike_id":"16ea86f8-d34c-4222-9d2d-e608ddd6d62e","system_id":"levelo_inurba_marseille","lat":43.337444,"lon":5.374475,"is_reserved":false,"is_disabled":false,"rental_uris":{"android":"levelo://app?vid=16ea86f8-d34c-4222-9d2d-e608ddd6d62e","ios":"levelo://app?vid=16ea86f8-d34c-4222-9d2d-e608ddd6d62e"},"vehicle_type_id":"4","last_reported":1761228669,"current_range_meters":8000,"station_id":"","pricing_plan_id":"cebpf4jnsgd1na2vs0mg"},{"bike_id":"ff3ba630-dc04-489c-b422-8721b9ddc862","system_id":"levelo_inurba_marseille","lat":43.29829,"lon":5.37762,"is_reserved":false,"is_disabled":false,"rental_uris":{"android":"levelo://app?vid=ff3ba630-dc04-489c-b422-8721b9ddc862","ios":"levelo://app?vid=ff3ba630-dc04-489c-b422-8721b9ddc862"},"vehicle_type_id":"4","last_reported":1761228669,"current_range_meters":8000,"station_id":"","pricing_plan_id":"cebpf4jnsgd1na2vs0mg"},{"bike_id":"fd0dd5ea-e204-4cc3-ba99-3a46ab9cfa07","system_id":"levelo_inurba_marseille","lat":43.280642,"lon":5.352788,"is_reserved":false,"is_disabled":false,"rental_uris":{"android":"levelo://app?vid=fd0dd5ea-e204-4cc3-ba99-3a46ab9cfa07","ios":"levelo://app?vid=fd0dd5ea-e204-4cc3-ba99-3a46ab9cfa07"},"vehicle_type_id":"4","last_reported":1761228669,"current_range_meters":8000,"station_id":"","pricing_plan_id":"cebpf4jnsgd1na2vs0mg"},{"bike_id":"c3ca90f7-e506-4d35-8cc5-f8aa5723f7b9","system_id":"levelo_inurba_marseille","lat":43.23147,"lon":5.43727,"is_reserved":false,"is_disabled":false,"rental_uris":{"android":"levelo://app?vid=c3ca90f7-e506-4d35-8cc5-f8aa5723f7b9","ios":"levelo://app?vid=c3ca90f7-e506-4d35-8cc5-f8aa5723f7b9"},"vehicle_type_id":"4","last_reported":1761228669,"current_range_meters":8000,"station_id":"ce4bhmp2rcd13ifvqgog","pricing_plan_id":"cebpf4jnsgd1na2vs0mg"},{"bike_id":"b49ce982-2227-4ddb-bea8-7bd321f2f47f","system_id":"levelo_inurba_marseille","lat":43.295815,"lon":5.367472,"is_reserved":false,"is_disabled":false,"rental_uris":{"android":"levelo://app?vid=b49ce982-2227-4ddb-bea8-7bd321f2f47f","ios":"levelo://app?vid=b49ce982-2227-4ddb-bea8-7bd321f2f47f"},"vehicle_type_id":"4","last_reported":1761228669,"current_range_meters":8400,"station_id":"ce4bgph2rcd13ifvqc2g","pricing_plan_id":"cebpf4jnsgd1na2vs0mg"},{"bike_id":"f3efb067-32db-4fd5-a6c7-ed1c6ebbf69d","system_id":"levelo_inurba_marseille","lat":43.2119,"lon":5.35083,"is_reserved":false,"is_disabled":true,"rental_uris":{"android":"levelo://app?vid=f3efb067-32db-4fd5-a6c7-ed1c6ebbf69d","ios":"levelo://app?vid=f3efb067-32db-4fd5-a6c7-ed1c6ebbf69d"},"vehicle_type_id":"4","last_reported":1761228669,"current_range_meters":8400,"station_id":"st_cvj6sg6p6f1abm77japg","pricing_plan_id":"cebpf4jnsgd1na2vs0mg"},{"bike_id":"3c8768f5-e238-4cb2-b57c-c445b9145711","system_id":"levelo_inurba_marseille","lat":43.32106,"lon":5.36766,"is_reserved":false,"is_disabled":false,"rental_uris":{"android":"levelo://app?vid=3c8768f5-e238-4cb2-b57c-c445b9145711","ios":"levelo://app?vid=3c8768f5-e238-4cb2-b57c-c445b9145711"},"vehicle_type_id":"4","last_reported":1761228669,"current_range_meters":8400,"station_id":"ce4bhrh2rcd13ifvqhug","pricing_plan_id":"cebpf4jnsgd1na2vs0mg"},{"bike_id":"bde66b9e-c476-48cf-b033-4068551f0bfe","system_id":"levelo_inurba_marseille","lat":43.293162,"lon":5.371536,"is_reserved":false,"is_disabled":false,"rental_uris":{"android":"levelo://app?vid=bde66b9e-c476-48cf-b033-4068551f0bfe","ios":"levelo://app?vid=bde66b9e-c476-48cf-b033-4068551f0bfe"},"vehicle_type_id":"4","last_reported":1761228669,"current_range_meters":8400,"station_id":"","pricing_plan_id":"cebpf4jnsgd1na2vs0mg"},{"bike_id":"aa5c39ca-5467-4d85-a1f8-b790dbb0979e","system_id":"levelo_inurba_marseille","lat":43.30689,"lon":5.37376,"is_reserved":false,"is_disabled":false,"rental_uris":{"android":"levelo://app?vid=aa5c39ca-5467-4d85-a1f8-b790dbb0979e","ios":"levelo://app?vid=aa5c39ca-5467-4d85-a1f8-b790dbb0979e"},"vehicle_type_id":"4","last_reported":1761228669,"current_range_meters":8400,"station_id":"","pricing_plan_id":"cebpf4jnsgd1na2vs0mg"},{"bike_id":"37d01fc8-4b4d-4652-a489-1254eb9d4c80","system_id":"levelo_inurba_marseille","lat":43.34076,"lon":5.40411,"is_reserved":false,"is_disabled":false,"rental_uris":{"android":"levelo://app?vid=37d01fc8-4b4d-4652-a489-1254eb9d4c80","ios":"levelo://app?vid=37d01fc8-4b4d-4652-a489-1254eb9d4c80"},"vehicle_type_id":"4","last_reported":1761228669,"current_range_meters":8400,"station_id":"","pricing_plan_id":"cebpf4jnsgd1na2vs0mg"},{"bike_id":"6a662624-d03e-45d5-964b-74ea5f67d032","system_id":"levelo_inurba_marseille","lat":43.31124,"lon":5.37787,"is_reserved":false,"is_disabled":false,"rental_uris":{"android":"levelo://app?vid=6a662624-d03e-45d5-964b-74ea5f67d032","ios":"levelo://app?vid=6a662624-d03e-45d5-964b-74ea5f67d032"},"vehicle_type_id":"4","last_reported":1761228669,"current_range_meters":8800,"station_id":"ce4bgt92rcd13ifvqcg0","pricing_plan_id":"cebpf4jnsgd1na2vs0mg"},{"bike_id":"d11ec65b-5793-467b-9939-4f00a3b35012","system_id":"levelo_inurba_marseille","lat":43.296271,"lon":5.377263,"is_reserved":false,"is_disabled":false,"rental_uris":{"android":"levelo://app?vid=d11ec65b-5793-467b-9939-4f00a3b35012","ios":"levelo://app?vid=d11ec65b-5793-467b-9939-4f00a3b35012"},"vehicle_type_id":"4","last_reported":1761228669,"current_range_meters":8800,"station_id":"ce4bgi92rcd13ifvqb90","pricing_plan_id":"cebpf4jnsgd1na2vs0mg"},{"bike_id":"3aa8c3e6-230d-4538-ac39-2b944611f536","system_id":"levelo_inurba_marseille","lat":43.31323,"lon":5.36706,"is_reserved":false,"is_disabled":true,"rental_uris":{"android":"levelo://app?vid=3aa8c3e6-230d-4538-ac39-2b944611f536","ios":"levelo://app?vid=3aa8c3e6-230d-4538-ac39-2b944611f536"},"vehicle_type_id":"4","last_reported":1761228669,"current_range_meters":8800,"station_id":"ce4bgr92rcd13ifvqc6g","pricing_plan_id":"cebpf4jnsgd1na2vs0mg"},{"bike_id":"9880e93c-d19c-40b1-b34a-e56695334737","system_id":"levelo_inurba_marseille","lat":43.307367,"lon":5.424405,"is_reserved":false,"is_disabled":false,"rental_uris":{"android":"levelo://app?vid=9880e93c-d19c-40b1-b34a-e56695334737","ios":"levelo://app?vid=9880e93c-d19c-40b1-b34a-e56695334737"},"vehicle_type_id":"4","last_reported":1761228669,"current_range_meters":8800,"station_id":"st_cvj6ca6bvosntc0bfgr0","pricing_plan_id":"cebpf4jnsgd1na2vs0mg"},{"bike_id":"f2796e65-a463-47f0-9b45-1c330c8aa109","system_id":"levelo_inurba_marseille","lat":43.22552,"lon":5.4163,"is_reserved":false,"is_disabled":false,"rental_uris":{"android":"levelo://app?vid=f2796e65-a463-47f0-9b45-1c330c8aa109","ios":"levelo://app?vid=f2796e65-a463-47f0-9b45-1c330c8aa109"},"vehicle_type_id":"4","last_reported":1761228669,"current_range_meters":8800,"station_id":"st_d2o4gvlbi1j2169b742g","pricing_plan_id":"cebpf4jnsgd1na2vs0mg"},{"bike_id":"b8b1dbb8-9f6e-4faa-ba82-24ce3c293260","system_id":"levelo_inurba_marseille","lat":43.29628,"lon":5.37714,"is_reserved":false,"is_disabled":false,"rental_uris":{"android":"levelo://app?vid=b8b1dbb8-9f6e-4faa-ba82-24ce3c293260","ios":"levelo://app?vid=b8b1dbb8-9f6e-4faa-ba82-24ce3c293260"},"vehicle_type_id":"4","last_reported":1761228669,"current_range_meters":8800,"station_id":"ce4bgi92rcd13ifvqb90","pricing_plan_id":"cebpf4jnsgd1na2vs0mg"},{"bike_id":"79823909-5d44-4b1b-8746-6df2484eafb4","system_id":"levelo_inurba_marseille","lat":43.21189,"lon":5.350767,"is_reserved":false,"is_disabled":false,"rental_uris":{"android":"levelo://app?vid=79823909-5d44-4b1b-8746-6df2484eafb4","ios":"levelo://app?vid=79823909-5d44-4b1b-8746-6df2484eafb4"},"vehicle_type_id":"4","last_reported":1761228669,"current_range_meters":9200,"station_id":"","pricing_plan_id":"cebpf4jnsgd1na2vs0mg"},{"bike_id":"40115d13-b6bf-45b0-9679-4425366b16d1","system_id":"levelo_inurba_marseille","lat":43.25098,"lon":5.40312,"is_reserved":false,"is_disabled":false,"rental_uris":{"android":"levelo://app?vid=40115d13-b6bf-45b0-9679-4425366b16d1","ios":"levelo://app?vid=40115d13-b6bf-45b0-9679-4425366b16d1"},"vehicle_type_id":"4","last_reported":1761228669,"current_range_meters":9200,"station_id":"ce4bhlh2rcd13ifvqgig","pricing_plan_id":"cebpf4jnsgd1na2vs0mg"},{"bike_id":"19932999-2934-4a42-9fd5-ce158b94f4a9","system_id":"levelo_inurba_marseille","lat":43.31167,"lon":5.38714,"is_reserved":false,"is_disabled":false,"rental_uris":{"android":"levelo://app?vid=19932999-2934-4a42-9fd5-ce158b94f4a9","ios":"levelo://app?vid=19932999-2934-4a42-9fd5-ce158b94f4a9"},"vehicle_type_id":"4","last_reported":1761228669,"current_range_meters":9600,"station_id":"ce4bgv12rcd13ifvqcp0","pricing_plan_id":"cebpf4jnsgd1na2vs0mg"},{"bike_id":"a59d1231-e47a-4dfa-9065-4acedf359f8f","system_id":"levelo_inurba_marseille","lat":43.217444,"lon":5.345998,"is_reserved":false,"is_disabled":false,"rental_uris":{"android":"levelo://app?vid=a59d1231-e47a-4dfa-9065-4acedf359f8f","ios":"levelo://app?vid=a59d1231-e47a-4dfa-9065-4acedf359f8f"},"vehicle_type_id":"4","last_reported":1761228669,"current_range_meters":9600,"station_id":"","pricing_plan_id":"cebpf4jnsgd1na2vs0mg"},{"bike_id":"4eae2ec4-8862-466e-a3d9-395cca4276d0","system_id":"levelo_inurba_marseille","lat":43.30373,"lon":5.37603,"is_reserved":false,"is_disabled":false,"rental_uris":{"android":"levelo://app?vid=4eae2ec4-8862-466e-a3d9-395cca4276d0","ios":"levelo://app?vid=4eae2ec4-8862-466e-a3d9-395cca4276d0"},"vehicle_type_id":"4","last_reported":1761228669,"current_range_meters":9600,"station_id":"","pricing_plan_id":"cebpf4jnsgd1na2vs0mg"},{"bike_id":"6fca8536-ed10-4afd-b9cd-9adfe94f9ff3","system_id":"levelo_inurba_marseille","lat":43.289995,"lon":5.4258,"is_reserved":false,"is_disabled":false,"rental_uris":{"android":"levelo://app?vid=6fca8536-ed10-4afd-b9cd-9adfe94f9ff3","ios":"levelo://app?vid=6fca8536-ed10-4afd-b9cd-9adfe94f9ff3"},"vehicle_type_id":"4","last_reported":1761228669,"current_range_meters":9600,"station_id":"","pricing_plan_id":"cebpf4jnsgd1na2vs0mg"},{"bike_id":"1656396b-ce0e-470e-9f40-d432e00c8827","system_id":"levelo_inurba_marseille","lat":43.29626,"lon":5.40493,"is_reserved":false,"is_disabled":false,"rental_uris":{"android":"levelo://app?vid=1656396b-ce0e-470e-9f40-d432e00c8827","ios":"levelo://app?vid=1656396b-ce0e-470e-9f40-d432e00c8827"},"vehicle_type_id":"4","last_reported":1761228669,"current_range_meters":10000,"station_id":"","pricing_plan_id":"cebpf4jnsgd1na2vs0mg"},{"bike_id":"9870a68d-ae62-4bec-82c3-a7443a850bdc","system_id":"levelo_inurba_marseille","lat":43.31271,"lon":5.37856,"is_reserved":false,"is_disabled":false,"rental_uris":{"android":"levelo://app?vid=9870a68d-ae62-4bec-82c3-a7443a850bdc","ios":"levelo://app?vid=9870a68d-ae62-4bec-82c3-a7443a850bdc"},"vehicle_type_id":"4","last_reported":1761228669,"current_range_meters":10000,"station_id":"","pricing_plan_id":"cebpf4jnsgd1na2vs0mg"},{"bike_id":"07e992db-48e1-481b-a50e-3b491cfc1455","system_id":"levelo_inurba_marseille","lat":43.31991,"lon":5.41291,"is_reserved":false,"is_disabled":false,"rental_uris":{"android":"levelo://app?vid=07e992db-48e1-481b-a50e-3b491cfc1455","ios":"levelo://app?vid=07e992db-48e1-481b-a50e-3b491cfc1455"},"vehicle_type_id":"4","last_reported":1761228669,"current_range_meters":10000,"station_id":"","pricing_plan_id":"cebpf4jnsgd1na2vs0mg"},{"bike_id":"385fe01c-d37e-4d46-b398-503d4f87373c","system_id":"levelo_inurba_marseille","lat":43.262,"lon":5.3793,"is_reserved":false,"is_disabled":false,"rental_uris":{"android":"levelo://app?vid=385fe01c-d37e-4d46-b398-503d4f87373c","ios":"levelo://app?vid=385fe01c-d37e-4d46-b398-503d4f87373c"},"vehicle_type_id":"4","last_reported":1761228669,"current_range_meters":10000,"station_id":"ce4bhjp2rcd13ifvqg90","pricing_plan_id":"cebpf4jnsgd1na2vs0mg"},{"bike_id":"c27d7108-ac14-4e0c-86fe-8bccbac91d86","system_id":"levelo_inurba_marseille","lat":43.32047,"lon":5.4154,"is_reserved":false,"is_disabled":false,"rental_uris":{"android":"levelo://app?vid=c27d7108-ac14-4e0c-86fe-8bccbac91d86","ios":"levelo://app?vid=c27d7108-ac14-4e0c-86fe-8bccbac91d86"},"vehicle_type_id":"4","last_reported":1761228669,"current_range_meters":10000,"station_id":"ce4bhq92rcd13ifvqhkg","pricing_plan_id":"cebpf4jnsgd1na2vs0mg"},{"bike_id":"4b2a6494-1052-4082-a094-f4cdf7bd97b7","system_id":"levelo_inurba_marseille","lat":43.28478,"lon":5.3855,"is_reserved":false,"is_disabled":false,"rental_uris":{"android":"levelo://app?vid=4b2a6494-1052-4082-a094-f4cdf7bd97b7","ios":"levelo://app?vid=4b2a6494-1052-4082-a094-f4cdf7bd97b7"},"vehicle_type_id":"4","last_reported":1761228669,"current_range_meters":10000,"station_id":"ce4bh8p2rcd13ifvqeb0","pricing_plan_id":"cebpf4jnsgd1na2vs0mg"},{"bike_id":"3268f781-dd32-4603-9120-2d79ee63810d","system_id":"levelo_inurba_marseille","lat":43.2329,"lon":5.43602,"is_reserved":false,"is_disabled":false,"rental_uris":{"android":"levelo://app?vid=3268f781-dd32-4603-9120-2d79ee63810d","ios":"levelo://app?vid=3268f781-dd32-4603-9120-2d79ee63810d"},"vehicle_type_id":"4","last_reported":1761228669,"current_range_meters":10800,"station_id":"","pricing_plan_id":"cebpf4jnsgd1na2vs0mg"},{"bike_id":"7dc3a787-7b14-4505-8e32-0b28349ba8b9","system_id":"levelo_inurba_marseille","lat":43.287063,"lon":5.362525,"is_reserved":false,"is_disabled":false,"rental_uris":{"android":"levelo://app?vid=7dc3a787-7b14-4505-8e32-0b28349ba8b9","ios":"levelo://app?vid=7dc3a787-7b14-4505-8e32-0b28349ba8b9"},"vehicle_type_id":"4","last_reported":1761228669,"current_range_meters":10800,"station_id":"","pricing_plan_id":"cebpf4jnsgd1na2vs0mg"},{"bike_id":"826ce3ec-faf4-47c5-baca-458221c8f527","system_id":"levelo_inurba_marseille","lat":43.27205,"lon":5.3918,"is_reserved":false,"is_disabled":false,"rental_uris":{"android":"levelo://app?vid=826ce3ec-faf4-47c5-baca-458221c8f527","ios":"levelo://app?vid=826ce3ec-faf4-47c5-baca-458221c8f527"},"vehicle_type_id":"4","last_reported":1761228669,"current_range_meters":10800,"station_id":"ce4bhhp2rcd13ifvqfm0","pricing_plan_id":"cebpf4jnsgd1na2vs0mg"},{"bike_id":"39d2f5c2-fead-4614-bb07-f6ed5c0b8d4d","system_id":"levelo_inurba_marseille","lat":43.28471,"lon":5.38417,"is_reserved":false,"is_disabled":false,"rental_uris":{"android":"levelo://app?vid=39d2f5c2-fead-4614-bb07-f6ed5c0b8d4d","ios":"levelo://app?vid=39d2f5c2-fead-4614-bb07-f6ed5c0b8d4d"},"vehicle_type_id":"4","last_reported":1761228669,"current_range_meters":10800,"station_id":"ce4bh512rcd13ifvqe3g","pricing_plan_id":"cebpf4jnsgd1na2vs0mg"},{"bike_id":"d7dc8d19-c0d4-4e8a-9d0b-ff8975c3f011","system_id":"levelo_inurba_marseille","lat":43.28474,"lon":5.38417,"is_reserved":false,"is_disabled":false,"rental_uris":{"android":"levelo://app?vid=d7dc8d19-c0d4-4e8a-9d0b-ff8975c3f011","ios":"levelo://app?vid=d7dc8d19-c0d4-4e8a-9d0b-ff8975c3f011"},"vehicle_type_id":"4","last_reported":1761228669,"current_range_meters":10800,"station_id":"ce4bh512rcd13ifvqe3g","pricing_plan_id":"cebpf4jnsgd1na2vs0mg"},{"bike_id":"c8c0fa58-a519-4343-9887-b0c694f93aef","system_id":"levelo_inurba_marseille","lat":43.28862,"lon":5.425115,"is_reserved":false,"is_disabled":false,"rental_uris":{"android":"levelo://app?vid=c8c0fa58-a519-4343-9887-b0c694f93aef","ios":"levelo://app?vid=c8c0fa58-a519-4343-9887-b0c694f93aef"},"vehicle_type_id":"4","last_reported":1761228669,"current_range_meters":11200,"station_id":"st_d3b462108ojc7389ooeg","pricing_plan_id":"cebpf4jnsgd1na2vs0mg"},{"bike_id":"0657eab5-8b3b-4389-aff4-ca7eb44108d7","system_id":"levelo_inurba_marseille","lat":43.30135,"lon":5.37415,"is_reserved":false,"is_disabled":false,"rental_uris":{"android":"levelo://app?vid=0657eab5-8b3b-4389-aff4-ca7eb44108d7","ios":"levelo://app?vid=0657eab5-8b3b-4389-aff4-ca7eb44108d7"},"vehicle_type_id":"4","last_reported":1761228669,"current_range_meters":11200,"station_id":"ce4bgs92rcd13ifvqcc0","pricing_plan_id":"cebpf4jnsgd1na2vs0mg"},{"bike_id":"2fae44ad-a6cd-42bb-97ea-b8009622f300","system_id":"levelo_inurba_marseille","lat":43.30887,"lon":5.39658,"is_reserved":false,"is_disabled":false,"rental_uris":{"android":"levelo://app?vid=2fae44ad-a6cd-42bb-97ea-b8009622f300","ios":"levelo://app?vid=2fae44ad-a6cd-42bb-97ea-b8009622f300"},"vehicle_type_id":"4","last_reported":1761228669,"current_range_meters":11200,"station_id":"ce4bh012rcd13ifvqcv0","pricing_plan_id":"cebpf4jnsgd1na2vs0mg"},{"bike_id":"61525fe3-26d4-4c5c-a075-e59599c296c4","system_id":"levelo_inurba_marseille","lat":43.31452,"lon":5.39316,"is_reserved":false,"is_disabled":false,"rental_uris":{"android":"levelo://app?vid=61525fe3-26d4-4c5c-a075-e59599c296c4","ios":"levelo://app?vid=61525fe3-26d4-4c5c-a075-e59599c296c4"},"vehicle_type_id":"4","last_reported":1761228669,"current_range_meters":11600,"station_id":"","pricing_plan_id":"cebpf4jnsgd1na2vs0mg"},{"bike_id":"1c8eef7f-2912-4671-acc4-9703e467599d","system_id":"levelo_inurba_marseille","lat":43.24805,"lon":5.37463,"is_reserved":false,"is_disabled":false,"rental_uris":{"android":"levelo://app?vid=1c8eef7f-2912-4671-acc4-9703e467599d","ios":"levelo://app?vid=1c8eef7f-2912-4671-acc4-9703e467599d"},"vehicle_type_id":"4","last_reported":1761228669,"current_range_meters":11600,"station_id":"ce4bhgh2rcd13ifvqfb0","pricing_plan_id":"cebpf4jnsgd1na2vs0mg"},{"bike_id":"32e7919e-26d8-4f7d-b229-086147816fa4","system_id":"levelo_inurba_marseille","lat":43.301286,"lon":5.38775,"is_reserved":false,"is_disabled":false,"rental_uris":{"android":"levelo://app?vid=32e7919e-26d8-4f7d-b229-086147816fa4","ios":"levelo://app?vid=32e7919e-26d8-4f7d-b229-086147816fa4"},"vehicle_type_id":"4","last_reported":1761228669,"current_range_meters":12000,"station_id":"","pricing_plan_id":"cebpf4jnsgd1na2vs0mg"},{"bike_id":"55c89a62-3c46-4a12-8013-c48006e4bafb","system_id":"levelo_inurba_marseille","lat":43.24949,"lon":5.40499,"is_reserved":false,"is_disabled":false,"rental_uris":{"android":"levelo://app?vid=55c89a62-3c46-4a12-8013-c48006e4bafb","ios":"levelo://app?vid=55c89a62-3c46-4a12-8013-c48006e4bafb"},"vehicle_type_id":"4","last_reported":1761228669,"current_range_meters":12000,"station_id":"st_d2ngiaodas8pm72gd1h0","pricing_plan_id":"cebpf4jnsgd1na2vs0mg"},{"bike_id":"b47656b5-24c6-4cdc-ad67-1d843e8edbeb","system_id":"levelo_inurba_marseille","lat":43.30726,"lon":5.42437,"is_reserved":false,"is_disabled":false,"rental_uris":{"android":"levelo://app?vid=b47656b5-24c6-4cdc-ad67-1d843e8edbeb","ios":"levelo://app?vid=b47656b5-24c6-4cdc-ad67-1d843e8edbeb"},"vehicle_type_id":"4","last_reported":1761228669,"current_range_meters":12000,"station_id":"st_cvj6ca6bvosntc0bfgr0","pricing_plan_id":"cebpf4jnsgd1na2vs0mg"},{"bike_id":"060fcb5a-8900-4094-aa9b-f91e9e0fe4ea","system_id":"levelo_inurba_marseille","lat":43.29927,"lon":5.36528,"is_reserved":false,"is_disabled":false,"rental_uris":{"android":"levelo://app?vid=060fcb5a-8900-4094-aa9b-f91e9e0fe4ea","ios":"levelo://app?vid=060fcb5a-8900-4094-aa9b-f91e9e0fe4ea"},"vehicle_type_id":"4","last_reported":1761228669,"current_range_meters":12000,"station_id":"ce4bgm92rcd13ifvqbr0","pricing_plan_id":"cebpf4jnsgd1na2vs0mg"},{"bike_id":"56880329-4c76-4c4e-84a7-3c605e225585","system_id":"levelo_inurba_marseille","lat":43.337247,"lon":5.391672,"is_reserved":false,"is_disabled":false,"rental_uris":{"android":"levelo://app?vid=56880329-4c76-4c4e-84a7-3c605e225585","ios":"levelo://app?vid=56880329-4c76-4c4e-84a7-3c605e225585"},"vehicle_type_id":"4","last_reported":1761228669,"current_range_meters":12400,"station_id":"ce4bhr92rcd13ifvqhsg","pricing_plan_id":"cebpf4jnsgd1na2vs0mg"},{"bike_id":"1aaa028d-93d8-4a20-8355-7a4b17d8620a","system_id":"levelo_inurba_marseille","lat":43.27629,"lon":5.39224,"is_reserved":false,"is_disabled":false,"rental_uris":{"android":"levelo://app?vid=1aaa028d-93d8-4a20-8355-7a4b17d8620a","ios":"levelo://app?vid=1aaa028d-93d8-4a20-8355-7a4b17d8620a"},"vehicle_type_id":"4","last_reported":1761228669,"current_range_meters":12400,"station_id":"","pricing_plan_id":"cebpf4jnsgd1na2vs0mg"},{"bike_id":"ea886e01-8738-4e9f-8316-33a3ef2f4c84","system_id":"levelo_inurba_marseille","lat":43.26796,"lon":5.39444,"is_reserved":false,"is_disabled":false,"rental_uris":{"android":"levelo://app?vid=ea886e01-8738-4e9f-8316-33a3ef2f4c84","ios":"levelo://app?vid=ea886e01-8738-4e9f-8316-33a3ef2f4c84"},"vehicle_type_id":"4","last_reported":1761228669,"current_range_meters":12800,"station_id":"ce4bhh12rcd13ifvqfg0","pricing_plan_id":"cebpf4jnsgd1na2vs0mg"},{"bike_id":"0198280f-05b0-401c-b9f2-7586dff77353","system_id":"levelo_inurba_marseille","lat":43.28927,"lon":5.37794,"is_reserved":false,"is_disabled":false,"rental_uris":{"android":"levelo://app?vid=0198280f-05b0-401c-b9f2-7586dff77353","ios":"levelo://app?vid=0198280f-05b0-401c-b9f2-7586dff77353"},"vehicle_type_id":"4","last_reported":1761228669,"current_range_meters":12800,"station_id":"","pricing_plan_id":"cebpf4jnsgd1na2vs0mg"},{"bike_id":"2a22829e-2bd6-41ec-a3e5-ef826e7425d3","system_id":"levelo_inurba_marseille","lat":43.32059,"lon":5.36752,"is_reserved":false,"is_disabled":false,"rental_uris":{"android":"levelo://app?vid=2a22829e-2bd6-41ec-a3e5-ef826e7425d3","ios":"levelo://app?vid=2a22829e-2bd6-41ec-a3e5-ef826e7425d3"},"vehicle_type_id":"4","last_reported":1761228669,"current_range_meters":12800,"station_id":"ce4bhrh2rcd13ifvqhug","pricing_plan_id":"cebpf4jnsgd1na2vs0mg"},{"bike_id":"d819051f-2277-4d13-a29b-1adbd6fc934e","system_id":"levelo_inurba_marseille","lat":43.33015,"lon":5.39041,"is_reserved":false,"is_disabled":false,"rental_uris":{"android":"levelo://app?vid=d819051f-2277-4d13-a29b-1adbd6fc934e","ios":"levelo://app?vid=d819051f-2277-4d13-a29b-1adbd6fc934e"},"vehicle_type_id":"4","last_reported":1761228669,"current_range_meters":12800,"station_id":"ce4bhr92rcd13ifvqhrg","pricing_plan_id":"cebpf4jnsgd1na2vs0mg"},{"bike_id":"af662a64-50c8-4190-bea1-3d5b5df6a2e6","system_id":"levelo_inurba_marseille","lat":43.29954,"lon":5.41318,"is_reserved":false,"is_disabled":false,"rental_uris":{"android":"levelo://app?vid=af662a64-50c8-4190-bea1-3d5b5df6a2e6","ios":"levelo://app?vid=af662a64-50c8-4190-bea1-3d5b5df6a2e6"},"vehicle_type_id":"4","last_reported":1761228669,"current_range_meters":12800,"station_id":"ce4bhp12rcd13ifvqh9g","pricing_plan_id":"cebpf4jnsgd1na2vs0mg"},{"bike_id":"b232b932-111e-4ce6-a049-b134e3bd7cf3","system_id":"levelo_inurba_marseille","lat":43.32642,"lon":5.37481,"is_reserved":false,"is_disabled":false,"rental_uris":{"android":"levelo://app?vid=b232b932-111e-4ce6-a049-b134e3bd7cf3","ios":"levelo://app?vid=b232b932-111e-4ce6-a049-b134e3bd7cf3"},"vehicle_type_id":"4","last_reported":1761228669,"current_range_meters":12800,"station_id":"","pricing_plan_id":"cebpf4jnsgd1na2vs0mg"},{"bike_id":"0322ca22-3727-41b5-86cb-6682292c28c8","system_id":"levelo_inurba_marseille","lat":43.30512,"lon":5.36718,"is_reserved":false,"is_disabled":false,"rental_uris":{"android":"levelo://app?vid=0322ca22-3727-41b5-86cb-6682292c28c8","ios":"levelo://app?vid=0322ca22-3727-41b5-86cb-6682292c28c8"},"vehicle_type_id":"4","last_reported":1761228669,"current_range_meters":13600,"station_id":"ce4bgrp2rcd13ifvqc9g","pricing_plan_id":"cebpf4jnsgd1na2vs0mg"},{"bike_id":"4b1dc27e-158e-4387-ac73-0bce646bc1a6","system_id":"levelo_inurba_marseille","lat":43.30956,"lon":5.39041,"is_reserved":false,"is_disabled":false,"rental_uris":{"android":"levelo://app?vid=4b1dc27e-158e-4387-ac73-0bce646bc1a6","ios":"levelo://app?vid=4b1dc27e-158e-4387-ac73-0bce646bc1a6"},"vehicle_type_id":"4","last_reported":1761228669,"current_range_meters":13600,"station_id":"ce4bgup2rcd13ifvqco0","pricing_plan_id":"cebpf4jnsgd1na2vs0mg"},{"bike_id":"7617d1c5-c3b4-405e-b7a2-396b7582acd1","system_id":"levelo_inurba_marseille","lat":43.28938,"lon":5.36404,"is_reserved":false,"is_disabled":false,"rental_uris":{"android":"levelo://app?vid=7617d1c5-c3b4-405e-b7a2-396b7582acd1","ios":"levelo://app?vid=7617d1c5-c3b4-405e-b7a2-396b7582acd1"},"vehicle_type_id":"4","last_reported":1761228669,"current_range_meters":13600,"station_id":"ce4bhc92rcd13ifvqetg","pricing_plan_id":"cebpf4jnsgd1na2vs0mg"},{"bike_id":"bda3ed1a-3199-4eb8-8229-577855d09dbb","system_id":"levelo_inurba_marseille","lat":43.3163,"lon":5.37876,"is_reserved":false,"is_disabled":false,"rental_uris":{"android":"levelo://app?vid=bda3ed1a-3199-4eb8-8229-577855d09dbb","ios":"levelo://app?vid=bda3ed1a-3199-4eb8-8229-577855d09dbb"},"vehicle_type_id":"4","last_reported":1761228669,"current_range_meters":13600,"station_id":"","pricing_plan_id":"cebpf4jnsgd1na2vs0mg"},{"bike_id":"f30d474c-592d-470d-816b-bf7526dcf767","system_id":"levelo_inurba_marseille","lat":43.3082,"lon":5.38126,"is_reserved":false,"is_disabled":false,"rental_uris":{"android":"levelo://app?vid=f30d474c-592d-470d-816b-bf7526dcf767","ios":"levelo://app?vid=f30d474c-592d-470d-816b-bf7526dcf767"},"vehicle_type_id":"4","last_reported":1761228669,"current_range_meters":13600,"station_id":"ce4bgt12rcd13ifvqce0","pricing_plan_id":"cebpf4jnsgd1na2vs0mg"},{"bike_id":"323bf2de-3bb4-4b4c-b330-b19ea807dbf5","system_id":"levelo_inurba_marseille","lat":43.32997,"lon":5.42952,"is_reserved":false,"is_disabled":false,"rental_uris":{"android":"levelo://app?vid=323bf2de-3bb4-4b4c-b330-b19ea807dbf5","ios":"levelo://app?vid=323bf2de-3bb4-4b4c-b330-b19ea807dbf5"},"vehicle_type_id":"4","last_reported":1761228669,"current_range_meters":13600,"station_id":"","pricing_plan_id":"cebpf4jnsgd1na2vs0mg"},{"bike_id":"13ffca06-ecc4-46ee-aa82-6818647126c8","system_id":"levelo_inurba_marseille","lat":43.29899,"lon":5.43657,"is_reserved":false,"is_disabled":false,"rental_uris":{"android":"levelo://app?vid=13ffca06-ecc4-46ee-aa82-6818647126c8","ios":"levelo://app?vid=13ffca06-ecc4-46ee-aa82-6818647126c8"},"vehicle_type_id":"4","last_reported":1761228669,"current_range_meters":13600,"station_id":"ce4bhpp2rcd13ifvqhfg","pricing_plan_id":"cebpf4jnsgd1na2vs0mg"},{"bike_id":"67ba687f-aa08-473d-bbec-1d803763ef79","system_id":"levelo_inurba_marseille","lat":43.30188,"lon":5.37418,"is_reserved":false,"is_disabled":false,"rental_uris":{"android":"levelo://app?vid=67ba687f-aa08-473d-bbec-1d803763ef79","ios":"levelo://app?vid=67ba687f-aa08-473d-bbec-1d803763ef79"},"vehicle_type_id":"4","last_reported":1761228669,"current_range_meters":13600,"station_id":"","pricing_plan_id":"cebpf4jnsgd1na2vs0mg"},{"bike_id":"8408400b-d3c5-4b6c-a35e-62f3d01f19bb","system_id":"levelo_inurba_marseille","lat":43.30603,"lon":5.39365,"is_reserved":false,"is_disabled":false,"rental_uris":{"android":"levelo://app?vid=8408400b-d3c5-4b6c-a35e-62f3d01f19bb","ios":"levelo://app?vid=8408400b-d3c5-4b6c-a35e-62f3d01f19bb"},"vehicle_type_id":"4","last_reported":1761228669,"current_range_meters":14000,"station_id":"ce4bh0p2rcd13ifvqd80","pricing_plan_id":"cebpf4jnsgd1na2vs0mg"},{"bike_id":"0273047d-274b-41d2-8b80-b36357fc3e80","system_id":"levelo_inurba_marseille","lat":43.30883,"lon":5.37186,"is_reserved":false,"is_disabled":false,"rental_uris":{"android":"levelo://app?vid=0273047d-274b-41d2-8b80-b36357fc3e80","ios":"levelo://app?vid=0273047d-274b-41d2-8b80-b36357fc3e80"},"vehicle_type_id":"4","last_reported":1761228669,"current_range_meters":14000,"station_id":"ce4bguh2rcd13ifvqckg","pricing_plan_id":"cebpf4jnsgd1na2vs0mg"},{"bike_id":"12f3f073-c041-4658-a7f4-1022f577aab2","system_id":"levelo_inurba_marseille","lat":43.305406,"lon":5.367065,"is_reserved":false,"is_disabled":false,"rental_uris":{"android":"levelo://app?vid=12f3f073-c041-4658-a7f4-1022f577aab2","ios":"levelo://app?vid=12f3f073-c041-4658-a7f4-1022f577aab2"},"vehicle_type_id":"4","last_reported":1761228669,"current_range_meters":14400,"station_id":"ce4bh3h2rcd13ifvqdn0","pricing_plan_id":"cebpf4jnsgd1na2vs0mg"},{"bike_id":"ccab4340-2062-416a-a942-7048c2ef9e13","system_id":"levelo_inurba_marseille","lat":43.29713,"lon":5.37693,"is_reserved":false,"is_disabled":false,"rental_uris":{"android":"levelo://app?vid=ccab4340-2062-416a-a942-7048c2ef9e13","ios":"levelo://app?vid=ccab4340-2062-416a-a942-7048c2ef9e13"},"vehicle_type_id":"4","last_reported":1761228669,"current_range_meters":14400,"station_id":"ce4bgkh2rcd13ifvqbl0","pricing_plan_id":"cebpf4jnsgd1na2vs0mg"},{"bike_id":"6b37a1b8-5eb3-475e-b683-fd0eb1dbf02a","system_id":"levelo_inurba_marseille","lat":43.24808,"lon":5.37457,"is_reserved":false,"is_disabled":false,"rental_uris":{"android":"levelo://app?vid=6b37a1b8-5eb3-475e-b683-fd0eb1dbf02a","ios":"levelo://app?vid=6b37a1b8-5eb3-475e-b683-fd0eb1dbf02a"},"vehicle_type_id":"4","last_reported":1761228669,"current_range_meters":14400,"station_id":"ce4bhgh2rcd13ifvqfb0","pricing_plan_id":"cebpf4jnsgd1na2vs0mg"},{"bike_id":"463555eb-c8ba-468d-9691-693d43753470","system_id":"levelo_inurba_marseille","lat":43.30508,"lon":5.36716,"is_reserved":false,"is_disabled":false,"rental_uris":{"android":"levelo://app?vid=463555eb-c8ba-468d-9691-693d43753470","ios":"levelo://app?vid=463555eb-c8ba-468d-9691-693d43753470"},"vehicle_type_id":"4","last_reported":1761228669,"current_range_meters":14400,"station_id":"ce4bgrp2rcd13ifvqc9g","pricing_plan_id":"cebpf4jnsgd1na2vs0mg"},{"bike_id":"304f2ec7-1ddf-49bb-9b18-dedac26b37a4","system_id":"levelo_inurba_marseille","lat":43.29008,"lon":5.37273,"is_reserved":false,"is_disabled":false,"rental_uris":{"android":"levelo://app?vid=304f2ec7-1ddf-49bb-9b18-dedac26b37a4","ios":"levelo://app?vid=304f2ec7-1ddf-49bb-9b18-dedac26b37a4"},"vehicle_type_id":"4","last_reported":1761228669,"current_range_meters":14400,"station_id":"","pricing_plan_id":"cebpf4jnsgd1na2vs0mg"},{"bike_id":"3939a7e8-8947-4f2e-a2a9-33ef8c502989","system_id":"levelo_inurba_marseille","lat":43.24173,"lon":5.39722,"is_reserved":false,"is_disabled":false,"rental_uris":{"android":"levelo://app?vid=3939a7e8-8947-4f2e-a2a9-33ef8c502989","ios":"levelo://app?vid=3939a7e8-8947-4f2e-a2a9-33ef8c502989"},"vehicle_type_id":"4","last_reported":1761228669,"current_range_meters":14400,"station_id":"ce4bhn12rcd13ifvqgpg","pricing_plan_id":"cebpf4jnsgd1na2vs0mg"},{"bike_id":"24a11c21-7b10-418d-bff0-9d96ea02cfae","system_id":"levelo_inurba_marseille","lat":43.30737,"lon":5.37631,"is_reserved":false,"is_disabled":true,"rental_uris":{"android":"levelo://app?vid=24a11c21-7b10-418d-bff0-9d96ea02cfae","ios":"levelo://app?vid=24a11c21-7b10-418d-bff0-9d96ea02cfae"},"vehicle_type_id":"4","last_reported":1761228669,"current_range_meters":14800,"station_id":"","pricing_plan_id":"cebpf4jnsgd1na2vs0mg"},{"bike_id":"225384d8-9f2c-4119-8e8e-818041fe5526","system_id":"levelo_inurba_marseille","lat":43.3054,"lon":5.38427,"is_reserved":false,"is_disabled":false,"rental_uris":{"android":"levelo://app?vid=225384d8-9f2c-4119-8e8e-818041fe5526","ios":"levelo://app?vid=225384d8-9f2c-4119-8e8e-818041fe5526"},"vehicle_type_id":"4","last_reported":1761228669,"current_range_meters":14800,"station_id":"ce4bgg92rcd13ifvqb30","pricing_plan_id":"cebpf4jnsgd1na2vs0mg"},{"bike_id":"b284a5b8-145b-4b18-970a-f541b5c0ebef","system_id":"levelo_inurba_marseille","lat":43.285528,"lon":5.394285,"is_reserved":false,"is_disabled":false,"rental_uris":{"android":"levelo://app?vid=b284a5b8-145b-4b18-970a-f541b5c0ebef","ios":"levelo://app?vid=b284a5b8-145b-4b18-970a-f541b5c0ebef"},"vehicle_type_id":"4","last_reported":1761228669,"current_range_meters":14800,"station_id":"","pricing_plan_id":"cebpf4jnsgd1na2vs0mg"},{"bike_id":"e769906a-6115-425c-84a0-aab1fda48d3f","system_id":"levelo_inurba_marseille","lat":43.296528,"lon":5.375929,"is_reserved":false,"is_disabled":false,"rental_uris":{"android":"levelo://app?vid=e769906a-6115-425c-84a0-aab1fda48d3f","ios":"levelo://app?vid=e769906a-6115-425c-84a0-aab1fda48d3f"},"vehicle_type_id":"4","last_reported":1761228669,"current_range_meters":15200,"station_id":"","pricing_plan_id":"cebpf4jnsgd1na2vs0mg"},{"bike_id":"8bcacd78-80de-4026-af75-b37ebe3030fe","system_id":"levelo_inurba_marseille","lat":43.334756,"lon":5.404255,"is_reserved":false,"is_disabled":false,"rental_uris":{"android":"levelo://app?vid=8bcacd78-80de-4026-af75-b37ebe3030fe","ios":"levelo://app?vid=8bcacd78-80de-4026-af75-b37ebe3030fe"},"vehicle_type_id":"4","last_reported":1761228669,"current_range_meters":15200,"station_id":"","pricing_plan_id":"cebpf4jnsgd1na2vs0mg"},{"bike_id":"01a72363-4a35-4265-8beb-4581175c49e3","system_id":"levelo_inurba_marseille","lat":43.25087,"lon":5.39527,"is_reserved":false,"is_disabled":false,"rental_uris":{"android":"levelo://app?vid=01a72363-4a35-4265-8beb-4581175c49e3","ios":"levelo://app?vid=01a72363-4a35-4265-8beb-4581175c49e3"},"vehicle_type_id":"4","last_reported":1761228669,"current_range_meters":15200,"station_id":"ce4bhm12rcd13ifvqgkg","pricing_plan_id":"cebpf4jnsgd1na2vs0mg"},{"bike_id":"a9fc493e-11e2-462a-9e9c-de44957d78d7","system_id":"levelo_inurba_marseille","lat":43.24951,"lon":5.40486,"is_reserved":false,"is_disabled":false,"rental_uris":{"android":"levelo://app?vid=a9fc493e-11e2-462a-9e9c-de44957d78d7","ios":"levelo://app?vid=a9fc493e-11e2-462a-9e9c-de44957d78d7"},"vehicle_type_id":"4","last_reported":1761228669,"current_range_meters":15200,"station_id":"st_d2ngiaodas8pm72gd1h0","pricing_plan_id":"cebpf4jnsgd1na2vs0mg"},{"bike_id":"bd941049-cdac-4ee9-ab4c-094fc31324a0","system_id":"levelo_inurba_marseille","lat":43.2742,"lon":5.3941,"is_reserved":false,"is_disabled":false,"rental_uris":{"android":"levelo://app?vid=bd941049-cdac-4ee9-ab4c-094fc31324a0","ios":"levelo://app?vid=bd941049-cdac-4ee9-ab4c-094fc31324a0"},"vehicle_type_id":"4","last_reported":1761228669,"current_range_meters":15200,"station_id":"ce4bhdp2rcd13ifvqf20","pricing_plan_id":"cebpf4jnsgd1na2vs0mg"},{"bike_id":"f9044b2e-038f-411e-85d2-8480b38b7817","system_id":"levelo_inurba_marseille","lat":43.29551,"lon":5.42298,"is_reserved":false,"is_disabled":false,"rental_uris":{"android":"levelo://app?vid=f9044b2e-038f-411e-85d2-8480b38b7817","ios":"levelo://app?vid=f9044b2e-038f-411e-85d2-8480b38b7817"},"vehicle_type_id":"4","last_reported":1761228669,"current_range_meters":15200,"station_id":"ce4bhph2rcd13ifvqhdg","pricing_plan_id":"cebpf4jnsgd1na2vs0mg"},{"bike_id":"f18a3c2b-069a-4cb8-9f85-4f5dbf40ac46","system_id":"levelo_inurba_marseille","lat":43.308838,"lon":5.391476,"is_reserved":false,"is_disabled":false,"rental_uris":{"android":"levelo://app?vid=f18a3c2b-069a-4cb8-9f85-4f5dbf40ac46","ios":"levelo://app?vid=f18a3c2b-069a-4cb8-9f85-4f5dbf40ac46"},"vehicle_type_id":"4","last_reported":1761228669,"current_range_meters":16000,"station_id":"ce4bgup2rcd13ifvqco0","pricing_plan_id":"cebpf4jnsgd1na2vs0mg"},{"bike_id":"88777a3d-d621-453d-ab07-bde027ec27a0","system_id":"levelo_inurba_marseille","lat":43.30927,"lon":5.40137,"is_reserved":false,"is_disabled":false,"rental_uris":{"android":"levelo://app?vid=88777a3d-d621-453d-ab07-bde027ec27a0","ios":"levelo://app?vid=88777a3d-d621-453d-ab07-bde027ec27a0"},"vehicle_type_id":"4","last_reported":1761228669,"current_range_meters":16000,"station_id":"ce4bgvp2rcd13ifvqct0","pricing_plan_id":"cebpf4jnsgd1na2vs0mg"},{"bike_id":"b9764ed2-f91a-421e-b54e-d7527bd8af22","system_id":"levelo_inurba_marseille","lat":43.29811,"lon":5.36588,"is_reserved":false,"is_disabled":false,"rental_uris":{"android":"levelo://app?vid=b9764ed2-f91a-421e-b54e-d7527bd8af22","ios":"levelo://app?vid=b9764ed2-f91a-421e-b54e-d7527bd8af22"},"vehicle_type_id":"4","last_reported":1761228669,"current_range_meters":16000,"station_id":"","pricing_plan_id":"cebpf4jnsgd1na2vs0mg"},{"bike_id":"ab142d5b-a631-4b39-9d0a-6a841897b389","system_id":"levelo_inurba_marseille","lat":43.26782,"lon":5.39425,"is_reserved":false,"is_disabled":false,"rental_uris":{"android":"levelo://app?vid=ab142d5b-a631-4b39-9d0a-6a841897b389","ios":"levelo://app?vid=ab142d5b-a631-4b39-9d0a-6a841897b389"},"vehicle_type_id":"4","last_reported":1761228669,"current_range_meters":16400,"station_id":"ce4bhh12rcd13ifvqfg0","pricing_plan_id":"cebpf4jnsgd1na2vs0mg"},{"bike_id":"c4c10898-9332-4b24-b591-d67705b32320","system_id":"levelo_inurba_marseille","lat":43.26491,"lon":5.39553,"is_reserved":false,"is_disabled":false,"rental_uris":{"android":"levelo://app?vid=c4c10898-9332-4b24-b591-d67705b32320","ios":"levelo://app?vid=c4c10898-9332-4b24-b591-d67705b32320"},"vehicle_type_id":"4","last_reported":1761228669,"current_range_meters":16400,"station_id":"ce4bhi12rcd13ifvqfq0","pricing_plan_id":"cebpf4jnsgd1na2vs0mg"},{"bike_id":"b4e2875b-25b8-4267-9bc2-ba9894cf86b0","system_id":"levelo_inurba_marseille","lat":43.28201,"lon":5.39047,"is_reserved":false,"is_disabled":false,"rental_uris":{"android":"levelo://app?vid=b4e2875b-25b8-4267-9bc2-ba9894cf86b0","ios":"levelo://app?vid=b4e2875b-25b8-4267-9bc2-ba9894cf86b0"},"vehicle_type_id":"4","last_reported":1761228669,"current_range_meters":16400,"station_id":"ce4bhn92rcd13ifvqgsg","pricing_plan_id":"cebpf4jnsgd1na2vs0mg"},{"bike_id":"a68a710e-50a9-4c86-b346-9ac86f174983","system_id":"levelo_inurba_marseille","lat":43.30296,"lon":5.37703,"is_reserved":false,"is_disabled":false,"rental_uris":{"android":"levelo://app?vid=a68a710e-50a9-4c86-b346-9ac86f174983","ios":"levelo://app?vid=a68a710e-50a9-4c86-b346-9ac86f174983"},"vehicle_type_id":"4","last_reported":1761228669,"current_range_meters":16400,"station_id":"ce4bguh2rcd13ifvqcj0","pricing_plan_id":"cebpf4jnsgd1na2vs0mg"},{"bike_id":"7877ff7b-2c57-444b-afd5-738313840c1f","system_id":"levelo_inurba_marseille","lat":43.30122,"lon":5.37426,"is_reserved":false,"is_disabled":false,"rental_uris":{"android":"levelo://app?vid=7877ff7b-2c57-444b-afd5-738313840c1f","ios":"levelo://app?vid=7877ff7b-2c57-444b-afd5-738313840c1f"},"vehicle_type_id":"4","last_reported":1761228669,"current_range_meters":16400,"station_id":"ce4bgs92rcd13ifvqcc0","pricing_plan_id":"cebpf4jnsgd1na2vs0mg"},{"bike_id":"52c8ff87-f1d4-4a2d-aaab-a6fa5ba72454","system_id":"levelo_inurba_marseille","lat":43.30734,"lon":5.42444,"is_reserved":false,"is_disabled":false,"rental_uris":{"android":"levelo://app?vid=52c8ff87-f1d4-4a2d-aaab-a6fa5ba72454","ios":"levelo://app?vid=52c8ff87-f1d4-4a2d-aaab-a6fa5ba72454"},"vehicle_type_id":"4","last_reported":1761228669,"current_range_meters":16400,"station_id":"st_cvj6ca6bvosntc0bfgr0","pricing_plan_id":"cebpf4jnsgd1na2vs0mg"},{"bike_id":"3c473905-25d9-4b81-b6e9-f094d3554e55","system_id":"levelo_inurba_marseille","lat":43.229297,"lon":5.353792,"is_reserved":false,"is_disabled":false,"rental_uris":{"android":"levelo://app?vid=3c473905-25d9-4b81-b6e9-f094d3554e55","ios":"levelo://app?vid=3c473905-25d9-4b81-b6e9-f094d3554e55"},"vehicle_type_id":"4","last_reported":1761228669,"current_range_meters":16400,"station_id":"cpo3532slgdg3j2ikp40","pricing_plan_id":"cebpf4jnsgd1na2vs0mg"},{"bike_id":"96939117-35ce-41f0-9af0-fcff4726b36a","system_id":"levelo_inurba_marseille","lat":43.3037,"lon":5.42484,"is_reserved":false,"is_disabled":false,"rental_uris":{"android":"levelo://app?vid=96939117-35ce-41f0-9af0-fcff4726b36a","ios":"levelo://app?vid=96939117-35ce-41f0-9af0-fcff4726b36a"},"vehicle_type_id":"4","last_reported":1761228669,"current_range_meters":16800,"station_id":"ce4bhoh2rcd13ifvqh6g","pricing_plan_id":"cebpf4jnsgd1na2vs0mg"},{"bike_id":"2172ef7f-240b-4c72-bf8d-26c79cc1f73d","system_id":"levelo_inurba_marseille","lat":43.299017,"lon":5.436693,"is_reserved":false,"is_disabled":false,"rental_uris":{"android":"levelo://app?vid=2172ef7f-240b-4c72-bf8d-26c79cc1f73d","ios":"levelo://app?vid=2172ef7f-240b-4c72-bf8d-26c79cc1f73d"},"vehicle_type_id":"4","last_reported":1761228669,"current_range_meters":16800,"station_id":"ce4bhpp2rcd13ifvqhfg","pricing_plan_id":"cebpf4jnsgd1na2vs0mg"},{"bike_id":"3e4783b6-28d8-4737-a4ef-6a1b0da02476","system_id":"levelo_inurba_marseille","lat":43.29441,"lon":5.40732,"is_reserved":false,"is_disabled":false,"rental_uris":{"android":"levelo://app?vid=3e4783b6-28d8-4737-a4ef-6a1b0da02476","ios":"levelo://app?vid=3e4783b6-28d8-4737-a4ef-6a1b0da02476"},"vehicle_type_id":"4","last_reported":1761228669,"current_range_meters":16800,"station_id":"","pricing_plan_id":"cebpf4jnsgd1na2vs0mg"},{"bike_id":"ba92a884-3d7f-4d84-88bf-8b913fa36694","system_id":"levelo_inurba_marseille","lat":43.29972,"lon":5.38491,"is_reserved":false,"is_disabled":false,"rental_uris":{"android":"levelo://app?vid=ba92a884-3d7f-4d84-88bf-8b913fa36694","ios":"levelo://app?vid=ba92a884-3d7f-4d84-88bf-8b913fa36694"},"vehicle_type_id":"4","last_reported":1761228669,"current_range_meters":16800,"station_id":"ce4bgj92rcd13ifvqbd0","pricing_plan_id":"cebpf4jnsgd1na2vs0mg"},{"bike_id":"a5e10cb3-d280-4b4c-8176-279276f1fb2a","system_id":"levelo_inurba_marseille","lat":43.251102,"lon":5.403258,"is_reserved":false,"is_disabled":false,"rental_uris":{"android":"levelo://app?vid=a5e10cb3-d280-4b4c-8176-279276f1fb2a","ios":"levelo://app?vid=a5e10cb3-d280-4b4c-8176-279276f1fb2a"},"vehicle_type_id":"4","last_reported":1761228669,"current_range_meters":16800,"station_id":"ce4bhlh2rcd13ifvqgig","pricing_plan_id":"cebpf4jnsgd1na2vs0mg"},{"bike_id":"ed2708ba-20af-4b27-885b-16390dc80e43","system_id":"levelo_inurba_marseille","lat":43.2767,"lon":5.38868,"is_reserved":false,"is_disabled":false,"rental_uris":{"android":"levelo://app?vid=ed2708ba-20af-4b27-885b-16390dc80e43","ios":"levelo://app?vid=ed2708ba-20af-4b27-885b-16390dc80e43"},"vehicle_type_id":"4","last_reported":1761228669,"current_range_meters":16800,"station_id":"ce4bhi12rcd13ifvqfo0","pricing_plan_id":"cebpf4jnsgd1na2vs0mg"},{"bike_id":"bee9ad2f-aaea-4607-9ffa-be6bd0213b89","system_id":"levelo_inurba_marseille","lat":43.33711,"lon":5.39198,"is_reserved":false,"is_disabled":false,"rental_uris":{"android":"levelo://app?vid=bee9ad2f-aaea-4607-9ffa-be6bd0213b89","ios":"levelo://app?vid=bee9ad2f-aaea-4607-9ffa-be6bd0213b89"},"vehicle_type_id":"4","last_reported":1761228669,"current_range_meters":16800,"station_id":"ce4bhr92rcd13ifvqhsg","pricing_plan_id":"cebpf4jnsgd1na2vs0mg"},{"bike_id":"ff3fcf70-c183-4046-b310-5c316a40bd51","system_id":"levelo_inurba_marseille","lat":43.30741,"lon":5.424405,"is_reserved":false,"is_disabled":false,"rental_uris":{"android":"levelo://app?vid=ff3fcf70-c183-4046-b310-5c316a40bd51","ios":"levelo://app?vid=ff3fcf70-c183-4046-b310-5c316a40bd51"},"vehicle_type_id":"4","last_reported":1761228669,"current_range_meters":16800,"station_id":"st_cvj6ca6bvosntc0bfgr0","pricing_plan_id":"cebpf4jnsgd1na2vs0mg"},{"bike_id":"edb95b7b-4a2d-4e6f-84c8-fcecc9027905","system_id":"levelo_inurba_marseille","lat":43.27208,"lon":5.39184,"is_reserved":false,"is_disabled":false,"rental_uris":{"android":"levelo://app?vid=edb95b7b-4a2d-4e6f-84c8-fcecc9027905","ios":"levelo://app?vid=edb95b7b-4a2d-4e6f-84c8-fcecc9027905"},"vehicle_type_id":"4","last_reported":1761228669,"current_range_meters":16800,"station_id":"ce4bhhp2rcd13ifvqfm0","pricing_plan_id":"cebpf4jnsgd1na2vs0mg"},{"bike_id":"cc2847a4-ee79-48ce-a865-c436ced7b968","system_id":"levelo_inurba_marseille","lat":43.251059,"lon":5.403321,"is_reserved":false,"is_disabled":false,"rental_uris":{"android":"levelo://app?vid=cc2847a4-ee79-48ce-a865-c436ced7b968","ios":"levelo://app?vid=cc2847a4-ee79-48ce-a865-c436ced7b968"},"vehicle_type_id":"4","last_reported":1761228669,"current_range_meters":17200,"station_id":"ce4bhlh2rcd13ifvqgig","pricing_plan_id":"cebpf4jnsgd1na2vs0mg"},{"bike_id":"e986eb56-ca00-4dbf-ada0-578bc3d8f529","system_id":"levelo_inurba_marseille","lat":43.27344,"lon":5.41492,"is_reserved":false,"is_disabled":false,"rental_uris":{"android":"levelo://app?vid=e986eb56-ca00-4dbf-ada0-578bc3d8f529","ios":"levelo://app?vid=e986eb56-ca00-4dbf-ada0-578bc3d8f529"},"vehicle_type_id":"4","last_reported":1761228669,"current_range_meters":17200,"station_id":"","pricing_plan_id":"cebpf4jnsgd1na2vs0mg"},{"bike_id":"2bfc3ff7-8602-463e-9387-a6b2eb8e1256","system_id":"levelo_inurba_marseille","lat":43.28405,"lon":5.3498,"is_reserved":false,"is_disabled":false,"rental_uris":{"android":"levelo://app?vid=2bfc3ff7-8602-463e-9387-a6b2eb8e1256","ios":"levelo://app?vid=2bfc3ff7-8602-463e-9387-a6b2eb8e1256"},"vehicle_type_id":"4","last_reported":1761228669,"current_range_meters":17200,"station_id":"ce4bhbh2rcd13ifvqepg","pricing_plan_id":"cebpf4jnsgd1na2vs0mg"},{"bike_id":"d0e2d761-7c9e-4216-8b0f-70aef6607fe1","system_id":"levelo_inurba_marseille","lat":43.23964,"lon":5.36632,"is_reserved":false,"is_disabled":false,"rental_uris":{"android":"levelo://app?vid=d0e2d761-7c9e-4216-8b0f-70aef6607fe1","ios":"levelo://app?vid=d0e2d761-7c9e-4216-8b0f-70aef6607fe1"},"vehicle_type_id":"4","last_reported":1761228669,"current_range_meters":17200,"station_id":"ce4bhi12rcd13ifvqfp0","pricing_plan_id":"cebpf4jnsgd1na2vs0mg"},{"bike_id":"700ba852-502b-4548-93e2-c530c2b9889c","system_id":"levelo_inurba_marseille","lat":43.30541,"lon":5.36518,"is_reserved":false,"is_disabled":false,"rental_uris":{"android":"levelo://app?vid=700ba852-502b-4548-93e2-c530c2b9889c","ios":"levelo://app?vid=700ba852-502b-4548-93e2-c530c2b9889c"},"vehicle_type_id":"4","last_reported":1761228669,"current_range_meters":17200,"station_id":"ce4bgs12rcd13ifvqcag","pricing_plan_id":"cebpf4jnsgd1na2vs0mg"},{"bike_id":"9ae5d977-a6f2-4cfe-b2fa-f8a95af9fe0d","system_id":"levelo_inurba_marseille","lat":43.30949,"lon":5.39042,"is_reserved":false,"is_disabled":false,"rental_uris":{"android":"levelo://app?vid=9ae5d977-a6f2-4cfe-b2fa-f8a95af9fe0d","ios":"levelo://app?vid=9ae5d977-a6f2-4cfe-b2fa-f8a95af9fe0d"},"vehicle_type_id":"4","last_reported":1761228669,"current_range_meters":17200,"station_id":"","pricing_plan_id":"cebpf4jnsgd1na2vs0mg"},{"bike_id":"f8ed5907-138c-40de-b2c5-4b1ca0e5626c","system_id":"levelo_inurba_marseille","lat":43.33056,"lon":5.3765,"is_reserved":false,"is_disabled":false,"rental_uris":{"android":"levelo://app?vid=f8ed5907-138c-40de-b2c5-4b1ca0e5626c","ios":"levelo://app?vid=f8ed5907-138c-40de-b2c5-4b1ca0e5626c"},"vehicle_type_id":"4","last_reported":1761228669,"current_range_meters":17200,"station_id":"","pricing_plan_id":"cebpf4jnsgd1na2vs0mg"},{"bike_id":"d9ecb998-ceaa-4a39-8aba-9f0e44069447","system_id":"levelo_inurba_marseille","lat":43.32147,"lon":5.38731,"is_reserved":false,"is_disabled":false,"rental_uris":{"android":"levelo://app?vid=d9ecb998-ceaa-4a39-8aba-9f0e44069447","ios":"levelo://app?vid=d9ecb998-ceaa-4a39-8aba-9f0e44069447"},"vehicle_type_id":"4","last_reported":1761228669,"current_range_meters":17200,"station_id":"","pricing_plan_id":"cebpf4jnsgd1na2vs0mg"},{"bike_id":"b21b6ff6-0929-4acd-a3b0-3f248e63c66d","system_id":"levelo_inurba_marseille","lat":43.32112,"lon":5.36809,"is_reserved":false,"is_disabled":false,"rental_uris":{"android":"levelo://app?vid=b21b6ff6-0929-4acd-a3b0-3f248e63c66d","ios":"levelo://app?vid=b21b6ff6-0929-4acd-a3b0-3f248e63c66d"},"vehicle_type_id":"4","last_reported":1761228669,"current_range_meters":17600,"station_id":"ce4bhrh2rcd13ifvqhug","pricing_plan_id":"cebpf4jnsgd1na2vs0mg"},{"bike_id":"6250ac27-ee37-41d1-bc0f-a615c7912f4a","system_id":"levelo_inurba_marseille","lat":43.32367,"lon":5.36755,"is_reserved":false,"is_disabled":false,"rental_uris":{"android":"levelo://app?vid=6250ac27-ee37-41d1-bc0f-a615c7912f4a","ios":"levelo://app?vid=6250ac27-ee37-41d1-bc0f-a615c7912f4a"},"vehicle_type_id":"4","last_reported":1761228669,"current_range_meters":17600,"station_id":"ce4bhsh2rcd13ifvqi2g","pricing_plan_id":"cebpf4jnsgd1na2vs0mg"},{"bike_id":"6552118e-9997-496d-8ae3-3aae82824535","system_id":"levelo_inurba_marseille","lat":43.32246,"lon":5.38357,"is_reserved":false,"is_disabled":false,"rental_uris":{"android":"levelo://app?vid=6552118e-9997-496d-8ae3-3aae82824535","ios":"levelo://app?vid=6552118e-9997-496d-8ae3-3aae82824535"},"vehicle_type_id":"4","last_reported":1761228669,"current_range_meters":17600,"station_id":"","pricing_plan_id":"cebpf4jnsgd1na2vs0mg"},{"bike_id":"4356cb5b-05fc-4e66-9346-55b040d78f54","system_id":"levelo_inurba_marseille","lat":43.295694,"lon":5.399748,"is_reserved":false,"is_disabled":false,"rental_uris":{"android":"levelo://app?vid=4356cb5b-05fc-4e66-9346-55b040d78f54","ios":"levelo://app?vid=4356cb5b-05fc-4e66-9346-55b040d78f54"},"vehicle_type_id":"4","last_reported":1761228669,"current_range_meters":17600,"station_id":"ce4bh312rcd13ifvqdj0","pricing_plan_id":"cebpf4jnsgd1na2vs0mg"},{"bike_id":"2e516aa3-da3f-4cd4-8d7a-1dc8bf5d8ddd","system_id":"levelo_inurba_marseille","lat":43.32101,"lon":5.36775,"is_reserved":false,"is_disabled":false,"rental_uris":{"android":"levelo://app?vid=2e516aa3-da3f-4cd4-8d7a-1dc8bf5d8ddd","ios":"levelo://app?vid=2e516aa3-da3f-4cd4-8d7a-1dc8bf5d8ddd"},"vehicle_type_id":"4","last_reported":1761228669,"current_range_meters":17600,"station_id":"ce4bhrh2rcd13ifvqhug","pricing_plan_id":"cebpf4jnsgd1na2vs0mg"},{"bike_id":"c12a786b-d447-4373-876a-58fc20f19148","system_id":"levelo_inurba_marseille","lat":43.29889,"lon":5.43666,"is_reserved":false,"is_disabled":false,"rental_uris":{"android":"levelo://app?vid=c12a786b-d447-4373-876a-58fc20f19148","ios":"levelo://app?vid=c12a786b-d447-4373-876a-58fc20f19148"},"vehicle_type_id":"4","last_reported":1761228669,"current_range_meters":17600,"station_id":"ce4bhpp2rcd13ifvqhfg","pricing_plan_id":"cebpf4jnsgd1na2vs0mg"},{"bike_id":"0ca4accf-5b60-48ec-9e18-5ccbe0003b41","system_id":"levelo_inurba_marseille","lat":43.29038,"lon":5.39965,"is_reserved":false,"is_disabled":false,"rental_uris":{"android":"levelo://app?vid=0ca4accf-5b60-48ec-9e18-5ccbe0003b41","ios":"levelo://app?vid=0ca4accf-5b60-48ec-9e18-5ccbe0003b41"},"vehicle_type_id":"4","last_reported":1761228669,"current_range_meters":17600,"station_id":"ce4bh392rcd13ifvqdm0","pricing_plan_id":"cebpf4jnsgd1na2vs0mg"},{"bike_id":"b6c79639-c191-40a2-bf39-9167f7b4b7d8","system_id":"levelo_inurba_marseille","lat":43.30931,"lon":5.40136,"is_reserved":false,"is_disabled":false,"rental_uris":{"android":"levelo://app?vid=b6c79639-c191-40a2-bf39-9167f7b4b7d8","ios":"levelo://app?vid=b6c79639-c191-40a2-bf39-9167f7b4b7d8"},"vehicle_type_id":"4","last_reported":1761228669,"current_range_meters":17600,"station_id":"ce4bgvp2rcd13ifvqct0","pricing_plan_id":"cebpf4jnsgd1na2vs0mg"},{"bike_id":"b5cbee6e-024a-4e35-b20c-bff433fca7cc","system_id":"levelo_inurba_marseille","lat":43.22565,"lon":5.41638,"is_reserved":false,"is_disabled":false,"rental_uris":{"android":"levelo://app?vid=b5cbee6e-024a-4e35-b20c-bff433fca7cc","ios":"levelo://app?vid=b5cbee6e-024a-4e35-b20c-bff433fca7cc"},"vehicle_type_id":"4","last_reported":1761228669,"current_range_meters":18000,"station_id":"st_d2o4gvlbi1j2169b742g","pricing_plan_id":"cebpf4jnsgd1na2vs0mg"},{"bike_id":"5db0d44d-18b4-422a-9766-a3218057e91c","system_id":"levelo_inurba_marseille","lat":43.22936,"lon":5.35389,"is_reserved":false,"is_disabled":false,"rental_uris":{"android":"levelo://app?vid=5db0d44d-18b4-422a-9766-a3218057e91c","ios":"levelo://app?vid=5db0d44d-18b4-422a-9766-a3218057e91c"},"vehicle_type_id":"4","last_reported":1761228669,"current_range_meters":18000,"station_id":"cpo3532slgdg3j2ikp40","pricing_plan_id":"cebpf4jnsgd1na2vs0mg"},{"bike_id":"82a6ac02-8c08-4f93-844a-981cd0f715d0","system_id":"levelo_inurba_marseille","lat":43.25509,"lon":5.37653,"is_reserved":false,"is_disabled":false,"rental_uris":{"android":"levelo://app?vid=82a6ac02-8c08-4f93-844a-981cd0f715d0","ios":"levelo://app?vid=82a6ac02-8c08-4f93-844a-981cd0f715d0"},"vehicle_type_id":"4","last_reported":1761228669,"current_range_meters":18000,"station_id":"ce4bhh12rcd13ifvqff0","pricing_plan_id":"cebpf4jnsgd1na2vs0mg"},{"bike_id":"27d2104d-1b8f-4689-8074-7a744a934c06","system_id":"levelo_inurba_marseille","lat":43.24172,"lon":5.39729,"is_reserved":false,"is_disabled":false,"rental_uris":{"android":"levelo://app?vid=27d2104d-1b8f-4689-8074-7a744a934c06","ios":"levelo://app?vid=27d2104d-1b8f-4689-8074-7a744a934c06"},"vehicle_type_id":"4","last_reported":1761228669,"current_range_meters":18000,"station_id":"ce4bhn12rcd13ifvqgpg","pricing_plan_id":"cebpf4jnsgd1na2vs0mg"},{"bike_id":"f9a20508-ecb9-4ce4-869d-dbc24c75b88d","system_id":"levelo_inurba_marseille","lat":43.31331,"lon":5.39692,"is_reserved":false,"is_disabled":false,"rental_uris":{"android":"levelo://app?vid=f9a20508-ecb9-4ce4-869d-dbc24c75b88d","ios":"levelo://app?vid=f9a20508-ecb9-4ce4-869d-dbc24c75b88d"},"vehicle_type_id":"4","last_reported":1761228669,"current_range_meters":18000,"station_id":"ce4bgvp2rcd13ifvqcu0","pricing_plan_id":"cebpf4jnsgd1na2vs0mg"},{"bike_id":"2206030e-88dd-46b6-b0e8-178afd193453","system_id":"levelo_inurba_marseille","lat":43.30797,"lon":5.38148,"is_reserved":false,"is_disabled":false,"rental_uris":{"android":"levelo://app?vid=2206030e-88dd-46b6-b0e8-178afd193453","ios":"levelo://app?vid=2206030e-88dd-46b6-b0e8-178afd193453"},"vehicle_type_id":"4","last_reported":1761228669,"current_range_meters":18000,"station_id":"ce4bgt12rcd13ifvqce0","pricing_plan_id":"cebpf4jnsgd1na2vs0mg"},{"bike_id":"b8c24935-2e52-446b-8b50-d712ff9addec","system_id":"levelo_inurba_marseille","lat":43.28351,"lon":5.38108,"is_reserved":false,"is_disabled":false,"rental_uris":{"android":"levelo://app?vid=b8c24935-2e52-446b-8b50-d712ff9addec","ios":"levelo://app?vid=b8c24935-2e52-446b-8b50-d712ff9addec"},"vehicle_type_id":"4","last_reported":1761228669,"current_range_meters":18000,"station_id":"ce4bh412rcd13ifvqdr0","pricing_plan_id":"cebpf4jnsgd1na2vs0mg"},{"bike_id":"21fe0c7e-81cc-409a-afc7-a770f99a45ba","system_id":"levelo_inurba_marseille","lat":43.297964,"lon":5.40401,"is_reserved":false,"is_disabled":false,"rental_uris":{"android":"levelo://app?vid=21fe0c7e-81cc-409a-afc7-a770f99a45ba","ios":"levelo://app?vid=21fe0c7e-81cc-409a-afc7-a770f99a45ba"},"vehicle_type_id":"4","last_reported":1761228669,"current_range_meters":18000,"station_id":"ce4bh112rcd13ifvqd90","pricing_plan_id":"cebpf4jnsgd1na2vs0mg"},{"bike_id":"f1389830-88b7-4b60-9a51-b19d4aec479f","system_id":"levelo_inurba_marseille","lat":43.28537,"lon":5.44096,"is_reserved":false,"is_disabled":false,"rental_uris":{"android":"levelo://app?vid=f1389830-88b7-4b60-9a51-b19d4aec479f","ios":"levelo://app?vid=f1389830-88b7-4b60-9a51-b19d4aec479f"},"vehicle_type_id":"4","last_reported":1761228669,"current_range_meters":18800,"station_id":"st_d3j3df2ikq2c7380ej80","pricing_plan_id":"cebpf4jnsgd1na2vs0mg"},{"bike_id":"f8c755d7-1bb8-4fcd-bb3f-74aeb49951cc","system_id":"levelo_inurba_marseille","lat":43.31369,"lon":5.37899,"is_reserved":false,"is_disabled":false,"rental_uris":{"android":"levelo://app?vid=f8c755d7-1bb8-4fcd-bb3f-74aeb49951cc","ios":"levelo://app?vid=f8c755d7-1bb8-4fcd-bb3f-74aeb49951cc"},"vehicle_type_id":"4","last_reported":1761228669,"current_range_meters":18800,"station_id":"","pricing_plan_id":"cebpf4jnsgd1na2vs0mg"},{"bike_id":"75552eb5-38a2-43ca-9291-cacb859b6f73","system_id":"levelo_inurba_marseille","lat":43.284215,"lon":5.349847,"is_reserved":false,"is_disabled":false,"rental_uris":{"android":"levelo://app?vid=75552eb5-38a2-43ca-9291-cacb859b6f73","ios":"levelo://app?vid=75552eb5-38a2-43ca-9291-cacb859b6f73"},"vehicle_type_id":"4","last_reported":1761228669,"current_range_meters":18800,"station_id":"","pricing_plan_id":"cebpf4jnsgd1na2vs0mg"},{"bike_id":"a32c67dc-e83a-41ac-996f-c4c734971699","system_id":"levelo_inurba_marseille","lat":43.23789,"lon":5.36631,"is_reserved":false,"is_disabled":false,"rental_uris":{"android":"levelo://app?vid=a32c67dc-e83a-41ac-996f-c4c734971699","ios":"levelo://app?vid=a32c67dc-e83a-41ac-996f-c4c734971699"},"vehicle_type_id":"4","last_reported":1761228669,"current_range_meters":18800,"station_id":"st_d3nk18o9ro0c73en2l3g","pricing_plan_id":"cebpf4jnsgd1na2vs0mg"},{"bike_id":"7e3f0c29-c7cf-4648-8c63-90f647962dab","system_id":"levelo_inurba_marseille","lat":43.29891,"lon":5.43667,"is_reserved":false,"is_disabled":false,"rental_uris":{"android":"levelo://app?vid=7e3f0c29-c7cf-4648-8c63-90f647962dab","ios":"levelo://app?vid=7e3f0c29-c7cf-4648-8c63-90f647962dab"},"vehicle_type_id":"4","last_reported":1761228669,"current_range_meters":18800,"station_id":"ce4bhpp2rcd13ifvqhfg","pricing_plan_id":"cebpf4jnsgd1na2vs0mg"},{"bike_id":"0c216ec5-2d75-4ee4-a223-b0d23bee74b5","system_id":"levelo_inurba_marseille","lat":43.24644,"lon":5.38895,"is_reserved":false,"is_disabled":false,"rental_uris":{"android":"levelo://app?vid=0c216ec5-2d75-4ee4-a223-b0d23bee74b5","ios":"levelo://app?vid=0c216ec5-2d75-4ee4-a223-b0d23bee74b5"},"vehicle_type_id":"4","last_reported":1761228669,"current_range_meters":18800,"station_id":"ce4bhg12rcd13ifvqf60","pricing_plan_id":"cebpf4jnsgd1na2vs0mg"},{"bike_id":"52a04b7c-586f-491c-aded-7c538741c912","system_id":"levelo_inurba_marseille","lat":43.30319,"lon":5.36895,"is_reserved":false,"is_disabled":false,"rental_uris":{"android":"levelo://app?vid=52a04b7c-586f-491c-aded-7c538741c912","ios":"levelo://app?vid=52a04b7c-586f-491c-aded-7c538741c912"},"vehicle_type_id":"4","last_reported":1761228669,"current_range_meters":18800,"station_id":"ce4bgqh2rcd13ifvqc5g","pricing_plan_id":"cebpf4jnsgd1na2vs0mg"},{"bike_id":"e986ce1e-4fcd-40ab-b908-bc509e185c62","system_id":"levelo_inurba_marseille","lat":43.281,"lon":5.37838,"is_reserved":false,"is_disabled":false,"rental_uris":{"android":"levelo://app?vid=e986ce1e-4fcd-40ab-b908-bc509e185c62","ios":"levelo://app?vid=e986ce1e-4fcd-40ab-b908-bc509e185c62"},"vehicle_type_id":"4","last_reported":1761228669,"current_range_meters":19200,"station_id":"ce4bha12rcd13ifvqee0","pricing_plan_id":"cebpf4jnsgd1na2vs0mg"},{"bike_id":"5b6218ef-8f1a-49c7-8448-1cda129d117e","system_id":"levelo_inurba_marseille","lat":43.30141,"lon":5.37419,"is_reserved":false,"is_disabled":false,"rental_uris":{"android":"levelo://app?vid=5b6218ef-8f1a-49c7-8448-1cda129d117e","ios":"levelo://app?vid=5b6218ef-8f1a-49c7-8448-1cda129d117e"},"vehicle_type_id":"4","last_reported":1761228669,"current_range_meters":19200,"station_id":"ce4bgs92rcd13ifvqcc0","pricing_plan_id":"cebpf4jnsgd1na2vs0mg"},{"bike_id":"77124793-d73a-43ea-8840-1a1b5476fa23","system_id":"levelo_inurba_marseille","lat":43.31054,"lon":5.38041,"is_reserved":false,"is_disabled":false,"rental_uris":{"android":"levelo://app?vid=77124793-d73a-43ea-8840-1a1b5476fa23","ios":"levelo://app?vid=77124793-d73a-43ea-8840-1a1b5476fa23"},"vehicle_type_id":"4","last_reported":1761228669,"current_range_meters":19200,"station_id":"","pricing_plan_id":"cebpf4jnsgd1na2vs0mg"},{"bike_id":"e79dee5d-ae56-49fc-b711-bf074bb53f4d","system_id":"levelo_inurba_marseille","lat":43.286141,"lon":5.370575,"is_reserved":false,"is_disabled":false,"rental_uris":{"android":"levelo://app?vid=e79dee5d-ae56-49fc-b711-bf074bb53f4d","ios":"levelo://app?vid=e79dee5d-ae56-49fc-b711-bf074bb53f4d"},"vehicle_type_id":"4","last_reported":1761228669,"current_range_meters":19600,"station_id":"ce4bht12rcd13ifvqi60","pricing_plan_id":"cebpf4jnsgd1na2vs0mg"},{"bike_id":"ec9665a2-32ab-42b2-9bdf-cf94d158a9c2","system_id":"levelo_inurba_marseille","lat":43.3015,"lon":5.3696,"is_reserved":false,"is_disabled":false,"rental_uris":{"android":"levelo://app?vid=ec9665a2-32ab-42b2-9bdf-cf94d158a9c2","ios":"levelo://app?vid=ec9665a2-32ab-42b2-9bdf-cf94d158a9c2"},"vehicle_type_id":"4","last_reported":1761228669,"current_range_meters":19600,"station_id":"","pricing_plan_id":"cebpf4jnsgd1na2vs0mg"},{"bike_id":"11e3ade2-ccb2-4c9b-8f2d-bd016a12103e","system_id":"levelo_inurba_marseille","lat":43.26699,"lon":5.3825,"is_reserved":false,"is_disabled":false,"rental_uris":{"android":"levelo://app?vid=11e3ade2-ccb2-4c9b-8f2d-bd016a12103e","ios":"levelo://app?vid=11e3ade2-ccb2-4c9b-8f2d-bd016a12103e"},"vehicle_type_id":"4","last_reported":1761228669,"current_range_meters":19600,"station_id":"ce4bhg92rcd13ifvqf90","pricing_plan_id":"cebpf4jnsgd1na2vs0mg"},{"bike_id":"a0a3e2e6-f6d9-4e27-a510-a2aa84830e78","system_id":"levelo_inurba_marseille","lat":43.30882,"lon":5.37863,"is_reserved":false,"is_disabled":false,"rental_uris":{"android":"levelo://app?vid=a0a3e2e6-f6d9-4e27-a510-a2aa84830e78","ios":"levelo://app?vid=a0a3e2e6-f6d9-4e27-a510-a2aa84830e78"},"vehicle_type_id":"4","last_reported":1761228669,"current_range_meters":19600,"station_id":"","pricing_plan_id":"cebpf4jnsgd1na2vs0mg"},{"bike_id":"1cf361c0-d465-4436-96f0-12e4ff6ccd92","system_id":"levelo_inurba_marseille","lat":43.30139,"lon":5.3808,"is_reserved":false,"is_disabled":false,"rental_uris":{"android":"levelo://app?vid=1cf361c0-d465-4436-96f0-12e4ff6ccd92","ios":"levelo://app?vid=1cf361c0-d465-4436-96f0-12e4ff6ccd92"},"vehicle_type_id":"4","last_reported":1761228669,"current_range_meters":19600,"station_id":"ce4bgjp2rcd13ifvqbh0","pricing_plan_id":"cebpf4jnsgd1na2vs0mg"},{"bike_id":"47f09c0c-92a9-44eb-a23c-69934b3ff134","system_id":"levelo_inurba_marseille","lat":43.30118,"lon":5.4312,"is_reserved":false,"is_disabled":false,"rental_uris":{"android":"levelo://app?vid=47f09c0c-92a9-44eb-a23c-69934b3ff134","ios":"levelo://app?vid=47f09c0c-92a9-44eb-a23c-69934b3ff134"},"vehicle_type_id":"4","last_reported":1761228669,"current_range_meters":19600,"station_id":"st_d3js3co5814s73ftftug","pricing_plan_id":"cebpf4jnsgd1na2vs0mg"},{"bike_id":"df76a65d-68a6-4111-9413-af1547686a59","system_id":"levelo_inurba_marseille","lat":43.305592,"lon":5.365701,"is_reserved":false,"is_disabled":false,"rental_uris":{"android":"levelo://app?vid=df76a65d-68a6-4111-9413-af1547686a59","ios":"levelo://app?vid=df76a65d-68a6-4111-9413-af1547686a59"},"vehicle_type_id":"4","last_reported":1761228669,"current_range_meters":20000,"station_id":"ce4bgs12rcd13ifvqcag","pricing_plan_id":"cebpf4jnsgd1na2vs0mg"},{"bike_id":"fe8d7d34-5222-4b29-a594-580147245587","system_id":"levelo_inurba_marseille","lat":43.298457,"lon":5.362788,"is_reserved":false,"is_disabled":false,"rental_uris":{"android":"levelo://app?vid=fe8d7d34-5222-4b29-a594-580147245587","ios":"levelo://app?vid=fe8d7d34-5222-4b29-a594-580147245587"},"vehicle_type_id":"4","last_reported":1761228669,"current_range_meters":20000,"station_id":"ce4bgpp2rcd13ifvqc3g","pricing_plan_id":"cebpf4jnsgd1na2vs0mg"},{"bike_id":"e2f32075-b9a3-4bf7-b889-c121ecef1946","system_id":"levelo_inurba_marseille","lat":43.29295,"lon":5.37456,"is_reserved":false,"is_disabled":false,"rental_uris":{"android":"levelo://app?vid=e2f32075-b9a3-4bf7-b889-c121ecef1946","ios":"levelo://app?vid=e2f32075-b9a3-4bf7-b889-c121ecef1946"},"vehicle_type_id":"4","last_reported":1761228669,"current_range_meters":20000,"station_id":"ce4bgi12rcd13ifvqb70","pricing_plan_id":"cebpf4jnsgd1na2vs0mg"},{"bike_id":"4b9d7018-3821-44e2-a308-dd865224f02d","system_id":"levelo_inurba_marseille","lat":43.307884,"lon":5.376577,"is_reserved":false,"is_disabled":false,"rental_uris":{"android":"levelo://app?vid=4b9d7018-3821-44e2-a308-dd865224f02d","ios":"levelo://app?vid=4b9d7018-3821-44e2-a308-dd865224f02d"},"vehicle_type_id":"4","last_reported":1761228669,"current_range_meters":20000,"station_id":"ce4bgv92rcd13ifvqcq0","pricing_plan_id":"cebpf4jnsgd1na2vs0mg"},{"bike_id":"2218a639-ff60-46d1-a353-239f7aea6a1b","system_id":"levelo_inurba_marseille","lat":43.26937,"lon":5.38924,"is_reserved":false,"is_disabled":false,"rental_uris":{"android":"levelo://app?vid=2218a639-ff60-46d1-a353-239f7aea6a1b","ios":"levelo://app?vid=2218a639-ff60-46d1-a353-239f7aea6a1b"},"vehicle_type_id":"4","last_reported":1761228669,"current_range_meters":20000,"station_id":"ce4bhhh2rcd13ifvqfl0","pricing_plan_id":"cebpf4jnsgd1na2vs0mg"},{"bike_id":"ebd13387-5d7b-4cae-a0fc-14085b73b88b","system_id":"levelo_inurba_marseille","lat":43.30266,"lon":5.37698,"is_reserved":false,"is_disabled":false,"rental_uris":{"android":"levelo://app?vid=ebd13387-5d7b-4cae-a0fc-14085b73b88b","ios":"levelo://app?vid=ebd13387-5d7b-4cae-a0fc-14085b73b88b"},"vehicle_type_id":"4","last_reported":1761228669,"current_range_meters":20000,"station_id":"ce4bguh2rcd13ifvqcj0","pricing_plan_id":"cebpf4jnsgd1na2vs0mg"},{"bike_id":"fb833956-bfae-4811-bf9c-91789e2a326b","system_id":"levelo_inurba_marseille","lat":43.28284,"lon":5.35071,"is_reserved":false,"is_disabled":false,"rental_uris":{"android":"levelo://app?vid=fb833956-bfae-4811-bf9c-91789e2a326b","ios":"levelo://app?vid=fb833956-bfae-4811-bf9c-91789e2a326b"},"vehicle_type_id":"4","last_reported":1761228669,"current_range_meters":20000,"station_id":"ce4bhnh2rcd13ifvqgug","pricing_plan_id":"cebpf4jnsgd1na2vs0mg"},{"bike_id":"ace3309e-9a2e-46b8-802d-e7cc0a911f9d","system_id":"levelo_inurba_marseille","lat":43.323569,"lon":5.367581,"is_reserved":false,"is_disabled":false,"rental_uris":{"android":"levelo://app?vid=ace3309e-9a2e-46b8-802d-e7cc0a911f9d","ios":"levelo://app?vid=ace3309e-9a2e-46b8-802d-e7cc0a911f9d"},"vehicle_type_id":"4","last_reported":1761228669,"current_range_meters":20000,"station_id":"ce4bhsh2rcd13ifvqi2g","pricing_plan_id":"cebpf4jnsgd1na2vs0mg"},{"bike_id":"5fb62c8a-a22c-45a0-9055-689fb5aef389","system_id":"levelo_inurba_marseille","lat":43.29529,"lon":5.38542,"is_reserved":false,"is_disabled":false,"rental_uris":{"android":"levelo://app?vid=5fb62c8a-a22c-45a0-9055-689fb5aef389","ios":"levelo://app?vid=5fb62c8a-a22c-45a0-9055-689fb5aef389"},"vehicle_type_id":"4","last_reported":1761228669,"current_range_meters":20000,"station_id":"ce4bgih2rcd13ifvqba0","pricing_plan_id":"cebpf4jnsgd1na2vs0mg"},{"bike_id":"3c897e7a-ca67-4c02-b1ad-be4bdeb2680f","system_id":"levelo_inurba_marseille","lat":43.23136,"lon":5.43703,"is_reserved":false,"is_disabled":false,"rental_uris":{"android":"levelo://app?vid=3c897e7a-ca67-4c02-b1ad-be4bdeb2680f","ios":"levelo://app?vid=3c897e7a-ca67-4c02-b1ad-be4bdeb2680f"},"vehicle_type_id":"4","last_reported":1761228669,"current_range_meters":20400,"station_id":"ce4bhmp2rcd13ifvqgog","pricing_plan_id":"cebpf4jnsgd1na2vs0mg"},{"bike_id":"5eacce4e-6948-43bf-8f9a-babf1fce6525","system_id":"levelo_inurba_marseille","lat":43.24151,"lon":5.36401,"is_reserved":false,"is_disabled":false,"rental_uris":{"android":"levelo://app?vid=5eacce4e-6948-43bf-8f9a-babf1fce6525","ios":"levelo://app?vid=5eacce4e-6948-43bf-8f9a-babf1fce6525"},"vehicle_type_id":"4","last_reported":1761228669,"current_range_meters":20400,"station_id":"cpo36qri1sfpv3e86is0","pricing_plan_id":"cebpf4jnsgd1na2vs0mg"},{"bike_id":"f9ec5f3b-ed4c-40cd-8116-ef5667a3fc94","system_id":"levelo_inurba_marseille","lat":43.305293,"lon":5.384193,"is_reserved":false,"is_disabled":false,"rental_uris":{"android":"levelo://app?vid=f9ec5f3b-ed4c-40cd-8116-ef5667a3fc94","ios":"levelo://app?vid=f9ec5f3b-ed4c-40cd-8116-ef5667a3fc94"},"vehicle_type_id":"4","last_reported":1761228669,"current_range_meters":20400,"station_id":"ce4bgg92rcd13ifvqb30","pricing_plan_id":"cebpf4jnsgd1na2vs0mg"},{"bike_id":"3b22550e-05c3-472a-9a98-652dcfc2fc42","system_id":"levelo_inurba_marseille","lat":43.30158,"lon":5.3742,"is_reserved":false,"is_disabled":false,"rental_uris":{"android":"levelo://app?vid=3b22550e-05c3-472a-9a98-652dcfc2fc42","ios":"levelo://app?vid=3b22550e-05c3-472a-9a98-652dcfc2fc42"},"vehicle_type_id":"4","last_reported":1761228669,"current_range_meters":20400,"station_id":"ce4bgs92rcd13ifvqcc0","pricing_plan_id":"cebpf4jnsgd1na2vs0mg"},{"bike_id":"fefd11a0-8d8b-438b-9174-515a87c67f52","system_id":"levelo_inurba_marseille","lat":43.33603,"lon":5.41017,"is_reserved":false,"is_disabled":false,"rental_uris":{"android":"levelo://app?vid=fefd11a0-8d8b-438b-9174-515a87c67f52","ios":"levelo://app?vid=fefd11a0-8d8b-438b-9174-515a87c67f52"},"vehicle_type_id":"4","last_reported":1761228669,"current_range_meters":20400,"station_id":"ce4bhqh2rcd13ifvqhmg","pricing_plan_id":"cebpf4jnsgd1na2vs0mg"},{"bike_id":"c1096710-528e-4126-b86f-ee8954a7d4d2","system_id":"levelo_inurba_marseille","lat":43.284161,"lon":5.349832,"is_reserved":false,"is_disabled":false,"rental_uris":{"android":"levelo://app?vid=c1096710-528e-4126-b86f-ee8954a7d4d2","ios":"levelo://app?vid=c1096710-528e-4126-b86f-ee8954a7d4d2"},"vehicle_type_id":"4","last_reported":1761228669,"current_range_meters":20400,"station_id":"ce4bhbh2rcd13ifvqepg","pricing_plan_id":"cebpf4jnsgd1na2vs0mg"},{"bike_id":"fbd43c16-80c5-483d-b238-504e66d17f8d","system_id":"levelo_inurba_marseille","lat":43.2861,"lon":5.35113,"is_reserved":false,"is_disabled":false,"rental_uris":{"android":"levelo://app?vid=fbd43c16-80c5-483d-b238-504e66d17f8d","ios":"levelo://app?vid=fbd43c16-80c5-483d-b238-504e66d17f8d"},"vehicle_type_id":"4","last_reported":1761228669,"current_range_meters":20400,"station_id":"ce4bhch2rcd13ifvqeug","pricing_plan_id":"cebpf4jnsgd1na2vs0mg"},{"bike_id":"24561831-c894-4176-a7ee-ff2d801b6bee","system_id":"levelo_inurba_marseille","lat":43.27993,"lon":5.40009,"is_reserved":false,"is_disabled":false,"rental_uris":{"android":"levelo://app?vid=24561831-c894-4176-a7ee-ff2d801b6bee","ios":"levelo://app?vid=24561831-c894-4176-a7ee-ff2d801b6bee"},"vehicle_type_id":"4","last_reported":1761228669,"current_range_meters":20400,"station_id":"ce4bho92rcd13ifvqh4g","pricing_plan_id":"cebpf4jnsgd1na2vs0mg"},{"bike_id":"e4d9d28d-de5d-4eba-b45f-0315c6967297","system_id":"levelo_inurba_marseille","lat":43.251,"lon":5.39513,"is_reserved":false,"is_disabled":false,"rental_uris":{"android":"levelo://app?vid=e4d9d28d-de5d-4eba-b45f-0315c6967297","ios":"levelo://app?vid=e4d9d28d-de5d-4eba-b45f-0315c6967297"},"vehicle_type_id":"4","last_reported":1761228669,"current_range_meters":20400,"station_id":"ce4bhm12rcd13ifvqgkg","pricing_plan_id":"cebpf4jnsgd1na2vs0mg"},{"bike_id":"d29d9df7-d1be-4806-ade5-b52579761d67","system_id":"levelo_inurba_marseille","lat":43.295632,"lon":5.375025,"is_reserved":false,"is_disabled":false,"rental_uris":{"android":"levelo://app?vid=d29d9df7-d1be-4806-ade5-b52579761d67","ios":"levelo://app?vid=d29d9df7-d1be-4806-ade5-b52579761d67"},"vehicle_type_id":"4","last_reported":1761228669,"current_range_meters":20400,"station_id":"","pricing_plan_id":"cebpf4jnsgd1na2vs0mg"},{"bike_id":"d216f701-d039-416d-8464-d2169e2c53fe","system_id":"levelo_inurba_marseille","lat":43.22922,"lon":5.35389,"is_reserved":false,"is_disabled":false,"rental_uris":{"android":"levelo://app?vid=d216f701-d039-416d-8464-d2169e2c53fe","ios":"levelo://app?vid=d216f701-d039-416d-8464-d2169e2c53fe"},"vehicle_type_id":"4","last_reported":1761228669,"current_range_meters":20400,"station_id":"cpo3532slgdg3j2ikp40","pricing_plan_id":"cebpf4jnsgd1na2vs0mg"},{"bike_id":"da326c87-363c-47df-b64e-a81823a317f3","system_id":"levelo_inurba_marseille","lat":43.2607,"lon":5.394,"is_reserved":false,"is_disabled":false,"rental_uris":{"android":"levelo://app?vid=da326c87-363c-47df-b64e-a81823a317f3","ios":"levelo://app?vid=da326c87-363c-47df-b64e-a81823a317f3"},"vehicle_type_id":"4","last_reported":1761228669,"current_range_meters":20400,"station_id":"ce4bhh92rcd13ifvqfj0","pricing_plan_id":"cebpf4jnsgd1na2vs0mg"},{"bike_id":"b90f050d-41f1-4969-9711-328a004a94a4","system_id":"levelo_inurba_marseille","lat":43.32111,"lon":5.36769,"is_reserved":false,"is_disabled":false,"rental_uris":{"android":"levelo://app?vid=b90f050d-41f1-4969-9711-328a004a94a4","ios":"levelo://app?vid=b90f050d-41f1-4969-9711-328a004a94a4"},"vehicle_type_id":"4","last_reported":1761228669,"current_range_meters":20800,"station_id":"ce4bhrh2rcd13ifvqhug","pricing_plan_id":"cebpf4jnsgd1na2vs0mg"},{"bike_id":"9f342bfe-280d-4a8d-bb77-7a005df6628c","system_id":"levelo_inurba_marseille","lat":43.2886,"lon":5.42523,"is_reserved":false,"is_disabled":false,"rental_uris":{"android":"levelo://app?vid=9f342bfe-280d-4a8d-bb77-7a005df6628c","ios":"levelo://app?vid=9f342bfe-280d-4a8d-bb77-7a005df6628c"},"vehicle_type_id":"4","last_reported":1761228669,"current_range_meters":20800,"station_id":"st_d3b462108ojc7389ooeg","pricing_plan_id":"cebpf4jnsgd1na2vs0mg"},{"bike_id":"ac9b5b0f-8735-4757-8bf2-f97e3f542d3a","system_id":"levelo_inurba_marseille","lat":43.30525,"lon":5.36535,"is_reserved":false,"is_disabled":false,"rental_uris":{"android":"levelo://app?vid=ac9b5b0f-8735-4757-8bf2-f97e3f542d3a","ios":"levelo://app?vid=ac9b5b0f-8735-4757-8bf2-f97e3f542d3a"},"vehicle_type_id":"4","last_reported":1761228669,"current_range_meters":20800,"station_id":"ce4bgs12rcd13ifvqcag","pricing_plan_id":"cebpf4jnsgd1na2vs0mg"},{"bike_id":"6e165c5f-d62c-40ea-ba48-b62e278fb512","system_id":"levelo_inurba_marseille","lat":43.25587,"lon":5.38213,"is_reserved":false,"is_disabled":false,"rental_uris":{"android":"levelo://app?vid=6e165c5f-d62c-40ea-ba48-b62e278fb512","ios":"levelo://app?vid=6e165c5f-d62c-40ea-ba48-b62e278fb512"},"vehicle_type_id":"4","last_reported":1761228669,"current_range_meters":20800,"station_id":"ce4bhih2rcd13ifvqfs0","pricing_plan_id":"cebpf4jnsgd1na2vs0mg"},{"bike_id":"2bfe86be-a718-4651-a8e7-9a2bc3634288","system_id":"levelo_inurba_marseille","lat":43.23973,"lon":5.36619,"is_reserved":false,"is_disabled":false,"rental_uris":{"android":"levelo://app?vid=2bfe86be-a718-4651-a8e7-9a2bc3634288","ios":"levelo://app?vid=2bfe86be-a718-4651-a8e7-9a2bc3634288"},"vehicle_type_id":"4","last_reported":1761228669,"current_range_meters":20800,"station_id":"ce4bhi12rcd13ifvqfp0","pricing_plan_id":"cebpf4jnsgd1na2vs0mg"},{"bike_id":"913259d6-7dd1-4533-bf1c-6002e33758ab","system_id":"levelo_inurba_marseille","lat":43.3028,"lon":5.37689,"is_reserved":false,"is_disabled":false,"rental_uris":{"android":"levelo://app?vid=913259d6-7dd1-4533-bf1c-6002e33758ab","ios":"levelo://app?vid=913259d6-7dd1-4533-bf1c-6002e33758ab"},"vehicle_type_id":"4","last_reported":1761228669,"current_range_meters":20800,"station_id":"ce4bguh2rcd13ifvqcj0","pricing_plan_id":"cebpf4jnsgd1na2vs0mg"},{"bike_id":"4f5c5045-2f2c-4ab7-ad8b-eeba1d52fe66","system_id":"levelo_inurba_marseille","lat":43.32182,"lon":5.36851,"is_reserved":false,"is_disabled":false,"rental_uris":{"android":"levelo://app?vid=4f5c5045-2f2c-4ab7-ad8b-eeba1d52fe66","ios":"levelo://app?vid=4f5c5045-2f2c-4ab7-ad8b-eeba1d52fe66"},"vehicle_type_id":"4","last_reported":1761228669,"current_range_meters":20800,"station_id":"","pricing_plan_id":"cebpf4jnsgd1na2vs0mg"},{"bike_id":"17585014-36d0-4d96-ab97-1812e8c7fbe7","system_id":"levelo_inurba_marseille","lat":43.31667,"lon":5.38241,"is_reserved":false,"is_disabled":false,"rental_uris":{"android":"levelo://app?vid=17585014-36d0-4d96-ab97-1812e8c7fbe7","ios":"levelo://app?vid=17585014-36d0-4d96-ab97-1812e8c7fbe7"},"vehicle_type_id":"4","last_reported":1761228669,"current_range_meters":20800,"station_id":"","pricing_plan_id":"cebpf4jnsgd1na2vs0mg"},{"bike_id":"92108f26-64f7-406c-92aa-ed857ef7f024","system_id":"levelo_inurba_marseille","lat":43.29004,"lon":5.35611,"is_reserved":false,"is_disabled":false,"rental_uris":{"android":"levelo://app?vid=92108f26-64f7-406c-92aa-ed857ef7f024","ios":"levelo://app?vid=92108f26-64f7-406c-92aa-ed857ef7f024"},"vehicle_type_id":"4","last_reported":1761228669,"current_range_meters":20800,"station_id":"ce4bhb92rcd13ifvqen0","pricing_plan_id":"cebpf4jnsgd1na2vs0mg"},{"bike_id":"f693fe48-9b24-4968-a6e2-fb99c9e3204b","system_id":"levelo_inurba_marseille","lat":43.286997,"lon":5.36026,"is_reserved":false,"is_disabled":false,"rental_uris":{"android":"levelo://app?vid=f693fe48-9b24-4968-a6e2-fb99c9e3204b","ios":"levelo://app?vid=f693fe48-9b24-4968-a6e2-fb99c9e3204b"},"vehicle_type_id":"4","last_reported":1761228669,"current_range_meters":20800,"station_id":"cki0cbj6b192h4jlfktg","pricing_plan_id":"cebpf4jnsgd1na2vs0mg"},{"bike_id":"c4574ecd-db56-4d9d-965f-9b92dc7d5835","system_id":"levelo_inurba_marseille","lat":43.23961,"lon":5.36616,"is_reserved":false,"is_disabled":false,"rental_uris":{"android":"levelo://app?vid=c4574ecd-db56-4d9d-965f-9b92dc7d5835","ios":"levelo://app?vid=c4574ecd-db56-4d9d-965f-9b92dc7d5835"},"vehicle_type_id":"4","last_reported":1761228669,"current_range_meters":21600,"station_id":"ce4bhi12rcd13ifvqfp0","pricing_plan_id":"cebpf4jnsgd1na2vs0mg"},{"bike_id":"f2e02df1-d0d6-4e71-a245-a7604e3f9858","system_id":"levelo_inurba_marseille","lat":43.28105,"lon":5.37811,"is_reserved":false,"is_disabled":false,"rental_uris":{"android":"levelo://app?vid=f2e02df1-d0d6-4e71-a245-a7604e3f9858","ios":"levelo://app?vid=f2e02df1-d0d6-4e71-a245-a7604e3f9858"},"vehicle_type_id":"4","last_reported":1761228669,"current_range_meters":21600,"station_id":"ce4bha12rcd13ifvqee0","pricing_plan_id":"cebpf4jnsgd1na2vs0mg"},{"bike_id":"75eebb0f-2447-4bf8-b846-45b5b359059b","system_id":"levelo_inurba_marseille","lat":43.33769,"lon":5.37496,"is_reserved":false,"is_disabled":false,"rental_uris":{"android":"levelo://app?vid=75eebb0f-2447-4bf8-b846-45b5b359059b","ios":"levelo://app?vid=75eebb0f-2447-4bf8-b846-45b5b359059b"},"vehicle_type_id":"4","last_reported":1761228669,"current_range_meters":21600,"station_id":"","pricing_plan_id":"cebpf4jnsgd1na2vs0mg"},{"bike_id":"9d964ec4-c537-4f1d-b21c-451d3f46b1bf","system_id":"levelo_inurba_marseille","lat":43.2988,"lon":5.3797,"is_reserved":false,"is_disabled":false,"rental_uris":{"android":"levelo://app?vid=9d964ec4-c537-4f1d-b21c-451d3f46b1bf","ios":"levelo://app?vid=9d964ec4-c537-4f1d-b21c-451d3f46b1bf"},"vehicle_type_id":"4","last_reported":1761228669,"current_range_meters":21600,"station_id":"","pricing_plan_id":"cebpf4jnsgd1na2vs0mg"},{"bike_id":"2c339237-450a-424b-adb4-194def883004","system_id":"levelo_inurba_marseille","lat":43.29887,"lon":5.43665,"is_reserved":false,"is_disabled":false,"rental_uris":{"android":"levelo://app?vid=2c339237-450a-424b-adb4-194def883004","ios":"levelo://app?vid=2c339237-450a-424b-adb4-194def883004"},"vehicle_type_id":"4","last_reported":1761228669,"current_range_meters":21600,"station_id":"ce4bhpp2rcd13ifvqhfg","pricing_plan_id":"cebpf4jnsgd1na2vs0mg"},{"bike_id":"7060a5fa-9972-4244-9107-ea642177bda5","system_id":"levelo_inurba_marseille","lat":43.30604,"lon":5.37224,"is_reserved":false,"is_disabled":false,"rental_uris":{"android":"levelo://app?vid=7060a5fa-9972-4244-9107-ea642177bda5","ios":"levelo://app?vid=7060a5fa-9972-4244-9107-ea642177bda5"},"vehicle_type_id":"4","last_reported":1761228669,"current_range_meters":21600,"station_id":"ce4bgqh2rcd13ifvqc4g","pricing_plan_id":"cebpf4jnsgd1na2vs0mg"},{"bike_id":"4100a52b-dbf6-4b6e-90d6-fa076a9ea548","system_id":"levelo_inurba_marseille","lat":43.29266,"lon":5.38458,"is_reserved":false,"is_disabled":false,"rental_uris":{"android":"levelo://app?vid=4100a52b-dbf6-4b6e-90d6-fa076a9ea548","ios":"levelo://app?vid=4100a52b-dbf6-4b6e-90d6-fa076a9ea548"},"vehicle_type_id":"4","last_reported":1761228669,"current_range_meters":22000,"station_id":"ce4bh692rcd13ifvqea0","pricing_plan_id":"cebpf4jnsgd1na2vs0mg"},{"bike_id":"be88eaa4-e674-44f9-9199-3901304dd644","system_id":"levelo_inurba_marseille","lat":43.21748,"lon":5.34604,"is_reserved":false,"is_disabled":false,"rental_uris":{"android":"levelo://app?vid=be88eaa4-e674-44f9-9199-3901304dd644","ios":"levelo://app?vid=be88eaa4-e674-44f9-9199-3901304dd644"},"vehicle_type_id":"4","last_reported":1761228669,"current_range_meters":22000,"station_id":"st_cvj6r9ubvosntc0bgbag","pricing_plan_id":"cebpf4jnsgd1na2vs0mg"},{"bike_id":"9acc6c34-f87a-4f01-a5ed-e3e69b4f44a3","system_id":"levelo_inurba_marseille","lat":43.23133,"lon":5.43731,"is_reserved":false,"is_disabled":false,"rental_uris":{"android":"levelo://app?vid=9acc6c34-f87a-4f01-a5ed-e3e69b4f44a3","ios":"levelo://app?vid=9acc6c34-f87a-4f01-a5ed-e3e69b4f44a3"},"vehicle_type_id":"4","last_reported":1761228669,"current_range_meters":22000,"station_id":"ce4bhmp2rcd13ifvqgog","pricing_plan_id":"cebpf4jnsgd1na2vs0mg"},{"bike_id":"6bb9dc57-5792-4922-bf25-15b0e5cda6e8","system_id":"levelo_inurba_marseille","lat":43.24069,"lon":5.37771,"is_reserved":false,"is_disabled":false,"rental_uris":{"android":"levelo://app?vid=6bb9dc57-5792-4922-bf25-15b0e5cda6e8","ios":"levelo://app?vid=6bb9dc57-5792-4922-bf25-15b0e5cda6e8"},"vehicle_type_id":"4","last_reported":1761228669,"current_range_meters":22000,"station_id":"ce4bhnp2rcd13ifvqgvg","pricing_plan_id":"cebpf4jnsgd1na2vs0mg"},{"bike_id":"d5352b28-e991-46e5-886a-0714bdb8f488","system_id":"levelo_inurba_marseille","lat":43.230535,"lon":5.354912,"is_reserved":false,"is_disabled":false,"rental_uris":{"android":"levelo://app?vid=d5352b28-e991-46e5-886a-0714bdb8f488","ios":"levelo://app?vid=d5352b28-e991-46e5-886a-0714bdb8f488"},"vehicle_type_id":"4","last_reported":1761228669,"current_range_meters":22000,"station_id":"cpo3342slgdg3j2ifvpg","pricing_plan_id":"cebpf4jnsgd1na2vs0mg"},{"bike_id":"57b679af-c7e3-4aef-aaf7-dad7584c2820","system_id":"levelo_inurba_marseille","lat":43.25512,"lon":5.3765,"is_reserved":false,"is_disabled":false,"rental_uris":{"android":"levelo://app?vid=57b679af-c7e3-4aef-aaf7-dad7584c2820","ios":"levelo://app?vid=57b679af-c7e3-4aef-aaf7-dad7584c2820"},"vehicle_type_id":"4","last_reported":1761228669,"current_range_meters":22000,"station_id":"ce4bhh12rcd13ifvqff0","pricing_plan_id":"cebpf4jnsgd1na2vs0mg"},{"bike_id":"b07fbe52-3285-4a47-a46c-2703fcf0b9f1","system_id":"levelo_inurba_marseille","lat":43.28031,"lon":5.36947,"is_reserved":false,"is_disabled":false,"rental_uris":{"android":"levelo://app?vid=b07fbe52-3285-4a47-a46c-2703fcf0b9f1","ios":"levelo://app?vid=b07fbe52-3285-4a47-a46c-2703fcf0b9f1"},"vehicle_type_id":"4","last_reported":1761228669,"current_range_meters":22000,"station_id":"ce4bha12rcd13ifvqef0","pricing_plan_id":"cebpf4jnsgd1na2vs0mg"},{"bike_id":"9658aa40-8f2a-4530-80af-5a91ff918be4","system_id":"levelo_inurba_marseille","lat":43.30266,"lon":5.37709,"is_reserved":false,"is_disabled":false,"rental_uris":{"android":"levelo://app?vid=9658aa40-8f2a-4530-80af-5a91ff918be4","ios":"levelo://app?vid=9658aa40-8f2a-4530-80af-5a91ff918be4"},"vehicle_type_id":"4","last_reported":1761228669,"current_range_meters":22000,"station_id":"ce4bguh2rcd13ifvqcj0","pricing_plan_id":"cebpf4jnsgd1na2vs0mg"},{"bike_id":"5cf4395e-c249-4a7a-8170-3ad8e56ce424","system_id":"levelo_inurba_marseille","lat":43.30322,"lon":5.36914,"is_reserved":false,"is_disabled":false,"rental_uris":{"android":"levelo://app?vid=5cf4395e-c249-4a7a-8170-3ad8e56ce424","ios":"levelo://app?vid=5cf4395e-c249-4a7a-8170-3ad8e56ce424"},"vehicle_type_id":"4","last_reported":1761228669,"current_range_meters":22400,"station_id":"ce4bgqh2rcd13ifvqc5g","pricing_plan_id":"cebpf4jnsgd1na2vs0mg"},{"bike_id":"edb2d3fa-3e8e-4a7d-b15e-4933d63acc84","system_id":"levelo_inurba_marseille","lat":43.28702,"lon":5.39993,"is_reserved":false,"is_disabled":false,"rental_uris":{"android":"levelo://app?vid=edb2d3fa-3e8e-4a7d-b15e-4933d63acc84","ios":"levelo://app?vid=edb2d3fa-3e8e-4a7d-b15e-4933d63acc84"},"vehicle_type_id":"4","last_reported":1761228669,"current_range_meters":22400,"station_id":"ce4bho92rcd13ifvqh3g","pricing_plan_id":"cebpf4jnsgd1na2vs0mg"},{"bike_id":"86ba6db9-581f-4f0d-a848-83284862eebe","system_id":"levelo_inurba_marseille","lat":43.29255,"lon":5.40909,"is_reserved":false,"is_disabled":false,"rental_uris":{"android":"levelo://app?vid=86ba6db9-581f-4f0d-a848-83284862eebe","ios":"levelo://app?vid=86ba6db9-581f-4f0d-a848-83284862eebe"},"vehicle_type_id":"4","last_reported":1761228669,"current_range_meters":22400,"station_id":"ce4bh192rcd13ifvqdc0","pricing_plan_id":"cebpf4jnsgd1na2vs0mg"},{"bike_id":"e7690642-8ca3-457b-9dde-6d3267c24896","system_id":"levelo_inurba_marseille","lat":43.294051,"lon":5.373656,"is_reserved":false,"is_disabled":false,"rental_uris":{"android":"levelo://app?vid=e7690642-8ca3-457b-9dde-6d3267c24896","ios":"levelo://app?vid=e7690642-8ca3-457b-9dde-6d3267c24896"},"vehicle_type_id":"4","last_reported":1761228669,"current_range_meters":22400,"station_id":"","pricing_plan_id":"cebpf4jnsgd1na2vs0mg"},{"bike_id":"417d2345-c4c6-4ccd-bc5c-2eafc961607b","system_id":"levelo_inurba_marseille","lat":43.25502,"lon":5.37675,"is_reserved":false,"is_disabled":false,"rental_uris":{"android":"levelo://app?vid=417d2345-c4c6-4ccd-bc5c-2eafc961607b","ios":"levelo://app?vid=417d2345-c4c6-4ccd-bc5c-2eafc961607b"},"vehicle_type_id":"4","last_reported":1761228669,"current_range_meters":22400,"station_id":"ce4bhh12rcd13ifvqff0","pricing_plan_id":"cebpf4jnsgd1na2vs0mg"},{"bike_id":"ab1dc6bf-d651-4056-ad23-b67254daea0b","system_id":"levelo_inurba_marseille","lat":43.337509,"lon":5.375088,"is_reserved":false,"is_disabled":false,"rental_uris":{"android":"levelo://app?vid=ab1dc6bf-d651-4056-ad23-b67254daea0b","ios":"levelo://app?vid=ab1dc6bf-d651-4056-ad23-b67254daea0b"},"vehicle_type_id":"4","last_reported":1761228669,"current_range_meters":22400,"station_id":"","pricing_plan_id":"cebpf4jnsgd1na2vs0mg"},{"bike_id":"b8c97daa-9d25-46f3-82b1-f49b563fc2e4","system_id":"levelo_inurba_marseille","lat":43.240651,"lon":5.377567,"is_reserved":false,"is_disabled":false,"rental_uris":{"android":"levelo://app?vid=b8c97daa-9d25-46f3-82b1-f49b563fc2e4","ios":"levelo://app?vid=b8c97daa-9d25-46f3-82b1-f49b563fc2e4"},"vehicle_type_id":"4","last_reported":1761228669,"current_range_meters":22400,"station_id":"ce4bhnp2rcd13ifvqgvg","pricing_plan_id":"cebpf4jnsgd1na2vs0mg"},{"bike_id":"942bf107-a5b7-4a65-aec7-40db048941f7","system_id":"levelo_inurba_marseille","lat":43.32366,"lon":5.38889,"is_reserved":false,"is_disabled":false,"rental_uris":{"android":"levelo://app?vid=942bf107-a5b7-4a65-aec7-40db048941f7","ios":"levelo://app?vid=942bf107-a5b7-4a65-aec7-40db048941f7"},"vehicle_type_id":"4","last_reported":1761228669,"current_range_meters":22400,"station_id":"ce4bhqp2rcd13ifvqhog","pricing_plan_id":"cebpf4jnsgd1na2vs0mg"},{"bike_id":"b9cc2349-b510-49f1-b90b-5b9e5a4728ed","system_id":"levelo_inurba_marseille","lat":43.29916,"lon":5.38155,"is_reserved":false,"is_disabled":false,"rental_uris":{"android":"levelo://app?vid=b9cc2349-b510-49f1-b90b-5b9e5a4728ed","ios":"levelo://app?vid=b9cc2349-b510-49f1-b90b-5b9e5a4728ed"},"vehicle_type_id":"4","last_reported":1761228669,"current_range_meters":22400,"station_id":"ce4bgj12rcd13ifvqbc0","pricing_plan_id":"cebpf4jnsgd1na2vs0mg"},{"bike_id":"8b568fab-e273-49f6-bdca-e47680ec431f","system_id":"levelo_inurba_marseille","lat":43.33773,"lon":5.37431,"is_reserved":false,"is_disabled":false,"rental_uris":{"android":"levelo://app?vid=8b568fab-e273-49f6-bdca-e47680ec431f","ios":"levelo://app?vid=8b568fab-e273-49f6-bdca-e47680ec431f"},"vehicle_type_id":"4","last_reported":1761228669,"current_range_meters":22800,"station_id":"","pricing_plan_id":"cebpf4jnsgd1na2vs0mg"},{"bike_id":"1060fd7b-9e0d-427e-a00f-2040fd173c83","system_id":"levelo_inurba_marseille","lat":43.3393,"lon":5.40735,"is_reserved":false,"is_disabled":false,"rental_uris":{"android":"levelo://app?vid=1060fd7b-9e0d-427e-a00f-2040fd173c83","ios":"levelo://app?vid=1060fd7b-9e0d-427e-a00f-2040fd173c83"},"vehicle_type_id":"4","last_reported":1761228669,"current_range_meters":22800,"station_id":"ce4bhqh2rcd13ifvqhmg","pricing_plan_id":"cebpf4jnsgd1na2vs0mg"},{"bike_id":"c4e70516-2aa7-4a58-b960-203286d5ce3f","system_id":"levelo_inurba_marseille","lat":43.31227,"lon":5.3687,"is_reserved":false,"is_disabled":false,"rental_uris":{"android":"levelo://app?vid=c4e70516-2aa7-4a58-b960-203286d5ce3f","ios":"levelo://app?vid=c4e70516-2aa7-4a58-b960-203286d5ce3f"},"vehicle_type_id":"4","last_reported":1761228669,"current_range_meters":22800,"station_id":"ce4bgl92rcd13ifvqbq0","pricing_plan_id":"cebpf4jnsgd1na2vs0mg"},{"bike_id":"b5641329-6254-484b-8916-95ed843300da","system_id":"levelo_inurba_marseille","lat":43.33582,"lon":5.41011,"is_reserved":false,"is_disabled":false,"rental_uris":{"android":"levelo://app?vid=b5641329-6254-484b-8916-95ed843300da","ios":"levelo://app?vid=b5641329-6254-484b-8916-95ed843300da"},"vehicle_type_id":"4","last_reported":1761228669,"current_range_meters":22800,"station_id":"ce4bhqh2rcd13ifvqhmg","pricing_plan_id":"cebpf4jnsgd1na2vs0mg"},{"bike_id":"6a948f52-79cb-4722-8461-bffe56a00811","system_id":"levelo_inurba_marseille","lat":43.27431,"lon":5.39426,"is_reserved":false,"is_disabled":false,"rental_uris":{"android":"levelo://app?vid=6a948f52-79cb-4722-8461-bffe56a00811","ios":"levelo://app?vid=6a948f52-79cb-4722-8461-bffe56a00811"},"vehicle_type_id":"4","last_reported":1761228669,"current_range_meters":22800,"station_id":"ce4bhdp2rcd13ifvqf20","pricing_plan_id":"cebpf4jnsgd1na2vs0mg"},{"bike_id":"00fd3c6a-780c-49dc-9993-d4de69c9b57a","system_id":"levelo_inurba_marseille","lat":43.28967,"lon":5.37264,"is_reserved":false,"is_disabled":false,"rental_uris":{"android":"levelo://app?vid=00fd3c6a-780c-49dc-9993-d4de69c9b57a","ios":"levelo://app?vid=00fd3c6a-780c-49dc-9993-d4de69c9b57a"},"vehicle_type_id":"4","last_reported":1761228669,"current_range_meters":22800,"station_id":"","pricing_plan_id":"cebpf4jnsgd1na2vs0mg"},{"bike_id":"8e92164c-deff-4fbd-9f4e-43ff81933572","system_id":"levelo_inurba_marseille","lat":43.29798,"lon":5.42025,"is_reserved":false,"is_disabled":false,"rental_uris":{"android":"levelo://app?vid=8e92164c-deff-4fbd-9f4e-43ff81933572","ios":"levelo://app?vid=8e92164c-deff-4fbd-9f4e-43ff81933572"},"vehicle_type_id":"4","last_reported":1761228669,"current_range_meters":22800,"station_id":"","pricing_plan_id":"cebpf4jnsgd1na2vs0mg"},