{"last_updated":1703271904,"ttl":30,"version":"2.2","data":{"bikes":[{"bike_id":"4de757be-1c92-49c7-a54e-7f01d643902e","system_id":"levelo_inurba_marseille","lat":43.31236,"lon":5.36863,"is_reserved":false,"is_disabled":false,"rental_uris":{"android":"levelo://app?vid=4de757be-1c92-49c7-a54e-7f01d643902e","ios":"levelo://app?vid=4de757be-1c92-49c7-a54e-7f01d643902e"},"vehicle_type_id":"4","last_reported":1703271904,"current_range_meters":30400,"station_id":"ce4bgl92rcd13ifvqbq0","pricing_plan_id":"free"},{"bike_id":"0dde7b5d-552e-4035-b483-c4bcdc239d1e","system_id":"levelo_inurba_marseille","lat":43.30911,"lon":5.36847,"is_reserved":false,"is_disabled":false,"rental_uris":{"android":"levelo://app?vid=0dde7b5d-552e-4035-b483-c4bcdc239d1e","ios":"levelo://app?vid=0dde7b5d-552e-4035-b483-c4bcdc239d1e"},"vehicle_type_id":"4","last_reported":1703271904,"current_range_meters":7200,"station_id":"ce4bgn92rcd13ifvqbvg","pricing_plan_id":"free"},{"bike_id":"7930ed29-bb9d-468b-98cf-ae7f16e18b65","system_id":"levelo_inurba_marseille","lat":43.309076,"lon":5.368465,"is_reserved":false,"is_disabled":false,"rental_uris":{"android":"levelo://app?vid=7930ed29-bb9d-468b-98cf-ae7f16e18b65","ios":"levelo://app?vid=7930ed29-bb9d-468b-98cf-ae7f16e18b65"},"vehicle_type_id":"4","last_reported":1703271904,"current_range_meters":8400,"station_id":"ce4bgn92rcd13ifvqbvg","pricing_plan_id":"free"},{"bike_id":"bc74c432-90ab-4b82-bc0b-9716a4ccf6b2","system_id":"levelo_inurba_marseille","lat":43.317075,"lon":5.377367,"is_reserved":false,"is_disabled":false,"rental_uris":{"android":"levelo://app?vid=bc74c432-90ab-4b82-bc0b-9716a4ccf6b2","ios":"levelo://app?vid=bc74c432-90ab-4b82-bc0b-9716a4ccf6b2"},"vehicle_type_id":"4","last_reported":1703271904,"current_range_meters":8800,"station_id":"ce4bgth2rcd13ifvqch0","pricing_plan_id":"free"},{"bike_id":"31064d41-982a-4d68-957c-a6ab36a1327f","system_id":"levelo_inurba_marseille","lat":43.317075,"lon":5.377367,"is_reserved":false,"is_disabled":false,"rental_uris":{"android":"levelo://app?vid=31064d41-982a-4d68-957c-a6ab36a1327f","ios":"levelo://app?vid=31064d41-982a-4d68-957c-a6ab36a1327f"},"vehicle_type_id":"4","last_reported":1703271904,"current_range_meters":9200,"station_id":"ce4bgth2rcd13ifvqch0","pricing_plan_id":"free"},{"bike_id":"393d59ad-ee2c-41b2-a1e7-00d8c7ae6d32","system_id":"levelo_inurba_marseille","lat":43.303046,"lon":5.368981,"is_reserved":false,"is_disabled":false,"rental_uris":{"android":"levelo://app?vid=393d59ad-ee2c-41b2-a1e7-00d8c7ae6d32","ios":"levelo://app?vid=393d59ad-ee2c-41b2-a1e7-00d8c7ae6d32"},"vehicle_type_id":"4","last_reported":1703271904,"current_range_meters":31200,"station_id":"ce4bgqh2rcd13ifvqc5g","pricing_plan_id":"free"},{"bike_id":"966c8350-5e80-4642-a3e1-e1bcef1f44e5","system_id":"levelo_inurba_marseille","lat":43.303046,"lon":5.368981,"is_reserved":false,"is_disabled":false,"rental_uris":{"android":"levelo://app?vid=966c8350-5e80-4642-a3e1-e1bcef1f44e5","ios":"levelo://app?vid=966c8350-5e80-4642-a3e1-e1bcef1f44e5"},"vehicle_type_id":"4","last_reported":1703271904,"current_range_meters":30400,"station_id":"ce4bgqh2rcd13ifvqc5g","pricing_plan_id":"free"},{"bike_id":"895195fe-3f17-4276-a82b-18d50aa5847f","system_id":"levelo_inurba_marseille","lat":43.307937,"lon":5.381415,"is_reserved":false,"is_disabled":false,"rental_uris":{"android":"levelo://app?vid=895195fe-3f17-4276-a82b-18d50aa5847f","ios":"levelo://app?vid=895195fe-3f17-4276-a82b-18d50aa5847f"},"vehicle_type_id":"4","last_reported":1703271904,"current_range_meters":800,"station_id":"ce4bgt12rcd13ifvqce0","pricing_plan_id":"free"},{"bike_id":"c616a760-5d15-46bb-9d75-552ebc124cb7","system_id":"levelo_inurba_marseille","lat":43.319935,"lon":5.381699,"is_reserved":false,"is_disabled":false,"rental_uris":{"android":"levelo://app?vid=c616a760-5d15-46bb-9d75-552ebc124cb7","ios":"levelo://app?vid=c616a760-5d15-46bb-9d75-552ebc124cb7"},"vehicle_type_id":"4","last_reported":1703271904,"current_range_meters":19600,"station_id":"ce4bhr12rcd13ifvqhpg","pricing_plan_id":"free"},{"bike_id":"dc0f6af5-c02c-4610-baea-e5c6ca16f530","system_id":"levelo_inurba_marseille","lat":43.3199,"lon":5.38147,"is_reserved":false,"is_disabled":false,"rental_uris":{"android":"levelo://app?vid=dc0f6af5-c02c-4610-baea-e5c6ca16f530","ios":"levelo://app?vid=dc0f6af5-c02c-4610-baea-e5c6ca16f530"},"vehicle_type_id":"4","last_reported":1703271904,"current_range_meters":28400,"station_id":"ce4bhr12rcd13ifvqhpg","pricing_plan_id":"free"},{"bike_id":"82b7c1aa-506b-4cff-953c-bb835d7847c3","system_id":"levelo_inurba_marseille","lat":43.319935,"lon":5.381699,"is_reserved":false,"is_disabled":false,"rental_uris":{"android":"levelo://app?vid=82b7c1aa-506b-4cff-953c-bb835d7847c3","ios":"levelo://app?vid=82b7c1aa-506b-4cff-953c-bb835d7847c3"},"vehicle_type_id":"4","last_reported":1703271904,"current_range_meters":14400,"station_id":"ce4bhr12rcd13ifvqhpg","pricing_plan_id":"free"},{"bike_id":"9c231161-337f-4eba-87d3-44d75eaa84aa","system_id":"levelo_inurba_marseille","lat":43.319935,"lon":5.381699,"is_reserved":false,"is_disabled":false,"rental_uris":{"android":"levelo://app?vid=9c231161-337f-4eba-87d3-44d75eaa84aa","ios":"levelo://app?vid=9c231161-337f-4eba-87d3-44d75eaa84aa"},"vehicle_type_id":"4","last_reported":1703271904,"current_range_meters":30400,"station_id":"ce4bhr12rcd13ifvqhpg","pricing_plan_id":"free"},{"bike_id":"0660b770-dd60-4e90-8802-23f4be821afa","system_id":"levelo_inurba_marseille","lat":43.319935,"lon":5.381699,"is_reserved":false,"is_disabled":false,"rental_uris":{"android":"levelo://app?vid=0660b770-dd60-4e90-8802-23f4be821afa","ios":"levelo://app?vid=0660b770-dd60-4e90-8802-23f4be821afa"},"vehicle_type_id":"4","last_reported":1703271904,"current_range_meters":5600,"station_id":"ce4bhr12rcd13ifvqhpg","pricing_plan_id":"free"},{"bike_id":"a4d91f4c-0227-4bc9-a904-969806ef4ac5","system_id":"levelo_inurba_marseille","lat":43.319935,"lon":5.381699,"is_reserved":false,"is_disabled":false,"rental_uris":{"android":"levelo://app?vid=a4d91f4c-0227-4bc9-a904-969806ef4ac5","ios":"levelo://app?vid=a4d91f4c-0227-4bc9-a904-969806ef4ac5"},"vehicle_type_id":"4","last_reported":1703271904,"current_range_meters":21600,"station_id":"ce4bhr12rcd13ifvqhpg","pricing_plan_id":"free"},{"bike_id":"965cf9c4-61d5-49c2-b8b1-76508d620af4","system_id":"levelo_inurba_marseille","lat":43.319935,"lon":5.381699,"is_reserved":false,"is_disabled":false,"rental_uris":{"android":"levelo://app?vid=965cf9c4-61d5-49c2-b8b1-76508d620af4","ios":"levelo://app?vid=965cf9c4-61d5-49c2-b8b1-76508d620af4"},"vehicle_type_id":"4","last_reported":1703271904,"current_range_meters":19600,"station_id":"ce4bhr12rcd13ifvqhpg","pricing_plan_id":"free"},{"bike_id":"5faa80dd-7ff2-404b-a2cb-ff29cdece0f2","system_id":"levelo_inurba_marseille","lat":43.313626,"lon":5.38488,"is_reserved":false,"is_disabled":false,"rental_uris":{"android":"levelo://app?vid=5faa80dd-7ff2-404b-a2cb-ff29cdece0f2","ios":"levelo://app?vid=5faa80dd-7ff2-404b-a2cb-ff29cdece0f2"},"vehicle_type_id":"4","last_reported":1703271904,"current_range_meters":6800,"station_id":"ce4bgt92rcd13ifvqcf0","pricing_plan_id":"free"},{"bike_id":"dc6e9f66-70f7-4985-8bc7-c26472d97f2c","system_id":"levelo_inurba_marseille","lat":43.305364,"lon":5.384119,"is_reserved":false,"is_disabled":false,"rental_uris":{"android":"levelo://app?vid=dc6e9f66-70f7-4985-8bc7-c26472d97f2c","ios":"levelo://app?vid=dc6e9f66-70f7-4985-8bc7-c26472d97f2c"},"vehicle_type_id":"4","last_reported":1703271904,"current_range_meters":3600,"station_id":"ce4bgg92rcd13ifvqb30","pricing_plan_id":"free"},{"bike_id":"4842b468-b2c4-4fb2-a663-9f81ff9ed5f8","system_id":"levelo_inurba_marseille","lat":43.305364,"lon":5.384119,"is_reserved":false,"is_disabled":false,"rental_uris":{"android":"levelo://app?vid=4842b468-b2c4-4fb2-a663-9f81ff9ed5f8","ios":"levelo://app?vid=4842b468-b2c4-4fb2-a663-9f81ff9ed5f8"},"vehicle_type_id":"4","last_reported":1703271904,"current_range_meters":2800,"station_id":"ce4bgg92rcd13ifvqb30","pricing_plan_id":"free"},{"bike_id":"39e265ad-1c54-4610-a5a4-1ce3eb42166a","system_id":"levelo_inurba_marseille","lat":43.311722,"lon":5.387247,"is_reserved":false,"is_disabled":false,"rental_uris":{"android":"levelo://app?vid=39e265ad-1c54-4610-a5a4-1ce3eb42166a","ios":"levelo://app?vid=39e265ad-1c54-4610-a5a4-1ce3eb42166a"},"vehicle_type_id":"4","last_reported":1703271904,"current_range_meters":800,"station_id":"ce4bgv12rcd13ifvqcp0","pricing_plan_id":"free"},{"bike_id":"c481a43d-6862-4d89-9672-508007c5a6f2","system_id":"levelo_inurba_marseille","lat":43.311722,"lon":5.387247,"is_reserved":false,"is_disabled":false,"rental_uris":{"android":"levelo://app?vid=c481a43d-6862-4d89-9672-508007c5a6f2","ios":"levelo://app?vid=c481a43d-6862-4d89-9672-508007c5a6f2"},"vehicle_type_id":"4","last_reported":1703271904,"current_range_meters":1200,"station_id":"ce4bgv12rcd13ifvqcp0","pricing_plan_id":"free"},{"bike_id":"f5987233-1d3e-4901-8b4d-56e1ca83344b","system_id":"levelo_inurba_marseille","lat":43.322872,"lon":5.382756,"is_reserved":false,"is_disabled":false,"rental_uris":{"android":"levelo://app?vid=f5987233-1d3e-4901-8b4d-56e1ca83344b","ios":"levelo://app?vid=f5987233-1d3e-4901-8b4d-56e1ca83344b"},"vehicle_type_id":"4","last_reported":1703271904,"current_range_meters":31200,"station_id":"ce4bhr12rcd13ifvqhqg","pricing_plan_id":"free"},{"bike_id":"d427d9f4-23f5-48b6-96d0-49850595043e","system_id":"levelo_inurba_marseille","lat":43.297774,"lon":5.370875,"is_reserved":false,"is_disabled":false,"rental_uris":{"android":"levelo://app?vid=d427d9f4-23f5-48b6-96d0-49850595043e","ios":"levelo://app?vid=d427d9f4-23f5-48b6-96d0-49850595043e"},"vehicle_type_id":"4","last_reported":1703271904,"current_range_meters":20800,"station_id":"ce4bgop2rcd13ifvqc1g","pricing_plan_id":"free"},{"bike_id":"6ef56fd5-1a7c-4c71-8bf8-33afeff899ef","system_id":"levelo_inurba_marseille","lat":43.322872,"lon":5.382756,"is_reserved":false,"is_disabled":false,"rental_uris":{"android":"levelo://app?vid=6ef56fd5-1a7c-4c71-8bf8-33afeff899ef","ios":"levelo://app?vid=6ef56fd5-1a7c-4c71-8bf8-33afeff899ef"},"vehicle_type_id":"4","last_reported":1703271904,"current_range_meters":20000,"station_id":"ce4bhr12rcd13ifvqhqg","pricing_plan_id":"free"},{"bike_id":"62a0e181-56c1-4aad-a05b-240ecf27baec","system_id":"levelo_inurba_marseille","lat":43.322872,"lon":5.382756,"is_reserved":false,"is_disabled":false,"rental_uris":{"android":"levelo://app?vid=62a0e181-56c1-4aad-a05b-240ecf27baec","ios":"levelo://app?vid=62a0e181-56c1-4aad-a05b-240ecf27baec"},"vehicle_type_id":"4","last_reported":1703271904,"current_range_meters":28000,"station_id":"ce4bhr12rcd13ifvqhqg","pricing_plan_id":"free"},{"bike_id":"e4cf6f6e-7d8c-4b7e-ab01-7de3c446c970","system_id":"levelo_inurba_marseille","lat":43.322872,"lon":5.382756,"is_reserved":false,"is_disabled":false,"rental_uris":{"android":"levelo://app?vid=e4cf6f6e-7d8c-4b7e-ab01-7de3c446c970","ios":"levelo://app?vid=e4cf6f6e-7d8c-4b7e-ab01-7de3c446c970"},"vehicle_type_id":"4","last_reported":1703271904,"current_range_meters":22800,"station_id":"ce4bhr12rcd13ifvqhqg","pricing_plan_id":"free"},{"bike_id":"525f6ec1-c089-48ad-8216-d8e073aa768d","system_id":"levelo_inurba_marseille","lat":43.328271,"lon":5.366759,"is_reserved":false,"is_disabled":false,"rental_uris":{"android":"levelo://app?vid=525f6ec1-c089-48ad-8216-d8e073aa768d","ios":"levelo://app?vid=525f6ec1-c089-48ad-8216-d8e073aa768d"},"vehicle_type_id":"4","last_reported":1703271904,"current_range_meters":6400,"station_id":"ce4bhs92rcd13ifvqi0g","pricing_plan_id":"free"},{"bike_id":"757b027e-afcf-4f19-838b-6309bb68956c","system_id":"levelo_inurba_marseille","lat":43.297163,"lon":5.365866,"is_reserved":false,"is_disabled":false,"rental_uris":{"android":"levelo://app?vid=757b027e-afcf-4f19-838b-6309bb68956c","ios":"levelo://app?vid=757b027e-afcf-4f19-838b-6309bb68956c"},"vehicle_type_id":"4","last_reported":1703271904,"current_range_meters":18800,"station_id":"ce4bgn12rcd13ifvqbt0","pricing_plan_id":"free"},{"bike_id":"248036c1-af81-4d27-9242-6593b46581d0","system_id":"levelo_inurba_marseille","lat":43.297163,"lon":5.365866,"is_reserved":false,"is_disabled":false,"rental_uris":{"android":"levelo://app?vid=248036c1-af81-4d27-9242-6593b46581d0","ios":"levelo://app?vid=248036c1-af81-4d27-9242-6593b46581d0"},"vehicle_type_id":"4","last_reported":1703271904,"current_range_meters":31200,"station_id":"ce4bgn12rcd13ifvqbt0","pricing_plan_id":"free"},{"bike_id":"558ec63f-134c-4e7a-9858-e5ff95d1d8fa","system_id":"levelo_inurba_marseille","lat":43.296048,"lon":5.367972,"is_reserved":false,"is_disabled":false,"rental_uris":{"android":"levelo://app?vid=558ec63f-134c-4e7a-9858-e5ff95d1d8fa","ios":"levelo://app?vid=558ec63f-134c-4e7a-9858-e5ff95d1d8fa"},"vehicle_type_id":"4","last_reported":1703271904,"current_range_meters":13600,"station_id":"","pricing_plan_id":"free"},{"bike_id":"c32c8a4d-7d1e-4c05-bc12-b3a03ec9ec80","system_id":"levelo_inurba_marseille","lat":43.29576,"lon":5.36736,"is_reserved":false,"is_disabled":false,"rental_uris":{"android":"levelo://app?vid=c32c8a4d-7d1e-4c05-bc12-b3a03ec9ec80","ios":"levelo://app?vid=c32c8a4d-7d1e-4c05-bc12-b3a03ec9ec80"},"vehicle_type_id":"4","last_reported":1703271904,"current_range_meters":800,"station_id":"ce4bgph2rcd13ifvqc2g","pricing_plan_id":"free"},{"bike_id":"9e6a8f9a-baca-48b4-bf2b-dfb9a40095dd","system_id":"levelo_inurba_marseille","lat":43.309589,"lon":5.390258,"is_reserved":false,"is_disabled":false,"rental_uris":{"android":"levelo://app?vid=9e6a8f9a-baca-48b4-bf2b-dfb9a40095dd","ios":"levelo://app?vid=9e6a8f9a-baca-48b4-bf2b-dfb9a40095dd"},"vehicle_type_id":"4","last_reported":1703271904,"current_range_meters":7200,"station_id":"ce4bgup2rcd13ifvqco0","pricing_plan_id":"free"},{"bike_id":"6815146e-b4f5-4e0c-b1f3-756af20ebeec","system_id":"levelo_inurba_marseille","lat":43.309589,"lon":5.390258,"is_reserved":false,"is_disabled":false,"rental_uris":{"android":"levelo://app?vid=6815146e-b4f5-4e0c-b1f3-756af20ebeec","ios":"levelo://app?vid=6815146e-b4f5-4e0c-b1f3-756af20ebeec"},"vehicle_type_id":"4","last_reported":1703271904,"current_range_meters":1200,"station_id":"ce4bgup2rcd13ifvqco0","pricing_plan_id":"free"},{"bike_id":"8ce40a78-a0c4-416f-9a75-cc8d30a14ebe","system_id":"levelo_inurba_marseille","lat":43.299028,"lon":5.381509,"is_reserved":false,"is_disabled":false,"rental_uris":{"android":"levelo://app?vid=8ce40a78-a0c4-416f-9a75-cc8d30a14ebe","ios":"levelo://app?vid=8ce40a78-a0c4-416f-9a75-cc8d30a14ebe"},"vehicle_type_id":"4","last_reported":1703271904,"current_range_meters":28000,"station_id":"ce4bgj12rcd13ifvqbc0","pricing_plan_id":"free"},{"bike_id":"b19ec636-f689-4d1b-898a-c32ee853758c","system_id":"levelo_inurba_marseille","lat":43.299028,"lon":5.381509,"is_reserved":false,"is_disabled":false,"rental_uris":{"android":"levelo://app?vid=b19ec636-f689-4d1b-898a-c32ee853758c","ios":"levelo://app?vid=b19ec636-f689-4d1b-898a-c32ee853758c"},"vehicle_type_id":"4","last_reported":1703271904,"current_range_meters":18800,"station_id":"ce4bgj12rcd13ifvqbc0","pricing_plan_id":"free"},{"bike_id":"7eada8fb-8c59-41ea-ae15-1164bd9fc1af","system_id":"levelo_inurba_marseille","lat":43.32176,"lon":5.38767,"is_reserved":false,"is_disabled":false,"rental_uris":{"android":"levelo://app?vid=7eada8fb-8c59-41ea-ae15-1164bd9fc1af","ios":"levelo://app?vid=7eada8fb-8c59-41ea-ae15-1164bd9fc1af"},"vehicle_type_id":"4","last_reported":1703271904,"current_range_meters":30000,"station_id":"","pricing_plan_id":"free"},{"bike_id":"d39682ea-d8f1-45a4-b2b8-5a732fb091bc","system_id":"levelo_inurba_marseille","lat":43.317557,"lon":5.390173,"is_reserved":false,"is_disabled":false,"rental_uris":{"android":"levelo://app?vid=d39682ea-d8f1-45a4-b2b8-5a732fb091bc","ios":"levelo://app?vid=d39682ea-d8f1-45a4-b2b8-5a732fb091bc"},"vehicle_type_id":"4","last_reported":1703271904,"current_range_meters":26000,"station_id":"ce4bhqp2rcd13ifvqhng","pricing_plan_id":"free"},{"bike_id":"43855516-4c02-494d-aefa-3c215dbc6b85","system_id":"levelo_inurba_marseille","lat":43.317557,"lon":5.390173,"is_reserved":false,"is_disabled":false,"rental_uris":{"android":"levelo://app?vid=43855516-4c02-494d-aefa-3c215dbc6b85","ios":"levelo://app?vid=43855516-4c02-494d-aefa-3c215dbc6b85"},"vehicle_type_id":"4","last_reported":1703271904,"current_range_meters":1600,"station_id":"ce4bhqp2rcd13ifvqhng","pricing_plan_id":"free"},{"bike_id":"fd17499b-3912-4ba3-bc40-ce4949b44af2","system_id":"levelo_inurba_marseille","lat":43.29534,"lon":5.36115,"is_reserved":false,"is_disabled":false,"rental_uris":{"android":"levelo://app?vid=fd17499b-3912-4ba3-bc40-ce4949b44af2","ios":"levelo://app?vid=fd17499b-3912-4ba3-bc40-ce4949b44af2"},"vehicle_type_id":"4","last_reported":1703271904,"current_range_meters":7600,"station_id":"","pricing_plan_id":"free"},{"bike_id":"7605be5a-2c2c-4e16-82f9-8bf67e9d18f0","system_id":"levelo_inurba_marseille","lat":43.298037,"lon":5.381066,"is_reserved":false,"is_disabled":false,"rental_uris":{"android":"levelo://app?vid=7605be5a-2c2c-4e16-82f9-8bf67e9d18f0","ios":"levelo://app?vid=7605be5a-2c2c-4e16-82f9-8bf67e9d18f0"},"vehicle_type_id":"4","last_reported":1703271904,"current_range_meters":6400,"station_id":"ce4bgip2rcd13ifvqbb0","pricing_plan_id":"free"},{"bike_id":"7a86d800-9309-4237-85bd-d27c05587159","system_id":"levelo_inurba_marseille","lat":43.295748,"lon":5.37522,"is_reserved":false,"is_disabled":false,"rental_uris":{"android":"levelo://app?vid=7a86d800-9309-4237-85bd-d27c05587159","ios":"levelo://app?vid=7a86d800-9309-4237-85bd-d27c05587159"},"vehicle_type_id":"4","last_reported":1703271904,"current_range_meters":1200,"station_id":"ce4bgh92rcd13ifvqb50","pricing_plan_id":"free"},{"bike_id":"0632d0ab-c3b4-4693-be8d-438b85a29100","system_id":"levelo_inurba_marseille","lat":43.295748,"lon":5.37522,"is_reserved":false,"is_disabled":false,"rental_uris":{"android":"levelo://app?vid=0632d0ab-c3b4-4693-be8d-438b85a29100","ios":"levelo://app?vid=0632d0ab-c3b4-4693-be8d-438b85a29100"},"vehicle_type_id":"4","last_reported":1703271904,"current_range_meters":19200,"station_id":"ce4bgh92rcd13ifvqb50","pricing_plan_id":"free"},{"bike_id":"e333fcbf-6e7b-42ff-a8e5-edc637d97c53","system_id":"levelo_inurba_marseille","lat":43.304278,"lon":5.388868,"is_reserved":false,"is_disabled":false,"rental_uris":{"android":"levelo://app?vid=e333fcbf-6e7b-42ff-a8e5-edc637d97c53","ios":"levelo://app?vid=e333fcbf-6e7b-42ff-a8e5-edc637d97c53"},"vehicle_type_id":"4","last_reported":1703271904,"current_range_meters":14400,"station_id":"ce4bgk12rcd13ifvqbi0","pricing_plan_id":"free"},{"bike_id":"1378810b-812d-44e5-847a-1b7aeb90e4c4","system_id":"levelo_inurba_marseille","lat":43.299,"lon":5.38357,"is_reserved":false,"is_disabled":false,"rental_uris":{"android":"levelo://app?vid=1378810b-812d-44e5-847a-1b7aeb90e4c4","ios":"levelo://app?vid=1378810b-812d-44e5-847a-1b7aeb90e4c4"},"vehicle_type_id":"4","last_reported":1703271904,"current_range_meters":1200,"station_id":"","pricing_plan_id":"free"},{"bike_id":"035ba96c-8560-4c70-973e-f7eb3e99c40c","system_id":"levelo_inurba_marseille","lat":43.32367,"lon":5.388836,"is_reserved":false,"is_disabled":false,"rental_uris":{"android":"levelo://app?vid=035ba96c-8560-4c70-973e-f7eb3e99c40c","ios":"levelo://app?vid=035ba96c-8560-4c70-973e-f7eb3e99c40c"},"vehicle_type_id":"4","last_reported":1703271904,"current_range_meters":20400,"station_id":"ce4bhqp2rcd13ifvqhog","pricing_plan_id":"free"},{"bike_id":"cc7743c4-385c-403d-859e-14ff6c38e121","system_id":"levelo_inurba_marseille","lat":43.32367,"lon":5.388836,"is_reserved":false,"is_disabled":false,"rental_uris":{"android":"levelo://app?vid=cc7743c4-385c-403d-859e-14ff6c38e121","ios":"levelo://app?vid=cc7743c4-385c-403d-859e-14ff6c38e121"},"vehicle_type_id":"4","last_reported":1703271904,"current_range_meters":17600,"station_id":"ce4bhqp2rcd13ifvqhog","pricing_plan_id":"free"},{"bike_id":"d818b4e9-1c4f-42f0-8c3f-49a88d80429c","system_id":"levelo_inurba_marseille","lat":43.29602,"lon":5.381084,"is_reserved":false,"is_disabled":false,"rental_uris":{"android":"levelo://app?vid=d818b4e9-1c4f-42f0-8c3f-49a88d80429c","ios":"levelo://app?vid=d818b4e9-1c4f-42f0-8c3f-49a88d80429c"},"vehicle_type_id":"4","last_reported":1703271904,"current_range_meters":4400,"station_id":"ce4bgl12rcd13ifvqbo0","pricing_plan_id":"free"},{"bike_id":"6f0dd3d0-7775-4676-bea1-8298f784cd54","system_id":"levelo_inurba_marseille","lat":43.29601,"lon":5.381084,"is_reserved":false,"is_disabled":false,"rental_uris":{"android":"levelo://app?vid=6f0dd3d0-7775-4676-bea1-8298f784cd54","ios":"levelo://app?vid=6f0dd3d0-7775-4676-bea1-8298f784cd54"},"vehicle_type_id":"4","last_reported":1703271904,"current_range_meters":26000,"station_id":"ce4bgl12rcd13ifvqbo0","pricing_plan_id":"free"},{"bike_id":"95a934ce-c4d0-4977-9950-b585071d1e71","system_id":"levelo_inurba_marseille","lat":43.29601,"lon":5.381084,"is_reserved":false,"is_disabled":false,"rental_uris":{"android":"levelo://app?vid=95a934ce-c4d0-4977-9950-b585071d1e71","ios":"levelo://app?vid=95a934ce-c4d0-4977-9950-b585071d1e71"},"vehicle_type_id":"4","last_reported":1703271904,"current_range_meters":0,"station_id":"ce4bgl12rcd13ifvqbo0","pricing_plan_id":"free"},{"bike_id":"ffa7935d-ba54-4b5e-8fe8-32b1796b6b70","system_id":"levelo_inurba_marseille","lat":43.292749,"lon":5.368402,"is_reserved":false,"is_disabled":false,"rental_uris":{"android":"levelo://app?vid=ffa7935d-ba54-4b5e-8fe8-32b1796b6b70","ios":"levelo://app?vid=ffa7935d-ba54-4b5e-8fe8-32b1796b6b70"},"vehicle_type_id":"4","last_reported":1703271904,"current_range_meters":8400,"station_id":"ce4bhbp2rcd13ifvqesg","pricing_plan_id":"free"},{"bike_id":"50b8a951-b97d-4db7-9a3d-5f00fb7b52db","system_id":"levelo_inurba_marseille","lat":43.305994,"lon":5.393687,"is_reserved":false,"is_disabled":false,"rental_uris":{"android":"levelo://app?vid=50b8a951-b97d-4db7-9a3d-5f00fb7b52db","ios":"levelo://app?vid=50b8a951-b97d-4db7-9a3d-5f00fb7b52db"},"vehicle_type_id":"4","last_reported":1703271904,"current_range_meters":24800,"station_id":"ce4bh0p2rcd13ifvqd80","pricing_plan_id":"free"},{"bike_id":"febcc1b4-7163-4493-932b-2c2d8a098009","system_id":"levelo_inurba_marseille","lat":43.293009,"lon":5.374584,"is_reserved":false,"is_disabled":false,"rental_uris":{"android":"levelo://app?vid=febcc1b4-7163-4493-932b-2c2d8a098009","ios":"levelo://app?vid=febcc1b4-7163-4493-932b-2c2d8a098009"},"vehicle_type_id":"4","last_reported":1703271904,"current_range_meters":21200,"station_id":"ce4bgi12rcd13ifvqb70","pricing_plan_id":"free"},{"bike_id":"f03bc496-0971-4ad4-a7a2-ef2ffb3e0137","system_id":"levelo_inurba_marseille","lat":43.303002,"lon":5.392142,"is_reserved":false,"is_disabled":false,"rental_uris":{"android":"levelo://app?vid=f03bc496-0971-4ad4-a7a2-ef2ffb3e0137","ios":"levelo://app?vid=f03bc496-0971-4ad4-a7a2-ef2ffb3e0137"},"vehicle_type_id":"4","last_reported":1703271904,"current_range_meters":0,"station_id":"ce4bgkh2rcd13ifvqbk0","pricing_plan_id":"free"},{"bike_id":"b291f949-4f93-42d7-8129-0abcc34fafe5","system_id":"levelo_inurba_marseille","lat":43.2936,"lon":5.37835,"is_reserved":false,"is_disabled":false,"rental_uris":{"android":"levelo://app?vid=b291f949-4f93-42d7-8129-0abcc34fafe5","ios":"levelo://app?vid=b291f949-4f93-42d7-8129-0abcc34fafe5"},"vehicle_type_id":"4","last_reported":1703271904,"current_range_meters":20400,"station_id":"ce4bgjh2rcd13ifvqbf0","pricing_plan_id":"free"},{"bike_id":"b17cc50a-aeac-4333-af03-be56834610ea","system_id":"levelo_inurba_marseille","lat":43.292311,"lon":5.360731,"is_reserved":false,"is_disabled":false,"rental_uris":{"android":"levelo://app?vid=b17cc50a-aeac-4333-af03-be56834610ea","ios":"levelo://app?vid=b17cc50a-aeac-4333-af03-be56834610ea"},"vehicle_type_id":"4","last_reported":1703271904,"current_range_meters":0,"station_id":"ce4bhbh2rcd13ifvqeqg","pricing_plan_id":"free"},{"bike_id":"557000a1-02d5-45c6-b20c-951b70bf4f82","system_id":"levelo_inurba_marseille","lat":43.300981,"lon":5.390863,"is_reserved":false,"is_disabled":false,"rental_uris":{"android":"levelo://app?vid=557000a1-02d5-45c6-b20c-951b70bf4f82","ios":"levelo://app?vid=557000a1-02d5-45c6-b20c-951b70bf4f82"},"vehicle_type_id":"4","last_reported":1703271904,"current_range_meters":0,"station_id":"","pricing_plan_id":"free"},{"bike_id":"e49f5a8d-263c-4d6d-9b24-84e1b54f7f7e","system_id":"levelo_inurba_marseille","lat":43.300852,"lon":5.390859,"is_reserved":false,"is_disabled":false,"rental_uris":{"android":"levelo://app?vid=e49f5a8d-263c-4d6d-9b24-84e1b54f7f7e","ios":"levelo://app?vid=e49f5a8d-263c-4d6d-9b24-84e1b54f7f7e"},"vehicle_type_id":"4","last_reported":1703271904,"current_range_meters":17600,"station_id":"ce4bh192rcd13ifvqdb0","pricing_plan_id":"free"},{"bike_id":"6a1ecab1-301f-438f-91ab-4f1d87993e8a","system_id":"levelo_inurba_marseille","lat":43.291671,"lon":5.371575,"is_reserved":false,"is_disabled":false,"rental_uris":{"android":"levelo://app?vid=6a1ecab1-301f-438f-91ab-4f1d87993e8a","ios":"levelo://app?vid=6a1ecab1-301f-438f-91ab-4f1d87993e8a"},"vehicle_type_id":"4","last_reported":1703271904,"current_range_meters":12400,"station_id":"ce4bha92rcd13ifvqeh0","pricing_plan_id":"free"},{"bike_id":"78c6c194-24e3-4c69-a5fc-4239d190e45e","system_id":"levelo_inurba_marseille","lat":43.291671,"lon":5.371575,"is_reserved":false,"is_disabled":false,"rental_uris":{"android":"levelo://app?vid=78c6c194-24e3-4c69-a5fc-4239d190e45e","ios":"levelo://app?vid=78c6c194-24e3-4c69-a5fc-4239d190e45e"},"vehicle_type_id":"4","last_reported":1703271904,"current_range_meters":10400,"station_id":"ce4bha92rcd13ifvqeh0","pricing_plan_id":"free"},{"bike_id":"bfeab3b4-00c2-4361-8c01-2d0b50c959af","system_id":"levelo_inurba_marseille","lat":43.30889,"lon":5.39628,"is_reserved":false,"is_disabled":false,"rental_uris":{"android":"levelo://app?vid=bfeab3b4-00c2-4361-8c01-2d0b50c959af","ios":"levelo://app?vid=bfeab3b4-00c2-4361-8c01-2d0b50c959af"},"vehicle_type_id":"4","last_reported":1703271904,"current_range_meters":0,"station_id":"ce4bh012rcd13ifvqcv0","pricing_plan_id":"free"},{"bike_id":"d22bcde6-1030-440b-a690-08a88559c9da","system_id":"levelo_inurba_marseille","lat":43.313291,"lon":5.396838,"is_reserved":false,"is_disabled":false,"rental_uris":{"android":"levelo://app?vid=d22bcde6-1030-440b-a690-08a88559c9da","ios":"levelo://app?vid=d22bcde6-1030-440b-a690-08a88559c9da"},"vehicle_type_id":"4","last_reported":1703271904,"current_range_meters":10000,"station_id":"ce4bgvp2rcd13ifvqcu0","pricing_plan_id":"free"},{"bike_id":"8af13314-deea-493f-b30d-5b3fa9f67374","system_id":"levelo_inurba_marseille","lat":43.29529,"lon":5.385581,"is_reserved":false,"is_disabled":false,"rental_uris":{"android":"levelo://app?vid=8af13314-deea-493f-b30d-5b3fa9f67374","ios":"levelo://app?vid=8af13314-deea-493f-b30d-5b3fa9f67374"},"vehicle_type_id":"4","last_reported":1703271904,"current_range_meters":25200,"station_id":"ce4bgih2rcd13ifvqba0","pricing_plan_id":"free"},{"bike_id":"af4eb44c-b6c6-4ffb-9294-38dd5d5dc4b6","system_id":"levelo_inurba_marseille","lat":43.313291,"lon":5.396838,"is_reserved":false,"is_disabled":false,"rental_uris":{"android":"levelo://app?vid=af4eb44c-b6c6-4ffb-9294-38dd5d5dc4b6","ios":"levelo://app?vid=af4eb44c-b6c6-4ffb-9294-38dd5d5dc4b6"},"vehicle_type_id":"4","last_reported":1703271904,"current_range_meters":19200,"station_id":"ce4bgvp2rcd13ifvqcu0","pricing_plan_id":"free"},{"bike_id":"a90b8b83-e596-4fc1-8b62-b201f740b064","system_id":"levelo_inurba_marseille","lat":43.313291,"lon":5.396838,"is_reserved":false,"is_disabled":false,"rental_uris":{"android":"levelo://app?vid=a90b8b83-e596-4fc1-8b62-b201f740b064","ios":"levelo://app?vid=a90b8b83-e596-4fc1-8b62-b201f740b064"},"vehicle_type_id":"4","last_reported":1703271904,"current_range_meters":17600,"station_id":"ce4bgvp2rcd13ifvqcu0","pricing_plan_id":"free"},{"bike_id":"cbc62839-3c9d-4d9e-963f-bbabfe928114","system_id":"levelo_inurba_marseille","lat":43.313291,"lon":5.396838,"is_reserved":false,"is_disabled":false,"rental_uris":{"android":"levelo://app?vid=cbc62839-3c9d-4d9e-963f-bbabfe928114","ios":"levelo://app?vid=cbc62839-3c9d-4d9e-963f-bbabfe928114"},"vehicle_type_id":"4","last_reported":1703271904,"current_range_meters":7200,"station_id":"ce4bgvp2rcd13ifvqcu0","pricing_plan_id":"free"},{"bike_id":"fa38fcc7-ca87-4463-a289-03c7cd4e6723","system_id":"levelo_inurba_marseille","lat":43.313291,"lon":5.396838,"is_reserved":false,"is_disabled":false,"rental_uris":{"android":"levelo://app?vid=fa38fcc7-ca87-4463-a289-03c7cd4e6723","ios":"levelo://app?vid=fa38fcc7-ca87-4463-a289-03c7cd4e6723"},"vehicle_type_id":"4","last_reported":1703271904,"current_range_meters":20800,"station_id":"ce4bgvp2rcd13ifvqcu0","pricing_plan_id":"free"},{"bike_id":"9c342a31-35e8-4afd-b5ff-f1ca705acd85","system_id":"levelo_inurba_marseille","lat":43.309038,"lon":5.396546,"is_reserved":false,"is_disabled":false,"rental_uris":{"android":"levelo://app?vid=9c342a31-35e8-4afd-b5ff-f1ca705acd85","ios":"levelo://app?vid=9c342a31-35e8-4afd-b5ff-f1ca705acd85"},"vehicle_type_id":"4","last_reported":1703271904,"current_range_meters":14000,"station_id":"ce4bh012rcd13ifvqcv0","pricing_plan_id":"free"},{"bike_id":"38d8ffb9-ac7c-4e14-9721-daaee9d23c1a","system_id":"levelo_inurba_marseille","lat":43.313291,"lon":5.396838,"is_reserved":false,"is_disabled":false,"rental_uris":{"android":"levelo://app?vid=38d8ffb9-ac7c-4e14-9721-daaee9d23c1a","ios":"levelo://app?vid=38d8ffb9-ac7c-4e14-9721-daaee9d23c1a"},"vehicle_type_id":"4","last_reported":1703271904,"current_range_meters":18800,"station_id":"ce4bgvp2rcd13ifvqcu0","pricing_plan_id":"free"},{"bike_id":"f6c1fa5a-46bd-4077-bc4a-fb521e11192e","system_id":"levelo_inurba_marseille","lat":43.313291,"lon":5.396838,"is_reserved":false,"is_disabled":false,"rental_uris":{"android":"levelo://app?vid=f6c1fa5a-46bd-4077-bc4a-fb521e11192e","ios":"levelo://app?vid=f6c1fa5a-46bd-4077-bc4a-fb521e11192e"},"vehicle_type_id":"4","last_reported":1703271904,"current_range_meters":15600,"station_id":"ce4bgvp2rcd13ifvqcu0","pricing_plan_id":"free"},{"bike_id":"365351fb-9dc0-4763-85db-886ebe3b10db","system_id":"levelo_inurba_marseille","lat":43.313291,"lon":5.396838,"is_reserved":false,"is_disabled":false,"rental_uris":{"android":"levelo://app?vid=365351fb-9dc0-4763-85db-886ebe3b10db","ios":"levelo://app?vid=365351fb-9dc0-4763-85db-886ebe3b10db"},"vehicle_type_id":"4","last_reported":1703271904,"current_range_meters":8000,"station_id":"ce4bgvp2rcd13ifvqcu0","pricing_plan_id":"free"},{"bike_id":"eceb5307-053e-422d-bbd0-9af032e873b8","system_id":"levelo_inurba_marseille","lat":43.313291,"lon":5.396838,"is_reserved":false,"is_disabled":false,"rental_uris":{"android":"levelo://app?vid=eceb5307-053e-422d-bbd0-9af032e873b8","ios":"levelo://app?vid=eceb5307-053e-422d-bbd0-9af032e873b8"},"vehicle_type_id":"4","last_reported":1703271904,"current_range_meters":18400,"station_id":"ce4bgvp2rcd13ifvqcu0","pricing_plan_id":"free"},{"bike_id":"c4b5c253-f844-42fd-82a6-50cb9b8a64cd","system_id":"levelo_inurba_marseille","lat":43.313291,"lon":5.396838,"is_reserved":false,"is_disabled":false,"rental_uris":{"android":"levelo://app?vid=c4b5c253-f844-42fd-82a6-50cb9b8a64cd","ios":"levelo://app?vid=c4b5c253-f844-42fd-82a6-50cb9b8a64cd"},"vehicle_type_id":"4","last_reported":1703271904,"current_range_meters":31600,"station_id":"ce4bgvp2rcd13ifvqcu0","pricing_plan_id":"free"},{"bike_id":"9094f427-5eab-4581-b250-5210b61702e1","system_id":"levelo_inurba_marseille","lat":43.309038,"lon":5.396546,"is_reserved":false,"is_disabled":false,"rental_uris":{"android":"levelo://app?vid=9094f427-5eab-4581-b250-5210b61702e1","ios":"levelo://app?vid=9094f427-5eab-4581-b250-5210b61702e1"},"vehicle_type_id":"4","last_reported":1703271904,"current_range_meters":0,"station_id":"ce4bh012rcd13ifvqcv0","pricing_plan_id":"free"},{"bike_id":"8574d9c3-1f5d-45bc-b840-34b822fa2f5a","system_id":"levelo_inurba_marseille","lat":43.309047,"lon":5.396551,"is_reserved":false,"is_disabled":false,"rental_uris":{"android":"levelo://app?vid=8574d9c3-1f5d-45bc-b840-34b822fa2f5a","ios":"levelo://app?vid=8574d9c3-1f5d-45bc-b840-34b822fa2f5a"},"vehicle_type_id":"4","last_reported":1703271904,"current_range_meters":11200,"station_id":"ce4bh012rcd13ifvqcv0","pricing_plan_id":"free"},{"bike_id":"748a3ac2-c900-450f-be37-96579a74b362","system_id":"levelo_inurba_marseille","lat":43.29529,"lon":5.385581,"is_reserved":false,"is_disabled":false,"rental_uris":{"android":"levelo://app?vid=748a3ac2-c900-450f-be37-96579a74b362","ios":"levelo://app?vid=748a3ac2-c900-450f-be37-96579a74b362"},"vehicle_type_id":"4","last_reported":1703271904,"current_range_meters":12400,"station_id":"ce4bgih2rcd13ifvqba0","pricing_plan_id":"free"},{"bike_id":"56cafa78-0be5-49ae-a5b2-99dbb9182454","system_id":"levelo_inurba_marseille","lat":43.29529,"lon":5.385581,"is_reserved":false,"is_disabled":false,"rental_uris":{"android":"levelo://app?vid=56cafa78-0be5-49ae-a5b2-99dbb9182454","ios":"levelo://app?vid=56cafa78-0be5-49ae-a5b2-99dbb9182454"},"vehicle_type_id":"4","last_reported":1703271904,"current_range_meters":0,"station_id":"ce4bgih2rcd13ifvqba0","pricing_plan_id":"free"},{"bike_id":"6060e755-656d-4050-a2b7-2e516cff0532","system_id":"levelo_inurba_marseille","lat":43.29529,"lon":5.385581,"is_reserved":false,"is_disabled":false,"rental_uris":{"android":"levelo://app?vid=6060e755-656d-4050-a2b7-2e516cff0532","ios":"levelo://app?vid=6060e755-656d-4050-a2b7-2e516cff0532"},"vehicle_type_id":"4","last_reported":1703271904,"current_range_meters":19600,"station_id":"ce4bgih2rcd13ifvqba0","pricing_plan_id":"free"},{"bike_id":"c02aa490-3138-48e9-98a4-e1f09268609b","system_id":"levelo_inurba_marseille","lat":43.290779,"lon":5.371482,"is_reserved":false,"is_disabled":false,"rental_uris":{"android":"levelo://app?vid=c02aa490-3138-48e9-98a4-e1f09268609b","ios":"levelo://app?vid=c02aa490-3138-48e9-98a4-e1f09268609b"},"vehicle_type_id":"4","last_reported":1703271904,"current_range_meters":18000,"station_id":"ce4bh5p2rcd13ifvqe4g","pricing_plan_id":"free"},{"bike_id":"b445d45a-e5c1-44e7-a3e8-92b6414ce178","system_id":"levelo_inurba_marseille","lat":43.290779,"lon":5.371482,"is_reserved":false,"is_disabled":false,"rental_uris":{"android":"levelo://app?vid=b445d45a-e5c1-44e7-a3e8-92b6414ce178","ios":"levelo://app?vid=b445d45a-e5c1-44e7-a3e8-92b6414ce178"},"vehicle_type_id":"4","last_reported":1703271904,"current_range_meters":22400,"station_id":"ce4bh5p2rcd13ifvqe4g","pricing_plan_id":"free"},{"bike_id":"25727874-eea6-4716-bed1-b13f1b84ee39","system_id":"levelo_inurba_marseille","lat":43.290779,"lon":5.371482,"is_reserved":false,"is_disabled":false,"rental_uris":{"android":"levelo://app?vid=25727874-eea6-4716-bed1-b13f1b84ee39","ios":"levelo://app?vid=25727874-eea6-4716-bed1-b13f1b84ee39"},"vehicle_type_id":"4","last_reported":1703271904,"current_range_meters":8800,"station_id":"ce4bh5p2rcd13ifvqe4g","pricing_plan_id":"free"},{"bike_id":"8ee20354-b83c-48cc-9d33-b68439f6077e","system_id":"levelo_inurba_marseille","lat":43.30207,"lon":5.39469,"is_reserved":false,"is_disabled":false,"rental_uris":{"android":"levelo://app?vid=8ee20354-b83c-48cc-9d33-b68439f6077e","ios":"levelo://app?vid=8ee20354-b83c-48cc-9d33-b68439f6077e"},"vehicle_type_id":"4","last_reported":1703271904,"current_range_meters":28800,"station_id":"ce4bh0p2rcd13ifvqd70","pricing_plan_id":"free"},{"bike_id":"2181b0c2-3840-4280-a2fc-7a3d7ae35c06","system_id":"levelo_inurba_marseille","lat":43.294153,"lon":5.386305,"is_reserved":false,"is_disabled":false,"rental_uris":{"android":"levelo://app?vid=2181b0c2-3840-4280-a2fc-7a3d7ae35c06","ios":"levelo://app?vid=2181b0c2-3840-4280-a2fc-7a3d7ae35c06"},"vehicle_type_id":"4","last_reported":1703271904,"current_range_meters":18800,"station_id":"ce4bh2h2rcd13ifvqdh0","pricing_plan_id":"free"},{"bike_id":"4af57d39-99c4-49ff-8898-ddb3ec275507","system_id":"levelo_inurba_marseille","lat":43.294153,"lon":5.386305,"is_reserved":false,"is_disabled":false,"rental_uris":{"android":"levelo://app?vid=4af57d39-99c4-49ff-8898-ddb3ec275507","ios":"levelo://app?vid=4af57d39-99c4-49ff-8898-ddb3ec275507"},"vehicle_type_id":"4","last_reported":1703271904,"current_range_meters":16400,"station_id":"ce4bh2h2rcd13ifvqdh0","pricing_plan_id":"free"},{"bike_id":"65f214b2-3544-432b-8290-9980fd78b538","system_id":"levelo_inurba_marseille","lat":43.290327,"lon":5.375711,"is_reserved":false,"is_disabled":false,"rental_uris":{"android":"levelo://app?vid=65f214b2-3544-432b-8290-9980fd78b538","ios":"levelo://app?vid=65f214b2-3544-432b-8290-9980fd78b538"},"vehicle_type_id":"4","last_reported":1703271904,"current_range_meters":12000,"station_id":"ce4bh692rcd13ifvqe90","pricing_plan_id":"free"},{"bike_id":"37edfb4f-78a6-4137-a57b-d42cb29b4ad0","system_id":"levelo_inurba_marseille","lat":43.289184,"lon":5.366408,"is_reserved":false,"is_disabled":false,"rental_uris":{"android":"levelo://app?vid=37edfb4f-78a6-4137-a57b-d42cb29b4ad0","ios":"levelo://app?vid=37edfb4f-78a6-4137-a57b-d42cb29b4ad0"},"vehicle_type_id":"4","last_reported":1703271904,"current_range_meters":12400,"station_id":"ce4bhap2rcd13ifvqek0","pricing_plan_id":"free"},{"bike_id":"aed28898-c73c-4d8a-bd67-203ee53f81df","system_id":"levelo_inurba_marseille","lat":43.292642,"lon":5.384254,"is_reserved":false,"is_disabled":false,"rental_uris":{"android":"levelo://app?vid=aed28898-c73c-4d8a-bd67-203ee53f81df","ios":"levelo://app?vid=aed28898-c73c-4d8a-bd67-203ee53f81df"},"vehicle_type_id":"4","last_reported":1703271904,"current_range_meters":9600,"station_id":"ce4bh692rcd13ifvqea0","pricing_plan_id":"free"},{"bike_id":"3ec0d1e1-e058-4b3f-97bd-f3c74eede435","system_id":"levelo_inurba_marseille","lat":43.292642,"lon":5.384254,"is_reserved":false,"is_disabled":false,"rental_uris":{"android":"levelo://app?vid=3ec0d1e1-e058-4b3f-97bd-f3c74eede435","ios":"levelo://app?vid=3ec0d1e1-e058-4b3f-97bd-f3c74eede435"},"vehicle_type_id":"4","last_reported":1703271904,"current_range_meters":28400,"station_id":"ce4bh692rcd13ifvqea0","pricing_plan_id":"free"},{"bike_id":"0774dd71-6226-419d-bf37-6c3f270322f5","system_id":"levelo_inurba_marseille","lat":43.292644,"lon":5.384257,"is_reserved":false,"is_disabled":false,"rental_uris":{"android":"levelo://app?vid=0774dd71-6226-419d-bf37-6c3f270322f5","ios":"levelo://app?vid=0774dd71-6226-419d-bf37-6c3f270322f5"},"vehicle_type_id":"4","last_reported":1703271904,"current_range_meters":8400,"station_id":"ce4bh692rcd13ifvqea0","pricing_plan_id":"free"},{"bike_id":"ad49f3bb-9ac6-424a-b167-cee7bb3212d4","system_id":"levelo_inurba_marseille","lat":43.292644,"lon":5.384257,"is_reserved":false,"is_disabled":false,"rental_uris":{"android":"levelo://app?vid=ad49f3bb-9ac6-424a-b167-cee7bb3212d4","ios":"levelo://app?vid=ad49f3bb-9ac6-424a-b167-cee7bb3212d4"},"vehicle_type_id":"4","last_reported":1703271904,"current_range_meters":25600,"station_id":"ce4bh692rcd13ifvqea0","pricing_plan_id":"free"},{"bike_id":"22737403-81d2-4445-a12d-f84902b0580f","system_id":"levelo_inurba_marseille","lat":43.290103,"lon":5.356114,"is_reserved":false,"is_disabled":false,"rental_uris":{"android":"levelo://app?vid=22737403-81d2-4445-a12d-f84902b0580f","ios":"levelo://app?vid=22737403-81d2-4445-a12d-f84902b0580f"},"vehicle_type_id":"4","last_reported":1703271904,"current_range_meters":26400,"station_id":"ce4bhb92rcd13ifvqen0","pricing_plan_id":"free"},{"bike_id":"5be1432d-c27a-44f8-a832-588f07271b97","system_id":"levelo_inurba_marseille","lat":43.292642,"lon":5.384254,"is_reserved":false,"is_disabled":false,"rental_uris":{"android":"levelo://app?vid=5be1432d-c27a-44f8-a832-588f07271b97","ios":"levelo://app?vid=5be1432d-c27a-44f8-a832-588f07271b97"},"vehicle_type_id":"4","last_reported":1703271904,"current_range_meters":26000,"station_id":"ce4bh692rcd13ifvqea0","pricing_plan_id":"free"},{"bike_id":"28bd0799-2d1f-44f9-bb5d-3b37f12e8dd4","system_id":"levelo_inurba_marseille","lat":43.29783,"lon":5.39331,"is_reserved":false,"is_disabled":false,"rental_uris":{"android":"levelo://app?vid=28bd0799-2d1f-44f9-bb5d-3b37f12e8dd4","ios":"levelo://app?vid=28bd0799-2d1f-44f9-bb5d-3b37f12e8dd4"},"vehicle_type_id":"4","last_reported":1703271904,"current_range_meters":0,"station_id":"chh1huq6cuj3fo74tm60","pricing_plan_id":"free"},{"bike_id":"9650fdd3-2bba-4c7b-8d7d-9c89c9bf7bcc","system_id":"levelo_inurba_marseille","lat":43.297815,"lon":5.393548,"is_reserved":false,"is_disabled":false,"rental_uris":{"android":"levelo://app?vid=9650fdd3-2bba-4c7b-8d7d-9c89c9bf7bcc","ios":"levelo://app?vid=9650fdd3-2bba-4c7b-8d7d-9c89c9bf7bcc"},"vehicle_type_id":"4","last_reported":1703271904,"current_range_meters":17200,"station_id":"chh1huq6cuj3fo74tm60","pricing_plan_id":"free"},{"bike_id":"34e339cb-cec2-4213-a0dc-a9babc90b632","system_id":"levelo_inurba_marseille","lat":43.297815,"lon":5.393548,"is_reserved":false,"is_disabled":false,"rental_uris":{"android":"levelo://app?vid=34e339cb-cec2-4213-a0dc-a9babc90b632","ios":"levelo://app?vid=34e339cb-cec2-4213-a0dc-a9babc90b632"},"vehicle_type_id":"4","last_reported":1703271904,"current_range_meters":20400,"station_id":"chh1huq6cuj3fo74tm60","pricing_plan_id":"free"},{"bike_id":"bb7b116d-3237-47af-be86-a72d107efc27","system_id":"levelo_inurba_marseille","lat":43.29785,"lon":5.39341,"is_reserved":false,"is_disabled":false,"rental_uris":{"android":"levelo://app?vid=bb7b116d-3237-47af-be86-a72d107efc27","ios":"levelo://app?vid=bb7b116d-3237-47af-be86-a72d107efc27"},"vehicle_type_id":"4","last_reported":1703271904,"current_range_meters":13200,"station_id":"chh1huq6cuj3fo74tm60","pricing_plan_id":"free"},{"bike_id":"f61deeec-d31b-4349-b677-8bd5c5176c68","system_id":"levelo_inurba_marseille","lat":43.28856,"lon":5.358371,"is_reserved":false,"is_disabled":false,"rental_uris":{"android":"levelo://app?vid=f61deeec-d31b-4349-b677-8bd5c5176c68","ios":"levelo://app?vid=f61deeec-d31b-4349-b677-8bd5c5176c68"},"vehicle_type_id":"4","last_reported":1703271904,"current_range_meters":0,"station_id":"ce4bhb12rcd13ifvqem0","pricing_plan_id":"free"},{"bike_id":"5ab7a3a4-a9b5-4c07-8e34-680fca3aa72d","system_id":"levelo_inurba_marseille","lat":43.28856,"lon":5.358371,"is_reserved":false,"is_disabled":false,"rental_uris":{"android":"levelo://app?vid=5ab7a3a4-a9b5-4c07-8e34-680fca3aa72d","ios":"levelo://app?vid=5ab7a3a4-a9b5-4c07-8e34-680fca3aa72d"},"vehicle_type_id":"4","last_reported":1703271904,"current_range_meters":18000,"station_id":"ce4bhb12rcd13ifvqem0","pricing_plan_id":"free"},{"bike_id":"5a66072a-bf50-4c9b-bc77-8296d1b75b3d","system_id":"levelo_inurba_marseille","lat":43.312609,"lon":5.401662,"is_reserved":false,"is_disabled":false,"rental_uris":{"android":"levelo://app?vid=5a66072a-bf50-4c9b-bc77-8296d1b75b3d","ios":"levelo://app?vid=5a66072a-bf50-4c9b-bc77-8296d1b75b3d"},"vehicle_type_id":"4","last_reported":1703271904,"current_range_meters":13200,"station_id":"ce4bh092rcd13ifvqd30","pricing_plan_id":"free"},{"bike_id":"3d91a44c-7de9-415b-b803-2bc36e29baea","system_id":"levelo_inurba_marseille","lat":43.312609,"lon":5.401662,"is_reserved":false,"is_disabled":false,"rental_uris":{"android":"levelo://app?vid=3d91a44c-7de9-415b-b803-2bc36e29baea","ios":"levelo://app?vid=3d91a44c-7de9-415b-b803-2bc36e29baea"},"vehicle_type_id":"4","last_reported":1703271904,"current_range_meters":2000,"station_id":"ce4bh092rcd13ifvqd30","pricing_plan_id":"free"},{"bike_id":"aa2bb981-e08f-448f-a65e-a15a6461a4f7","system_id":"levelo_inurba_marseille","lat":43.337581,"lon":5.374351,"is_reserved":false,"is_disabled":false,"rental_uris":{"android":"levelo://app?vid=aa2bb981-e08f-448f-a65e-a15a6461a4f7","ios":"levelo://app?vid=aa2bb981-e08f-448f-a65e-a15a6461a4f7"},"vehicle_type_id":"4","last_reported":1703271904,"current_range_meters":22400,"station_id":"ce4rr2p2rcd13i802rgg","pricing_plan_id":"free"},{"bike_id":"41c046a6-7cba-49c2-8c7a-f269d8a6e461","system_id":"levelo_inurba_marseille","lat":43.337586,"lon":5.374507,"is_reserved":false,"is_disabled":false,"rental_uris":{"android":"levelo://app?vid=41c046a6-7cba-49c2-8c7a-f269d8a6e461","ios":"levelo://app?vid=41c046a6-7cba-49c2-8c7a-f269d8a6e461"},"vehicle_type_id":"4","last_reported":1703271904,"current_range_meters":14000,"station_id":"ce4rr2p2rcd13i802rgg","pricing_plan_id":"free"},{"bike_id":"ed03c11c-b2f2-4071-b320-8aa881128fb4","system_id":"levelo_inurba_marseille","lat":43.33762,"lon":5.37432,"is_reserved":false,"is_disabled":false,"rental_uris":{"android":"levelo://app?vid=ed03c11c-b2f2-4071-b320-8aa881128fb4","ios":"levelo://app?vid=ed03c11c-b2f2-4071-b320-8aa881128fb4"},"vehicle_type_id":"4","last_reported":1703271904,"current_range_meters":20400,"station_id":"","pricing_plan_id":"free"},{"bike_id":"e3b05bb2-3bf6-4e93-a935-8d00a3036fa0","system_id":"levelo_inurba_marseille","lat":43.33761,"lon":5.374464,"is_reserved":false,"is_disabled":false,"rental_uris":{"android":"levelo://app?vid=e3b05bb2-3bf6-4e93-a935-8d00a3036fa0","ios":"levelo://app?vid=e3b05bb2-3bf6-4e93-a935-8d00a3036fa0"},"vehicle_type_id":"4","last_reported":1703271904,"current_range_meters":16800,"station_id":"ce4rr2p2rcd13i802rgg","pricing_plan_id":"free"},{"bike_id":"af782aaf-55ff-4275-9a35-1eaf63c3c50f","system_id":"levelo_inurba_marseille","lat":43.33764,"lon":5.374346,"is_reserved":false,"is_disabled":false,"rental_uris":{"android":"levelo://app?vid=af782aaf-55ff-4275-9a35-1eaf63c3c50f","ios":"levelo://app?vid=af782aaf-55ff-4275-9a35-1eaf63c3c50f"},"vehicle_type_id":"4","last_reported":1703271904,"current_range_meters":24800,"station_id":"ce4rr2p2rcd13i802rgg","pricing_plan_id":"free"},{"bike_id":"48361e8a-6fad-43b0-9b77-4696a50c3aea","system_id":"levelo_inurba_marseille","lat":43.337646,"lon":5.374332,"is_reserved":false,"is_disabled":false,"rental_uris":{"android":"levelo://app?vid=48361e8a-6fad-43b0-9b77-4696a50c3aea","ios":"levelo://app?vid=48361e8a-6fad-43b0-9b77-4696a50c3aea"},"vehicle_type_id":"4","last_reported":1703271904,"current_range_meters":19600,"station_id":"ce4rr2p2rcd13i802rgg","pricing_plan_id":"free"},{"bike_id":"b9c8fefe-fcf2-4e1c-95c9-c0ffed42221d","system_id":"levelo_inurba_marseille","lat":43.33769,"lon":5.37423,"is_reserved":false,"is_disabled":false,"rental_uris":{"android":"levelo://app?vid=b9c8fefe-fcf2-4e1c-95c9-c0ffed42221d","ios":"levelo://app?vid=b9c8fefe-fcf2-4e1c-95c9-c0ffed42221d"},"vehicle_type_id":"4","last_reported":1703271904,"current_range_meters":10000,"station_id":"ce4rr2p2rcd13i802rgg","pricing_plan_id":"free"},{"bike_id":"db5ccab8-7a8a-4751-a062-0c2ba2bfc08b","system_id":"levelo_inurba_marseille","lat":43.33769,"lon":5.37431,"is_reserved":false,"is_disabled":false,"rental_uris":{"android":"levelo://app?vid=db5ccab8-7a8a-4751-a062-0c2ba2bfc08b","ios":"levelo://app?vid=db5ccab8-7a8a-4751-a062-0c2ba2bfc08b"},"vehicle_type_id":"4","last_reported":1703271904,"current_range_meters":17200,"station_id":"","pricing_plan_id":"free"},{"bike_id":"5f6df711-5c47-41c8-b2e0-ca21db0773eb","system_id":"levelo_inurba_marseille","lat":43.337714,"lon":5.374345,"is_reserved":false,"is_disabled":false,"rental_uris":{"android":"levelo://app?vid=5f6df711-5c47-41c8-b2e0-ca21db0773eb","ios":"levelo://app?vid=5f6df711-5c47-41c8-b2e0-ca21db0773eb"},"vehicle_type_id":"4","last_reported":1703271904,"current_range_meters":22800,"station_id":"","pricing_plan_id":"free"},{"bike_id":"8516412d-ed1b-43c4-bd1e-951e035510a0","system_id":"levelo_inurba_marseille","lat":43.337712,"lon":5.374369,"is_reserved":false,"is_disabled":false,"rental_uris":{"android":"levelo://app?vid=8516412d-ed1b-43c4-bd1e-951e035510a0","ios":"levelo://app?vid=8516412d-ed1b-43c4-bd1e-951e035510a0"},"vehicle_type_id":"4","last_reported":1703271904,"current_range_meters":10800,"station_id":"ce4rr2p2rcd13i802rgg","pricing_plan_id":"free"},{"bike_id":"f448eb04-09a1-4b41-b1f7-2be97bf27c1d","system_id":"levelo_inurba_marseille","lat":43.306412,"lon":5.401035,"is_reserved":false,"is_disabled":false,"rental_uris":{"android":"levelo://app?vid=f448eb04-09a1-4b41-b1f7-2be97bf27c1d","ios":"levelo://app?vid=f448eb04-09a1-4b41-b1f7-2be97bf27c1d"},"vehicle_type_id":"4","last_reported":1703271904,"current_range_meters":6800,"station_id":"ce4bh112rcd13ifvqda0","pricing_plan_id":"free"},{"bike_id":"4dfd2fe6-d396-45fe-a9f3-2cf80069454a","system_id":"levelo_inurba_marseille","lat":43.337813,"lon":5.374338,"is_reserved":false,"is_disabled":false,"rental_uris":{"android":"levelo://app?vid=4dfd2fe6-d396-45fe-a9f3-2cf80069454a","ios":"levelo://app?vid=4dfd2fe6-d396-45fe-a9f3-2cf80069454a"},"vehicle_type_id":"4","last_reported":1703271904,"current_range_meters":22400,"station_id":"ce4rr2p2rcd13i802rgg","pricing_plan_id":"free"},{"bike_id":"8ed93715-ec1e-4703-acb2-7183fed943a4","system_id":"levelo_inurba_marseille","lat":43.337868,"lon":5.374403,"is_reserved":false,"is_disabled":false,"rental_uris":{"android":"levelo://app?vid=8ed93715-ec1e-4703-acb2-7183fed943a4","ios":"levelo://app?vid=8ed93715-ec1e-4703-acb2-7183fed943a4"},"vehicle_type_id":"4","last_reported":1703271904,"current_range_meters":18400,"station_id":"ce4rr2p2rcd13i802rgg","pricing_plan_id":"free"},{"bike_id":"3ad100dd-ec48-495b-9240-9c5284adeb58","system_id":"levelo_inurba_marseille","lat":43.301117,"lon":5.398795,"is_reserved":false,"is_disabled":false,"rental_uris":{"android":"levelo://app?vid=3ad100dd-ec48-495b-9240-9c5284adeb58","ios":"levelo://app?vid=3ad100dd-ec48-495b-9240-9c5284adeb58"},"vehicle_type_id":"4","last_reported":1703271904,"current_range_meters":21600,"station_id":"ce4bh0h2rcd13ifvqd40","pricing_plan_id":"free"},{"bike_id":"5ead1464-77c6-4df9-9688-a6faea1fbd31","system_id":"levelo_inurba_marseille","lat":43.30642,"lon":5.401031,"is_reserved":false,"is_disabled":false,"rental_uris":{"android":"levelo://app?vid=5ead1464-77c6-4df9-9688-a6faea1fbd31","ios":"levelo://app?vid=5ead1464-77c6-4df9-9688-a6faea1fbd31"},"vehicle_type_id":"4","last_reported":1703271904,"current_range_meters":8800,"station_id":"ce4bh112rcd13ifvqda0","pricing_plan_id":"free"},{"bike_id":"6cb4a54c-1a72-4d53-b11c-38c3120d9644","system_id":"levelo_inurba_marseille","lat":43.298681,"lon":5.397225,"is_reserved":false,"is_disabled":false,"rental_uris":{"android":"levelo://app?vid=6cb4a54c-1a72-4d53-b11c-38c3120d9644","ios":"levelo://app?vid=6cb4a54c-1a72-4d53-b11c-38c3120d9644"},"vehicle_type_id":"4","last_reported":1703271904,"current_range_meters":16800,"station_id":"ce4bh0h2rcd13ifvqd50","pricing_plan_id":"free"},{"bike_id":"f7656d93-9c5a-4918-9ac1-855cabca9f04","system_id":"levelo_inurba_marseille","lat":43.2987,"lon":5.39732,"is_reserved":false,"is_disabled":false,"rental_uris":{"android":"levelo://app?vid=f7656d93-9c5a-4918-9ac1-855cabca9f04","ios":"levelo://app?vid=f7656d93-9c5a-4918-9ac1-855cabca9f04"},"vehicle_type_id":"4","last_reported":1703271904,"current_range_meters":0,"station_id":"ce4bh0h2rcd13ifvqd50","pricing_plan_id":"free"},{"bike_id":"cf8f53bc-b0fa-469e-8377-00a30df59103","system_id":"levelo_inurba_marseille","lat":43.298681,"lon":5.397225,"is_reserved":false,"is_disabled":false,"rental_uris":{"android":"levelo://app?vid=cf8f53bc-b0fa-469e-8377-00a30df59103","ios":"levelo://app?vid=cf8f53bc-b0fa-469e-8377-00a30df59103"},"vehicle_type_id":"4","last_reported":1703271904,"current_range_meters":7200,"station_id":"ce4bh0h2rcd13ifvqd50","pricing_plan_id":"free"},{"bike_id":"c6647982-6cd8-42e9-9937-7696c30453af","system_id":"levelo_inurba_marseille","lat":43.298667,"lon":5.39731,"is_reserved":false,"is_disabled":false,"rental_uris":{"android":"levelo://app?vid=c6647982-6cd8-42e9-9937-7696c30453af","ios":"levelo://app?vid=c6647982-6cd8-42e9-9937-7696c30453af"},"vehicle_type_id":"4","last_reported":1703271904,"current_range_meters":21600,"station_id":"ce4bh0h2rcd13ifvqd50","pricing_plan_id":"free"},{"bike_id":"61a1dc70-bc21-4dea-b1e1-cddb9f224ee9","system_id":"levelo_inurba_marseille","lat":43.29864,"lon":5.3973,"is_reserved":false,"is_disabled":false,"rental_uris":{"android":"levelo://app?vid=61a1dc70-bc21-4dea-b1e1-cddb9f224ee9","ios":"levelo://app?vid=61a1dc70-bc21-4dea-b1e1-cddb9f224ee9"},"vehicle_type_id":"4","last_reported":1703271904,"current_range_meters":0,"station_id":"ce4bh0h2rcd13ifvqd50","pricing_plan_id":"free"},{"bike_id":"98e48ef2-398c-425e-851f-0b6ac0708f0c","system_id":"levelo_inurba_marseille","lat":43.286961,"lon":5.373785,"is_reserved":false,"is_disabled":false,"rental_uris":{"android":"levelo://app?vid=98e48ef2-398c-425e-851f-0b6ac0708f0c","ios":"levelo://app?vid=98e48ef2-398c-425e-851f-0b6ac0708f0c"},"vehicle_type_id":"4","last_reported":1703271904,"current_range_meters":17600,"station_id":"ce4bh3p2rcd13ifvqdq0","pricing_plan_id":"free"},{"bike_id":"e5fada2e-1bce-4573-b9e9-df2d93eb9a77","system_id":"levelo_inurba_marseille","lat":43.295196,"lon":5.39397,"is_reserved":false,"is_disabled":false,"rental_uris":{"android":"levelo://app?vid=e5fada2e-1bce-4573-b9e9-df2d93eb9a77","ios":"levelo://app?vid=e5fada2e-1bce-4573-b9e9-df2d93eb9a77"},"vehicle_type_id":"4","last_reported":1703271904,"current_range_meters":12800,"station_id":"ce4bh292rcd13ifvqdf0","pricing_plan_id":"free"},{"bike_id":"466190cc-62ad-4f2c-98ca-cfc9da8b5207","system_id":"levelo_inurba_marseille","lat":43.29521,"lon":5.39403,"is_reserved":false,"is_disabled":false,"rental_uris":{"android":"levelo://app?vid=466190cc-62ad-4f2c-98ca-cfc9da8b5207","ios":"levelo://app?vid=466190cc-62ad-4f2c-98ca-cfc9da8b5207"},"vehicle_type_id":"4","last_reported":1703271904,"current_range_meters":22000,"station_id":"ce4bh292rcd13ifvqdf0","pricing_plan_id":"free"},{"bike_id":"3123620a-89a4-4b60-8161-d87cd8cc7a7e","system_id":"levelo_inurba_marseille","lat":43.3025,"lon":5.40069,"is_reserved":false,"is_disabled":false,"rental_uris":{"android":"levelo://app?vid=3123620a-89a4-4b60-8161-d87cd8cc7a7e","ios":"levelo://app?vid=3123620a-89a4-4b60-8161-d87cd8cc7a7e"},"vehicle_type_id":"4","last_reported":1703271904,"current_range_meters":1600,"station_id":"ce4bgvh2rcd13ifvqcs0","pricing_plan_id":"free"},{"bike_id":"42824834-a20d-46c6-9cb9-cd1cda4a0402","system_id":"levelo_inurba_marseille","lat":43.302759,"lon":5.400793,"is_reserved":false,"is_disabled":false,"rental_uris":{"android":"levelo://app?vid=42824834-a20d-46c6-9cb9-cd1cda4a0402","ios":"levelo://app?vid=42824834-a20d-46c6-9cb9-cd1cda4a0402"},"vehicle_type_id":"4","last_reported":1703271904,"current_range_meters":19600,"station_id":"ce4bgvh2rcd13ifvqcs0","pricing_plan_id":"free"},{"bike_id":"4e71b08e-f33a-49d9-ba8d-698ce8ffbba5","system_id":"levelo_inurba_marseille","lat":43.302759,"lon":5.400793,"is_reserved":false,"is_disabled":false,"rental_uris":{"android":"levelo://app?vid=4e71b08e-f33a-49d9-ba8d-698ce8ffbba5","ios":"levelo://app?vid=4e71b08e-f33a-49d9-ba8d-698ce8ffbba5"},"vehicle_type_id":"4","last_reported":1703271904,"current_range_meters":31200,"station_id":"ce4bgvh2rcd13ifvqcs0","pricing_plan_id":"free"},{"bike_id":"cd92ea40-6028-45b1-932d-768cb15aa714","system_id":"levelo_inurba_marseille","lat":43.302759,"lon":5.400793,"is_reserved":false,"is_disabled":false,"rental_uris":{"android":"levelo://app?vid=cd92ea40-6028-45b1-932d-768cb15aa714","ios":"levelo://app?vid=cd92ea40-6028-45b1-932d-768cb15aa714"},"vehicle_type_id":"4","last_reported":1703271904,"current_range_meters":28000,"station_id":"ce4bgvh2rcd13ifvqcs0","pricing_plan_id":"free"},{"bike_id":"62505184-ecdd-4b6a-90e2-018ae89a5f61","system_id":"levelo_inurba_marseille","lat":43.286039,"lon":5.370679,"is_reserved":false,"is_disabled":false,"rental_uris":{"android":"levelo://app?vid=62505184-ecdd-4b6a-90e2-018ae89a5f61","ios":"levelo://app?vid=62505184-ecdd-4b6a-90e2-018ae89a5f61"},"vehicle_type_id":"4","last_reported":1703271904,"current_range_meters":18800,"station_id":"ce4bht12rcd13ifvqi60","pricing_plan_id":"free"},{"bike_id":"35626461-9086-4717-b083-e4f7c7dc682f","system_id":"levelo_inurba_marseille","lat":43.287107,"lon":5.379483,"is_reserved":false,"is_disabled":false,"rental_uris":{"android":"levelo://app?vid=35626461-9086-4717-b083-e4f7c7dc682f","ios":"levelo://app?vid=35626461-9086-4717-b083-e4f7c7dc682f"},"vehicle_type_id":"4","last_reported":1703271904,"current_range_meters":9200,"station_id":"ce4bh9p2rcd13ifvqec0","pricing_plan_id":"free"},{"bike_id":"5037cb98-daba-40f9-a96e-c29033af2df5","system_id":"levelo_inurba_marseille","lat":43.316828,"lon":5.404723,"is_reserved":false,"is_disabled":false,"rental_uris":{"android":"levelo://app?vid=5037cb98-daba-40f9-a96e-c29033af2df5","ios":"levelo://app?vid=5037cb98-daba-40f9-a96e-c29033af2df5"},"vehicle_type_id":"4","last_reported":1703271904,"current_range_meters":6400,"station_id":"ce4bh012rcd13ifvqd00","pricing_plan_id":"free"},{"bike_id":"1704691f-97bf-4363-8686-d68bedd01625","system_id":"levelo_inurba_marseille","lat":43.29199,"lon":5.393187,"is_reserved":false,"is_disabled":false,"rental_uris":{"android":"levelo://app?vid=1704691f-97bf-4363-8686-d68bedd01625","ios":"levelo://app?vid=1704691f-97bf-4363-8686-d68bedd01625"},"vehicle_type_id":"4","last_reported":1703271904,"current_range_meters":0,"station_id":"ce4bh192rcd13ifvqdd0","pricing_plan_id":"free"},{"bike_id":"b7e40bc8-261a-4a40-86a2-2d4057ab3262","system_id":"levelo_inurba_marseille","lat":43.291994,"lon":5.392907,"is_reserved":false,"is_disabled":false,"rental_uris":{"android":"levelo://app?vid=b7e40bc8-261a-4a40-86a2-2d4057ab3262","ios":"levelo://app?vid=b7e40bc8-261a-4a40-86a2-2d4057ab3262"},"vehicle_type_id":"4","last_reported":1703271904,"current_range_meters":30000,"station_id":"ce4bh192rcd13ifvqdd0","pricing_plan_id":"free"},{"bike_id":"e2adfa7c-882e-48a1-9ee4-b36e6186ebbf","system_id":"levelo_inurba_marseille","lat":43.330912,"lon":5.396935,"is_reserved":false,"is_disabled":false,"rental_uris":{"android":"levelo://app?vid=e2adfa7c-882e-48a1-9ee4-b36e6186ebbf","ios":"levelo://app?vid=e2adfa7c-882e-48a1-9ee4-b36e6186ebbf"},"vehicle_type_id":"4","last_reported":1703271904,"current_range_meters":17600,"station_id":"","pricing_plan_id":"free"},{"bike_id":"6681f091-8cae-40db-82be-2afedc79afec","system_id":"levelo_inurba_marseille","lat":43.297876,"lon":5.400707,"is_reserved":false,"is_disabled":false,"rental_uris":{"android":"levelo://app?vid=6681f091-8cae-40db-82be-2afedc79afec","ios":"levelo://app?vid=6681f091-8cae-40db-82be-2afedc79afec"},"vehicle_type_id":"4","last_reported":1703271904,"current_range_meters":5200,"station_id":"","pricing_plan_id":"free"},{"bike_id":"d39f029e-2ea3-4388-96d7-f09feca6d760","system_id":"levelo_inurba_marseille","lat":43.294314,"lon":5.397498,"is_reserved":false,"is_disabled":false,"rental_uris":{"android":"levelo://app?vid=d39f029e-2ea3-4388-96d7-f09feca6d760","ios":"levelo://app?vid=d39f029e-2ea3-4388-96d7-f09feca6d760"},"vehicle_type_id":"4","last_reported":1703271904,"current_range_meters":13600,"station_id":"ce4bh3h2rcd13ifvqdo0","pricing_plan_id":"free"},{"bike_id":"462e3507-2c93-43e7-bb58-f171f77afc8d","system_id":"levelo_inurba_marseille","lat":43.294314,"lon":5.397498,"is_reserved":false,"is_disabled":false,"rental_uris":{"android":"levelo://app?vid=462e3507-2c93-43e7-bb58-f171f77afc8d","ios":"levelo://app?vid=462e3507-2c93-43e7-bb58-f171f77afc8d"},"vehicle_type_id":"4","last_reported":1703271904,"current_range_meters":30400,"station_id":"ce4bh3h2rcd13ifvqdo0","pricing_plan_id":"free"},{"bike_id":"924533ae-2896-4d73-b37a-2936fb14ac9e","system_id":"levelo_inurba_marseille","lat":43.285856,"lon":5.350771,"is_reserved":false,"is_disabled":false,"rental_uris":{"android":"levelo://app?vid=924533ae-2896-4d73-b37a-2936fb14ac9e","ios":"levelo://app?vid=924533ae-2896-4d73-b37a-2936fb14ac9e"},"vehicle_type_id":"4","last_reported":1703271904,"current_range_meters":21600,"station_id":"ce4bhch2rcd13ifvqeug","pricing_plan_id":"free"},{"bike_id":"ac64e572-9398-43ec-97c7-65ba37c2aa0f","system_id":"levelo_inurba_marseille","lat":43.295713,"lon":5.399639,"is_reserved":false,"is_disabled":false,"rental_uris":{"android":"levelo://app?vid=ac64e572-9398-43ec-97c7-65ba37c2aa0f","ios":"levelo://app?vid=ac64e572-9398-43ec-97c7-65ba37c2aa0f"},"vehicle_type_id":"4","last_reported":1703271904,"current_range_meters":4000,"station_id":"ce4bh312rcd13ifvqdj0","pricing_plan_id":"free"},{"bike_id":"cee0cd89-d79a-4d35-bafa-4a352adb073b","system_id":"levelo_inurba_marseille","lat":43.286595,"lon":5.386795,"is_reserved":false,"is_disabled":false,"rental_uris":{"android":"levelo://app?vid=cee0cd89-d79a-4d35-bafa-4a352adb073b","ios":"levelo://app?vid=cee0cd89-d79a-4d35-bafa-4a352adb073b"},"vehicle_type_id":"4","last_reported":1703271904,"current_range_meters":6000,"station_id":"ce4bh492rcd13ifvqdug","pricing_plan_id":"free"},{"bike_id":"aa7362a4-f56c-4e32-be08-7bea6c6e7c6a","system_id":"levelo_inurba_marseille","lat":43.28671,"lon":5.38677,"is_reserved":false,"is_disabled":false,"rental_uris":{"android":"levelo://app?vid=aa7362a4-f56c-4e32-be08-7bea6c6e7c6a","ios":"levelo://app?vid=aa7362a4-f56c-4e32-be08-7bea6c6e7c6a"},"vehicle_type_id":"4","last_reported":1703271904,"current_range_meters":7200,"station_id":"ce4bh492rcd13ifvqdug","pricing_plan_id":"free"},{"bike_id":"b306bef3-61ce-4097-b249-eebc7da08ee6","system_id":"levelo_inurba_marseille","lat":43.323464,"lon":5.406297,"is_reserved":false,"is_disabled":false,"rental_uris":{"android":"levelo://app?vid=b306bef3-61ce-4097-b249-eebc7da08ee6","ios":"levelo://app?vid=b306bef3-61ce-4097-b249-eebc7da08ee6"},"vehicle_type_id":"4","last_reported":1703271904,"current_range_meters":25200,"station_id":"ce4bhq92rcd13ifvqhjg","pricing_plan_id":"free"},{"bike_id":"3b7e3ec0-988e-4aeb-bcf3-3017c628b5d3","system_id":"levelo_inurba_marseille","lat":43.33717,"lon":5.391857,"is_reserved":false,"is_disabled":false,"rental_uris":{"android":"levelo://app?vid=3b7e3ec0-988e-4aeb-bcf3-3017c628b5d3","ios":"levelo://app?vid=3b7e3ec0-988e-4aeb-bcf3-3017c628b5d3"},"vehicle_type_id":"4","last_reported":1703271904,"current_range_meters":30000,"station_id":"ce4bhr92rcd13ifvqhsg","pricing_plan_id":"free"},{"bike_id":"b7c71217-6fce-490c-9bd4-073ff8143718","system_id":"levelo_inurba_marseille","lat":43.33717,"lon":5.391857,"is_reserved":false,"is_disabled":false,"rental_uris":{"android":"levelo://app?vid=b7c71217-6fce-490c-9bd4-073ff8143718","ios":"levelo://app?vid=b7c71217-6fce-490c-9bd4-073ff8143718"},"vehicle_type_id":"4","last_reported":1703271904,"current_range_meters":29600,"station_id":"ce4bhr92rcd13ifvqhsg","pricing_plan_id":"free"},{"bike_id":"6ba61220-9ac6-4382-bdc1-7bc99eba5c0c","system_id":"levelo_inurba_marseille","lat":43.28483,"lon":5.38408,"is_reserved":false,"is_disabled":false,"rental_uris":{"android":"levelo://app?vid=6ba61220-9ac6-4382-bdc1-7bc99eba5c0c","ios":"levelo://app?vid=6ba61220-9ac6-4382-bdc1-7bc99eba5c0c"},"vehicle_type_id":"4","last_reported":1703271904,"current_range_meters":0,"station_id":"ce4bh512rcd13ifvqe3g","pricing_plan_id":"free"},{"bike_id":"66ecef99-3787-4fc1-81b6-f84d2ff8e0d4","system_id":"levelo_inurba_marseille","lat":43.284793,"lon":5.384113,"is_reserved":false,"is_disabled":false,"rental_uris":{"android":"levelo://app?vid=66ecef99-3787-4fc1-81b6-f84d2ff8e0d4","ios":"levelo://app?vid=66ecef99-3787-4fc1-81b6-f84d2ff8e0d4"},"vehicle_type_id":"4","last_reported":1703271904,"current_range_meters":20800,"station_id":"ce4bh512rcd13ifvqe3g","pricing_plan_id":"free"},{"bike_id":"05def67d-14a3-493f-a6c9-38ce80fc76f0","system_id":"levelo_inurba_marseille","lat":43.284793,"lon":5.384113,"is_reserved":false,"is_disabled":false,"rental_uris":{"android":"levelo://app?vid=05def67d-14a3-493f-a6c9-38ce80fc76f0","ios":"levelo://app?vid=05def67d-14a3-493f-a6c9-38ce80fc76f0"},"vehicle_type_id":"4","last_reported":1703271904,"current_range_meters":25600,"station_id":"ce4bh512rcd13ifvqe3g","pricing_plan_id":"free"},{"bike_id":"94a5c102-1a5c-489a-a5ce-efef9b935e76","system_id":"levelo_inurba_marseille","lat":43.297946,"lon":5.404063,"is_reserved":false,"is_disabled":false,"rental_uris":{"android":"levelo://app?vid=94a5c102-1a5c-489a-a5ce-efef9b935e76","ios":"levelo://app?vid=94a5c102-1a5c-489a-a5ce-efef9b935e76"},"vehicle_type_id":"4","last_reported":1703271904,"current_range_meters":9200,"station_id":"ce4bh112rcd13ifvqd90","pricing_plan_id":"free"},{"bike_id":"0791d01c-55c6-4d4c-867b-6435f5badda8","system_id":"levelo_inurba_marseille","lat":43.284787,"lon":5.384116,"is_reserved":false,"is_disabled":false,"rental_uris":{"android":"levelo://app?vid=0791d01c-55c6-4d4c-867b-6435f5badda8","ios":"levelo://app?vid=0791d01c-55c6-4d4c-867b-6435f5badda8"},"vehicle_type_id":"4","last_reported":1703271904,"current_range_meters":6400,"station_id":"ce4bh512rcd13ifvqe3g","pricing_plan_id":"free"},{"bike_id":"da77c9d5-a008-4d49-bab4-014a8af2a999","system_id":"levelo_inurba_marseille","lat":43.2847,"lon":5.38424,"is_reserved":false,"is_disabled":false,"rental_uris":{"android":"levelo://app?vid=da77c9d5-a008-4d49-bab4-014a8af2a999","ios":"levelo://app?vid=da77c9d5-a008-4d49-bab4-014a8af2a999"},"vehicle_type_id":"4","last_reported":1703271904,"current_range_meters":0,"station_id":"ce4bh512rcd13ifvqe3g","pricing_plan_id":"free"},{"bike_id":"be8bbf5c-d83d-4a3f-b4a3-d2c596d20664","system_id":"levelo_inurba_marseille","lat":43.297946,"lon":5.404063,"is_reserved":false,"is_disabled":false,"rental_uris":{"android":"levelo://app?vid=be8bbf5c-d83d-4a3f-b4a3-d2c596d20664","ios":"levelo://app?vid=be8bbf5c-d83d-4a3f-b4a3-d2c596d20664"},"vehicle_type_id":"4","last_reported":1703271904,"current_range_meters":18000,"station_id":"ce4bh112rcd13ifvqd90","pricing_plan_id":"free"},{"bike_id":"d8ac22c3-c829-4cdd-adfc-7c5c0ec03fdb","system_id":"levelo_inurba_marseille","lat":43.28849,"lon":5.39299,"is_reserved":false,"is_disabled":false,"rental_uris":{"android":"levelo://app?vid=d8ac22c3-c829-4cdd-adfc-7c5c0ec03fdb","ios":"levelo://app?vid=d8ac22c3-c829-4cdd-adfc-7c5c0ec03fdb"},"vehicle_type_id":"4","last_reported":1703271904,"current_range_meters":10800,"station_id":"ce4bh2p2rcd13ifvqdi0","pricing_plan_id":"free"},{"bike_id":"e5145a44-688c-421a-9e99-b1d2f4d16973","system_id":"levelo_inurba_marseille","lat":43.29795,"lon":5.404086,"is_reserved":false,"is_disabled":false,"rental_uris":{"android":"levelo://app?vid=e5145a44-688c-421a-9e99-b1d2f4d16973","ios":"levelo://app?vid=e5145a44-688c-421a-9e99-b1d2f4d16973"},"vehicle_type_id":"4","last_reported":1703271904,"current_range_meters":26800,"station_id":"ce4bh112rcd13ifvqd90","pricing_plan_id":"free"},{"bike_id":"e4d77704-cf8a-4866-a16c-ac5ebb4e7e14","system_id":"levelo_inurba_marseille","lat":43.288501,"lon":5.393087,"is_reserved":false,"is_disabled":false,"rental_uris":{"android":"levelo://app?vid=e4d77704-cf8a-4866-a16c-ac5ebb4e7e14","ios":"levelo://app?vid=e4d77704-cf8a-4866-a16c-ac5ebb4e7e14"},"vehicle_type_id":"4","last_reported":1703271904,"current_range_meters":0,"station_id":"ce4bh2p2rcd13ifvqdi0","pricing_plan_id":"free"},{"bike_id":"a9151b7f-b392-4d6f-b106-4805dc2c222d","system_id":"levelo_inurba_marseille","lat":43.288501,"lon":5.393087,"is_reserved":false,"is_disabled":false,"rental_uris":{"android":"levelo://app?vid=a9151b7f-b392-4d6f-b106-4805dc2c222d","ios":"levelo://app?vid=a9151b7f-b392-4d6f-b106-4805dc2c222d"},"vehicle_type_id":"4","last_reported":1703271904,"current_range_meters":1200,"station_id":"ce4bh2p2rcd13ifvqdi0","pricing_plan_id":"free"},{"bike_id":"4f435aa3-f311-4979-8ea4-f8cc92070d08","system_id":"levelo_inurba_marseille","lat":43.28842,"lon":5.39306,"is_reserved":false,"is_disabled":false,"rental_uris":{"android":"levelo://app?vid=4f435aa3-f311-4979-8ea4-f8cc92070d08","ios":"levelo://app?vid=4f435aa3-f311-4979-8ea4-f8cc92070d08"},"vehicle_type_id":"4","last_reported":1703271904,"current_range_meters":20400,"station_id":"ce4bh2p2rcd13ifvqdi0","pricing_plan_id":"free"},{"bike_id":"3b37f056-f06a-4274-86e1-7653854b6034","system_id":"levelo_inurba_marseille","lat":43.283494,"lon":5.380945,"is_reserved":false,"is_disabled":false,"rental_uris":{"android":"levelo://app?vid=3b37f056-f06a-4274-86e1-7653854b6034","ios":"levelo://app?vid=3b37f056-f06a-4274-86e1-7653854b6034"},"vehicle_type_id":"4","last_reported":1703271904,"current_range_meters":19200,"station_id":"ce4bh412rcd13ifvqdr0","pricing_plan_id":"free"},{"bike_id":"b9c3ee26-ebde-4464-a27c-db7a20a2b420","system_id":"levelo_inurba_marseille","lat":43.284219,"lon":5.3497,"is_reserved":false,"is_disabled":false,"rental_uris":{"android":"levelo://app?vid=b9c3ee26-ebde-4464-a27c-db7a20a2b420","ios":"levelo://app?vid=b9c3ee26-ebde-4464-a27c-db7a20a2b420"},"vehicle_type_id":"4","last_reported":1703271904,"current_range_meters":27200,"station_id":"ce4bhbh2rcd13ifvqepg","pricing_plan_id":"free"},{"bike_id":"c0688eba-7111-4fdc-afc7-94c849445123","system_id":"levelo_inurba_marseille","lat":43.282857,"lon":5.350827,"is_reserved":false,"is_disabled":false,"rental_uris":{"android":"levelo://app?vid=c0688eba-7111-4fdc-afc7-94c849445123","ios":"levelo://app?vid=c0688eba-7111-4fdc-afc7-94c849445123"},"vehicle_type_id":"4","last_reported":1703271904,"current_range_meters":24400,"station_id":"ce4bhbp2rcd13ifvqerg","pricing_plan_id":"free"},{"bike_id":"7054a930-e9e7-4d41-9e2b-41f0a98eceda","system_id":"levelo_inurba_marseille","lat":43.282737,"lon":5.350748,"is_reserved":false,"is_disabled":false,"rental_uris":{"android":"levelo://app?vid=7054a930-e9e7-4d41-9e2b-41f0a98eceda","ios":"levelo://app?vid=7054a930-e9e7-4d41-9e2b-41f0a98eceda"},"vehicle_type_id":"4","last_reported":1703271904,"current_range_meters":25600,"station_id":"ce4bhbp2rcd13ifvqerg","pricing_plan_id":"free"},{"bike_id":"0c07039d-f042-4577-ad3b-2eb17b5732ec","system_id":"levelo_inurba_marseille","lat":43.282705,"lon":5.350715,"is_reserved":false,"is_disabled":false,"rental_uris":{"android":"levelo://app?vid=0c07039d-f042-4577-ad3b-2eb17b5732ec","ios":"levelo://app?vid=0c07039d-f042-4577-ad3b-2eb17b5732ec"},"vehicle_type_id":"4","last_reported":1703271904,"current_range_meters":10800,"station_id":"ce4bhbp2rcd13ifvqerg","pricing_plan_id":"free"},{"bike_id":"5dfbda82-9999-48e9-9779-7781fbf040e2","system_id":"levelo_inurba_marseille","lat":43.2827,"lon":5.3507,"is_reserved":false,"is_disabled":false,"rental_uris":{"android":"levelo://app?vid=5dfbda82-9999-48e9-9779-7781fbf040e2","ios":"levelo://app?vid=5dfbda82-9999-48e9-9779-7781fbf040e2"},"vehicle_type_id":"4","last_reported":1703271904,"current_range_meters":30400,"station_id":"ce4bhbp2rcd13ifvqerg","pricing_plan_id":"free"},{"bike_id":"9055ca72-0b15-41da-abc1-0d01dd44c2f7","system_id":"levelo_inurba_marseille","lat":43.28268,"lon":5.3507,"is_reserved":false,"is_disabled":false,"rental_uris":{"android":"levelo://app?vid=9055ca72-0b15-41da-abc1-0d01dd44c2f7","ios":"levelo://app?vid=9055ca72-0b15-41da-abc1-0d01dd44c2f7"},"vehicle_type_id":"4","last_reported":1703271904,"current_range_meters":25200,"station_id":"ce4bhbp2rcd13ifvqerg","pricing_plan_id":"free"},{"bike_id":"8c390459-bc7b-427a-9b73-2c1c9e96a676","system_id":"levelo_inurba_marseille","lat":43.282744,"lon":5.350533,"is_reserved":false,"is_disabled":false,"rental_uris":{"android":"levelo://app?vid=8c390459-bc7b-427a-9b73-2c1c9e96a676","ios":"levelo://app?vid=8c390459-bc7b-427a-9b73-2c1c9e96a676"},"vehicle_type_id":"4","last_reported":1703271904,"current_range_meters":10400,"station_id":"ce4bhbp2rcd13ifvqerg","pricing_plan_id":"free"},{"bike_id":"0bb11488-f524-43ac-b0ef-26d7b8df5763","system_id":"levelo_inurba_marseille","lat":43.282633,"lon":5.350663,"is_reserved":false,"is_disabled":false,"rental_uris":{"android":"levelo://app?vid=0bb11488-f524-43ac-b0ef-26d7b8df5763","ios":"levelo://app?vid=0bb11488-f524-43ac-b0ef-26d7b8df5763"},"vehicle_type_id":"4","last_reported":1703271904,"current_range_meters":12000,"station_id":"ce4bhbp2rcd13ifvqerg","pricing_plan_id":"free"},{"bike_id":"4eef49c0-0c90-4442-8ed3-697eff8d5ad9","system_id":"levelo_inurba_marseille","lat":43.28039,"lon":5.369297,"is_reserved":false,"is_disabled":false,"rental_uris":{"android":"levelo://app?vid=4eef49c0-0c90-4442-8ed3-697eff8d5ad9","ios":"levelo://app?vid=4eef49c0-0c90-4442-8ed3-697eff8d5ad9"},"vehicle_type_id":"4","last_reported":1703271904,"current_range_meters":3600,"station_id":"ce4bha12rcd13ifvqef0","pricing_plan_id":"free"},{"bike_id":"1bb9feff-3e8b-46d2-8c5c-420eb3be4d2c","system_id":"levelo_inurba_marseille","lat":43.28039,"lon":5.369297,"is_reserved":false,"is_disabled":false,"rental_uris":{"android":"levelo://app?vid=1bb9feff-3e8b-46d2-8c5c-420eb3be4d2c","ios":"levelo://app?vid=1bb9feff-3e8b-46d2-8c5c-420eb3be4d2c"},"vehicle_type_id":"4","last_reported":1703271904,"current_range_meters":26000,"station_id":"ce4bha12rcd13ifvqef0","pricing_plan_id":"free"},{"bike_id":"ec771f13-a6f7-4502-b81f-19d6b7b2be5f","system_id":"levelo_inurba_marseille","lat":43.28039,"lon":5.369297,"is_reserved":false,"is_disabled":false,"rental_uris":{"android":"levelo://app?vid=ec771f13-a6f7-4502-b81f-19d6b7b2be5f","ios":"levelo://app?vid=ec771f13-a6f7-4502-b81f-19d6b7b2be5f"},"vehicle_type_id":"4","last_reported":1703271904,"current_range_meters":20400,"station_id":"ce4bha12rcd13ifvqef0","pricing_plan_id":"free"},{"bike_id":"f54fdd1b-3dcd-45a1-93b4-8a02479317f4","system_id":"levelo_inurba_marseille","lat":43.29043,"lon":5.39959,"is_reserved":false,"is_disabled":false,"rental_uris":{"android":"levelo://app?vid=f54fdd1b-3dcd-45a1-93b4-8a02479317f4","ios":"levelo://app?vid=f54fdd1b-3dcd-45a1-93b4-8a02479317f4"},"vehicle_type_id":"4","last_reported":1703271904,"current_range_meters":18000,"station_id":"ce4bh392rcd13ifvqdm0","pricing_plan_id":"free"},{"bike_id":"3262865c-025e-4387-bb58-1aed14da8ffe","system_id":"levelo_inurba_marseille","lat":43.29039,"lon":5.39957,"is_reserved":false,"is_disabled":false,"rental_uris":{"android":"levelo://app?vid=3262865c-025e-4387-bb58-1aed14da8ffe","ios":"levelo://app?vid=3262865c-025e-4387-bb58-1aed14da8ffe"},"vehicle_type_id":"4","last_reported":1703271904,"current_range_meters":0,"station_id":"ce4bh392rcd13ifvqdm0","pricing_plan_id":"free"},{"bike_id":"b8da90ad-4489-4e5c-b405-c101ac00aeb5","system_id":"levelo_inurba_marseille","lat":43.29631,"lon":5.40594,"is_reserved":false,"is_disabled":false,"rental_uris":{"android":"levelo://app?vid=b8da90ad-4489-4e5c-b405-c101ac00aeb5","ios":"levelo://app?vid=b8da90ad-4489-4e5c-b405-c101ac00aeb5"},"vehicle_type_id":"4","last_reported":1703271904,"current_range_meters":16800,"station_id":"ce4bh0h2rcd13ifvqd60","pricing_plan_id":"free"},{"bike_id":"4320746b-6cac-47e9-ac6c-a58045acbca4","system_id":"levelo_inurba_marseille","lat":43.281044,"lon":5.378308,"is_reserved":false,"is_disabled":false,"rental_uris":{"android":"levelo://app?vid=4320746b-6cac-47e9-ac6c-a58045acbca4","ios":"levelo://app?vid=4320746b-6cac-47e9-ac6c-a58045acbca4"},"vehicle_type_id":"4","last_reported":1703271904,"current_range_meters":19200,"station_id":"ce4bha12rcd13ifvqee0","pricing_plan_id":"free"},{"bike_id":"f34df0ad-f9f9-4537-9317-7dff74d6de8c","system_id":"levelo_inurba_marseille","lat":43.29627,"lon":5.40595,"is_reserved":false,"is_disabled":false,"rental_uris":{"android":"levelo://app?vid=f34df0ad-f9f9-4537-9317-7dff74d6de8c","ios":"levelo://app?vid=f34df0ad-f9f9-4537-9317-7dff74d6de8c"},"vehicle_type_id":"4","last_reported":1703271904,"current_range_meters":5600,"station_id":"ce4bh0h2rcd13ifvqd60","pricing_plan_id":"free"},{"bike_id":"7c58d429-1b3f-4489-b27f-8559e0603400","system_id":"levelo_inurba_marseille","lat":43.284462,"lon":5.392121,"is_reserved":false,"is_disabled":false,"rental_uris":{"android":"levelo://app?vid=7c58d429-1b3f-4489-b27f-8559e0603400","ios":"levelo://app?vid=7c58d429-1b3f-4489-b27f-8559e0603400"},"vehicle_type_id":"4","last_reported":1703271904,"current_range_meters":14800,"station_id":"ce4bhoh2rcd13ifvqh5g","pricing_plan_id":"free"},{"bike_id":"7a861bda-362c-4329-846b-70df35cdb36a","system_id":"levelo_inurba_marseille","lat":43.284462,"lon":5.392121,"is_reserved":false,"is_disabled":false,"rental_uris":{"android":"levelo://app?vid=7a861bda-362c-4329-846b-70df35cdb36a","ios":"levelo://app?vid=7a861bda-362c-4329-846b-70df35cdb36a"},"vehicle_type_id":"4","last_reported":1703271904,"current_range_meters":6400,"station_id":"ce4bhoh2rcd13ifvqh5g","pricing_plan_id":"free"},{"bike_id":"58c60cf7-c98c-45e3-be2a-970523d90510","system_id":"levelo_inurba_marseille","lat":43.284462,"lon":5.392121,"is_reserved":false,"is_disabled":false,"rental_uris":{"android":"levelo://app?vid=58c60cf7-c98c-45e3-be2a-970523d90510","ios":"levelo://app?vid=58c60cf7-c98c-45e3-be2a-970523d90510"},"vehicle_type_id":"4","last_reported":1703271904,"current_range_meters":10400,"station_id":"ce4bhoh2rcd13ifvqh5g","pricing_plan_id":"free"},{"bike_id":"07915d1e-dc07-4e56-afb9-9d66caf9a477","system_id":"levelo_inurba_marseille","lat":43.28573,"lon":5.394992,"is_reserved":false,"is_disabled":false,"rental_uris":{"android":"levelo://app?vid=07915d1e-dc07-4e56-afb9-9d66caf9a477","ios":"levelo://app?vid=07915d1e-dc07-4e56-afb9-9d66caf9a477"},"vehicle_type_id":"4","last_reported":1703271904,"current_range_meters":23200,"station_id":"ce4bh292rcd13ifvqdg0","pricing_plan_id":"free"},{"bike_id":"6421c02a-3797-44ae-a39a-55ccb6161218","system_id":"levelo_inurba_marseille","lat":43.28566,"lon":5.39495,"is_reserved":false,"is_disabled":false,"rental_uris":{"android":"levelo://app?vid=6421c02a-3797-44ae-a39a-55ccb6161218","ios":"levelo://app?vid=6421c02a-3797-44ae-a39a-55ccb6161218"},"vehicle_type_id":"4","last_reported":1703271904,"current_range_meters":1200,"station_id":"ce4bh292rcd13ifvqdg0","pricing_plan_id":"free"},{"bike_id":"2dce41b4-f1e9-4565-979b-d206af37124f","system_id":"levelo_inurba_marseille","lat":43.326605,"lon":5.409903,"is_reserved":false,"is_disabled":false,"rental_uris":{"android":"levelo://app?vid=2dce41b4-f1e9-4565-979b-d206af37124f","ios":"levelo://app?vid=2dce41b4-f1e9-4565-979b-d206af37124f"},"vehicle_type_id":"4","last_reported":1703271904,"current_range_meters":29200,"station_id":"ce4bhpp2rcd13ifvqhgg","pricing_plan_id":"free"},{"bike_id":"49d73e02-e5c2-4882-b44f-d8c5e2af2b78","system_id":"levelo_inurba_marseille","lat":43.326605,"lon":5.409903,"is_reserved":false,"is_disabled":false,"rental_uris":{"android":"levelo://app?vid=49d73e02-e5c2-4882-b44f-d8c5e2af2b78","ios":"levelo://app?vid=49d73e02-e5c2-4882-b44f-d8c5e2af2b78"},"vehicle_type_id":"4","last_reported":1703271904,"current_range_meters":0,"station_id":"ce4bhpp2rcd13ifvqhgg","pricing_plan_id":"free"},{"bike_id":"e2543a4e-e066-488e-bfbe-4955c2c6c028","system_id":"levelo_inurba_marseille","lat":43.304188,"lon":5.412904,"is_reserved":false,"is_disabled":false,"rental_uris":{"android":"levelo://app?vid=e2543a4e-e066-488e-bfbe-4955c2c6c028","ios":"levelo://app?vid=e2543a4e-e066-488e-bfbe-4955c2c6c028"},"vehicle_type_id":"4","last_reported":1703271904,"current_range_meters":23200,"station_id":"ce4bhop2rcd13ifvqh8g","pricing_plan_id":"free"},{"bike_id":"f2a735b9-b183-4b03-acbe-8b823bd40b24","system_id":"levelo_inurba_marseille","lat":43.304188,"lon":5.412904,"is_reserved":false,"is_disabled":false,"rental_uris":{"android":"levelo://app?vid=f2a735b9-b183-4b03-acbe-8b823bd40b24","ios":"levelo://app?vid=f2a735b9-b183-4b03-acbe-8b823bd40b24"},"vehicle_type_id":"4","last_reported":1703271904,"current_range_meters":31600,"station_id":"ce4bhop2rcd13ifvqh8g","pricing_plan_id":"free"},{"bike_id":"b17ba9b3-f810-4027-bdff-0fe66bb91b64","system_id":"levelo_inurba_marseille","lat":43.304188,"lon":5.412904,"is_reserved":false,"is_disabled":false,"rental_uris":{"android":"levelo://app?vid=b17ba9b3-f810-4027-bdff-0fe66bb91b64","ios":"levelo://app?vid=b17ba9b3-f810-4027-bdff-0fe66bb91b64"},"vehicle_type_id":"4","last_reported":1703271904,"current_range_meters":21200,"station_id":"ce4bhop2rcd13ifvqh8g","pricing_plan_id":"free"},{"bike_id":"2994219f-f282-434d-a4a5-dcac2f9151e5","system_id":"levelo_inurba_marseille","lat":43.304188,"lon":5.412904,"is_reserved":false,"is_disabled":false,"rental_uris":{"android":"levelo://app?vid=2994219f-f282-434d-a4a5-dcac2f9151e5","ios":"levelo://app?vid=2994219f-f282-434d-a4a5-dcac2f9151e5"},"vehicle_type_id":"4","last_reported":1703271904,"current_range_meters":14400,"station_id":"ce4bhop2rcd13ifvqh8g","pricing_plan_id":"free"},{"bike_id":"7f89473b-4ee2-4ba8-86bf-bc53e18d4702","system_id":"levelo_inurba_marseille","lat":43.304188,"lon":5.412904,"is_reserved":false,"is_disabled":false,"rental_uris":{"android":"levelo://app?vid=7f89473b-4ee2-4ba8-86bf-bc53e18d4702","ios":"levelo://app?vid=7f89473b-4ee2-4ba8-86bf-bc53e18d4702"},"vehicle_type_id":"4","last_reported":1703271904,"current_range_meters":3600,"station_id":"ce4bhop2rcd13ifvqh8g","pricing_plan_id":"free"},{"bike_id":"3facbe4d-388c-40d0-82e4-59c677c06a34","system_id":"levelo_inurba_marseille","lat":43.304188,"lon":5.412904,"is_reserved":false,"is_disabled":false,"rental_uris":{"android":"levelo://app?vid=3facbe4d-388c-40d0-82e4-59c677c06a34","ios":"levelo://app?vid=3facbe4d-388c-40d0-82e4-59c677c06a34"},"vehicle_type_id":"4","last_reported":1703271904,"current_range_meters":5600,"station_id":"ce4bhop2rcd13ifvqh8g","pricing_plan_id":"free"},{"bike_id":"4fc3eaa3-b5e5-4ef0-972e-8a11d75e9279","system_id":"levelo_inurba_marseille","lat":43.279087,"lon":5.380114,"is_reserved":false,"is_disabled":false,"rental_uris":{"android":"levelo://app?vid=4fc3eaa3-b5e5-4ef0-972e-8a11d75e9279","ios":"levelo://app?vid=4fc3eaa3-b5e5-4ef0-972e-8a11d75e9279"},"vehicle_type_id":"4","last_reported":1703271904,"current_range_meters":8400,"station_id":"ce4bhf92rcd13ifvqf50","pricing_plan_id":"free"},{"bike_id":"a550ac9f-063a-4321-a1d3-f7322f6b4d48","system_id":"levelo_inurba_marseille","lat":43.287154,"lon":5.399979,"is_reserved":false,"is_disabled":false,"rental_uris":{"android":"levelo://app?vid=a550ac9f-063a-4321-a1d3-f7322f6b4d48","ios":"levelo://app?vid=a550ac9f-063a-4321-a1d3-f7322f6b4d48"},"vehicle_type_id":"4","last_reported":1703271904,"current_range_meters":24800,"station_id":"ce4bho92rcd13ifvqh3g","pricing_plan_id":"free"},{"bike_id":"c083c054-3f3c-4474-8680-e9a7de544a38","system_id":"levelo_inurba_marseille","lat":43.279742,"lon":5.38744,"is_reserved":false,"is_disabled":false,"rental_uris":{"android":"levelo://app?vid=c083c054-3f3c-4474-8680-e9a7de544a38","ios":"levelo://app?vid=c083c054-3f3c-4474-8680-e9a7de544a38"},"vehicle_type_id":"4","last_reported":1703271904,"current_range_meters":0,"station_id":"ce4bhg12rcd13ifvqf80","pricing_plan_id":"free"},{"bike_id":"5aecfd9e-28d0-4aeb-b60b-31df808466bd","system_id":"levelo_inurba_marseille","lat":43.292569,"lon":5.409107,"is_reserved":false,"is_disabled":false,"rental_uris":{"android":"levelo://app?vid=5aecfd9e-28d0-4aeb-b60b-31df808466bd","ios":"levelo://app?vid=5aecfd9e-28d0-4aeb-b60b-31df808466bd"},"vehicle_type_id":"4","last_reported":1703271904,"current_range_meters":17600,"station_id":"ce4bh192rcd13ifvqdc0","pricing_plan_id":"free"},{"bike_id":"6c4fc49e-5505-4646-a9f6-d50687341480","system_id":"levelo_inurba_marseille","lat":43.27618,"lon":5.361009,"is_reserved":false,"is_disabled":false,"rental_uris":{"android":"levelo://app?vid=6c4fc49e-5505-4646-a9f6-d50687341480","ios":"levelo://app?vid=6c4fc49e-5505-4646-a9f6-d50687341480"},"vehicle_type_id":"4","last_reported":1703271904,"current_range_meters":10400,"station_id":"ce4bgj92rcd13ifvqbe0","pricing_plan_id":"free"},{"bike_id":"3c990e90-1eed-4343-9b72-6fb2ce5c8fda","system_id":"levelo_inurba_marseille","lat":43.27618,"lon":5.361009,"is_reserved":false,"is_disabled":false,"rental_uris":{"android":"levelo://app?vid=3c990e90-1eed-4343-9b72-6fb2ce5c8fda","ios":"levelo://app?vid=3c990e90-1eed-4343-9b72-6fb2ce5c8fda"},"vehicle_type_id":"4","last_reported":1703271904,"current_range_meters":3600,"station_id":"ce4bgj92rcd13ifvqbe0","pricing_plan_id":"free"},{"bike_id":"db2046b0-697a-4d2e-8814-6af0aeab90a8","system_id":"levelo_inurba_marseille","lat":43.276179,"lon":5.361009,"is_reserved":false,"is_disabled":false,"rental_uris":{"android":"levelo://app?vid=db2046b0-697a-4d2e-8814-6af0aeab90a8","ios":"levelo://app?vid=db2046b0-697a-4d2e-8814-6af0aeab90a8"},"vehicle_type_id":"4","last_reported":1703271904,"current_range_meters":7600,"station_id":"ce4bgj92rcd13ifvqbe0","pricing_plan_id":"free"},{"bike_id":"e5af3670-68f2-4e5c-9bf4-21ce1330df16","system_id":"levelo_inurba_marseille","lat":43.280784,"lon":5.396622,"is_reserved":false,"is_disabled":false,"rental_uris":{"android":"levelo://app?vid=e5af3670-68f2-4e5c-9bf4-21ce1330df16","ios":"levelo://app?vid=e5af3670-68f2-4e5c-9bf4-21ce1330df16"},"vehicle_type_id":"4","last_reported":1703271904,"current_range_meters":29600,"station_id":"ce4bho12rcd13ifvqh2g","pricing_plan_id":"free"},{"bike_id":"48cb72d6-5769-46dd-a4f2-54dfd0bfb283","system_id":"levelo_inurba_marseille","lat":43.273613,"lon":5.362705,"is_reserved":false,"is_disabled":false,"rental_uris":{"android":"levelo://app?vid=48cb72d6-5769-46dd-a4f2-54dfd0bfb283","ios":"levelo://app?vid=48cb72d6-5769-46dd-a4f2-54dfd0bfb283"},"vehicle_type_id":"4","last_reported":1703271904,"current_range_meters":28000,"station_id":"ce4bhbh2rcd13ifvqeo0","pricing_plan_id":"free"},{"bike_id":"843de36b-095c-4afd-830d-de0e9d07ea09","system_id":"levelo_inurba_marseille","lat":43.273613,"lon":5.362705,"is_reserved":false,"is_disabled":false,"rental_uris":{"android":"levelo://app?vid=843de36b-095c-4afd-830d-de0e9d07ea09","ios":"levelo://app?vid=843de36b-095c-4afd-830d-de0e9d07ea09"},"vehicle_type_id":"4","last_reported":1703271904,"current_range_meters":28800,"station_id":"ce4bhbh2rcd13ifvqeo0","pricing_plan_id":"free"},{"bike_id":"e09a6d18-e62b-45bc-ba72-f8db6df2fcf5","system_id":"levelo_inurba_marseille","lat":43.273609,"lon":5.362708,"is_reserved":false,"is_disabled":false,"rental_uris":{"android":"levelo://app?vid=e09a6d18-e62b-45bc-ba72-f8db6df2fcf5","ios":"levelo://app?vid=e09a6d18-e62b-45bc-ba72-f8db6df2fcf5"},"vehicle_type_id":"4","last_reported":1703271904,"current_range_meters":30000,"station_id":"ce4bhbh2rcd13ifvqeo0","pricing_plan_id":"free"},{"bike_id":"92495b89-a8a0-4296-9885-51742c225068","system_id":"levelo_inurba_marseille","lat":43.275625,"lon":5.384392,"is_reserved":false,"is_disabled":false,"rental_uris":{"android":"levelo://app?vid=92495b89-a8a0-4296-9885-51742c225068","ios":"levelo://app?vid=92495b89-a8a0-4296-9885-51742c225068"},"vehicle_type_id":"4","last_reported":1703271904,"current_range_meters":7200,"station_id":"ce4bhh92rcd13ifvqfi0","pricing_plan_id":"free"},{"bike_id":"9b0d45a3-92fe-406a-8701-e2182a273315","system_id":"levelo_inurba_marseille","lat":43.279952,"lon":5.400085,"is_reserved":false,"is_disabled":false,"rental_uris":{"android":"levelo://app?vid=9b0d45a3-92fe-406a-8701-e2182a273315","ios":"levelo://app?vid=9b0d45a3-92fe-406a-8701-e2182a273315"},"vehicle_type_id":"4","last_reported":1703271904,"current_range_meters":4400,"station_id":"ce4bho92rcd13ifvqh4g","pricing_plan_id":"free"},{"bike_id":"5e7bdcdf-40fc-45a0-8691-42e94f0b15ad","system_id":"levelo_inurba_marseille","lat":43.279952,"lon":5.400085,"is_reserved":false,"is_disabled":false,"rental_uris":{"android":"levelo://app?vid=5e7bdcdf-40fc-45a0-8691-42e94f0b15ad","ios":"levelo://app?vid=5e7bdcdf-40fc-45a0-8691-42e94f0b15ad"},"vehicle_type_id":"4","last_reported":1703271904,"current_range_meters":1600,"station_id":"ce4bho92rcd13ifvqh4g","pricing_plan_id":"free"},{"bike_id":"7c92ac06-9f8b-4771-8927-7d3efcae43ac","system_id":"levelo_inurba_marseille","lat":43.310785,"lon":5.424305,"is_reserved":false,"is_disabled":false,"rental_uris":{"android":"levelo://app?vid=7c92ac06-9f8b-4771-8927-7d3efcae43ac","ios":"levelo://app?vid=7c92ac06-9f8b-4771-8927-7d3efcae43ac"},"vehicle_type_id":"4","last_reported":1703271904,"current_range_meters":10800,"station_id":"ce4bhp92rcd13ifvqhag","pricing_plan_id":"free"},{"bike_id":"b2bae555-70b7-4476-bc50-e1d2a40076e2","system_id":"levelo_inurba_marseille","lat":43.295511,"lon":5.422926,"is_reserved":false,"is_disabled":false,"rental_uris":{"android":"levelo://app?vid=b2bae555-70b7-4476-bc50-e1d2a40076e2","ios":"levelo://app?vid=b2bae555-70b7-4476-bc50-e1d2a40076e2"},"vehicle_type_id":"4","last_reported":1703271904,"current_range_meters":8400,"station_id":"ce4bhph2rcd13ifvqhdg","pricing_plan_id":"free"},{"bike_id":"aae3d177-3e9e-405a-bda1-ee0a0d357d08","system_id":"levelo_inurba_marseille","lat":43.27207,"lon":5.39192,"is_reserved":false,"is_disabled":false,"rental_uris":{"android":"levelo://app?vid=aae3d177-3e9e-405a-bda1-ee0a0d357d08","ios":"levelo://app?vid=aae3d177-3e9e-405a-bda1-ee0a0d357d08"},"vehicle_type_id":"4","last_reported":1703271904,"current_range_meters":0,"station_id":"ce4bhhp2rcd13ifvqfm0","pricing_plan_id":"free"},{"bike_id":"76d41758-0654-4e1c-85f1-17a181f4ee6b","system_id":"levelo_inurba_marseille","lat":43.278128,"lon":5.407195,"is_reserved":false,"is_disabled":false,"rental_uris":{"android":"levelo://app?vid=76d41758-0654-4e1c-85f1-17a181f4ee6b","ios":"levelo://app?vid=76d41758-0654-4e1c-85f1-17a181f4ee6b"},"vehicle_type_id":"4","last_reported":1703271904,"current_range_meters":9200,"station_id":"ce4bhnh2rcd13ifvqgtg","pricing_plan_id":"free"},{"bike_id":"ee7f0a29-1df0-42d5-b640-bef7269119e4","system_id":"levelo_inurba_marseille","lat":43.27701,"lon":5.40789,"is_reserved":false,"is_disabled":false,"rental_uris":{"android":"levelo://app?vid=ee7f0a29-1df0-42d5-b640-bef7269119e4","ios":"levelo://app?vid=ee7f0a29-1df0-42d5-b640-bef7269119e4"},"vehicle_type_id":"4","last_reported":1703271904,"current_range_meters":17200,"station_id":"","pricing_plan_id":"free"},{"bike_id":"56f32192-8989-4a15-b1b0-46bacc623be5","system_id":"levelo_inurba_marseille","lat":43.26681,"lon":5.382694,"is_reserved":false,"is_disabled":false,"rental_uris":{"android":"levelo://app?vid=56f32192-8989-4a15-b1b0-46bacc623be5","ios":"levelo://app?vid=56f32192-8989-4a15-b1b0-46bacc623be5"},"vehicle_type_id":"4","last_reported":1703271904,"current_range_meters":11600,"station_id":"ce4bhg92rcd13ifvqf90","pricing_plan_id":"free"},{"bike_id":"7c7d4b0f-5a8a-49cd-982a-1790d050d9a2","system_id":"levelo_inurba_marseille","lat":43.26681,"lon":5.382694,"is_reserved":false,"is_disabled":false,"rental_uris":{"android":"levelo://app?vid=7c7d4b0f-5a8a-49cd-982a-1790d050d9a2","ios":"levelo://app?vid=7c7d4b0f-5a8a-49cd-982a-1790d050d9a2"},"vehicle_type_id":"4","last_reported":1703271904,"current_range_meters":29600,"station_id":"ce4bhg92rcd13ifvqf90","pricing_plan_id":"free"},{"bike_id":"9f64aafd-c841-405b-aa4d-882e9d32084c","system_id":"levelo_inurba_marseille","lat":43.26552,"lon":5.37287,"is_reserved":false,"is_disabled":false,"rental_uris":{"android":"levelo://app?vid=9f64aafd-c841-405b-aa4d-882e9d32084c","ios":"levelo://app?vid=9f64aafd-c841-405b-aa4d-882e9d32084c"},"vehicle_type_id":"4","last_reported":1703271904,"current_range_meters":22000,"station_id":"ce4bhg12rcd13ifvqf70","pricing_plan_id":"free"},{"bike_id":"0e9c0f5f-3d8b-4160-a4c4-e847a0c2f4d1","system_id":"levelo_inurba_marseille","lat":43.26552,"lon":5.37294,"is_reserved":false,"is_disabled":false,"rental_uris":{"android":"levelo://app?vid=0e9c0f5f-3d8b-4160-a4c4-e847a0c2f4d1","ios":"levelo://app?vid=0e9c0f5f-3d8b-4160-a4c4-e847a0c2f4d1"},"vehicle_type_id":"4","last_reported":1703271904,"current_range_meters":20800,"station_id":"ce4bhg12rcd13ifvqf70","pricing_plan_id":"free"},{"bike_id":"eeb4f53f-dbac-48a0-966b-7f5a9ffd4564","system_id":"levelo_inurba_marseille","lat":43.308051,"lon":5.43527,"is_reserved":false,"is_disabled":false,"rental_uris":{"android":"levelo://app?vid=eeb4f53f-dbac-48a0-966b-7f5a9ffd4564","ios":"levelo://app?vid=eeb4f53f-dbac-48a0-966b-7f5a9ffd4564"},"vehicle_type_id":"4","last_reported":1703271904,"current_range_meters":26800,"station_id":"ce4bhph2rcd13ifvqheg","pricing_plan_id":"free"},{"bike_id":"5528cd67-9bfa-4577-8397-4ba50676504a","system_id":"levelo_inurba_marseille","lat":43.308051,"lon":5.43527,"is_reserved":false,"is_disabled":false,"rental_uris":{"android":"levelo://app?vid=5528cd67-9bfa-4577-8397-4ba50676504a","ios":"levelo://app?vid=5528cd67-9bfa-4577-8397-4ba50676504a"},"vehicle_type_id":"4","last_reported":1703271904,"current_range_meters":9200,"station_id":"ce4bhph2rcd13ifvqheg","pricing_plan_id":"free"},{"bike_id":"7da48e38-01dc-4d8d-845a-7c7bdf54278f","system_id":"levelo_inurba_marseille","lat":43.308051,"lon":5.43527,"is_reserved":false,"is_disabled":false,"rental_uris":{"android":"levelo://app?vid=7da48e38-01dc-4d8d-845a-7c7bdf54278f","ios":"levelo://app?vid=7da48e38-01dc-4d8d-845a-7c7bdf54278f"},"vehicle_type_id":"4","last_reported":1703271904,"current_range_meters":1600,"station_id":"ce4bhph2rcd13ifvqheg","pricing_plan_id":"free"},{"bike_id":"04856091-6154-4709-aa6f-1b2c52cd2fe2","system_id":"levelo_inurba_marseille","lat":43.265569,"lon":5.390047,"is_reserved":false,"is_disabled":false,"rental_uris":{"android":"levelo://app?vid=04856091-6154-4709-aa6f-1b2c52cd2fe2","ios":"levelo://app?vid=04856091-6154-4709-aa6f-1b2c52cd2fe2"},"vehicle_type_id":"4","last_reported":1703271904,"current_range_meters":0,"station_id":"ce4bhe12rcd13ifvqf30","pricing_plan_id":"free"},{"bike_id":"62d8c906-25ea-4b48-b825-bbed256999a7","system_id":"levelo_inurba_marseille","lat":43.265569,"lon":5.390047,"is_reserved":false,"is_disabled":false,"rental_uris":{"android":"levelo://app?vid=62d8c906-25ea-4b48-b825-bbed256999a7","ios":"levelo://app?vid=62d8c906-25ea-4b48-b825-bbed256999a7"},"vehicle_type_id":"4","last_reported":1703271904,"current_range_meters":0,"station_id":"ce4bhe12rcd13ifvqf30","pricing_plan_id":"free"},{"bike_id":"29467245-1b30-49f5-be6c-80959d1c8dee","system_id":"levelo_inurba_marseille","lat":43.265569,"lon":5.390047,"is_reserved":false,"is_disabled":false,"rental_uris":{"android":"levelo://app?vid=29467245-1b30-49f5-be6c-80959d1c8dee","ios":"levelo://app?vid=29467245-1b30-49f5-be6c-80959d1c8dee"},"vehicle_type_id":"4","last_reported":1703271904,"current_range_meters":11200,"station_id":"ce4bhe12rcd13ifvqf30","pricing_plan_id":"free"},{"bike_id":"34ee4226-3d98-4469-9efa-8e191c741336","system_id":"levelo_inurba_marseille","lat":43.265571,"lon":5.390032,"is_reserved":false,"is_disabled":false,"rental_uris":{"android":"levelo://app?vid=34ee4226-3d98-4469-9efa-8e191c741336","ios":"levelo://app?vid=34ee4226-3d98-4469-9efa-8e191c741336"},"vehicle_type_id":"4","last_reported":1703271904,"current_range_meters":25600,"station_id":"ce4bhe12rcd13ifvqf30","pricing_plan_id":"free"},{"bike_id":"6ffd1065-7c73-414b-8adb-891ac3645ab5","system_id":"levelo_inurba_marseille","lat":43.26949,"lon":5.40262,"is_reserved":false,"is_disabled":false,"rental_uris":{"android":"levelo://app?vid=6ffd1065-7c73-414b-8adb-891ac3645ab5","ios":"levelo://app?vid=6ffd1065-7c73-414b-8adb-891ac3645ab5"},"vehicle_type_id":"4","last_reported":1703271904,"current_range_meters":19200,"station_id":"cjm6bp8fraef2m0cb0m0","pricing_plan_id":"free"},{"bike_id":"d9cc77b1-d514-43d9-82d0-14d37030ffce","system_id":"levelo_inurba_marseille","lat":43.261782,"lon":5.374515,"is_reserved":false,"is_disabled":false,"rental_uris":{"android":"levelo://app?vid=d9cc77b1-d514-43d9-82d0-14d37030ffce","ios":"levelo://app?vid=d9cc77b1-d514-43d9-82d0-14d37030ffce"},"vehicle_type_id":"4","last_reported":1703271904,"current_range_meters":13200,"station_id":"ce4bhgp2rcd13ifvqfc0","pricing_plan_id":"free"},{"bike_id":"9a22b759-cb02-4a9f-b32d-4de2997c4531","system_id":"levelo_inurba_marseille","lat":43.317104,"lon":5.436818,"is_reserved":false,"is_disabled":false,"rental_uris":{"android":"levelo://app?vid=9a22b759-cb02-4a9f-b32d-4de2997c4531","ios":"levelo://app?vid=9a22b759-cb02-4a9f-b32d-4de2997c4531"},"vehicle_type_id":"4","last_reported":1703271904,"current_range_meters":2400,"station_id":"ce4bhp92rcd13ifvqhcg","pricing_plan_id":"free"},{"bike_id":"3c97a8a7-622c-4d01-a316-783cde5fc7f9","system_id":"levelo_inurba_marseille","lat":43.317104,"lon":5.436818,"is_reserved":false,"is_disabled":false,"rental_uris":{"android":"levelo://app?vid=3c97a8a7-622c-4d01-a316-783cde5fc7f9","ios":"levelo://app?vid=3c97a8a7-622c-4d01-a316-783cde5fc7f9"},"vehicle_type_id":"4","last_reported":1703271904,"current_range_meters":22800,"station_id":"ce4bhp92rcd13ifvqhcg","pricing_plan_id":"free"},{"bike_id":"7fbe02a0-b05d-40e2-885a-21861b971e54","system_id":"levelo_inurba_marseille","lat":43.317104,"lon":5.436818,"is_reserved":false,"is_disabled":false,"rental_uris":{"android":"levelo://app?vid=7fbe02a0-b05d-40e2-885a-21861b971e54","ios":"levelo://app?vid=7fbe02a0-b05d-40e2-885a-21861b971e54"},"vehicle_type_id":"4","last_reported":1703271904,"current_range_meters":11200,"station_id":"ce4bhp92rcd13ifvqhcg","pricing_plan_id":"free"},{"bike_id":"ecded0b1-26e9-4178-868a-0ff40f1e2ee0","system_id":"levelo_inurba_marseille","lat":43.271388,"lon":5.409269,"is_reserved":false,"is_disabled":false,"rental_uris":{"android":"levelo://app?vid=ecded0b1-26e9-4178-868a-0ff40f1e2ee0","ios":"levelo://app?vid=ecded0b1-26e9-4178-868a-0ff40f1e2ee0"},"vehicle_type_id":"4","last_reported":1703271904,"current_range_meters":30400,"station_id":"ce4bhl12rcd13ifvqgf0","pricing_plan_id":"free"},{"bike_id":"76090ef0-8487-40ab-93d1-ba72dd775cab","system_id":"levelo_inurba_marseille","lat":43.271368,"lon":5.40928,"is_reserved":false,"is_disabled":false,"rental_uris":{"android":"levelo://app?vid=76090ef0-8487-40ab-93d1-ba72dd775cab","ios":"levelo://app?vid=76090ef0-8487-40ab-93d1-ba72dd775cab"},"vehicle_type_id":"4","last_reported":1703271904,"current_range_meters":31200,"station_id":"ce4bhl12rcd13ifvqgf0","pricing_plan_id":"free"},{"bike_id":"e8fa3cc4-24c5-46cd-837e-b47808dfd25b","system_id":"levelo_inurba_marseille","lat":43.267959,"lon":5.402685,"is_reserved":false,"is_disabled":false,"rental_uris":{"android":"levelo://app?vid=e8fa3cc4-24c5-46cd-837e-b47808dfd25b","ios":"levelo://app?vid=e8fa3cc4-24c5-46cd-837e-b47808dfd25b"},"vehicle_type_id":"4","last_reported":1703271904,"current_range_meters":21600,"station_id":"ce501612rcd8frsf0b60","pricing_plan_id":"free"},{"bike_id":"ed515ca5-d8bf-4ab8-896b-6c9ca2b46c7c","system_id":"levelo_inurba_marseille","lat":43.26501,"lon":5.39543,"is_reserved":false,"is_disabled":false,"rental_uris":{"android":"levelo://app?vid=ed515ca5-d8bf-4ab8-896b-6c9ca2b46c7c","ios":"levelo://app?vid=ed515ca5-d8bf-4ab8-896b-6c9ca2b46c7c"},"vehicle_type_id":"4","last_reported":1703271904,"current_range_meters":0,"station_id":"","pricing_plan_id":"free"},{"bike_id":"5eda8d73-74b0-4978-8251-bdd269546f05","system_id":"levelo_inurba_marseille","lat":43.2651,"lon":5.39469,"is_reserved":false,"is_disabled":false,"rental_uris":{"android":"levelo://app?vid=5eda8d73-74b0-4978-8251-bdd269546f05","ios":"levelo://app?vid=5eda8d73-74b0-4978-8251-bdd269546f05"},"vehicle_type_id":"4","last_reported":1703271904,"current_range_meters":9200,"station_id":"ce4bhi12rcd13ifvqfq0","pricing_plan_id":"free"},{"bike_id":"0131924d-5605-48f3-988f-22a5f29a2c50","system_id":"levelo_inurba_marseille","lat":43.298768,"lon":5.43643,"is_reserved":false,"is_disabled":false,"rental_uris":{"android":"levelo://app?vid=0131924d-5605-48f3-988f-22a5f29a2c50","ios":"levelo://app?vid=0131924d-5605-48f3-988f-22a5f29a2c50"},"vehicle_type_id":"4","last_reported":1703271904,"current_range_meters":20800,"station_id":"ce4bhpp2rcd13ifvqhfg","pricing_plan_id":"free"},{"bike_id":"56f4ef61-5398-4308-bc58-2c0a391f7f76","system_id":"levelo_inurba_marseille","lat":43.281548,"lon":5.42643,"is_reserved":false,"is_disabled":false,"rental_uris":{"android":"levelo://app?vid=56f4ef61-5398-4308-bc58-2c0a391f7f76","ios":"levelo://app?vid=56f4ef61-5398-4308-bc58-2c0a391f7f76"},"vehicle_type_id":"4","last_reported":1703271904,"current_range_meters":20000,"station_id":"ce4bhnh2rcd13ifvqgug","pricing_plan_id":"free"},{"bike_id":"7a4f22f0-00c8-4a84-9d00-c7c35af8e279","system_id":"levelo_inurba_marseille","lat":43.281548,"lon":5.42643,"is_reserved":false,"is_disabled":false,"rental_uris":{"android":"levelo://app?vid=7a4f22f0-00c8-4a84-9d00-c7c35af8e279","ios":"levelo://app?vid=7a4f22f0-00c8-4a84-9d00-c7c35af8e279"},"vehicle_type_id":"4","last_reported":1703271904,"current_range_meters":29200,"station_id":"ce4bhnh2rcd13ifvqgug","pricing_plan_id":"free"},{"bike_id":"ee1c3abf-dc1a-4b06-a71a-194c5d1609bc","system_id":"levelo_inurba_marseille","lat":43.281548,"lon":5.42643,"is_reserved":false,"is_disabled":false,"rental_uris":{"android":"levelo://app?vid=ee1c3abf-dc1a-4b06-a71a-194c5d1609bc","ios":"levelo://app?vid=ee1c3abf-dc1a-4b06-a71a-194c5d1609bc"},