{"last_updated":1721678912,"ttl":30,"version":"2.2","data":{"bikes":[{"bike_id":"a2610bec-28cf-4e46-bfa7-b619ea248969","system_id":"levelo_inurba_marseille","lat":43.31257,"lon":5.36767,"is_reserved":false,"is_disabled":false,"rental_uris":{"android":"levelo://app?vid=a2610bec-28cf-4e46-bfa7-b619ea248969","ios":"levelo://app?vid=a2610bec-28cf-4e46-bfa7-b619ea248969"},"vehicle_type_id":"4","last_reported":1721678912,"current_range_meters":11600,"station_id":"","pricing_plan_id":"cebpf4jnsgd1na2vs0mg"},{"bike_id":"8dc85521-70f3-48ba-a3b2-fc32b856bbb4","system_id":"levelo_inurba_marseille","lat":43.312239,"lon":5.368562,"is_reserved":false,"is_disabled":false,"rental_uris":{"android":"levelo://app?vid=8dc85521-70f3-48ba-a3b2-fc32b856bbb4","ios":"levelo://app?vid=8dc85521-70f3-48ba-a3b2-fc32b856bbb4"},"vehicle_type_id":"4","last_reported":1721678912,"current_range_meters":2800,"station_id":"ce4bgl92rcd13ifvqbq0","pricing_plan_id":"cebpf4jnsgd1na2vs0mg"},{"bike_id":"93f3f48c-f459-4e9a-86ea-3106a0786116","system_id":"levelo_inurba_marseille","lat":43.3091,"lon":5.36853,"is_reserved":false,"is_disabled":false,"rental_uris":{"android":"levelo://app?vid=93f3f48c-f459-4e9a-86ea-3106a0786116","ios":"levelo://app?vid=93f3f48c-f459-4e9a-86ea-3106a0786116"},"vehicle_type_id":"4","last_reported":1721678912,"current_range_meters":0,"station_id":"ce4bgn92rcd13ifvqbvg","pricing_plan_id":"cebpf4jnsgd1na2vs0mg"},{"bike_id":"b75d71e8-bc6d-46aa-a42e-0fd95867753e","system_id":"levelo_inurba_marseille","lat":43.30901,"lon":5.36845,"is_reserved":false,"is_disabled":false,"rental_uris":{"android":"levelo://app?vid=b75d71e8-bc6d-46aa-a42e-0fd95867753e","ios":"levelo://app?vid=b75d71e8-bc6d-46aa-a42e-0fd95867753e"},"vehicle_type_id":"4","last_reported":1721678912,"current_range_meters":17200,"station_id":"ce4bgn92rcd13ifvqbvg","pricing_plan_id":"cebpf4jnsgd1na2vs0mg"},{"bike_id":"2f66f8c7-dad7-4501-a436-5213920841b2","system_id":"levelo_inurba_marseille","lat":43.314811,"lon":5.373103,"is_reserved":false,"is_disabled":false,"rental_uris":{"android":"levelo://app?vid=2f66f8c7-dad7-4501-a436-5213920841b2","ios":"levelo://app?vid=2f66f8c7-dad7-4501-a436-5213920841b2"},"vehicle_type_id":"4","last_reported":1721678912,"current_range_meters":2000,"station_id":"ce4bgt12rcd13ifvqcd0","pricing_plan_id":"cebpf4jnsgd1na2vs0mg"},{"bike_id":"f557302a-79a4-4c73-8d3a-f38edfeec347","system_id":"levelo_inurba_marseille","lat":43.309039,"lon":5.371797,"is_reserved":false,"is_disabled":false,"rental_uris":{"android":"levelo://app?vid=f557302a-79a4-4c73-8d3a-f38edfeec347","ios":"levelo://app?vid=f557302a-79a4-4c73-8d3a-f38edfeec347"},"vehicle_type_id":"4","last_reported":1721678912,"current_range_meters":400,"station_id":"ce4bguh2rcd13ifvqckg","pricing_plan_id":"cebpf4jnsgd1na2vs0mg"},{"bike_id":"08b553d0-2747-40d8-94e5-b32711654e44","system_id":"levelo_inurba_marseille","lat":43.31542,"lon":5.37449,"is_reserved":false,"is_disabled":false,"rental_uris":{"android":"levelo://app?vid=08b553d0-2747-40d8-94e5-b32711654e44","ios":"levelo://app?vid=08b553d0-2747-40d8-94e5-b32711654e44"},"vehicle_type_id":"4","last_reported":1721678912,"current_range_meters":17600,"station_id":"","pricing_plan_id":"cebpf4jnsgd1na2vs0mg"},{"bike_id":"c79d62da-fcc7-4fa8-94b7-420f9258c155","system_id":"levelo_inurba_marseille","lat":43.30537,"lon":5.367345,"is_reserved":false,"is_disabled":false,"rental_uris":{"android":"levelo://app?vid=c79d62da-fcc7-4fa8-94b7-420f9258c155","ios":"levelo://app?vid=c79d62da-fcc7-4fa8-94b7-420f9258c155"},"vehicle_type_id":"4","last_reported":1721678912,"current_range_meters":18000,"station_id":"ce4bgrp2rcd13ifvqc9g","pricing_plan_id":"cebpf4jnsgd1na2vs0mg"},{"bike_id":"f412971c-23fe-4a87-a962-03023ce9277e","system_id":"levelo_inurba_marseille","lat":43.307834,"lon":5.3747,"is_reserved":false,"is_disabled":false,"rental_uris":{"android":"levelo://app?vid=f412971c-23fe-4a87-a962-03023ce9277e","ios":"levelo://app?vid=f412971c-23fe-4a87-a962-03023ce9277e"},"vehicle_type_id":"4","last_reported":1721678912,"current_range_meters":31200,"station_id":"","pricing_plan_id":"cebpf4jnsgd1na2vs0mg"},{"bike_id":"0475fc04-30a6-4927-99f5-1b025aeece76","system_id":"levelo_inurba_marseille","lat":43.315642,"lon":5.376471,"is_reserved":false,"is_disabled":false,"rental_uris":{"android":"levelo://app?vid=0475fc04-30a6-4927-99f5-1b025aeece76","ios":"levelo://app?vid=0475fc04-30a6-4927-99f5-1b025aeece76"},"vehicle_type_id":"4","last_reported":1721678912,"current_range_meters":2800,"station_id":"","pricing_plan_id":"cebpf4jnsgd1na2vs0mg"},{"bike_id":"b272dc78-d510-404e-906f-ab3335b8e1c9","system_id":"levelo_inurba_marseille","lat":43.305989,"lon":5.37225,"is_reserved":false,"is_disabled":false,"rental_uris":{"android":"levelo://app?vid=b272dc78-d510-404e-906f-ab3335b8e1c9","ios":"levelo://app?vid=b272dc78-d510-404e-906f-ab3335b8e1c9"},"vehicle_type_id":"4","last_reported":1721678912,"current_range_meters":6400,"station_id":"ce4bgqh2rcd13ifvqc4g","pricing_plan_id":"cebpf4jnsgd1na2vs0mg"},{"bike_id":"a3e7e7ce-676f-43bb-b695-89f04b7f43d9","system_id":"levelo_inurba_marseille","lat":43.307945,"lon":5.376487,"is_reserved":false,"is_disabled":false,"rental_uris":{"android":"levelo://app?vid=a3e7e7ce-676f-43bb-b695-89f04b7f43d9","ios":"levelo://app?vid=a3e7e7ce-676f-43bb-b695-89f04b7f43d9"},"vehicle_type_id":"4","last_reported":1721678912,"current_range_meters":12000,"station_id":"ce4bgv92rcd13ifvqcq0","pricing_plan_id":"cebpf4jnsgd1na2vs0mg"},{"bike_id":"9d7cfe61-5af7-450e-b7b7-2b6de8905db2","system_id":"levelo_inurba_marseille","lat":43.307945,"lon":5.376487,"is_reserved":false,"is_disabled":false,"rental_uris":{"android":"levelo://app?vid=9d7cfe61-5af7-450e-b7b7-2b6de8905db2","ios":"levelo://app?vid=9d7cfe61-5af7-450e-b7b7-2b6de8905db2"},"vehicle_type_id":"4","last_reported":1721678912,"current_range_meters":0,"station_id":"ce4bgv92rcd13ifvqcq0","pricing_plan_id":"cebpf4jnsgd1na2vs0mg"},{"bike_id":"a2a93bd5-d713-4452-bf07-3c5115c56216","system_id":"levelo_inurba_marseille","lat":43.307945,"lon":5.376487,"is_reserved":false,"is_disabled":false,"rental_uris":{"android":"levelo://app?vid=a2a93bd5-d713-4452-bf07-3c5115c56216","ios":"levelo://app?vid=a2a93bd5-d713-4452-bf07-3c5115c56216"},"vehicle_type_id":"4","last_reported":1721678912,"current_range_meters":8400,"station_id":"ce4bgv92rcd13ifvqcq0","pricing_plan_id":"cebpf4jnsgd1na2vs0mg"},{"bike_id":"3719e2a1-d08c-4f72-b9e2-1715bfd585d2","system_id":"levelo_inurba_marseille","lat":43.30392,"lon":5.366903,"is_reserved":false,"is_disabled":false,"rental_uris":{"android":"levelo://app?vid=3719e2a1-d08c-4f72-b9e2-1715bfd585d2","ios":"levelo://app?vid=3719e2a1-d08c-4f72-b9e2-1715bfd585d2"},"vehicle_type_id":"4","last_reported":1721678912,"current_range_meters":1600,"station_id":"","pricing_plan_id":"cebpf4jnsgd1na2vs0mg"},{"bike_id":"667895b9-6bbb-4368-90b9-d3cd246beed5","system_id":"levelo_inurba_marseille","lat":43.303046,"lon":5.368981,"is_reserved":false,"is_disabled":false,"rental_uris":{"android":"levelo://app?vid=667895b9-6bbb-4368-90b9-d3cd246beed5","ios":"levelo://app?vid=667895b9-6bbb-4368-90b9-d3cd246beed5"},"vehicle_type_id":"4","last_reported":1721678912,"current_range_meters":16400,"station_id":"ce4bgqh2rcd13ifvqc5g","pricing_plan_id":"cebpf4jnsgd1na2vs0mg"},{"bike_id":"da2c9996-aec7-4947-9d0b-0bf9f93269c4","system_id":"levelo_inurba_marseille","lat":43.301939,"lon":5.366286,"is_reserved":false,"is_disabled":false,"rental_uris":{"android":"levelo://app?vid=da2c9996-aec7-4947-9d0b-0bf9f93269c4","ios":"levelo://app?vid=da2c9996-aec7-4947-9d0b-0bf9f93269c4"},"vehicle_type_id":"4","last_reported":1721678912,"current_range_meters":26800,"station_id":"ce4bgrh2rcd13ifvqc8g","pricing_plan_id":"cebpf4jnsgd1na2vs0mg"},{"bike_id":"49eb59f7-a0f1-4f46-ad00-7a9f6d6f1161","system_id":"levelo_inurba_marseille","lat":43.301939,"lon":5.366286,"is_reserved":false,"is_disabled":false,"rental_uris":{"android":"levelo://app?vid=49eb59f7-a0f1-4f46-ad00-7a9f6d6f1161","ios":"levelo://app?vid=49eb59f7-a0f1-4f46-ad00-7a9f6d6f1161"},"vehicle_type_id":"4","last_reported":1721678912,"current_range_meters":31600,"station_id":"ce4bgrh2rcd13ifvqc8g","pricing_plan_id":"cebpf4jnsgd1na2vs0mg"},{"bike_id":"186eee4d-8c31-453e-90bb-d14ff45c6b32","system_id":"levelo_inurba_marseille","lat":43.308012,"lon":5.381511,"is_reserved":false,"is_disabled":false,"rental_uris":{"android":"levelo://app?vid=186eee4d-8c31-453e-90bb-d14ff45c6b32","ios":"levelo://app?vid=186eee4d-8c31-453e-90bb-d14ff45c6b32"},"vehicle_type_id":"4","last_reported":1721678912,"current_range_meters":20400,"station_id":"ce4bgt12rcd13ifvqce0","pricing_plan_id":"cebpf4jnsgd1na2vs0mg"},{"bike_id":"406e19ce-d415-4015-8b2c-9bfa349dce9b","system_id":"levelo_inurba_marseille","lat":43.324771,"lon":5.36557,"is_reserved":false,"is_disabled":false,"rental_uris":{"android":"levelo://app?vid=406e19ce-d415-4015-8b2c-9bfa349dce9b","ios":"levelo://app?vid=406e19ce-d415-4015-8b2c-9bfa349dce9b"},"vehicle_type_id":"4","last_reported":1721678912,"current_range_meters":6000,"station_id":"ce4bhs12rcd13ifvqhvg","pricing_plan_id":"cebpf4jnsgd1na2vs0mg"},{"bike_id":"53f80b66-2305-4245-a742-62fd010e6d98","system_id":"levelo_inurba_marseille","lat":43.324771,"lon":5.36557,"is_reserved":false,"is_disabled":false,"rental_uris":{"android":"levelo://app?vid=53f80b66-2305-4245-a742-62fd010e6d98","ios":"levelo://app?vid=53f80b66-2305-4245-a742-62fd010e6d98"},"vehicle_type_id":"4","last_reported":1721678912,"current_range_meters":12800,"station_id":"ce4bhs12rcd13ifvqhvg","pricing_plan_id":"cebpf4jnsgd1na2vs0mg"},{"bike_id":"4b08878e-0a22-4e3b-91b5-c21dafba9ec1","system_id":"levelo_inurba_marseille","lat":43.324771,"lon":5.36557,"is_reserved":false,"is_disabled":false,"rental_uris":{"android":"levelo://app?vid=4b08878e-0a22-4e3b-91b5-c21dafba9ec1","ios":"levelo://app?vid=4b08878e-0a22-4e3b-91b5-c21dafba9ec1"},"vehicle_type_id":"4","last_reported":1721678912,"current_range_meters":30000,"station_id":"ce4bhs12rcd13ifvqhvg","pricing_plan_id":"cebpf4jnsgd1na2vs0mg"},{"bike_id":"891ed4df-4f37-4087-8d2f-7eeb2a112323","system_id":"levelo_inurba_marseille","lat":43.310804,"lon":5.38359,"is_reserved":false,"is_disabled":false,"rental_uris":{"android":"levelo://app?vid=891ed4df-4f37-4087-8d2f-7eeb2a112323","ios":"levelo://app?vid=891ed4df-4f37-4087-8d2f-7eeb2a112323"},"vehicle_type_id":"4","last_reported":1721678912,"current_range_meters":0,"station_id":"ce4bgv92rcd13ifvqcr0","pricing_plan_id":"cebpf4jnsgd1na2vs0mg"},{"bike_id":"63276bfe-4df9-4d7c-9e07-797d511c12b4","system_id":"levelo_inurba_marseille","lat":43.302784,"lon":5.377158,"is_reserved":false,"is_disabled":false,"rental_uris":{"android":"levelo://app?vid=63276bfe-4df9-4d7c-9e07-797d511c12b4","ios":"levelo://app?vid=63276bfe-4df9-4d7c-9e07-797d511c12b4"},"vehicle_type_id":"4","last_reported":1721678912,"current_range_meters":24400,"station_id":"ce4bguh2rcd13ifvqcj0","pricing_plan_id":"cebpf4jnsgd1na2vs0mg"},{"bike_id":"e34c0af4-67c1-4bfd-88ae-5ed1f8d72356","system_id":"levelo_inurba_marseille","lat":43.301429,"lon":5.37413,"is_reserved":false,"is_disabled":false,"rental_uris":{"android":"levelo://app?vid=e34c0af4-67c1-4bfd-88ae-5ed1f8d72356","ios":"levelo://app?vid=e34c0af4-67c1-4bfd-88ae-5ed1f8d72356"},"vehicle_type_id":"4","last_reported":1721678912,"current_range_meters":3600,"station_id":"ce4bgs92rcd13ifvqcc0","pricing_plan_id":"cebpf4jnsgd1na2vs0mg"},{"bike_id":"1c037cfb-5af1-454d-9f2a-745c405c1b40","system_id":"levelo_inurba_marseille","lat":43.319936,"lon":5.381563,"is_reserved":false,"is_disabled":false,"rental_uris":{"android":"levelo://app?vid=1c037cfb-5af1-454d-9f2a-745c405c1b40","ios":"levelo://app?vid=1c037cfb-5af1-454d-9f2a-745c405c1b40"},"vehicle_type_id":"4","last_reported":1721678912,"current_range_meters":16800,"station_id":"ce4bhr12rcd13ifvqhpg","pricing_plan_id":"cebpf4jnsgd1na2vs0mg"},{"bike_id":"3e167656-7efd-46f2-a45c-a535194e1f80","system_id":"levelo_inurba_marseille","lat":43.31989,"lon":5.38164,"is_reserved":false,"is_disabled":false,"rental_uris":{"android":"levelo://app?vid=3e167656-7efd-46f2-a45c-a535194e1f80","ios":"levelo://app?vid=3e167656-7efd-46f2-a45c-a535194e1f80"},"vehicle_type_id":"4","last_reported":1721678912,"current_range_meters":25200,"station_id":"ce4bhr12rcd13ifvqhpg","pricing_plan_id":"cebpf4jnsgd1na2vs0mg"},{"bike_id":"f6eabe92-34fe-48c1-8856-b76dd390bc0b","system_id":"levelo_inurba_marseille","lat":43.319935,"lon":5.381699,"is_reserved":false,"is_disabled":false,"rental_uris":{"android":"levelo://app?vid=f6eabe92-34fe-48c1-8856-b76dd390bc0b","ios":"levelo://app?vid=f6eabe92-34fe-48c1-8856-b76dd390bc0b"},"vehicle_type_id":"4","last_reported":1721678912,"current_range_meters":13200,"station_id":"ce4bhr12rcd13ifvqhpg","pricing_plan_id":"cebpf4jnsgd1na2vs0mg"},{"bike_id":"a91df9b3-5855-45a2-8b1a-dc7251a401d9","system_id":"levelo_inurba_marseille","lat":43.319935,"lon":5.381699,"is_reserved":false,"is_disabled":false,"rental_uris":{"android":"levelo://app?vid=a91df9b3-5855-45a2-8b1a-dc7251a401d9","ios":"levelo://app?vid=a91df9b3-5855-45a2-8b1a-dc7251a401d9"},"vehicle_type_id":"4","last_reported":1721678912,"current_range_meters":20400,"station_id":"ce4bhr12rcd13ifvqhpg","pricing_plan_id":"cebpf4jnsgd1na2vs0mg"},{"bike_id":"b22c3d17-4d38-4800-bf69-927bb72ae759","system_id":"levelo_inurba_marseille","lat":43.30606,"lon":5.38209,"is_reserved":false,"is_disabled":false,"rental_uris":{"android":"levelo://app?vid=b22c3d17-4d38-4800-bf69-927bb72ae759","ios":"levelo://app?vid=b22c3d17-4d38-4800-bf69-927bb72ae759"},"vehicle_type_id":"4","last_reported":1721678912,"current_range_meters":26000,"station_id":"","pricing_plan_id":"cebpf4jnsgd1na2vs0mg"},{"bike_id":"4c16d1d4-af07-4224-8df7-75a54ddd04c8","system_id":"levelo_inurba_marseille","lat":43.319935,"lon":5.381699,"is_reserved":false,"is_disabled":false,"rental_uris":{"android":"levelo://app?vid=4c16d1d4-af07-4224-8df7-75a54ddd04c8","ios":"levelo://app?vid=4c16d1d4-af07-4224-8df7-75a54ddd04c8"},"vehicle_type_id":"4","last_reported":1721678912,"current_range_meters":13600,"station_id":"ce4bhr12rcd13ifvqhpg","pricing_plan_id":"cebpf4jnsgd1na2vs0mg"},{"bike_id":"a7e58782-c5fc-452e-9043-b485664494cb","system_id":"levelo_inurba_marseille","lat":43.313571,"lon":5.384829,"is_reserved":false,"is_disabled":false,"rental_uris":{"android":"levelo://app?vid=a7e58782-c5fc-452e-9043-b485664494cb","ios":"levelo://app?vid=a7e58782-c5fc-452e-9043-b485664494cb"},"vehicle_type_id":"4","last_reported":1721678912,"current_range_meters":19200,"station_id":"ce4bgt92rcd13ifvqcf0","pricing_plan_id":"cebpf4jnsgd1na2vs0mg"},{"bike_id":"19b7a7c8-9afb-4f2b-83cd-4a03fedf77db","system_id":"levelo_inurba_marseille","lat":43.299222,"lon":5.365554,"is_reserved":false,"is_disabled":false,"rental_uris":{"android":"levelo://app?vid=19b7a7c8-9afb-4f2b-83cd-4a03fedf77db","ios":"levelo://app?vid=19b7a7c8-9afb-4f2b-83cd-4a03fedf77db"},"vehicle_type_id":"4","last_reported":1721678912,"current_range_meters":0,"station_id":"ce4bgm92rcd13ifvqbr0","pricing_plan_id":"cebpf4jnsgd1na2vs0mg"},{"bike_id":"c37b66e4-4769-49e0-a622-c56780134d93","system_id":"levelo_inurba_marseille","lat":43.299724,"lon":5.371829,"is_reserved":false,"is_disabled":false,"rental_uris":{"android":"levelo://app?vid=c37b66e4-4769-49e0-a622-c56780134d93","ios":"levelo://app?vid=c37b66e4-4769-49e0-a622-c56780134d93"},"vehicle_type_id":"4","last_reported":1721678912,"current_range_meters":12800,"station_id":"ce4bgr92rcd13ifvqc7g","pricing_plan_id":"cebpf4jnsgd1na2vs0mg"},{"bike_id":"3600a95a-f085-48e2-966c-897fccd68eda","system_id":"levelo_inurba_marseille","lat":43.301126,"lon":5.37786,"is_reserved":false,"is_disabled":false,"rental_uris":{"android":"levelo://app?vid=3600a95a-f085-48e2-966c-897fccd68eda","ios":"levelo://app?vid=3600a95a-f085-48e2-966c-897fccd68eda"},"vehicle_type_id":"4","last_reported":1721678912,"current_range_meters":15200,"station_id":"","pricing_plan_id":"cebpf4jnsgd1na2vs0mg"},{"bike_id":"04c2a956-b74f-4f6f-88e9-af52b0ea405f","system_id":"levelo_inurba_marseille","lat":43.298433,"lon":5.362774,"is_reserved":false,"is_disabled":false,"rental_uris":{"android":"levelo://app?vid=04c2a956-b74f-4f6f-88e9-af52b0ea405f","ios":"levelo://app?vid=04c2a956-b74f-4f6f-88e9-af52b0ea405f"},"vehicle_type_id":"4","last_reported":1721678912,"current_range_meters":6400,"station_id":"ce4bgpp2rcd13ifvqc3g","pricing_plan_id":"cebpf4jnsgd1na2vs0mg"},{"bike_id":"28822688-2f4d-4984-b81d-61032a2ccd71","system_id":"levelo_inurba_marseille","lat":43.30954,"lon":5.38639,"is_reserved":false,"is_disabled":false,"rental_uris":{"android":"levelo://app?vid=28822688-2f4d-4984-b81d-61032a2ccd71","ios":"levelo://app?vid=28822688-2f4d-4984-b81d-61032a2ccd71"},"vehicle_type_id":"4","last_reported":1721678912,"current_range_meters":3200,"station_id":"","pricing_plan_id":"cebpf4jnsgd1na2vs0mg"},{"bike_id":"30a803ee-37d4-48be-a707-c85967f2cac1","system_id":"levelo_inurba_marseille","lat":43.298433,"lon":5.362774,"is_reserved":false,"is_disabled":false,"rental_uris":{"android":"levelo://app?vid=30a803ee-37d4-48be-a707-c85967f2cac1","ios":"levelo://app?vid=30a803ee-37d4-48be-a707-c85967f2cac1"},"vehicle_type_id":"4","last_reported":1721678912,"current_range_meters":20400,"station_id":"ce4bgpp2rcd13ifvqc3g","pricing_plan_id":"cebpf4jnsgd1na2vs0mg"},{"bike_id":"af809cd6-e9e9-46df-8104-ed46fc7bc3b8","system_id":"levelo_inurba_marseille","lat":43.29846,"lon":5.36285,"is_reserved":false,"is_disabled":false,"rental_uris":{"android":"levelo://app?vid=af809cd6-e9e9-46df-8104-ed46fc7bc3b8","ios":"levelo://app?vid=af809cd6-e9e9-46df-8104-ed46fc7bc3b8"},"vehicle_type_id":"4","last_reported":1721678912,"current_range_meters":1600,"station_id":"ce4bgpp2rcd13ifvqc3g","pricing_plan_id":"cebpf4jnsgd1na2vs0mg"},{"bike_id":"e61a8d9b-4739-42c1-a955-1174cd07f6d9","system_id":"levelo_inurba_marseille","lat":43.29847,"lon":5.36277,"is_reserved":false,"is_disabled":false,"rental_uris":{"android":"levelo://app?vid=e61a8d9b-4739-42c1-a955-1174cd07f6d9","ios":"levelo://app?vid=e61a8d9b-4739-42c1-a955-1174cd07f6d9"},"vehicle_type_id":"4","last_reported":1721678912,"current_range_meters":0,"station_id":"ce4bgpp2rcd13ifvqc3g","pricing_plan_id":"cebpf4jnsgd1na2vs0mg"},{"bike_id":"e6c97a66-dd80-458d-b6a5-04eee13a1766","system_id":"levelo_inurba_marseille","lat":43.298433,"lon":5.362774,"is_reserved":false,"is_disabled":false,"rental_uris":{"android":"levelo://app?vid=e6c97a66-dd80-458d-b6a5-04eee13a1766","ios":"levelo://app?vid=e6c97a66-dd80-458d-b6a5-04eee13a1766"},"vehicle_type_id":"4","last_reported":1721678912,"current_range_meters":1200,"station_id":"ce4bgpp2rcd13ifvqc3g","pricing_plan_id":"cebpf4jnsgd1na2vs0mg"},{"bike_id":"b71c3086-2903-4e23-84f5-22145ec5490d","system_id":"levelo_inurba_marseille","lat":43.29841,"lon":5.36271,"is_reserved":false,"is_disabled":false,"rental_uris":{"android":"levelo://app?vid=b71c3086-2903-4e23-84f5-22145ec5490d","ios":"levelo://app?vid=b71c3086-2903-4e23-84f5-22145ec5490d"},"vehicle_type_id":"4","last_reported":1721678912,"current_range_meters":22800,"station_id":"ce4bgpp2rcd13ifvqc3g","pricing_plan_id":"cebpf4jnsgd1na2vs0mg"},{"bike_id":"5d3c3ab5-9a1e-49ba-95bf-b9b0001276e7","system_id":"levelo_inurba_marseille","lat":43.298433,"lon":5.362774,"is_reserved":false,"is_disabled":false,"rental_uris":{"android":"levelo://app?vid=5d3c3ab5-9a1e-49ba-95bf-b9b0001276e7","ios":"levelo://app?vid=5d3c3ab5-9a1e-49ba-95bf-b9b0001276e7"},"vehicle_type_id":"4","last_reported":1721678912,"current_range_meters":9200,"station_id":"ce4bgpp2rcd13ifvqc3g","pricing_plan_id":"cebpf4jnsgd1na2vs0mg"},{"bike_id":"3de558ef-b815-445d-abb9-731addbd01d2","system_id":"levelo_inurba_marseille","lat":43.311722,"lon":5.387247,"is_reserved":false,"is_disabled":false,"rental_uris":{"android":"levelo://app?vid=3de558ef-b815-445d-abb9-731addbd01d2","ios":"levelo://app?vid=3de558ef-b815-445d-abb9-731addbd01d2"},"vehicle_type_id":"4","last_reported":1721678912,"current_range_meters":30800,"station_id":"ce4bgv12rcd13ifvqcp0","pricing_plan_id":"cebpf4jnsgd1na2vs0mg"},{"bike_id":"bd2438cd-719c-444e-8d8b-1167130d6394","system_id":"levelo_inurba_marseille","lat":43.31172,"lon":5.38713,"is_reserved":false,"is_disabled":false,"rental_uris":{"android":"levelo://app?vid=bd2438cd-719c-444e-8d8b-1167130d6394","ios":"levelo://app?vid=bd2438cd-719c-444e-8d8b-1167130d6394"},"vehicle_type_id":"4","last_reported":1721678912,"current_range_meters":31200,"station_id":"ce4bgv12rcd13ifvqcp0","pricing_plan_id":"cebpf4jnsgd1na2vs0mg"},{"bike_id":"9b8c559d-9350-4b49-aa5b-45df5b904605","system_id":"levelo_inurba_marseille","lat":43.311722,"lon":5.387247,"is_reserved":false,"is_disabled":false,"rental_uris":{"android":"levelo://app?vid=9b8c559d-9350-4b49-aa5b-45df5b904605","ios":"levelo://app?vid=9b8c559d-9350-4b49-aa5b-45df5b904605"},"vehicle_type_id":"4","last_reported":1721678912,"current_range_meters":9200,"station_id":"ce4bgv12rcd13ifvqcp0","pricing_plan_id":"cebpf4jnsgd1na2vs0mg"},{"bike_id":"3aefa697-8f8d-409e-8123-bafabe463f64","system_id":"levelo_inurba_marseille","lat":43.311722,"lon":5.387247,"is_reserved":false,"is_disabled":false,"rental_uris":{"android":"levelo://app?vid=3aefa697-8f8d-409e-8123-bafabe463f64","ios":"levelo://app?vid=3aefa697-8f8d-409e-8123-bafabe463f64"},"vehicle_type_id":"4","last_reported":1721678912,"current_range_meters":25600,"station_id":"ce4bgv12rcd13ifvqcp0","pricing_plan_id":"cebpf4jnsgd1na2vs0mg"},{"bike_id":"0c54202e-986d-44e9-9f46-17eaef221b12","system_id":"levelo_inurba_marseille","lat":43.297916,"lon":5.370726,"is_reserved":false,"is_disabled":false,"rental_uris":{"android":"levelo://app?vid=0c54202e-986d-44e9-9f46-17eaef221b12","ios":"levelo://app?vid=0c54202e-986d-44e9-9f46-17eaef221b12"},"vehicle_type_id":"4","last_reported":1721678912,"current_range_meters":1200,"station_id":"ce4bgop2rcd13ifvqc1g","pricing_plan_id":"cebpf4jnsgd1na2vs0mg"},{"bike_id":"f25e96be-845d-4a14-b11d-f2179b429786","system_id":"levelo_inurba_marseille","lat":43.297794,"lon":5.370888,"is_reserved":false,"is_disabled":false,"rental_uris":{"android":"levelo://app?vid=f25e96be-845d-4a14-b11d-f2179b429786","ios":"levelo://app?vid=f25e96be-845d-4a14-b11d-f2179b429786"},"vehicle_type_id":"4","last_reported":1721678912,"current_range_meters":20400,"station_id":"ce4bgop2rcd13ifvqc1g","pricing_plan_id":"cebpf4jnsgd1na2vs0mg"},{"bike_id":"98130cc7-b273-4dee-89a1-15b990d570f8","system_id":"levelo_inurba_marseille","lat":43.32292,"lon":5.38261,"is_reserved":false,"is_disabled":false,"rental_uris":{"android":"levelo://app?vid=98130cc7-b273-4dee-89a1-15b990d570f8","ios":"levelo://app?vid=98130cc7-b273-4dee-89a1-15b990d570f8"},"vehicle_type_id":"4","last_reported":1721678912,"current_range_meters":10800,"station_id":"ce4bhr12rcd13ifvqhqg","pricing_plan_id":"cebpf4jnsgd1na2vs0mg"},{"bike_id":"3d0a25f2-54fd-474d-89eb-c5f7d4c81d64","system_id":"levelo_inurba_marseille","lat":43.322872,"lon":5.382756,"is_reserved":false,"is_disabled":false,"rental_uris":{"android":"levelo://app?vid=3d0a25f2-54fd-474d-89eb-c5f7d4c81d64","ios":"levelo://app?vid=3d0a25f2-54fd-474d-89eb-c5f7d4c81d64"},"vehicle_type_id":"4","last_reported":1721678912,"current_range_meters":21600,"station_id":"ce4bhr12rcd13ifvqhqg","pricing_plan_id":"cebpf4jnsgd1na2vs0mg"},{"bike_id":"541eecc3-d095-4909-8f91-c231c259e250","system_id":"levelo_inurba_marseille","lat":43.322872,"lon":5.382756,"is_reserved":false,"is_disabled":false,"rental_uris":{"android":"levelo://app?vid=541eecc3-d095-4909-8f91-c231c259e250","ios":"levelo://app?vid=541eecc3-d095-4909-8f91-c231c259e250"},"vehicle_type_id":"4","last_reported":1721678912,"current_range_meters":13600,"station_id":"ce4bhr12rcd13ifvqhqg","pricing_plan_id":"cebpf4jnsgd1na2vs0mg"},{"bike_id":"7496d8ef-04f2-4b8b-9516-2adb997806b1","system_id":"levelo_inurba_marseille","lat":43.322872,"lon":5.382756,"is_reserved":false,"is_disabled":false,"rental_uris":{"android":"levelo://app?vid=7496d8ef-04f2-4b8b-9516-2adb997806b1","ios":"levelo://app?vid=7496d8ef-04f2-4b8b-9516-2adb997806b1"},"vehicle_type_id":"4","last_reported":1721678912,"current_range_meters":6000,"station_id":"ce4bhr12rcd13ifvqhqg","pricing_plan_id":"cebpf4jnsgd1na2vs0mg"},{"bike_id":"3198afba-1e22-4226-bfdf-ce414f4d5e7e","system_id":"levelo_inurba_marseille","lat":43.32288,"lon":5.38279,"is_reserved":false,"is_disabled":false,"rental_uris":{"android":"levelo://app?vid=3198afba-1e22-4226-bfdf-ce414f4d5e7e","ios":"levelo://app?vid=3198afba-1e22-4226-bfdf-ce414f4d5e7e"},"vehicle_type_id":"4","last_reported":1721678912,"current_range_meters":26800,"station_id":"ce4bhr12rcd13ifvqhqg","pricing_plan_id":"cebpf4jnsgd1na2vs0mg"},{"bike_id":"935debec-bc12-4685-a241-6ade3b71bec0","system_id":"levelo_inurba_marseille","lat":43.29768,"lon":5.37134,"is_reserved":false,"is_disabled":false,"rental_uris":{"android":"levelo://app?vid=935debec-bc12-4685-a241-6ade3b71bec0","ios":"levelo://app?vid=935debec-bc12-4685-a241-6ade3b71bec0"},"vehicle_type_id":"4","last_reported":1721678912,"current_range_meters":31600,"station_id":"ce4bgop2rcd13ifvqc1g","pricing_plan_id":"cebpf4jnsgd1na2vs0mg"},{"bike_id":"9996ec0b-ad92-444d-815a-b593ca9b66dc","system_id":"levelo_inurba_marseille","lat":43.297163,"lon":5.365866,"is_reserved":false,"is_disabled":false,"rental_uris":{"android":"levelo://app?vid=9996ec0b-ad92-444d-815a-b593ca9b66dc","ios":"levelo://app?vid=9996ec0b-ad92-444d-815a-b593ca9b66dc"},"vehicle_type_id":"4","last_reported":1721678912,"current_range_meters":400,"station_id":"ce4bgn12rcd13ifvqbt0","pricing_plan_id":"cebpf4jnsgd1na2vs0mg"},{"bike_id":"d8fc0c89-84a4-4852-8f7c-18897655e43f","system_id":"levelo_inurba_marseille","lat":43.296131,"lon":5.370791,"is_reserved":false,"is_disabled":false,"rental_uris":{"android":"levelo://app?vid=d8fc0c89-84a4-4852-8f7c-18897655e43f","ios":"levelo://app?vid=d8fc0c89-84a4-4852-8f7c-18897655e43f"},"vehicle_type_id":"4","last_reported":1721678912,"current_range_meters":21600,"station_id":"ce4bgnh2rcd13ifvqc0g","pricing_plan_id":"cebpf4jnsgd1na2vs0mg"},{"bike_id":"9be7ae24-aa95-411b-bd1f-83782e0cb9c2","system_id":"levelo_inurba_marseille","lat":43.296131,"lon":5.370791,"is_reserved":false,"is_disabled":false,"rental_uris":{"android":"levelo://app?vid=9be7ae24-aa95-411b-bd1f-83782e0cb9c2","ios":"levelo://app?vid=9be7ae24-aa95-411b-bd1f-83782e0cb9c2"},"vehicle_type_id":"4","last_reported":1721678912,"current_range_meters":10000,"station_id":"ce4bgnh2rcd13ifvqc0g","pricing_plan_id":"cebpf4jnsgd1na2vs0mg"},{"bike_id":"40d55cc2-4b96-4e38-8436-a11d77e9f3c8","system_id":"levelo_inurba_marseille","lat":43.29573,"lon":5.367355,"is_reserved":false,"is_disabled":false,"rental_uris":{"android":"levelo://app?vid=40d55cc2-4b96-4e38-8436-a11d77e9f3c8","ios":"levelo://app?vid=40d55cc2-4b96-4e38-8436-a11d77e9f3c8"},"vehicle_type_id":"4","last_reported":1721678912,"current_range_meters":31600,"station_id":"ce4bgph2rcd13ifvqc2g","pricing_plan_id":"cebpf4jnsgd1na2vs0mg"},{"bike_id":"c4447401-843f-4b8d-aaad-6634de5ba619","system_id":"levelo_inurba_marseille","lat":43.29734,"lon":5.37688,"is_reserved":false,"is_disabled":false,"rental_uris":{"android":"levelo://app?vid=c4447401-843f-4b8d-aaad-6634de5ba619","ios":"levelo://app?vid=c4447401-843f-4b8d-aaad-6634de5ba619"},"vehicle_type_id":"4","last_reported":1721678912,"current_range_meters":29600,"station_id":"ce4bgkh2rcd13ifvqbl0","pricing_plan_id":"cebpf4jnsgd1na2vs0mg"},{"bike_id":"389e5850-5579-4563-b15f-6e0fb79624c1","system_id":"levelo_inurba_marseille","lat":43.309589,"lon":5.390258,"is_reserved":false,"is_disabled":false,"rental_uris":{"android":"levelo://app?vid=389e5850-5579-4563-b15f-6e0fb79624c1","ios":"levelo://app?vid=389e5850-5579-4563-b15f-6e0fb79624c1"},"vehicle_type_id":"4","last_reported":1721678912,"current_range_meters":31200,"station_id":"ce4bgup2rcd13ifvqco0","pricing_plan_id":"cebpf4jnsgd1na2vs0mg"},{"bike_id":"7cca1a95-37f3-4adf-b39e-8de3e5ca4d84","system_id":"levelo_inurba_marseille","lat":43.299028,"lon":5.381509,"is_reserved":false,"is_disabled":false,"rental_uris":{"android":"levelo://app?vid=7cca1a95-37f3-4adf-b39e-8de3e5ca4d84","ios":"levelo://app?vid=7cca1a95-37f3-4adf-b39e-8de3e5ca4d84"},"vehicle_type_id":"4","last_reported":1721678912,"current_range_meters":22400,"station_id":"ce4bgj12rcd13ifvqbc0","pricing_plan_id":"cebpf4jnsgd1na2vs0mg"},{"bike_id":"6b9fe9ed-0923-4926-a42e-2902c73294f3","system_id":"levelo_inurba_marseille","lat":43.299028,"lon":5.381509,"is_reserved":false,"is_disabled":false,"rental_uris":{"android":"levelo://app?vid=6b9fe9ed-0923-4926-a42e-2902c73294f3","ios":"levelo://app?vid=6b9fe9ed-0923-4926-a42e-2902c73294f3"},"vehicle_type_id":"4","last_reported":1721678912,"current_range_meters":27200,"station_id":"ce4bgj12rcd13ifvqbc0","pricing_plan_id":"cebpf4jnsgd1na2vs0mg"},{"bike_id":"3f6ea331-9d05-4918-8cef-ad42a5d2e39a","system_id":"levelo_inurba_marseille","lat":43.309589,"lon":5.390258,"is_reserved":false,"is_disabled":false,"rental_uris":{"android":"levelo://app?vid=3f6ea331-9d05-4918-8cef-ad42a5d2e39a","ios":"levelo://app?vid=3f6ea331-9d05-4918-8cef-ad42a5d2e39a"},"vehicle_type_id":"4","last_reported":1721678912,"current_range_meters":800,"station_id":"ce4bgup2rcd13ifvqco0","pricing_plan_id":"cebpf4jnsgd1na2vs0mg"},{"bike_id":"ab22cb64-7af5-4b77-a1d3-69266b871611","system_id":"levelo_inurba_marseille","lat":43.317557,"lon":5.390173,"is_reserved":false,"is_disabled":false,"rental_uris":{"android":"levelo://app?vid=ab22cb64-7af5-4b77-a1d3-69266b871611","ios":"levelo://app?vid=ab22cb64-7af5-4b77-a1d3-69266b871611"},"vehicle_type_id":"4","last_reported":1721678912,"current_range_meters":22400,"station_id":"ce4bhqp2rcd13ifvqhng","pricing_plan_id":"cebpf4jnsgd1na2vs0mg"},{"bike_id":"5cbabb2c-3d39-4784-8f2d-8b0ed837f225","system_id":"levelo_inurba_marseille","lat":43.317557,"lon":5.390173,"is_reserved":false,"is_disabled":false,"rental_uris":{"android":"levelo://app?vid=5cbabb2c-3d39-4784-8f2d-8b0ed837f225","ios":"levelo://app?vid=5cbabb2c-3d39-4784-8f2d-8b0ed837f225"},"vehicle_type_id":"4","last_reported":1721678912,"current_range_meters":26800,"station_id":"ce4bhqp2rcd13ifvqhng","pricing_plan_id":"cebpf4jnsgd1na2vs0mg"},{"bike_id":"bb742a81-5628-4bb0-bb29-f41b4fd9bc64","system_id":"levelo_inurba_marseille","lat":43.317557,"lon":5.390173,"is_reserved":false,"is_disabled":false,"rental_uris":{"android":"levelo://app?vid=bb742a81-5628-4bb0-bb29-f41b4fd9bc64","ios":"levelo://app?vid=bb742a81-5628-4bb0-bb29-f41b4fd9bc64"},"vehicle_type_id":"4","last_reported":1721678912,"current_range_meters":30000,"station_id":"ce4bhqp2rcd13ifvqhng","pricing_plan_id":"cebpf4jnsgd1na2vs0mg"},{"bike_id":"61dbb7ec-36fe-42e9-808b-d6e26ee30983","system_id":"levelo_inurba_marseille","lat":43.31757,"lon":5.39018,"is_reserved":false,"is_disabled":false,"rental_uris":{"android":"levelo://app?vid=61dbb7ec-36fe-42e9-808b-d6e26ee30983","ios":"levelo://app?vid=61dbb7ec-36fe-42e9-808b-d6e26ee30983"},"vehicle_type_id":"4","last_reported":1721678912,"current_range_meters":31200,"station_id":"ce4bhqp2rcd13ifvqhng","pricing_plan_id":"cebpf4jnsgd1na2vs0mg"},{"bike_id":"6481e595-ab17-4534-a707-ae6dc36ae34d","system_id":"levelo_inurba_marseille","lat":43.31761,"lon":5.39018,"is_reserved":false,"is_disabled":false,"rental_uris":{"android":"levelo://app?vid=6481e595-ab17-4534-a707-ae6dc36ae34d","ios":"levelo://app?vid=6481e595-ab17-4534-a707-ae6dc36ae34d"},"vehicle_type_id":"4","last_reported":1721678912,"current_range_meters":30000,"station_id":"ce4bhqp2rcd13ifvqhng","pricing_plan_id":"cebpf4jnsgd1na2vs0mg"},{"bike_id":"ca1595fc-d706-47ec-b3ff-3afecc477154","system_id":"levelo_inurba_marseille","lat":43.29617,"lon":5.37684,"is_reserved":false,"is_disabled":false,"rental_uris":{"android":"levelo://app?vid=ca1595fc-d706-47ec-b3ff-3afecc477154","ios":"levelo://app?vid=ca1595fc-d706-47ec-b3ff-3afecc477154"},"vehicle_type_id":"4","last_reported":1721678912,"current_range_meters":0,"station_id":"ce4bguh2rcd13ifvqcj0","pricing_plan_id":"cebpf4jnsgd1na2vs0mg"},{"bike_id":"3cf67762-88c2-43a5-b861-bf4e1a20b262","system_id":"levelo_inurba_marseille","lat":43.296277,"lon":5.377108,"is_reserved":false,"is_disabled":false,"rental_uris":{"android":"levelo://app?vid=3cf67762-88c2-43a5-b861-bf4e1a20b262","ios":"levelo://app?vid=3cf67762-88c2-43a5-b861-bf4e1a20b262"},"vehicle_type_id":"4","last_reported":1721678912,"current_range_meters":21600,"station_id":"ce4bgi92rcd13ifvqb90","pricing_plan_id":"cebpf4jnsgd1na2vs0mg"},{"bike_id":"8f7e60f6-e23c-4612-b669-5d118289290c","system_id":"levelo_inurba_marseille","lat":43.29759,"lon":5.381068,"is_reserved":false,"is_disabled":false,"rental_uris":{"android":"levelo://app?vid=8f7e60f6-e23c-4612-b669-5d118289290c","ios":"levelo://app?vid=8f7e60f6-e23c-4612-b669-5d118289290c"},"vehicle_type_id":"4","last_reported":1721678912,"current_range_meters":16800,"station_id":"","pricing_plan_id":"cebpf4jnsgd1na2vs0mg"},{"bike_id":"06bc1e5b-b584-4167-a166-da1a83f7a714","system_id":"levelo_inurba_marseille","lat":43.29758,"lon":5.3813,"is_reserved":false,"is_disabled":false,"rental_uris":{"android":"levelo://app?vid=06bc1e5b-b584-4167-a166-da1a83f7a714","ios":"levelo://app?vid=06bc1e5b-b584-4167-a166-da1a83f7a714"},"vehicle_type_id":"4","last_reported":1721678912,"current_range_meters":20800,"station_id":"","pricing_plan_id":"cebpf4jnsgd1na2vs0mg"},{"bike_id":"525a1329-91bc-4c82-8744-99d44d8409ee","system_id":"levelo_inurba_marseille","lat":43.298615,"lon":5.383525,"is_reserved":false,"is_disabled":false,"rental_uris":{"android":"levelo://app?vid=525a1329-91bc-4c82-8744-99d44d8409ee","ios":"levelo://app?vid=525a1329-91bc-4c82-8744-99d44d8409ee"},"vehicle_type_id":"4","last_reported":1721678912,"current_range_meters":25200,"station_id":"","pricing_plan_id":"cebpf4jnsgd1na2vs0mg"},{"bike_id":"240cd2f9-fa69-4dbc-987c-256526ed7194","system_id":"levelo_inurba_marseille","lat":43.299635,"lon":5.38506,"is_reserved":false,"is_disabled":false,"rental_uris":{"android":"levelo://app?vid=240cd2f9-fa69-4dbc-987c-256526ed7194","ios":"levelo://app?vid=240cd2f9-fa69-4dbc-987c-256526ed7194"},"vehicle_type_id":"4","last_reported":1721678912,"current_range_meters":31200,"station_id":"ce4bgj92rcd13ifvqbd0","pricing_plan_id":"cebpf4jnsgd1na2vs0mg"},{"bike_id":"5701faea-8080-4998-8b7f-aef34b9aab77","system_id":"levelo_inurba_marseille","lat":43.301396,"lon":5.387812,"is_reserved":false,"is_disabled":false,"rental_uris":{"android":"levelo://app?vid=5701faea-8080-4998-8b7f-aef34b9aab77","ios":"levelo://app?vid=5701faea-8080-4998-8b7f-aef34b9aab77"},"vehicle_type_id":"4","last_reported":1721678912,"current_range_meters":0,"station_id":"ce4bghh2rcd13ifvqb60","pricing_plan_id":"cebpf4jnsgd1na2vs0mg"},{"bike_id":"37951107-120b-44c8-b923-7e225f59813d","system_id":"levelo_inurba_marseille","lat":43.3013,"lon":5.38786,"is_reserved":false,"is_disabled":false,"rental_uris":{"android":"levelo://app?vid=37951107-120b-44c8-b923-7e225f59813d","ios":"levelo://app?vid=37951107-120b-44c8-b923-7e225f59813d"},"vehicle_type_id":"4","last_reported":1721678912,"current_range_meters":6800,"station_id":"ce4bghh2rcd13ifvqb60","pricing_plan_id":"cebpf4jnsgd1na2vs0mg"},{"bike_id":"10d85473-3b58-4f82-a8bf-32664fbe7811","system_id":"levelo_inurba_marseille","lat":43.32367,"lon":5.388836,"is_reserved":false,"is_disabled":false,"rental_uris":{"android":"levelo://app?vid=10d85473-3b58-4f82-a8bf-32664fbe7811","ios":"levelo://app?vid=10d85473-3b58-4f82-a8bf-32664fbe7811"},"vehicle_type_id":"4","last_reported":1721678912,"current_range_meters":31200,"station_id":"ce4bhqp2rcd13ifvqhog","pricing_plan_id":"cebpf4jnsgd1na2vs0mg"},{"bike_id":"a0e4e4ec-0704-4ffe-9904-44e2c37f4a63","system_id":"levelo_inurba_marseille","lat":43.32367,"lon":5.388836,"is_reserved":false,"is_disabled":false,"rental_uris":{"android":"levelo://app?vid=a0e4e4ec-0704-4ffe-9904-44e2c37f4a63","ios":"levelo://app?vid=a0e4e4ec-0704-4ffe-9904-44e2c37f4a63"},"vehicle_type_id":"4","last_reported":1721678912,"current_range_meters":22400,"station_id":"ce4bhqp2rcd13ifvqhog","pricing_plan_id":"cebpf4jnsgd1na2vs0mg"},{"bike_id":"1b882187-6e40-4f2f-9ff1-8f6c67defec4","system_id":"levelo_inurba_marseille","lat":43.32367,"lon":5.388836,"is_reserved":false,"is_disabled":false,"rental_uris":{"android":"levelo://app?vid=1b882187-6e40-4f2f-9ff1-8f6c67defec4","ios":"levelo://app?vid=1b882187-6e40-4f2f-9ff1-8f6c67defec4"},"vehicle_type_id":"4","last_reported":1721678912,"current_range_meters":0,"station_id":"ce4bhqp2rcd13ifvqhog","pricing_plan_id":"cebpf4jnsgd1na2vs0mg"},{"bike_id":"0d932bf2-beba-48f4-ae6c-632c5eaf6353","system_id":"levelo_inurba_marseille","lat":43.32367,"lon":5.388836,"is_reserved":false,"is_disabled":false,"rental_uris":{"android":"levelo://app?vid=0d932bf2-beba-48f4-ae6c-632c5eaf6353","ios":"levelo://app?vid=0d932bf2-beba-48f4-ae6c-632c5eaf6353"},"vehicle_type_id":"4","last_reported":1721678912,"current_range_meters":31200,"station_id":"ce4bhqp2rcd13ifvqhog","pricing_plan_id":"cebpf4jnsgd1na2vs0mg"},{"bike_id":"8468dcfb-a1fb-418c-be87-dbe8f388376f","system_id":"levelo_inurba_marseille","lat":43.32367,"lon":5.388836,"is_reserved":false,"is_disabled":false,"rental_uris":{"android":"levelo://app?vid=8468dcfb-a1fb-418c-be87-dbe8f388376f","ios":"levelo://app?vid=8468dcfb-a1fb-418c-be87-dbe8f388376f"},"vehicle_type_id":"4","last_reported":1721678912,"current_range_meters":12000,"station_id":"ce4bhqp2rcd13ifvqhog","pricing_plan_id":"cebpf4jnsgd1na2vs0mg"},{"bike_id":"67f74dd2-44f9-4b11-8ebd-ca18bff6216d","system_id":"levelo_inurba_marseille","lat":43.32367,"lon":5.388836,"is_reserved":false,"is_disabled":false,"rental_uris":{"android":"levelo://app?vid=67f74dd2-44f9-4b11-8ebd-ca18bff6216d","ios":"levelo://app?vid=67f74dd2-44f9-4b11-8ebd-ca18bff6216d"},"vehicle_type_id":"4","last_reported":1721678912,"current_range_meters":31200,"station_id":"ce4bhqp2rcd13ifvqhog","pricing_plan_id":"cebpf4jnsgd1na2vs0mg"},{"bike_id":"52f0b6c1-6203-4f86-ab29-fc15fc3cf7dd","system_id":"levelo_inurba_marseille","lat":43.293259,"lon":5.371586,"is_reserved":false,"is_disabled":false,"rental_uris":{"android":"levelo://app?vid=52f0b6c1-6203-4f86-ab29-fc15fc3cf7dd","ios":"levelo://app?vid=52f0b6c1-6203-4f86-ab29-fc15fc3cf7dd"},"vehicle_type_id":"4","last_reported":1721678912,"current_range_meters":10800,"station_id":"ce4bgh92rcd13ifvqb40","pricing_plan_id":"cebpf4jnsgd1na2vs0mg"},{"bike_id":"14e40576-7220-45a9-98ab-dbb25a57a4a1","system_id":"levelo_inurba_marseille","lat":43.293249,"lon":5.371578,"is_reserved":false,"is_disabled":false,"rental_uris":{"android":"levelo://app?vid=14e40576-7220-45a9-98ab-dbb25a57a4a1","ios":"levelo://app?vid=14e40576-7220-45a9-98ab-dbb25a57a4a1"},"vehicle_type_id":"4","last_reported":1721678912,"current_range_meters":0,"station_id":"ce4bgh92rcd13ifvqb40","pricing_plan_id":"cebpf4jnsgd1na2vs0mg"},{"bike_id":"16cfd6ae-e1c5-437a-ac8c-4247dd64b878","system_id":"levelo_inurba_marseille","lat":43.29311,"lon":5.37184,"is_reserved":false,"is_disabled":false,"rental_uris":{"android":"levelo://app?vid=16cfd6ae-e1c5-437a-ac8c-4247dd64b878","ios":"levelo://app?vid=16cfd6ae-e1c5-437a-ac8c-4247dd64b878"},"vehicle_type_id":"4","last_reported":1721678912,"current_range_meters":2800,"station_id":"ce4bgh92rcd13ifvqb40","pricing_plan_id":"cebpf4jnsgd1na2vs0mg"},{"bike_id":"6c104572-0670-423c-a7d6-2f74d2d61633","system_id":"levelo_inurba_marseille","lat":43.29308,"lon":5.37184,"is_reserved":false,"is_disabled":false,"rental_uris":{"android":"levelo://app?vid=6c104572-0670-423c-a7d6-2f74d2d61633","ios":"levelo://app?vid=6c104572-0670-423c-a7d6-2f74d2d61633"},"vehicle_type_id":"4","last_reported":1721678912,"current_range_meters":0,"station_id":"ce4bgh92rcd13ifvqb40","pricing_plan_id":"cebpf4jnsgd1na2vs0mg"},{"bike_id":"aef85b7c-16de-4872-b5c9-2098b718b315","system_id":"levelo_inurba_marseille","lat":43.293259,"lon":5.371586,"is_reserved":false,"is_disabled":false,"rental_uris":{"android":"levelo://app?vid=aef85b7c-16de-4872-b5c9-2098b718b315","ios":"levelo://app?vid=aef85b7c-16de-4872-b5c9-2098b718b315"},"vehicle_type_id":"4","last_reported":1721678912,"current_range_meters":0,"station_id":"ce4bgh92rcd13ifvqb40","pricing_plan_id":"cebpf4jnsgd1na2vs0mg"},{"bike_id":"d69ce823-6c1e-49d4-868b-2dff1e991fb5","system_id":"levelo_inurba_marseille","lat":43.29278,"lon":5.36844,"is_reserved":false,"is_disabled":false,"rental_uris":{"android":"levelo://app?vid=d69ce823-6c1e-49d4-868b-2dff1e991fb5","ios":"levelo://app?vid=d69ce823-6c1e-49d4-868b-2dff1e991fb5"},"vehicle_type_id":"4","last_reported":1721678912,"current_range_meters":0,"station_id":"ce4bhbp2rcd13ifvqesg","pricing_plan_id":"cebpf4jnsgd1na2vs0mg"},{"bike_id":"d0de292b-02c7-4ea9-9f12-6bf92e299e62","system_id":"levelo_inurba_marseille","lat":43.29305,"lon":5.37186,"is_reserved":false,"is_disabled":false,"rental_uris":{"android":"levelo://app?vid=d0de292b-02c7-4ea9-9f12-6bf92e299e62","ios":"levelo://app?vid=d0de292b-02c7-4ea9-9f12-6bf92e299e62"},"vehicle_type_id":"4","last_reported":1721678912,"current_range_meters":0,"station_id":"ce4bgh92rcd13ifvqb40","pricing_plan_id":"cebpf4jnsgd1na2vs0mg"},{"bike_id":"a665f7f9-a8e5-496b-a25e-d216916bdc6f","system_id":"levelo_inurba_marseille","lat":43.29275,"lon":5.36844,"is_reserved":false,"is_disabled":false,"rental_uris":{"android":"levelo://app?vid=a665f7f9-a8e5-496b-a25e-d216916bdc6f","ios":"levelo://app?vid=a665f7f9-a8e5-496b-a25e-d216916bdc6f"},"vehicle_type_id":"4","last_reported":1721678912,"current_range_meters":0,"station_id":"ce4bhbp2rcd13ifvqesg","pricing_plan_id":"cebpf4jnsgd1na2vs0mg"},{"bike_id":"8200e356-df63-4fa7-9925-29805b2451fb","system_id":"levelo_inurba_marseille","lat":43.292749,"lon":5.368402,"is_reserved":false,"is_disabled":false,"rental_uris":{"android":"levelo://app?vid=8200e356-df63-4fa7-9925-29805b2451fb","ios":"levelo://app?vid=8200e356-df63-4fa7-9925-29805b2451fb"},"vehicle_type_id":"4","last_reported":1721678912,"current_range_meters":31200,"station_id":"ce4bhbp2rcd13ifvqesg","pricing_plan_id":"cebpf4jnsgd1na2vs0mg"},{"bike_id":"f7daeb5a-3ff9-4060-9418-eb9cbff934a7","system_id":"levelo_inurba_marseille","lat":43.2927,"lon":5.36855,"is_reserved":false,"is_disabled":false,"rental_uris":{"android":"levelo://app?vid=f7daeb5a-3ff9-4060-9418-eb9cbff934a7","ios":"levelo://app?vid=f7daeb5a-3ff9-4060-9418-eb9cbff934a7"},"vehicle_type_id":"4","last_reported":1721678912,"current_range_meters":0,"station_id":"ce4bhbp2rcd13ifvqesg","pricing_plan_id":"cebpf4jnsgd1na2vs0mg"},{"bike_id":"a5715b42-edab-4a34-8c6e-70fded1f54ba","system_id":"levelo_inurba_marseille","lat":43.293044,"lon":5.374507,"is_reserved":false,"is_disabled":false,"rental_uris":{"android":"levelo://app?vid=a5715b42-edab-4a34-8c6e-70fded1f54ba","ios":"levelo://app?vid=a5715b42-edab-4a34-8c6e-70fded1f54ba"},"vehicle_type_id":"4","last_reported":1721678912,"current_range_meters":0,"station_id":"ce4bgi12rcd13ifvqb70","pricing_plan_id":"cebpf4jnsgd1na2vs0mg"},{"bike_id":"37d4dc96-e906-47d7-b802-e45db89b7b45","system_id":"levelo_inurba_marseille","lat":43.29302,"lon":5.37458,"is_reserved":false,"is_disabled":false,"rental_uris":{"android":"levelo://app?vid=37d4dc96-e906-47d7-b802-e45db89b7b45","ios":"levelo://app?vid=37d4dc96-e906-47d7-b802-e45db89b7b45"},"vehicle_type_id":"4","last_reported":1721678912,"current_range_meters":0,"station_id":"ce4bgi12rcd13ifvqb70","pricing_plan_id":"cebpf4jnsgd1na2vs0mg"},{"bike_id":"8b9561ea-bc97-4a13-9e61-03871de881fc","system_id":"levelo_inurba_marseille","lat":43.29298,"lon":5.37463,"is_reserved":false,"is_disabled":false,"rental_uris":{"android":"levelo://app?vid=8b9561ea-bc97-4a13-9e61-03871de881fc","ios":"levelo://app?vid=8b9561ea-bc97-4a13-9e61-03871de881fc"},"vehicle_type_id":"4","last_reported":1721678912,"current_range_meters":0,"station_id":"ce4bgi12rcd13ifvqb70","pricing_plan_id":"cebpf4jnsgd1na2vs0mg"},{"bike_id":"06c557a3-6d9d-43e3-b48f-3ee7b2ed4ede","system_id":"levelo_inurba_marseille","lat":43.302992,"lon":5.392136,"is_reserved":false,"is_disabled":false,"rental_uris":{"android":"levelo://app?vid=06c557a3-6d9d-43e3-b48f-3ee7b2ed4ede","ios":"levelo://app?vid=06c557a3-6d9d-43e3-b48f-3ee7b2ed4ede"},"vehicle_type_id":"4","last_reported":1721678912,"current_range_meters":28800,"station_id":"ce4bgkh2rcd13ifvqbk0","pricing_plan_id":"cebpf4jnsgd1na2vs0mg"},{"bike_id":"f9b0b475-3f8c-4f58-bc4f-fc7f6c335560","system_id":"levelo_inurba_marseille","lat":43.303006,"lon":5.392064,"is_reserved":false,"is_disabled":false,"rental_uris":{"android":"levelo://app?vid=f9b0b475-3f8c-4f58-bc4f-fc7f6c335560","ios":"levelo://app?vid=f9b0b475-3f8c-4f58-bc4f-fc7f6c335560"},"vehicle_type_id":"4","last_reported":1721678912,"current_range_meters":28400,"station_id":"ce4bgkh2rcd13ifvqbk0","pricing_plan_id":"cebpf4jnsgd1na2vs0mg"},{"bike_id":"7abe6311-e047-4df0-9bf8-eaac35fc0f0e","system_id":"levelo_inurba_marseille","lat":43.2936,"lon":5.37835,"is_reserved":false,"is_disabled":false,"rental_uris":{"android":"levelo://app?vid=7abe6311-e047-4df0-9bf8-eaac35fc0f0e","ios":"levelo://app?vid=7abe6311-e047-4df0-9bf8-eaac35fc0f0e"},"vehicle_type_id":"4","last_reported":1721678912,"current_range_meters":1200,"station_id":"ce4bgjh2rcd13ifvqbf0","pricing_plan_id":"cebpf4jnsgd1na2vs0mg"},{"bike_id":"b09d2a2b-8789-47f0-a715-27df10a74ad5","system_id":"levelo_inurba_marseille","lat":43.29378,"lon":5.37855,"is_reserved":false,"is_disabled":false,"rental_uris":{"android":"levelo://app?vid=b09d2a2b-8789-47f0-a715-27df10a74ad5","ios":"levelo://app?vid=b09d2a2b-8789-47f0-a715-27df10a74ad5"},"vehicle_type_id":"4","last_reported":1721678912,"current_range_meters":0,"station_id":"ce4bgjh2rcd13ifvqbf0","pricing_plan_id":"cebpf4jnsgd1na2vs0mg"},{"bike_id":"1f56f90b-f03c-4284-8ccf-b3bf783ac3b7","system_id":"levelo_inurba_marseille","lat":43.303002,"lon":5.392142,"is_reserved":false,"is_disabled":false,"rental_uris":{"android":"levelo://app?vid=1f56f90b-f03c-4284-8ccf-b3bf783ac3b7","ios":"levelo://app?vid=1f56f90b-f03c-4284-8ccf-b3bf783ac3b7"},"vehicle_type_id":"4","last_reported":1721678912,"current_range_meters":31200,"station_id":"ce4bgkh2rcd13ifvqbk0","pricing_plan_id":"cebpf4jnsgd1na2vs0mg"},{"bike_id":"8f88fef0-de12-494e-930f-00f0a9aebea1","system_id":"levelo_inurba_marseille","lat":43.302992,"lon":5.392136,"is_reserved":false,"is_disabled":false,"rental_uris":{"android":"levelo://app?vid=8f88fef0-de12-494e-930f-00f0a9aebea1","ios":"levelo://app?vid=8f88fef0-de12-494e-930f-00f0a9aebea1"},"vehicle_type_id":"4","last_reported":1721678912,"current_range_meters":9600,"station_id":"ce4bgkh2rcd13ifvqbk0","pricing_plan_id":"cebpf4jnsgd1na2vs0mg"},{"bike_id":"e73e4940-4e8d-4b81-a0c9-d8406dc6b924","system_id":"levelo_inurba_marseille","lat":43.2936,"lon":5.37835,"is_reserved":false,"is_disabled":false,"rental_uris":{"android":"levelo://app?vid=e73e4940-4e8d-4b81-a0c9-d8406dc6b924","ios":"levelo://app?vid=e73e4940-4e8d-4b81-a0c9-d8406dc6b924"},"vehicle_type_id":"4","last_reported":1721678912,"current_range_meters":6800,"station_id":"ce4bgjh2rcd13ifvqbf0","pricing_plan_id":"cebpf4jnsgd1na2vs0mg"},{"bike_id":"afa79b65-8e23-47cb-aa1c-6e9e0cd24bad","system_id":"levelo_inurba_marseille","lat":43.2936,"lon":5.37835,"is_reserved":false,"is_disabled":false,"rental_uris":{"android":"levelo://app?vid=afa79b65-8e23-47cb-aa1c-6e9e0cd24bad","ios":"levelo://app?vid=afa79b65-8e23-47cb-aa1c-6e9e0cd24bad"},"vehicle_type_id":"4","last_reported":1721678912,"current_range_meters":0,"station_id":"ce4bgjh2rcd13ifvqbf0","pricing_plan_id":"cebpf4jnsgd1na2vs0mg"},{"bike_id":"ae75bbb9-20ef-4429-86cc-02758159f787","system_id":"levelo_inurba_marseille","lat":43.2936,"lon":5.37835,"is_reserved":false,"is_disabled":false,"rental_uris":{"android":"levelo://app?vid=ae75bbb9-20ef-4429-86cc-02758159f787","ios":"levelo://app?vid=ae75bbb9-20ef-4429-86cc-02758159f787"},"vehicle_type_id":"4","last_reported":1721678912,"current_range_meters":0,"station_id":"ce4bgjh2rcd13ifvqbf0","pricing_plan_id":"cebpf4jnsgd1na2vs0mg"},{"bike_id":"384af0e3-d9de-4573-b3e3-fe4c80a8fd69","system_id":"levelo_inurba_marseille","lat":43.30085,"lon":5.390856,"is_reserved":false,"is_disabled":false,"rental_uris":{"android":"levelo://app?vid=384af0e3-d9de-4573-b3e3-fe4c80a8fd69","ios":"levelo://app?vid=384af0e3-d9de-4573-b3e3-fe4c80a8fd69"},"vehicle_type_id":"4","last_reported":1721678912,"current_range_meters":4800,"station_id":"ce4bh192rcd13ifvqdb0","pricing_plan_id":"cebpf4jnsgd1na2vs0mg"},{"bike_id":"85ede341-f902-4cf4-85f9-c00a94da1096","system_id":"levelo_inurba_marseille","lat":43.30085,"lon":5.390856,"is_reserved":false,"is_disabled":false,"rental_uris":{"android":"levelo://app?vid=85ede341-f902-4cf4-85f9-c00a94da1096","ios":"levelo://app?vid=85ede341-f902-4cf4-85f9-c00a94da1096"},"vehicle_type_id":"4","last_reported":1721678912,"current_range_meters":0,"station_id":"ce4bh192rcd13ifvqdb0","pricing_plan_id":"cebpf4jnsgd1na2vs0mg"},{"bike_id":"a8ca09bb-fb55-4d58-a9df-2c0f7077fa40","system_id":"levelo_inurba_marseille","lat":43.29208,"lon":5.360583,"is_reserved":false,"is_disabled":false,"rental_uris":{"android":"levelo://app?vid=a8ca09bb-fb55-4d58-a9df-2c0f7077fa40","ios":"levelo://app?vid=a8ca09bb-fb55-4d58-a9df-2c0f7077fa40"},"vehicle_type_id":"4","last_reported":1721678912,"current_range_meters":0,"station_id":"ce4bhbh2rcd13ifvqeqg","pricing_plan_id":"cebpf4jnsgd1na2vs0mg"},{"bike_id":"97c1d1b1-aa29-48e7-93ab-296fc0869d8f","system_id":"levelo_inurba_marseille","lat":43.298764,"lon":5.388973,"is_reserved":false,"is_disabled":false,"rental_uris":{"android":"levelo://app?vid=97c1d1b1-aa29-48e7-93ab-296fc0869d8f","ios":"levelo://app?vid=97c1d1b1-aa29-48e7-93ab-296fc0869d8f"},"vehicle_type_id":"4","last_reported":1721678912,"current_range_meters":10000,"station_id":"ce4bh392rcd13ifvqdl0","pricing_plan_id":"cebpf4jnsgd1na2vs0mg"},{"bike_id":"e1ab175c-471c-4ab9-915d-a03855cce28f","system_id":"levelo_inurba_marseille","lat":43.298764,"lon":5.388973,"is_reserved":false,"is_disabled":false,"rental_uris":{"android":"levelo://app?vid=e1ab175c-471c-4ab9-915d-a03855cce28f","ios":"levelo://app?vid=e1ab175c-471c-4ab9-915d-a03855cce28f"},"vehicle_type_id":"4","last_reported":1721678912,"current_range_meters":31600,"station_id":"ce4bh392rcd13ifvqdl0","pricing_plan_id":"cebpf4jnsgd1na2vs0mg"},{"bike_id":"0fb22273-99d0-478a-90fb-098afd4ebe1d","system_id":"levelo_inurba_marseille","lat":43.298764,"lon":5.388973,"is_reserved":false,"is_disabled":false,"rental_uris":{"android":"levelo://app?vid=0fb22273-99d0-478a-90fb-098afd4ebe1d","ios":"levelo://app?vid=0fb22273-99d0-478a-90fb-098afd4ebe1d"},"vehicle_type_id":"4","last_reported":1721678912,"current_range_meters":8400,"station_id":"ce4bh392rcd13ifvqdl0","pricing_plan_id":"cebpf4jnsgd1na2vs0mg"},{"bike_id":"35b09b27-a23e-4eaf-9fab-9757eb69d639","system_id":"levelo_inurba_marseille","lat":43.298764,"lon":5.388973,"is_reserved":false,"is_disabled":false,"rental_uris":{"android":"levelo://app?vid=35b09b27-a23e-4eaf-9fab-9757eb69d639","ios":"levelo://app?vid=35b09b27-a23e-4eaf-9fab-9757eb69d639"},"vehicle_type_id":"4","last_reported":1721678912,"current_range_meters":9200,"station_id":"ce4bh392rcd13ifvqdl0","pricing_plan_id":"cebpf4jnsgd1na2vs0mg"},{"bike_id":"a87e156b-04c8-4501-867e-3a5379c39b2c","system_id":"levelo_inurba_marseille","lat":43.298764,"lon":5.388973,"is_reserved":false,"is_disabled":false,"rental_uris":{"android":"levelo://app?vid=a87e156b-04c8-4501-867e-3a5379c39b2c","ios":"levelo://app?vid=a87e156b-04c8-4501-867e-3a5379c39b2c"},"vehicle_type_id":"4","last_reported":1721678912,"current_range_meters":30400,"station_id":"ce4bh392rcd13ifvqdl0","pricing_plan_id":"cebpf4jnsgd1na2vs0mg"},{"bike_id":"2fef63b7-c790-4f2f-85a2-118bb2517be1","system_id":"levelo_inurba_marseille","lat":43.291273,"lon":5.369649,"is_reserved":false,"is_disabled":false,"rental_uris":{"android":"levelo://app?vid=2fef63b7-c790-4f2f-85a2-118bb2517be1","ios":"levelo://app?vid=2fef63b7-c790-4f2f-85a2-118bb2517be1"},"vehicle_type_id":"4","last_reported":1721678912,"current_range_meters":0,"station_id":"","pricing_plan_id":"cebpf4jnsgd1na2vs0mg"},{"bike_id":"da061ab9-bbbd-44af-8152-c8c41c9a4b77","system_id":"levelo_inurba_marseille","lat":43.313291,"lon":5.396838,"is_reserved":false,"is_disabled":false,"rental_uris":{"android":"levelo://app?vid=da061ab9-bbbd-44af-8152-c8c41c9a4b77","ios":"levelo://app?vid=da061ab9-bbbd-44af-8152-c8c41c9a4b77"},"vehicle_type_id":"4","last_reported":1721678912,"current_range_meters":6800,"station_id":"ce4bgvp2rcd13ifvqcu0","pricing_plan_id":"cebpf4jnsgd1na2vs0mg"},{"bike_id":"8261e9c7-b971-4309-a869-a661b926f21b","system_id":"levelo_inurba_marseille","lat":43.313291,"lon":5.396838,"is_reserved":false,"is_disabled":false,"rental_uris":{"android":"levelo://app?vid=8261e9c7-b971-4309-a869-a661b926f21b","ios":"levelo://app?vid=8261e9c7-b971-4309-a869-a661b926f21b"},"vehicle_type_id":"4","last_reported":1721678912,"current_range_meters":23200,"station_id":"ce4bgvp2rcd13ifvqcu0","pricing_plan_id":"cebpf4jnsgd1na2vs0mg"},{"bike_id":"7486ddff-cebd-47e0-812b-98eb68f05d17","system_id":"levelo_inurba_marseille","lat":43.313291,"lon":5.396838,"is_reserved":false,"is_disabled":false,"rental_uris":{"android":"levelo://app?vid=7486ddff-cebd-47e0-812b-98eb68f05d17","ios":"levelo://app?vid=7486ddff-cebd-47e0-812b-98eb68f05d17"},"vehicle_type_id":"4","last_reported":1721678912,"current_range_meters":7200,"station_id":"ce4bgvp2rcd13ifvqcu0","pricing_plan_id":"cebpf4jnsgd1na2vs0mg"},{"bike_id":"e8160f1a-b438-457e-a47f-404bf016a438","system_id":"levelo_inurba_marseille","lat":43.313291,"lon":5.396838,"is_reserved":false,"is_disabled":false,"rental_uris":{"android":"levelo://app?vid=e8160f1a-b438-457e-a47f-404bf016a438","ios":"levelo://app?vid=e8160f1a-b438-457e-a47f-404bf016a438"},"vehicle_type_id":"4","last_reported":1721678912,"current_range_meters":25600,"station_id":"ce4bgvp2rcd13ifvqcu0","pricing_plan_id":"cebpf4jnsgd1na2vs0mg"},{"bike_id":"b86eb106-da4d-49ae-bea7-0b6f5d139e31","system_id":"levelo_inurba_marseille","lat":43.309047,"lon":5.396551,"is_reserved":false,"is_disabled":false,"rental_uris":{"android":"levelo://app?vid=b86eb106-da4d-49ae-bea7-0b6f5d139e31","ios":"levelo://app?vid=b86eb106-da4d-49ae-bea7-0b6f5d139e31"},"vehicle_type_id":"4","last_reported":1721678912,"current_range_meters":31200,"station_id":"ce4bh012rcd13ifvqcv0","pricing_plan_id":"cebpf4jnsgd1na2vs0mg"},{"bike_id":"47618125-eadd-4c46-abcd-11e66150e763","system_id":"levelo_inurba_marseille","lat":43.3089,"lon":5.39658,"is_reserved":false,"is_disabled":false,"rental_uris":{"android":"levelo://app?vid=47618125-eadd-4c46-abcd-11e66150e763","ios":"levelo://app?vid=47618125-eadd-4c46-abcd-11e66150e763"},"vehicle_type_id":"4","last_reported":1721678912,"current_range_meters":1600,"station_id":"ce4bh012rcd13ifvqcv0","pricing_plan_id":"cebpf4jnsgd1na2vs0mg"},{"bike_id":"5812ca78-cd67-4495-954e-d40660d6e4ca","system_id":"levelo_inurba_marseille","lat":43.309038,"lon":5.396546,"is_reserved":false,"is_disabled":false,"rental_uris":{"android":"levelo://app?vid=5812ca78-cd67-4495-954e-d40660d6e4ca","ios":"levelo://app?vid=5812ca78-cd67-4495-954e-d40660d6e4ca"},"vehicle_type_id":"4","last_reported":1721678912,"current_range_meters":6000,"station_id":"ce4bh012rcd13ifvqcv0","pricing_plan_id":"cebpf4jnsgd1na2vs0mg"},{"bike_id":"dc77515d-a9c9-404f-87bc-27bd93bed2bf","system_id":"levelo_inurba_marseille","lat":43.309038,"lon":5.396546,"is_reserved":false,"is_disabled":false,"rental_uris":{"android":"levelo://app?vid=dc77515d-a9c9-404f-87bc-27bd93bed2bf","ios":"levelo://app?vid=dc77515d-a9c9-404f-87bc-27bd93bed2bf"},"vehicle_type_id":"4","last_reported":1721678912,"current_range_meters":0,"station_id":"ce4bh012rcd13ifvqcv0","pricing_plan_id":"cebpf4jnsgd1na2vs0mg"},{"bike_id":"d9f90db7-2fe1-4381-9b8f-146f99f10327","system_id":"levelo_inurba_marseille","lat":43.309038,"lon":5.396546,"is_reserved":false,"is_disabled":false,"rental_uris":{"android":"levelo://app?vid=d9f90db7-2fe1-4381-9b8f-146f99f10327","ios":"levelo://app?vid=d9f90db7-2fe1-4381-9b8f-146f99f10327"},"vehicle_type_id":"4","last_reported":1721678912,"current_range_meters":4400,"station_id":"ce4bh012rcd13ifvqcv0","pricing_plan_id":"cebpf4jnsgd1na2vs0mg"},{"bike_id":"d2df4d73-9ebd-4196-afc1-5d6bdf5a2773","system_id":"levelo_inurba_marseille","lat":43.29529,"lon":5.385581,"is_reserved":false,"is_disabled":false,"rental_uris":{"android":"levelo://app?vid=d2df4d73-9ebd-4196-afc1-5d6bdf5a2773","ios":"levelo://app?vid=d2df4d73-9ebd-4196-afc1-5d6bdf5a2773"},"vehicle_type_id":"4","last_reported":1721678912,"current_range_meters":21600,"station_id":"ce4bgih2rcd13ifvqba0","pricing_plan_id":"cebpf4jnsgd1na2vs0mg"},{"bike_id":"ea289bec-30d2-410b-82fe-1881850ae02f","system_id":"levelo_inurba_marseille","lat":43.290779,"lon":5.371482,"is_reserved":false,"is_disabled":false,"rental_uris":{"android":"levelo://app?vid=ea289bec-30d2-410b-82fe-1881850ae02f","ios":"levelo://app?vid=ea289bec-30d2-410b-82fe-1881850ae02f"},"vehicle_type_id":"4","last_reported":1721678912,"current_range_meters":18000,"station_id":"ce4bh5p2rcd13ifvqe4g","pricing_plan_id":"cebpf4jnsgd1na2vs0mg"},{"bike_id":"a535a8b7-1e1e-40e6-868a-6f2ebf54f76c","system_id":"levelo_inurba_marseille","lat":43.29052,"lon":5.37075,"is_reserved":false,"is_disabled":false,"rental_uris":{"android":"levelo://app?vid=a535a8b7-1e1e-40e6-868a-6f2ebf54f76c","ios":"levelo://app?vid=a535a8b7-1e1e-40e6-868a-6f2ebf54f76c"},"vehicle_type_id":"4","last_reported":1721678912,"current_range_meters":5600,"station_id":"","pricing_plan_id":"cebpf4jnsgd1na2vs0mg"},{"bike_id":"bba99e41-497e-4b12-9a85-f27871cb7247","system_id":"levelo_inurba_marseille","lat":43.302008,"lon":5.394694,"is_reserved":false,"is_disabled":false,"rental_uris":{"android":"levelo://app?vid=bba99e41-497e-4b12-9a85-f27871cb7247","ios":"levelo://app?vid=bba99e41-497e-4b12-9a85-f27871cb7247"},"vehicle_type_id":"4","last_reported":1721678912,"current_range_meters":18400,"station_id":"ce4bh0p2rcd13ifvqd70","pricing_plan_id":"cebpf4jnsgd1na2vs0mg"},{"bike_id":"2289e7a9-0e4f-4815-83eb-d52f44ff9145","system_id":"levelo_inurba_marseille","lat":43.302008,"lon":5.394694,"is_reserved":false,"is_disabled":false,"rental_uris":{"android":"levelo://app?vid=2289e7a9-0e4f-4815-83eb-d52f44ff9145","ios":"levelo://app?vid=2289e7a9-0e4f-4815-83eb-d52f44ff9145"},"vehicle_type_id":"4","last_reported":1721678912,"current_range_meters":25600,"station_id":"ce4bh0p2rcd13ifvqd70","pricing_plan_id":"cebpf4jnsgd1na2vs0mg"},{"bike_id":"19f392d8-9f50-483e-8be7-7ab8177b51a4","system_id":"levelo_inurba_marseille","lat":43.302008,"lon":5.394694,"is_reserved":false,"is_disabled":false,"rental_uris":{"android":"levelo://app?vid=19f392d8-9f50-483e-8be7-7ab8177b51a4","ios":"levelo://app?vid=19f392d8-9f50-483e-8be7-7ab8177b51a4"},"vehicle_type_id":"4","last_reported":1721678912,"current_range_meters":28400,"station_id":"ce4bh0p2rcd13ifvqd70","pricing_plan_id":"cebpf4jnsgd1na2vs0mg"},{"bike_id":"3efdc6e1-4283-4cad-9562-5333cca148f5","system_id":"levelo_inurba_marseille","lat":43.302008,"lon":5.394694,"is_reserved":false,"is_disabled":false,"rental_uris":{"android":"levelo://app?vid=3efdc6e1-4283-4cad-9562-5333cca148f5","ios":"levelo://app?vid=3efdc6e1-4283-4cad-9562-5333cca148f5"},"vehicle_type_id":"4","last_reported":1721678912,"current_range_meters":4800,"station_id":"ce4bh0p2rcd13ifvqd70","pricing_plan_id":"cebpf4jnsgd1na2vs0mg"},{"bike_id":"8be30041-c5df-4d95-84ac-36d973e3e368","system_id":"levelo_inurba_marseille","lat":43.289542,"lon":5.364632,"is_reserved":false,"is_disabled":false,"rental_uris":{"android":"levelo://app?vid=8be30041-c5df-4d95-84ac-36d973e3e368","ios":"levelo://app?vid=8be30041-c5df-4d95-84ac-36d973e3e368"},"vehicle_type_id":"4","last_reported":1721678912,"current_range_meters":2800,"station_id":"","pricing_plan_id":"cebpf4jnsgd1na2vs0mg"},{"bike_id":"9cbd9acd-c13c-49f1-a6ee-f0966d356841","system_id":"levelo_inurba_marseille","lat":43.294153,"lon":5.386305,"is_reserved":false,"is_disabled":false,"rental_uris":{"android":"levelo://app?vid=9cbd9acd-c13c-49f1-a6ee-f0966d356841","ios":"levelo://app?vid=9cbd9acd-c13c-49f1-a6ee-f0966d356841"},"vehicle_type_id":"4","last_reported":1721678912,"current_range_meters":25600,"station_id":"ce4bh2h2rcd13ifvqdh0","pricing_plan_id":"cebpf4jnsgd1na2vs0mg"},{"bike_id":"d3bd471e-78aa-4230-b960-38af1719b411","system_id":"levelo_inurba_marseille","lat":43.294153,"lon":5.386305,"is_reserved":false,"is_disabled":false,"rental_uris":{"android":"levelo://app?vid=d3bd471e-78aa-4230-b960-38af1719b411","ios":"levelo://app?vid=d3bd471e-78aa-4230-b960-38af1719b411"},"vehicle_type_id":"4","last_reported":1721678912,"current_range_meters":21200,"station_id":"ce4bh2h2rcd13ifvqdh0","pricing_plan_id":"cebpf4jnsgd1na2vs0mg"},{"bike_id":"aad992e7-c988-4238-9276-7c8aef669939","system_id":"levelo_inurba_marseille","lat":43.294162,"lon":5.386292,"is_reserved":false,"is_disabled":false,"rental_uris":{"android":"levelo://app?vid=aad992e7-c988-4238-9276-7c8aef669939","ios":"levelo://app?vid=aad992e7-c988-4238-9276-7c8aef669939"},"vehicle_type_id":"4","last_reported":1721678912,"current_range_meters":2000,"station_id":"ce4bh2h2rcd13ifvqdh0","pricing_plan_id":"cebpf4jnsgd1na2vs0mg"},{"bike_id":"648b5bfa-ed72-4e76-b41f-d2a08464a27c","system_id":"levelo_inurba_marseille","lat":43.294162,"lon":5.386292,"is_reserved":false,"is_disabled":false,"rental_uris":{"android":"levelo://app?vid=648b5bfa-ed72-4e76-b41f-d2a08464a27c","ios":"levelo://app?vid=648b5bfa-ed72-4e76-b41f-d2a08464a27c"},"vehicle_type_id":"4","last_reported":1721678912,"current_range_meters":12800,"station_id":"ce4bh2h2rcd13ifvqdh0","pricing_plan_id":"cebpf4jnsgd1na2vs0mg"},{"bike_id":"0fec7101-9434-43da-98fb-44e6cbbd4039","system_id":"levelo_inurba_marseille","lat":43.29417,"lon":5.38623,"is_reserved":false,"is_disabled":false,"rental_uris":{"android":"levelo://app?vid=0fec7101-9434-43da-98fb-44e6cbbd4039","ios":"levelo://app?vid=0fec7101-9434-43da-98fb-44e6cbbd4039"},"vehicle_type_id":"4","last_reported":1721678912,"current_range_meters":0,"station_id":"ce4bh2h2rcd13ifvqdh0","pricing_plan_id":"cebpf4jnsgd1na2vs0mg"},{"bike_id":"b3e2d307-895c-4cab-8b7d-58aae9d564e7","system_id":"levelo_inurba_marseille","lat":43.29418,"lon":5.38628,"is_reserved":false,"is_disabled":false,"rental_uris":{"android":"levelo://app?vid=b3e2d307-895c-4cab-8b7d-58aae9d564e7","ios":"levelo://app?vid=b3e2d307-895c-4cab-8b7d-58aae9d564e7"},"vehicle_type_id":"4","last_reported":1721678912,"current_range_meters":400,"station_id":"ce4bh2h2rcd13ifvqdh0","pricing_plan_id":"cebpf4jnsgd1na2vs0mg"},{"bike_id":"b43e7e4c-9857-4774-941a-6c7a38899ba2","system_id":"levelo_inurba_marseille","lat":43.29416,"lon":5.38628,"is_reserved":false,"is_disabled":false,"rental_uris":{"android":"levelo://app?vid=b43e7e4c-9857-4774-941a-6c7a38899ba2","ios":"levelo://app?vid=b43e7e4c-9857-4774-941a-6c7a38899ba2"},"vehicle_type_id":"4","last_reported":1721678912,"current_range_meters":0,"station_id":"ce4bh2h2rcd13ifvqdh0","pricing_plan_id":"cebpf4jnsgd1na2vs0mg"},{"bike_id":"676c15c3-8629-4926-8def-6b18870d247c","system_id":"levelo_inurba_marseille","lat":43.29416,"lon":5.38629,"is_reserved":false,"is_disabled":false,"rental_uris":{"android":"levelo://app?vid=676c15c3-8629-4926-8def-6b18870d247c","ios":"levelo://app?vid=676c15c3-8629-4926-8def-6b18870d247c"},"vehicle_type_id":"4","last_reported":1721678912,"current_range_meters":8400,"station_id":"ce4bh2h2rcd13ifvqdh0","pricing_plan_id":"cebpf4jnsgd1na2vs0mg"},{"bike_id":"5729d339-ddf2-4fc5-b6b6-cae858cb1a0c","system_id":"levelo_inurba_marseille","lat":43.281044,"lon":5.378308,"is_reserved":false,"is_disabled":false,"rental_uris":{"android":"levelo://app?vid=5729d339-ddf2-4fc5-b6b6-cae858cb1a0c","ios":"levelo://app?vid=5729d339-ddf2-4fc5-b6b6-cae858cb1a0c"},"vehicle_type_id":"4","last_reported":1721678912,"current_range_meters":7600,"station_id":"ce4bha12rcd13ifvqee0","pricing_plan_id":"cebpf4jnsgd1na2vs0mg"},{"bike_id":"12a32e59-72e5-49aa-9ab6-5cfa8e784cd7","system_id":"levelo_inurba_marseille","lat":43.289184,"lon":5.366408,"is_reserved":false,"is_disabled":false,"rental_uris":{"android":"levelo://app?vid=12a32e59-72e5-49aa-9ab6-5cfa8e784cd7","ios":"levelo://app?vid=12a32e59-72e5-49aa-9ab6-5cfa8e784cd7"},"vehicle_type_id":"4","last_reported":1721678912,"current_range_meters":0,"station_id":"ce4bhap2rcd13ifvqek0","pricing_plan_id":"cebpf4jnsgd1na2vs0mg"},{"bike_id":"72d574d1-5942-46f9-894a-2c8e4a99fee2","system_id":"levelo_inurba_marseille","lat":43.289396,"lon":5.36398,"is_reserved":false,"is_disabled":false,"rental_uris":{"android":"levelo://app?vid=72d574d1-5942-46f9-894a-2c8e4a99fee2","ios":"levelo://app?vid=72d574d1-5942-46f9-894a-2c8e4a99fee2"},"vehicle_type_id":"4","last_reported":1721678912,"current_range_meters":0,"station_id":"ce4bhc92rcd13ifvqetg","pricing_plan_id":"cebpf4jnsgd1na2vs0mg"},{"bike_id":"4b9680b8-f65d-4eb4-a9bc-f4901d35f242","system_id":"levelo_inurba_marseille","lat":43.28926,"lon":5.36397,"is_reserved":false,"is_disabled":false,"rental_uris":{"android":"levelo://app?vid=4b9680b8-f65d-4eb4-a9bc-f4901d35f242","ios":"levelo://app?vid=4b9680b8-f65d-4eb4-a9bc-f4901d35f242"},"vehicle_type_id":"4","last_reported":1721678912,"current_range_meters":0,"station_id":"ce4bhc92rcd13ifvqetg","pricing_plan_id":"cebpf4jnsgd1na2vs0mg"},{"bike_id":"9bdb40db-a77d-4fbb-bc48-8e0854153262","system_id":"levelo_inurba_marseille","lat":43.292644,"lon":5.384257,"is_reserved":false,"is_disabled":false,"rental_uris":{"android":"levelo://app?vid=9bdb40db-a77d-4fbb-bc48-8e0854153262","ios":"levelo://app?vid=9bdb40db-a77d-4fbb-bc48-8e0854153262"},"vehicle_type_id":"4","last_reported":1721678912,"current_range_meters":5200,"station_id":"ce4bh692rcd13ifvqea0","pricing_plan_id":"cebpf4jnsgd1na2vs0mg"},{"bike_id":"2f0ec1c4-8e96-4437-84fe-64b43da26ae5","system_id":"levelo_inurba_marseille","lat":43.292642,"lon":5.384254,"is_reserved":false,"is_disabled":false,"rental_uris":{"android":"levelo://app?vid=2f0ec1c4-8e96-4437-84fe-64b43da26ae5","ios":"levelo://app?vid=2f0ec1c4-8e96-4437-84fe-64b43da26ae5"},"vehicle_type_id":"4","last_reported":1721678912,"current_range_meters":6000,"station_id":"ce4bh692rcd13ifvqea0","pricing_plan_id":"cebpf4jnsgd1na2vs0mg"},{"bike_id":"6388afe7-ca1f-4cf6-a5a9-7db61ce9d8ab","system_id":"levelo_inurba_marseille","lat":43.304274,"lon":5.397513,"is_reserved":false,"is_disabled":false,"rental_uris":{"android":"levelo://app?vid=6388afe7-ca1f-4cf6-a5a9-7db61ce9d8ab","ios":"levelo://app?vid=6388afe7-ca1f-4cf6-a5a9-7db61ce9d8ab"},"vehicle_type_id":"4","last_reported":1721678912,"current_range_meters":2000,"station_id":"ce4bh092rcd13ifvqd20","pricing_plan_id":"cebpf4jnsgd1na2vs0mg"},{"bike_id":"ca92929c-74fe-4b2d-9a96-55acfb87fbb7","system_id":"levelo_inurba_marseille","lat":43.29263,"lon":5.38445,"is_reserved":false,"is_disabled":false,"rental_uris":{"android":"levelo://app?vid=ca92929c-74fe-4b2d-9a96-55acfb87fbb7","ios":"levelo://app?vid=ca92929c-74fe-4b2d-9a96-55acfb87fbb7"},"vehicle_type_id":"4","last_reported":1721678912,"current_range_meters":0,"station_id":"ce4bh692rcd13ifvqea0","pricing_plan_id":"cebpf4jnsgd1na2vs0mg"},{"bike_id":"a646de47-c616-4642-a3da-e32ba6166496","system_id":"levelo_inurba_marseille","lat":43.304296,"lon":5.397513,"is_reserved":false,"is_disabled":false,"rental_uris":{"android":"levelo://app?vid=a646de47-c616-4642-a3da-e32ba6166496","ios":"levelo://app?vid=a646de47-c616-4642-a3da-e32ba6166496"},"vehicle_type_id":"4","last_reported":1721678912,"current_range_meters":8800,"station_id":"ce4bh092rcd13ifvqd20","pricing_plan_id":"cebpf4jnsgd1na2vs0mg"},{"bike_id":"ae1612f5-128a-4b10-a5ee-7ddcfb71d1de","system_id":"levelo_inurba_marseille","lat":43.29265,"lon":5.38453,"is_reserved":false,"is_disabled":false,"rental_uris":{"android":"levelo://app?vid=ae1612f5-128a-4b10-a5ee-7ddcfb71d1de","ios":"levelo://app?vid=ae1612f5-128a-4b10-a5ee-7ddcfb71d1de"},"vehicle_type_id":"4","last_reported":1721678912,"current_range_meters":0,"station_id":"ce4bh692rcd13ifvqea0","pricing_plan_id":"cebpf4jnsgd1na2vs0mg"},{"bike_id":"39570ada-380b-4de6-998d-cb45ff584c34","system_id":"levelo_inurba_marseille","lat":43.29259,"lon":5.38448,"is_reserved":false,"is_disabled":false,"rental_uris":{"android":"levelo://app?vid=39570ada-380b-4de6-998d-cb45ff584c34","ios":"levelo://app?vid=39570ada-380b-4de6-998d-cb45ff584c34"},"vehicle_type_id":"4","last_reported":1721678912,"current_range_meters":0,"station_id":"ce4bh692rcd13ifvqea0","pricing_plan_id":"cebpf4jnsgd1na2vs0mg"},{"bike_id":"fd74e4ae-b52b-4241-b34e-59c3799a3a99","system_id":"levelo_inurba_marseille","lat":43.2926,"lon":5.38456,"is_reserved":false,"is_disabled":false,"rental_uris":{"android":"levelo://app?vid=fd74e4ae-b52b-4241-b34e-59c3799a3a99","ios":"levelo://app?vid=fd74e4ae-b52b-4241-b34e-59c3799a3a99"},"vehicle_type_id":"4","last_reported":1721678912,"current_range_meters":0,"station_id":"ce4bh692rcd13ifvqea0","pricing_plan_id":"cebpf4jnsgd1na2vs0mg"},{"bike_id":"e7635a15-7f31-45c4-8110-685549f44184","system_id":"levelo_inurba_marseille","lat":43.304274,"lon":5.397513,"is_reserved":false,"is_disabled":false,"rental_uris":{"android":"levelo://app?vid=e7635a15-7f31-45c4-8110-685549f44184","ios":"levelo://app?vid=e7635a15-7f31-45c4-8110-685549f44184"},"vehicle_type_id":"4","last_reported":1721678912,"current_range_meters":10800,"station_id":"ce4bh092rcd13ifvqd20","pricing_plan_id":"cebpf4jnsgd1na2vs0mg"},{"bike_id":"d90c0480-0a35-4d90-8f7e-88e304f9e2d5","system_id":"levelo_inurba_marseille","lat":43.290995,"lon":5.381361,"is_reserved":false,"is_disabled":false,"rental_uris":{"android":"levelo://app?vid=d90c0480-0a35-4d90-8f7e-88e304f9e2d5","ios":"levelo://app?vid=d90c0480-0a35-4d90-8f7e-88e304f9e2d5"},"vehicle_type_id":"4","last_reported":1721678912,"current_range_meters":12800,"station_id":"ce4bh512rcd13ifvqe2g","pricing_plan_id":"cebpf4jnsgd1na2vs0mg"},{"bike_id":"88803c32-4e78-4ece-afb5-52d1c043ea11","system_id":"levelo_inurba_marseille","lat":43.295169,"lon":5.390426,"is_reserved":false,"is_disabled":false,"rental_uris":{"android":"levelo://app?vid=88803c32-4e78-4ece-afb5-52d1c043ea11","ios":"levelo://app?vid=88803c32-4e78-4ece-afb5-52d1c043ea11"},"vehicle_type_id":"4","last_reported":1721678912,"current_range_meters":24800,"station_id":"ce4bh3p2rcd13ifvqdp0","pricing_plan_id":"cebpf4jnsgd1na2vs0mg"},{"bike_id":"0d5fb5e9-47f9-45bd-bbd6-ee78224f252f","system_id":"levelo_inurba_marseille","lat":43.297807,"lon":5.393533,"is_reserved":false,"is_disabled":false,"rental_uris":{"android":"levelo://app?vid=0d5fb5e9-47f9-45bd-bbd6-ee78224f252f","ios":"levelo://app?vid=0d5fb5e9-47f9-45bd-bbd6-ee78224f252f"},"vehicle_type_id":"4","last_reported":1721678912,"current_range_meters":14800,"station_id":"chh1huq6cuj3fo74tm60","pricing_plan_id":"cebpf4jnsgd1na2vs0mg"},{"bike_id":"3b28b090-f03e-4d97-b70e-fb7575b4bdf7","system_id":"levelo_inurba_marseille","lat":43.297807,"lon":5.393533,"is_reserved":false,"is_disabled":false,"rental_uris":{"android":"levelo://app?vid=3b28b090-f03e-4d97-b70e-fb7575b4bdf7","ios":"levelo://app?vid=3b28b090-f03e-4d97-b70e-fb7575b4bdf7"},"vehicle_type_id":"4","last_reported":1721678912,"current_range_meters":10800,"station_id":"chh1huq6cuj3fo74tm60","pricing_plan_id":"cebpf4jnsgd1na2vs0mg"},{"bike_id":"e0f9995e-cc8b-47fb-a0c3-dfa4109bf2c1","system_id":"levelo_inurba_marseille","lat":43.297807,"lon":5.393533,"is_reserved":false,"is_disabled":false,"rental_uris":{"android":"levelo://app?vid=e0f9995e-cc8b-47fb-a0c3-dfa4109bf2c1","ios":"levelo://app?vid=e0f9995e-cc8b-47fb-a0c3-dfa4109bf2c1"},"vehicle_type_id":"4","last_reported":1721678912,"current_range_meters":7600,"station_id":"chh1huq6cuj3fo74tm60","pricing_plan_id":"cebpf4jnsgd1na2vs0mg"},{"bike_id":"8df92a65-6437-43c5-95ba-6e8af2a9d1c8","system_id":"levelo_inurba_marseille","lat":43.295169,"lon":5.390426,"is_reserved":false,"is_disabled":false,"rental_uris":{"android":"levelo://app?vid=8df92a65-6437-43c5-95ba-6e8af2a9d1c8","ios":"levelo://app?vid=8df92a65-6437-43c5-95ba-6e8af2a9d1c8"},"vehicle_type_id":"4","last_reported":1721678912,"current_range_meters":1200,"station_id":"ce4bh3p2rcd13ifvqdp0","pricing_plan_id":"cebpf4jnsgd1na2vs0mg"},{"bike_id":"e3a94db4-0088-4c6c-b921-9c7de04efd17","system_id":"levelo_inurba_marseille","lat":43.33017,"lon":5.39043,"is_reserved":false,"is_disabled":false,"rental_uris":{"android":"levelo://app?vid=e3a94db4-0088-4c6c-b921-9c7de04efd17","ios":"levelo://app?vid=e3a94db4-0088-4c6c-b921-9c7de04efd17"},"vehicle_type_id":"4","last_reported":1721678912,"current_range_meters":26800,"station_id":"ce4bhr92rcd13ifvqhrg","pricing_plan_id":"cebpf4jnsgd1na2vs0mg"},{"bike_id":"da2d0891-ad41-4c29-b30e-5af5a34632c1","system_id":"levelo_inurba_marseille","lat":43.295169,"lon":5.390426,"is_reserved":false,"is_disabled":false,"rental_uris":{"android":"levelo://app?vid=da2d0891-ad41-4c29-b30e-5af5a34632c1","ios":"levelo://app?vid=da2d0891-ad41-4c29-b30e-5af5a34632c1"},"vehicle_type_id":"4","last_reported":1721678912,"current_range_meters":31200,"station_id":"ce4bh3p2rcd13ifvqdp0","pricing_plan_id":"cebpf4jnsgd1na2vs0mg"},{"bike_id":"c5953155-1648-41c1-bb06-ae8123b9d6c1","system_id":"levelo_inurba_marseille","lat":43.297815,"lon":5.393548,"is_reserved":false,"is_disabled":false,"rental_uris":{"android":"levelo://app?vid=c5953155-1648-41c1-bb06-ae8123b9d6c1","ios":"levelo://app?vid=c5953155-1648-41c1-bb06-ae8123b9d6c1"},"vehicle_type_id":"4","last_reported":1721678912,"current_range_meters":13200,"station_id":"chh1huq6cuj3fo74tm60","pricing_plan_id":"cebpf4jnsgd1na2vs0mg"},{"bike_id":"8cc2d4e0-65ce-437f-9026-a151232e7f3d","system_id":"levelo_inurba_marseille","lat":43.330442,"lon":5.389148,"is_reserved":false,"is_disabled":false,"rental_uris":{"android":"levelo://app?vid=8cc2d4e0-65ce-437f-9026-a151232e7f3d","ios":"levelo://app?vid=8cc2d4e0-65ce-437f-9026-a151232e7f3d"},"vehicle_type_id":"4","last_reported":1721678912,"current_range_meters":1600,"station_id":"ce4bhr92rcd13ifvqhrg","pricing_plan_id":"cebpf4jnsgd1na2vs0mg"},{"bike_id":"ec5cca4f-3ae5-447f-84cc-26471d319d58","system_id":"levelo_inurba_marseille","lat":43.295169,"lon":5.390426,"is_reserved":false,"is_disabled":false,"rental_uris":{"android":"levelo://app?vid=ec5cca4f-3ae5-447f-84cc-26471d319d58","ios":"levelo://app?vid=ec5cca4f-3ae5-447f-84cc-26471d319d58"},"vehicle_type_id":"4","last_reported":1721678912,"current_range_meters":31200,"station_id":"ce4bh3p2rcd13ifvqdp0","pricing_plan_id":"cebpf4jnsgd1na2vs0mg"},{"bike_id":"2ad690e5-bf65-494f-a58c-cb1b1162e5be","system_id":"levelo_inurba_marseille","lat":43.330442,"lon":5.389148,"is_reserved":false,"is_disabled":false,"rental_uris":{"android":"levelo://app?vid=2ad690e5-bf65-494f-a58c-cb1b1162e5be","ios":"levelo://app?vid=2ad690e5-bf65-494f-a58c-cb1b1162e5be"},"vehicle_type_id":"4","last_reported":1721678912,"current_range_meters":8800,"station_id":"ce4bhr92rcd13ifvqhrg","pricing_plan_id":"cebpf4jnsgd1na2vs0mg"},{"bike_id":"8e375e3b-e5d7-43a0-be2a-be83488bc42c","system_id":"levelo_inurba_marseille","lat":43.295169,"lon":5.390426,"is_reserved":false,"is_disabled":false,"rental_uris":{"android":"levelo://app?vid=8e375e3b-e5d7-43a0-be2a-be83488bc42c","ios":"levelo://app?vid=8e375e3b-e5d7-43a0-be2a-be83488bc42c"},"vehicle_type_id":"4","last_reported":1721678912,"current_range_meters":18400,"station_id":"ce4bh3p2rcd13ifvqdp0","pricing_plan_id":"cebpf4jnsgd1na2vs0mg"},{"bike_id":"9f05d5da-a394-4681-9001-0d91fad21df2","system_id":"levelo_inurba_marseille","lat":43.29028,"lon":5.38137,"is_reserved":false,"is_disabled":false,"rental_uris":{"android":"levelo://app?vid=9f05d5da-a394-4681-9001-0d91fad21df2","ios":"levelo://app?vid=9f05d5da-a394-4681-9001-0d91fad21df2"},"vehicle_type_id":"4","last_reported":1721678912,"current_range_meters":0,"station_id":"ce4bh4p2rcd13ifvqe1g","pricing_plan_id":"cebpf4jnsgd1na2vs0mg"},{"bike_id":"d7aef2ff-3702-49f1-aaeb-978ff4a629f7","system_id":"levelo_inurba_marseille","lat":43.28856,"lon":5.358371,"is_reserved":false,"is_disabled":false,"rental_uris":{"android":"levelo://app?vid=d7aef2ff-3702-49f1-aaeb-978ff4a629f7","ios":"levelo://app?vid=d7aef2ff-3702-49f1-aaeb-978ff4a629f7"},"vehicle_type_id":"4","last_reported":1721678912,"current_range_meters":22800,"station_id":"ce4bhb12rcd13ifvqem0","pricing_plan_id":"cebpf4jnsgd1na2vs0mg"},{"bike_id":"313f48c6-8bb6-41c4-b7a8-00dde150d04e","system_id":"levelo_inurba_marseille","lat":43.28852,"lon":5.35838,"is_reserved":false,"is_disabled":false,"rental_uris":{"android":"levelo://app?vid=313f48c6-8bb6-41c4-b7a8-00dde150d04e","ios":"levelo://app?vid=313f48c6-8bb6-41c4-b7a8-00dde150d04e"},"vehicle_type_id":"4","last_reported":1721678912,"current_range_meters":31200,"station_id":"ce4bhb12rcd13ifvqem0","pricing_plan_id":"cebpf4jnsgd1na2vs0mg"},{"bike_id":"d30176d3-57cf-4662-85ac-4d2def454fa4","system_id":"levelo_inurba_marseille","lat":43.337497,"lon":5.374523,"is_reserved":false,"is_disabled":false,"rental_uris":{"android":"levelo://app?vid=d30176d3-57cf-4662-85ac-4d2def454fa4","ios":"levelo://app?vid=d30176d3-57cf-4662-85ac-4d2def454fa4"},"vehicle_type_id":"4","last_reported":1721678912,"current_range_meters":26000,"station_id":"","pricing_plan_id":"cebpf4jnsgd1na2vs0mg"},{"bike_id":"5597d3ad-9e62-46fc-b8ff-1ca2163dbd74","system_id":"levelo_inurba_marseille","lat":43.33746,"lon":5.37481,"is_reserved":false,"is_disabled":false,"rental_uris":{"android":"levelo://app?vid=5597d3ad-9e62-46fc-b8ff-1ca2163dbd74","ios":"levelo://app?vid=5597d3ad-9e62-46fc-b8ff-1ca2163dbd74"},"vehicle_type_id":"4","last_reported":1721678912,"current_range_meters":20800,"station_id":"","pricing_plan_id":"cebpf4jnsgd1na2vs0mg"},{"bike_id":"4eaef2c7-71f5-4744-ab23-cf70bd4039ee","system_id":"levelo_inurba_marseille","lat":43.33754,"lon":5.37439,"is_reserved":false,"is_disabled":false,"rental_uris":{"android":"levelo://app?vid=4eaef2c7-71f5-4744-ab23-cf70bd4039ee","ios":"levelo://app?vid=4eaef2c7-71f5-4744-ab23-cf70bd4039ee"},"vehicle_type_id":"4","last_reported":1721678912,"current_range_meters":23600,"station_id":"","pricing_plan_id":"cebpf4jnsgd1na2vs0mg"},{"bike_id":"2fa75b7e-def1-4555-95f4-25083259dc68","system_id":"levelo_inurba_marseille","lat":43.33755,"lon":5.37437,"is_reserved":false,"is_disabled":false,"rental_uris":{"android":"levelo://app?vid=2fa75b7e-def1-4555-95f4-25083259dc68","ios":"levelo://app?vid=2fa75b7e-def1-4555-95f4-25083259dc68"},"vehicle_type_id":"4","last_reported":1721678912,"current_range_meters":20400,"station_id":"","pricing_plan_id":"cebpf4jnsgd1na2vs0mg"},{"bike_id":"192a866a-6f86-404d-812c-31129be9ed74","system_id":"levelo_inurba_marseille","lat":43.33755,"lon":5.37443,"is_reserved":false,"is_disabled":false,"rental_uris":{"android":"levelo://app?vid=192a866a-6f86-404d-812c-31129be9ed74","ios":"levelo://app?vid=192a866a-6f86-404d-812c-31129be9ed74"},"vehicle_type_id":"4","last_reported":1721678912,"current_range_meters":26800,"station_id":"","pricing_plan_id":"cebpf4jnsgd1na2vs0mg"},{"bike_id":"9f4f7a69-64d9-4e57-a016-472cdb89d3bd","system_id":"levelo_inurba_marseille","lat":43.3376,"lon":5.37438,"is_reserved":false,"is_disabled":false,"rental_uris":{"android":"levelo://app?vid=9f4f7a69-64d9-4e57-a016-472cdb89d3bd","ios":"levelo://app?vid=9f4f7a69-64d9-4e57-a016-472cdb89d3bd"},"vehicle_type_id":"4","last_reported":1721678912,"current_range_meters":20800,"station_id":"","pricing_plan_id":"cebpf4jnsgd1na2vs0mg"},{"bike_id":"8aad4b3a-5383-408e-ab3c-637816395348","system_id":"levelo_inurba_marseille","lat":43.3376,"lon":5.37458,"is_reserved":false,"is_disabled":false,"rental_uris":{"android":"levelo://app?vid=8aad4b3a-5383-408e-ab3c-637816395348","ios":"levelo://app?vid=8aad4b3a-5383-408e-ab3c-637816395348"},"vehicle_type_id":"4","last_reported":1721678912,"current_range_meters":19200,"station_id":"","pricing_plan_id":"cebpf4jnsgd1na2vs0mg"},{"bike_id":"729da992-572f-4e25-b807-f56a27b5dd22","system_id":"levelo_inurba_marseille","lat":43.33773,"lon":5.37447,"is_reserved":false,"is_disabled":false,"rental_uris":{"android":"levelo://app?vid=729da992-572f-4e25-b807-f56a27b5dd22","ios":"levelo://app?vid=729da992-572f-4e25-b807-f56a27b5dd22"},"vehicle_type_id":"4","last_reported":1721678912,"current_range_meters":15600,"station_id":"","pricing_plan_id":"cebpf4jnsgd1na2vs0mg"},{"bike_id":"eae39571-eec5-49eb-b39b-d2d64b44111c","system_id":"levelo_inurba_marseille","lat":43.30642,"lon":5.401031,"is_reserved":false,"is_disabled":false,"rental_uris":{"android":"levelo://app?vid=eae39571-eec5-49eb-b39b-d2d64b44111c","ios":"levelo://app?vid=eae39571-eec5-49eb-b39b-d2d64b44111c"},"vehicle_type_id":"4","last_reported":1721678912,"current_range_meters":9200,"station_id":"ce4bh112rcd13ifvqda0","pricing_plan_id":"cebpf4jnsgd1na2vs0mg"},{"bike_id":"45b31fc0-7b4a-4121-8db2-ad0e4e4d4860","system_id":"levelo_inurba_marseille","lat":43.30642,"lon":5.401031,"is_reserved":false,"is_disabled":false,"rental_uris":{"android":"levelo://app?vid=45b31fc0-7b4a-4121-8db2-ad0e4e4d4860","ios":"levelo://app?vid=45b31fc0-7b4a-4121-8db2-ad0e4e4d4860"},"vehicle_type_id":"4","last_reported":1721678912,"current_range_meters":4000,"station_id":"ce4bh112rcd13ifvqda0","pricing_plan_id":"cebpf4jnsgd1na2vs0mg"},{"bike_id":"ba4254a8-4c00-4ecd-842f-7c9be6bd62b4","system_id":"levelo_inurba_marseille","lat":43.306412,"lon":5.401035,"is_reserved":false,"is_disabled":false,"rental_uris":{"android":"levelo://app?vid=ba4254a8-4c00-4ecd-842f-7c9be6bd62b4","ios":"levelo://app?vid=ba4254a8-4c00-4ecd-842f-7c9be6bd62b4"},"vehicle_type_id":"4","last_reported":1721678912,"current_range_meters":27600,"station_id":"ce4bh112rcd13ifvqda0","pricing_plan_id":"cebpf4jnsgd1na2vs0mg"},{"bike_id":"f7f7470c-6928-49e0-bc93-b44960bce1ca","system_id":"levelo_inurba_marseille","lat":43.306412,"lon":5.401035,"is_reserved":false,"is_disabled":false,"rental_uris":{"android":"levelo://app?vid=f7f7470c-6928-49e0-bc93-b44960bce1ca","ios":"levelo://app?vid=f7f7470c-6928-49e0-bc93-b44960bce1ca"},"vehicle_type_id":"4","last_reported":1721678912,"current_range_meters":20000,"station_id":"ce4bh112rcd13ifvqda0","pricing_plan_id":"cebpf4jnsgd1na2vs0mg"},{"bike_id":"03b4205a-35a7-4455-a5ee-4ff808b38531","system_id":"levelo_inurba_marseille","lat":43.301117,"lon":5.398795,"is_reserved":false,"is_disabled":false,"rental_uris":{"android":"levelo://app?vid=03b4205a-35a7-4455-a5ee-4ff808b38531","ios":"levelo://app?vid=03b4205a-35a7-4455-a5ee-4ff808b38531"},"vehicle_type_id":"4","last_reported":1721678912,"current_range_meters":4800,"station_id":"ce4bh0h2rcd13ifvqd40","pricing_plan_id":"cebpf4jnsgd1na2vs0mg"},{"bike_id":"a83a67b4-33e1-42b3-977d-c8a4baf56d4f","system_id":"levelo_inurba_marseille","lat":43.301356,"lon":5.398601,"is_reserved":false,"is_disabled":false,"rental_uris":{"android":"levelo://app?vid=a83a67b4-33e1-42b3-977d-c8a4baf56d4f","ios":"levelo://app?vid=a83a67b4-33e1-42b3-977d-c8a4baf56d4f"},"vehicle_type_id":"4","last_reported":1721678912,"current_range_meters":16400,"station_id":"ce4bh0h2rcd13ifvqd40","pricing_plan_id":"cebpf4jnsgd1na2vs0mg"},{"bike_id":"69519997-e321-424c-b974-1c36b0bf0f37","system_id":"levelo_inurba_marseille","lat":43.286961,"lon":5.373785,"is_reserved":false,"is_disabled":false,"rental_uris":{"android":"levelo://app?vid=69519997-e321-424c-b974-1c36b0bf0f37","ios":"levelo://app?vid=69519997-e321-424c-b974-1c36b0bf0f37"},"vehicle_type_id":"4","last_reported":1721678912,"current_range_meters":12800,"station_id":"ce4bh3p2rcd13ifvqdq0","pricing_plan_id":"cebpf4jnsgd1na2vs0mg"},{"bike_id":"1210ff95-a0bd-49b3-ae5b-692a4d6f0cb8","system_id":"levelo_inurba_marseille","lat":43.298803,"lon":5.397343,"is_reserved":false,"is_disabled":false,"rental_uris":{"android":"levelo://app?vid=1210ff95-a0bd-49b3-ae5b-692a4d6f0cb8","ios":"levelo://app?vid=1210ff95-a0bd-49b3-ae5b-692a4d6f0cb8"},"vehicle_type_id":"4","last_reported":1721678912,"current_range_meters":22000,"station_id":"ce4bh0h2rcd13ifvqd50","pricing_plan_id":"cebpf4jnsgd1na2vs0mg"},{"bike_id":"337182af-e648-4240-a709-4cd8c7d1bd0b","system_id":"levelo_inurba_marseille","lat":43.298681,"lon":5.397225,"is_reserved":false,"is_disabled":false,"rental_uris":{"android":"levelo://app?vid=337182af-e648-4240-a709-4cd8c7d1bd0b","ios":"levelo://app?vid=337182af-e648-4240-a709-4cd8c7d1bd0b"},"vehicle_type_id":"4","last_reported":1721678912,"current_range_meters":26000,"station_id":"ce4bh0h2rcd13ifvqd50","pricing_plan_id":"cebpf4jnsgd1na2vs0mg"},{"bike_id":"7428ec09-1352-4d5a-9635-ba7cc19f53b8","system_id":"levelo_inurba_marseille","lat":43.286961,"lon":5.373785,"is_reserved":false,"is_disabled":false,"rental_uris":{"android":"levelo://app?vid=7428ec09-1352-4d5a-9635-ba7cc19f53b8","ios":"levelo://app?vid=7428ec09-1352-4d5a-9635-ba7cc19f53b8"},"vehicle_type_id":"4","last_reported":1721678912,"current_range_meters":0,"station_id":"ce4bh3p2rcd13ifvqdq0","pricing_plan_id":"cebpf4jnsgd1na2vs0mg"},{"bike_id":"84f8bc70-14ce-418c-bf94-387715f0432f","system_id":"levelo_inurba_marseille","lat":43.286593,"lon":5.363346,"is_reserved":false,"is_disabled":false,"rental_uris":{"android":"levelo://app?vid=84f8bc70-14ce-418c-bf94-387715f0432f","ios":"levelo://app?vid=84f8bc70-14ce-418c-bf94-387715f0432f"},"vehicle_type_id":"4","last_reported":1721678912,"current_range_meters":14800,"station_id":"ce4bhah2rcd13ifvqej0","pricing_plan_id":"cebpf4jnsgd1na2vs0mg"},{"bike_id":"0ae77efa-434f-46fc-acac-013d6779abdb","system_id":"levelo_inurba_marseille","lat":43.29874,"lon":5.39735,"is_reserved":false,"is_disabled":false,"rental_uris":{"android":"levelo://app?vid=0ae77efa-434f-46fc-acac-013d6779abdb","ios":"levelo://app?vid=0ae77efa-434f-46fc-acac-013d6779abdb"},"vehicle_type_id":"4","last_reported":1721678912,"current_range_meters":31200,"station_id":"ce4bh0h2rcd13ifvqd50","pricing_plan_id":"cebpf4jnsgd1na2vs0mg"},{"bike_id":"0d3d94ea-42a3-4ca8-bc70-a55e76d7f939","system_id":"levelo_inurba_marseille","lat":43.286961,"lon":5.373785,"is_reserved":false,"is_disabled":false,"rental_uris":{"android":"levelo://app?vid=0d3d94ea-42a3-4ca8-bc70-a55e76d7f939","ios":"levelo://app?vid=0d3d94ea-42a3-4ca8-bc70-a55e76d7f939"},"vehicle_type_id":"4","last_reported":1721678912,"current_range_meters":18800,"station_id":"ce4bh3p2rcd13ifvqdq0","pricing_plan_id":"cebpf4jnsgd1na2vs0mg"},{"bike_id":"d10fa08b-bfaf-4fe7-851f-081839d4fec4","system_id":"levelo_inurba_marseille","lat":43.298681,"lon":5.397225,"is_reserved":false,"is_disabled":false,"rental_uris":{"android":"levelo://app?vid=d10fa08b-bfaf-4fe7-851f-081839d4fec4","ios":"levelo://app?vid=d10fa08b-bfaf-4fe7-851f-081839d4fec4"},"vehicle_type_id":"4","last_reported":1721678912,"current_range_meters":21200,"station_id":"ce4bh0h2rcd13ifvqd50","pricing_plan_id":"cebpf4jnsgd1na2vs0mg"},{"bike_id":"fbe4796a-fef5-4259-b128-3262cb1c03c7","system_id":"levelo_inurba_marseille","lat":43.286591,"lon":5.363346,"is_reserved":false,"is_disabled":false,"rental_uris":{"android":"levelo://app?vid=fbe4796a-fef5-4259-b128-3262cb1c03c7","ios":"levelo://app?vid=fbe4796a-fef5-4259-b128-3262cb1c03c7"},"vehicle_type_id":"4","last_reported":1721678912,"current_range_meters":3200,"station_id":"ce4bhah2rcd13ifvqej0","pricing_plan_id":"cebpf4jnsgd1na2vs0mg"},{"bike_id":"7f1a616d-e41f-4783-aff7-ec8fe8995318","system_id":"levelo_inurba_marseille","lat":43.286593,"lon":5.363346,"is_reserved":false,"is_disabled":false,"rental_uris":{"android":"levelo://app?vid=7f1a616d-e41f-4783-aff7-ec8fe8995318","ios":"levelo://app?vid=7f1a616d-e41f-4783-aff7-ec8fe8995318"},"vehicle_type_id":"4","last_reported":1721678912,"current_range_meters":19600,"station_id":"ce4bhah2rcd13ifvqej0","pricing_plan_id":"cebpf4jnsgd1na2vs0mg"},{"bike_id":"52c90439-d459-4cf1-b4fa-b6696c957b61","system_id":"levelo_inurba_marseille","lat":43.286961,"lon":5.373785,"is_reserved":false,"is_disabled":false,"rental_uris":{"android":"levelo://app?vid=52c90439-d459-4cf1-b4fa-b6696c957b61","ios":"levelo://app?vid=52c90439-d459-4cf1-b4fa-b6696c957b61"},"vehicle_type_id":"4","last_reported":1721678912,"current_range_meters":400,"station_id":"ce4bh3p2rcd13ifvqdq0","pricing_plan_id":"cebpf4jnsgd1na2vs0mg"},{"bike_id":"fcc4711a-030e-4cbb-b027-4adb5cbf4bc9","system_id":"levelo_inurba_marseille","lat":43.298681,"lon":5.397225,"is_reserved":false,"is_disabled":false,"rental_uris":{"android":"levelo://app?vid=fcc4711a-030e-4cbb-b027-4adb5cbf4bc9","ios":"levelo://app?vid=fcc4711a-030e-4cbb-b027-4adb5cbf4bc9"},"vehicle_type_id":"4","last_reported":1721678912,"current_range_meters":13600,"station_id":"ce4bh0h2rcd13ifvqd50","pricing_plan_id":"cebpf4jnsgd1na2vs0mg"},{"bike_id":"f9db018e-57ba-4d28-9cee-42f0b8961318","system_id":"levelo_inurba_marseille","lat":43.286593,"lon":5.363346,"is_reserved":false,"is_disabled":false,"rental_uris":{"android":"levelo://app?vid=f9db018e-57ba-4d28-9cee-42f0b8961318","ios":"levelo://app?vid=f9db018e-57ba-4d28-9cee-42f0b8961318"},"vehicle_type_id":"4","last_reported":1721678912,"current_range_meters":16400,"station_id":"ce4bhah2rcd13ifvqej0","pricing_plan_id":"cebpf4jnsgd1na2vs0mg"},{"bike_id":"848f2a18-440b-4ec2-9eb8-94b3044dcd60","system_id":"levelo_inurba_marseille","lat":43.286961,"lon":5.373785,"is_reserved":false,"is_disabled":false,"rental_uris":{"android":"levelo://app?vid=848f2a18-440b-4ec2-9eb8-94b3044dcd60","ios":"levelo://app?vid=848f2a18-440b-4ec2-9eb8-94b3044dcd60"},"vehicle_type_id":"4","last_reported":1721678912,"current_range_meters":31600,"station_id":"ce4bh3p2rcd13ifvqdq0","pricing_plan_id":"cebpf4jnsgd1na2vs0mg"},{"bike_id":"c563c326-8c3d-4aa2-af17-1f8ef0629e20","system_id":"levelo_inurba_marseille","lat":43.286961,"lon":5.373785,"is_reserved":false,"is_disabled":false,"rental_uris":{"android":"levelo://app?vid=c563c326-8c3d-4aa2-af17-1f8ef0629e20","ios":"levelo://app?vid=c563c326-8c3d-4aa2-af17-1f8ef0629e20"},"vehicle_type_id":"4","last_reported":1721678912,"current_range_meters":400,"station_id":"ce4bh3p2rcd13ifvqdq0","pricing_plan_id":"cebpf4jnsgd1na2vs0mg"},{"bike_id":"e1d55f40-0ea4-4069-9519-1dac4cb8fb2e","system_id":"levelo_inurba_marseille","lat":43.286961,"lon":5.373785,"is_reserved":false,"is_disabled":false,"rental_uris":{"android":"levelo://app?vid=e1d55f40-0ea4-4069-9519-1dac4cb8fb2e","ios":"levelo://app?vid=e1d55f40-0ea4-4069-9519-1dac4cb8fb2e"},"vehicle_type_id":"4","last_reported":1721678912,"current_range_meters":15600,"station_id":"ce4bh3p2rcd13ifvqdq0","pricing_plan_id":"cebpf4jnsgd1na2vs0mg"},{"bike_id":"f43d5fd9-9397-4a4b-b55e-e93650325d8f","system_id":"levelo_inurba_marseille","lat":43.286961,"lon":5.373785,"is_reserved":false,"is_disabled":false,"rental_uris":{"android":"levelo://app?vid=f43d5fd9-9397-4a4b-b55e-e93650325d8f","ios":"levelo://app?vid=f43d5fd9-9397-4a4b-b55e-e93650325d8f"},"vehicle_type_id":"4","last_reported":1721678912,"current_range_meters":24400,"station_id":"ce4bh3p2rcd13ifvqdq0","pricing_plan_id":"cebpf4jnsgd1na2vs0mg"},{"bike_id":"fcf7645f-b972-4f47-a0a6-843ed023fde1","system_id":"levelo_inurba_marseille","lat":43.289307,"lon":5.38406,"is_reserved":false,"is_disabled":false,"rental_uris":{"android":"levelo://app?vid=fcf7645f-b972-4f47-a0a6-843ed023fde1","ios":"levelo://app?vid=fcf7645f-b972-4f47-a0a6-843ed023fde1"},"vehicle_type_id":"4","last_reported":1721678912,"current_range_meters":28800,"station_id":"ce4bh612rcd13ifvqe6g","pricing_plan_id":"cebpf4jnsgd1na2vs0mg"},{"bike_id":"3b6ddf5a-8fae-4292-b297-b9be089587f3","system_id":"levelo_inurba_marseille","lat":43.289307,"lon":5.38406,"is_reserved":false,"is_disabled":false,"rental_uris":{"android":"levelo://app?vid=3b6ddf5a-8fae-4292-b297-b9be089587f3","ios":"levelo://app?vid=3b6ddf5a-8fae-4292-b297-b9be089587f3"},"vehicle_type_id":"4","last_reported":1721678912,"current_range_meters":5200,"station_id":"ce4bh612rcd13ifvqe6g","pricing_plan_id":"cebpf4jnsgd1na2vs0mg"},{"bike_id":"16e74a3b-1651-4a90-b04f-4a45676720b3","system_id":"levelo_inurba_marseille","lat":43.289307,"lon":5.38406,"is_reserved":false,"is_disabled":false,"rental_uris":{"android":"levelo://app?vid=16e74a3b-1651-4a90-b04f-4a45676720b3","ios":"levelo://app?vid=16e74a3b-1651-4a90-b04f-4a45676720b3"},"vehicle_type_id":"4","last_reported":1721678912,"current_range_meters":0,"station_id":"ce4bh612rcd13ifvqe6g","pricing_plan_id":"cebpf4jnsgd1na2vs0mg"},{"bike_id":"91d6aa1e-7d66-48f2-8a77-7f7b2fc07af0","system_id":"levelo_inurba_marseille","lat":43.29026,"lon":5.38645,"is_reserved":false,"is_disabled":false,"rental_uris":{"android":"levelo://app?vid=91d6aa1e-7d66-48f2-8a77-7f7b2fc07af0","ios":"levelo://app?vid=91d6aa1e-7d66-48f2-8a77-7f7b2fc07af0"},"vehicle_type_id":"4","last_reported":1721678912,"current_range_meters":0,"station_id":"ce4bh4p2rcd13ifvqe0g","pricing_plan_id":"cebpf4jnsgd1na2vs0mg"},{"bike_id":"28a56211-5547-4d0e-bfb8-8714a733ad60","system_id":"levelo_inurba_marseille","lat":43.29025,"lon":5.38647,"is_reserved":false,"is_disabled":false,"rental_uris":{"android":"levelo://app?vid=28a56211-5547-4d0e-bfb8-8714a733ad60","ios":"levelo://app?vid=28a56211-5547-4d0e-bfb8-8714a733ad60"},"vehicle_type_id":"4","last_reported":1721678912,"current_range_meters":28000,"station_id":"ce4bh4p2rcd13ifvqe0g","pricing_plan_id":"cebpf4jnsgd1na2vs0mg"},{"bike_id":"0a647ee3-ccff-4f23-80c7-690c9f0e4fa9","system_id":"levelo_inurba_marseille","lat":43.290336,"lon":5.386425,"is_reserved":false,"is_disabled":false,"rental_uris":{"android":"levelo://app?vid=0a647ee3-ccff-4f23-80c7-690c9f0e4fa9","ios":"levelo://app?vid=0a647ee3-ccff-4f23-80c7-690c9f0e4fa9"},"vehicle_type_id":"4","last_reported":1721678912,"current_range_meters":0,"station_id":"ce4bh4p2rcd13ifvqe0g","pricing_plan_id":"cebpf4jnsgd1na2vs0mg"},{"bike_id":"eedd308a-8942-4fa8-ac23-e57d03abbcb5","system_id":"levelo_inurba_marseille","lat":43.30243,"lon":5.40067,"is_reserved":false,"is_disabled":false,"rental_uris":{"android":"levelo://app?vid=eedd308a-8942-4fa8-ac23-e57d03abbcb5","ios":"levelo://app?vid=eedd308a-8942-4fa8-ac23-e57d03abbcb5"},"vehicle_type_id":"4","last_reported":1721678912,"current_range_meters":0,"station_id":"ce4bgvh2rcd13ifvqcs0","pricing_plan_id":"cebpf4jnsgd1na2vs0mg"},{"bike_id":"00f0a35d-34ef-4270-84c4-b09d301ed316","system_id":"levelo_inurba_marseille","lat":43.281044,"lon":5.378308,"is_reserved":false,"is_disabled":false,"rental_uris":{"android":"levelo://app?vid=00f0a35d-34ef-4270-84c4-b09d301ed316","ios":"levelo://app?vid=00f0a35d-34ef-4270-84c4-b09d301ed316"},"vehicle_type_id":"4","last_reported":1721678912,"current_range_meters":6400,"station_id":"ce4bha12rcd13ifvqee0","pricing_plan_id":"cebpf4jnsgd1na2vs0mg"},{"bike_id":"38e7734a-fd58-4085-938a-6981a06518c4","system_id":"levelo_inurba_marseille","lat":43.287185,"lon":5.379373,"is_reserved":false,"is_disabled":false,"rental_uris":{"android":"levelo://app?vid=38e7734a-fd58-4085-938a-6981a06518c4","ios":"levelo://app?vid=38e7734a-fd58-4085-938a-6981a06518c4"},"vehicle_type_id":"4","last_reported":1721678912,"current_range_meters":3200,"station_id":"ce4bh9p2rcd13ifvqec0","pricing_plan_id":"cebpf4jnsgd1na2vs0mg"},{"bike_id":"08484bf5-c971-495d-9020-2297ddc9acf3","system_id":"levelo_inurba_marseille","lat":43.28725,"lon":5.37938,"is_reserved":false,"is_disabled":false,"rental_uris":{"android":"levelo://app?vid=08484bf5-c971-495d-9020-2297ddc9acf3","ios":"levelo://app?vid=08484bf5-c971-495d-9020-2297ddc9acf3"},"vehicle_type_id":"4","last_reported":1721678912,"current_range_meters":2000,"station_id":"ce4bh9p2rcd13ifvqec0","pricing_plan_id":"cebpf4jnsgd1na2vs0mg"},{"bike_id":"efc462e7-31c8-4601-8d9f-29f0de4fa751","system_id":"levelo_inurba_marseille","lat":43.28717,"lon":5.37937,"is_reserved":false,"is_disabled":false,"rental_uris":{"android":"levelo://app?vid=efc462e7-31c8-4601-8d9f-29f0de4fa751","ios":"levelo://app?vid=efc462e7-31c8-4601-8d9f-29f0de4fa751"},"vehicle_type_id":"4","last_reported":1721678912,"current_range_meters":0,"station_id":"ce4bh9p2rcd13ifvqec0","pricing_plan_id":"cebpf4jnsgd1na2vs0mg"},{"bike_id":"0321fbb6-be1d-412d-b2c9-60c5cb75fe21","system_id":"levelo_inurba_marseille","lat":43.316828,"lon":5.404723,"is_reserved":false,"is_disabled":false,"rental_uris":{"android":"levelo://app?vid=0321fbb6-be1d-412d-b2c9-60c5cb75fe21","ios":"levelo://app?vid=0321fbb6-be1d-412d-b2c9-60c5cb75fe21"},"vehicle_type_id":"4","last_reported":1721678912,"current_range_meters":0,"station_id":"ce4bh012rcd13ifvqd00","pricing_plan_id":"cebpf4jnsgd1na2vs0mg"},{"bike_id":"e3b6f44d-3906-4e31-b33b-e272fbc6d305","system_id":"levelo_inurba_marseille","lat":43.29203,"lon":5.3932,"is_reserved":false,"is_disabled":false,"rental_uris":{"android":"levelo://app?vid=e3b6f44d-3906-4e31-b33b-e272fbc6d305","ios":"levelo://app?vid=e3b6f44d-3906-4e31-b33b-e272fbc6d305"},"vehicle_type_id":"4","last_reported":1721678912,"current_range_meters":18000,"station_id":"ce4bh192rcd13ifvqdd0","pricing_plan_id":"cebpf4jnsgd1na2vs0mg"},{"bike_id":"cf85ff8f-d717-4f81-9f32-49655a1bb694","system_id":"levelo_inurba_marseille","lat":43.292,"lon":5.39316,"is_reserved":false,"is_disabled":false,"rental_uris":{"android":"levelo://app?vid=cf85ff8f-d717-4f81-9f32-49655a1bb694","ios":"levelo://app?vid=cf85ff8f-d717-4f81-9f32-49655a1bb694"},"vehicle_type_id":"4","last_reported":1721678912,"current_range_meters":21200,"station_id":"ce4bh192rcd13ifvqdd0","pricing_plan_id":"cebpf4jnsgd1na2vs0mg"},{"bike_id":"04d0d97e-8ed1-4de6-9534-96f995bfade3","system_id":"levelo_inurba_marseille","lat":43.291994,"lon":5.392907,"is_reserved":false,"is_disabled":false,"rental_uris":{"android":"levelo://app?vid=04d0d97e-8ed1-4de6-9534-96f995bfade3","ios":"levelo://app?vid=04d0d97e-8ed1-4de6-9534-96f995bfade3"},"vehicle_type_id":"4","last_reported":1721678912,"current_range_meters":30000,"station_id":"ce4bh192rcd13ifvqdd0","pricing_plan_id":"cebpf4jnsgd1na2vs0mg"},{"bike_id":"772e4a10-be34-403c-a71a-8dd368ccbd69","system_id":"levelo_inurba_marseille","lat":43.291994,"lon":5.392907,"is_reserved":false,"is_disabled":false,"rental_uris":{"android":"levelo://app?vid=772e4a10-be34-403c-a71a-8dd368ccbd69","ios":"levelo://app?vid=772e4a10-be34-403c-a71a-8dd368ccbd69"},"vehicle_type_id":"4","last_reported":1721678912,"current_range_meters":9200,"station_id":"ce4bh192rcd13ifvqdd0","pricing_plan_id":"cebpf4jnsgd1na2vs0mg"},{"bike_id":"96cd75e4-8a55-4464-b9f4-81f66a8f0465","system_id":"levelo_inurba_marseille","lat":43.29198,"lon":5.393237,"is_reserved":false,"is_disabled":false,"rental_uris":{"android":"levelo://app?vid=96cd75e4-8a55-4464-b9f4-81f66a8f0465","ios":"levelo://app?vid=96cd75e4-8a55-4464-b9f4-81f66a8f0465"},"vehicle_type_id":"4","last_reported":1721678912,"current_range_meters":0,"station_id":"ce4bh192rcd13ifvqdd0","pricing_plan_id":"cebpf4jnsgd1na2vs0mg"},{"bike_id":"dce98ec8-d7c1-489a-aa60-dc2a0db5173f","system_id":"levelo_inurba_marseille","lat":43.2919,"lon":5.39324,"is_reserved":false,"is_disabled":false,"rental_uris":{"android":"levelo://app?vid=dce98ec8-d7c1-489a-aa60-dc2a0db5173f","ios":"levelo://app?vid=dce98ec8-d7c1-489a-aa60-dc2a0db5173f"},"vehicle_type_id":"4","last_reported":1721678912,"current_range_meters":400,"station_id":"ce4bh192rcd13ifvqdd0","pricing_plan_id":"cebpf4jnsgd1na2vs0mg"},{"bike_id":"2c5d55f6-6651-42d1-a890-0a8a718d29ea","system_id":"levelo_inurba_marseille","lat":43.291883,"lon":5.393224,"is_reserved":false,"is_disabled":false,"rental_uris":{"android":"levelo://app?vid=2c5d55f6-6651-42d1-a890-0a8a718d29ea","ios":"levelo://app?vid=2c5d55f6-6651-42d1-a890-0a8a718d29ea"},"vehicle_type_id":"4","last_reported":1721678912,"current_range_meters":800,"station_id":"ce4bh192rcd13ifvqdd0","pricing_plan_id":"cebpf4jnsgd1na2vs0mg"},{"bike_id":"62ce5a1e-52ca-4f1f-87c4-51d40051538d","system_id":"levelo_inurba_marseille","lat":43.29185,"lon":5.39329,"is_reserved":false,"is_disabled":false,"rental_uris":{"android":"levelo://app?vid=62ce5a1e-52ca-4f1f-87c4-51d40051538d","ios":"levelo://app?vid=62ce5a1e-52ca-4f1f-87c4-51d40051538d"},"vehicle_type_id":"4","last_reported":1721678912,"current_range_meters":2000,"station_id":"ce4bh192rcd13ifvqdd0","pricing_plan_id":"cebpf4jnsgd1na2vs0mg"},