{"last_updated":1745241602,"ttl":60,"version":"2.2","data":{"bikes":[{"bike_id":"e71d7074-1c35-4599-9f47-ab240e53e61a","system_id":"levelo_inurba_marseille","lat":43.28269,"lon":5.35056,"is_reserved":false,"is_disabled":false,"rental_uris":{"android":"levelo://app?vid=e71d7074-1c35-4599-9f47-ab240e53e61a","ios":"levelo://app?vid=e71d7074-1c35-4599-9f47-ab240e53e61a"},"vehicle_type_id":"4","last_reported":1745241602,"current_range_meters":2800,"station_id":"ce4bhbp2rcd13ifvqerg","pricing_plan_id":"cebpf4jnsgd1na2vs0mg"},{"bike_id":"6e1ce8c7-78ac-4576-a1a0-1702129d45bc","system_id":"levelo_inurba_marseille","lat":43.30538,"lon":5.36531,"is_reserved":false,"is_disabled":false,"rental_uris":{"android":"levelo://app?vid=6e1ce8c7-78ac-4576-a1a0-1702129d45bc","ios":"levelo://app?vid=6e1ce8c7-78ac-4576-a1a0-1702129d45bc"},"vehicle_type_id":"4","last_reported":1745241602,"current_range_meters":2800,"station_id":"ce4bgs12rcd13ifvqcag","pricing_plan_id":"cebpf4jnsgd1na2vs0mg"},{"bike_id":"84feab8f-960d-49c2-8baa-0470ab327faa","system_id":"levelo_inurba_marseille","lat":43.28929,"lon":5.36637,"is_reserved":false,"is_disabled":false,"rental_uris":{"android":"levelo://app?vid=84feab8f-960d-49c2-8baa-0470ab327faa","ios":"levelo://app?vid=84feab8f-960d-49c2-8baa-0470ab327faa"},"vehicle_type_id":"4","last_reported":1745241602,"current_range_meters":2000,"station_id":"ce4bhap2rcd13ifvqek0","pricing_plan_id":"cebpf4jnsgd1na2vs0mg"},{"bike_id":"24eebf7b-1ea1-4c27-bad0-beb476a3f302","system_id":"levelo_inurba_marseille","lat":43.23193,"lon":5.35552,"is_reserved":false,"is_disabled":false,"rental_uris":{"android":"levelo://app?vid=24eebf7b-1ea1-4c27-bad0-beb476a3f302","ios":"levelo://app?vid=24eebf7b-1ea1-4c27-bad0-beb476a3f302"},"vehicle_type_id":"4","last_reported":1745241602,"current_range_meters":6800,"station_id":"ce4bhu92rcd13ifvqi70","pricing_plan_id":"cebpf4jnsgd1na2vs0mg"},{"bike_id":"8cb3cccd-728a-46f3-8372-b8158bb4fe1f","system_id":"levelo_inurba_marseille","lat":43.23975,"lon":5.36598,"is_reserved":false,"is_disabled":false,"rental_uris":{"android":"levelo://app?vid=8cb3cccd-728a-46f3-8372-b8158bb4fe1f","ios":"levelo://app?vid=8cb3cccd-728a-46f3-8372-b8158bb4fe1f"},"vehicle_type_id":"4","last_reported":1745241602,"current_range_meters":2800,"station_id":"ce4bhi12rcd13ifvqfp0","pricing_plan_id":"cebpf4jnsgd1na2vs0mg"},{"bike_id":"ec6047fb-2095-4cb1-b404-0642835fc776","system_id":"levelo_inurba_marseille","lat":43.24167,"lon":5.36396,"is_reserved":false,"is_disabled":false,"rental_uris":{"android":"levelo://app?vid=ec6047fb-2095-4cb1-b404-0642835fc776","ios":"levelo://app?vid=ec6047fb-2095-4cb1-b404-0642835fc776"},"vehicle_type_id":"4","last_reported":1745241602,"current_range_meters":2800,"station_id":"cpo36qri1sfpv3e86is0","pricing_plan_id":"cebpf4jnsgd1na2vs0mg"},{"bike_id":"907092b7-c971-409a-8686-e7ad011bb29e","system_id":"levelo_inurba_marseille","lat":43.29981,"lon":5.3851,"is_reserved":false,"is_disabled":false,"rental_uris":{"android":"levelo://app?vid=907092b7-c971-409a-8686-e7ad011bb29e","ios":"levelo://app?vid=907092b7-c971-409a-8686-e7ad011bb29e"},"vehicle_type_id":"4","last_reported":1745241602,"current_range_meters":3600,"station_id":"ce4bgj92rcd13ifvqbd0","pricing_plan_id":"cebpf4jnsgd1na2vs0mg"},{"bike_id":"3e6ca243-ede2-4d6c-8c89-2297a107234d","system_id":"levelo_inurba_marseille","lat":43.317248,"lon":5.424006,"is_reserved":false,"is_disabled":false,"rental_uris":{"android":"levelo://app?vid=3e6ca243-ede2-4d6c-8c89-2297a107234d","ios":"levelo://app?vid=3e6ca243-ede2-4d6c-8c89-2297a107234d"},"vehicle_type_id":"4","last_reported":1745241602,"current_range_meters":3600,"station_id":"ce4bhp92rcd13ifvqhbg","pricing_plan_id":"cebpf4jnsgd1na2vs0mg"},{"bike_id":"433859fc-15f0-4ddb-b1f5-781b474f2abd","system_id":"levelo_inurba_marseille","lat":43.29961,"lon":5.38487,"is_reserved":false,"is_disabled":false,"rental_uris":{"android":"levelo://app?vid=433859fc-15f0-4ddb-b1f5-781b474f2abd","ios":"levelo://app?vid=433859fc-15f0-4ddb-b1f5-781b474f2abd"},"vehicle_type_id":"4","last_reported":1745241602,"current_range_meters":3600,"station_id":"ce4bgj92rcd13ifvqbd0","pricing_plan_id":"cebpf4jnsgd1na2vs0mg"},{"bike_id":"9955d65b-7914-457d-b9ee-ff24f6826c8b","system_id":"levelo_inurba_marseille","lat":43.21741,"lon":5.34605,"is_reserved":false,"is_disabled":false,"rental_uris":{"android":"levelo://app?vid=9955d65b-7914-457d-b9ee-ff24f6826c8b","ios":"levelo://app?vid=9955d65b-7914-457d-b9ee-ff24f6826c8b"},"vehicle_type_id":"4","last_reported":1745241602,"current_range_meters":3600,"station_id":"st_cvj6r9ubvosntc0bgbag","pricing_plan_id":"cebpf4jnsgd1na2vs0mg"},{"bike_id":"ea6a0866-bfb2-4626-b3bc-fae7458d2c2b","system_id":"levelo_inurba_marseille","lat":43.29839,"lon":5.36273,"is_reserved":false,"is_disabled":false,"rental_uris":{"android":"levelo://app?vid=ea6a0866-bfb2-4626-b3bc-fae7458d2c2b","ios":"levelo://app?vid=ea6a0866-bfb2-4626-b3bc-fae7458d2c2b"},"vehicle_type_id":"4","last_reported":1745241602,"current_range_meters":4000,"station_id":"ce4bgpp2rcd13ifvqc3g","pricing_plan_id":"cebpf4jnsgd1na2vs0mg"},{"bike_id":"5d36576f-d89e-4747-855a-09efb54e232b","system_id":"levelo_inurba_marseille","lat":43.24799,"lon":5.37452,"is_reserved":false,"is_disabled":false,"rental_uris":{"android":"levelo://app?vid=5d36576f-d89e-4747-855a-09efb54e232b","ios":"levelo://app?vid=5d36576f-d89e-4747-855a-09efb54e232b"},"vehicle_type_id":"4","last_reported":1745241602,"current_range_meters":4000,"station_id":"ce4bhgh2rcd13ifvqfb0","pricing_plan_id":"cebpf4jnsgd1na2vs0mg"},{"bike_id":"6d41a1f2-2786-40c1-bb3e-69aff59d45e7","system_id":"levelo_inurba_marseille","lat":43.21742,"lon":5.34611,"is_reserved":false,"is_disabled":false,"rental_uris":{"android":"levelo://app?vid=6d41a1f2-2786-40c1-bb3e-69aff59d45e7","ios":"levelo://app?vid=6d41a1f2-2786-40c1-bb3e-69aff59d45e7"},"vehicle_type_id":"4","last_reported":1745241602,"current_range_meters":4000,"station_id":"st_cvj6r9ubvosntc0bgbag","pricing_plan_id":"cebpf4jnsgd1na2vs0mg"},{"bike_id":"ade244d8-12b8-4999-b0e1-6d7a4cb71e6a","system_id":"levelo_inurba_marseille","lat":43.29258,"lon":5.38442,"is_reserved":false,"is_disabled":false,"rental_uris":{"android":"levelo://app?vid=ade244d8-12b8-4999-b0e1-6d7a4cb71e6a","ios":"levelo://app?vid=ade244d8-12b8-4999-b0e1-6d7a4cb71e6a"},"vehicle_type_id":"4","last_reported":1745241602,"current_range_meters":2800,"station_id":"ce4bh692rcd13ifvqea0","pricing_plan_id":"cebpf4jnsgd1na2vs0mg"},{"bike_id":"215a82b8-e597-4000-a386-742c8ed819f0","system_id":"levelo_inurba_marseille","lat":43.31993,"lon":5.381484,"is_reserved":false,"is_disabled":false,"rental_uris":{"android":"levelo://app?vid=215a82b8-e597-4000-a386-742c8ed819f0","ios":"levelo://app?vid=215a82b8-e597-4000-a386-742c8ed819f0"},"vehicle_type_id":"4","last_reported":1745241602,"current_range_meters":4000,"station_id":"ce4bhr12rcd13ifvqhpg","pricing_plan_id":"cebpf4jnsgd1na2vs0mg"},{"bike_id":"aec06a5a-0f9f-4092-a64e-e7172567d95e","system_id":"levelo_inurba_marseille","lat":43.24806,"lon":5.37453,"is_reserved":false,"is_disabled":false,"rental_uris":{"android":"levelo://app?vid=aec06a5a-0f9f-4092-a64e-e7172567d95e","ios":"levelo://app?vid=aec06a5a-0f9f-4092-a64e-e7172567d95e"},"vehicle_type_id":"4","last_reported":1745241602,"current_range_meters":4000,"station_id":"ce4bhgh2rcd13ifvqfb0","pricing_plan_id":"cebpf4jnsgd1na2vs0mg"},{"bike_id":"dea4c88b-2c2f-43a7-bd81-9c9b914276fd","system_id":"levelo_inurba_marseille","lat":43.232,"lon":5.35558,"is_reserved":false,"is_disabled":false,"rental_uris":{"android":"levelo://app?vid=dea4c88b-2c2f-43a7-bd81-9c9b914276fd","ios":"levelo://app?vid=dea4c88b-2c2f-43a7-bd81-9c9b914276fd"},"vehicle_type_id":"4","last_reported":1745241602,"current_range_meters":4400,"station_id":"ce4bhu92rcd13ifvqi70","pricing_plan_id":"cebpf4jnsgd1na2vs0mg"},{"bike_id":"f11b51f0-a891-4f94-86a7-20f3aeaa096c","system_id":"levelo_inurba_marseille","lat":43.25869,"lon":5.39894,"is_reserved":false,"is_disabled":false,"rental_uris":{"android":"levelo://app?vid=f11b51f0-a891-4f94-86a7-20f3aeaa096c","ios":"levelo://app?vid=f11b51f0-a891-4f94-86a7-20f3aeaa096c"},"vehicle_type_id":"4","last_reported":1745241602,"current_range_meters":4800,"station_id":"ce4bhl92rcd13ifvqghg","pricing_plan_id":"cebpf4jnsgd1na2vs0mg"},{"bike_id":"34347e77-678e-4017-bd06-8f56b2613d9f","system_id":"levelo_inurba_marseille","lat":43.29578,"lon":5.36741,"is_reserved":false,"is_disabled":false,"rental_uris":{"android":"levelo://app?vid=34347e77-678e-4017-bd06-8f56b2613d9f","ios":"levelo://app?vid=34347e77-678e-4017-bd06-8f56b2613d9f"},"vehicle_type_id":"4","last_reported":1745241602,"current_range_meters":6000,"station_id":"ce4bgph2rcd13ifvqc2g","pricing_plan_id":"cebpf4jnsgd1na2vs0mg"},{"bike_id":"d95805bc-de98-4b2f-b96b-2e2edb254107","system_id":"levelo_inurba_marseille","lat":43.25497,"lon":5.37648,"is_reserved":false,"is_disabled":false,"rental_uris":{"android":"levelo://app?vid=d95805bc-de98-4b2f-b96b-2e2edb254107","ios":"levelo://app?vid=d95805bc-de98-4b2f-b96b-2e2edb254107"},"vehicle_type_id":"4","last_reported":1745241602,"current_range_meters":4800,"station_id":"ce4bhh12rcd13ifvqff0","pricing_plan_id":"cebpf4jnsgd1na2vs0mg"},{"bike_id":"195484ef-2d5e-42f8-a62c-e16be74213f7","system_id":"levelo_inurba_marseille","lat":43.23185,"lon":5.39989,"is_reserved":false,"is_disabled":false,"rental_uris":{"android":"levelo://app?vid=195484ef-2d5e-42f8-a62c-e16be74213f7","ios":"levelo://app?vid=195484ef-2d5e-42f8-a62c-e16be74213f7"},"vehicle_type_id":"4","last_reported":1745241602,"current_range_meters":4800,"station_id":"ce4bhn12rcd13ifvqgqg","pricing_plan_id":"cebpf4jnsgd1na2vs0mg"},{"bike_id":"38a0bc52-7e00-486e-a093-47ed153541ca","system_id":"levelo_inurba_marseille","lat":43.23192,"lon":5.35554,"is_reserved":false,"is_disabled":false,"rental_uris":{"android":"levelo://app?vid=38a0bc52-7e00-486e-a093-47ed153541ca","ios":"levelo://app?vid=38a0bc52-7e00-486e-a093-47ed153541ca"},"vehicle_type_id":"4","last_reported":1745241602,"current_range_meters":4800,"station_id":"ce4bhu92rcd13ifvqi70","pricing_plan_id":"cebpf4jnsgd1na2vs0mg"},{"bike_id":"c82056fa-be43-4e8c-bee3-9e92f3a8ce5a","system_id":"levelo_inurba_marseille","lat":43.24076,"lon":5.37756,"is_reserved":false,"is_disabled":false,"rental_uris":{"android":"levelo://app?vid=c82056fa-be43-4e8c-bee3-9e92f3a8ce5a","ios":"levelo://app?vid=c82056fa-be43-4e8c-bee3-9e92f3a8ce5a"},"vehicle_type_id":"4","last_reported":1745241602,"current_range_meters":4800,"station_id":"ce4bhnp2rcd13ifvqgvg","pricing_plan_id":"cebpf4jnsgd1na2vs0mg"},{"bike_id":"82d2a914-5bf8-467b-98e5-0ea56fec9e10","system_id":"levelo_inurba_marseille","lat":43.23051,"lon":5.35493,"is_reserved":false,"is_disabled":false,"rental_uris":{"android":"levelo://app?vid=82d2a914-5bf8-467b-98e5-0ea56fec9e10","ios":"levelo://app?vid=82d2a914-5bf8-467b-98e5-0ea56fec9e10"},"vehicle_type_id":"4","last_reported":1745241602,"current_range_meters":4800,"station_id":"cpo3342slgdg3j2ifvpg","pricing_plan_id":"cebpf4jnsgd1na2vs0mg"},{"bike_id":"b8b8f832-4985-41cf-84e0-e854ae0f6e6f","system_id":"levelo_inurba_marseille","lat":43.23965,"lon":5.3663,"is_reserved":false,"is_disabled":false,"rental_uris":{"android":"levelo://app?vid=b8b8f832-4985-41cf-84e0-e854ae0f6e6f","ios":"levelo://app?vid=b8b8f832-4985-41cf-84e0-e854ae0f6e6f"},"vehicle_type_id":"4","last_reported":1745241602,"current_range_meters":4800,"station_id":"ce4bhi12rcd13ifvqfp0","pricing_plan_id":"cebpf4jnsgd1na2vs0mg"},{"bike_id":"9bbbf7dc-1ad2-4002-b85d-f84566322539","system_id":"levelo_inurba_marseille","lat":43.23145,"lon":5.43718,"is_reserved":false,"is_disabled":false,"rental_uris":{"android":"levelo://app?vid=9bbbf7dc-1ad2-4002-b85d-f84566322539","ios":"levelo://app?vid=9bbbf7dc-1ad2-4002-b85d-f84566322539"},"vehicle_type_id":"4","last_reported":1745241602,"current_range_meters":5600,"station_id":"ce4bhmp2rcd13ifvqgog","pricing_plan_id":"cebpf4jnsgd1na2vs0mg"},{"bike_id":"b5749dbd-76dd-417b-ba4b-b0026afbb12d","system_id":"levelo_inurba_marseille","lat":43.23137,"lon":5.43703,"is_reserved":false,"is_disabled":false,"rental_uris":{"android":"levelo://app?vid=b5749dbd-76dd-417b-ba4b-b0026afbb12d","ios":"levelo://app?vid=b5749dbd-76dd-417b-ba4b-b0026afbb12d"},"vehicle_type_id":"4","last_reported":1745241602,"current_range_meters":5600,"station_id":"ce4bhmp2rcd13ifvqgog","pricing_plan_id":"cebpf4jnsgd1na2vs0mg"},{"bike_id":"b992098c-aef4-4600-9360-89f81afadcba","system_id":"levelo_inurba_marseille","lat":43.282727,"lon":5.35073,"is_reserved":false,"is_disabled":false,"rental_uris":{"android":"levelo://app?vid=b992098c-aef4-4600-9360-89f81afadcba","ios":"levelo://app?vid=b992098c-aef4-4600-9360-89f81afadcba"},"vehicle_type_id":"4","last_reported":1745241602,"current_range_meters":5600,"station_id":"ce4bhbp2rcd13ifvqerg","pricing_plan_id":"cebpf4jnsgd1na2vs0mg"},{"bike_id":"b74d2149-b261-409b-ada5-70cce9fad823","system_id":"levelo_inurba_marseille","lat":43.29122,"lon":5.38308,"is_reserved":false,"is_disabled":false,"rental_uris":{"android":"levelo://app?vid=b74d2149-b261-409b-ada5-70cce9fad823","ios":"levelo://app?vid=b74d2149-b261-409b-ada5-70cce9fad823"},"vehicle_type_id":"4","last_reported":1745241602,"current_range_meters":5600,"station_id":"","pricing_plan_id":"cebpf4jnsgd1na2vs0mg"},{"bike_id":"8227dd6e-11e2-4d45-a5e0-d72f2ca2c9cc","system_id":"levelo_inurba_marseille","lat":43.26584,"lon":5.38999,"is_reserved":false,"is_disabled":false,"rental_uris":{"android":"levelo://app?vid=8227dd6e-11e2-4d45-a5e0-d72f2ca2c9cc","ios":"levelo://app?vid=8227dd6e-11e2-4d45-a5e0-d72f2ca2c9cc"},"vehicle_type_id":"4","last_reported":1745241602,"current_range_meters":5600,"station_id":"ce4bhe12rcd13ifvqf30","pricing_plan_id":"cebpf4jnsgd1na2vs0mg"},{"bike_id":"45b4cd11-ed39-4f58-89ff-e7aeb4eb2ed5","system_id":"levelo_inurba_marseille","lat":43.31725,"lon":5.42405,"is_reserved":false,"is_disabled":false,"rental_uris":{"android":"levelo://app?vid=45b4cd11-ed39-4f58-89ff-e7aeb4eb2ed5","ios":"levelo://app?vid=45b4cd11-ed39-4f58-89ff-e7aeb4eb2ed5"},"vehicle_type_id":"4","last_reported":1745241602,"current_range_meters":5600,"station_id":"ce4bhp92rcd13ifvqhbg","pricing_plan_id":"cebpf4jnsgd1na2vs0mg"},{"bike_id":"5861242e-476e-40e0-add2-f5fb80b0a6a0","system_id":"levelo_inurba_marseille","lat":43.24169,"lon":5.36397,"is_reserved":false,"is_disabled":false,"rental_uris":{"android":"levelo://app?vid=5861242e-476e-40e0-add2-f5fb80b0a6a0","ios":"levelo://app?vid=5861242e-476e-40e0-add2-f5fb80b0a6a0"},"vehicle_type_id":"4","last_reported":1745241602,"current_range_meters":6000,"station_id":"cpo36qri1sfpv3e86is0","pricing_plan_id":"cebpf4jnsgd1na2vs0mg"},{"bike_id":"e2130d6b-52b6-4883-903d-c1659f0ea64d","system_id":"levelo_inurba_marseille","lat":43.23187,"lon":5.39981,"is_reserved":false,"is_disabled":false,"rental_uris":{"android":"levelo://app?vid=e2130d6b-52b6-4883-903d-c1659f0ea64d","ios":"levelo://app?vid=e2130d6b-52b6-4883-903d-c1659f0ea64d"},"vehicle_type_id":"4","last_reported":1745241602,"current_range_meters":6000,"station_id":"ce4bhn12rcd13ifvqgqg","pricing_plan_id":"cebpf4jnsgd1na2vs0mg"},{"bike_id":"2608f85a-b95c-4f87-ae10-c544362a2956","system_id":"levelo_inurba_marseille","lat":43.27372,"lon":5.36248,"is_reserved":false,"is_disabled":false,"rental_uris":{"android":"levelo://app?vid=2608f85a-b95c-4f87-ae10-c544362a2956","ios":"levelo://app?vid=2608f85a-b95c-4f87-ae10-c544362a2956"},"vehicle_type_id":"4","last_reported":1745241602,"current_range_meters":6000,"station_id":"ce4bhbh2rcd13ifvqeo0","pricing_plan_id":"cebpf4jnsgd1na2vs0mg"},{"bike_id":"3460b8b6-d86e-4d0f-8230-d687fe57c50b","system_id":"levelo_inurba_marseille","lat":43.29842,"lon":5.36275,"is_reserved":false,"is_disabled":false,"rental_uris":{"android":"levelo://app?vid=3460b8b6-d86e-4d0f-8230-d687fe57c50b","ios":"levelo://app?vid=3460b8b6-d86e-4d0f-8230-d687fe57c50b"},"vehicle_type_id":"4","last_reported":1745241602,"current_range_meters":6000,"station_id":"ce4bgpp2rcd13ifvqc3g","pricing_plan_id":"cebpf4jnsgd1na2vs0mg"},{"bike_id":"83c0f8f1-74da-4ae9-a2a0-ec6e6d8a598b","system_id":"levelo_inurba_marseille","lat":43.21747,"lon":5.34604,"is_reserved":false,"is_disabled":false,"rental_uris":{"android":"levelo://app?vid=83c0f8f1-74da-4ae9-a2a0-ec6e6d8a598b","ios":"levelo://app?vid=83c0f8f1-74da-4ae9-a2a0-ec6e6d8a598b"},"vehicle_type_id":"4","last_reported":1745241602,"current_range_meters":6000,"station_id":"st_cvj6r9ubvosntc0bgbag","pricing_plan_id":"cebpf4jnsgd1na2vs0mg"},{"bike_id":"8cc2d7d0-b85e-4afa-b4a5-09ea64073393","system_id":"levelo_inurba_marseille","lat":43.2319,"lon":5.35548,"is_reserved":false,"is_disabled":false,"rental_uris":{"android":"levelo://app?vid=8cc2d7d0-b85e-4afa-b4a5-09ea64073393","ios":"levelo://app?vid=8cc2d7d0-b85e-4afa-b4a5-09ea64073393"},"vehicle_type_id":"4","last_reported":1745241602,"current_range_meters":6000,"station_id":"ce4bhu92rcd13ifvqi70","pricing_plan_id":"cebpf4jnsgd1na2vs0mg"},{"bike_id":"3ac11f8e-b010-4bee-8ce3-7e00d27db9de","system_id":"levelo_inurba_marseille","lat":43.28425,"lon":5.34988,"is_reserved":false,"is_disabled":false,"rental_uris":{"android":"levelo://app?vid=3ac11f8e-b010-4bee-8ce3-7e00d27db9de","ios":"levelo://app?vid=3ac11f8e-b010-4bee-8ce3-7e00d27db9de"},"vehicle_type_id":"4","last_reported":1745241602,"current_range_meters":6000,"station_id":"ce4bhbh2rcd13ifvqepg","pricing_plan_id":"cebpf4jnsgd1na2vs0mg"},{"bike_id":"c65219d1-d6b5-4b84-940a-0bfe8ccc0de8","system_id":"levelo_inurba_marseille","lat":43.21751,"lon":5.34597,"is_reserved":false,"is_disabled":false,"rental_uris":{"android":"levelo://app?vid=c65219d1-d6b5-4b84-940a-0bfe8ccc0de8","ios":"levelo://app?vid=c65219d1-d6b5-4b84-940a-0bfe8ccc0de8"},"vehicle_type_id":"4","last_reported":1745241602,"current_range_meters":6000,"station_id":"st_cvj6r9ubvosntc0bgbag","pricing_plan_id":"cebpf4jnsgd1na2vs0mg"},{"bike_id":"666d0bc6-e154-41a7-a400-97d10f70a69e","system_id":"levelo_inurba_marseille","lat":43.2827,"lon":5.35075,"is_reserved":false,"is_disabled":false,"rental_uris":{"android":"levelo://app?vid=666d0bc6-e154-41a7-a400-97d10f70a69e","ios":"levelo://app?vid=666d0bc6-e154-41a7-a400-97d10f70a69e"},"vehicle_type_id":"4","last_reported":1745241602,"current_range_meters":6000,"station_id":"ce4bhbp2rcd13ifvqerg","pricing_plan_id":"cebpf4jnsgd1na2vs0mg"},{"bike_id":"e1590f4f-9f87-44b7-9a08-3418b8b7f586","system_id":"levelo_inurba_marseille","lat":43.23151,"lon":5.43702,"is_reserved":false,"is_disabled":false,"rental_uris":{"android":"levelo://app?vid=e1590f4f-9f87-44b7-9a08-3418b8b7f586","ios":"levelo://app?vid=e1590f4f-9f87-44b7-9a08-3418b8b7f586"},"vehicle_type_id":"4","last_reported":1745241602,"current_range_meters":6400,"station_id":"ce4bhmp2rcd13ifvqgog","pricing_plan_id":"cebpf4jnsgd1na2vs0mg"},{"bike_id":"13dcc10c-4cac-4cf2-9318-07e242720dc9","system_id":"levelo_inurba_marseille","lat":43.312,"lon":5.37715,"is_reserved":false,"is_disabled":false,"rental_uris":{"android":"levelo://app?vid=13dcc10c-4cac-4cf2-9318-07e242720dc9","ios":"levelo://app?vid=13dcc10c-4cac-4cf2-9318-07e242720dc9"},"vehicle_type_id":"4","last_reported":1745241602,"current_range_meters":6400,"station_id":"","pricing_plan_id":"cebpf4jnsgd1na2vs0mg"},{"bike_id":"f364bf6e-ddfd-4d6e-ae96-89213897ed37","system_id":"levelo_inurba_marseille","lat":43.32331,"lon":5.40617,"is_reserved":false,"is_disabled":false,"rental_uris":{"android":"levelo://app?vid=f364bf6e-ddfd-4d6e-ae96-89213897ed37","ios":"levelo://app?vid=f364bf6e-ddfd-4d6e-ae96-89213897ed37"},"vehicle_type_id":"4","last_reported":1745241602,"current_range_meters":6400,"station_id":"ce4bhq92rcd13ifvqhjg","pricing_plan_id":"cebpf4jnsgd1na2vs0mg"},{"bike_id":"f0bd0b81-28f5-497b-8ab0-1a33e9f15689","system_id":"levelo_inurba_marseille","lat":43.23963,"lon":5.36633,"is_reserved":false,"is_disabled":false,"rental_uris":{"android":"levelo://app?vid=f0bd0b81-28f5-497b-8ab0-1a33e9f15689","ios":"levelo://app?vid=f0bd0b81-28f5-497b-8ab0-1a33e9f15689"},"vehicle_type_id":"4","last_reported":1745241602,"current_range_meters":6400,"station_id":"ce4bhi12rcd13ifvqfp0","pricing_plan_id":"cebpf4jnsgd1na2vs0mg"},{"bike_id":"60d0185c-ff68-4880-96e6-b57a05e17bd1","system_id":"levelo_inurba_marseille","lat":43.24387,"lon":5.37058,"is_reserved":false,"is_disabled":false,"rental_uris":{"android":"levelo://app?vid=60d0185c-ff68-4880-96e6-b57a05e17bd1","ios":"levelo://app?vid=60d0185c-ff68-4880-96e6-b57a05e17bd1"},"vehicle_type_id":"4","last_reported":1745241602,"current_range_meters":6400,"station_id":"ce4bhhh2rcd13ifvqfk0","pricing_plan_id":"cebpf4jnsgd1na2vs0mg"},{"bike_id":"4f0b25c3-2f51-4c00-9f56-69333455e756","system_id":"levelo_inurba_marseille","lat":43.278745,"lon":5.392925,"is_reserved":false,"is_disabled":false,"rental_uris":{"android":"levelo://app?vid=4f0b25c3-2f51-4c00-9f56-69333455e756","ios":"levelo://app?vid=4f0b25c3-2f51-4c00-9f56-69333455e756"},"vehicle_type_id":"4","last_reported":1745241602,"current_range_meters":6800,"station_id":"","pricing_plan_id":"cebpf4jnsgd1na2vs0mg"},{"bike_id":"e09634ee-16cf-4c84-8d0d-584cc95807ef","system_id":"levelo_inurba_marseille","lat":43.27365,"lon":5.36246,"is_reserved":false,"is_disabled":false,"rental_uris":{"android":"levelo://app?vid=e09634ee-16cf-4c84-8d0d-584cc95807ef","ios":"levelo://app?vid=e09634ee-16cf-4c84-8d0d-584cc95807ef"},"vehicle_type_id":"4","last_reported":1745241602,"current_range_meters":6800,"station_id":"ce4bhbh2rcd13ifvqeo0","pricing_plan_id":"cebpf4jnsgd1na2vs0mg"},{"bike_id":"ebfc3841-491c-4713-98e3-7298dc6b55d0","system_id":"levelo_inurba_marseille","lat":43.23146,"lon":5.43718,"is_reserved":false,"is_disabled":false,"rental_uris":{"android":"levelo://app?vid=ebfc3841-491c-4713-98e3-7298dc6b55d0","ios":"levelo://app?vid=ebfc3841-491c-4713-98e3-7298dc6b55d0"},"vehicle_type_id":"4","last_reported":1745241602,"current_range_meters":7200,"station_id":"ce4bhmp2rcd13ifvqgog","pricing_plan_id":"cebpf4jnsgd1na2vs0mg"},{"bike_id":"033414cf-3f6d-48f5-bb64-1914ced13cfe","system_id":"levelo_inurba_marseille","lat":43.24667,"lon":5.38156,"is_reserved":false,"is_disabled":false,"rental_uris":{"android":"levelo://app?vid=033414cf-3f6d-48f5-bb64-1914ced13cfe","ios":"levelo://app?vid=033414cf-3f6d-48f5-bb64-1914ced13cfe"},"vehicle_type_id":"4","last_reported":1745241602,"current_range_meters":7200,"station_id":"ce4bhih2rcd13ifvqfr0","pricing_plan_id":"cebpf4jnsgd1na2vs0mg"},{"bike_id":"8cf150b6-a510-49c0-8b85-e13324ae9b45","system_id":"levelo_inurba_marseille","lat":43.24081,"lon":5.37753,"is_reserved":false,"is_disabled":false,"rental_uris":{"android":"levelo://app?vid=8cf150b6-a510-49c0-8b85-e13324ae9b45","ios":"levelo://app?vid=8cf150b6-a510-49c0-8b85-e13324ae9b45"},"vehicle_type_id":"4","last_reported":1745241602,"current_range_meters":7200,"station_id":"ce4bhnp2rcd13ifvqgvg","pricing_plan_id":"cebpf4jnsgd1na2vs0mg"},{"bike_id":"28105f12-b355-49c8-9376-d2bf24643575","system_id":"levelo_inurba_marseille","lat":43.23192,"lon":5.35551,"is_reserved":false,"is_disabled":false,"rental_uris":{"android":"levelo://app?vid=28105f12-b355-49c8-9376-d2bf24643575","ios":"levelo://app?vid=28105f12-b355-49c8-9376-d2bf24643575"},"vehicle_type_id":"4","last_reported":1745241602,"current_range_meters":7200,"station_id":"ce4bhu92rcd13ifvqi70","pricing_plan_id":"cebpf4jnsgd1na2vs0mg"},{"bike_id":"a690620e-886f-4a7e-b000-db663d32c7b3","system_id":"levelo_inurba_marseille","lat":43.298959,"lon":5.43666,"is_reserved":false,"is_disabled":false,"rental_uris":{"android":"levelo://app?vid=a690620e-886f-4a7e-b000-db663d32c7b3","ios":"levelo://app?vid=a690620e-886f-4a7e-b000-db663d32c7b3"},"vehicle_type_id":"4","last_reported":1745241602,"current_range_meters":8000,"station_id":"ce4bhpp2rcd13ifvqhfg","pricing_plan_id":"cebpf4jnsgd1na2vs0mg"},{"bike_id":"6b8f48b7-fd9d-4dc6-bf0d-cad1b2932f54","system_id":"levelo_inurba_marseille","lat":43.26213,"lon":5.37459,"is_reserved":false,"is_disabled":false,"rental_uris":{"android":"levelo://app?vid=6b8f48b7-fd9d-4dc6-bf0d-cad1b2932f54","ios":"levelo://app?vid=6b8f48b7-fd9d-4dc6-bf0d-cad1b2932f54"},"vehicle_type_id":"4","last_reported":1745241602,"current_range_meters":8000,"station_id":"ce4bhgp2rcd13ifvqfc0","pricing_plan_id":"cebpf4jnsgd1na2vs0mg"},{"bike_id":"02207823-565e-4c4a-829b-42236c0c12f2","system_id":"levelo_inurba_marseille","lat":43.21188,"lon":5.35068,"is_reserved":false,"is_disabled":false,"rental_uris":{"android":"levelo://app?vid=02207823-565e-4c4a-829b-42236c0c12f2","ios":"levelo://app?vid=02207823-565e-4c4a-829b-42236c0c12f2"},"vehicle_type_id":"4","last_reported":1745241602,"current_range_meters":8000,"station_id":"st_cvj6sg6p6f1abm77japg","pricing_plan_id":"cebpf4jnsgd1na2vs0mg"},{"bike_id":"d9c8aef7-dc3c-4873-8cc1-7143494995c9","system_id":"levelo_inurba_marseille","lat":43.23068,"lon":5.35495,"is_reserved":false,"is_disabled":false,"rental_uris":{"android":"levelo://app?vid=d9c8aef7-dc3c-4873-8cc1-7143494995c9","ios":"levelo://app?vid=d9c8aef7-dc3c-4873-8cc1-7143494995c9"},"vehicle_type_id":"4","last_reported":1745241602,"current_range_meters":8000,"station_id":"cpo3342slgdg3j2ifvpg","pricing_plan_id":"cebpf4jnsgd1na2vs0mg"},{"bike_id":"c633ffb6-a2e4-43ee-bc04-55b3730fd199","system_id":"levelo_inurba_marseille","lat":43.29419,"lon":5.38614,"is_reserved":false,"is_disabled":true,"rental_uris":{"android":"levelo://app?vid=c633ffb6-a2e4-43ee-bc04-55b3730fd199","ios":"levelo://app?vid=c633ffb6-a2e4-43ee-bc04-55b3730fd199"},"vehicle_type_id":"4","last_reported":1745241602,"current_range_meters":8000,"station_id":"ce4bh2h2rcd13ifvqdh0","pricing_plan_id":"cebpf4jnsgd1na2vs0mg"},{"bike_id":"6e7d2935-fa60-4396-8fd6-4589e4ac4634","system_id":"levelo_inurba_marseille","lat":43.23192,"lon":5.35557,"is_reserved":false,"is_disabled":false,"rental_uris":{"android":"levelo://app?vid=6e7d2935-fa60-4396-8fd6-4589e4ac4634","ios":"levelo://app?vid=6e7d2935-fa60-4396-8fd6-4589e4ac4634"},"vehicle_type_id":"4","last_reported":1745241602,"current_range_meters":8000,"station_id":"ce4bhu92rcd13ifvqi70","pricing_plan_id":"cebpf4jnsgd1na2vs0mg"},{"bike_id":"6d0b1e09-0778-4875-a9ec-ebd4ab3c5c71","system_id":"levelo_inurba_marseille","lat":43.21192,"lon":5.35075,"is_reserved":false,"is_disabled":true,"rental_uris":{"android":"levelo://app?vid=6d0b1e09-0778-4875-a9ec-ebd4ab3c5c71","ios":"levelo://app?vid=6d0b1e09-0778-4875-a9ec-ebd4ab3c5c71"},"vehicle_type_id":"4","last_reported":1745241602,"current_range_meters":8000,"station_id":"","pricing_plan_id":"cebpf4jnsgd1na2vs0mg"},{"bike_id":"4d54b607-2c00-4023-87bf-d4a973fbeb92","system_id":"levelo_inurba_marseille","lat":43.24396,"lon":5.37086,"is_reserved":false,"is_disabled":false,"rental_uris":{"android":"levelo://app?vid=4d54b607-2c00-4023-87bf-d4a973fbeb92","ios":"levelo://app?vid=4d54b607-2c00-4023-87bf-d4a973fbeb92"},"vehicle_type_id":"4","last_reported":1745241602,"current_range_meters":8000,"station_id":"ce4bhhh2rcd13ifvqfk0","pricing_plan_id":"cebpf4jnsgd1na2vs0mg"},{"bike_id":"aef2335e-f7c7-42c1-811b-7db6de39f210","system_id":"levelo_inurba_marseille","lat":43.29006,"lon":5.35602,"is_reserved":false,"is_disabled":false,"rental_uris":{"android":"levelo://app?vid=aef2335e-f7c7-42c1-811b-7db6de39f210","ios":"levelo://app?vid=aef2335e-f7c7-42c1-811b-7db6de39f210"},"vehicle_type_id":"4","last_reported":1745241602,"current_range_meters":8400,"station_id":"ce4bhb92rcd13ifvqen0","pricing_plan_id":"cebpf4jnsgd1na2vs0mg"},{"bike_id":"d5eddc2f-5cc2-41bf-9909-da07c502c7f2","system_id":"levelo_inurba_marseille","lat":43.231496,"lon":5.437229,"is_reserved":false,"is_disabled":false,"rental_uris":{"android":"levelo://app?vid=d5eddc2f-5cc2-41bf-9909-da07c502c7f2","ios":"levelo://app?vid=d5eddc2f-5cc2-41bf-9909-da07c502c7f2"},"vehicle_type_id":"4","last_reported":1745241602,"current_range_meters":8400,"station_id":"ce4bhmp2rcd13ifvqgog","pricing_plan_id":"cebpf4jnsgd1na2vs0mg"},{"bike_id":"538d34bd-8813-4c74-a225-f4236ec30df7","system_id":"levelo_inurba_marseille","lat":43.26211,"lon":5.3744,"is_reserved":false,"is_disabled":false,"rental_uris":{"android":"levelo://app?vid=538d34bd-8813-4c74-a225-f4236ec30df7","ios":"levelo://app?vid=538d34bd-8813-4c74-a225-f4236ec30df7"},"vehicle_type_id":"4","last_reported":1745241602,"current_range_meters":8400,"station_id":"ce4bhgp2rcd13ifvqfc0","pricing_plan_id":"cebpf4jnsgd1na2vs0mg"},{"bike_id":"b63192e9-df06-41be-b6cd-e30abb57a45d","system_id":"levelo_inurba_marseille","lat":43.23148,"lon":5.43702,"is_reserved":false,"is_disabled":false,"rental_uris":{"android":"levelo://app?vid=b63192e9-df06-41be-b6cd-e30abb57a45d","ios":"levelo://app?vid=b63192e9-df06-41be-b6cd-e30abb57a45d"},"vehicle_type_id":"4","last_reported":1745241602,"current_range_meters":8400,"station_id":"ce4bhmp2rcd13ifvqgog","pricing_plan_id":"cebpf4jnsgd1na2vs0mg"},{"bike_id":"e173cc0f-e5fd-42dc-8a2b-c65b5c30ccd9","system_id":"levelo_inurba_marseille","lat":43.31265,"lon":5.40158,"is_reserved":false,"is_disabled":false,"rental_uris":{"android":"levelo://app?vid=e173cc0f-e5fd-42dc-8a2b-c65b5c30ccd9","ios":"levelo://app?vid=e173cc0f-e5fd-42dc-8a2b-c65b5c30ccd9"},"vehicle_type_id":"4","last_reported":1745241602,"current_range_meters":8400,"station_id":"ce4bh092rcd13ifvqd30","pricing_plan_id":"cebpf4jnsgd1na2vs0mg"},{"bike_id":"7cc61b7c-67d8-42ab-a694-9294fb92b24d","system_id":"levelo_inurba_marseille","lat":43.28285,"lon":5.35083,"is_reserved":false,"is_disabled":false,"rental_uris":{"android":"levelo://app?vid=7cc61b7c-67d8-42ab-a694-9294fb92b24d","ios":"levelo://app?vid=7cc61b7c-67d8-42ab-a694-9294fb92b24d"},"vehicle_type_id":"4","last_reported":1745241602,"current_range_meters":8400,"station_id":"ce4bhbp2rcd13ifvqerg","pricing_plan_id":"cebpf4jnsgd1na2vs0mg"},{"bike_id":"f0fc08d3-7a88-4f75-b4cf-5f63d6e59a14","system_id":"levelo_inurba_marseille","lat":43.23149,"lon":5.4372,"is_reserved":false,"is_disabled":false,"rental_uris":{"android":"levelo://app?vid=f0fc08d3-7a88-4f75-b4cf-5f63d6e59a14","ios":"levelo://app?vid=f0fc08d3-7a88-4f75-b4cf-5f63d6e59a14"},"vehicle_type_id":"4","last_reported":1745241602,"current_range_meters":8800,"station_id":"ce4bhmp2rcd13ifvqgog","pricing_plan_id":"cebpf4jnsgd1na2vs0mg"},{"bike_id":"03c5670f-4f6c-4fc2-8343-a264809f48a8","system_id":"levelo_inurba_marseille","lat":43.28721,"lon":5.36077,"is_reserved":false,"is_disabled":false,"rental_uris":{"android":"levelo://app?vid=03c5670f-4f6c-4fc2-8343-a264809f48a8","ios":"levelo://app?vid=03c5670f-4f6c-4fc2-8343-a264809f48a8"},"vehicle_type_id":"4","last_reported":1745241602,"current_range_meters":8800,"station_id":"cki0cbj6b192h4jlfktg","pricing_plan_id":"cebpf4jnsgd1na2vs0mg"},{"bike_id":"054a6f2c-552f-413b-b13d-9cdf2c399c94","system_id":"levelo_inurba_marseille","lat":43.31503,"lon":5.37284,"is_reserved":false,"is_disabled":false,"rental_uris":{"android":"levelo://app?vid=054a6f2c-552f-413b-b13d-9cdf2c399c94","ios":"levelo://app?vid=054a6f2c-552f-413b-b13d-9cdf2c399c94"},"vehicle_type_id":"4","last_reported":1745241602,"current_range_meters":8800,"station_id":"ce4bgt12rcd13ifvqcd0","pricing_plan_id":"cebpf4jnsgd1na2vs0mg"},{"bike_id":"e96224b6-dbf5-4053-add5-490364e8af0c","system_id":"levelo_inurba_marseille","lat":43.23187,"lon":5.3556,"is_reserved":false,"is_disabled":false,"rental_uris":{"android":"levelo://app?vid=e96224b6-dbf5-4053-add5-490364e8af0c","ios":"levelo://app?vid=e96224b6-dbf5-4053-add5-490364e8af0c"},"vehicle_type_id":"4","last_reported":1745241602,"current_range_meters":8800,"station_id":"ce4bhu92rcd13ifvqi70","pricing_plan_id":"cebpf4jnsgd1na2vs0mg"},{"bike_id":"3402bedf-7a34-4a4d-aaa9-37a8e00337d2","system_id":"levelo_inurba_marseille","lat":43.3024,"lon":5.40044,"is_reserved":false,"is_disabled":false,"rental_uris":{"android":"levelo://app?vid=3402bedf-7a34-4a4d-aaa9-37a8e00337d2","ios":"levelo://app?vid=3402bedf-7a34-4a4d-aaa9-37a8e00337d2"},"vehicle_type_id":"4","last_reported":1745241602,"current_range_meters":8400,"station_id":"ce4bgvh2rcd13ifvqcs0","pricing_plan_id":"cebpf4jnsgd1na2vs0mg"},{"bike_id":"16cb5006-8cc4-4abd-ab98-0e64efe311b9","system_id":"levelo_inurba_marseille","lat":43.22931,"lon":5.3538,"is_reserved":false,"is_disabled":false,"rental_uris":{"android":"levelo://app?vid=16cb5006-8cc4-4abd-ab98-0e64efe311b9","ios":"levelo://app?vid=16cb5006-8cc4-4abd-ab98-0e64efe311b9"},"vehicle_type_id":"4","last_reported":1745241602,"current_range_meters":8800,"station_id":"cpo3532slgdg3j2ikp40","pricing_plan_id":"cebpf4jnsgd1na2vs0mg"},{"bike_id":"938f6f64-1bba-44e7-939b-2230f553a721","system_id":"levelo_inurba_marseille","lat":43.29846,"lon":5.36268,"is_reserved":false,"is_disabled":false,"rental_uris":{"android":"levelo://app?vid=938f6f64-1bba-44e7-939b-2230f553a721","ios":"levelo://app?vid=938f6f64-1bba-44e7-939b-2230f553a721"},"vehicle_type_id":"4","last_reported":1745241602,"current_range_meters":8800,"station_id":"ce4bgpp2rcd13ifvqc3g","pricing_plan_id":"cebpf4jnsgd1na2vs0mg"},{"bike_id":"b2066f6a-6817-4169-94fe-c1d665ae7c14","system_id":"levelo_inurba_marseille","lat":43.217519,"lon":5.346081,"is_reserved":false,"is_disabled":false,"rental_uris":{"android":"levelo://app?vid=b2066f6a-6817-4169-94fe-c1d665ae7c14","ios":"levelo://app?vid=b2066f6a-6817-4169-94fe-c1d665ae7c14"},"vehicle_type_id":"4","last_reported":1745241602,"current_range_meters":9200,"station_id":"st_cvj6r9ubvosntc0bgbag","pricing_plan_id":"cebpf4jnsgd1na2vs0mg"},{"bike_id":"8ac16eab-2edd-4580-9a4a-af830092f641","system_id":"levelo_inurba_marseille","lat":43.2396,"lon":5.36631,"is_reserved":false,"is_disabled":false,"rental_uris":{"android":"levelo://app?vid=8ac16eab-2edd-4580-9a4a-af830092f641","ios":"levelo://app?vid=8ac16eab-2edd-4580-9a4a-af830092f641"},"vehicle_type_id":"4","last_reported":1745241602,"current_range_meters":9200,"station_id":"ce4bhi12rcd13ifvqfp0","pricing_plan_id":"cebpf4jnsgd1na2vs0mg"},{"bike_id":"39463b69-9531-4f26-b47b-cbd58ace40e7","system_id":"levelo_inurba_marseille","lat":43.212,"lon":5.35034,"is_reserved":false,"is_disabled":false,"rental_uris":{"android":"levelo://app?vid=39463b69-9531-4f26-b47b-cbd58ace40e7","ios":"levelo://app?vid=39463b69-9531-4f26-b47b-cbd58ace40e7"},"vehicle_type_id":"4","last_reported":1745241602,"current_range_meters":9200,"station_id":"st_cvj6sg6p6f1abm77japg","pricing_plan_id":"cebpf4jnsgd1na2vs0mg"},{"bike_id":"001f3b80-2ade-4258-8e51-886014b5cc1f","system_id":"levelo_inurba_marseille","lat":43.23188,"lon":5.39983,"is_reserved":false,"is_disabled":false,"rental_uris":{"android":"levelo://app?vid=001f3b80-2ade-4258-8e51-886014b5cc1f","ios":"levelo://app?vid=001f3b80-2ade-4258-8e51-886014b5cc1f"},"vehicle_type_id":"4","last_reported":1745241602,"current_range_meters":9200,"station_id":"ce4bhn12rcd13ifvqgqg","pricing_plan_id":"cebpf4jnsgd1na2vs0mg"},{"bike_id":"6e35b15a-d988-400e-a6d9-031fe0607230","system_id":"levelo_inurba_marseille","lat":43.23967,"lon":5.36632,"is_reserved":false,"is_disabled":false,"rental_uris":{"android":"levelo://app?vid=6e35b15a-d988-400e-a6d9-031fe0607230","ios":"levelo://app?vid=6e35b15a-d988-400e-a6d9-031fe0607230"},"vehicle_type_id":"4","last_reported":1745241602,"current_range_meters":9200,"station_id":"ce4bhi12rcd13ifvqfp0","pricing_plan_id":"cebpf4jnsgd1na2vs0mg"},{"bike_id":"3b754bbf-caa1-4497-9939-d3a30e53da60","system_id":"levelo_inurba_marseille","lat":43.28264,"lon":5.35064,"is_reserved":false,"is_disabled":false,"rental_uris":{"android":"levelo://app?vid=3b754bbf-caa1-4497-9939-d3a30e53da60","ios":"levelo://app?vid=3b754bbf-caa1-4497-9939-d3a30e53da60"},"vehicle_type_id":"4","last_reported":1745241602,"current_range_meters":9200,"station_id":"ce4bhbp2rcd13ifvqerg","pricing_plan_id":"cebpf4jnsgd1na2vs0mg"},{"bike_id":"5346a1fa-39ff-4c5e-846b-8bf32cd79d1b","system_id":"levelo_inurba_marseille","lat":43.23954,"lon":5.36642,"is_reserved":false,"is_disabled":false,"rental_uris":{"android":"levelo://app?vid=5346a1fa-39ff-4c5e-846b-8bf32cd79d1b","ios":"levelo://app?vid=5346a1fa-39ff-4c5e-846b-8bf32cd79d1b"},"vehicle_type_id":"4","last_reported":1745241602,"current_range_meters":9200,"station_id":"ce4bhi12rcd13ifvqfp0","pricing_plan_id":"cebpf4jnsgd1na2vs0mg"},{"bike_id":"a94e8fd5-54fc-4bb7-8821-e62419424ae9","system_id":"levelo_inurba_marseille","lat":43.29267,"lon":5.36841,"is_reserved":false,"is_disabled":false,"rental_uris":{"android":"levelo://app?vid=a94e8fd5-54fc-4bb7-8821-e62419424ae9","ios":"levelo://app?vid=a94e8fd5-54fc-4bb7-8821-e62419424ae9"},"vehicle_type_id":"4","last_reported":1745241602,"current_range_meters":9600,"station_id":"ce4bhbp2rcd13ifvqesg","pricing_plan_id":"cebpf4jnsgd1na2vs0mg"},{"bike_id":"6e3daac8-71d7-4190-9ce6-93984212c044","system_id":"levelo_inurba_marseille","lat":43.33721,"lon":5.39202,"is_reserved":false,"is_disabled":false,"rental_uris":{"android":"levelo://app?vid=6e3daac8-71d7-4190-9ce6-93984212c044","ios":"levelo://app?vid=6e3daac8-71d7-4190-9ce6-93984212c044"},"vehicle_type_id":"4","last_reported":1745241602,"current_range_meters":9600,"station_id":"ce4bhr92rcd13ifvqhsg","pricing_plan_id":"cebpf4jnsgd1na2vs0mg"},{"bike_id":"1c2ef555-e505-487e-af6a-15e8c23bdd48","system_id":"levelo_inurba_marseille","lat":43.21195,"lon":5.35066,"is_reserved":false,"is_disabled":false,"rental_uris":{"android":"levelo://app?vid=1c2ef555-e505-487e-af6a-15e8c23bdd48","ios":"levelo://app?vid=1c2ef555-e505-487e-af6a-15e8c23bdd48"},"vehicle_type_id":"4","last_reported":1745241602,"current_range_meters":9600,"station_id":"st_cvj6sg6p6f1abm77japg","pricing_plan_id":"cebpf4jnsgd1na2vs0mg"},{"bike_id":"1f84f51f-d2f4-4d4c-982d-d184ffe24a02","system_id":"levelo_inurba_marseille","lat":43.32375,"lon":5.38885,"is_reserved":false,"is_disabled":true,"rental_uris":{"android":"levelo://app?vid=1f84f51f-d2f4-4d4c-982d-d184ffe24a02","ios":"levelo://app?vid=1f84f51f-d2f4-4d4c-982d-d184ffe24a02"},"vehicle_type_id":"4","last_reported":1745241602,"current_range_meters":9600,"station_id":"ce4bhqp2rcd13ifvqhog","pricing_plan_id":"cebpf4jnsgd1na2vs0mg"},{"bike_id":"d510ae40-53d7-4e77-9c23-4325a95a4a61","system_id":"levelo_inurba_marseille","lat":43.21742,"lon":5.34607,"is_reserved":false,"is_disabled":false,"rental_uris":{"android":"levelo://app?vid=d510ae40-53d7-4e77-9c23-4325a95a4a61","ios":"levelo://app?vid=d510ae40-53d7-4e77-9c23-4325a95a4a61"},"vehicle_type_id":"4","last_reported":1745241602,"current_range_meters":9600,"station_id":"st_cvj6r9ubvosntc0bgbag","pricing_plan_id":"cebpf4jnsgd1na2vs0mg"},{"bike_id":"59541059-42fb-459d-b3fd-f0e4e60989d3","system_id":"levelo_inurba_marseille","lat":43.21748,"lon":5.34586,"is_reserved":false,"is_disabled":false,"rental_uris":{"android":"levelo://app?vid=59541059-42fb-459d-b3fd-f0e4e60989d3","ios":"levelo://app?vid=59541059-42fb-459d-b3fd-f0e4e60989d3"},"vehicle_type_id":"4","last_reported":1745241602,"current_range_meters":10000,"station_id":"st_cvj6r9ubvosntc0bgbag","pricing_plan_id":"cebpf4jnsgd1na2vs0mg"},{"bike_id":"543790c0-5481-4f05-b56f-5e89ea044913","system_id":"levelo_inurba_marseille","lat":43.27355,"lon":5.36245,"is_reserved":false,"is_disabled":false,"rental_uris":{"android":"levelo://app?vid=543790c0-5481-4f05-b56f-5e89ea044913","ios":"levelo://app?vid=543790c0-5481-4f05-b56f-5e89ea044913"},"vehicle_type_id":"4","last_reported":1745241602,"current_range_meters":10000,"station_id":"ce4bhbh2rcd13ifvqeo0","pricing_plan_id":"cebpf4jnsgd1na2vs0mg"},{"bike_id":"ed47c9a8-bae5-480f-88b4-e32a34890ba2","system_id":"levelo_inurba_marseille","lat":43.27806,"lon":5.40713,"is_reserved":false,"is_disabled":false,"rental_uris":{"android":"levelo://app?vid=ed47c9a8-bae5-480f-88b4-e32a34890ba2","ios":"levelo://app?vid=ed47c9a8-bae5-480f-88b4-e32a34890ba2"},"vehicle_type_id":"4","last_reported":1745241602,"current_range_meters":10000,"station_id":"ce4bhnh2rcd13ifvqgtg","pricing_plan_id":"cebpf4jnsgd1na2vs0mg"},{"bike_id":"3bb5843f-e845-43f5-b69c-3daa03beabbb","system_id":"levelo_inurba_marseille","lat":43.23155,"lon":5.43713,"is_reserved":false,"is_disabled":false,"rental_uris":{"android":"levelo://app?vid=3bb5843f-e845-43f5-b69c-3daa03beabbb","ios":"levelo://app?vid=3bb5843f-e845-43f5-b69c-3daa03beabbb"},"vehicle_type_id":"4","last_reported":1745241602,"current_range_meters":10000,"station_id":"ce4bhmp2rcd13ifvqgog","pricing_plan_id":"cebpf4jnsgd1na2vs0mg"},{"bike_id":"524555ee-bf4a-4b08-ac27-9f4ffede1967","system_id":"levelo_inurba_marseille","lat":43.28261,"lon":5.35055,"is_reserved":false,"is_disabled":false,"rental_uris":{"android":"levelo://app?vid=524555ee-bf4a-4b08-ac27-9f4ffede1967","ios":"levelo://app?vid=524555ee-bf4a-4b08-ac27-9f4ffede1967"},"vehicle_type_id":"4","last_reported":1745241602,"current_range_meters":4400,"station_id":"ce4bhbp2rcd13ifvqerg","pricing_plan_id":"cebpf4jnsgd1na2vs0mg"},{"bike_id":"6996d513-ee17-4c16-9f25-1167a06858c7","system_id":"levelo_inurba_marseille","lat":43.23192,"lon":5.35551,"is_reserved":false,"is_disabled":false,"rental_uris":{"android":"levelo://app?vid=6996d513-ee17-4c16-9f25-1167a06858c7","ios":"levelo://app?vid=6996d513-ee17-4c16-9f25-1167a06858c7"},"vehicle_type_id":"4","last_reported":1745241602,"current_range_meters":10000,"station_id":"ce4bhu92rcd13ifvqi70","pricing_plan_id":"cebpf4jnsgd1na2vs0mg"},{"bike_id":"08adba7b-eac3-4cfc-9923-2ccf0cc4ffef","system_id":"levelo_inurba_marseille","lat":43.245344,"lon":5.413008,"is_reserved":false,"is_disabled":false,"rental_uris":{"android":"levelo://app?vid=08adba7b-eac3-4cfc-9923-2ccf0cc4ffef","ios":"levelo://app?vid=08adba7b-eac3-4cfc-9923-2ccf0cc4ffef"},"vehicle_type_id":"4","last_reported":1745241602,"current_range_meters":10000,"station_id":"","pricing_plan_id":"cebpf4jnsgd1na2vs0mg"},{"bike_id":"233f2108-291f-422d-94dd-fb23bce0e7f4","system_id":"levelo_inurba_marseille","lat":43.26692,"lon":5.38265,"is_reserved":false,"is_disabled":false,"rental_uris":{"android":"levelo://app?vid=233f2108-291f-422d-94dd-fb23bce0e7f4","ios":"levelo://app?vid=233f2108-291f-422d-94dd-fb23bce0e7f4"},"vehicle_type_id":"4","last_reported":1745241602,"current_range_meters":10000,"station_id":"ce4bhg92rcd13ifvqf90","pricing_plan_id":"cebpf4jnsgd1na2vs0mg"},{"bike_id":"2fa20a0c-bab2-4c67-ac65-00c48f84aa65","system_id":"levelo_inurba_marseille","lat":43.24387,"lon":5.37055,"is_reserved":false,"is_disabled":false,"rental_uris":{"android":"levelo://app?vid=2fa20a0c-bab2-4c67-ac65-00c48f84aa65","ios":"levelo://app?vid=2fa20a0c-bab2-4c67-ac65-00c48f84aa65"},"vehicle_type_id":"4","last_reported":1745241602,"current_range_meters":9600,"station_id":"ce4bhhh2rcd13ifvqfk0","pricing_plan_id":"cebpf4jnsgd1na2vs0mg"},{"bike_id":"9f27c4a9-4346-44a8-bcff-53ed4205765f","system_id":"levelo_inurba_marseille","lat":43.24386,"lon":5.37055,"is_reserved":false,"is_disabled":false,"rental_uris":{"android":"levelo://app?vid=9f27c4a9-4346-44a8-bcff-53ed4205765f","ios":"levelo://app?vid=9f27c4a9-4346-44a8-bcff-53ed4205765f"},"vehicle_type_id":"4","last_reported":1745241602,"current_range_meters":10000,"station_id":"ce4bhhh2rcd13ifvqfk0","pricing_plan_id":"cebpf4jnsgd1na2vs0mg"},{"bike_id":"9763a0c2-7c80-4d35-8dfb-24a07333c437","system_id":"levelo_inurba_marseille","lat":43.22501,"lon":5.34786,"is_reserved":false,"is_disabled":false,"rental_uris":{"android":"levelo://app?vid=9763a0c2-7c80-4d35-8dfb-24a07333c437","ios":"levelo://app?vid=9763a0c2-7c80-4d35-8dfb-24a07333c437"},"vehicle_type_id":"4","last_reported":1745241602,"current_range_meters":10800,"station_id":"st_cvj5dfep6f1abm77gieg","pricing_plan_id":"cebpf4jnsgd1na2vs0mg"},{"bike_id":"a91db215-1dd6-4b46-93fc-491bb02936ed","system_id":"levelo_inurba_marseille","lat":43.23146,"lon":5.43719,"is_reserved":false,"is_disabled":false,"rental_uris":{"android":"levelo://app?vid=a91db215-1dd6-4b46-93fc-491bb02936ed","ios":"levelo://app?vid=a91db215-1dd6-4b46-93fc-491bb02936ed"},"vehicle_type_id":"4","last_reported":1745241602,"current_range_meters":10800,"station_id":"ce4bhmp2rcd13ifvqgog","pricing_plan_id":"cebpf4jnsgd1na2vs0mg"},{"bike_id":"6357c32d-8df8-4c5b-a3dc-bcf5b3f65f0b","system_id":"levelo_inurba_marseille","lat":43.286122,"lon":5.351026,"is_reserved":false,"is_disabled":false,"rental_uris":{"android":"levelo://app?vid=6357c32d-8df8-4c5b-a3dc-bcf5b3f65f0b","ios":"levelo://app?vid=6357c32d-8df8-4c5b-a3dc-bcf5b3f65f0b"},"vehicle_type_id":"4","last_reported":1745241602,"current_range_meters":11200,"station_id":"ce4bhnp2rcd13ifvqgvg","pricing_plan_id":"cebpf4jnsgd1na2vs0mg"},{"bike_id":"2d4adf37-799c-47c4-8a74-57f8fc763462","system_id":"levelo_inurba_marseille","lat":43.260318,"lon":5.417469,"is_reserved":false,"is_disabled":false,"rental_uris":{"android":"levelo://app?vid=2d4adf37-799c-47c4-8a74-57f8fc763462","ios":"levelo://app?vid=2d4adf37-799c-47c4-8a74-57f8fc763462"},"vehicle_type_id":"4","last_reported":1745241602,"current_range_meters":11200,"station_id":"","pricing_plan_id":"cebpf4jnsgd1na2vs0mg"},{"bike_id":"48c9cafd-c176-4c5a-964a-d8257a511e6f","system_id":"levelo_inurba_marseille","lat":43.24802,"lon":5.37452,"is_reserved":false,"is_disabled":false,"rental_uris":{"android":"levelo://app?vid=48c9cafd-c176-4c5a-964a-d8257a511e6f","ios":"levelo://app?vid=48c9cafd-c176-4c5a-964a-d8257a511e6f"},"vehicle_type_id":"4","last_reported":1745241602,"current_range_meters":11200,"station_id":"ce4bhgh2rcd13ifvqfb0","pricing_plan_id":"cebpf4jnsgd1na2vs0mg"},{"bike_id":"76eff4e7-6334-45d4-867d-68fc54a86998","system_id":"levelo_inurba_marseille","lat":43.28415,"lon":5.34981,"is_reserved":false,"is_disabled":false,"rental_uris":{"android":"levelo://app?vid=76eff4e7-6334-45d4-867d-68fc54a86998","ios":"levelo://app?vid=76eff4e7-6334-45d4-867d-68fc54a86998"},"vehicle_type_id":"4","last_reported":1745241602,"current_range_meters":11200,"station_id":"ce4bhbh2rcd13ifvqepg","pricing_plan_id":"cebpf4jnsgd1na2vs0mg"},{"bike_id":"26a31d78-4b30-4adc-b3ae-c5c4b65154fc","system_id":"levelo_inurba_marseille","lat":43.22503,"lon":5.34792,"is_reserved":false,"is_disabled":false,"rental_uris":{"android":"levelo://app?vid=26a31d78-4b30-4adc-b3ae-c5c4b65154fc","ios":"levelo://app?vid=26a31d78-4b30-4adc-b3ae-c5c4b65154fc"},"vehicle_type_id":"4","last_reported":1745241602,"current_range_meters":11600,"station_id":"st_cvj5dfep6f1abm77gieg","pricing_plan_id":"cebpf4jnsgd1na2vs0mg"},{"bike_id":"5b45984f-79c7-4480-b822-a957c8c061f1","system_id":"levelo_inurba_marseille","lat":43.28615,"lon":5.351,"is_reserved":false,"is_disabled":false,"rental_uris":{"android":"levelo://app?vid=5b45984f-79c7-4480-b822-a957c8c061f1","ios":"levelo://app?vid=5b45984f-79c7-4480-b822-a957c8c061f1"},"vehicle_type_id":"4","last_reported":1745241602,"current_range_meters":11600,"station_id":"ce4bhch2rcd13ifvqeug","pricing_plan_id":"cebpf4jnsgd1na2vs0mg"},{"bike_id":"2bf3c47c-b638-45d2-b81c-318f9b50b88b","system_id":"levelo_inurba_marseille","lat":43.23148,"lon":5.4371,"is_reserved":false,"is_disabled":false,"rental_uris":{"android":"levelo://app?vid=2bf3c47c-b638-45d2-b81c-318f9b50b88b","ios":"levelo://app?vid=2bf3c47c-b638-45d2-b81c-318f9b50b88b"},"vehicle_type_id":"4","last_reported":1745241602,"current_range_meters":11600,"station_id":"ce4bhmp2rcd13ifvqgog","pricing_plan_id":"cebpf4jnsgd1na2vs0mg"},{"bike_id":"f3e693c9-106a-477b-aada-0c03c2910d50","system_id":"levelo_inurba_marseille","lat":43.21188,"lon":5.35067,"is_reserved":false,"is_disabled":false,"rental_uris":{"android":"levelo://app?vid=f3e693c9-106a-477b-aada-0c03c2910d50","ios":"levelo://app?vid=f3e693c9-106a-477b-aada-0c03c2910d50"},"vehicle_type_id":"4","last_reported":1745241602,"current_range_meters":12000,"station_id":"st_cvj6sg6p6f1abm77japg","pricing_plan_id":"cebpf4jnsgd1na2vs0mg"},{"bike_id":"1c755526-7610-4241-9257-348acde561d3","system_id":"levelo_inurba_marseille","lat":43.248532,"lon":5.38209,"is_reserved":false,"is_disabled":false,"rental_uris":{"android":"levelo://app?vid=1c755526-7610-4241-9257-348acde561d3","ios":"levelo://app?vid=1c755526-7610-4241-9257-348acde561d3"},"vehicle_type_id":"4","last_reported":1745241602,"current_range_meters":12000,"station_id":"","pricing_plan_id":"cebpf4jnsgd1na2vs0mg"},{"bike_id":"3b0eea9a-4ae4-428c-9021-19babc4ebfcf","system_id":"levelo_inurba_marseille","lat":43.23195,"lon":5.35565,"is_reserved":false,"is_disabled":false,"rental_uris":{"android":"levelo://app?vid=3b0eea9a-4ae4-428c-9021-19babc4ebfcf","ios":"levelo://app?vid=3b0eea9a-4ae4-428c-9021-19babc4ebfcf"},"vehicle_type_id":"4","last_reported":1745241602,"current_range_meters":12000,"station_id":"ce4bhu92rcd13ifvqi70","pricing_plan_id":"cebpf4jnsgd1na2vs0mg"},{"bike_id":"04205e45-1d26-4d18-b985-3d29aec033bc","system_id":"levelo_inurba_marseille","lat":43.28264,"lon":5.35068,"is_reserved":false,"is_disabled":false,"rental_uris":{"android":"levelo://app?vid=04205e45-1d26-4d18-b985-3d29aec033bc","ios":"levelo://app?vid=04205e45-1d26-4d18-b985-3d29aec033bc"},"vehicle_type_id":"4","last_reported":1745241602,"current_range_meters":12000,"station_id":"ce4bhah2rcd13ifvqei0","pricing_plan_id":"cebpf4jnsgd1na2vs0mg"},{"bike_id":"fe590b75-cd21-4ba0-aae4-66f11a96ad83","system_id":"levelo_inurba_marseille","lat":43.287103,"lon":5.379334,"is_reserved":false,"is_disabled":false,"rental_uris":{"android":"levelo://app?vid=fe590b75-cd21-4ba0-aae4-66f11a96ad83","ios":"levelo://app?vid=fe590b75-cd21-4ba0-aae4-66f11a96ad83"},"vehicle_type_id":"4","last_reported":1745241602,"current_range_meters":11600,"station_id":"ce4bh9p2rcd13ifvqec0","pricing_plan_id":"cebpf4jnsgd1na2vs0mg"},{"bike_id":"6a88aa6f-178d-4204-9ade-3133045c580b","system_id":"levelo_inurba_marseille","lat":43.23959,"lon":5.36638,"is_reserved":false,"is_disabled":true,"rental_uris":{"android":"levelo://app?vid=6a88aa6f-178d-4204-9ade-3133045c580b","ios":"levelo://app?vid=6a88aa6f-178d-4204-9ade-3133045c580b"},"vehicle_type_id":"4","last_reported":1745241602,"current_range_meters":12000,"station_id":"ce4bhi12rcd13ifvqfp0","pricing_plan_id":"cebpf4jnsgd1na2vs0mg"},{"bike_id":"eae94287-67a2-4647-b8f7-85990f1c374e","system_id":"levelo_inurba_marseille","lat":43.31262,"lon":5.40164,"is_reserved":false,"is_disabled":false,"rental_uris":{"android":"levelo://app?vid=eae94287-67a2-4647-b8f7-85990f1c374e","ios":"levelo://app?vid=eae94287-67a2-4647-b8f7-85990f1c374e"},"vehicle_type_id":"4","last_reported":1745241602,"current_range_meters":12000,"station_id":"ce4bh092rcd13ifvqd30","pricing_plan_id":"cebpf4jnsgd1na2vs0mg"},{"bike_id":"21af067e-cc39-4d9d-86d2-9d3a3c193c78","system_id":"levelo_inurba_marseille","lat":43.26026,"lon":5.37549,"is_reserved":false,"is_disabled":false,"rental_uris":{"android":"levelo://app?vid=21af067e-cc39-4d9d-86d2-9d3a3c193c78","ios":"levelo://app?vid=21af067e-cc39-4d9d-86d2-9d3a3c193c78"},"vehicle_type_id":"4","last_reported":1745241602,"current_range_meters":12000,"station_id":"ce4bhgh2rcd13ifvqfa0","pricing_plan_id":"cebpf4jnsgd1na2vs0mg"},{"bike_id":"c5b28247-86cb-498f-8aea-1b27bc5053fc","system_id":"levelo_inurba_marseille","lat":43.2396,"lon":5.3663,"is_reserved":false,"is_disabled":false,"rental_uris":{"android":"levelo://app?vid=c5b28247-86cb-498f-8aea-1b27bc5053fc","ios":"levelo://app?vid=c5b28247-86cb-498f-8aea-1b27bc5053fc"},"vehicle_type_id":"4","last_reported":1745241602,"current_range_meters":13600,"station_id":"ce4bhi12rcd13ifvqfp0","pricing_plan_id":"cebpf4jnsgd1na2vs0mg"},{"bike_id":"32d0135b-a1cc-4804-9ddc-acacb7254159","system_id":"levelo_inurba_marseille","lat":43.32326,"lon":5.40637,"is_reserved":false,"is_disabled":false,"rental_uris":{"android":"levelo://app?vid=32d0135b-a1cc-4804-9ddc-acacb7254159","ios":"levelo://app?vid=32d0135b-a1cc-4804-9ddc-acacb7254159"},"vehicle_type_id":"4","last_reported":1745241602,"current_range_meters":13600,"station_id":"ce4bhq92rcd13ifvqhjg","pricing_plan_id":"cebpf4jnsgd1na2vs0mg"},{"bike_id":"6ff41629-37fe-4b76-a72c-8c570dc1d96d","system_id":"levelo_inurba_marseille","lat":43.337341,"lon":5.391855,"is_reserved":false,"is_disabled":false,"rental_uris":{"android":"levelo://app?vid=6ff41629-37fe-4b76-a72c-8c570dc1d96d","ios":"levelo://app?vid=6ff41629-37fe-4b76-a72c-8c570dc1d96d"},"vehicle_type_id":"4","last_reported":1745241602,"current_range_meters":13600,"station_id":"ce4bhr92rcd13ifvqhsg","pricing_plan_id":"cebpf4jnsgd1na2vs0mg"},{"bike_id":"505267e1-ee4c-49ec-89f5-51ade884ab6a","system_id":"levelo_inurba_marseille","lat":43.23148,"lon":5.43709,"is_reserved":false,"is_disabled":false,"rental_uris":{"android":"levelo://app?vid=505267e1-ee4c-49ec-89f5-51ade884ab6a","ios":"levelo://app?vid=505267e1-ee4c-49ec-89f5-51ade884ab6a"},"vehicle_type_id":"4","last_reported":1745241602,"current_range_meters":13600,"station_id":"ce4bhmp2rcd13ifvqgog","pricing_plan_id":"cebpf4jnsgd1na2vs0mg"},{"bike_id":"d833f896-c9c9-4ebb-9362-a458ef5189b8","system_id":"levelo_inurba_marseille","lat":43.28259,"lon":5.35063,"is_reserved":false,"is_disabled":false,"rental_uris":{"android":"levelo://app?vid=d833f896-c9c9-4ebb-9362-a458ef5189b8","ios":"levelo://app?vid=d833f896-c9c9-4ebb-9362-a458ef5189b8"},"vehicle_type_id":"4","last_reported":1745241602,"current_range_meters":13600,"station_id":"ce4bhbp2rcd13ifvqerg","pricing_plan_id":"cebpf4jnsgd1na2vs0mg"},{"bike_id":"b52b9383-70a6-4483-8ef1-20533ea5a1d0","system_id":"levelo_inurba_marseille","lat":43.27367,"lon":5.3624,"is_reserved":false,"is_disabled":false,"rental_uris":{"android":"levelo://app?vid=b52b9383-70a6-4483-8ef1-20533ea5a1d0","ios":"levelo://app?vid=b52b9383-70a6-4483-8ef1-20533ea5a1d0"},"vehicle_type_id":"4","last_reported":1745241602,"current_range_meters":13600,"station_id":"ce4bhbh2rcd13ifvqeo0","pricing_plan_id":"cebpf4jnsgd1na2vs0mg"},{"bike_id":"e77ae347-f37e-4c4c-969c-28c30cf9cb72","system_id":"levelo_inurba_marseille","lat":43.23962,"lon":5.36648,"is_reserved":false,"is_disabled":false,"rental_uris":{"android":"levelo://app?vid=e77ae347-f37e-4c4c-969c-28c30cf9cb72","ios":"levelo://app?vid=e77ae347-f37e-4c4c-969c-28c30cf9cb72"},"vehicle_type_id":"4","last_reported":1745241602,"current_range_meters":13600,"station_id":"ce4bhi12rcd13ifvqfp0","pricing_plan_id":"cebpf4jnsgd1na2vs0mg"},{"bike_id":"3af83e36-0403-44f1-80de-69fbc5b7a8e7","system_id":"levelo_inurba_marseille","lat":43.230673,"lon":5.3549,"is_reserved":false,"is_disabled":false,"rental_uris":{"android":"levelo://app?vid=3af83e36-0403-44f1-80de-69fbc5b7a8e7","ios":"levelo://app?vid=3af83e36-0403-44f1-80de-69fbc5b7a8e7"},"vehicle_type_id":"4","last_reported":1745241602,"current_range_meters":14000,"station_id":"cpo3342slgdg3j2ifvpg","pricing_plan_id":"cebpf4jnsgd1na2vs0mg"},{"bike_id":"23f0d44a-a07d-4a50-8248-1c7075376bb7","system_id":"levelo_inurba_marseille","lat":43.26179,"lon":5.37917,"is_reserved":false,"is_disabled":false,"rental_uris":{"android":"levelo://app?vid=23f0d44a-a07d-4a50-8248-1c7075376bb7","ios":"levelo://app?vid=23f0d44a-a07d-4a50-8248-1c7075376bb7"},"vehicle_type_id":"4","last_reported":1745241602,"current_range_meters":14000,"station_id":"ce4bhjp2rcd13ifvqg90","pricing_plan_id":"cebpf4jnsgd1na2vs0mg"},{"bike_id":"a567e3aa-50b1-48de-88c7-ba55d41ddd2a","system_id":"levelo_inurba_marseille","lat":43.28268,"lon":5.3507,"is_reserved":false,"is_disabled":false,"rental_uris":{"android":"levelo://app?vid=a567e3aa-50b1-48de-88c7-ba55d41ddd2a","ios":"levelo://app?vid=a567e3aa-50b1-48de-88c7-ba55d41ddd2a"},"vehicle_type_id":"4","last_reported":1745241602,"current_range_meters":14000,"station_id":"ce4bhbp2rcd13ifvqerg","pricing_plan_id":"cebpf4jnsgd1na2vs0mg"},{"bike_id":"7e827207-278e-4566-9d79-1cd46f5650e2","system_id":"levelo_inurba_marseille","lat":43.28271,"lon":5.35058,"is_reserved":false,"is_disabled":false,"rental_uris":{"android":"levelo://app?vid=7e827207-278e-4566-9d79-1cd46f5650e2","ios":"levelo://app?vid=7e827207-278e-4566-9d79-1cd46f5650e2"},"vehicle_type_id":"4","last_reported":1745241602,"current_range_meters":14400,"station_id":"ce4bhbp2rcd13ifvqerg","pricing_plan_id":"cebpf4jnsgd1na2vs0mg"},{"bike_id":"6fe40365-5184-49ed-a78c-be12e5d784ea","system_id":"levelo_inurba_marseille","lat":43.302205,"lon":5.399945,"is_reserved":false,"is_disabled":false,"rental_uris":{"android":"levelo://app?vid=6fe40365-5184-49ed-a78c-be12e5d784ea","ios":"levelo://app?vid=6fe40365-5184-49ed-a78c-be12e5d784ea"},"vehicle_type_id":"4","last_reported":1745241602,"current_range_meters":14400,"station_id":"ce4bgvh2rcd13ifvqcs0","pricing_plan_id":"cebpf4jnsgd1na2vs0mg"},{"bike_id":"1ae85bbb-f179-4165-8cb0-de754d6e0939","system_id":"levelo_inurba_marseille","lat":43.23208,"lon":5.39947,"is_reserved":false,"is_disabled":false,"rental_uris":{"android":"levelo://app?vid=1ae85bbb-f179-4165-8cb0-de754d6e0939","ios":"levelo://app?vid=1ae85bbb-f179-4165-8cb0-de754d6e0939"},"vehicle_type_id":"4","last_reported":1745241602,"current_range_meters":14400,"station_id":"ce4bhn12rcd13ifvqgqg","pricing_plan_id":"cebpf4jnsgd1na2vs0mg"},{"bike_id":"f02a624f-cd27-4d18-807d-7a3fe2349a9d","system_id":"levelo_inurba_marseille","lat":43.273695,"lon":5.362579,"is_reserved":false,"is_disabled":false,"rental_uris":{"android":"levelo://app?vid=f02a624f-cd27-4d18-807d-7a3fe2349a9d","ios":"levelo://app?vid=f02a624f-cd27-4d18-807d-7a3fe2349a9d"},"vehicle_type_id":"4","last_reported":1745241602,"current_range_meters":14400,"station_id":"","pricing_plan_id":"cebpf4jnsgd1na2vs0mg"},{"bike_id":"6a6d8e3f-cf68-4084-b141-59d40a9cea4d","system_id":"levelo_inurba_marseille","lat":43.23958,"lon":5.36631,"is_reserved":false,"is_disabled":false,"rental_uris":{"android":"levelo://app?vid=6a6d8e3f-cf68-4084-b141-59d40a9cea4d","ios":"levelo://app?vid=6a6d8e3f-cf68-4084-b141-59d40a9cea4d"},"vehicle_type_id":"4","last_reported":1745241602,"current_range_meters":14800,"station_id":"ce4bhi12rcd13ifvqfp0","pricing_plan_id":"cebpf4jnsgd1na2vs0mg"},{"bike_id":"32316441-2f73-412a-8699-d142f6cd7b95","system_id":"levelo_inurba_marseille","lat":43.29565,"lon":5.3752,"is_reserved":false,"is_disabled":false,"rental_uris":{"android":"levelo://app?vid=32316441-2f73-412a-8699-d142f6cd7b95","ios":"levelo://app?vid=32316441-2f73-412a-8699-d142f6cd7b95"},"vehicle_type_id":"4","last_reported":1745241602,"current_range_meters":14800,"station_id":"ce4bgh92rcd13ifvqb50","pricing_plan_id":"cebpf4jnsgd1na2vs0mg"},{"bike_id":"2dc4e79a-33a8-48b0-bf03-f6328f1dc1f6","system_id":"levelo_inurba_marseille","lat":43.3238,"lon":5.38886,"is_reserved":false,"is_disabled":true,"rental_uris":{"android":"levelo://app?vid=2dc4e79a-33a8-48b0-bf03-f6328f1dc1f6","ios":"levelo://app?vid=2dc4e79a-33a8-48b0-bf03-f6328f1dc1f6"},"vehicle_type_id":"4","last_reported":1745241602,"current_range_meters":14800,"station_id":"ce4bhqp2rcd13ifvqhog","pricing_plan_id":"cebpf4jnsgd1na2vs0mg"},{"bike_id":"5e1b1d96-8fc3-4e48-9d1d-d2fb20966ab0","system_id":"levelo_inurba_marseille","lat":43.298369,"lon":5.37094,"is_reserved":false,"is_disabled":false,"rental_uris":{"android":"levelo://app?vid=5e1b1d96-8fc3-4e48-9d1d-d2fb20966ab0","ios":"levelo://app?vid=5e1b1d96-8fc3-4e48-9d1d-d2fb20966ab0"},"vehicle_type_id":"4","last_reported":1745241602,"current_range_meters":14400,"station_id":"ce4bgop2rcd13ifvqc1g","pricing_plan_id":"cebpf4jnsgd1na2vs0mg"},{"bike_id":"a1dd0ac5-c803-4808-b92f-32126a31934e","system_id":"levelo_inurba_marseille","lat":43.2737,"lon":5.36255,"is_reserved":false,"is_disabled":false,"rental_uris":{"android":"levelo://app?vid=a1dd0ac5-c803-4808-b92f-32126a31934e","ios":"levelo://app?vid=a1dd0ac5-c803-4808-b92f-32126a31934e"},"vehicle_type_id":"4","last_reported":1745241602,"current_range_meters":14800,"station_id":"ce4bhbh2rcd13ifvqeo0","pricing_plan_id":"cebpf4jnsgd1na2vs0mg"},{"bike_id":"e6be21ec-d143-4de5-98e0-79740507a349","system_id":"levelo_inurba_marseille","lat":43.2314,"lon":5.43718,"is_reserved":false,"is_disabled":false,"rental_uris":{"android":"levelo://app?vid=e6be21ec-d143-4de5-98e0-79740507a349","ios":"levelo://app?vid=e6be21ec-d143-4de5-98e0-79740507a349"},"vehicle_type_id":"4","last_reported":1745241602,"current_range_meters":14800,"station_id":"ce4bhmp2rcd13ifvqgog","pricing_plan_id":"cebpf4jnsgd1na2vs0mg"},{"bike_id":"d8b3394b-d95a-4860-864b-a186af8be01c","system_id":"levelo_inurba_marseille","lat":43.30378,"lon":5.42492,"is_reserved":false,"is_disabled":false,"rental_uris":{"android":"levelo://app?vid=d8b3394b-d95a-4860-864b-a186af8be01c","ios":"levelo://app?vid=d8b3394b-d95a-4860-864b-a186af8be01c"},"vehicle_type_id":"4","last_reported":1745241602,"current_range_meters":15200,"station_id":"ce4bhoh2rcd13ifvqh6g","pricing_plan_id":"cebpf4jnsgd1na2vs0mg"},{"bike_id":"78b5cb61-f96c-4152-8e97-e4267f587a05","system_id":"levelo_inurba_marseille","lat":43.270875,"lon":5.363008,"is_reserved":false,"is_disabled":false,"rental_uris":{"android":"levelo://app?vid=78b5cb61-f96c-4152-8e97-e4267f587a05","ios":"levelo://app?vid=78b5cb61-f96c-4152-8e97-e4267f587a05"},"vehicle_type_id":"4","last_reported":1745241602,"current_range_meters":14800,"station_id":"ce4bh192rcd13ifvqdd0","pricing_plan_id":"cebpf4jnsgd1na2vs0mg"},{"bike_id":"025cf599-8657-4067-9aec-c4b199d62d65","system_id":"levelo_inurba_marseille","lat":43.31083,"lon":5.42434,"is_reserved":false,"is_disabled":false,"rental_uris":{"android":"levelo://app?vid=025cf599-8657-4067-9aec-c4b199d62d65","ios":"levelo://app?vid=025cf599-8657-4067-9aec-c4b199d62d65"},"vehicle_type_id":"4","last_reported":1745241602,"current_range_meters":15200,"station_id":"ce4bhp92rcd13ifvqhag","pricing_plan_id":"cebpf4jnsgd1na2vs0mg"},{"bike_id":"693e6691-a3bc-4030-bc82-a153101ac4f1","system_id":"levelo_inurba_marseille","lat":43.22932,"lon":5.35367,"is_reserved":false,"is_disabled":false,"rental_uris":{"android":"levelo://app?vid=693e6691-a3bc-4030-bc82-a153101ac4f1","ios":"levelo://app?vid=693e6691-a3bc-4030-bc82-a153101ac4f1"},"vehicle_type_id":"4","last_reported":1745241602,"current_range_meters":15200,"station_id":"cpo3532slgdg3j2ikp40","pricing_plan_id":"cebpf4jnsgd1na2vs0mg"},{"bike_id":"9f875adf-a222-4032-a948-6a5830d068ee","system_id":"levelo_inurba_marseille","lat":43.23189,"lon":5.35551,"is_reserved":false,"is_disabled":false,"rental_uris":{"android":"levelo://app?vid=9f875adf-a222-4032-a948-6a5830d068ee","ios":"levelo://app?vid=9f875adf-a222-4032-a948-6a5830d068ee"},"vehicle_type_id":"4","last_reported":1745241602,"current_range_meters":16000,"station_id":"ce4bhu92rcd13ifvqi70","pricing_plan_id":"cebpf4jnsgd1na2vs0mg"},{"bike_id":"feb616d0-d13b-4a68-8746-04a164b17783","system_id":"levelo_inurba_marseille","lat":43.248016,"lon":5.374514,"is_reserved":false,"is_disabled":false,"rental_uris":{"android":"levelo://app?vid=feb616d0-d13b-4a68-8746-04a164b17783","ios":"levelo://app?vid=feb616d0-d13b-4a68-8746-04a164b17783"},"vehicle_type_id":"4","last_reported":1745241602,"current_range_meters":16000,"station_id":"ce4bhgh2rcd13ifvqfb0","pricing_plan_id":"cebpf4jnsgd1na2vs0mg"},{"bike_id":"33bbfabd-6f40-47fa-a0fc-4a77604d4e1a","system_id":"levelo_inurba_marseille","lat":43.22031,"lon":5.34632,"is_reserved":false,"is_disabled":false,"rental_uris":{"android":"levelo://app?vid=33bbfabd-6f40-47fa-a0fc-4a77604d4e1a","ios":"levelo://app?vid=33bbfabd-6f40-47fa-a0fc-4a77604d4e1a"},"vehicle_type_id":"4","last_reported":1745241602,"current_range_meters":16000,"station_id":"","pricing_plan_id":"cebpf4jnsgd1na2vs0mg"},{"bike_id":"e4ff3e27-6ec4-4fea-9ed1-5682b4527bc8","system_id":"levelo_inurba_marseille","lat":43.29849,"lon":5.36282,"is_reserved":false,"is_disabled":false,"rental_uris":{"android":"levelo://app?vid=e4ff3e27-6ec4-4fea-9ed1-5682b4527bc8","ios":"levelo://app?vid=e4ff3e27-6ec4-4fea-9ed1-5682b4527bc8"},"vehicle_type_id":"4","last_reported":1745241602,"current_range_meters":16000,"station_id":"ce4bgpp2rcd13ifvqc3g","pricing_plan_id":"cebpf4jnsgd1na2vs0mg"},{"bike_id":"ba3d2618-c653-45f9-bf2b-af3961fd0342","system_id":"levelo_inurba_marseille","lat":43.2861,"lon":5.37059,"is_reserved":false,"is_disabled":false,"rental_uris":{"android":"levelo://app?vid=ba3d2618-c653-45f9-bf2b-af3961fd0342","ios":"levelo://app?vid=ba3d2618-c653-45f9-bf2b-af3961fd0342"},"vehicle_type_id":"4","last_reported":1745241602,"current_range_meters":16000,"station_id":"ce4bht12rcd13ifvqi60","pricing_plan_id":"cebpf4jnsgd1na2vs0mg"},{"bike_id":"033c0f7c-a33a-4501-903f-779d2a476f6b","system_id":"levelo_inurba_marseille","lat":43.2396,"lon":5.36625,"is_reserved":false,"is_disabled":false,"rental_uris":{"android":"levelo://app?vid=033c0f7c-a33a-4501-903f-779d2a476f6b","ios":"levelo://app?vid=033c0f7c-a33a-4501-903f-779d2a476f6b"},"vehicle_type_id":"4","last_reported":1745241602,"current_range_meters":16000,"station_id":"ce4bhi12rcd13ifvqfp0","pricing_plan_id":"cebpf4jnsgd1na2vs0mg"},{"bike_id":"5ce20279-94b9-4dd4-9dd7-5c4983189150","system_id":"levelo_inurba_marseille","lat":43.27184,"lon":5.40984,"is_reserved":false,"is_disabled":false,"rental_uris":{"android":"levelo://app?vid=5ce20279-94b9-4dd4-9dd7-5c4983189150","ios":"levelo://app?vid=5ce20279-94b9-4dd4-9dd7-5c4983189150"},"vehicle_type_id":"4","last_reported":1745241602,"current_range_meters":16000,"station_id":"ce4bhl12rcd13ifvqgf0","pricing_plan_id":"cebpf4jnsgd1na2vs0mg"},{"bike_id":"4032f117-3871-440d-a041-2d606036424c","system_id":"levelo_inurba_marseille","lat":43.24164,"lon":5.36398,"is_reserved":false,"is_disabled":false,"rental_uris":{"android":"levelo://app?vid=4032f117-3871-440d-a041-2d606036424c","ios":"levelo://app?vid=4032f117-3871-440d-a041-2d606036424c"},"vehicle_type_id":"4","last_reported":1745241602,"current_range_meters":16000,"station_id":"cpo36qri1sfpv3e86is0","pricing_plan_id":"cebpf4jnsgd1na2vs0mg"},{"bike_id":"5151fa4d-cd7f-42d0-9fa2-4b32526bb904","system_id":"levelo_inurba_marseille","lat":43.241755,"lon":5.39708,"is_reserved":false,"is_disabled":true,"rental_uris":{"android":"levelo://app?vid=5151fa4d-cd7f-42d0-9fa2-4b32526bb904","ios":"levelo://app?vid=5151fa4d-cd7f-42d0-9fa2-4b32526bb904"},"vehicle_type_id":"4","last_reported":1745241602,"current_range_meters":16400,"station_id":"ce4bhn12rcd13ifvqgpg","pricing_plan_id":"cebpf4jnsgd1na2vs0mg"},{"bike_id":"f718fdb9-7d03-4510-a401-0de2dfaec0aa","system_id":"levelo_inurba_marseille","lat":43.2736,"lon":5.36229,"is_reserved":false,"is_disabled":false,"rental_uris":{"android":"levelo://app?vid=f718fdb9-7d03-4510-a401-0de2dfaec0aa","ios":"levelo://app?vid=f718fdb9-7d03-4510-a401-0de2dfaec0aa"},"vehicle_type_id":"4","last_reported":1745241602,"current_range_meters":16400,"station_id":"ce4bhbh2rcd13ifvqeo0","pricing_plan_id":"cebpf4jnsgd1na2vs0mg"},{"bike_id":"329ddae1-d1d8-451f-8cbb-7cedf5baa337","system_id":"levelo_inurba_marseille","lat":43.24798,"lon":5.37453,"is_reserved":false,"is_disabled":false,"rental_uris":{"android":"levelo://app?vid=329ddae1-d1d8-451f-8cbb-7cedf5baa337","ios":"levelo://app?vid=329ddae1-d1d8-451f-8cbb-7cedf5baa337"},"vehicle_type_id":"4","last_reported":1745241602,"current_range_meters":16400,"station_id":"ce4bhgh2rcd13ifvqfb0","pricing_plan_id":"cebpf4jnsgd1na2vs0mg"},{"bike_id":"d34fd1ce-e831-4584-b4fe-96a621b1f3ba","system_id":"levelo_inurba_marseille","lat":43.27881,"lon":5.41014,"is_reserved":false,"is_disabled":false,"rental_uris":{"android":"levelo://app?vid=d34fd1ce-e831-4584-b4fe-96a621b1f3ba","ios":"levelo://app?vid=d34fd1ce-e831-4584-b4fe-96a621b1f3ba"},"vehicle_type_id":"4","last_reported":1745241602,"current_range_meters":16400,"station_id":"","pricing_plan_id":"cebpf4jnsgd1na2vs0mg"},{"bike_id":"88412a07-3e47-496c-994c-7c8a676ce2ea","system_id":"levelo_inurba_marseille","lat":43.28264,"lon":5.35061,"is_reserved":false,"is_disabled":false,"rental_uris":{"android":"levelo://app?vid=88412a07-3e47-496c-994c-7c8a676ce2ea","ios":"levelo://app?vid=88412a07-3e47-496c-994c-7c8a676ce2ea"},"vehicle_type_id":"4","last_reported":1745241602,"current_range_meters":16400,"station_id":"ce4bhbp2rcd13ifvqerg","pricing_plan_id":"cebpf4jnsgd1na2vs0mg"},{"bike_id":"c681b189-b8fc-4c04-8656-8dbbafad48a5","system_id":"levelo_inurba_marseille","lat":43.28611,"lon":5.35103,"is_reserved":false,"is_disabled":false,"rental_uris":{"android":"levelo://app?vid=c681b189-b8fc-4c04-8656-8dbbafad48a5","ios":"levelo://app?vid=c681b189-b8fc-4c04-8656-8dbbafad48a5"},"vehicle_type_id":"4","last_reported":1745241602,"current_range_meters":16400,"station_id":"ce4bhch2rcd13ifvqeug","pricing_plan_id":"cebpf4jnsgd1na2vs0mg"},{"bike_id":"3d8f6df4-abc4-4304-a545-e16f3b231194","system_id":"levelo_inurba_marseille","lat":43.2781,"lon":5.40701,"is_reserved":false,"is_disabled":false,"rental_uris":{"android":"levelo://app?vid=3d8f6df4-abc4-4304-a545-e16f3b231194","ios":"levelo://app?vid=3d8f6df4-abc4-4304-a545-e16f3b231194"},"vehicle_type_id":"4","last_reported":1745241602,"current_range_meters":16400,"station_id":"ce4bhnh2rcd13ifvqgtg","pricing_plan_id":"cebpf4jnsgd1na2vs0mg"},{"bike_id":"5d515b38-21f5-4fdf-b0d6-8bff8b3f76cd","system_id":"levelo_inurba_marseille","lat":43.23191,"lon":5.35557,"is_reserved":false,"is_disabled":false,"rental_uris":{"android":"levelo://app?vid=5d515b38-21f5-4fdf-b0d6-8bff8b3f76cd","ios":"levelo://app?vid=5d515b38-21f5-4fdf-b0d6-8bff8b3f76cd"},"vehicle_type_id":"4","last_reported":1745241602,"current_range_meters":16400,"station_id":"ce4bhu92rcd13ifvqi70","pricing_plan_id":"cebpf4jnsgd1na2vs0mg"},{"bike_id":"1cf6705d-48c6-4a90-97db-61af9b9fb140","system_id":"levelo_inurba_marseille","lat":43.29857,"lon":5.36284,"is_reserved":false,"is_disabled":false,"rental_uris":{"android":"levelo://app?vid=1cf6705d-48c6-4a90-97db-61af9b9fb140","ios":"levelo://app?vid=1cf6705d-48c6-4a90-97db-61af9b9fb140"},"vehicle_type_id":"4","last_reported":1745241602,"current_range_meters":16800,"station_id":"ce4bgpp2rcd13ifvqc3g","pricing_plan_id":"cebpf4jnsgd1na2vs0mg"},{"bike_id":"afca05cb-9dea-4e13-bae3-b0bd83251e29","system_id":"levelo_inurba_marseille","lat":43.2119,"lon":5.35074,"is_reserved":false,"is_disabled":false,"rental_uris":{"android":"levelo://app?vid=afca05cb-9dea-4e13-bae3-b0bd83251e29","ios":"levelo://app?vid=afca05cb-9dea-4e13-bae3-b0bd83251e29"},"vehicle_type_id":"4","last_reported":1745241602,"current_range_meters":16800,"station_id":"st_cvj6sg6p6f1abm77japg","pricing_plan_id":"cebpf4jnsgd1na2vs0mg"},{"bike_id":"f3bbad32-26cf-4121-a8fd-42c8e0cfb6aa","system_id":"levelo_inurba_marseille","lat":43.231883,"lon":5.355573,"is_reserved":false,"is_disabled":false,"rental_uris":{"android":"levelo://app?vid=f3bbad32-26cf-4121-a8fd-42c8e0cfb6aa","ios":"levelo://app?vid=f3bbad32-26cf-4121-a8fd-42c8e0cfb6aa"},"vehicle_type_id":"4","last_reported":1745241602,"current_range_meters":16800,"station_id":"","pricing_plan_id":"cebpf4jnsgd1na2vs0mg"},{"bike_id":"10c5d023-c699-43ea-b1ee-d06f3fde446d","system_id":"levelo_inurba_marseille","lat":43.23147,"lon":5.43713,"is_reserved":false,"is_disabled":false,"rental_uris":{"android":"levelo://app?vid=10c5d023-c699-43ea-b1ee-d06f3fde446d","ios":"levelo://app?vid=10c5d023-c699-43ea-b1ee-d06f3fde446d"},"vehicle_type_id":"4","last_reported":1745241602,"current_range_meters":16800,"station_id":"ce4bhmp2rcd13ifvqgog","pricing_plan_id":"cebpf4jnsgd1na2vs0mg"},{"bike_id":"52f6683d-5efd-416f-8a0d-a20eea2efb55","system_id":"levelo_inurba_marseille","lat":43.27365,"lon":5.36246,"is_reserved":false,"is_disabled":false,"rental_uris":{"android":"levelo://app?vid=52f6683d-5efd-416f-8a0d-a20eea2efb55","ios":"levelo://app?vid=52f6683d-5efd-416f-8a0d-a20eea2efb55"},"vehicle_type_id":"4","last_reported":1745241602,"current_range_meters":16800,"station_id":"ce4bhbh2rcd13ifvqeo0","pricing_plan_id":"cebpf4jnsgd1na2vs0mg"},{"bike_id":"21dc49ee-0f5f-41d0-a8fb-f4a9120ae712","system_id":"levelo_inurba_marseille","lat":43.21747,"lon":5.346,"is_reserved":false,"is_disabled":false,"rental_uris":{"android":"levelo://app?vid=21dc49ee-0f5f-41d0-a8fb-f4a9120ae712","ios":"levelo://app?vid=21dc49ee-0f5f-41d0-a8fb-f4a9120ae712"},"vehicle_type_id":"4","last_reported":1745241602,"current_range_meters":17200,"station_id":"st_cvj6r9ubvosntc0bgbag","pricing_plan_id":"cebpf4jnsgd1na2vs0mg"},{"bike_id":"14c0ac1f-4a7e-40e4-8459-9e9f75237c8a","system_id":"levelo_inurba_marseille","lat":43.291752,"lon":5.372109,"is_reserved":false,"is_disabled":false,"rental_uris":{"android":"levelo://app?vid=14c0ac1f-4a7e-40e4-8459-9e9f75237c8a","ios":"levelo://app?vid=14c0ac1f-4a7e-40e4-8459-9e9f75237c8a"},"vehicle_type_id":"4","last_reported":1745241602,"current_range_meters":17200,"station_id":"ce4bhap2rcd13ifvqek0","pricing_plan_id":"cebpf4jnsgd1na2vs0mg"},{"bike_id":"9b03aa96-acab-4067-803b-d1b61e474d44","system_id":"levelo_inurba_marseille","lat":43.22933,"lon":5.3538,"is_reserved":false,"is_disabled":false,"rental_uris":{"android":"levelo://app?vid=9b03aa96-acab-4067-803b-d1b61e474d44","ios":"levelo://app?vid=9b03aa96-acab-4067-803b-d1b61e474d44"},"vehicle_type_id":"4","last_reported":1745241602,"current_range_meters":17200,"station_id":"cpo3532slgdg3j2ikp40","pricing_plan_id":"cebpf4jnsgd1na2vs0mg"},{"bike_id":"a6481c89-3c5d-4544-b240-855aadd2a8f7","system_id":"levelo_inurba_marseille","lat":43.23071,"lon":5.35486,"is_reserved":false,"is_disabled":false,"rental_uris":{"android":"levelo://app?vid=a6481c89-3c5d-4544-b240-855aadd2a8f7","ios":"levelo://app?vid=a6481c89-3c5d-4544-b240-855aadd2a8f7"},"vehicle_type_id":"4","last_reported":1745241602,"current_range_meters":17200,"station_id":"cpo3342slgdg3j2ifvpg","pricing_plan_id":"cebpf4jnsgd1na2vs0mg"},{"bike_id":"38cc4dea-a2a9-4c9b-b0a4-bccc13e13d9f","system_id":"levelo_inurba_marseille","lat":43.2619,"lon":5.37451,"is_reserved":false,"is_disabled":true,"rental_uris":{"android":"levelo://app?vid=38cc4dea-a2a9-4c9b-b0a4-bccc13e13d9f","ios":"levelo://app?vid=38cc4dea-a2a9-4c9b-b0a4-bccc13e13d9f"},"vehicle_type_id":"4","last_reported":1745241602,"current_range_meters":17200,"station_id":"ce4bhgp2rcd13ifvqfc0","pricing_plan_id":"cebpf4jnsgd1na2vs0mg"},{"bike_id":"69828736-a1b7-46cb-b550-47c971fed8ca","system_id":"levelo_inurba_marseille","lat":43.28416,"lon":5.34991,"is_reserved":false,"is_disabled":false,"rental_uris":{"android":"levelo://app?vid=69828736-a1b7-46cb-b550-47c971fed8ca","ios":"levelo://app?vid=69828736-a1b7-46cb-b550-47c971fed8ca"},"vehicle_type_id":"4","last_reported":1745241602,"current_range_meters":17200,"station_id":"ce4bhbh2rcd13ifvqepg","pricing_plan_id":"cebpf4jnsgd1na2vs0mg"},{"bike_id":"081ef77d-acc2-494f-86c1-0c2b988c726e","system_id":"levelo_inurba_marseille","lat":43.29552,"lon":5.42289,"is_reserved":false,"is_disabled":false,"rental_uris":{"android":"levelo://app?vid=081ef77d-acc2-494f-86c1-0c2b988c726e","ios":"levelo://app?vid=081ef77d-acc2-494f-86c1-0c2b988c726e"},"vehicle_type_id":"4","last_reported":1745241602,"current_range_meters":17200,"station_id":"ce4bhph2rcd13ifvqhdg","pricing_plan_id":"cebpf4jnsgd1na2vs0mg"},{"bike_id":"3f1bab17-9b2d-48f6-bdd4-c057187a5399","system_id":"levelo_inurba_marseille","lat":43.24386,"lon":5.3706,"is_reserved":false,"is_disabled":false,"rental_uris":{"android":"levelo://app?vid=3f1bab17-9b2d-48f6-bdd4-c057187a5399","ios":"levelo://app?vid=3f1bab17-9b2d-48f6-bdd4-c057187a5399"},"vehicle_type_id":"4","last_reported":1745241602,"current_range_meters":17200,"station_id":"ce4bhhh2rcd13ifvqfk0","pricing_plan_id":"cebpf4jnsgd1na2vs0mg"},{"bike_id":"437ba25a-ca27-4693-9456-8b815b84766a","system_id":"levelo_inurba_marseille","lat":43.21193,"lon":5.35078,"is_reserved":false,"is_disabled":false,"rental_uris":{"android":"levelo://app?vid=437ba25a-ca27-4693-9456-8b815b84766a","ios":"levelo://app?vid=437ba25a-ca27-4693-9456-8b815b84766a"},"vehicle_type_id":"4","last_reported":1745241602,"current_range_meters":17200,"station_id":"st_cvj6sg6p6f1abm77japg","pricing_plan_id":"cebpf4jnsgd1na2vs0mg"},{"bike_id":"64bd964b-ed80-48dc-8f31-fd30d14c6d0e","system_id":"levelo_inurba_marseille","lat":43.299337,"lon":5.365587,"is_reserved":false,"is_disabled":false,"rental_uris":{"android":"levelo://app?vid=64bd964b-ed80-48dc-8f31-fd30d14c6d0e","ios":"levelo://app?vid=64bd964b-ed80-48dc-8f31-fd30d14c6d0e"},"vehicle_type_id":"4","last_reported":1745241602,"current_range_meters":17200,"station_id":"ce4bhbp2rcd13ifvqerg","pricing_plan_id":"cebpf4jnsgd1na2vs0mg"},{"bike_id":"2915000b-9f79-455e-a28d-27dc903a628c","system_id":"levelo_inurba_marseille","lat":43.31118,"lon":5.37782,"is_reserved":false,"is_disabled":false,"rental_uris":{"android":"levelo://app?vid=2915000b-9f79-455e-a28d-27dc903a628c","ios":"levelo://app?vid=2915000b-9f79-455e-a28d-27dc903a628c"},"vehicle_type_id":"4","last_reported":1745241602,"current_range_meters":17200,"station_id":"ce4bgt92rcd13ifvqcg0","pricing_plan_id":"cebpf4jnsgd1na2vs0mg"},{"bike_id":"2a35ab10-f416-439f-a4fa-784873cd587f","system_id":"levelo_inurba_marseille","lat":43.26953,"lon":5.38636,"is_reserved":false,"is_disabled":true,"rental_uris":{"android":"levelo://app?vid=2a35ab10-f416-439f-a4fa-784873cd587f","ios":"levelo://app?vid=2a35ab10-f416-439f-a4fa-784873cd587f"},"vehicle_type_id":"4","last_reported":1745241602,"current_range_meters":17600,"station_id":"ce4bhh92rcd13ifvqfh0","pricing_plan_id":"cebpf4jnsgd1na2vs0mg"},{"bike_id":"80bda8df-9811-4a6b-a810-1d67063097a3","system_id":"levelo_inurba_marseille","lat":43.28607,"lon":5.37066,"is_reserved":false,"is_disabled":false,"rental_uris":{"android":"levelo://app?vid=80bda8df-9811-4a6b-a810-1d67063097a3","ios":"levelo://app?vid=80bda8df-9811-4a6b-a810-1d67063097a3"},"vehicle_type_id":"4","last_reported":1745241602,"current_range_meters":17600,"station_id":"ce4bht12rcd13ifvqi60","pricing_plan_id":"cebpf4jnsgd1na2vs0mg"},{"bike_id":"a809e9b3-0b89-4b3f-8816-24ad75b2abe1","system_id":"levelo_inurba_marseille","lat":43.30797,"lon":5.38154,"is_reserved":false,"is_disabled":false,"rental_uris":{"android":"levelo://app?vid=a809e9b3-0b89-4b3f-8816-24ad75b2abe1","ios":"levelo://app?vid=a809e9b3-0b89-4b3f-8816-24ad75b2abe1"},"vehicle_type_id":"4","last_reported":1745241602,"current_range_meters":17200,"station_id":"ce4bgt12rcd13ifvqce0","pricing_plan_id":"cebpf4jnsgd1na2vs0mg"},{"bike_id":"b5ecc541-475c-436a-bbc2-81892b1ac2da","system_id":"levelo_inurba_marseille","lat":43.24392,"lon":5.37051,"is_reserved":false,"is_disabled":false,"rental_uris":{"android":"levelo://app?vid=b5ecc541-475c-436a-bbc2-81892b1ac2da","ios":"levelo://app?vid=b5ecc541-475c-436a-bbc2-81892b1ac2da"},"vehicle_type_id":"4","last_reported":1745241602,"current_range_meters":17600,"station_id":"ce4bhhh2rcd13ifvqfk0","pricing_plan_id":"cebpf4jnsgd1na2vs0mg"},{"bike_id":"f7b23b1c-d253-430f-af47-c7604ea0f8f7","system_id":"levelo_inurba_marseille","lat":43.21763,"lon":5.34594,"is_reserved":false,"is_disabled":false,"rental_uris":{"android":"levelo://app?vid=f7b23b1c-d253-430f-af47-c7604ea0f8f7","ios":"levelo://app?vid=f7b23b1c-d253-430f-af47-c7604ea0f8f7"},"vehicle_type_id":"4","last_reported":1745241602,"current_range_meters":17600,"station_id":"st_cvj6r9ubvosntc0bgbag","pricing_plan_id":"cebpf4jnsgd1na2vs0mg"},{"bike_id":"137d6f7b-447f-4e55-b338-752dd215843c","system_id":"levelo_inurba_marseille","lat":43.27086,"lon":5.40335,"is_reserved":false,"is_disabled":false,"rental_uris":{"android":"levelo://app?vid=137d6f7b-447f-4e55-b338-752dd215843c","ios":"levelo://app?vid=137d6f7b-447f-4e55-b338-752dd215843c"},"vehicle_type_id":"4","last_reported":1745241602,"current_range_meters":17600,"station_id":"","pricing_plan_id":"cebpf4jnsgd1na2vs0mg"},{"bike_id":"6f76d8bd-44ef-4c2f-9857-7c39a7d14e20","system_id":"levelo_inurba_marseille","lat":43.280078,"lon":5.399937,"is_reserved":false,"is_disabled":true,"rental_uris":{"android":"levelo://app?vid=6f76d8bd-44ef-4c2f-9857-7c39a7d14e20","ios":"levelo://app?vid=6f76d8bd-44ef-4c2f-9857-7c39a7d14e20"},"vehicle_type_id":"4","last_reported":1745241602,"current_range_meters":18000,"station_id":"ce4bho92rcd13ifvqh4g","pricing_plan_id":"cebpf4jnsgd1na2vs0mg"},{"bike_id":"a0c96b4d-9c16-45e4-8dba-d3257dc91590","system_id":"levelo_inurba_marseille","lat":43.23154,"lon":5.43716,"is_reserved":false,"is_disabled":false,"rental_uris":{"android":"levelo://app?vid=a0c96b4d-9c16-45e4-8dba-d3257dc91590","ios":"levelo://app?vid=a0c96b4d-9c16-45e4-8dba-d3257dc91590"},"vehicle_type_id":"4","last_reported":1745241602,"current_range_meters":18000,"station_id":"ce4bhmp2rcd13ifvqgog","pricing_plan_id":"cebpf4jnsgd1na2vs0mg"},{"bike_id":"19c65f67-dec2-44e4-86ff-ff51fa79e163","system_id":"levelo_inurba_marseille","lat":43.27608,"lon":5.36113,"is_reserved":false,"is_disabled":false,"rental_uris":{"android":"levelo://app?vid=19c65f67-dec2-44e4-86ff-ff51fa79e163","ios":"levelo://app?vid=19c65f67-dec2-44e4-86ff-ff51fa79e163"},"vehicle_type_id":"4","last_reported":1745241602,"current_range_meters":18000,"station_id":"ce4bgj92rcd13ifvqbe0","pricing_plan_id":"cebpf4jnsgd1na2vs0mg"},{"bike_id":"629db482-e3b9-4f10-8f82-76441c5d0529","system_id":"levelo_inurba_marseille","lat":43.23154,"lon":5.437187,"is_reserved":false,"is_disabled":false,"rental_uris":{"android":"levelo://app?vid=629db482-e3b9-4f10-8f82-76441c5d0529","ios":"levelo://app?vid=629db482-e3b9-4f10-8f82-76441c5d0529"},"vehicle_type_id":"4","last_reported":1745241602,"current_range_meters":18000,"station_id":"ce4bhmp2rcd13ifvqgog","pricing_plan_id":"cebpf4jnsgd1na2vs0mg"},{"bike_id":"013b0bba-3a8e-4176-aec5-9b030be1a006","system_id":"levelo_inurba_marseille","lat":43.31731,"lon":5.37776,"is_reserved":false,"is_disabled":false,"rental_uris":{"android":"levelo://app?vid=013b0bba-3a8e-4176-aec5-9b030be1a006","ios":"levelo://app?vid=013b0bba-3a8e-4176-aec5-9b030be1a006"},"vehicle_type_id":"4","last_reported":1745241602,"current_range_meters":18800,"station_id":"ce4bgth2rcd13ifvqch0","pricing_plan_id":"cebpf4jnsgd1na2vs0mg"},{"bike_id":"7b2dc864-a4e9-468c-9cee-f3075a20977d","system_id":"levelo_inurba_marseille","lat":43.31449,"lon":5.3732,"is_reserved":false,"is_disabled":false,"rental_uris":{"android":"levelo://app?vid=7b2dc864-a4e9-468c-9cee-f3075a20977d","ios":"levelo://app?vid=7b2dc864-a4e9-468c-9cee-f3075a20977d"},"vehicle_type_id":"4","last_reported":1745241602,"current_range_meters":18800,"station_id":"ce4bgt12rcd13ifvqcd0","pricing_plan_id":"cebpf4jnsgd1na2vs0mg"},{"bike_id":"f9a70e75-193f-4a1c-b869-b2aa0f0333b2","system_id":"levelo_inurba_marseille","lat":43.29298,"lon":5.38513,"is_reserved":false,"is_disabled":false,"rental_uris":{"android":"levelo://app?vid=f9a70e75-193f-4a1c-b869-b2aa0f0333b2","ios":"levelo://app?vid=f9a70e75-193f-4a1c-b869-b2aa0f0333b2"},"vehicle_type_id":"4","last_reported":1745241602,"current_range_meters":18800,"station_id":"","pricing_plan_id":"cebpf4jnsgd1na2vs0mg"},{"bike_id":"e721a0ba-2fd9-46f5-9217-af9feb4606ee","system_id":"levelo_inurba_marseille","lat":43.29931,"lon":5.36543,"is_reserved":false,"is_disabled":false,"rental_uris":{"android":"levelo://app?vid=e721a0ba-2fd9-46f5-9217-af9feb4606ee","ios":"levelo://app?vid=e721a0ba-2fd9-46f5-9217-af9feb4606ee"},"vehicle_type_id":"4","last_reported":1745241602,"current_range_meters":18800,"station_id":"ce4bgm92rcd13ifvqbr0","pricing_plan_id":"cebpf4jnsgd1na2vs0mg"},{"bike_id":"02eaf03d-7ac9-45d8-ac48-b143303e89c6","system_id":"levelo_inurba_marseille","lat":43.21751,"lon":5.346,"is_reserved":false,"is_disabled":false,"rental_uris":{"android":"levelo://app?vid=02eaf03d-7ac9-45d8-ac48-b143303e89c6","ios":"levelo://app?vid=02eaf03d-7ac9-45d8-ac48-b143303e89c6"},"vehicle_type_id":"4","last_reported":1745241602,"current_range_meters":18800,"station_id":"st_cvj6r9ubvosntc0bgbag","pricing_plan_id":"cebpf4jnsgd1na2vs0mg"},{"bike_id":"3a0295e1-65d2-4695-b1ff-7f4f3d1cf64d","system_id":"levelo_inurba_marseille","lat":43.284729,"lon":5.384311,"is_reserved":false,"is_disabled":false,"rental_uris":{"android":"levelo://app?vid=3a0295e1-65d2-4695-b1ff-7f4f3d1cf64d","ios":"levelo://app?vid=3a0295e1-65d2-4695-b1ff-7f4f3d1cf64d"},"vehicle_type_id":"4","last_reported":1745241602,"current_range_meters":18800,"station_id":"ce4bh512rcd13ifvqe3g","pricing_plan_id":"cebpf4jnsgd1na2vs0mg"},{"bike_id":"f06ea1e3-2cd2-4c86-877e-d99d843b21b0","system_id":"levelo_inurba_marseille","lat":43.21752,"lon":5.34591,"is_reserved":false,"is_disabled":false,"rental_uris":{"android":"levelo://app?vid=f06ea1e3-2cd2-4c86-877e-d99d843b21b0","ios":"levelo://app?vid=f06ea1e3-2cd2-4c86-877e-d99d843b21b0"},"vehicle_type_id":"4","last_reported":1745241602,"current_range_meters":18800,"station_id":"st_cvj6r9ubvosntc0bgbag","pricing_plan_id":"cebpf4jnsgd1na2vs0mg"},{"bike_id":"e7291798-fcc9-4bd4-bdf6-4f1e13732d34","system_id":"levelo_inurba_marseille","lat":43.23962,"lon":5.36636,"is_reserved":false,"is_disabled":false,"rental_uris":{"android":"levelo://app?vid=e7291798-fcc9-4bd4-bdf6-4f1e13732d34","ios":"levelo://app?vid=e7291798-fcc9-4bd4-bdf6-4f1e13732d34"},"vehicle_type_id":"4","last_reported":1745241602,"current_range_meters":18800,"station_id":"ce4bhi12rcd13ifvqfp0","pricing_plan_id":"cebpf4jnsgd1na2vs0mg"},{"bike_id":"a5953d54-671a-48e0-8e58-2a9bfb3d2543","system_id":"levelo_inurba_marseille","lat":43.21748,"lon":5.34597,"is_reserved":false,"is_disabled":false,"rental_uris":{"android":"levelo://app?vid=a5953d54-671a-48e0-8e58-2a9bfb3d2543","ios":"levelo://app?vid=a5953d54-671a-48e0-8e58-2a9bfb3d2543"},"vehicle_type_id":"4","last_reported":1745241602,"current_range_meters":18800,"station_id":"st_cvj6r9ubvosntc0bgbag","pricing_plan_id":"cebpf4jnsgd1na2vs0mg"},{"bike_id":"59053fab-c397-43cf-831f-45562dc96dce","system_id":"levelo_inurba_marseille","lat":43.28273,"lon":5.35064,"is_reserved":false,"is_disabled":false,"rental_uris":{"android":"levelo://app?vid=59053fab-c397-43cf-831f-45562dc96dce","ios":"levelo://app?vid=59053fab-c397-43cf-831f-45562dc96dce"},"vehicle_type_id":"4","last_reported":1745241602,"current_range_meters":19200,"station_id":"ce4bhbp2rcd13ifvqerg","pricing_plan_id":"cebpf4jnsgd1na2vs0mg"},{"bike_id":"c349e582-0c24-4f3f-8c56-60cbcd90caf8","system_id":"levelo_inurba_marseille","lat":43.2843,"lon":5.34984,"is_reserved":false,"is_disabled":false,"rental_uris":{"android":"levelo://app?vid=c349e582-0c24-4f3f-8c56-60cbcd90caf8","ios":"levelo://app?vid=c349e582-0c24-4f3f-8c56-60cbcd90caf8"},"vehicle_type_id":"4","last_reported":1745241602,"current_range_meters":19200,"station_id":"ce4bhbh2rcd13ifvqepg","pricing_plan_id":"cebpf4jnsgd1na2vs0mg"},{"bike_id":"322cb3bd-1b2c-4ec8-9cd5-563729b64d42","system_id":"levelo_inurba_marseille","lat":43.240813,"lon":5.377392,"is_reserved":false,"is_disabled":false,"rental_uris":{"android":"levelo://app?vid=322cb3bd-1b2c-4ec8-9cd5-563729b64d42","ios":"levelo://app?vid=322cb3bd-1b2c-4ec8-9cd5-563729b64d42"},"vehicle_type_id":"4","last_reported":1745241602,"current_range_meters":19200,"station_id":"ce4bhnp2rcd13ifvqgvg","pricing_plan_id":"cebpf4jnsgd1na2vs0mg"},{"bike_id":"24099d75-f98f-4da1-9bee-b02cf46b49e0","system_id":"levelo_inurba_marseille","lat":43.28265,"lon":5.35072,"is_reserved":false,"is_disabled":false,"rental_uris":{"android":"levelo://app?vid=24099d75-f98f-4da1-9bee-b02cf46b49e0","ios":"levelo://app?vid=24099d75-f98f-4da1-9bee-b02cf46b49e0"},"vehicle_type_id":"4","last_reported":1745241602,"current_range_meters":19200,"station_id":"ce4bhbp2rcd13ifvqerg","pricing_plan_id":"cebpf4jnsgd1na2vs0mg"},{"bike_id":"8207d3bc-5fe6-4483-9c6a-ec1bd57e02df","system_id":"levelo_inurba_marseille","lat":43.21192,"lon":5.35063,"is_reserved":false,"is_disabled":false,"rental_uris":{"android":"levelo://app?vid=8207d3bc-5fe6-4483-9c6a-ec1bd57e02df","ios":"levelo://app?vid=8207d3bc-5fe6-4483-9c6a-ec1bd57e02df"},"vehicle_type_id":"4","last_reported":1745241602,"current_range_meters":19200,"station_id":"st_cvj6sg6p6f1abm77japg","pricing_plan_id":"cebpf4jnsgd1na2vs0mg"},{"bike_id":"5e382645-ea64-422b-b7fc-2e2b6b08ac84","system_id":"levelo_inurba_marseille","lat":43.27811,"lon":5.40711,"is_reserved":false,"is_disabled":false,"rental_uris":{"android":"levelo://app?vid=5e382645-ea64-422b-b7fc-2e2b6b08ac84","ios":"levelo://app?vid=5e382645-ea64-422b-b7fc-2e2b6b08ac84"},"vehicle_type_id":"4","last_reported":1745241602,"current_range_meters":19200,"station_id":"ce4bhnh2rcd13ifvqgtg","pricing_plan_id":"cebpf4jnsgd1na2vs0mg"},{"bike_id":"4c302196-62e4-4163-9525-3e3662955db8","system_id":"levelo_inurba_marseille","lat":43.28261,"lon":5.35058,"is_reserved":false,"is_disabled":false,"rental_uris":{"android":"levelo://app?vid=4c302196-62e4-4163-9525-3e3662955db8","ios":"levelo://app?vid=4c302196-62e4-4163-9525-3e3662955db8"},"vehicle_type_id":"4","last_reported":1745241602,"current_range_meters":19200,"station_id":"ce4bhbp2rcd13ifvqerg","pricing_plan_id":"cebpf4jnsgd1na2vs0mg"},{"bike_id":"aad29bb3-cde8-4e41-a646-e0bba09f9fc5","system_id":"levelo_inurba_marseille","lat":43.29863,"lon":5.43673,"is_reserved":false,"is_disabled":false,"rental_uris":{"android":"levelo://app?vid=aad29bb3-cde8-4e41-a646-e0bba09f9fc5","ios":"levelo://app?vid=aad29bb3-cde8-4e41-a646-e0bba09f9fc5"},"vehicle_type_id":"4","last_reported":1745241602,"current_range_meters":19600,"station_id":"ce4bhpp2rcd13ifvqhfg","pricing_plan_id":"cebpf4jnsgd1na2vs0mg"},{"bike_id":"f91631ee-723f-4d2e-971e-b56b4536b2dd","system_id":"levelo_inurba_marseille","lat":43.30607,"lon":5.37221,"is_reserved":false,"is_disabled":false,"rental_uris":{"android":"levelo://app?vid=f91631ee-723f-4d2e-971e-b56b4536b2dd","ios":"levelo://app?vid=f91631ee-723f-4d2e-971e-b56b4536b2dd"},"vehicle_type_id":"4","last_reported":1745241602,"current_range_meters":18800,"station_id":"ce4bgqh2rcd13ifvqc4g","pricing_plan_id":"cebpf4jnsgd1na2vs0mg"},{"bike_id":"f911b7bc-de83-4830-9913-e845c89db75a","system_id":"levelo_inurba_marseille","lat":43.3211,"lon":5.36769,"is_reserved":false,"is_disabled":false,"rental_uris":{"android":"levelo://app?vid=f911b7bc-de83-4830-9913-e845c89db75a","ios":"levelo://app?vid=f911b7bc-de83-4830-9913-e845c89db75a"},"vehicle_type_id":"4","last_reported":1745241602,"current_range_meters":19600,"station_id":"ce4bhrh2rcd13ifvqhug","pricing_plan_id":"cebpf4jnsgd1na2vs0mg"},{"bike_id":"6c091bd4-5cf4-437c-8a5f-0502c2249cdb","system_id":"levelo_inurba_marseille","lat":43.24668,"lon":5.38152,"is_reserved":false,"is_disabled":false,"rental_uris":{"android":"levelo://app?vid=6c091bd4-5cf4-437c-8a5f-0502c2249cdb","ios":"levelo://app?vid=6c091bd4-5cf4-437c-8a5f-0502c2249cdb"},"vehicle_type_id":"4","last_reported":1745241602,"current_range_meters":19600,"station_id":"ce4bhih2rcd13ifvqfr0","pricing_plan_id":"cebpf4jnsgd1na2vs0mg"},{"bike_id":"eda6962f-dbd4-4959-acd4-8fa138519f0f","system_id":"levelo_inurba_marseille","lat":43.21749,"lon":5.34598,"is_reserved":false,"is_disabled":false,"rental_uris":{"android":"levelo://app?vid=eda6962f-dbd4-4959-acd4-8fa138519f0f","ios":"levelo://app?vid=eda6962f-dbd4-4959-acd4-8fa138519f0f"},"vehicle_type_id":"4","last_reported":1745241602,"current_range_meters":19600,"station_id":"st_cvj6r9ubvosntc0bgbag","pricing_plan_id":"cebpf4jnsgd1na2vs0mg"},{"bike_id":"2af44199-cc8f-47ef-bdb5-2b66685b61d4","system_id":"levelo_inurba_marseille","lat":43.28275,"lon":5.35064,"is_reserved":false,"is_disabled":false,"rental_uris":{"android":"levelo://app?vid=2af44199-cc8f-47ef-bdb5-2b66685b61d4","ios":"levelo://app?vid=2af44199-cc8f-47ef-bdb5-2b66685b61d4"},"vehicle_type_id":"4","last_reported":1745241602,"current_range_meters":19600,"station_id":"ce4bhbp2rcd13ifvqerg","pricing_plan_id":"cebpf4jnsgd1na2vs0mg"},{"bike_id":"2e111f10-001a-46bc-8e60-cc331bf148ca","system_id":"levelo_inurba_marseille","lat":43.29008,"lon":5.35599,"is_reserved":false,"is_disabled":false,"rental_uris":{"android":"levelo://app?vid=2e111f10-001a-46bc-8e60-cc331bf148ca","ios":"levelo://app?vid=2e111f10-001a-46bc-8e60-cc331bf148ca"},"vehicle_type_id":"4","last_reported":1745241602,"current_range_meters":20000,"station_id":"ce4bhb92rcd13ifvqen0","pricing_plan_id":"cebpf4jnsgd1na2vs0mg"},{"bike_id":"9843dc5f-3375-4939-9d67-d3c0ae78ca21","system_id":"levelo_inurba_marseille","lat":43.290047,"lon":5.356108,"is_reserved":false,"is_disabled":false,"rental_uris":{"android":"levelo://app?vid=9843dc5f-3375-4939-9d67-d3c0ae78ca21","ios":"levelo://app?vid=9843dc5f-3375-4939-9d67-d3c0ae78ca21"},"vehicle_type_id":"4","last_reported":1745241602,"current_range_meters":20000,"station_id":"ce4bhm12rcd13ifvqgkg","pricing_plan_id":"cebpf4jnsgd1na2vs0mg"},{"bike_id":"024c146d-caed-4d66-92bb-19b2a147320a","system_id":"levelo_inurba_marseille","lat":43.24179,"lon":5.36394,"is_reserved":false,"is_disabled":false,"rental_uris":{"android":"levelo://app?vid=024c146d-caed-4d66-92bb-19b2a147320a","ios":"levelo://app?vid=024c146d-caed-4d66-92bb-19b2a147320a"},"vehicle_type_id":"4","last_reported":1745241602,"current_range_meters":20000,"station_id":"cpo36qri1sfpv3e86is0","pricing_plan_id":"cebpf4jnsgd1na2vs0mg"},{"bike_id":"c8d47ec1-1c64-4b24-916d-ed84d19fcc43","system_id":"levelo_inurba_marseille","lat":43.27417,"lon":5.39413,"is_reserved":false,"is_disabled":false,"rental_uris":{"android":"levelo://app?vid=c8d47ec1-1c64-4b24-916d-ed84d19fcc43","ios":"levelo://app?vid=c8d47ec1-1c64-4b24-916d-ed84d19fcc43"},"vehicle_type_id":"4","last_reported":1745241602,"current_range_meters":20000,"station_id":"ce4bhdp2rcd13ifvqf20","pricing_plan_id":"cebpf4jnsgd1na2vs0mg"},{"bike_id":"d9729e6f-63a3-4be1-9523-7c1fdff8b79e","system_id":"levelo_inurba_marseille","lat":43.24169,"lon":5.3638,"is_reserved":false,"is_disabled":false,"rental_uris":{"android":"levelo://app?vid=d9729e6f-63a3-4be1-9523-7c1fdff8b79e","ios":"levelo://app?vid=d9729e6f-63a3-4be1-9523-7c1fdff8b79e"},"vehicle_type_id":"4","last_reported":1745241602,"current_range_meters":20400,"station_id":"cpo36qri1sfpv3e86is0","pricing_plan_id":"cebpf4jnsgd1na2vs0mg"},{"bike_id":"09ac5051-6ea1-4096-aae8-ad0b7fdb3230","system_id":"levelo_inurba_marseille","lat":43.28717,"lon":5.36089,"is_reserved":false,"is_disabled":false,"rental_uris":{"android":"levelo://app?vid=09ac5051-6ea1-4096-aae8-ad0b7fdb3230","ios":"levelo://app?vid=09ac5051-6ea1-4096-aae8-ad0b7fdb3230"},"vehicle_type_id":"4","last_reported":1745241602,"current_range_meters":20400,"station_id":"cki0cbj6b192h4jlfktg","pricing_plan_id":"cebpf4jnsgd1na2vs0mg"},{"bike_id":"d772a57c-7881-4456-80cc-70618628a692","system_id":"levelo_inurba_marseille","lat":43.311884,"lon":5.416136,"is_reserved":false,"is_disabled":false,"rental_uris":{"android":"levelo://app?vid=d772a57c-7881-4456-80cc-70618628a692","ios":"levelo://app?vid=d772a57c-7881-4456-80cc-70618628a692"},"vehicle_type_id":"4","last_reported":1745241602,"current_range_meters":20400,"station_id":"","pricing_plan_id":"cebpf4jnsgd1na2vs0mg"},{"bike_id":"99520576-6f4f-4b3a-b4e7-bbb0587c6dda","system_id":"levelo_inurba_marseille","lat":43.28423,"lon":5.34984,"is_reserved":false,"is_disabled":false,"rental_uris":{"android":"levelo://app?vid=99520576-6f4f-4b3a-b4e7-bbb0587c6dda","ios":"levelo://app?vid=99520576-6f4f-4b3a-b4e7-bbb0587c6dda"},"vehicle_type_id":"4","last_reported":1745241602,"current_range_meters":20400,"station_id":"ce4bhbh2rcd13ifvqepg","pricing_plan_id":"cebpf4jnsgd1na2vs0mg"},{"bike_id":"edbc3e19-a7dc-4810-badc-79deca451fd2","system_id":"levelo_inurba_marseille","lat":43.23959,"lon":5.36626,"is_reserved":false,"is_disabled":false,"rental_uris":{"android":"levelo://app?vid=edbc3e19-a7dc-4810-badc-79deca451fd2","ios":"levelo://app?vid=edbc3e19-a7dc-4810-badc-79deca451fd2"},"vehicle_type_id":"4","last_reported":1745241602,"current_range_meters":20400,"station_id":"ce4bhi12rcd13ifvqfp0","pricing_plan_id":"cebpf4jnsgd1na2vs0mg"},{"bike_id":"de669b19-6cdc-400a-8587-fcd4a42979ce","system_id":"levelo_inurba_marseille","lat":43.23969,"lon":5.36628,"is_reserved":false,"is_disabled":false,"rental_uris":{"android":"levelo://app?vid=de669b19-6cdc-400a-8587-fcd4a42979ce","ios":"levelo://app?vid=de669b19-6cdc-400a-8587-fcd4a42979ce"},"vehicle_type_id":"4","last_reported":1745241602,"current_range_meters":20400,"station_id":"ce4bhi12rcd13ifvqfp0","pricing_plan_id":"cebpf4jnsgd1na2vs0mg"},{"bike_id":"fb1e2c21-eca8-4e6f-9656-18d2fa8d4cab","system_id":"levelo_inurba_marseille","lat":43.22478,"lon":5.34822,"is_reserved":false,"is_disabled":true,"rental_uris":{"android":"levelo://app?vid=fb1e2c21-eca8-4e6f-9656-18d2fa8d4cab","ios":"levelo://app?vid=fb1e2c21-eca8-4e6f-9656-18d2fa8d4cab"},"vehicle_type_id":"4","last_reported":1745241602,"current_range_meters":20800,"station_id":"","pricing_plan_id":"cebpf4jnsgd1na2vs0mg"},{"bike_id":"7e08b8e0-bfb2-4d4f-9358-4cb4270f3820","system_id":"levelo_inurba_marseille","lat":43.25498,"lon":5.37644,"is_reserved":false,"is_disabled":false,"rental_uris":{"android":"levelo://app?vid=7e08b8e0-bfb2-4d4f-9358-4cb4270f3820","ios":"levelo://app?vid=7e08b8e0-bfb2-4d4f-9358-4cb4270f3820"},"vehicle_type_id":"4","last_reported":1745241602,"current_range_meters":20800,"station_id":"ce4bhh12rcd13ifvqff0","pricing_plan_id":"cebpf4jnsgd1na2vs0mg"},{"bike_id":"bbc7f8a9-84de-450b-a90b-1c677f873c8b","system_id":"levelo_inurba_marseille","lat":43.231509,"lon":5.437166,"is_reserved":false,"is_disabled":false,"rental_uris":{"android":"levelo://app?vid=bbc7f8a9-84de-450b-a90b-1c677f873c8b","ios":"levelo://app?vid=bbc7f8a9-84de-450b-a90b-1c677f873c8b"},"vehicle_type_id":"4","last_reported":1745241602,"current_range_meters":20800,"station_id":"ce4bhmp2rcd13ifvqgog","pricing_plan_id":"cebpf4jnsgd1na2vs0mg"},{"bike_id":"738b9244-8fb5-4bdb-bd0d-253ed6e28043","system_id":"levelo_inurba_marseille","lat":43.28619,"lon":5.35097,"is_reserved":false,"is_disabled":false,"rental_uris":{"android":"levelo://app?vid=738b9244-8fb5-4bdb-bd0d-253ed6e28043","ios":"levelo://app?vid=738b9244-8fb5-4bdb-bd0d-253ed6e28043"},"vehicle_type_id":"4","last_reported":1745241602,"current_range_meters":20800,"station_id":"ce4bhch2rcd13ifvqeug","pricing_plan_id":"cebpf4jnsgd1na2vs0mg"},{"bike_id":"2943b098-2991-4a43-8f9f-b0b206649cd6","system_id":"levelo_inurba_marseille","lat":43.22499,"lon":5.34773,"is_reserved":false,"is_disabled":false,"rental_uris":{"android":"levelo://app?vid=2943b098-2991-4a43-8f9f-b0b206649cd6","ios":"levelo://app?vid=2943b098-2991-4a43-8f9f-b0b206649cd6"},"vehicle_type_id":"4","last_reported":1745241602,"current_range_meters":20800,"station_id":"st_cvj5dfep6f1abm77gieg","pricing_plan_id":"cebpf4jnsgd1na2vs0mg"},{"bike_id":"ed7f0c8c-65e0-4979-a9eb-d28bdbb17ce9","system_id":"levelo_inurba_marseille","lat":43.28408,"lon":5.34981,"is_reserved":false,"is_disabled":false,"rental_uris":{"android":"levelo://app?vid=ed7f0c8c-65e0-4979-a9eb-d28bdbb17ce9","ios":"levelo://app?vid=ed7f0c8c-65e0-4979-a9eb-d28bdbb17ce9"},"vehicle_type_id":"4","last_reported":1745241602,"current_range_meters":20800,"station_id":"ce4bhbh2rcd13ifvqepg","pricing_plan_id":"cebpf4jnsgd1na2vs0mg"},{"bike_id":"cedb6f23-b99f-45f1-bbea-c0429dd58a42","system_id":"levelo_inurba_marseille","lat":43.23958,"lon":5.36663,"is_reserved":false,"is_disabled":false,"rental_uris":{"android":"levelo://app?vid=cedb6f23-b99f-45f1-bbea-c0429dd58a42","ios":"levelo://app?vid=cedb6f23-b99f-45f1-bbea-c0429dd58a42"},"vehicle_type_id":"4","last_reported":1745241602,"current_range_meters":20800,"station_id":"ce4bhi12rcd13ifvqfp0","pricing_plan_id":"cebpf4jnsgd1na2vs0mg"},{"bike_id":"320c4dcc-ac89-40fd-b364-bb2e66ee3338","system_id":"levelo_inurba_marseille","lat":43.2318,"lon":5.39991,"is_reserved":false,"is_disabled":false,"rental_uris":{"android":"levelo://app?vid=320c4dcc-ac89-40fd-b364-bb2e66ee3338","ios":"levelo://app?vid=320c4dcc-ac89-40fd-b364-bb2e66ee3338"},"vehicle_type_id":"4","last_reported":1745241602,"current_range_meters":20800,"station_id":"ce4bhn12rcd13ifvqgqg","pricing_plan_id":"cebpf4jnsgd1na2vs0mg"},{"bike_id":"b8b1352e-7f7f-4aaf-ab25-db211e7aa0eb","system_id":"levelo_inurba_marseille","lat":43.21757,"lon":5.34596,"is_reserved":false,"is_disabled":false,"rental_uris":{"android":"levelo://app?vid=b8b1352e-7f7f-4aaf-ab25-db211e7aa0eb","ios":"levelo://app?vid=b8b1352e-7f7f-4aaf-ab25-db211e7aa0eb"},"vehicle_type_id":"4","last_reported":1745241602,"current_range_meters":22000,"station_id":"","pricing_plan_id":"cebpf4jnsgd1na2vs0mg"},{"bike_id":"b9999488-a895-4a61-87ea-fd715e3591c9","system_id":"levelo_inurba_marseille","lat":43.299613,"lon":5.413262,"is_reserved":false,"is_disabled":false,"rental_uris":{"android":"levelo://app?vid=b9999488-a895-4a61-87ea-fd715e3591c9","ios":"levelo://app?vid=b9999488-a895-4a61-87ea-fd715e3591c9"},"vehicle_type_id":"4","last_reported":1745241602,"current_range_meters":21600,"station_id":"ce4bhp12rcd13ifvqh9g","pricing_plan_id":"cebpf4jnsgd1na2vs0mg"},