{"last_updated":1773686821,"ttl":60,"version":"2.2","data":{"bikes":[{"bike_id":"28108d5f-f5c6-437f-ba05-690931523ec3","system_id":"levelo_inurba_marseille","lat":43.25764,"lon":5.41136,"is_reserved":false,"is_disabled":false,"rental_uris":{"android":"levelo://app?vid=28108d5f-f5c6-437f-ba05-690931523ec3","ios":"levelo://app?vid=28108d5f-f5c6-437f-ba05-690931523ec3"},"vehicle_type_id":"4","last_reported":1773686822,"current_range_meters":28800,"station_id":"","pricing_plan_id":"cebpf4jnsgd1na2vs0mg"},{"bike_id":"989290ef-54e6-4e48-ad5f-fe8235ed930c","system_id":"levelo_inurba_marseille","lat":43.29653,"lon":5.37154,"is_reserved":false,"is_disabled":false,"rental_uris":{"android":"levelo://app?vid=989290ef-54e6-4e48-ad5f-fe8235ed930c","ios":"levelo://app?vid=989290ef-54e6-4e48-ad5f-fe8235ed930c"},"vehicle_type_id":"4","last_reported":1773686822,"current_range_meters":21600,"station_id":"ce4bgnh2rcd13ifvqc0g","pricing_plan_id":"cebpf4jnsgd1na2vs0mg"},{"bike_id":"a4ca7329-3ac2-44ac-9c8b-c3829e8c8f46","system_id":"levelo_inurba_marseille","lat":43.28475,"lon":5.38984,"is_reserved":false,"is_disabled":true,"rental_uris":{"android":"levelo://app?vid=a4ca7329-3ac2-44ac-9c8b-c3829e8c8f46","ios":"levelo://app?vid=a4ca7329-3ac2-44ac-9c8b-c3829e8c8f46"},"vehicle_type_id":"4","last_reported":1773686822,"current_range_meters":4400,"station_id":"","pricing_plan_id":"cebpf4jnsgd1na2vs0mg"},{"bike_id":"79ee3a76-161d-42e4-b558-375f2cb1b0bb","system_id":"levelo_inurba_marseille","lat":43.28295,"lon":5.35073,"is_reserved":false,"is_disabled":false,"rental_uris":{"android":"levelo://app?vid=79ee3a76-161d-42e4-b558-375f2cb1b0bb","ios":"levelo://app?vid=79ee3a76-161d-42e4-b558-375f2cb1b0bb"},"vehicle_type_id":"4","last_reported":1773686822,"current_range_meters":8000,"station_id":"ce4bhbp2rcd13ifvqerg","pricing_plan_id":"cebpf4jnsgd1na2vs0mg"},{"bike_id":"db202cfa-0b21-4a93-9439-3697c93492c0","system_id":"levelo_inurba_marseille","lat":43.305406,"lon":5.384093,"is_reserved":false,"is_disabled":false,"rental_uris":{"android":"levelo://app?vid=db202cfa-0b21-4a93-9439-3697c93492c0","ios":"levelo://app?vid=db202cfa-0b21-4a93-9439-3697c93492c0"},"vehicle_type_id":"4","last_reported":1773686822,"current_range_meters":4000,"station_id":"ce4bgg92rcd13ifvqb30","pricing_plan_id":"cebpf4jnsgd1na2vs0mg"},{"bike_id":"8e3a8bcf-6ef2-457e-85df-0cb0f3621bd8","system_id":"levelo_inurba_marseille","lat":43.24164,"lon":5.36413,"is_reserved":false,"is_disabled":false,"rental_uris":{"android":"levelo://app?vid=8e3a8bcf-6ef2-457e-85df-0cb0f3621bd8","ios":"levelo://app?vid=8e3a8bcf-6ef2-457e-85df-0cb0f3621bd8"},"vehicle_type_id":"4","last_reported":1773686822,"current_range_meters":32800,"station_id":"cpo36qri1sfpv3e86is0","pricing_plan_id":"cebpf4jnsgd1na2vs0mg"},{"bike_id":"0af203fb-c1fe-4f43-a9a2-b6b372ffe20c","system_id":"levelo_inurba_marseille","lat":43.28512,"lon":5.48449,"is_reserved":false,"is_disabled":false,"rental_uris":{"android":"levelo://app?vid=0af203fb-c1fe-4f43-a9a2-b6b372ffe20c","ios":"levelo://app?vid=0af203fb-c1fe-4f43-a9a2-b6b372ffe20c"},"vehicle_type_id":"4","last_reported":1773686822,"current_range_meters":17600,"station_id":"","pricing_plan_id":"cebpf4jnsgd1na2vs0mg"},{"bike_id":"0ecd47cf-a7b9-4223-8093-c6087cb3bd4a","system_id":"levelo_inurba_marseille","lat":43.28435,"lon":5.35011,"is_reserved":false,"is_disabled":false,"rental_uris":{"android":"levelo://app?vid=0ecd47cf-a7b9-4223-8093-c6087cb3bd4a","ios":"levelo://app?vid=0ecd47cf-a7b9-4223-8093-c6087cb3bd4a"},"vehicle_type_id":"4","last_reported":1773686822,"current_range_meters":18000,"station_id":"ce4bhbh2rcd13ifvqepg","pricing_plan_id":"cebpf4jnsgd1na2vs0mg"},{"bike_id":"fa05944a-25c4-4c7a-aaf9-d8f832bd3a59","system_id":"levelo_inurba_marseille","lat":43.3076,"lon":5.42457,"is_reserved":false,"is_disabled":false,"rental_uris":{"android":"levelo://app?vid=fa05944a-25c4-4c7a-aaf9-d8f832bd3a59","ios":"levelo://app?vid=fa05944a-25c4-4c7a-aaf9-d8f832bd3a59"},"vehicle_type_id":"4","last_reported":1773686822,"current_range_meters":19200,"station_id":"st_cvj6ca6bvosntc0bfgr0","pricing_plan_id":"cebpf4jnsgd1na2vs0mg"},{"bike_id":"3cbbbd36-782b-4e48-8455-4f54e4b825a9","system_id":"levelo_inurba_marseille","lat":43.27379,"lon":5.36258,"is_reserved":false,"is_disabled":false,"rental_uris":{"android":"levelo://app?vid=3cbbbd36-782b-4e48-8455-4f54e4b825a9","ios":"levelo://app?vid=3cbbbd36-782b-4e48-8455-4f54e4b825a9"},"vehicle_type_id":"4","last_reported":1773686822,"current_range_meters":32400,"station_id":"ce4bhbh2rcd13ifvqeo0","pricing_plan_id":"cebpf4jnsgd1na2vs0mg"},{"bike_id":"3983afc1-ba19-4db7-a28e-c4b0e6316e8a","system_id":"levelo_inurba_marseille","lat":43.29256,"lon":5.38458,"is_reserved":false,"is_disabled":false,"rental_uris":{"android":"levelo://app?vid=3983afc1-ba19-4db7-a28e-c4b0e6316e8a","ios":"levelo://app?vid=3983afc1-ba19-4db7-a28e-c4b0e6316e8a"},"vehicle_type_id":"4","last_reported":1773686822,"current_range_meters":27200,"station_id":"ce4bh692rcd13ifvqea0","pricing_plan_id":"cebpf4jnsgd1na2vs0mg"},{"bike_id":"418b3006-8115-4499-86f6-2f8d7db64a16","system_id":"levelo_inurba_marseille","lat":43.30541,"lon":5.36537,"is_reserved":false,"is_disabled":false,"rental_uris":{"android":"levelo://app?vid=418b3006-8115-4499-86f6-2f8d7db64a16","ios":"levelo://app?vid=418b3006-8115-4499-86f6-2f8d7db64a16"},"vehicle_type_id":"4","last_reported":1773686822,"current_range_meters":18800,"station_id":"ce4bgs12rcd13ifvqcag","pricing_plan_id":"cebpf4jnsgd1na2vs0mg"},{"bike_id":"8c218bb3-5ced-4339-86c2-c2de1e782187","system_id":"levelo_inurba_marseille","lat":43.29303,"lon":5.36832,"is_reserved":false,"is_disabled":true,"rental_uris":{"android":"levelo://app?vid=8c218bb3-5ced-4339-86c2-c2de1e782187","ios":"levelo://app?vid=8c218bb3-5ced-4339-86c2-c2de1e782187"},"vehicle_type_id":"4","last_reported":1773686822,"current_range_meters":0,"station_id":"ce4bhbp2rcd13ifvqesg","pricing_plan_id":"cebpf4jnsgd1na2vs0mg"},{"bike_id":"7e113368-8b43-4dc9-a7d3-1b200ce7f912","system_id":"levelo_inurba_marseille","lat":43.27073,"lon":5.3831,"is_reserved":false,"is_disabled":false,"rental_uris":{"android":"levelo://app?vid=7e113368-8b43-4dc9-a7d3-1b200ce7f912","ios":"levelo://app?vid=7e113368-8b43-4dc9-a7d3-1b200ce7f912"},"vehicle_type_id":"4","last_reported":1773686822,"current_range_meters":28400,"station_id":"st_d3n2fo6cfp8s73cte1j0","pricing_plan_id":"cebpf4jnsgd1na2vs0mg"},{"bike_id":"b117ada9-6051-4ec8-af9c-fcb23f39ec91","system_id":"levelo_inurba_marseille","lat":43.29274,"lon":5.38459,"is_reserved":false,"is_disabled":false,"rental_uris":{"android":"levelo://app?vid=b117ada9-6051-4ec8-af9c-fcb23f39ec91","ios":"levelo://app?vid=b117ada9-6051-4ec8-af9c-fcb23f39ec91"},"vehicle_type_id":"4","last_reported":1773686822,"current_range_meters":12000,"station_id":"ce4bh692rcd13ifvqea0","pricing_plan_id":"cebpf4jnsgd1na2vs0mg"},{"bike_id":"6f7d91e0-d8ff-4289-b721-5ac744a4b9bc","system_id":"levelo_inurba_marseille","lat":43.25085,"lon":5.40291,"is_reserved":false,"is_disabled":false,"rental_uris":{"android":"levelo://app?vid=6f7d91e0-d8ff-4289-b721-5ac744a4b9bc","ios":"levelo://app?vid=6f7d91e0-d8ff-4289-b721-5ac744a4b9bc"},"vehicle_type_id":"4","last_reported":1773686822,"current_range_meters":30800,"station_id":"ce4bhlh2rcd13ifvqgig","pricing_plan_id":"cebpf4jnsgd1na2vs0mg"},{"bike_id":"7b857d81-d04a-4d3b-9391-e58842da83da","system_id":"levelo_inurba_marseille","lat":43.27804,"lon":5.40722,"is_reserved":false,"is_disabled":false,"rental_uris":{"android":"levelo://app?vid=7b857d81-d04a-4d3b-9391-e58842da83da","ios":"levelo://app?vid=7b857d81-d04a-4d3b-9391-e58842da83da"},"vehicle_type_id":"4","last_reported":1773686822,"current_range_meters":10800,"station_id":"ce4bhnh2rcd13ifvqgtg","pricing_plan_id":"cebpf4jnsgd1na2vs0mg"},{"bike_id":"4a4664ab-f777-4ebc-8cd0-daa91faf6694","system_id":"levelo_inurba_marseille","lat":43.2738,"lon":5.36231,"is_reserved":false,"is_disabled":false,"rental_uris":{"android":"levelo://app?vid=4a4664ab-f777-4ebc-8cd0-daa91faf6694","ios":"levelo://app?vid=4a4664ab-f777-4ebc-8cd0-daa91faf6694"},"vehicle_type_id":"4","last_reported":1773686822,"current_range_meters":40000,"station_id":"ce4bhbh2rcd13ifvqeo0","pricing_plan_id":"cebpf4jnsgd1na2vs0mg"},{"bike_id":"978a4c15-7738-4ac7-b950-093dc28561d0","system_id":"levelo_inurba_marseille","lat":43.29768,"lon":5.37101,"is_reserved":false,"is_disabled":true,"rental_uris":{"android":"levelo://app?vid=978a4c15-7738-4ac7-b950-093dc28561d0","ios":"levelo://app?vid=978a4c15-7738-4ac7-b950-093dc28561d0"},"vehicle_type_id":"4","last_reported":1773686822,"current_range_meters":39200,"station_id":"ce4bgop2rcd13ifvqc1g","pricing_plan_id":"cebpf4jnsgd1na2vs0mg"},{"bike_id":"b1e4bd73-4fa6-4553-a749-cfe2bc4b6838","system_id":"levelo_inurba_marseille","lat":43.28353,"lon":5.3811,"is_reserved":false,"is_disabled":false,"rental_uris":{"android":"levelo://app?vid=b1e4bd73-4fa6-4553-a749-cfe2bc4b6838","ios":"levelo://app?vid=b1e4bd73-4fa6-4553-a749-cfe2bc4b6838"},"vehicle_type_id":"4","last_reported":1773686822,"current_range_meters":13600,"station_id":"ce4bh412rcd13ifvqdr0","pricing_plan_id":"cebpf4jnsgd1na2vs0mg"},{"bike_id":"6b173acf-66cd-42c6-9bd8-55a50ae2bff6","system_id":"levelo_inurba_marseille","lat":43.26201,"lon":5.37926,"is_reserved":false,"is_disabled":false,"rental_uris":{"android":"levelo://app?vid=6b173acf-66cd-42c6-9bd8-55a50ae2bff6","ios":"levelo://app?vid=6b173acf-66cd-42c6-9bd8-55a50ae2bff6"},"vehicle_type_id":"4","last_reported":1773686822,"current_range_meters":18000,"station_id":"ce4bhjp2rcd13ifvqg90","pricing_plan_id":"cebpf4jnsgd1na2vs0mg"},{"bike_id":"4a8d7a43-5dbb-42a2-b5ca-8c6627ac6666","system_id":"levelo_inurba_marseille","lat":43.30197,"lon":5.36631,"is_reserved":false,"is_disabled":false,"rental_uris":{"android":"levelo://app?vid=4a8d7a43-5dbb-42a2-b5ca-8c6627ac6666","ios":"levelo://app?vid=4a8d7a43-5dbb-42a2-b5ca-8c6627ac6666"},"vehicle_type_id":"4","last_reported":1773686822,"current_range_meters":39200,"station_id":"ce4bgrh2rcd13ifvqc8g","pricing_plan_id":"cebpf4jnsgd1na2vs0mg"},{"bike_id":"31a8fbc7-b710-4e0e-b554-26c8b6e652b3","system_id":"levelo_inurba_marseille","lat":43.30295,"lon":5.39192,"is_reserved":false,"is_disabled":false,"rental_uris":{"android":"levelo://app?vid=31a8fbc7-b710-4e0e-b554-26c8b6e652b3","ios":"levelo://app?vid=31a8fbc7-b710-4e0e-b554-26c8b6e652b3"},"vehicle_type_id":"4","last_reported":1773686822,"current_range_meters":4000,"station_id":"ce4bgkh2rcd13ifvqbk0","pricing_plan_id":"cebpf4jnsgd1na2vs0mg"},{"bike_id":"3acb816e-1f68-4780-8294-a90df833ac59","system_id":"levelo_inurba_marseille","lat":43.21755,"lon":5.34625,"is_reserved":false,"is_disabled":false,"rental_uris":{"android":"levelo://app?vid=3acb816e-1f68-4780-8294-a90df833ac59","ios":"levelo://app?vid=3acb816e-1f68-4780-8294-a90df833ac59"},"vehicle_type_id":"4","last_reported":1773686822,"current_range_meters":10000,"station_id":"st_cvj6r9ubvosntc0bgbag","pricing_plan_id":"cebpf4jnsgd1na2vs0mg"},{"bike_id":"f7b4a7b1-1af9-42f8-bfb3-60cc558d1746","system_id":"levelo_inurba_marseille","lat":43.25454,"lon":5.38075,"is_reserved":false,"is_disabled":false,"rental_uris":{"android":"levelo://app?vid=f7b4a7b1-1af9-42f8-bfb3-60cc558d1746","ios":"levelo://app?vid=f7b4a7b1-1af9-42f8-bfb3-60cc558d1746"},"vehicle_type_id":"4","last_reported":1773686822,"current_range_meters":39200,"station_id":"","pricing_plan_id":"cebpf4jnsgd1na2vs0mg"},{"bike_id":"3da27fab-f707-4d6f-8b10-883081079bc6","system_id":"levelo_inurba_marseille","lat":43.27384,"lon":5.36265,"is_reserved":false,"is_disabled":false,"rental_uris":{"android":"levelo://app?vid=3da27fab-f707-4d6f-8b10-883081079bc6","ios":"levelo://app?vid=3da27fab-f707-4d6f-8b10-883081079bc6"},"vehicle_type_id":"4","last_reported":1773686822,"current_range_meters":38400,"station_id":"ce4bhbh2rcd13ifvqeo0","pricing_plan_id":"cebpf4jnsgd1na2vs0mg"},{"bike_id":"8eb27ffd-b2af-49a7-8f56-ec7cbdebcd32","system_id":"levelo_inurba_marseille","lat":43.31331,"lon":5.39698,"is_reserved":false,"is_disabled":false,"rental_uris":{"android":"levelo://app?vid=8eb27ffd-b2af-49a7-8f56-ec7cbdebcd32","ios":"levelo://app?vid=8eb27ffd-b2af-49a7-8f56-ec7cbdebcd32"},"vehicle_type_id":"4","last_reported":1773686822,"current_range_meters":3600,"station_id":"ce4bgvp2rcd13ifvqcu0","pricing_plan_id":"cebpf4jnsgd1na2vs0mg"},{"bike_id":"7b1fd36f-d95a-4ff5-a7d3-ab8b306a4534","system_id":"levelo_inurba_marseille","lat":43.27922,"lon":5.39581,"is_reserved":false,"is_disabled":false,"rental_uris":{"android":"levelo://app?vid=7b1fd36f-d95a-4ff5-a7d3-ab8b306a4534","ios":"levelo://app?vid=7b1fd36f-d95a-4ff5-a7d3-ab8b306a4534"},"vehicle_type_id":"4","last_reported":1773686822,"current_range_meters":36400,"station_id":"ce4bhf92rcd13ifvqf40","pricing_plan_id":"cebpf4jnsgd1na2vs0mg"},{"bike_id":"dcf83cf4-11cd-49e6-828d-741d409c2bac","system_id":"levelo_inurba_marseille","lat":43.30324,"lon":5.40443,"is_reserved":false,"is_disabled":false,"rental_uris":{"android":"levelo://app?vid=dcf83cf4-11cd-49e6-828d-741d409c2bac","ios":"levelo://app?vid=dcf83cf4-11cd-49e6-828d-741d409c2bac"},"vehicle_type_id":"4","last_reported":1773686822,"current_range_meters":24800,"station_id":"ce4bh012rcd13ifvqd10","pricing_plan_id":"cebpf4jnsgd1na2vs0mg"},{"bike_id":"6b378b69-0380-4204-b071-ad21b6910bb1","system_id":"levelo_inurba_marseille","lat":43.26919,"lon":5.40262,"is_reserved":false,"is_disabled":false,"rental_uris":{"android":"levelo://app?vid=6b378b69-0380-4204-b071-ad21b6910bb1","ios":"levelo://app?vid=6b378b69-0380-4204-b071-ad21b6910bb1"},"vehicle_type_id":"4","last_reported":1773686822,"current_range_meters":22000,"station_id":"cjm6bp8fraef2m0cb0m0","pricing_plan_id":"cebpf4jnsgd1na2vs0mg"},{"bike_id":"7e55300e-c6ce-4cea-b352-04866308b200","system_id":"levelo_inurba_marseille","lat":43.29543,"lon":5.42274,"is_reserved":false,"is_disabled":false,"rental_uris":{"android":"levelo://app?vid=7e55300e-c6ce-4cea-b352-04866308b200","ios":"levelo://app?vid=7e55300e-c6ce-4cea-b352-04866308b200"},"vehicle_type_id":"4","last_reported":1773686822,"current_range_meters":19600,"station_id":"ce4bhph2rcd13ifvqhdg","pricing_plan_id":"cebpf4jnsgd1na2vs0mg"},{"bike_id":"03864d4a-01d7-4582-93c5-baa74674447d","system_id":"levelo_inurba_marseille","lat":43.2499,"lon":5.38947,"is_reserved":false,"is_disabled":false,"rental_uris":{"android":"levelo://app?vid=03864d4a-01d7-4582-93c5-baa74674447d","ios":"levelo://app?vid=03864d4a-01d7-4582-93c5-baa74674447d"},"vehicle_type_id":"4","last_reported":1773686822,"current_range_meters":22800,"station_id":"ce4bhgp2rcd13ifvqfd0","pricing_plan_id":"cebpf4jnsgd1na2vs0mg"},{"bike_id":"95ec8af2-4d29-4c13-840c-24a711da18be","system_id":"levelo_inurba_marseille","lat":43.30462,"lon":5.3791,"is_reserved":false,"is_disabled":true,"rental_uris":{"android":"levelo://app?vid=95ec8af2-4d29-4c13-840c-24a711da18be","ios":"levelo://app?vid=95ec8af2-4d29-4c13-840c-24a711da18be"},"vehicle_type_id":"4","last_reported":1773686822,"current_range_meters":400,"station_id":"","pricing_plan_id":"cebpf4jnsgd1na2vs0mg"},{"bike_id":"abe0295d-f57b-451c-b45f-91f0ea6f826c","system_id":"levelo_inurba_marseille","lat":43.28416,"lon":5.34998,"is_reserved":false,"is_disabled":true,"rental_uris":{"android":"levelo://app?vid=abe0295d-f57b-451c-b45f-91f0ea6f826c","ios":"levelo://app?vid=abe0295d-f57b-451c-b45f-91f0ea6f826c"},"vehicle_type_id":"4","last_reported":1773686822,"current_range_meters":38800,"station_id":"ce4bhbh2rcd13ifvqepg","pricing_plan_id":"cebpf4jnsgd1na2vs0mg"},{"bike_id":"8a39bd95-653a-47cf-989d-cd8f1fe2ee04","system_id":"levelo_inurba_marseille","lat":43.29855,"lon":5.36249,"is_reserved":false,"is_disabled":false,"rental_uris":{"android":"levelo://app?vid=8a39bd95-653a-47cf-989d-cd8f1fe2ee04","ios":"levelo://app?vid=8a39bd95-653a-47cf-989d-cd8f1fe2ee04"},"vehicle_type_id":"4","last_reported":1773686822,"current_range_meters":38800,"station_id":"ce4bgpp2rcd13ifvqc3g","pricing_plan_id":"cebpf4jnsgd1na2vs0mg"},{"bike_id":"b992d013-31c6-40e6-b76c-ffb49d136524","system_id":"levelo_inurba_marseille","lat":43.32366,"lon":5.38881,"is_reserved":false,"is_disabled":false,"rental_uris":{"android":"levelo://app?vid=b992d013-31c6-40e6-b76c-ffb49d136524","ios":"levelo://app?vid=b992d013-31c6-40e6-b76c-ffb49d136524"},"vehicle_type_id":"4","last_reported":1773686822,"current_range_meters":38000,"station_id":"ce4bhqp2rcd13ifvqhog","pricing_plan_id":"cebpf4jnsgd1na2vs0mg"},{"bike_id":"b2cf1815-9c26-4da3-8c5c-f507a757643a","system_id":"levelo_inurba_marseille","lat":43.2953,"lon":5.38549,"is_reserved":false,"is_disabled":false,"rental_uris":{"android":"levelo://app?vid=b2cf1815-9c26-4da3-8c5c-f507a757643a","ios":"levelo://app?vid=b2cf1815-9c26-4da3-8c5c-f507a757643a"},"vehicle_type_id":"4","last_reported":1773686822,"current_range_meters":37600,"station_id":"ce4bgih2rcd13ifvqba0","pricing_plan_id":"cebpf4jnsgd1na2vs0mg"},{"bike_id":"95eefe84-5f86-4900-a722-28cdcc39588e","system_id":"levelo_inurba_marseille","lat":43.28231,"lon":5.35064,"is_reserved":false,"is_disabled":true,"rental_uris":{"android":"levelo://app?vid=95eefe84-5f86-4900-a722-28cdcc39588e","ios":"levelo://app?vid=95eefe84-5f86-4900-a722-28cdcc39588e"},"vehicle_type_id":"4","last_reported":1773686822,"current_range_meters":400,"station_id":"ce4bhbp2rcd13ifvqerg","pricing_plan_id":"cebpf4jnsgd1na2vs0mg"},{"bike_id":"95335745-9338-4a1d-a429-0f72ada4d5ca","system_id":"levelo_inurba_marseille","lat":43.26388,"lon":5.41083,"is_reserved":false,"is_disabled":false,"rental_uris":{"android":"levelo://app?vid=95335745-9338-4a1d-a429-0f72ada4d5ca","ios":"levelo://app?vid=95335745-9338-4a1d-a429-0f72ada4d5ca"},"vehicle_type_id":"4","last_reported":1773686822,"current_range_meters":25200,"station_id":"st_d4e5ca6na9uc73bfl5fg","pricing_plan_id":"cebpf4jnsgd1na2vs0mg"},{"bike_id":"b085ce6d-c1a9-4c37-ac76-73fb3d67b280","system_id":"levelo_inurba_marseille","lat":43.27933,"lon":5.39608,"is_reserved":false,"is_disabled":false,"rental_uris":{"android":"levelo://app?vid=b085ce6d-c1a9-4c37-ac76-73fb3d67b280","ios":"levelo://app?vid=b085ce6d-c1a9-4c37-ac76-73fb3d67b280"},"vehicle_type_id":"4","last_reported":1773686822,"current_range_meters":8800,"station_id":"ce4bhf92rcd13ifvqf40","pricing_plan_id":"cebpf4jnsgd1na2vs0mg"},{"bike_id":"014fbe6d-acef-4024-b919-caaae3fc7ea1","system_id":"levelo_inurba_marseille","lat":43.28616,"lon":5.35099,"is_reserved":false,"is_disabled":false,"rental_uris":{"android":"levelo://app?vid=014fbe6d-acef-4024-b919-caaae3fc7ea1","ios":"levelo://app?vid=014fbe6d-acef-4024-b919-caaae3fc7ea1"},"vehicle_type_id":"4","last_reported":1773686822,"current_range_meters":28800,"station_id":"ce4bhch2rcd13ifvqeug","pricing_plan_id":"cebpf4jnsgd1na2vs0mg"},{"bike_id":"42bc0093-81bd-4b9d-83e8-2ebeaf90066a","system_id":"levelo_inurba_marseille","lat":43.2985,"lon":5.36234,"is_reserved":false,"is_disabled":true,"rental_uris":{"android":"levelo://app?vid=42bc0093-81bd-4b9d-83e8-2ebeaf90066a","ios":"levelo://app?vid=42bc0093-81bd-4b9d-83e8-2ebeaf90066a"},"vehicle_type_id":"4","last_reported":1773686822,"current_range_meters":400,"station_id":"ce4bgpp2rcd13ifvqc3g","pricing_plan_id":"cebpf4jnsgd1na2vs0mg"},{"bike_id":"50c7323a-e0d3-40d7-bb52-3835c1efc8eb","system_id":"levelo_inurba_marseille","lat":43.26205,"lon":5.37934,"is_reserved":false,"is_disabled":false,"rental_uris":{"android":"levelo://app?vid=50c7323a-e0d3-40d7-bb52-3835c1efc8eb","ios":"levelo://app?vid=50c7323a-e0d3-40d7-bb52-3835c1efc8eb"},"vehicle_type_id":"4","last_reported":1773686822,"current_range_meters":40000,"station_id":"ce4bhjp2rcd13ifvqg90","pricing_plan_id":"cebpf4jnsgd1na2vs0mg"},{"bike_id":"d0dab2fa-d617-4c19-a612-133b45b47130","system_id":"levelo_inurba_marseille","lat":43.23208,"lon":5.3556,"is_reserved":false,"is_disabled":false,"rental_uris":{"android":"levelo://app?vid=d0dab2fa-d617-4c19-a612-133b45b47130","ios":"levelo://app?vid=d0dab2fa-d617-4c19-a612-133b45b47130"},"vehicle_type_id":"4","last_reported":1773686822,"current_range_meters":20000,"station_id":"ce4bhu92rcd13ifvqi70","pricing_plan_id":"cebpf4jnsgd1na2vs0mg"},{"bike_id":"491ba74c-a458-433d-a534-dfa81b7720cd","system_id":"levelo_inurba_marseille","lat":43.21758,"lon":5.34627,"is_reserved":false,"is_disabled":false,"rental_uris":{"android":"levelo://app?vid=491ba74c-a458-433d-a534-dfa81b7720cd","ios":"levelo://app?vid=491ba74c-a458-433d-a534-dfa81b7720cd"},"vehicle_type_id":"4","last_reported":1773686822,"current_range_meters":9200,"station_id":"st_cvj6r9ubvosntc0bgbag","pricing_plan_id":"cebpf4jnsgd1na2vs0mg"},{"bike_id":"fdf866ca-9a01-40b6-8b5d-7ed716ee6f5e","system_id":"levelo_inurba_marseille","lat":43.30733,"lon":5.42431,"is_reserved":false,"is_disabled":false,"rental_uris":{"android":"levelo://app?vid=fdf866ca-9a01-40b6-8b5d-7ed716ee6f5e","ios":"levelo://app?vid=fdf866ca-9a01-40b6-8b5d-7ed716ee6f5e"},"vehicle_type_id":"4","last_reported":1773686822,"current_range_meters":38800,"station_id":"st_cvj6ca6bvosntc0bfgr0","pricing_plan_id":"cebpf4jnsgd1na2vs0mg"},{"bike_id":"3eb7ad14-2b13-4800-a034-c9511ab95864","system_id":"levelo_inurba_marseille","lat":43.25821,"lon":5.39439,"is_reserved":false,"is_disabled":false,"rental_uris":{"android":"levelo://app?vid=3eb7ad14-2b13-4800-a034-c9511ab95864","ios":"levelo://app?vid=3eb7ad14-2b13-4800-a034-c9511ab95864"},"vehicle_type_id":"4","last_reported":1773686822,"current_range_meters":33600,"station_id":"ce4bhip2rcd13ifvqft0","pricing_plan_id":"cebpf4jnsgd1na2vs0mg"},{"bike_id":"c2d75a77-7dda-428e-bdbd-a97c9d7e2102","system_id":"levelo_inurba_marseille","lat":43.27088,"lon":5.38299,"is_reserved":false,"is_disabled":true,"rental_uris":{"android":"levelo://app?vid=c2d75a77-7dda-428e-bdbd-a97c9d7e2102","ios":"levelo://app?vid=c2d75a77-7dda-428e-bdbd-a97c9d7e2102"},"vehicle_type_id":"4","last_reported":1773686822,"current_range_meters":35200,"station_id":"st_d3n2fo6cfp8s73cte1j0","pricing_plan_id":"cebpf4jnsgd1na2vs0mg"},{"bike_id":"1c4d75fc-5bfb-47fc-981b-662821d0f551","system_id":"levelo_inurba_marseille","lat":43.24647,"lon":5.38896,"is_reserved":false,"is_disabled":false,"rental_uris":{"android":"levelo://app?vid=1c4d75fc-5bfb-47fc-981b-662821d0f551","ios":"levelo://app?vid=1c4d75fc-5bfb-47fc-981b-662821d0f551"},"vehicle_type_id":"4","last_reported":1773686822,"current_range_meters":26800,"station_id":"ce4bhg12rcd13ifvqf60","pricing_plan_id":"cebpf4jnsgd1na2vs0mg"},{"bike_id":"f5a89c94-85d5-4072-a253-0790209fb88e","system_id":"levelo_inurba_marseille","lat":43.30425,"lon":5.38877,"is_reserved":false,"is_disabled":true,"rental_uris":{"android":"levelo://app?vid=f5a89c94-85d5-4072-a253-0790209fb88e","ios":"levelo://app?vid=f5a89c94-85d5-4072-a253-0790209fb88e"},"vehicle_type_id":"4","last_reported":1773686822,"current_range_meters":800,"station_id":"ce4bgk12rcd13ifvqbi0","pricing_plan_id":"cebpf4jnsgd1na2vs0mg"},{"bike_id":"ae60902a-ae6a-4ede-8134-6229c28af397","system_id":"levelo_inurba_marseille","lat":43.29246,"lon":5.38427,"is_reserved":false,"is_disabled":false,"rental_uris":{"android":"levelo://app?vid=ae60902a-ae6a-4ede-8134-6229c28af397","ios":"levelo://app?vid=ae60902a-ae6a-4ede-8134-6229c28af397"},"vehicle_type_id":"4","last_reported":1773686822,"current_range_meters":25200,"station_id":"ce4bh692rcd13ifvqea0","pricing_plan_id":"cebpf4jnsgd1na2vs0mg"},{"bike_id":"d9327af9-2ccb-40c5-9d43-9c668a8ed4e1","system_id":"levelo_inurba_marseille","lat":43.31127,"lon":5.37781,"is_reserved":false,"is_disabled":false,"rental_uris":{"android":"levelo://app?vid=d9327af9-2ccb-40c5-9d43-9c668a8ed4e1","ios":"levelo://app?vid=d9327af9-2ccb-40c5-9d43-9c668a8ed4e1"},"vehicle_type_id":"4","last_reported":1773686822,"current_range_meters":35600,"station_id":"ce4bgt92rcd13ifvqcg0","pricing_plan_id":"cebpf4jnsgd1na2vs0mg"},{"bike_id":"12bb0608-da9d-4e04-8f31-0e077a96fffb","system_id":"levelo_inurba_marseille","lat":43.25598,"lon":5.38245,"is_reserved":false,"is_disabled":false,"rental_uris":{"android":"levelo://app?vid=12bb0608-da9d-4e04-8f31-0e077a96fffb","ios":"levelo://app?vid=12bb0608-da9d-4e04-8f31-0e077a96fffb"},"vehicle_type_id":"4","last_reported":1773686822,"current_range_meters":27600,"station_id":"ce4bhih2rcd13ifvqfs0","pricing_plan_id":"cebpf4jnsgd1na2vs0mg"},{"bike_id":"ef124b6c-1864-4cf0-9457-14566d1138f0","system_id":"levelo_inurba_marseille","lat":43.26368,"lon":5.41091,"is_reserved":false,"is_disabled":false,"rental_uris":{"android":"levelo://app?vid=ef124b6c-1864-4cf0-9457-14566d1138f0","ios":"levelo://app?vid=ef124b6c-1864-4cf0-9457-14566d1138f0"},"vehicle_type_id":"4","last_reported":1773686822,"current_range_meters":25600,"station_id":"st_d4e5ca6na9uc73bfl5fg","pricing_plan_id":"cebpf4jnsgd1na2vs0mg"},{"bike_id":"87961bc8-b9ec-434a-9714-7ea7cf0235a9","system_id":"levelo_inurba_marseille","lat":43.33777,"lon":5.37464,"is_reserved":false,"is_disabled":false,"rental_uris":{"android":"levelo://app?vid=87961bc8-b9ec-434a-9714-7ea7cf0235a9","ios":"levelo://app?vid=87961bc8-b9ec-434a-9714-7ea7cf0235a9"},"vehicle_type_id":"4","last_reported":1773686822,"current_range_meters":11200,"station_id":"","pricing_plan_id":"cebpf4jnsgd1na2vs0mg"},{"bike_id":"dc87472d-8b25-4b3e-9da8-bd96a3b25cd1","system_id":"levelo_inurba_marseille","lat":43.28284,"lon":5.35084,"is_reserved":false,"is_disabled":false,"rental_uris":{"android":"levelo://app?vid=dc87472d-8b25-4b3e-9da8-bd96a3b25cd1","ios":"levelo://app?vid=dc87472d-8b25-4b3e-9da8-bd96a3b25cd1"},"vehicle_type_id":"4","last_reported":1773686822,"current_range_meters":14400,"station_id":"ce4bhbp2rcd13ifvqerg","pricing_plan_id":"cebpf4jnsgd1na2vs0mg"},{"bike_id":"5dedbb18-e988-4c62-a1b7-6082fc58ac3f","system_id":"levelo_inurba_marseille","lat":43.25094,"lon":5.39509,"is_reserved":false,"is_disabled":false,"rental_uris":{"android":"levelo://app?vid=5dedbb18-e988-4c62-a1b7-6082fc58ac3f","ios":"levelo://app?vid=5dedbb18-e988-4c62-a1b7-6082fc58ac3f"},"vehicle_type_id":"4","last_reported":1773686822,"current_range_meters":3600,"station_id":"ce4bhm12rcd13ifvqgkg","pricing_plan_id":"cebpf4jnsgd1na2vs0mg"},{"bike_id":"46e76c42-49b3-4ec2-ab82-a7609ce32033","system_id":"levelo_inurba_marseille","lat":43.27419,"lon":5.39416,"is_reserved":false,"is_disabled":false,"rental_uris":{"android":"levelo://app?vid=46e76c42-49b3-4ec2-ab82-a7609ce32033","ios":"levelo://app?vid=46e76c42-49b3-4ec2-ab82-a7609ce32033"},"vehicle_type_id":"4","last_reported":1773686822,"current_range_meters":4000,"station_id":"ce4bhdp2rcd13ifvqf20","pricing_plan_id":"cebpf4jnsgd1na2vs0mg"},{"bike_id":"7d0d6579-73dd-45b7-81e1-90af3d6ef163","system_id":"levelo_inurba_marseille","lat":43.22558,"lon":5.41624,"is_reserved":false,"is_disabled":false,"rental_uris":{"android":"levelo://app?vid=7d0d6579-73dd-45b7-81e1-90af3d6ef163","ios":"levelo://app?vid=7d0d6579-73dd-45b7-81e1-90af3d6ef163"},"vehicle_type_id":"4","last_reported":1773686822,"current_range_meters":8400,"station_id":"st_d2o4gvlbi1j2169b742g","pricing_plan_id":"cebpf4jnsgd1na2vs0mg"},{"bike_id":"7883c089-5159-4a04-96e1-a061f9111335","system_id":"levelo_inurba_marseille","lat":43.28343,"lon":5.38085,"is_reserved":false,"is_disabled":false,"rental_uris":{"android":"levelo://app?vid=7883c089-5159-4a04-96e1-a061f9111335","ios":"levelo://app?vid=7883c089-5159-4a04-96e1-a061f9111335"},"vehicle_type_id":"4","last_reported":1773686822,"current_range_meters":33200,"station_id":"ce4bh412rcd13ifvqdr0","pricing_plan_id":"cebpf4jnsgd1na2vs0mg"},{"bike_id":"de3e3c75-ed7d-45f7-830a-1f53c5325eae","system_id":"levelo_inurba_marseille","lat":43.28155,"lon":5.42641,"is_reserved":false,"is_disabled":false,"rental_uris":{"android":"levelo://app?vid=de3e3c75-ed7d-45f7-830a-1f53c5325eae","ios":"levelo://app?vid=de3e3c75-ed7d-45f7-830a-1f53c5325eae"},"vehicle_type_id":"4","last_reported":1773686822,"current_range_meters":22400,"station_id":"ce4bhnh2rcd13ifvqgug","pricing_plan_id":"cebpf4jnsgd1na2vs0mg"},{"bike_id":"23558115-be49-47e6-bb20-23402346c1a4","system_id":"levelo_inurba_marseille","lat":43.30541,"lon":5.38428,"is_reserved":false,"is_disabled":false,"rental_uris":{"android":"levelo://app?vid=23558115-be49-47e6-bb20-23402346c1a4","ios":"levelo://app?vid=23558115-be49-47e6-bb20-23402346c1a4"},"vehicle_type_id":"4","last_reported":1773686822,"current_range_meters":4400,"station_id":"ce4bgg92rcd13ifvqb30","pricing_plan_id":"cebpf4jnsgd1na2vs0mg"},{"bike_id":"6bd46585-7360-490f-b2a6-8e61e6304105","system_id":"levelo_inurba_marseille","lat":43.29734,"lon":5.42687,"is_reserved":false,"is_disabled":false,"rental_uris":{"android":"levelo://app?vid=6bd46585-7360-490f-b2a6-8e61e6304105","ios":"levelo://app?vid=6bd46585-7360-490f-b2a6-8e61e6304105"},"vehicle_type_id":"4","last_reported":1773686822,"current_range_meters":12800,"station_id":"","pricing_plan_id":"cebpf4jnsgd1na2vs0mg"},{"bike_id":"4c177e21-a8fe-4f57-a94f-d114f72249f7","system_id":"levelo_inurba_marseille","lat":43.31858,"lon":5.3697,"is_reserved":false,"is_disabled":false,"rental_uris":{"android":"levelo://app?vid=4c177e21-a8fe-4f57-a94f-d114f72249f7","ios":"levelo://app?vid=4c177e21-a8fe-4f57-a94f-d114f72249f7"},"vehicle_type_id":"4","last_reported":1773686822,"current_range_meters":35200,"station_id":"","pricing_plan_id":"cebpf4jnsgd1na2vs0mg"},{"bike_id":"022b5c41-0403-42dc-b165-343ac95ee5ad","system_id":"levelo_inurba_marseille","lat":43.33138,"lon":5.39246,"is_reserved":false,"is_disabled":false,"rental_uris":{"android":"levelo://app?vid=022b5c41-0403-42dc-b165-343ac95ee5ad","ios":"levelo://app?vid=022b5c41-0403-42dc-b165-343ac95ee5ad"},"vehicle_type_id":"4","last_reported":1773686822,"current_range_meters":34000,"station_id":"","pricing_plan_id":"cebpf4jnsgd1na2vs0mg"},{"bike_id":"03b1b92a-d21f-4b09-ad20-c80e5eee47a1","system_id":"levelo_inurba_marseille","lat":43.29863,"lon":5.36296,"is_reserved":false,"is_disabled":false,"rental_uris":{"android":"levelo://app?vid=03b1b92a-d21f-4b09-ad20-c80e5eee47a1","ios":"levelo://app?vid=03b1b92a-d21f-4b09-ad20-c80e5eee47a1"},"vehicle_type_id":"4","last_reported":1773686822,"current_range_meters":38400,"station_id":"ce4bgpp2rcd13ifvqc3g","pricing_plan_id":"cebpf4jnsgd1na2vs0mg"},{"bike_id":"90006b8d-6aa9-4ebe-9082-e177c10b421a","system_id":"levelo_inurba_marseille","lat":43.31315,"lon":5.37225,"is_reserved":false,"is_disabled":false,"rental_uris":{"android":"levelo://app?vid=90006b8d-6aa9-4ebe-9082-e177c10b421a","ios":"levelo://app?vid=90006b8d-6aa9-4ebe-9082-e177c10b421a"},"vehicle_type_id":"4","last_reported":1773686822,"current_range_meters":35600,"station_id":"","pricing_plan_id":"cebpf4jnsgd1na2vs0mg"},{"bike_id":"584f7aa0-b582-45fa-adcb-d34128f4ce54","system_id":"levelo_inurba_marseille","lat":43.28114,"lon":5.40648,"is_reserved":false,"is_disabled":true,"rental_uris":{"android":"levelo://app?vid=584f7aa0-b582-45fa-adcb-d34128f4ce54","ios":"levelo://app?vid=584f7aa0-b582-45fa-adcb-d34128f4ce54"},"vehicle_type_id":"4","last_reported":1773686822,"current_range_meters":6800,"station_id":"","pricing_plan_id":"cebpf4jnsgd1na2vs0mg"},{"bike_id":"7517fa86-d451-4907-a9dc-fc9996d36076","system_id":"levelo_inurba_marseille","lat":43.26582,"lon":5.39008,"is_reserved":false,"is_disabled":false,"rental_uris":{"android":"levelo://app?vid=7517fa86-d451-4907-a9dc-fc9996d36076","ios":"levelo://app?vid=7517fa86-d451-4907-a9dc-fc9996d36076"},"vehicle_type_id":"4","last_reported":1773686822,"current_range_meters":28000,"station_id":"ce4bhe12rcd13ifvqf30","pricing_plan_id":"cebpf4jnsgd1na2vs0mg"},{"bike_id":"8ae3cd93-1df5-4c86-a3cd-ea1407ea9258","system_id":"levelo_inurba_marseille","lat":43.30672,"lon":5.424,"is_reserved":false,"is_disabled":false,"rental_uris":{"android":"levelo://app?vid=8ae3cd93-1df5-4c86-a3cd-ea1407ea9258","ios":"levelo://app?vid=8ae3cd93-1df5-4c86-a3cd-ea1407ea9258"},"vehicle_type_id":"4","last_reported":1773686822,"current_range_meters":30800,"station_id":"st_cvj6ca6bvosntc0bfgr0","pricing_plan_id":"cebpf4jnsgd1na2vs0mg"},{"bike_id":"0bd699b8-0f51-4e7d-b635-e29484ca415b","system_id":"levelo_inurba_marseille","lat":43.25581,"lon":5.3826,"is_reserved":false,"is_disabled":false,"rental_uris":{"android":"levelo://app?vid=0bd699b8-0f51-4e7d-b635-e29484ca415b","ios":"levelo://app?vid=0bd699b8-0f51-4e7d-b635-e29484ca415b"},"vehicle_type_id":"4","last_reported":1773686822,"current_range_meters":18800,"station_id":"ce4bhih2rcd13ifvqfs0","pricing_plan_id":"cebpf4jnsgd1na2vs0mg"},{"bike_id":"a1a487e0-263f-4bcb-a083-313a46d262d6","system_id":"levelo_inurba_marseille","lat":43.29116,"lon":5.43276,"is_reserved":false,"is_disabled":true,"rental_uris":{"android":"levelo://app?vid=a1a487e0-263f-4bcb-a083-313a46d262d6","ios":"levelo://app?vid=a1a487e0-263f-4bcb-a083-313a46d262d6"},"vehicle_type_id":"4","last_reported":1773686822,"current_range_meters":20800,"station_id":"","pricing_plan_id":"cebpf4jnsgd1na2vs0mg"},{"bike_id":"49e58704-bd58-42c3-8914-3a9b6b6272a4","system_id":"levelo_inurba_marseille","lat":43.28846,"lon":5.3585,"is_reserved":false,"is_disabled":false,"rental_uris":{"android":"levelo://app?vid=49e58704-bd58-42c3-8914-3a9b6b6272a4","ios":"levelo://app?vid=49e58704-bd58-42c3-8914-3a9b6b6272a4"},"vehicle_type_id":"4","last_reported":1773686822,"current_range_meters":27600,"station_id":"ce4bhb12rcd13ifvqem0","pricing_plan_id":"cebpf4jnsgd1na2vs0mg"},{"bike_id":"075f30c4-9adf-4c08-818b-71bccb3f17d4","system_id":"levelo_inurba_marseille","lat":43.28942,"lon":5.38408,"is_reserved":false,"is_disabled":false,"rental_uris":{"android":"levelo://app?vid=075f30c4-9adf-4c08-818b-71bccb3f17d4","ios":"levelo://app?vid=075f30c4-9adf-4c08-818b-71bccb3f17d4"},"vehicle_type_id":"4","last_reported":1773686822,"current_range_meters":12800,"station_id":"ce4bh612rcd13ifvqe6g","pricing_plan_id":"cebpf4jnsgd1na2vs0mg"},{"bike_id":"ddd64a40-0275-4ca7-a97f-2eff5d3e514a","system_id":"levelo_inurba_marseille","lat":43.28506,"lon":5.48454,"is_reserved":false,"is_disabled":false,"rental_uris":{"android":"levelo://app?vid=ddd64a40-0275-4ca7-a97f-2eff5d3e514a","ios":"levelo://app?vid=ddd64a40-0275-4ca7-a97f-2eff5d3e514a"},"vehicle_type_id":"4","last_reported":1773686822,"current_range_meters":8000,"station_id":"st_d3svhcjqgbts73a3dn0g","pricing_plan_id":"cebpf4jnsgd1na2vs0mg"},{"bike_id":"f0dedd0a-9f1d-44d9-8419-96bb1376ce6d","system_id":"levelo_inurba_marseille","lat":43.30307,"lon":5.36897,"is_reserved":false,"is_disabled":false,"rental_uris":{"android":"levelo://app?vid=f0dedd0a-9f1d-44d9-8419-96bb1376ce6d","ios":"levelo://app?vid=f0dedd0a-9f1d-44d9-8419-96bb1376ce6d"},"vehicle_type_id":"4","last_reported":1773686822,"current_range_meters":38800,"station_id":"ce4bgqh2rcd13ifvqc5g","pricing_plan_id":"cebpf4jnsgd1na2vs0mg"},{"bike_id":"be7ccf41-b430-4cd7-97e6-0402ebf8903b","system_id":"levelo_inurba_marseille","lat":43.29035,"lon":5.38593,"is_reserved":false,"is_disabled":false,"rental_uris":{"android":"levelo://app?vid=be7ccf41-b430-4cd7-97e6-0402ebf8903b","ios":"levelo://app?vid=be7ccf41-b430-4cd7-97e6-0402ebf8903b"},"vehicle_type_id":"4","last_reported":1773686822,"current_range_meters":19600,"station_id":"ce4bh4p2rcd13ifvqe0g","pricing_plan_id":"cebpf4jnsgd1na2vs0mg"},{"bike_id":"1a2ad8e0-25f4-4b1d-a268-792ddb756ae5","system_id":"levelo_inurba_marseille","lat":43.33548,"lon":5.37476,"is_reserved":false,"is_disabled":false,"rental_uris":{"android":"levelo://app?vid=1a2ad8e0-25f4-4b1d-a268-792ddb756ae5","ios":"levelo://app?vid=1a2ad8e0-25f4-4b1d-a268-792ddb756ae5"},"vehicle_type_id":"4","last_reported":1773686822,"current_range_meters":14000,"station_id":"st_d46tts09ee8s73dlu43g","pricing_plan_id":"cebpf4jnsgd1na2vs0mg"},{"bike_id":"5dea7ece-1d9b-471d-a08a-4a42d6f62761","system_id":"levelo_inurba_marseille","lat":43.28615,"lon":5.35102,"is_reserved":false,"is_disabled":false,"rental_uris":{"android":"levelo://app?vid=5dea7ece-1d9b-471d-a08a-4a42d6f62761","ios":"levelo://app?vid=5dea7ece-1d9b-471d-a08a-4a42d6f62761"},"vehicle_type_id":"4","last_reported":1773686822,"current_range_meters":32400,"station_id":"ce4bhch2rcd13ifvqeug","pricing_plan_id":"cebpf4jnsgd1na2vs0mg"},{"bike_id":"a81cc48d-fcc5-49d9-a903-9e13600c09b8","system_id":"levelo_inurba_marseille","lat":43.2307,"lon":5.35511,"is_reserved":false,"is_disabled":false,"rental_uris":{"android":"levelo://app?vid=a81cc48d-fcc5-49d9-a903-9e13600c09b8","ios":"levelo://app?vid=a81cc48d-fcc5-49d9-a903-9e13600c09b8"},"vehicle_type_id":"4","last_reported":1773686822,"current_range_meters":35200,"station_id":"cpo3342slgdg3j2ifvpg","pricing_plan_id":"cebpf4jnsgd1na2vs0mg"},{"bike_id":"e5a797cb-e1fa-46f1-827d-4528129adf92","system_id":"levelo_inurba_marseille","lat":43.24649,"lon":5.38895,"is_reserved":false,"is_disabled":false,"rental_uris":{"android":"levelo://app?vid=e5a797cb-e1fa-46f1-827d-4528129adf92","ios":"levelo://app?vid=e5a797cb-e1fa-46f1-827d-4528129adf92"},"vehicle_type_id":"4","last_reported":1773686822,"current_range_meters":4400,"station_id":"ce4bhg12rcd13ifvqf60","pricing_plan_id":"cebpf4jnsgd1na2vs0mg"},{"bike_id":"a3fd6c51-3981-4db6-94c7-b61b54eb3e24","system_id":"levelo_inurba_marseille","lat":43.25828,"lon":5.39439,"is_reserved":false,"is_disabled":false,"rental_uris":{"android":"levelo://app?vid=a3fd6c51-3981-4db6-94c7-b61b54eb3e24","ios":"levelo://app?vid=a3fd6c51-3981-4db6-94c7-b61b54eb3e24"},"vehicle_type_id":"4","last_reported":1773686822,"current_range_meters":14800,"station_id":"ce4bhip2rcd13ifvqft0","pricing_plan_id":"cebpf4jnsgd1na2vs0mg"},{"bike_id":"57a03870-bf15-4b25-a7c6-2a317332b63d","system_id":"levelo_inurba_marseille","lat":43.23189,"lon":5.39989,"is_reserved":false,"is_disabled":false,"rental_uris":{"android":"levelo://app?vid=57a03870-bf15-4b25-a7c6-2a317332b63d","ios":"levelo://app?vid=57a03870-bf15-4b25-a7c6-2a317332b63d"},"vehicle_type_id":"4","last_reported":1773686822,"current_range_meters":9600,"station_id":"ce4bhn12rcd13ifvqgqg","pricing_plan_id":"cebpf4jnsgd1na2vs0mg"},{"bike_id":"d0a4ccca-bbc4-478a-a356-3a2283a6e360","system_id":"levelo_inurba_marseille","lat":43.251,"lon":5.40304,"is_reserved":false,"is_disabled":false,"rental_uris":{"android":"levelo://app?vid=d0a4ccca-bbc4-478a-a356-3a2283a6e360","ios":"levelo://app?vid=d0a4ccca-bbc4-478a-a356-3a2283a6e360"},"vehicle_type_id":"4","last_reported":1773686822,"current_range_meters":20000,"station_id":"ce4bhlh2rcd13ifvqgig","pricing_plan_id":"cebpf4jnsgd1na2vs0mg"},{"bike_id":"5ca7225b-3a4d-400b-bbd9-be0865882e2e","system_id":"levelo_inurba_marseille","lat":43.25575,"lon":5.38231,"is_reserved":false,"is_disabled":false,"rental_uris":{"android":"levelo://app?vid=5ca7225b-3a4d-400b-bbd9-be0865882e2e","ios":"levelo://app?vid=5ca7225b-3a4d-400b-bbd9-be0865882e2e"},"vehicle_type_id":"4","last_reported":1773686822,"current_range_meters":30400,"station_id":"ce4bhih2rcd13ifvqfs0","pricing_plan_id":"cebpf4jnsgd1na2vs0mg"},{"bike_id":"fce7cbbb-7e40-4345-96fd-5af6a4f99936","system_id":"levelo_inurba_marseille","lat":43.2379,"lon":5.36627,"is_reserved":false,"is_disabled":false,"rental_uris":{"android":"levelo://app?vid=fce7cbbb-7e40-4345-96fd-5af6a4f99936","ios":"levelo://app?vid=fce7cbbb-7e40-4345-96fd-5af6a4f99936"},"vehicle_type_id":"4","last_reported":1773686822,"current_range_meters":11600,"station_id":"st_d3nk18o9ro0c73en2l3g","pricing_plan_id":"cebpf4jnsgd1na2vs0mg"},{"bike_id":"389fde50-a832-4ded-94d2-0e3862ffe9b2","system_id":"levelo_inurba_marseille","lat":43.29232,"lon":5.38444,"is_reserved":false,"is_disabled":false,"rental_uris":{"android":"levelo://app?vid=389fde50-a832-4ded-94d2-0e3862ffe9b2","ios":"levelo://app?vid=389fde50-a832-4ded-94d2-0e3862ffe9b2"},"vehicle_type_id":"4","last_reported":1773686822,"current_range_meters":32800,"station_id":"ce4bh692rcd13ifvqea0","pricing_plan_id":"cebpf4jnsgd1na2vs0mg"},{"bike_id":"beccd0c7-bf0d-4fd5-9f36-70db8e03a6eb","system_id":"levelo_inurba_marseille","lat":43.29938,"lon":5.38467,"is_reserved":false,"is_disabled":true,"rental_uris":{"android":"levelo://app?vid=beccd0c7-bf0d-4fd5-9f36-70db8e03a6eb","ios":"levelo://app?vid=beccd0c7-bf0d-4fd5-9f36-70db8e03a6eb"},"vehicle_type_id":"4","last_reported":1773686822,"current_range_meters":1200,"station_id":"ce4bgj92rcd13ifvqbd0","pricing_plan_id":"cebpf4jnsgd1na2vs0mg"},{"bike_id":"d35b8669-677c-4472-8a9c-52d8822a740f","system_id":"levelo_inurba_marseille","lat":43.2985,"lon":5.36265,"is_reserved":false,"is_disabled":false,"rental_uris":{"android":"levelo://app?vid=d35b8669-677c-4472-8a9c-52d8822a740f","ios":"levelo://app?vid=d35b8669-677c-4472-8a9c-52d8822a740f"},"vehicle_type_id":"4","last_reported":1773686822,"current_range_meters":24800,"station_id":"ce4bgpp2rcd13ifvqc3g","pricing_plan_id":"cebpf4jnsgd1na2vs0mg"},{"bike_id":"e842dc60-ab62-4379-a0ed-030031db5b1e","system_id":"levelo_inurba_marseille","lat":43.21197,"lon":5.35067,"is_reserved":false,"is_disabled":false,"rental_uris":{"android":"levelo://app?vid=e842dc60-ab62-4379-a0ed-030031db5b1e","ios":"levelo://app?vid=e842dc60-ab62-4379-a0ed-030031db5b1e"},"vehicle_type_id":"4","last_reported":1773686822,"current_range_meters":10000,"station_id":"st_cvj6sg6p6f1abm77japg","pricing_plan_id":"cebpf4jnsgd1na2vs0mg"},{"bike_id":"70014854-acff-49ca-9046-c49e81b9ca34","system_id":"levelo_inurba_marseille","lat":43.21749,"lon":5.34639,"is_reserved":false,"is_disabled":false,"rental_uris":{"android":"levelo://app?vid=70014854-acff-49ca-9046-c49e81b9ca34","ios":"levelo://app?vid=70014854-acff-49ca-9046-c49e81b9ca34"},"vehicle_type_id":"4","last_reported":1773686822,"current_range_meters":25200,"station_id":"st_cvj6r9ubvosntc0bgbag","pricing_plan_id":"cebpf4jnsgd1na2vs0mg"},{"bike_id":"6b58c736-8eab-4f3b-9ba9-b34b79d2fcdd","system_id":"levelo_inurba_marseille","lat":43.2829,"lon":5.35105,"is_reserved":false,"is_disabled":false,"rental_uris":{"android":"levelo://app?vid=6b58c736-8eab-4f3b-9ba9-b34b79d2fcdd","ios":"levelo://app?vid=6b58c736-8eab-4f3b-9ba9-b34b79d2fcdd"},"vehicle_type_id":"4","last_reported":1773686822,"current_range_meters":38000,"station_id":"ce4bhbp2rcd13ifvqerg","pricing_plan_id":"cebpf4jnsgd1na2vs0mg"},{"bike_id":"ac66fe3c-ead2-4634-9333-824b8e45c3ac","system_id":"levelo_inurba_marseille","lat":43.31437,"lon":5.39299,"is_reserved":false,"is_disabled":false,"rental_uris":{"android":"levelo://app?vid=ac66fe3c-ead2-4634-9333-824b8e45c3ac","ios":"levelo://app?vid=ac66fe3c-ead2-4634-9333-824b8e45c3ac"},"vehicle_type_id":"4","last_reported":1773686822,"current_range_meters":23200,"station_id":"","pricing_plan_id":"cebpf4jnsgd1na2vs0mg"},{"bike_id":"dd262ad1-703d-4925-a9a5-ca312081395b","system_id":"levelo_inurba_marseille","lat":43.31518,"lon":5.37291,"is_reserved":false,"is_disabled":true,"rental_uris":{"android":"levelo://app?vid=dd262ad1-703d-4925-a9a5-ca312081395b","ios":"levelo://app?vid=dd262ad1-703d-4925-a9a5-ca312081395b"},"vehicle_type_id":"4","last_reported":1773686822,"current_range_meters":33200,"station_id":"ce4bgt12rcd13ifvqcd0","pricing_plan_id":"cebpf4jnsgd1na2vs0mg"},{"bike_id":"177dde7b-d2de-4c6f-a770-315c66758692","system_id":"levelo_inurba_marseille","lat":43.28492,"lon":5.48383,"is_reserved":false,"is_disabled":false,"rental_uris":{"android":"levelo://app?vid=177dde7b-d2de-4c6f-a770-315c66758692","ios":"levelo://app?vid=177dde7b-d2de-4c6f-a770-315c66758692"},"vehicle_type_id":"4","last_reported":1773686822,"current_range_meters":31200,"station_id":"","pricing_plan_id":"cebpf4jnsgd1na2vs0mg"},{"bike_id":"6f54e01c-8e88-4d8b-ae33-a3d8388a376b","system_id":"levelo_inurba_marseille","lat":43.24997,"lon":5.38929,"is_reserved":false,"is_disabled":false,"rental_uris":{"android":"levelo://app?vid=6f54e01c-8e88-4d8b-ae33-a3d8388a376b","ios":"levelo://app?vid=6f54e01c-8e88-4d8b-ae33-a3d8388a376b"},"vehicle_type_id":"4","last_reported":1773686822,"current_range_meters":24800,"station_id":"ce4bhgp2rcd13ifvqfd0","pricing_plan_id":"cebpf4jnsgd1na2vs0mg"},{"bike_id":"c78aba10-451a-4fdf-a6eb-44e505951594","system_id":"levelo_inurba_marseille","lat":43.28615,"lon":5.39873,"is_reserved":false,"is_disabled":false,"rental_uris":{"android":"levelo://app?vid=c78aba10-451a-4fdf-a6eb-44e505951594","ios":"levelo://app?vid=c78aba10-451a-4fdf-a6eb-44e505951594"},"vehicle_type_id":"4","last_reported":1773686822,"current_range_meters":31200,"station_id":"st_d4a7ka997mjs738ck50g","pricing_plan_id":"cebpf4jnsgd1na2vs0mg"},{"bike_id":"43918b9b-ff13-4bbb-ac03-aa8307d32985","system_id":"levelo_inurba_marseille","lat":43.23196,"lon":5.35582,"is_reserved":false,"is_disabled":false,"rental_uris":{"android":"levelo://app?vid=43918b9b-ff13-4bbb-ac03-aa8307d32985","ios":"levelo://app?vid=43918b9b-ff13-4bbb-ac03-aa8307d32985"},"vehicle_type_id":"4","last_reported":1773686822,"current_range_meters":27600,"station_id":"ce4bhu92rcd13ifvqi70","pricing_plan_id":"cebpf4jnsgd1na2vs0mg"},{"bike_id":"f4b7fd6d-fc43-40a0-9444-97cda83baecc","system_id":"levelo_inurba_marseille","lat":43.28478,"lon":5.48391,"is_reserved":false,"is_disabled":false,"rental_uris":{"android":"levelo://app?vid=f4b7fd6d-fc43-40a0-9444-97cda83baecc","ios":"levelo://app?vid=f4b7fd6d-fc43-40a0-9444-97cda83baecc"},"vehicle_type_id":"4","last_reported":1773686822,"current_range_meters":25200,"station_id":"","pricing_plan_id":"cebpf4jnsgd1na2vs0mg"},{"bike_id":"ad5d6575-373a-4626-b109-e5e54a834cdc","system_id":"levelo_inurba_marseille","lat":43.30918,"lon":5.40157,"is_reserved":false,"is_disabled":true,"rental_uris":{"android":"levelo://app?vid=ad5d6575-373a-4626-b109-e5e54a834cdc","ios":"levelo://app?vid=ad5d6575-373a-4626-b109-e5e54a834cdc"},"vehicle_type_id":"4","last_reported":1773686822,"current_range_meters":27600,"station_id":"ce4bgvp2rcd13ifvqct0","pricing_plan_id":"cebpf4jnsgd1na2vs0mg"},{"bike_id":"cb243357-600b-42fd-82bd-fbf464fcea22","system_id":"levelo_inurba_marseille","lat":43.29033,"lon":5.3864,"is_reserved":false,"is_disabled":false,"rental_uris":{"android":"levelo://app?vid=cb243357-600b-42fd-82bd-fbf464fcea22","ios":"levelo://app?vid=cb243357-600b-42fd-82bd-fbf464fcea22"},"vehicle_type_id":"4","last_reported":1773686822,"current_range_meters":30000,"station_id":"ce4bh4p2rcd13ifvqe0g","pricing_plan_id":"cebpf4jnsgd1na2vs0mg"},{"bike_id":"c0c24cde-cc66-4858-9202-9ece3b97cc1c","system_id":"levelo_inurba_marseille","lat":43.25343,"lon":5.42172,"is_reserved":false,"is_disabled":true,"rental_uris":{"android":"levelo://app?vid=c0c24cde-cc66-4858-9202-9ece3b97cc1c","ios":"levelo://app?vid=c0c24cde-cc66-4858-9202-9ece3b97cc1c"},"vehicle_type_id":"4","last_reported":1773686822,"current_range_meters":2000,"station_id":"st_d2m65c5bi1j21697t3ng","pricing_plan_id":"cebpf4jnsgd1na2vs0mg"},{"bike_id":"b7bee241-fab1-4e25-8da0-596edc67d8ab","system_id":"levelo_inurba_marseille","lat":43.25569,"lon":5.38264,"is_reserved":false,"is_disabled":false,"rental_uris":{"android":"levelo://app?vid=b7bee241-fab1-4e25-8da0-596edc67d8ab","ios":"levelo://app?vid=b7bee241-fab1-4e25-8da0-596edc67d8ab"},"vehicle_type_id":"4","last_reported":1773686822,"current_range_meters":14400,"station_id":"ce4bhih2rcd13ifvqfs0","pricing_plan_id":"cebpf4jnsgd1na2vs0mg"},{"bike_id":"d166cef7-a12a-4b88-a3da-4b3d262d2826","system_id":"levelo_inurba_marseille","lat":43.29535,"lon":5.38546,"is_reserved":false,"is_disabled":false,"rental_uris":{"android":"levelo://app?vid=d166cef7-a12a-4b88-a3da-4b3d262d2826","ios":"levelo://app?vid=d166cef7-a12a-4b88-a3da-4b3d262d2826"},"vehicle_type_id":"4","last_reported":1773686822,"current_range_meters":39200,"station_id":"ce4bgih2rcd13ifvqba0","pricing_plan_id":"cebpf4jnsgd1na2vs0mg"},{"bike_id":"9da53ada-b42c-4023-810e-049971ee9047","system_id":"levelo_inurba_marseille","lat":43.2534,"lon":5.42177,"is_reserved":false,"is_disabled":false,"rental_uris":{"android":"levelo://app?vid=9da53ada-b42c-4023-810e-049971ee9047","ios":"levelo://app?vid=9da53ada-b42c-4023-810e-049971ee9047"},"vehicle_type_id":"4","last_reported":1773686822,"current_range_meters":4400,"station_id":"st_d2m65c5bi1j21697t3ng","pricing_plan_id":"cebpf4jnsgd1na2vs0mg"},{"bike_id":"0c9ac576-7fb8-430f-bd40-d48f76425b40","system_id":"levelo_inurba_marseille","lat":43.28433,"lon":5.35003,"is_reserved":false,"is_disabled":false,"rental_uris":{"android":"levelo://app?vid=0c9ac576-7fb8-430f-bd40-d48f76425b40","ios":"levelo://app?vid=0c9ac576-7fb8-430f-bd40-d48f76425b40"},"vehicle_type_id":"4","last_reported":1773686822,"current_range_meters":5600,"station_id":"ce4bhbh2rcd13ifvqepg","pricing_plan_id":"cebpf4jnsgd1na2vs0mg"},{"bike_id":"e6dc01d5-f235-488b-9e79-25129e463609","system_id":"levelo_inurba_marseille","lat":43.27816,"lon":5.4071,"is_reserved":false,"is_disabled":false,"rental_uris":{"android":"levelo://app?vid=e6dc01d5-f235-488b-9e79-25129e463609","ios":"levelo://app?vid=e6dc01d5-f235-488b-9e79-25129e463609"},"vehicle_type_id":"4","last_reported":1773686822,"current_range_meters":25200,"station_id":"ce4bhnh2rcd13ifvqgtg","pricing_plan_id":"cebpf4jnsgd1na2vs0mg"},{"bike_id":"49fc7284-9e84-4e41-b11a-a6f445433570","system_id":"levelo_inurba_marseille","lat":43.28078,"lon":5.39647,"is_reserved":false,"is_disabled":true,"rental_uris":{"android":"levelo://app?vid=49fc7284-9e84-4e41-b11a-a6f445433570","ios":"levelo://app?vid=49fc7284-9e84-4e41-b11a-a6f445433570"},"vehicle_type_id":"4","last_reported":1773686822,"current_range_meters":30800,"station_id":"ce4bho12rcd13ifvqh2g","pricing_plan_id":"cebpf4jnsgd1na2vs0mg"},{"bike_id":"299a9473-cfc8-4515-b5e5-68ca9f46f623","system_id":"levelo_inurba_marseille","lat":43.28713,"lon":5.37956,"is_reserved":false,"is_disabled":true,"rental_uris":{"android":"levelo://app?vid=299a9473-cfc8-4515-b5e5-68ca9f46f623","ios":"levelo://app?vid=299a9473-cfc8-4515-b5e5-68ca9f46f623"},"vehicle_type_id":"4","last_reported":1773686822,"current_range_meters":28400,"station_id":"ce4bh9p2rcd13ifvqec0","pricing_plan_id":"cebpf4jnsgd1na2vs0mg"},{"bike_id":"707b8bcc-de98-4d61-81bd-cca4b732e952","system_id":"levelo_inurba_marseille","lat":43.27989,"lon":5.40034,"is_reserved":false,"is_disabled":false,"rental_uris":{"android":"levelo://app?vid=707b8bcc-de98-4d61-81bd-cca4b732e952","ios":"levelo://app?vid=707b8bcc-de98-4d61-81bd-cca4b732e952"},"vehicle_type_id":"4","last_reported":1773686822,"current_range_meters":39200,"station_id":"ce4bho92rcd13ifvqh4g","pricing_plan_id":"cebpf4jnsgd1na2vs0mg"},{"bike_id":"69a4e2c6-e554-480e-83a2-ef8949494013","system_id":"levelo_inurba_marseille","lat":43.28457,"lon":5.3589,"is_reserved":false,"is_disabled":false,"rental_uris":{"android":"levelo://app?vid=69a4e2c6-e554-480e-83a2-ef8949494013","ios":"levelo://app?vid=69a4e2c6-e554-480e-83a2-ef8949494013"},"vehicle_type_id":"4","last_reported":1773686822,"current_range_meters":38800,"station_id":"ce4bhah2rcd13ifvqei0","pricing_plan_id":"cebpf4jnsgd1na2vs0mg"},{"bike_id":"1f487b11-fe62-48c6-bc95-ef78a3a9fd4e","system_id":"levelo_inurba_marseille","lat":43.30748,"lon":5.42452,"is_reserved":false,"is_disabled":false,"rental_uris":{"android":"levelo://app?vid=1f487b11-fe62-48c6-bc95-ef78a3a9fd4e","ios":"levelo://app?vid=1f487b11-fe62-48c6-bc95-ef78a3a9fd4e"},"vehicle_type_id":"4","last_reported":1773686822,"current_range_meters":38800,"station_id":"st_cvj6ca6bvosntc0bfgr0","pricing_plan_id":"cebpf4jnsgd1na2vs0mg"},{"bike_id":"406c358a-9090-4248-af13-e868f1030fd7","system_id":"levelo_inurba_marseille","lat":43.21741,"lon":5.34608,"is_reserved":false,"is_disabled":false,"rental_uris":{"android":"levelo://app?vid=406c358a-9090-4248-af13-e868f1030fd7","ios":"levelo://app?vid=406c358a-9090-4248-af13-e868f1030fd7"},"vehicle_type_id":"4","last_reported":1773686822,"current_range_meters":16000,"station_id":"st_cvj6r9ubvosntc0bgbag","pricing_plan_id":"cebpf4jnsgd1na2vs0mg"},{"bike_id":"34257e2b-5da9-4af1-bdd7-664aa8db6834","system_id":"levelo_inurba_marseille","lat":43.23207,"lon":5.3556,"is_reserved":false,"is_disabled":false,"rental_uris":{"android":"levelo://app?vid=34257e2b-5da9-4af1-bdd7-664aa8db6834","ios":"levelo://app?vid=34257e2b-5da9-4af1-bdd7-664aa8db6834"},"vehicle_type_id":"4","last_reported":1773686822,"current_range_meters":33600,"station_id":"ce4bhu92rcd13ifvqi70","pricing_plan_id":"cebpf4jnsgd1na2vs0mg"},{"bike_id":"288bcbf7-3a52-4b2b-9af2-61f8cf367965","system_id":"levelo_inurba_marseille","lat":43.25712,"lon":5.41114,"is_reserved":false,"is_disabled":false,"rental_uris":{"android":"levelo://app?vid=288bcbf7-3a52-4b2b-9af2-61f8cf367965","ios":"levelo://app?vid=288bcbf7-3a52-4b2b-9af2-61f8cf367965"},"vehicle_type_id":"4","last_reported":1773686822,"current_range_meters":33200,"station_id":"ce4bhkp2rcd13ifvqgd0","pricing_plan_id":"cebpf4jnsgd1na2vs0mg"},{"bike_id":"fec66160-eca4-4055-a135-94a62af705e8","system_id":"levelo_inurba_marseille","lat":43.24997,"lon":5.38946,"is_reserved":false,"is_disabled":false,"rental_uris":{"android":"levelo://app?vid=fec66160-eca4-4055-a135-94a62af705e8","ios":"levelo://app?vid=fec66160-eca4-4055-a135-94a62af705e8"},"vehicle_type_id":"4","last_reported":1773686822,"current_range_meters":8400,"station_id":"ce4bhgp2rcd13ifvqfd0","pricing_plan_id":"cebpf4jnsgd1na2vs0mg"},{"bike_id":"491cd09c-e0c2-44f1-852f-8525d428457d","system_id":"levelo_inurba_marseille","lat":43.3109,"lon":5.42434,"is_reserved":false,"is_disabled":false,"rental_uris":{"android":"levelo://app?vid=491cd09c-e0c2-44f1-852f-8525d428457d","ios":"levelo://app?vid=491cd09c-e0c2-44f1-852f-8525d428457d"},"vehicle_type_id":"4","last_reported":1773686822,"current_range_meters":20800,"station_id":"ce4bhp92rcd13ifvqhag","pricing_plan_id":"cebpf4jnsgd1na2vs0mg"},{"bike_id":"a98b5f2c-b0cd-4413-9994-42d906aa83dd","system_id":"levelo_inurba_marseille","lat":43.29547,"lon":5.3904,"is_reserved":false,"is_disabled":true,"rental_uris":{"android":"levelo://app?vid=a98b5f2c-b0cd-4413-9994-42d906aa83dd","ios":"levelo://app?vid=a98b5f2c-b0cd-4413-9994-42d906aa83dd"},"vehicle_type_id":"4","last_reported":1773686822,"current_range_meters":22400,"station_id":"ce4bh3p2rcd13ifvqdp0","pricing_plan_id":"cebpf4jnsgd1na2vs0mg"},{"bike_id":"8efb579a-a563-4156-bc48-a4542721ceab","system_id":"levelo_inurba_marseille","lat":43.2321,"lon":5.35536,"is_reserved":false,"is_disabled":false,"rental_uris":{"android":"levelo://app?vid=8efb579a-a563-4156-bc48-a4542721ceab","ios":"levelo://app?vid=8efb579a-a563-4156-bc48-a4542721ceab"},"vehicle_type_id":"4","last_reported":1773686822,"current_range_meters":16400,"station_id":"ce4bhu92rcd13ifvqi70","pricing_plan_id":"cebpf4jnsgd1na2vs0mg"},{"bike_id":"067111e1-87af-4e75-b8ed-7f42a447af4d","system_id":"levelo_inurba_marseille","lat":43.26948,"lon":5.40266,"is_reserved":false,"is_disabled":false,"rental_uris":{"android":"levelo://app?vid=067111e1-87af-4e75-b8ed-7f42a447af4d","ios":"levelo://app?vid=067111e1-87af-4e75-b8ed-7f42a447af4d"},"vehicle_type_id":"4","last_reported":1773686822,"current_range_meters":39200,"station_id":"cjm6bp8fraef2m0cb0m0","pricing_plan_id":"cebpf4jnsgd1na2vs0mg"},{"bike_id":"c3abb91b-f14a-4ded-b551-3f68cf086b60","system_id":"levelo_inurba_marseille","lat":43.3266,"lon":5.41,"is_reserved":false,"is_disabled":false,"rental_uris":{"android":"levelo://app?vid=c3abb91b-f14a-4ded-b551-3f68cf086b60","ios":"levelo://app?vid=c3abb91b-f14a-4ded-b551-3f68cf086b60"},"vehicle_type_id":"4","last_reported":1773686822,"current_range_meters":38400,"station_id":"ce4bhpp2rcd13ifvqhgg","pricing_plan_id":"cebpf4jnsgd1na2vs0mg"},{"bike_id":"9c528212-0db7-442e-98cb-d9233c05e6e1","system_id":"levelo_inurba_marseille","lat":43.29959,"lon":5.41327,"is_reserved":false,"is_disabled":false,"rental_uris":{"android":"levelo://app?vid=9c528212-0db7-442e-98cb-d9233c05e6e1","ios":"levelo://app?vid=9c528212-0db7-442e-98cb-d9233c05e6e1"},"vehicle_type_id":"4","last_reported":1773686822,"current_range_meters":38000,"station_id":"ce4bhp12rcd13ifvqh9g","pricing_plan_id":"cebpf4jnsgd1na2vs0mg"},{"bike_id":"e59ffb01-b028-44ab-a5e5-5d8f6dba3aee","system_id":"levelo_inurba_marseille","lat":43.29773,"lon":5.36981,"is_reserved":false,"is_disabled":false,"rental_uris":{"android":"levelo://app?vid=e59ffb01-b028-44ab-a5e5-5d8f6dba3aee","ios":"levelo://app?vid=e59ffb01-b028-44ab-a5e5-5d8f6dba3aee"},"vehicle_type_id":"4","last_reported":1773686822,"current_range_meters":37600,"station_id":"","pricing_plan_id":"cebpf4jnsgd1na2vs0mg"},{"bike_id":"ca335a85-78dd-4bc8-9e22-8cb9035dee1c","system_id":"levelo_inurba_marseille","lat":43.30384,"lon":5.42477,"is_reserved":false,"is_disabled":false,"rental_uris":{"android":"levelo://app?vid=ca335a85-78dd-4bc8-9e22-8cb9035dee1c","ios":"levelo://app?vid=ca335a85-78dd-4bc8-9e22-8cb9035dee1c"},"vehicle_type_id":"4","last_reported":1773686822,"current_range_meters":8800,"station_id":"ce4bhoh2rcd13ifvqh6g","pricing_plan_id":"cebpf4jnsgd1na2vs0mg"},{"bike_id":"73d4826f-170c-4f3a-a1fb-56e4f9c51b74","system_id":"levelo_inurba_marseille","lat":43.28688,"lon":5.38646,"is_reserved":false,"is_disabled":true,"rental_uris":{"android":"levelo://app?vid=73d4826f-170c-4f3a-a1fb-56e4f9c51b74","ios":"levelo://app?vid=73d4826f-170c-4f3a-a1fb-56e4f9c51b74"},"vehicle_type_id":"4","last_reported":1773686822,"current_range_meters":24800,"station_id":"ce4bh492rcd13ifvqdug","pricing_plan_id":"cebpf4jnsgd1na2vs0mg"},{"bike_id":"d2f4767c-f1af-44a0-b249-e2823c6db238","system_id":"levelo_inurba_marseille","lat":43.29644,"lon":5.37195,"is_reserved":false,"is_disabled":false,"rental_uris":{"android":"levelo://app?vid=d2f4767c-f1af-44a0-b249-e2823c6db238","ios":"levelo://app?vid=d2f4767c-f1af-44a0-b249-e2823c6db238"},"vehicle_type_id":"4","last_reported":1773686822,"current_range_meters":35600,"station_id":"ce4bgnh2rcd13ifvqc0g","pricing_plan_id":"cebpf4jnsgd1na2vs0mg"},{"bike_id":"eb1d1e5d-c035-4be2-ab4f-714082cc667f","system_id":"levelo_inurba_marseille","lat":43.25104,"lon":5.39502,"is_reserved":false,"is_disabled":false,"rental_uris":{"android":"levelo://app?vid=eb1d1e5d-c035-4be2-ab4f-714082cc667f","ios":"levelo://app?vid=eb1d1e5d-c035-4be2-ab4f-714082cc667f"},"vehicle_type_id":"4","last_reported":1773686822,"current_range_meters":17200,"station_id":"ce4bhm12rcd13ifvqgkg","pricing_plan_id":"cebpf4jnsgd1na2vs0mg"},{"bike_id":"cf3d27ef-91c6-429a-962e-d10a32a01938","system_id":"levelo_inurba_marseille","lat":43.29852,"lon":5.44138,"is_reserved":false,"is_disabled":false,"rental_uris":{"android":"levelo://app?vid=cf3d27ef-91c6-429a-962e-d10a32a01938","ios":"levelo://app?vid=cf3d27ef-91c6-429a-962e-d10a32a01938"},"vehicle_type_id":"4","last_reported":1773686822,"current_range_meters":8000,"station_id":"st_d3jp68qikq2c7381ktn0","pricing_plan_id":"cebpf4jnsgd1na2vs0mg"},{"bike_id":"2aabd1a1-6d0c-41e2-bd6f-3dd66245dd87","system_id":"levelo_inurba_marseille","lat":43.27373,"lon":5.36262,"is_reserved":false,"is_disabled":false,"rental_uris":{"android":"levelo://app?vid=2aabd1a1-6d0c-41e2-bd6f-3dd66245dd87","ios":"levelo://app?vid=2aabd1a1-6d0c-41e2-bd6f-3dd66245dd87"},"vehicle_type_id":"4","last_reported":1773686822,"current_range_meters":30000,"station_id":"ce4bhbh2rcd13ifvqeo0","pricing_plan_id":"cebpf4jnsgd1na2vs0mg"},{"bike_id":"c2a631c7-d4e9-40c2-b005-1e30e519abaf","system_id":"levelo_inurba_marseille","lat":43.284,"lon":5.3752,"is_reserved":false,"is_disabled":false,"rental_uris":{"android":"levelo://app?vid=c2a631c7-d4e9-40c2-b005-1e30e519abaf","ios":"levelo://app?vid=c2a631c7-d4e9-40c2-b005-1e30e519abaf"},"vehicle_type_id":"4","last_reported":1773686822,"current_range_meters":5600,"station_id":"ce4bh412rcd13ifvqds0","pricing_plan_id":"cebpf4jnsgd1na2vs0mg"},{"bike_id":"465215ad-2edf-4999-8c26-95cf0104a829","system_id":"levelo_inurba_marseille","lat":43.287026,"lon":5.373634,"is_reserved":false,"is_disabled":false,"rental_uris":{"android":"levelo://app?vid=465215ad-2edf-4999-8c26-95cf0104a829","ios":"levelo://app?vid=465215ad-2edf-4999-8c26-95cf0104a829"},"vehicle_type_id":"4","last_reported":1773686822,"current_range_meters":5600,"station_id":"ce4bh3p2rcd13ifvqdq0","pricing_plan_id":"cebpf4jnsgd1na2vs0mg"},{"bike_id":"6dacdd06-49c6-499c-a72c-c4db931d7ee1","system_id":"levelo_inurba_marseille","lat":43.29098,"lon":5.38137,"is_reserved":false,"is_disabled":true,"rental_uris":{"android":"levelo://app?vid=6dacdd06-49c6-499c-a72c-c4db931d7ee1","ios":"levelo://app?vid=6dacdd06-49c6-499c-a72c-c4db931d7ee1"},"vehicle_type_id":"4","last_reported":1773686822,"current_range_meters":1600,"station_id":"ce4bh512rcd13ifvqe2g","pricing_plan_id":"cebpf4jnsgd1na2vs0mg"},{"bike_id":"4cf32c5c-f3bf-456a-8de6-1082c3c76d98","system_id":"levelo_inurba_marseille","lat":43.26202,"lon":5.37446,"is_reserved":false,"is_disabled":false,"rental_uris":{"android":"levelo://app?vid=4cf32c5c-f3bf-456a-8de6-1082c3c76d98","ios":"levelo://app?vid=4cf32c5c-f3bf-456a-8de6-1082c3c76d98"},"vehicle_type_id":"4","last_reported":1773686822,"current_range_meters":29600,"station_id":"ce4bhgp2rcd13ifvqfc0","pricing_plan_id":"cebpf4jnsgd1na2vs0mg"},{"bike_id":"274d9226-e4a6-4b9c-a0ed-ca25ec988c62","system_id":"levelo_inurba_marseille","lat":43.29041,"lon":5.3863,"is_reserved":false,"is_disabled":false,"rental_uris":{"android":"levelo://app?vid=274d9226-e4a6-4b9c-a0ed-ca25ec988c62","ios":"levelo://app?vid=274d9226-e4a6-4b9c-a0ed-ca25ec988c62"},"vehicle_type_id":"4","last_reported":1773686822,"current_range_meters":27600,"station_id":"ce4bh4p2rcd13ifvqe0g","pricing_plan_id":"cebpf4jnsgd1na2vs0mg"},{"bike_id":"88bd1de4-947e-43e7-996f-b3a6c434223c","system_id":"levelo_inurba_marseille","lat":43.25831,"lon":5.39433,"is_reserved":false,"is_disabled":true,"rental_uris":{"android":"levelo://app?vid=88bd1de4-947e-43e7-996f-b3a6c434223c","ios":"levelo://app?vid=88bd1de4-947e-43e7-996f-b3a6c434223c"},"vehicle_type_id":"4","last_reported":1773686822,"current_range_meters":32400,"station_id":"ce4bhip2rcd13ifvqft0","pricing_plan_id":"cebpf4jnsgd1na2vs0mg"},{"bike_id":"05f50eb5-8d59-44ce-ba20-2d5c1a8a4c7b","system_id":"levelo_inurba_marseille","lat":43.31728,"lon":5.42395,"is_reserved":false,"is_disabled":false,"rental_uris":{"android":"levelo://app?vid=05f50eb5-8d59-44ce-ba20-2d5c1a8a4c7b","ios":"levelo://app?vid=05f50eb5-8d59-44ce-ba20-2d5c1a8a4c7b"},"vehicle_type_id":"4","last_reported":1773686822,"current_range_meters":16400,"station_id":"ce4bhp92rcd13ifvqhbg","pricing_plan_id":"cebpf4jnsgd1na2vs0mg"},{"bike_id":"fb32a1c0-e487-43ab-b761-dcce914aad54","system_id":"levelo_inurba_marseille","lat":43.25107,"lon":5.40315,"is_reserved":false,"is_disabled":false,"rental_uris":{"android":"levelo://app?vid=fb32a1c0-e487-43ab-b761-dcce914aad54","ios":"levelo://app?vid=fb32a1c0-e487-43ab-b761-dcce914aad54"},"vehicle_type_id":"4","last_reported":1773686822,"current_range_meters":39200,"station_id":"ce4bhlh2rcd13ifvqgig","pricing_plan_id":"cebpf4jnsgd1na2vs0mg"},{"bike_id":"a5213470-22ea-4f16-b423-41069635802b","system_id":"levelo_inurba_marseille","lat":43.31315,"lon":5.40171,"is_reserved":false,"is_disabled":false,"rental_uris":{"android":"levelo://app?vid=a5213470-22ea-4f16-b423-41069635802b","ios":"levelo://app?vid=a5213470-22ea-4f16-b423-41069635802b"},"vehicle_type_id":"4","last_reported":1773686822,"current_range_meters":24000,"station_id":"ce4bh092rcd13ifvqd30","pricing_plan_id":"cebpf4jnsgd1na2vs0mg"},{"bike_id":"ffa8f4cd-38d7-4822-b95c-2693befb1c3d","system_id":"levelo_inurba_marseille","lat":43.28695,"lon":5.37392,"is_reserved":false,"is_disabled":true,"rental_uris":{"android":"levelo://app?vid=ffa8f4cd-38d7-4822-b95c-2693befb1c3d","ios":"levelo://app?vid=ffa8f4cd-38d7-4822-b95c-2693befb1c3d"},"vehicle_type_id":"4","last_reported":1773686822,"current_range_meters":32800,"station_id":"ce4bh3p2rcd13ifvqdq0","pricing_plan_id":"cebpf4jnsgd1na2vs0mg"},{"bike_id":"25e5aac7-93aa-4f4b-a88c-67216707fddc","system_id":"levelo_inurba_marseille","lat":43.28157,"lon":5.42647,"is_reserved":false,"is_disabled":false,"rental_uris":{"android":"levelo://app?vid=25e5aac7-93aa-4f4b-a88c-67216707fddc","ios":"levelo://app?vid=25e5aac7-93aa-4f4b-a88c-67216707fddc"},"vehicle_type_id":"4","last_reported":1773686822,"current_range_meters":39200,"station_id":"ce4bhnh2rcd13ifvqgug","pricing_plan_id":"cebpf4jnsgd1na2vs0mg"},{"bike_id":"58f111c3-d4d8-401b-b1de-be436e4b63d6","system_id":"levelo_inurba_marseille","lat":43.23194,"lon":5.39998,"is_reserved":false,"is_disabled":false,"rental_uris":{"android":"levelo://app?vid=58f111c3-d4d8-401b-b1de-be436e4b63d6","ios":"levelo://app?vid=58f111c3-d4d8-401b-b1de-be436e4b63d6"},"vehicle_type_id":"4","last_reported":1773686822,"current_range_meters":28400,"station_id":"ce4bhn12rcd13ifvqgqg","pricing_plan_id":"cebpf4jnsgd1na2vs0mg"},{"bike_id":"e6d9e185-de29-413a-8517-3942df1a652a","system_id":"levelo_inurba_marseille","lat":43.29851,"lon":5.36268,"is_reserved":false,"is_disabled":false,"rental_uris":{"android":"levelo://app?vid=e6d9e185-de29-413a-8517-3942df1a652a","ios":"levelo://app?vid=e6d9e185-de29-413a-8517-3942df1a652a"},"vehicle_type_id":"4","last_reported":1773686822,"current_range_meters":39200,"station_id":"ce4bgpp2rcd13ifvqc3g","pricing_plan_id":"cebpf4jnsgd1na2vs0mg"},{"bike_id":"41483cd8-6eff-42a2-9100-3d0c1cb29351","system_id":"levelo_inurba_marseille","lat":43.26494,"lon":5.39556,"is_reserved":false,"is_disabled":false,"rental_uris":{"android":"levelo://app?vid=41483cd8-6eff-42a2-9100-3d0c1cb29351","ios":"levelo://app?vid=41483cd8-6eff-42a2-9100-3d0c1cb29351"},"vehicle_type_id":"4","last_reported":1773686822,"current_range_meters":8400,"station_id":"ce4bhi12rcd13ifvqfq0","pricing_plan_id":"cebpf4jnsgd1na2vs0mg"},{"bike_id":"ffd2aa79-124b-40e3-b74b-93a25fcdb83f","system_id":"levelo_inurba_marseille","lat":43.23208,"lon":5.39994,"is_reserved":false,"is_disabled":false,"rental_uris":{"android":"levelo://app?vid=ffd2aa79-124b-40e3-b74b-93a25fcdb83f","ios":"levelo://app?vid=ffd2aa79-124b-40e3-b74b-93a25fcdb83f"},"vehicle_type_id":"4","last_reported":1773686822,"current_range_meters":32800,"station_id":"ce4bhn12rcd13ifvqgqg","pricing_plan_id":"cebpf4jnsgd1na2vs0mg"},{"bike_id":"40450e44-cc9d-407c-957a-1aeb6f187932","system_id":"levelo_inurba_marseille","lat":43.22553,"lon":5.41629,"is_reserved":false,"is_disabled":false,"rental_uris":{"android":"levelo://app?vid=40450e44-cc9d-407c-957a-1aeb6f187932","ios":"levelo://app?vid=40450e44-cc9d-407c-957a-1aeb6f187932"},"vehicle_type_id":"4","last_reported":1773686822,"current_range_meters":6800,"station_id":"st_d2o4gvlbi1j2169b742g","pricing_plan_id":"cebpf4jnsgd1na2vs0mg"},{"bike_id":"e24aa91d-22b2-440b-bc6d-25ab2b336b7a","system_id":"levelo_inurba_marseille","lat":43.23207,"lon":5.35529,"is_reserved":false,"is_disabled":false,"rental_uris":{"android":"levelo://app?vid=e24aa91d-22b2-440b-bc6d-25ab2b336b7a","ios":"levelo://app?vid=e24aa91d-22b2-440b-bc6d-25ab2b336b7a"},"vehicle_type_id":"4","last_reported":1773686822,"current_range_meters":39200,"station_id":"ce4bhu92rcd13ifvqi70","pricing_plan_id":"cebpf4jnsgd1na2vs0mg"},{"bike_id":"6a1c31e8-d213-4f92-b5fa-c4ed45aaa1fc","system_id":"levelo_inurba_marseille","lat":43.29897,"lon":5.39748,"is_reserved":false,"is_disabled":false,"rental_uris":{"android":"levelo://app?vid=6a1c31e8-d213-4f92-b5fa-c4ed45aaa1fc","ios":"levelo://app?vid=6a1c31e8-d213-4f92-b5fa-c4ed45aaa1fc"},"vehicle_type_id":"4","last_reported":1773686822,"current_range_meters":30400,"station_id":"ce4bh0h2rcd13ifvqd50","pricing_plan_id":"cebpf4jnsgd1na2vs0mg"},{"bike_id":"eaa5390d-2d68-4739-8254-52f983e127b1","system_id":"levelo_inurba_marseille","lat":43.2848,"lon":5.48411,"is_reserved":false,"is_disabled":false,"rental_uris":{"android":"levelo://app?vid=eaa5390d-2d68-4739-8254-52f983e127b1","ios":"levelo://app?vid=eaa5390d-2d68-4739-8254-52f983e127b1"},"vehicle_type_id":"4","last_reported":1773686822,"current_range_meters":20000,"station_id":"","pricing_plan_id":"cebpf4jnsgd1na2vs0mg"},{"bike_id":"87c9ac6a-639b-462d-82c2-6f67605a8f88","system_id":"levelo_inurba_marseille","lat":43.23188,"lon":5.39979,"is_reserved":false,"is_disabled":false,"rental_uris":{"android":"levelo://app?vid=87c9ac6a-639b-462d-82c2-6f67605a8f88","ios":"levelo://app?vid=87c9ac6a-639b-462d-82c2-6f67605a8f88"},"vehicle_type_id":"4","last_reported":1773686822,"current_range_meters":3600,"station_id":"ce4bhn12rcd13ifvqgqg","pricing_plan_id":"cebpf4jnsgd1na2vs0mg"},{"bike_id":"1339673d-1c66-40a2-9199-77a7dc84ec24","system_id":"levelo_inurba_marseille","lat":43.30438,"lon":5.39765,"is_reserved":false,"is_disabled":false,"rental_uris":{"android":"levelo://app?vid=1339673d-1c66-40a2-9199-77a7dc84ec24","ios":"levelo://app?vid=1339673d-1c66-40a2-9199-77a7dc84ec24"},"vehicle_type_id":"4","last_reported":1773686822,"current_range_meters":27200,"station_id":"ce4bh092rcd13ifvqd20","pricing_plan_id":"cebpf4jnsgd1na2vs0mg"},{"bike_id":"749c36a6-74d8-40e2-958b-0b8179aad8b2","system_id":"levelo_inurba_marseille","lat":43.32286,"lon":5.38267,"is_reserved":false,"is_disabled":false,"rental_uris":{"android":"levelo://app?vid=749c36a6-74d8-40e2-958b-0b8179aad8b2","ios":"levelo://app?vid=749c36a6-74d8-40e2-958b-0b8179aad8b2"},"vehicle_type_id":"4","last_reported":1773686822,"current_range_meters":32800,"station_id":"ce4bhr12rcd13ifvqhqg","pricing_plan_id":"cebpf4jnsgd1na2vs0mg"},{"bike_id":"eba7007a-22fe-4603-b600-e6d79c47801e","system_id":"levelo_inurba_marseille","lat":43.27174,"lon":5.40992,"is_reserved":false,"is_disabled":false,"rental_uris":{"android":"levelo://app?vid=eba7007a-22fe-4603-b600-e6d79c47801e","ios":"levelo://app?vid=eba7007a-22fe-4603-b600-e6d79c47801e"},"vehicle_type_id":"4","last_reported":1773686822,"current_range_meters":28000,"station_id":"ce4bhl12rcd13ifvqgf0","pricing_plan_id":"cebpf4jnsgd1na2vs0mg"},{"bike_id":"963aea0f-edfd-42fe-bb5c-9e3909fc1c6c","system_id":"levelo_inurba_marseille","lat":43.25573,"lon":5.38226,"is_reserved":false,"is_disabled":false,"rental_uris":{"android":"levelo://app?vid=963aea0f-edfd-42fe-bb5c-9e3909fc1c6c","ios":"levelo://app?vid=963aea0f-edfd-42fe-bb5c-9e3909fc1c6c"},"vehicle_type_id":"4","last_reported":1773686822,"current_range_meters":39200,"station_id":"ce4bhih2rcd13ifvqfs0","pricing_plan_id":"cebpf4jnsgd1na2vs0mg"},{"bike_id":"8aaf525a-2438-4977-86b2-70256683bfeb","system_id":"levelo_inurba_marseille","lat":43.28552,"lon":5.44115,"is_reserved":false,"is_disabled":false,"rental_uris":{"android":"levelo://app?vid=8aaf525a-2438-4977-86b2-70256683bfeb","ios":"levelo://app?vid=8aaf525a-2438-4977-86b2-70256683bfeb"},"vehicle_type_id":"4","last_reported":1773686822,"current_range_meters":31200,"station_id":"st_d3j3df2ikq2c7380ej80","pricing_plan_id":"cebpf4jnsgd1na2vs0mg"},{"bike_id":"85384336-ec8c-4d14-8cf7-dd1704f5ada9","system_id":"levelo_inurba_marseille","lat":43.28433,"lon":5.34954,"is_reserved":false,"is_disabled":false,"rental_uris":{"android":"levelo://app?vid=85384336-ec8c-4d14-8cf7-dd1704f5ada9","ios":"levelo://app?vid=85384336-ec8c-4d14-8cf7-dd1704f5ada9"},"vehicle_type_id":"4","last_reported":1773686822,"current_range_meters":35200,"station_id":"ce4bhbh2rcd13ifvqepg","pricing_plan_id":"cebpf4jnsgd1na2vs0mg"},{"bike_id":"806a0605-c751-4688-b290-f14b5b16cb8c","system_id":"levelo_inurba_marseille","lat":43.30206,"lon":5.36629,"is_reserved":false,"is_disabled":false,"rental_uris":{"android":"levelo://app?vid=806a0605-c751-4688-b290-f14b5b16cb8c","ios":"levelo://app?vid=806a0605-c751-4688-b290-f14b5b16cb8c"},"vehicle_type_id":"4","last_reported":1773686822,"current_range_meters":24800,"station_id":"ce4bgrh2rcd13ifvqc8g","pricing_plan_id":"cebpf4jnsgd1na2vs0mg"},{"bike_id":"a49d2dd6-b197-4b63-9ef5-4a2d828cbf24","system_id":"levelo_inurba_marseille","lat":43.29754,"lon":5.42778,"is_reserved":false,"is_disabled":false,"rental_uris":{"android":"levelo://app?vid=a49d2dd6-b197-4b63-9ef5-4a2d828cbf24","ios":"levelo://app?vid=a49d2dd6-b197-4b63-9ef5-4a2d828cbf24"},"vehicle_type_id":"4","last_reported":1773686822,"current_range_meters":24800,"station_id":"st_d3md5207bmas73dh9klg","pricing_plan_id":"cebpf4jnsgd1na2vs0mg"},{"bike_id":"e3fbff3a-10a0-4a3b-99c5-5f6809545e95","system_id":"levelo_inurba_marseille","lat":43.21737,"lon":5.34626,"is_reserved":false,"is_disabled":false,"rental_uris":{"android":"levelo://app?vid=e3fbff3a-10a0-4a3b-99c5-5f6809545e95","ios":"levelo://app?vid=e3fbff3a-10a0-4a3b-99c5-5f6809545e95"},"vehicle_type_id":"4","last_reported":1773686822,"current_range_meters":26800,"station_id":"st_cvj6r9ubvosntc0bgbag","pricing_plan_id":"cebpf4jnsgd1na2vs0mg"},{"bike_id":"58ec24ee-fa9d-49ec-99a2-1c116107bed3","system_id":"levelo_inurba_marseille","lat":43.2962,"lon":5.37738,"is_reserved":false,"is_disabled":false,"rental_uris":{"android":"levelo://app?vid=58ec24ee-fa9d-49ec-99a2-1c116107bed3","ios":"levelo://app?vid=58ec24ee-fa9d-49ec-99a2-1c116107bed3"},"vehicle_type_id":"4","last_reported":1773686822,"current_range_meters":4800,"station_id":"ce4bgi92rcd13ifvqb90","pricing_plan_id":"cebpf4jnsgd1na2vs0mg"},{"bike_id":"592a7547-d375-47f5-a92c-507aad4780b8","system_id":"levelo_inurba_marseille","lat":43.2257,"lon":5.41628,"is_reserved":false,"is_disabled":false,"rental_uris":{"android":"levelo://app?vid=592a7547-d375-47f5-a92c-507aad4780b8","ios":"levelo://app?vid=592a7547-d375-47f5-a92c-507aad4780b8"},"vehicle_type_id":"4","last_reported":1773686822,"current_range_meters":32400,"station_id":"st_d2o4gvlbi1j2169b742g","pricing_plan_id":"cebpf4jnsgd1na2vs0mg"},{"bike_id":"5146d7f3-ff7a-47a4-9191-69b99ab5930d","system_id":"levelo_inurba_marseille","lat":43.254986,"lon":5.376185,"is_reserved":false,"is_disabled":false,"rental_uris":{"android":"levelo://app?vid=5146d7f3-ff7a-47a4-9191-69b99ab5930d","ios":"levelo://app?vid=5146d7f3-ff7a-47a4-9191-69b99ab5930d"},"vehicle_type_id":"4","last_reported":1773686822,"current_range_meters":4000,"station_id":"ce4bhh12rcd13ifvqff0","pricing_plan_id":"cebpf4jnsgd1na2vs0mg"},{"bike_id":"66238237-b0ff-4d4c-9fd0-1d54f6552b47","system_id":"levelo_inurba_marseille","lat":43.2174,"lon":5.34609,"is_reserved":false,"is_disabled":false,"rental_uris":{"android":"levelo://app?vid=66238237-b0ff-4d4c-9fd0-1d54f6552b47","ios":"levelo://app?vid=66238237-b0ff-4d4c-9fd0-1d54f6552b47"},"vehicle_type_id":"4","last_reported":1773686822,"current_range_meters":10000,"station_id":"st_cvj6r9ubvosntc0bgbag","pricing_plan_id":"cebpf4jnsgd1na2vs0mg"},{"bike_id":"4ce7e85d-2f41-47d0-a55a-10d1eb9f4142","system_id":"levelo_inurba_marseille","lat":43.24511,"lon":5.42566,"is_reserved":false,"is_disabled":false,"rental_uris":{"android":"levelo://app?vid=4ce7e85d-2f41-47d0-a55a-10d1eb9f4142","ios":"levelo://app?vid=4ce7e85d-2f41-47d0-a55a-10d1eb9f4142"},"vehicle_type_id":"4","last_reported":1773686822,"current_range_meters":6000,"station_id":"st_d4a3vfp97mjs738cd8kg","pricing_plan_id":"cebpf4jnsgd1na2vs0mg"},{"bike_id":"72e248b9-3433-4c84-9cdf-83a90cf0f4a9","system_id":"levelo_inurba_marseille","lat":43.29195,"lon":5.39314,"is_reserved":false,"is_disabled":true,"rental_uris":{"android":"levelo://app?vid=72e248b9-3433-4c84-9cdf-83a90cf0f4a9","ios":"levelo://app?vid=72e248b9-3433-4c84-9cdf-83a90cf0f4a9"},"vehicle_type_id":"4","last_reported":1773686822,"current_range_meters":10800,"station_id":"ce4bh192rcd13ifvqdd0","pricing_plan_id":"cebpf4jnsgd1na2vs0mg"},{"bike_id":"57a5bc71-a301-424e-8ecd-4e850dd65ee9","system_id":"levelo_inurba_marseille","lat":43.31125,"lon":5.37776,"is_reserved":false,"is_disabled":false,"rental_uris":{"android":"levelo://app?vid=57a5bc71-a301-424e-8ecd-4e850dd65ee9","ios":"levelo://app?vid=57a5bc71-a301-424e-8ecd-4e850dd65ee9"},"vehicle_type_id":"4","last_reported":1773686822,"current_range_meters":39200,"station_id":"ce4bgt92rcd13ifvqcg0","pricing_plan_id":"cebpf4jnsgd1na2vs0mg"},{"bike_id":"52519249-3b0d-4202-8277-c4917b19c2d3","system_id":"levelo_inurba_marseille","lat":43.3097,"lon":5.3909,"is_reserved":false,"is_disabled":true,"rental_uris":{"android":"levelo://app?vid=52519249-3b0d-4202-8277-c4917b19c2d3","ios":"levelo://app?vid=52519249-3b0d-4202-8277-c4917b19c2d3"},"vehicle_type_id":"4","last_reported":1773686822,"current_range_meters":39200,"station_id":"","pricing_plan_id":"cebpf4jnsgd1na2vs0mg"},{"bike_id":"8aafbcd1-e0fe-4ef4-b089-a98b4c86c0ee","system_id":"levelo_inurba_marseille","lat":43.26203,"lon":5.37435,"is_reserved":false,"is_disabled":true,"rental_uris":{"android":"levelo://app?vid=8aafbcd1-e0fe-4ef4-b089-a98b4c86c0ee","ios":"levelo://app?vid=8aafbcd1-e0fe-4ef4-b089-a98b4c86c0ee"},"vehicle_type_id":"4","last_reported":1773686822,"current_range_meters":25200,"station_id":"ce4bhgp2rcd13ifvqfc0","pricing_plan_id":"cebpf4jnsgd1na2vs0mg"},{"bike_id":"1d87baf7-4472-4b8a-8168-674f85eba66b","system_id":"levelo_inurba_marseille","lat":43.22832,"lon":5.43478,"is_reserved":false,"is_disabled":false,"rental_uris":{"android":"levelo://app?vid=1d87baf7-4472-4b8a-8168-674f85eba66b","ios":"levelo://app?vid=1d87baf7-4472-4b8a-8168-674f85eba66b"},"vehicle_type_id":"4","last_reported":1773686822,"current_range_meters":16400,"station_id":"","pricing_plan_id":"cebpf4jnsgd1na2vs0mg"},{"bike_id":"24d38df8-802b-48fe-8c7d-7cc3349f4378","system_id":"levelo_inurba_marseille","lat":43.25522,"lon":5.37672,"is_reserved":false,"is_disabled":false,"rental_uris":{"android":"levelo://app?vid=24d38df8-802b-48fe-8c7d-7cc3349f4378","ios":"levelo://app?vid=24d38df8-802b-48fe-8c7d-7cc3349f4378"},"vehicle_type_id":"4","last_reported":1773686822,"current_range_meters":1200,"station_id":"ce4bhh12rcd13ifvqff0","pricing_plan_id":"cebpf4jnsgd1na2vs0mg"},{"bike_id":"b3e8b3aa-26db-449c-8162-0ed85a2bc616","system_id":"levelo_inurba_marseille","lat":43.3203,"lon":5.41458,"is_reserved":false,"is_disabled":false,"rental_uris":{"android":"levelo://app?vid=b3e8b3aa-26db-449c-8162-0ed85a2bc616","ios":"levelo://app?vid=b3e8b3aa-26db-449c-8162-0ed85a2bc616"},"vehicle_type_id":"4","last_reported":1773686822,"current_range_meters":20800,"station_id":"","pricing_plan_id":"cebpf4jnsgd1na2vs0mg"},{"bike_id":"7cf4be83-26ac-4c93-9356-1166c34c70ba","system_id":"levelo_inurba_marseille","lat":43.3302,"lon":5.41277,"is_reserved":false,"is_disabled":false,"rental_uris":{"android":"levelo://app?vid=7cf4be83-26ac-4c93-9356-1166c34c70ba","ios":"levelo://app?vid=7cf4be83-26ac-4c93-9356-1166c34c70ba"},"vehicle_type_id":"4","last_reported":1773686822,"current_range_meters":9200,"station_id":"","pricing_plan_id":"cebpf4jnsgd1na2vs0mg"},{"bike_id":"d03f9bdb-4ab4-4e1f-ae03-3cffd5c48c8d","system_id":"levelo_inurba_marseille","lat":43.22909,"lon":5.35405,"is_reserved":false,"is_disabled":false,"rental_uris":{"android":"levelo://app?vid=d03f9bdb-4ab4-4e1f-ae03-3cffd5c48c8d","ios":"levelo://app?vid=d03f9bdb-4ab4-4e1f-ae03-3cffd5c48c8d"},"vehicle_type_id":"4","last_reported":1773686822,"current_range_meters":38800,"station_id":"cpo3532slgdg3j2ikp40","pricing_plan_id":"cebpf4jnsgd1na2vs0mg"},{"bike_id":"2e660e13-ebfc-4778-8634-18e61b993917","system_id":"levelo_inurba_marseille","lat":43.25876,"lon":5.39909,"is_reserved":false,"is_disabled":false,"rental_uris":{"android":"levelo://app?vid=2e660e13-ebfc-4778-8634-18e61b993917","ios":"levelo://app?vid=2e660e13-ebfc-4778-8634-18e61b993917"},"vehicle_type_id":"4","last_reported":1773686822,"current_range_meters":40000,"station_id":"ce4bhl92rcd13ifvqghg","pricing_plan_id":"cebpf4jnsgd1na2vs0mg"},{"bike_id":"56c70eac-ec2d-4946-9fc8-5c455933283a","system_id":"levelo_inurba_marseille","lat":43.29635,"lon":5.38424,"is_reserved":false,"is_disabled":false,"rental_uris":{"android":"levelo://app?vid=56c70eac-ec2d-4946-9fc8-5c455933283a","ios":"levelo://app?vid=56c70eac-ec2d-4946-9fc8-5c455933283a"},"vehicle_type_id":"4","last_reported":1773686822,"current_range_meters":8400,"station_id":"","pricing_plan_id":"cebpf4jnsgd1na2vs0mg"},{"bike_id":"ac32d1ce-eadb-41fb-af36-758f0f8d5898","system_id":"levelo_inurba_marseille","lat":43.29908,"lon":5.4368,"is_reserved":false,"is_disabled":false,"rental_uris":{"android":"levelo://app?vid=ac32d1ce-eadb-41fb-af36-758f0f8d5898","ios":"levelo://app?vid=ac32d1ce-eadb-41fb-af36-758f0f8d5898"},"vehicle_type_id":"4","last_reported":1773686822,"current_range_meters":19200,"station_id":"ce4bhpp2rcd13ifvqhfg","pricing_plan_id":"cebpf4jnsgd1na2vs0mg"},{"bike_id":"1198f1b9-8957-4684-bf55-f1a4bb0e08bb","system_id":"levelo_inurba_marseille","lat":43.29857,"lon":5.36255,"is_reserved":false,"is_disabled":false,"rental_uris":{"android":"levelo://app?vid=1198f1b9-8957-4684-bf55-f1a4bb0e08bb","ios":"levelo://app?vid=1198f1b9-8957-4684-bf55-f1a4bb0e08bb"},"vehicle_type_id":"4","last_reported":1773686822,"current_range_meters":39200,"station_id":"ce4bgpp2rcd13ifvqc3g","pricing_plan_id":"cebpf4jnsgd1na2vs0mg"},{"bike_id":"0aa11af6-4a66-4b65-b781-8959dd3e1b05","system_id":"levelo_inurba_marseille","lat":43.2991,"lon":5.38077,"is_reserved":false,"is_disabled":false,"rental_uris":{"android":"levelo://app?vid=0aa11af6-4a66-4b65-b781-8959dd3e1b05","ios":"levelo://app?vid=0aa11af6-4a66-4b65-b781-8959dd3e1b05"},"vehicle_type_id":"4","last_reported":1773686822,"current_range_meters":27600,"station_id":"","pricing_plan_id":"cebpf4jnsgd1na2vs0mg"},{"bike_id":"79c7e5c0-de13-44fb-beff-efc669def4b8","system_id":"levelo_inurba_marseille","lat":43.2495,"lon":5.40491,"is_reserved":false,"is_disabled":false,"rental_uris":{"android":"levelo://app?vid=79c7e5c0-de13-44fb-beff-efc669def4b8","ios":"levelo://app?vid=79c7e5c0-de13-44fb-beff-efc669def4b8"},"vehicle_type_id":"4","last_reported":1773686822,"current_range_meters":14400,"station_id":"st_d2ngiaodas8pm72gd1h0","pricing_plan_id":"cebpf4jnsgd1na2vs0mg"},{"bike_id":"3893f38a-c31c-4d59-9ae2-654c3c101610","system_id":"levelo_inurba_marseille","lat":43.24551,"lon":5.39535,"is_reserved":false,"is_disabled":false,"rental_uris":{"android":"levelo://app?vid=3893f38a-c31c-4d59-9ae2-654c3c101610","ios":"levelo://app?vid=3893f38a-c31c-4d59-9ae2-654c3c101610"},"vehicle_type_id":"4","last_reported":1773686822,"current_range_meters":25600,"station_id":"ce4bhlp2rcd13ifvqgjg","pricing_plan_id":"cebpf4jnsgd1na2vs0mg"},{"bike_id":"3ad2d07b-2a95-4783-92af-97fdbdee89d5","system_id":"levelo_inurba_marseille","lat":43.266,"lon":5.39016,"is_reserved":false,"is_disabled":false,"rental_uris":{"android":"levelo://app?vid=3ad2d07b-2a95-4783-92af-97fdbdee89d5","ios":"levelo://app?vid=3ad2d07b-2a95-4783-92af-97fdbdee89d5"},"vehicle_type_id":"4","last_reported":1773686822,"current_range_meters":39200,"station_id":"ce4bhe12rcd13ifvqf30","pricing_plan_id":"cebpf4jnsgd1na2vs0mg"},{"bike_id":"08d4a1a9-8ec3-491e-a781-bec56beeb082","system_id":"levelo_inurba_marseille","lat":43.23192,"lon":5.35568,"is_reserved":false,"is_disabled":false,"rental_uris":{"android":"levelo://app?vid=08d4a1a9-8ec3-491e-a781-bec56beeb082","ios":"levelo://app?vid=08d4a1a9-8ec3-491e-a781-bec56beeb082"},"vehicle_type_id":"4","last_reported":1773686822,"current_range_meters":22800,"station_id":"ce4bhu92rcd13ifvqi70","pricing_plan_id":"cebpf4jnsgd1na2vs0mg"},{"bike_id":"070475bf-1a52-421a-820b-baec73f3c197","system_id":"levelo_inurba_marseille","lat":43.26603,"lon":5.39002,"is_reserved":false,"is_disabled":false,"rental_uris":{"android":"levelo://app?vid=070475bf-1a52-421a-820b-baec73f3c197","ios":"levelo://app?vid=070475bf-1a52-421a-820b-baec73f3c197"},"vehicle_type_id":"4","last_reported":1773686822,"current_range_meters":38400,"station_id":"","pricing_plan_id":"cebpf4jnsgd1na2vs0mg"},{"bike_id":"4208a751-b9c8-452a-88cd-c588f3f7258c","system_id":"levelo_inurba_marseille","lat":43.30121,"lon":5.43113,"is_reserved":false,"is_disabled":false,"rental_uris":{"android":"levelo://app?vid=4208a751-b9c8-452a-88cd-c588f3f7258c","ios":"levelo://app?vid=4208a751-b9c8-452a-88cd-c588f3f7258c"},"vehicle_type_id":"4","last_reported":1773686822,"current_range_meters":27600,"station_id":"st_d3js3co5814s73ftftug","pricing_plan_id":"cebpf4jnsgd1na2vs0mg"},{"bike_id":"f216f78e-f321-46d8-8eb0-fdf8abe1ec89","system_id":"levelo_inurba_marseille","lat":43.27375,"lon":5.36258,"is_reserved":false,"is_disabled":false,"rental_uris":{"android":"levelo://app?vid=f216f78e-f321-46d8-8eb0-fdf8abe1ec89","ios":"levelo://app?vid=f216f78e-f321-46d8-8eb0-fdf8abe1ec89"},"vehicle_type_id":"4","last_reported":1773686822,"current_range_meters":28400,"station_id":"ce4bhbh2rcd13ifvqeo0","pricing_plan_id":"cebpf4jnsgd1na2vs0mg"},{"bike_id":"c8f5ec7e-ccc6-49f8-b39a-2f757784a180","system_id":"levelo_inurba_marseille","lat":43.31468,"lon":5.37328,"is_reserved":false,"is_disabled":false,"rental_uris":{"android":"levelo://app?vid=c8f5ec7e-ccc6-49f8-b39a-2f757784a180","ios":"levelo://app?vid=c8f5ec7e-ccc6-49f8-b39a-2f757784a180"},"vehicle_type_id":"4","last_reported":1773686822,"current_range_meters":7200,"station_id":"ce4bgt12rcd13ifvqcd0","pricing_plan_id":"cebpf4jnsgd1na2vs0mg"},{"bike_id":"6473bb4e-c0d8-462a-b3d0-84e6e0dcd07f","system_id":"levelo_inurba_marseille","lat":43.23188,"lon":5.35524,"is_reserved":false,"is_disabled":false,"rental_uris":{"android":"levelo://app?vid=6473bb4e-c0d8-462a-b3d0-84e6e0dcd07f","ios":"levelo://app?vid=6473bb4e-c0d8-462a-b3d0-84e6e0dcd07f"},"vehicle_type_id":"4","last_reported":1773686822,"current_range_meters":14400,"station_id":"ce4bhu92rcd13ifvqi70","pricing_plan_id":"cebpf4jnsgd1na2vs0mg"},{"bike_id":"06a6e01d-e89a-4a6e-b5f3-512115d84c96","system_id":"levelo_inurba_marseille","lat":43.26798,"lon":5.39426,"is_reserved":false,"is_disabled":true,"rental_uris":{"android":"levelo://app?vid=06a6e01d-e89a-4a6e-b5f3-512115d84c96","ios":"levelo://app?vid=06a6e01d-e89a-4a6e-b5f3-512115d84c96"},"vehicle_type_id":"4","last_reported":1773686822,"current_range_meters":35200,"station_id":"ce4bhh12rcd13ifvqfg0","pricing_plan_id":"cebpf4jnsgd1na2vs0mg"},{"bike_id":"0e7ba3ea-50d1-41c4-b4fe-8cc7d5a24707","system_id":"levelo_inurba_marseille","lat":43.29071,"lon":5.37164,"is_reserved":false,"is_disabled":false,"rental_uris":{"android":"levelo://app?vid=0e7ba3ea-50d1-41c4-b4fe-8cc7d5a24707","ios":"levelo://app?vid=0e7ba3ea-50d1-41c4-b4fe-8cc7d5a24707"},"vehicle_type_id":"4","last_reported":1773686822,"current_range_meters":4400,"station_id":"ce4bh5p2rcd13ifvqe4g","pricing_plan_id":"cebpf4jnsgd1na2vs0mg"},{"bike_id":"bcddf199-548b-4144-aa72-ca5b4d52d0b4","system_id":"levelo_inurba_marseille","lat":43.26219,"lon":5.37927,"is_reserved":false,"is_disabled":false,"rental_uris":{"android":"levelo://app?vid=bcddf199-548b-4144-aa72-ca5b4d52d0b4","ios":"levelo://app?vid=bcddf199-548b-4144-aa72-ca5b4d52d0b4"},"vehicle_type_id":"4","last_reported":1773686822,"current_range_meters":39200,"station_id":"ce4bhjp2rcd13ifvqg90","pricing_plan_id":"cebpf4jnsgd1na2vs0mg"},{"bike_id":"c5bc51de-4e71-46f3-9bd1-90e10bc61df1","system_id":"levelo_inurba_marseille","lat":43.29238,"lon":5.36118,"is_reserved":false,"is_disabled":true,"rental_uris":{"android":"levelo://app?vid=c5bc51de-4e71-46f3-9bd1-90e10bc61df1","ios":"levelo://app?vid=c5bc51de-4e71-46f3-9bd1-90e10bc61df1"},"vehicle_type_id":"4","last_reported":1773686822,"current_range_meters":1600,"station_id":"ce4bhbh2rcd13ifvqeqg","pricing_plan_id":"cebpf4jnsgd1na2vs0mg"},{"bike_id":"23e678b2-1f77-49cd-b6e6-b676bf50bd0d","system_id":"levelo_inurba_marseille","lat":43.28344,"lon":5.38107,"is_reserved":false,"is_disabled":true,"rental_uris":{"android":"levelo://app?vid=23e678b2-1f77-49cd-b6e6-b676bf50bd0d","ios":"levelo://app?vid=23e678b2-1f77-49cd-b6e6-b676bf50bd0d"},"vehicle_type_id":"4","last_reported":1773686822,"current_range_meters":38400,"station_id":"ce4bh412rcd13ifvqdr0","pricing_plan_id":"cebpf4jnsgd1na2vs0mg"},{"bike_id":"e2a03a7f-5648-4f9b-ac20-b0e493b7b350","system_id":"levelo_inurba_marseille","lat":43.32355,"lon":5.36743,"is_reserved":false,"is_disabled":false,"rental_uris":{"android":"levelo://app?vid=e2a03a7f-5648-4f9b-ac20-b0e493b7b350","ios":"levelo://app?vid=e2a03a7f-5648-4f9b-ac20-b0e493b7b350"},"vehicle_type_id":"4","last_reported":1773686822,"current_range_meters":39200,"station_id":"ce4bhsh2rcd13ifvqi2g","pricing_plan_id":"cebpf4jnsgd1na2vs0mg"},{"bike_id":"8a1d8a84-dedf-4250-ac8b-7e13c0e1c9b3","system_id":"levelo_inurba_marseille","lat":43.33733,"lon":5.39179,"is_reserved":false,"is_disabled":false,"rental_uris":{"android":"levelo://app?vid=8a1d8a84-dedf-4250-ac8b-7e13c0e1c9b3","ios":"levelo://app?vid=8a1d8a84-dedf-4250-ac8b-7e13c0e1c9b3"},"vehicle_type_id":"4","last_reported":1773686822,"current_range_meters":32800,"station_id":"ce4bhr92rcd13ifvqhsg","pricing_plan_id":"cebpf4jnsgd1na2vs0mg"},{"bike_id":"ddfa8bc2-a2ab-4f06-ba77-074bccd79449","system_id":"levelo_inurba_marseille","lat":43.27361,"lon":5.36256,"is_reserved":false,"is_disabled":false,"rental_uris":{"android":"levelo://app?vid=ddfa8bc2-a2ab-4f06-ba77-074bccd79449","ios":"levelo://app?vid=ddfa8bc2-a2ab-4f06-ba77-074bccd79449"},"vehicle_type_id":"4","last_reported":1773686822,"current_range_meters":8800,"station_id":"ce4bhbh2rcd13ifvqeo0","pricing_plan_id":"cebpf4jnsgd1na2vs0mg"},{"bike_id":"9c2486c2-e062-4581-a21f-f081ce0fb87f","system_id":"levelo_inurba_marseille","lat":43.29812,"lon":5.44056,"is_reserved":false,"is_disabled":false,"rental_uris":{"android":"levelo://app?vid=9c2486c2-e062-4581-a21f-f081ce0fb87f","ios":"levelo://app?vid=9c2486c2-e062-4581-a21f-f081ce0fb87f"},"vehicle_type_id":"4","last_reported":1773686822,"current_range_meters":15200,"station_id":"st_d3jp68qikq2c7381ktn0","pricing_plan_id":"cebpf4jnsgd1na2vs0mg"},{"bike_id":"3f484f2e-0b76-41f3-9fe3-3db907fd108c","system_id":"levelo_inurba_marseille","lat":43.24824,"lon":5.37456,"is_reserved":false,"is_disabled":false,"rental_uris":{"android":"levelo://app?vid=3f484f2e-0b76-41f3-9fe3-3db907fd108c","ios":"levelo://app?vid=3f484f2e-0b76-41f3-9fe3-3db907fd108c"},"vehicle_type_id":"4","last_reported":1773686822,"current_range_meters":25600,"station_id":"ce4bhgh2rcd13ifvqfb0","pricing_plan_id":"cebpf4jnsgd1na2vs0mg"},{"bike_id":"9e206d07-dad7-42ce-a265-1a9f4a52b763","system_id":"levelo_inurba_marseille","lat":43.30938,"lon":5.39022,"is_reserved":false,"is_disabled":false,"rental_uris":{"android":"levelo://app?vid=9e206d07-dad7-42ce-a265-1a9f4a52b763","ios":"levelo://app?vid=9e206d07-dad7-42ce-a265-1a9f4a52b763"},"vehicle_type_id":"4","last_reported":1773686822,"current_range_meters":26000,"station_id":"ce4bgup2rcd13ifvqco0","pricing_plan_id":"cebpf4jnsgd1na2vs0mg"},{"bike_id":"92aac77d-d6ca-4e5a-b3bb-6f2cb187e0a2","system_id":"levelo_inurba_marseille","lat":43.292,"lon":5.39316,"is_reserved":false,"is_disabled":false,"rental_uris":{"android":"levelo://app?vid=92aac77d-d6ca-4e5a-b3bb-6f2cb187e0a2","ios":"levelo://app?vid=92aac77d-d6ca-4e5a-b3bb-6f2cb187e0a2"},"vehicle_type_id":"4","last_reported":1773686822,"current_range_meters":5600,"station_id":"ce4bh192rcd13ifvqdd0","pricing_plan_id":"cebpf4jnsgd1na2vs0mg"},{"bike_id":"2614f375-527a-4571-8682-a6dd4b293291","system_id":"levelo_inurba_marseille","lat":43.29116,"lon":5.3819,"is_reserved":false,"is_disabled":false,"rental_uris":{"android":"levelo://app?vid=2614f375-527a-4571-8682-a6dd4b293291","ios":"levelo://app?vid=2614f375-527a-4571-8682-a6dd4b293291"},"vehicle_type_id":"4","last_reported":1773686822,"current_range_meters":32800,"station_id":"ce4bh512rcd13ifvqe2g","pricing_plan_id":"cebpf4jnsgd1na2vs0mg"},{"bike_id":"57a423db-8929-4509-ac08-b3b87a99ddd9","system_id":"levelo_inurba_marseille","lat":43.31706,"lon":5.42405,"is_reserved":false,"is_disabled":false,"rental_uris":{"android":"levelo://app?vid=57a423db-8929-4509-ac08-b3b87a99ddd9","ios":"levelo://app?vid=57a423db-8929-4509-ac08-b3b87a99ddd9"},"vehicle_type_id":"4","last_reported":1773686822,"current_range_meters":38800,"station_id":"ce4bhp92rcd13ifvqhbg","pricing_plan_id":"cebpf4jnsgd1na2vs0mg"},{"bike_id":"2549d3e1-f693-492a-81e4-d55cbdc452bd","system_id":"levelo_inurba_marseille","lat":43.27063,"lon":5.4013,"is_reserved":false,"is_disabled":false,"rental_uris":{"android":"levelo://app?vid=2549d3e1-f693-492a-81e4-d55cbdc452bd","ios":"levelo://app?vid=2549d3e1-f693-492a-81e4-d55cbdc452bd"},"vehicle_type_id":"4","last_reported":1773686822,"current_range_meters":32800,"station_id":"","pricing_plan_id":"cebpf4jnsgd1na2vs0mg"},{"bike_id":"dac3c991-8e17-4f14-be1b-aa9862518a59","system_id":"levelo_inurba_marseille","lat":43.25002,"lon":5.38935,"is_reserved":false,"is_disabled":false,"rental_uris":{"android":"levelo://app?vid=dac3c991-8e17-4f14-be1b-aa9862518a59","ios":"levelo://app?vid=dac3c991-8e17-4f14-be1b-aa9862518a59"},"vehicle_type_id":"4","last_reported":1773686822,"current_range_meters":33600,"station_id":"ce4bhgp2rcd13ifvqfd0","pricing_plan_id":"cebpf4jnsgd1na2vs0mg"},{"bike_id":"d7435bde-7ace-4f4f-88d3-08e0c5541bf5","system_id":"levelo_inurba_marseille","lat":43.298,"lon":5.38138,"is_reserved":false,"is_disabled":true,"rental_uris":{"android":"levelo://app?vid=d7435bde-7ace-4f4f-88d3-08e0c5541bf5","ios":"levelo://app?vid=d7435bde-7ace-4f4f-88d3-08e0c5541bf5"},"vehicle_type_id":"4","last_reported":1773686822,"current_range_meters":23200,"station_id":"ce4bgip2rcd13ifvqbb0","pricing_plan_id":"cebpf4jnsgd1na2vs0mg"},{"bike_id":"8ad87f05-a69d-4520-86d1-ec7e53219f7d","system_id":"levelo_inurba_marseille","lat":43.27992,"lon":5.41678,"is_reserved":false,"is_disabled":false,"rental_uris":{"android":"levelo://app?vid=8ad87f05-a69d-4520-86d1-ec7e53219f7d","ios":"levelo://app?vid=8ad87f05-a69d-4520-86d1-ec7e53219f7d"},"vehicle_type_id":"4","last_reported":1773686822,"current_range_meters":30400,"station_id":"ce4bho12rcd13ifvqh1g","pricing_plan_id":"cebpf4jnsgd1na2vs0mg"},{"bike_id":"0105f821-befb-4b88-877b-bfb9a09ae874","system_id":"levelo_inurba_marseille","lat":43.2928,"lon":5.38455,"is_reserved":false,"is_disabled":false,"rental_uris":{"android":"levelo://app?vid=0105f821-befb-4b88-877b-bfb9a09ae874","ios":"levelo://app?vid=0105f821-befb-4b88-877b-bfb9a09ae874"},"vehicle_type_id":"4","last_reported":1773686822,"current_range_meters":8400,"station_id":"ce4bh692rcd13ifvqea0","pricing_plan_id":"cebpf4jnsgd1na2vs0mg"},{"bike_id":"af302f6c-8c6f-4ace-b011-ac7f02160942","system_id":"levelo_inurba_marseille","lat":43.25011,"lon":5.38894,"is_reserved":false,"is_disabled":true,"rental_uris":{"android":"levelo://app?vid=af302f6c-8c6f-4ace-b011-ac7f02160942","ios":"levelo://app?vid=af302f6c-8c6f-4ace-b011-ac7f02160942"},"vehicle_type_id":"4","last_reported":1773686822,"current_range_meters":28800,"station_id":"ce4bhgp2rcd13ifvqfd0","pricing_plan_id":"cebpf4jnsgd1na2vs0mg"},{"bike_id":"7f22dd13-9c58-4cd6-91ef-21f6afafc313","system_id":"levelo_inurba_marseille","lat":43.2925,"lon":5.38458,"is_reserved":false,"is_disabled":false,"rental_uris":{"android":"levelo://app?vid=7f22dd13-9c58-4cd6-91ef-21f6afafc313","ios":"levelo://app?vid=7f22dd13-9c58-4cd6-91ef-21f6afafc313"},"vehicle_type_id":"4","last_reported":1773686822,"current_range_meters":32000,"station_id":"ce4bh692rcd13ifvqea0","pricing_plan_id":"cebpf4jnsgd1na2vs0mg"},{"bike_id":"b7d7dd75-3996-448a-8686-bbd99bb29353","system_id":"levelo_inurba_marseille","lat":43.28424,"lon":5.34984,"is_reserved":false,"is_disabled":false,"rental_uris":{"android":"levelo://app?vid=b7d7dd75-3996-448a-8686-bbd99bb29353","ios":"levelo://app?vid=b7d7dd75-3996-448a-8686-bbd99bb29353"},"vehicle_type_id":"4","last_reported":1773686822,"current_range_meters":26000,"station_id":"ce4bhbh2rcd13ifvqepg","pricing_plan_id":"cebpf4jnsgd1na2vs0mg"},{"bike_id":"63ac7fc0-00b3-4fb5-aba5-0afcd7429a92","system_id":"levelo_inurba_marseille","lat":43.31861,"lon":5.44324,"is_reserved":false,"is_disabled":false,"rental_uris":{"android":"levelo://app?vid=63ac7fc0-00b3-4fb5-aba5-0afcd7429a92","ios":"levelo://app?vid=63ac7fc0-00b3-4fb5-aba5-0afcd7429a92"},"vehicle_type_id":"4","last_reported":1773686822,"current_range_meters":25200,"station_id":"","pricing_plan_id":"cebpf4jnsgd1na2vs0mg"},{"bike_id":"a8ccaa89-c8ad-46e6-bf26-60f0ccbb81e1","system_id":"levelo_inurba_marseille","lat":43.31724,"lon":5.42386,"is_reserved":false,"is_disabled":false,"rental_uris":{"android":"levelo://app?vid=a8ccaa89-c8ad-46e6-bf26-60f0ccbb81e1","ios":"levelo://app?vid=a8ccaa89-c8ad-46e6-bf26-60f0ccbb81e1"},"vehicle_type_id":"4","last_reported":1773686822,"current_range_meters":33600,"station_id":"ce4bhp92rcd13ifvqhbg","pricing_plan_id":"cebpf4jnsgd1na2vs0mg"},{"bike_id":"cecc6ab6-baa9-4f04-8738-c14aac04a878","system_id":"levelo_inurba_marseille","lat":43.26372,"lon":5.41084,"is_reserved":false,"is_disabled":false,"rental_uris":{"android":"levelo://app?vid=cecc6ab6-baa9-4f04-8738-c14aac04a878","ios":"levelo://app?vid=cecc6ab6-baa9-4f04-8738-c14aac04a878"},"vehicle_type_id":"4","last_reported":1773686822,"current_range_meters":18800,"station_id":"st_d4e5ca6na9uc73bfl5fg","pricing_plan_id":"cebpf4jnsgd1na2vs0mg"},{"bike_id":"3ae43c00-9996-4e4b-9291-604985704064","system_id":"levelo_inurba_marseille","lat":43.28554,"lon":5.39501,"is_reserved":false,"is_disabled":false,"rental_uris":{"android":"levelo://app?vid=3ae43c00-9996-4e4b-9291-604985704064","ios":"levelo://app?vid=3ae43c00-9996-4e4b-9291-604985704064"},"vehicle_type_id":"4","last_reported":1773686822,"current_range_meters":17600,"station_id":"ce4bh292rcd13ifvqdg0","pricing_plan_id":"cebpf4jnsgd1na2vs0mg"},{"bike_id":"0b733207-6002-4d57-86ef-1b760243792a","system_id":"levelo_inurba_marseille","lat":43.29494,"lon":5.43299,"is_reserved":false,"is_disabled":false,"rental_uris":{"android":"levelo://app?vid=0b733207-6002-4d57-86ef-1b760243792a","ios":"levelo://app?vid=0b733207-6002-4d57-86ef-1b760243792a"},"vehicle_type_id":"4","last_reported":1773686822,"current_range_meters":23200,"station_id":"st_d3j5ugp08ojc73fj9d10","pricing_plan_id":"cebpf4jnsgd1na2vs0mg"},{"bike_id":"524b8939-b893-4d7c-9390-15f31467693d","system_id":"levelo_inurba_marseille","lat":43.27191,"lon":5.3922,"is_reserved":false,"is_disabled":true,"rental_uris":{"android":"levelo://app?vid=524b8939-b893-4d7c-9390-15f31467693d","ios":"levelo://app?vid=524b8939-b893-4d7c-9390-15f31467693d"},"vehicle_type_id":"4","last_reported":1773686822,"current_range_meters":32000,"station_id":"ce4bhhp2rcd13ifvqfm0","pricing_plan_id":"cebpf4jnsgd1na2vs0mg"},{"bike_id":"6f8dc4d9-9414-4b9f-84ca-431e632f2006","system_id":"levelo_inurba_marseille","lat":43.2558,"lon":5.38233,"is_reserved":false,"is_disabled":false,"rental_uris":{"android":"levelo://app?vid=6f8dc4d9-9414-4b9f-84ca-431e632f2006","ios":"levelo://app?vid=6f8dc4d9-9414-4b9f-84ca-431e632f2006"},"vehicle_type_id":"4","last_reported":1773686822,"current_range_meters":21600,"station_id":"ce4bhih2rcd13ifvqfs0","pricing_plan_id":"cebpf4jnsgd1na2vs0mg"},{"bike_id":"830e471c-a762-44ae-a1cb-7b16951aff80","system_id":"levelo_inurba_marseille","lat":43.31909,"lon":5.36804,"is_reserved":false,"is_disabled":false,"rental_uris":{"android":"levelo://app?vid=830e471c-a762-44ae-a1cb-7b16951aff80","ios":"levelo://app?vid=830e471c-a762-44ae-a1cb-7b16951aff80"},"vehicle_type_id":"4","last_reported":1773686822,"current_range_meters":30800,"station_id":"ce4bhrh2rcd13ifvqhug","pricing_plan_id":"cebpf4jnsgd1na2vs0mg"},{"bike_id":"f2848cf2-3575-4d15-8bc5-e4b8c35bc5e0","system_id":"levelo_inurba_marseille","lat":43.27922,"lon":5.35425,"is_reserved":false,"is_disabled":true,"rental_uris":{"android":"levelo://app?vid=f2848cf2-3575-4d15-8bc5-e4b8c35bc5e0","ios":"levelo://app?vid=f2848cf2-3575-4d15-8bc5-e4b8c35bc5e0"},"vehicle_type_id":"4","last_reported":1773686822,"current_range_meters":0,"station_id":"","pricing_plan_id":"cebpf4jnsgd1na2vs0mg"},{"bike_id":"cb59cd2d-cd04-4bbb-ba75-60bbb036df9c","system_id":"levelo_inurba_marseille","lat":43.24623,"lon":5.38892,"is_reserved":false,"is_disabled":false,"rental_uris":{"android":"levelo://app?vid=cb59cd2d-cd04-4bbb-ba75-60bbb036df9c","ios":"levelo://app?vid=cb59cd2d-cd04-4bbb-ba75-60bbb036df9c"},"vehicle_type_id":"4","last_reported":1773686822,"current_range_meters":19600,"station_id":"ce4bhg12rcd13ifvqf60","pricing_plan_id":"cebpf4jnsgd1na2vs0mg"},{"bike_id":"b4edc908-c4fb-4bee-a3fe-b137f18dfc3b","system_id":"levelo_inurba_marseille","lat":43.29858,"lon":5.36314,"is_reserved":false,"is_disabled":false,"rental_uris":{"android":"levelo://app?vid=b4edc908-c4fb-4bee-a3fe-b137f18dfc3b","ios":"levelo://app?vid=b4edc908-c4fb-4bee-a3fe-b137f18dfc3b"},"vehicle_type_id":"4","last_reported":1773686822,"current_range_meters":30000,"station_id":"ce4bgpp2rcd13ifvqc3g","pricing_plan_id":"cebpf4jnsgd1na2vs0mg"},{"bike_id":"6b6827d2-291d-4b7c-9ef4-9cab50cb3fd3","system_id":"levelo_inurba_marseille","lat":43.297049,"lon":5.376897,"is_reserved":false,"is_disabled":false,"rental_uris":{"android":"levelo://app?vid=6b6827d2-291d-4b7c-9ef4-9cab50cb3fd3","ios":"levelo://app?vid=6b6827d2-291d-4b7c-9ef4-9cab50cb3fd3"},