{"last_updated":1784318204,"ttl":60,"version":"2.2","data":{"bikes":[{"bike_id":"ba0c28b1-8732-48e2-8079-f25b2b3fbc3c","system_id":"levelo_inurba_marseille","lat":43.337444,"lon":5.374475,"is_reserved":false,"is_disabled":false,"rental_uris":{"android":"levelo://app?vid=ba0c28b1-8732-48e2-8079-f25b2b3fbc3c","ios":"levelo://app?vid=ba0c28b1-8732-48e2-8079-f25b2b3fbc3c"},"vehicle_type_id":"4","last_reported":1784318205,"current_range_meters":0,"station_id":"","pricing_plan_id":"cebpf4jnsgd1na2vs0mg"},{"bike_id":"5a32fe4b-6fd5-4995-a998-8d2584749db9","system_id":"levelo_inurba_marseille","lat":43.27953,"lon":5.4105,"is_reserved":false,"is_disabled":false,"rental_uris":{"android":"levelo://app?vid=5a32fe4b-6fd5-4995-a998-8d2584749db9","ios":"levelo://app?vid=5a32fe4b-6fd5-4995-a998-8d2584749db9"},"vehicle_type_id":"4","last_reported":1784318205,"current_range_meters":32800,"station_id":"ce4bhnp2rcd13ifvqh0g","pricing_plan_id":"cebpf4jnsgd1na2vs0mg"},{"bike_id":"e370498d-23e4-4cf6-82e7-8e7db08248dc","system_id":"levelo_inurba_marseille","lat":43.28077,"lon":5.3969,"is_reserved":false,"is_disabled":false,"rental_uris":{"android":"levelo://app?vid=e370498d-23e4-4cf6-82e7-8e7db08248dc","ios":"levelo://app?vid=e370498d-23e4-4cf6-82e7-8e7db08248dc"},"vehicle_type_id":"4","last_reported":1784318205,"current_range_meters":38400,"station_id":"ce4bho12rcd13ifvqh2g","pricing_plan_id":"cebpf4jnsgd1na2vs0mg"},{"bike_id":"63dc20ac-90f4-4eae-ac6c-d24ae13a7929","system_id":"levelo_inurba_marseille","lat":43.25338,"lon":5.42167,"is_reserved":false,"is_disabled":false,"rental_uris":{"android":"levelo://app?vid=63dc20ac-90f4-4eae-ac6c-d24ae13a7929","ios":"levelo://app?vid=63dc20ac-90f4-4eae-ac6c-d24ae13a7929"},"vehicle_type_id":"4","last_reported":1784318205,"current_range_meters":35200,"station_id":"st_d2m65c5bi1j21697t3ng","pricing_plan_id":"cebpf4jnsgd1na2vs0mg"},{"bike_id":"76b63993-96f7-484a-8343-5ea3ca2d69bf","system_id":"levelo_inurba_marseille","lat":43.27456,"lon":5.36141,"is_reserved":false,"is_disabled":false,"rental_uris":{"android":"levelo://app?vid=76b63993-96f7-484a-8343-5ea3ca2d69bf","ios":"levelo://app?vid=76b63993-96f7-484a-8343-5ea3ca2d69bf"},"vehicle_type_id":"4","last_reported":1784318205,"current_range_meters":28800,"station_id":"","pricing_plan_id":"cebpf4jnsgd1na2vs0mg"},{"bike_id":"b50a1b64-ea74-4424-a529-becdda2f137e","system_id":"levelo_inurba_marseille","lat":43.29168,"lon":5.37157,"is_reserved":false,"is_disabled":false,"rental_uris":{"android":"levelo://app?vid=b50a1b64-ea74-4424-a529-becdda2f137e","ios":"levelo://app?vid=b50a1b64-ea74-4424-a529-becdda2f137e"},"vehicle_type_id":"4","last_reported":1784318205,"current_range_meters":34800,"station_id":"ce4bha92rcd13ifvqeh0","pricing_plan_id":"cebpf4jnsgd1na2vs0mg"},{"bike_id":"d6a13d26-211f-4022-9cfb-a0bb319fd267","system_id":"levelo_inurba_marseille","lat":43.29635,"lon":5.3718,"is_reserved":false,"is_disabled":false,"rental_uris":{"android":"levelo://app?vid=d6a13d26-211f-4022-9cfb-a0bb319fd267","ios":"levelo://app?vid=d6a13d26-211f-4022-9cfb-a0bb319fd267"},"vehicle_type_id":"4","last_reported":1784318205,"current_range_meters":6400,"station_id":"","pricing_plan_id":"cebpf4jnsgd1na2vs0mg"},{"bike_id":"262dc2b4-e8e1-4afc-b0f3-9a512ede6a8b","system_id":"levelo_inurba_marseille","lat":43.29848,"lon":5.36267,"is_reserved":false,"is_disabled":false,"rental_uris":{"android":"levelo://app?vid=262dc2b4-e8e1-4afc-b0f3-9a512ede6a8b","ios":"levelo://app?vid=262dc2b4-e8e1-4afc-b0f3-9a512ede6a8b"},"vehicle_type_id":"4","last_reported":1784318205,"current_range_meters":4000,"station_id":"ce4bgpp2rcd13ifvqc3g","pricing_plan_id":"cebpf4jnsgd1na2vs0mg"},{"bike_id":"db8bd5d3-bb99-4688-8de3-0b156a227ffe","system_id":"levelo_inurba_marseille","lat":43.29941,"lon":5.37459,"is_reserved":false,"is_disabled":true,"rental_uris":{"android":"levelo://app?vid=db8bd5d3-bb99-4688-8de3-0b156a227ffe","ios":"levelo://app?vid=db8bd5d3-bb99-4688-8de3-0b156a227ffe"},"vehicle_type_id":"4","last_reported":1784318205,"current_range_meters":10000,"station_id":"ce4bgjh2rcd13ifvqbg0","pricing_plan_id":"cebpf4jnsgd1na2vs0mg"},{"bike_id":"5be6349b-130c-4a8a-85e7-6ae7e5f0f4af","system_id":"levelo_inurba_marseille","lat":43.23259,"lon":5.4003,"is_reserved":false,"is_disabled":false,"rental_uris":{"android":"levelo://app?vid=5be6349b-130c-4a8a-85e7-6ae7e5f0f4af","ios":"levelo://app?vid=5be6349b-130c-4a8a-85e7-6ae7e5f0f4af"},"vehicle_type_id":"4","last_reported":1784318205,"current_range_meters":13600,"station_id":"","pricing_plan_id":"cebpf4jnsgd1na2vs0mg"},{"bike_id":"9da5cadf-cdd1-429b-9b5e-9173177dfcc4","system_id":"levelo_inurba_marseille","lat":43.24385,"lon":5.37098,"is_reserved":false,"is_disabled":false,"rental_uris":{"android":"levelo://app?vid=9da5cadf-cdd1-429b-9b5e-9173177dfcc4","ios":"levelo://app?vid=9da5cadf-cdd1-429b-9b5e-9173177dfcc4"},"vehicle_type_id":"4","last_reported":1784318205,"current_range_meters":12800,"station_id":"ce4bhhh2rcd13ifvqfk0","pricing_plan_id":"cebpf4jnsgd1na2vs0mg"},{"bike_id":"6b15b759-7e27-4e69-962a-7644e0b3b493","system_id":"levelo_inurba_marseille","lat":43.29282,"lon":5.3685,"is_reserved":false,"is_disabled":false,"rental_uris":{"android":"levelo://app?vid=6b15b759-7e27-4e69-962a-7644e0b3b493","ios":"levelo://app?vid=6b15b759-7e27-4e69-962a-7644e0b3b493"},"vehicle_type_id":"4","last_reported":1784318205,"current_range_meters":39200,"station_id":"","pricing_plan_id":"cebpf4jnsgd1na2vs0mg"},{"bike_id":"e71494cd-d4a8-436a-a5c6-260a2924500e","system_id":"levelo_inurba_marseille","lat":43.26228,"lon":5.3877,"is_reserved":false,"is_disabled":true,"rental_uris":{"android":"levelo://app?vid=e71494cd-d4a8-436a-a5c6-260a2924500e","ios":"levelo://app?vid=e71494cd-d4a8-436a-a5c6-260a2924500e"},"vehicle_type_id":"4","last_reported":1784318205,"current_range_meters":30000,"station_id":"st_d8gjfg747rts73coq3b0","pricing_plan_id":"cebpf4jnsgd1na2vs0mg"},{"bike_id":"4dd83e35-73dd-44b8-9d3c-9c21e3418d4e","system_id":"levelo_inurba_marseille","lat":43.27497,"lon":5.42571,"is_reserved":false,"is_disabled":false,"rental_uris":{"android":"levelo://app?vid=4dd83e35-73dd-44b8-9d3c-9c21e3418d4e","ios":"levelo://app?vid=4dd83e35-73dd-44b8-9d3c-9c21e3418d4e"},"vehicle_type_id":"4","last_reported":1784318205,"current_range_meters":14800,"station_id":"st_d8t4bh7nbrqs73arha60","pricing_plan_id":"cebpf4jnsgd1na2vs0mg"},{"bike_id":"0bae1387-dbc4-4fe8-af80-0faa0716d47d","system_id":"levelo_inurba_marseille","lat":43.23958,"lon":5.36633,"is_reserved":false,"is_disabled":false,"rental_uris":{"android":"levelo://app?vid=0bae1387-dbc4-4fe8-af80-0faa0716d47d","ios":"levelo://app?vid=0bae1387-dbc4-4fe8-af80-0faa0716d47d"},"vehicle_type_id":"4","last_reported":1784318205,"current_range_meters":34000,"station_id":"ce4bhi12rcd13ifvqfp0","pricing_plan_id":"cebpf4jnsgd1na2vs0mg"},{"bike_id":"6666b766-2ccd-467a-ad53-5ec31fb4dec4","system_id":"levelo_inurba_marseille","lat":43.24806,"lon":5.37428,"is_reserved":false,"is_disabled":false,"rental_uris":{"android":"levelo://app?vid=6666b766-2ccd-467a-ad53-5ec31fb4dec4","ios":"levelo://app?vid=6666b766-2ccd-467a-ad53-5ec31fb4dec4"},"vehicle_type_id":"4","last_reported":1784318205,"current_range_meters":38000,"station_id":"ce4bhgh2rcd13ifvqfb0","pricing_plan_id":"cebpf4jnsgd1na2vs0mg"},{"bike_id":"1d6ce009-68f6-4ed3-8c3f-d060a2ee7623","system_id":"levelo_inurba_marseille","lat":43.25076,"lon":5.39523,"is_reserved":false,"is_disabled":false,"rental_uris":{"android":"levelo://app?vid=1d6ce009-68f6-4ed3-8c3f-d060a2ee7623","ios":"levelo://app?vid=1d6ce009-68f6-4ed3-8c3f-d060a2ee7623"},"vehicle_type_id":"4","last_reported":1784318205,"current_range_meters":12000,"station_id":"ce4bhm12rcd13ifvqgkg","pricing_plan_id":"cebpf4jnsgd1na2vs0mg"},{"bike_id":"e693d36e-ff27-48f0-818c-594301068792","system_id":"levelo_inurba_marseille","lat":43.29533,"lon":5.39027,"is_reserved":false,"is_disabled":true,"rental_uris":{"android":"levelo://app?vid=e693d36e-ff27-48f0-818c-594301068792","ios":"levelo://app?vid=e693d36e-ff27-48f0-818c-594301068792"},"vehicle_type_id":"4","last_reported":1784318205,"current_range_meters":0,"station_id":"ce4bh3p2rcd13ifvqdp0","pricing_plan_id":"cebpf4jnsgd1na2vs0mg"},{"bike_id":"daf11da9-09e4-45d4-814b-e16971bc59a4","system_id":"levelo_inurba_marseille","lat":43.27953,"lon":5.38692,"is_reserved":false,"is_disabled":true,"rental_uris":{"android":"levelo://app?vid=daf11da9-09e4-45d4-814b-e16971bc59a4","ios":"levelo://app?vid=daf11da9-09e4-45d4-814b-e16971bc59a4"},"vehicle_type_id":"4","last_reported":1784318205,"current_range_meters":23200,"station_id":"ce4bhg12rcd13ifvqf80","pricing_plan_id":"cebpf4jnsgd1na2vs0mg"},{"bike_id":"a8331d0e-98f0-44c1-bd1e-9bd3cc505a42","system_id":"levelo_inurba_marseille","lat":43.24163,"lon":5.36389,"is_reserved":false,"is_disabled":false,"rental_uris":{"android":"levelo://app?vid=a8331d0e-98f0-44c1-bd1e-9bd3cc505a42","ios":"levelo://app?vid=a8331d0e-98f0-44c1-bd1e-9bd3cc505a42"},"vehicle_type_id":"4","last_reported":1784318205,"current_range_meters":2800,"station_id":"cpo36qri1sfpv3e86is0","pricing_plan_id":"cebpf4jnsgd1na2vs0mg"},{"bike_id":"005b650b-68a5-4670-b741-3dfd0052c4bb","system_id":"levelo_inurba_marseille","lat":43.27611,"lon":5.36133,"is_reserved":false,"is_disabled":false,"rental_uris":{"android":"levelo://app?vid=005b650b-68a5-4670-b741-3dfd0052c4bb","ios":"levelo://app?vid=005b650b-68a5-4670-b741-3dfd0052c4bb"},"vehicle_type_id":"4","last_reported":1784318205,"current_range_meters":11200,"station_id":"ce4bgj92rcd13ifvqbe0","pricing_plan_id":"cebpf4jnsgd1na2vs0mg"},{"bike_id":"acc1f62a-bcba-48db-87e6-f9904a68c9cf","system_id":"levelo_inurba_marseille","lat":43.29747,"lon":5.37688,"is_reserved":false,"is_disabled":true,"rental_uris":{"android":"levelo://app?vid=acc1f62a-bcba-48db-87e6-f9904a68c9cf","ios":"levelo://app?vid=acc1f62a-bcba-48db-87e6-f9904a68c9cf"},"vehicle_type_id":"4","last_reported":1784318205,"current_range_meters":4400,"station_id":"ce4bgkh2rcd13ifvqbl0","pricing_plan_id":"cebpf4jnsgd1na2vs0mg"},{"bike_id":"0082b5a1-3fc3-41b1-b5b8-986e786899c1","system_id":"levelo_inurba_marseille","lat":43.29606,"lon":5.37729,"is_reserved":false,"is_disabled":false,"rental_uris":{"android":"levelo://app?vid=0082b5a1-3fc3-41b1-b5b8-986e786899c1","ios":"levelo://app?vid=0082b5a1-3fc3-41b1-b5b8-986e786899c1"},"vehicle_type_id":"4","last_reported":1784318205,"current_range_meters":28800,"station_id":"ce4bgi92rcd13ifvqb90","pricing_plan_id":"cebpf4jnsgd1na2vs0mg"},{"bike_id":"2e713f5f-0d30-4049-b21c-bfce54a23bd5","system_id":"levelo_inurba_marseille","lat":43.2392,"lon":5.37546,"is_reserved":false,"is_disabled":true,"rental_uris":{"android":"levelo://app?vid=2e713f5f-0d30-4049-b21c-bfce54a23bd5","ios":"levelo://app?vid=2e713f5f-0d30-4049-b21c-bfce54a23bd5"},"vehicle_type_id":"4","last_reported":1784318205,"current_range_meters":33600,"station_id":"st_d6sm7csbq4hs73f8fpjg","pricing_plan_id":"cebpf4jnsgd1na2vs0mg"},{"bike_id":"c180bc57-12f5-435a-8219-0c0ef26aa8c0","system_id":"levelo_inurba_marseille","lat":43.22569,"lon":5.34863,"is_reserved":false,"is_disabled":false,"rental_uris":{"android":"levelo://app?vid=c180bc57-12f5-435a-8219-0c0ef26aa8c0","ios":"levelo://app?vid=c180bc57-12f5-435a-8219-0c0ef26aa8c0"},"vehicle_type_id":"4","last_reported":1784318205,"current_range_meters":38000,"station_id":"st_cvj5dfep6f1abm77gieg","pricing_plan_id":"cebpf4jnsgd1na2vs0mg"},{"bike_id":"32c95016-82d3-4943-8193-1a98c4bf18c7","system_id":"levelo_inurba_marseille","lat":43.28066,"lon":5.35656,"is_reserved":false,"is_disabled":false,"rental_uris":{"android":"levelo://app?vid=32c95016-82d3-4943-8193-1a98c4bf18c7","ios":"levelo://app?vid=32c95016-82d3-4943-8193-1a98c4bf18c7"},"vehicle_type_id":"4","last_reported":1784318205,"current_range_meters":11200,"station_id":"","pricing_plan_id":"cebpf4jnsgd1na2vs0mg"},{"bike_id":"1a305c6a-520f-4fbc-8ce8-a3f8e3bd6a3b","system_id":"levelo_inurba_marseille","lat":43.27951,"lon":5.38688,"is_reserved":false,"is_disabled":false,"rental_uris":{"android":"levelo://app?vid=1a305c6a-520f-4fbc-8ce8-a3f8e3bd6a3b","ios":"levelo://app?vid=1a305c6a-520f-4fbc-8ce8-a3f8e3bd6a3b"},"vehicle_type_id":"4","last_reported":1784318205,"current_range_meters":38000,"station_id":"ce4bhg12rcd13ifvqf80","pricing_plan_id":"cebpf4jnsgd1na2vs0mg"},{"bike_id":"b5f8f7df-bd88-489d-b8f1-c94412802885","system_id":"levelo_inurba_marseille","lat":43.27956,"lon":5.38736,"is_reserved":false,"is_disabled":false,"rental_uris":{"android":"levelo://app?vid=b5f8f7df-bd88-489d-b8f1-c94412802885","ios":"levelo://app?vid=b5f8f7df-bd88-489d-b8f1-c94412802885"},"vehicle_type_id":"4","last_reported":1784318205,"current_range_meters":36800,"station_id":"","pricing_plan_id":"cebpf4jnsgd1na2vs0mg"},{"bike_id":"ef6880d0-6944-4f6a-8f40-6662368b8f75","system_id":"levelo_inurba_marseille","lat":43.31456,"lon":5.45411,"is_reserved":false,"is_disabled":false,"rental_uris":{"android":"levelo://app?vid=ef6880d0-6944-4f6a-8f40-6662368b8f75","ios":"levelo://app?vid=ef6880d0-6944-4f6a-8f40-6662368b8f75"},"vehicle_type_id":"4","last_reported":1784318205,"current_range_meters":13600,"station_id":"","pricing_plan_id":"cebpf4jnsgd1na2vs0mg"},{"bike_id":"63d47bdf-c746-416d-b2e1-82e4e09fa9c9","system_id":"levelo_inurba_marseille","lat":43.25324,"lon":5.42158,"is_reserved":false,"is_disabled":false,"rental_uris":{"android":"levelo://app?vid=63d47bdf-c746-416d-b2e1-82e4e09fa9c9","ios":"levelo://app?vid=63d47bdf-c746-416d-b2e1-82e4e09fa9c9"},"vehicle_type_id":"4","last_reported":1784318205,"current_range_meters":26800,"station_id":"st_d2m65c5bi1j21697t3ng","pricing_plan_id":"cebpf4jnsgd1na2vs0mg"},{"bike_id":"ac73781c-7964-453a-82c7-5e417be13435","system_id":"levelo_inurba_marseille","lat":43.28613,"lon":5.37055,"is_reserved":false,"is_disabled":false,"rental_uris":{"android":"levelo://app?vid=ac73781c-7964-453a-82c7-5e417be13435","ios":"levelo://app?vid=ac73781c-7964-453a-82c7-5e417be13435"},"vehicle_type_id":"4","last_reported":1784318205,"current_range_meters":36800,"station_id":"ce4bht12rcd13ifvqi60","pricing_plan_id":"cebpf4jnsgd1na2vs0mg"},{"bike_id":"1bb6ca71-e860-4f81-9f81-c7c8d16344e6","system_id":"levelo_inurba_marseille","lat":43.29559,"lon":5.37521,"is_reserved":false,"is_disabled":false,"rental_uris":{"android":"levelo://app?vid=1bb6ca71-e860-4f81-9f81-c7c8d16344e6","ios":"levelo://app?vid=1bb6ca71-e860-4f81-9f81-c7c8d16344e6"},"vehicle_type_id":"4","last_reported":1784318205,"current_range_meters":32400,"station_id":"ce4bgh92rcd13ifvqb50","pricing_plan_id":"cebpf4jnsgd1na2vs0mg"},{"bike_id":"69aa3890-8355-4668-9d7c-2b996f0dde78","system_id":"levelo_inurba_marseille","lat":43.29762,"lon":5.42753,"is_reserved":false,"is_disabled":false,"rental_uris":{"android":"levelo://app?vid=69aa3890-8355-4668-9d7c-2b996f0dde78","ios":"levelo://app?vid=69aa3890-8355-4668-9d7c-2b996f0dde78"},"vehicle_type_id":"4","last_reported":1784318205,"current_range_meters":4400,"station_id":"st_d3md5207bmas73dh9klg","pricing_plan_id":"cebpf4jnsgd1na2vs0mg"},{"bike_id":"d183c213-4177-4bf2-b9e0-24872be8a9c8","system_id":"levelo_inurba_marseille","lat":43.28482,"lon":5.48441,"is_reserved":false,"is_disabled":false,"rental_uris":{"android":"levelo://app?vid=d183c213-4177-4bf2-b9e0-24872be8a9c8","ios":"levelo://app?vid=d183c213-4177-4bf2-b9e0-24872be8a9c8"},"vehicle_type_id":"4","last_reported":1784318205,"current_range_meters":19200,"station_id":"st_d3svhcjqgbts73a3dn0g","pricing_plan_id":"cebpf4jnsgd1na2vs0mg"},{"bike_id":"c4da000f-ebec-443b-b451-4eb3b1be53fb","system_id":"levelo_inurba_marseille","lat":43.29555,"lon":5.36761,"is_reserved":false,"is_disabled":false,"rental_uris":{"android":"levelo://app?vid=c4da000f-ebec-443b-b451-4eb3b1be53fb","ios":"levelo://app?vid=c4da000f-ebec-443b-b451-4eb3b1be53fb"},"vehicle_type_id":"4","last_reported":1784318205,"current_range_meters":24800,"station_id":"ce4bgph2rcd13ifvqc2g","pricing_plan_id":"cebpf4jnsgd1na2vs0mg"},{"bike_id":"1b452439-f48c-454e-9b8a-f26d91e3420d","system_id":"levelo_inurba_marseille","lat":43.29608,"lon":5.37717,"is_reserved":false,"is_disabled":false,"rental_uris":{"android":"levelo://app?vid=1b452439-f48c-454e-9b8a-f26d91e3420d","ios":"levelo://app?vid=1b452439-f48c-454e-9b8a-f26d91e3420d"},"vehicle_type_id":"4","last_reported":1784318205,"current_range_meters":35200,"station_id":"ce4bgi92rcd13ifvqb90","pricing_plan_id":"cebpf4jnsgd1na2vs0mg"},{"bike_id":"930a26e6-38b4-4fff-a16a-2d1b93308d5b","system_id":"levelo_inurba_marseille","lat":43.28687,"lon":5.3739,"is_reserved":false,"is_disabled":true,"rental_uris":{"android":"levelo://app?vid=930a26e6-38b4-4fff-a16a-2d1b93308d5b","ios":"levelo://app?vid=930a26e6-38b4-4fff-a16a-2d1b93308d5b"},"vehicle_type_id":"4","last_reported":1784318205,"current_range_meters":5600,"station_id":"ce4bh3p2rcd13ifvqdq0","pricing_plan_id":"cebpf4jnsgd1na2vs0mg"},{"bike_id":"b0a62f04-3f9f-4db5-9ee5-24977bca3a65","system_id":"levelo_inurba_marseille","lat":43.26187,"lon":5.37458,"is_reserved":false,"is_disabled":false,"rental_uris":{"android":"levelo://app?vid=b0a62f04-3f9f-4db5-9ee5-24977bca3a65","ios":"levelo://app?vid=b0a62f04-3f9f-4db5-9ee5-24977bca3a65"},"vehicle_type_id":"4","last_reported":1784318205,"current_range_meters":39200,"station_id":"ce4bhgp2rcd13ifvqfc0","pricing_plan_id":"cebpf4jnsgd1na2vs0mg"},{"bike_id":"645a056f-0b9a-4b39-a681-c48363062a4f","system_id":"levelo_inurba_marseille","lat":43.2417,"lon":5.36398,"is_reserved":false,"is_disabled":false,"rental_uris":{"android":"levelo://app?vid=645a056f-0b9a-4b39-a681-c48363062a4f","ios":"levelo://app?vid=645a056f-0b9a-4b39-a681-c48363062a4f"},"vehicle_type_id":"4","last_reported":1784318205,"current_range_meters":3200,"station_id":"cpo36qri1sfpv3e86is0","pricing_plan_id":"cebpf4jnsgd1na2vs0mg"},{"bike_id":"e0c7065e-7f74-4b06-ae7b-f933c635df87","system_id":"levelo_inurba_marseille","lat":43.29629,"lon":5.42434,"is_reserved":false,"is_disabled":false,"rental_uris":{"android":"levelo://app?vid=e0c7065e-7f74-4b06-ae7b-f933c635df87","ios":"levelo://app?vid=e0c7065e-7f74-4b06-ae7b-f933c635df87"},"vehicle_type_id":"4","last_reported":1784318205,"current_range_meters":40000,"station_id":"ce4bhph2rcd13ifvqhdg","pricing_plan_id":"cebpf4jnsgd1na2vs0mg"},{"bike_id":"3d9d15ce-5804-4209-b92a-723f598d0341","system_id":"levelo_inurba_marseille","lat":43.21193,"lon":5.35093,"is_reserved":false,"is_disabled":false,"rental_uris":{"android":"levelo://app?vid=3d9d15ce-5804-4209-b92a-723f598d0341","ios":"levelo://app?vid=3d9d15ce-5804-4209-b92a-723f598d0341"},"vehicle_type_id":"4","last_reported":1784318205,"current_range_meters":39200,"station_id":"st_cvj6sg6p6f1abm77japg","pricing_plan_id":"cebpf4jnsgd1na2vs0mg"},{"bike_id":"18eec3f9-f8e1-447f-ae4b-ea123b8f34ef","system_id":"levelo_inurba_marseille","lat":43.2952,"lon":5.38545,"is_reserved":false,"is_disabled":false,"rental_uris":{"android":"levelo://app?vid=18eec3f9-f8e1-447f-ae4b-ea123b8f34ef","ios":"levelo://app?vid=18eec3f9-f8e1-447f-ae4b-ea123b8f34ef"},"vehicle_type_id":"4","last_reported":1784318205,"current_range_meters":34000,"station_id":"ce4bgih2rcd13ifvqba0","pricing_plan_id":"cebpf4jnsgd1na2vs0mg"},{"bike_id":"700689bb-703b-455a-a751-9c1e7f35a526","system_id":"levelo_inurba_marseille","lat":43.31041,"lon":5.39385,"is_reserved":false,"is_disabled":false,"rental_uris":{"android":"levelo://app?vid=700689bb-703b-455a-a751-9c1e7f35a526","ios":"levelo://app?vid=700689bb-703b-455a-a751-9c1e7f35a526"},"vehicle_type_id":"4","last_reported":1784318205,"current_range_meters":12800,"station_id":"","pricing_plan_id":"cebpf4jnsgd1na2vs0mg"},{"bike_id":"e1bb6861-ee59-438c-aa2a-2a553b2d6f43","system_id":"levelo_inurba_marseille","lat":43.27186,"lon":5.41002,"is_reserved":false,"is_disabled":true,"rental_uris":{"android":"levelo://app?vid=e1bb6861-ee59-438c-aa2a-2a553b2d6f43","ios":"levelo://app?vid=e1bb6861-ee59-438c-aa2a-2a553b2d6f43"},"vehicle_type_id":"4","last_reported":1784318205,"current_range_meters":33200,"station_id":"ce4bhl12rcd13ifvqgf0","pricing_plan_id":"cebpf4jnsgd1na2vs0mg"},{"bike_id":"c2e7fe27-d2b0-440e-b62d-ead50feed951","system_id":"levelo_inurba_marseille","lat":43.29485,"lon":5.43308,"is_reserved":false,"is_disabled":false,"rental_uris":{"android":"levelo://app?vid=c2e7fe27-d2b0-440e-b62d-ead50feed951","ios":"levelo://app?vid=c2e7fe27-d2b0-440e-b62d-ead50feed951"},"vehicle_type_id":"4","last_reported":1784318205,"current_range_meters":10000,"station_id":"st_d3j5ugp08ojc73fj9d10","pricing_plan_id":"cebpf4jnsgd1na2vs0mg"},{"bike_id":"cd8636bf-4678-4336-a11c-b12b2f9a64d1","system_id":"levelo_inurba_marseille","lat":43.24467,"lon":5.42538,"is_reserved":false,"is_disabled":false,"rental_uris":{"android":"levelo://app?vid=cd8636bf-4678-4336-a11c-b12b2f9a64d1","ios":"levelo://app?vid=cd8636bf-4678-4336-a11c-b12b2f9a64d1"},"vehicle_type_id":"4","last_reported":1784318205,"current_range_meters":6400,"station_id":"st_d4a3vfp97mjs738cd8kg","pricing_plan_id":"cebpf4jnsgd1na2vs0mg"},{"bike_id":"2623e023-e953-40ac-8068-15d2169ca99d","system_id":"levelo_inurba_marseille","lat":43.2868,"lon":5.46683,"is_reserved":false,"is_disabled":false,"rental_uris":{"android":"levelo://app?vid=2623e023-e953-40ac-8068-15d2169ca99d","ios":"levelo://app?vid=2623e023-e953-40ac-8068-15d2169ca99d"},"vehicle_type_id":"4","last_reported":1784318205,"current_range_meters":4800,"station_id":"st_d6tc3vkotcvc738tfjhg","pricing_plan_id":"cebpf4jnsgd1na2vs0mg"},{"bike_id":"9d27f3aa-b353-4a7a-a0fa-132f296bb47c","system_id":"levelo_inurba_marseille","lat":43.21743,"lon":5.34604,"is_reserved":false,"is_disabled":false,"rental_uris":{"android":"levelo://app?vid=9d27f3aa-b353-4a7a-a0fa-132f296bb47c","ios":"levelo://app?vid=9d27f3aa-b353-4a7a-a0fa-132f296bb47c"},"vehicle_type_id":"4","last_reported":1784318205,"current_range_meters":8000,"station_id":"st_cvj6r9ubvosntc0bgbag","pricing_plan_id":"cebpf4jnsgd1na2vs0mg"},{"bike_id":"7379036c-1b08-40f2-b087-015291853c8a","system_id":"levelo_inurba_marseille","lat":43.29296,"lon":5.37177,"is_reserved":false,"is_disabled":false,"rental_uris":{"android":"levelo://app?vid=7379036c-1b08-40f2-b087-015291853c8a","ios":"levelo://app?vid=7379036c-1b08-40f2-b087-015291853c8a"},"vehicle_type_id":"4","last_reported":1784318205,"current_range_meters":39200,"station_id":"ce4bgh92rcd13ifvqb40","pricing_plan_id":"cebpf4jnsgd1na2vs0mg"},{"bike_id":"ed5d3be1-afa4-49fb-96d6-de47251b2394","system_id":"levelo_inurba_marseille","lat":43.2956,"lon":5.37471,"is_reserved":false,"is_disabled":false,"rental_uris":{"android":"levelo://app?vid=ed5d3be1-afa4-49fb-96d6-de47251b2394","ios":"levelo://app?vid=ed5d3be1-afa4-49fb-96d6-de47251b2394"},"vehicle_type_id":"4","last_reported":1784318205,"current_range_meters":28800,"station_id":"ce4bgh92rcd13ifvqb50","pricing_plan_id":"cebpf4jnsgd1na2vs0mg"},{"bike_id":"b866f934-72c7-420c-9403-123aef002cac","system_id":"levelo_inurba_marseille","lat":43.29271,"lon":5.36857,"is_reserved":false,"is_disabled":false,"rental_uris":{"android":"levelo://app?vid=b866f934-72c7-420c-9403-123aef002cac","ios":"levelo://app?vid=b866f934-72c7-420c-9403-123aef002cac"},"vehicle_type_id":"4","last_reported":1784318205,"current_range_meters":10800,"station_id":"","pricing_plan_id":"cebpf4jnsgd1na2vs0mg"},{"bike_id":"530d5b81-1545-4b49-8624-2c00cc3d9834","system_id":"levelo_inurba_marseille","lat":43.25333,"lon":5.42172,"is_reserved":false,"is_disabled":false,"rental_uris":{"android":"levelo://app?vid=530d5b81-1545-4b49-8624-2c00cc3d9834","ios":"levelo://app?vid=530d5b81-1545-4b49-8624-2c00cc3d9834"},"vehicle_type_id":"4","last_reported":1784318205,"current_range_meters":16000,"station_id":"st_d2m65c5bi1j21697t3ng","pricing_plan_id":"cebpf4jnsgd1na2vs0mg"},{"bike_id":"863d0357-9100-4091-8be6-61d932e4e898","system_id":"levelo_inurba_marseille","lat":43.33758,"lon":5.37456,"is_reserved":false,"is_disabled":false,"rental_uris":{"android":"levelo://app?vid=863d0357-9100-4091-8be6-61d932e4e898","ios":"levelo://app?vid=863d0357-9100-4091-8be6-61d932e4e898"},"vehicle_type_id":"4","last_reported":1784318205,"current_range_meters":38000,"station_id":"","pricing_plan_id":"cebpf4jnsgd1na2vs0mg"},{"bike_id":"603ee5d4-5fe7-430e-886f-5bb6a5eca98a","system_id":"levelo_inurba_marseille","lat":43.29741,"lon":5.3711,"is_reserved":false,"is_disabled":false,"rental_uris":{"android":"levelo://app?vid=603ee5d4-5fe7-430e-886f-5bb6a5eca98a","ios":"levelo://app?vid=603ee5d4-5fe7-430e-886f-5bb6a5eca98a"},"vehicle_type_id":"4","last_reported":1784318205,"current_range_meters":22800,"station_id":"ce4bgop2rcd13ifvqc1g","pricing_plan_id":"cebpf4jnsgd1na2vs0mg"},{"bike_id":"a0c75e24-431d-4ba3-ac78-cb6df858ae92","system_id":"levelo_inurba_marseille","lat":43.2953,"lon":5.39031,"is_reserved":false,"is_disabled":false,"rental_uris":{"android":"levelo://app?vid=a0c75e24-431d-4ba3-ac78-cb6df858ae92","ios":"levelo://app?vid=a0c75e24-431d-4ba3-ac78-cb6df858ae92"},"vehicle_type_id":"4","last_reported":1784318205,"current_range_meters":39200,"station_id":"ce4bh3p2rcd13ifvqdp0","pricing_plan_id":"cebpf4jnsgd1na2vs0mg"},{"bike_id":"0df42189-73d4-41a0-9d70-596fd6d775ee","system_id":"levelo_inurba_marseille","lat":43.28164,"lon":5.42634,"is_reserved":false,"is_disabled":false,"rental_uris":{"android":"levelo://app?vid=0df42189-73d4-41a0-9d70-596fd6d775ee","ios":"levelo://app?vid=0df42189-73d4-41a0-9d70-596fd6d775ee"},"vehicle_type_id":"4","last_reported":1784318205,"current_range_meters":30800,"station_id":"ce4bhnh2rcd13ifvqgug","pricing_plan_id":"cebpf4jnsgd1na2vs0mg"},{"bike_id":"88dc3799-e1da-4680-b68f-065f71e6c5d8","system_id":"levelo_inurba_marseille","lat":43.3136,"lon":5.38506,"is_reserved":false,"is_disabled":false,"rental_uris":{"android":"levelo://app?vid=88dc3799-e1da-4680-b68f-065f71e6c5d8","ios":"levelo://app?vid=88dc3799-e1da-4680-b68f-065f71e6c5d8"},"vehicle_type_id":"4","last_reported":1784318205,"current_range_meters":28400,"station_id":"ce4bgt92rcd13ifvqcf0","pricing_plan_id":"cebpf4jnsgd1na2vs0mg"},{"bike_id":"8ba7f2d6-52d3-4c56-b19a-19a142e62779","system_id":"levelo_inurba_marseille","lat":43.24063,"lon":5.37761,"is_reserved":false,"is_disabled":false,"rental_uris":{"android":"levelo://app?vid=8ba7f2d6-52d3-4c56-b19a-19a142e62779","ios":"levelo://app?vid=8ba7f2d6-52d3-4c56-b19a-19a142e62779"},"vehicle_type_id":"4","last_reported":1784318205,"current_range_meters":16000,"station_id":"ce4bhnp2rcd13ifvqgvg","pricing_plan_id":"cebpf4jnsgd1na2vs0mg"},{"bike_id":"c75d2116-d37c-46fc-8f96-5dce141de33c","system_id":"levelo_inurba_marseille","lat":43.26058,"lon":5.39402,"is_reserved":false,"is_disabled":false,"rental_uris":{"android":"levelo://app?vid=c75d2116-d37c-46fc-8f96-5dce141de33c","ios":"levelo://app?vid=c75d2116-d37c-46fc-8f96-5dce141de33c"},"vehicle_type_id":"4","last_reported":1784318205,"current_range_meters":28000,"station_id":"ce4bhh92rcd13ifvqfj0","pricing_plan_id":"cebpf4jnsgd1na2vs0mg"},{"bike_id":"66afdf81-3bfc-4f74-a2b5-978630e17649","system_id":"levelo_inurba_marseille","lat":43.27912,"lon":5.37249,"is_reserved":false,"is_disabled":false,"rental_uris":{"android":"levelo://app?vid=66afdf81-3bfc-4f74-a2b5-978630e17649","ios":"levelo://app?vid=66afdf81-3bfc-4f74-a2b5-978630e17649"},"vehicle_type_id":"4","last_reported":1784318205,"current_range_meters":30000,"station_id":"","pricing_plan_id":"cebpf4jnsgd1na2vs0mg"},{"bike_id":"05df0229-c51c-4a3e-8744-e2a78625ad7d","system_id":"levelo_inurba_marseille","lat":43.31592,"lon":5.38417,"is_reserved":false,"is_disabled":false,"rental_uris":{"android":"levelo://app?vid=05df0229-c51c-4a3e-8744-e2a78625ad7d","ios":"levelo://app?vid=05df0229-c51c-4a3e-8744-e2a78625ad7d"},"vehicle_type_id":"4","last_reported":1784318205,"current_range_meters":24400,"station_id":"","pricing_plan_id":"cebpf4jnsgd1na2vs0mg"},{"bike_id":"057eabc3-045c-4c0b-b636-03c158f4417b","system_id":"levelo_inurba_marseille","lat":43.27962,"lon":5.41051,"is_reserved":false,"is_disabled":false,"rental_uris":{"android":"levelo://app?vid=057eabc3-045c-4c0b-b636-03c158f4417b","ios":"levelo://app?vid=057eabc3-045c-4c0b-b636-03c158f4417b"},"vehicle_type_id":"4","last_reported":1784318205,"current_range_meters":36400,"station_id":"ce4bhnp2rcd13ifvqh0g","pricing_plan_id":"cebpf4jnsgd1na2vs0mg"},{"bike_id":"1600e049-bbde-4c21-986c-f584974ad3e9","system_id":"levelo_inurba_marseille","lat":43.29515,"lon":5.37512,"is_reserved":false,"is_disabled":false,"rental_uris":{"android":"levelo://app?vid=1600e049-bbde-4c21-986c-f584974ad3e9","ios":"levelo://app?vid=1600e049-bbde-4c21-986c-f584974ad3e9"},"vehicle_type_id":"4","last_reported":1784318205,"current_range_meters":28400,"station_id":"ce4bgkp2rcd13ifvqbmg","pricing_plan_id":"cebpf4jnsgd1na2vs0mg"},{"bike_id":"e9700518-bfab-4e19-9c8e-e3cb6414cf72","system_id":"levelo_inurba_marseille","lat":43.29175,"lon":5.35801,"is_reserved":false,"is_disabled":true,"rental_uris":{"android":"levelo://app?vid=e9700518-bfab-4e19-9c8e-e3cb6414cf72","ios":"levelo://app?vid=e9700518-bfab-4e19-9c8e-e3cb6414cf72"},"vehicle_type_id":"4","last_reported":1784318205,"current_range_meters":10800,"station_id":"ce4bhb12rcd13ifvqel0","pricing_plan_id":"cebpf4jnsgd1na2vs0mg"},{"bike_id":"6e2fa25e-c4e4-473c-b5d3-3e0f51dcc142","system_id":"levelo_inurba_marseille","lat":43.29776,"lon":5.38117,"is_reserved":false,"is_disabled":true,"rental_uris":{"android":"levelo://app?vid=6e2fa25e-c4e4-473c-b5d3-3e0f51dcc142","ios":"levelo://app?vid=6e2fa25e-c4e4-473c-b5d3-3e0f51dcc142"},"vehicle_type_id":"4","last_reported":1784318205,"current_range_meters":35200,"station_id":"ce4bgip2rcd13ifvqbb0","pricing_plan_id":"cebpf4jnsgd1na2vs0mg"},{"bike_id":"e8372de4-55c4-4403-a00b-3f3fecde3bdf","system_id":"levelo_inurba_marseille","lat":43.28606,"lon":5.35123,"is_reserved":false,"is_disabled":false,"rental_uris":{"android":"levelo://app?vid=e8372de4-55c4-4403-a00b-3f3fecde3bdf","ios":"levelo://app?vid=e8372de4-55c4-4403-a00b-3f3fecde3bdf"},"vehicle_type_id":"4","last_reported":1784318205,"current_range_meters":38400,"station_id":"ce4bhch2rcd13ifvqeug","pricing_plan_id":"cebpf4jnsgd1na2vs0mg"},{"bike_id":"40133888-0505-4ab7-bf98-89cc8c9f1fbd","system_id":"levelo_inurba_marseille","lat":43.31169,"lon":5.38125,"is_reserved":false,"is_disabled":false,"rental_uris":{"android":"levelo://app?vid=40133888-0505-4ab7-bf98-89cc8c9f1fbd","ios":"levelo://app?vid=40133888-0505-4ab7-bf98-89cc8c9f1fbd"},"vehicle_type_id":"4","last_reported":1784318205,"current_range_meters":16800,"station_id":"","pricing_plan_id":"cebpf4jnsgd1na2vs0mg"},{"bike_id":"28152a63-741b-4b04-9dc8-ada679e25c24","system_id":"levelo_inurba_marseille","lat":43.28849,"lon":5.35323,"is_reserved":false,"is_disabled":false,"rental_uris":{"android":"levelo://app?vid=28152a63-741b-4b04-9dc8-ada679e25c24","ios":"levelo://app?vid=28152a63-741b-4b04-9dc8-ada679e25c24"},"vehicle_type_id":"4","last_reported":1784318205,"current_range_meters":30800,"station_id":"","pricing_plan_id":"cebpf4jnsgd1na2vs0mg"},{"bike_id":"247d8d48-d657-4d28-b10e-508bad8cadab","system_id":"levelo_inurba_marseille","lat":43.29577,"lon":5.37519,"is_reserved":false,"is_disabled":false,"rental_uris":{"android":"levelo://app?vid=247d8d48-d657-4d28-b10e-508bad8cadab","ios":"levelo://app?vid=247d8d48-d657-4d28-b10e-508bad8cadab"},"vehicle_type_id":"4","last_reported":1784318205,"current_range_meters":39200,"station_id":"ce4bgh92rcd13ifvqb50","pricing_plan_id":"cebpf4jnsgd1na2vs0mg"},{"bike_id":"8c33414a-d486-4fd4-970a-a051fb482b24","system_id":"levelo_inurba_marseille","lat":43.24056,"lon":5.37738,"is_reserved":false,"is_disabled":false,"rental_uris":{"android":"levelo://app?vid=8c33414a-d486-4fd4-970a-a051fb482b24","ios":"levelo://app?vid=8c33414a-d486-4fd4-970a-a051fb482b24"},"vehicle_type_id":"4","last_reported":1784318205,"current_range_meters":38800,"station_id":"ce4bhnp2rcd13ifvqgvg","pricing_plan_id":"cebpf4jnsgd1na2vs0mg"},{"bike_id":"d59d4421-b983-4f4e-b15b-e9291a575740","system_id":"levelo_inurba_marseille","lat":43.29681,"lon":5.37292,"is_reserved":false,"is_disabled":false,"rental_uris":{"android":"levelo://app?vid=d59d4421-b983-4f4e-b15b-e9291a575740","ios":"levelo://app?vid=d59d4421-b983-4f4e-b15b-e9291a575740"},"vehicle_type_id":"4","last_reported":1784318205,"current_range_meters":9200,"station_id":"ce4bgk12rcd13ifvqbj0","pricing_plan_id":"cebpf4jnsgd1na2vs0mg"},{"bike_id":"4b47c4c7-30bd-4d8c-ab57-3c3a2722daa4","system_id":"levelo_inurba_marseille","lat":43.27948,"lon":5.4103,"is_reserved":false,"is_disabled":false,"rental_uris":{"android":"levelo://app?vid=4b47c4c7-30bd-4d8c-ab57-3c3a2722daa4","ios":"levelo://app?vid=4b47c4c7-30bd-4d8c-ab57-3c3a2722daa4"},"vehicle_type_id":"4","last_reported":1784318205,"current_range_meters":17600,"station_id":"ce4bhnp2rcd13ifvqh0g","pricing_plan_id":"cebpf4jnsgd1na2vs0mg"},{"bike_id":"81587832-75ed-49cd-91c3-f57f9b8cec45","system_id":"levelo_inurba_marseille","lat":43.29052,"lon":5.35907,"is_reserved":false,"is_disabled":true,"rental_uris":{"android":"levelo://app?vid=81587832-75ed-49cd-91c3-f57f9b8cec45","ios":"levelo://app?vid=81587832-75ed-49cd-91c3-f57f9b8cec45"},"vehicle_type_id":"4","last_reported":1784318205,"current_range_meters":9600,"station_id":"ce4bha92rcd13ifvqeg0","pricing_plan_id":"cebpf4jnsgd1na2vs0mg"},{"bike_id":"e190b88b-5a45-410c-b23e-0f93d7c608c2","system_id":"levelo_inurba_marseille","lat":43.29681,"lon":5.37295,"is_reserved":false,"is_disabled":false,"rental_uris":{"android":"levelo://app?vid=e190b88b-5a45-410c-b23e-0f93d7c608c2","ios":"levelo://app?vid=e190b88b-5a45-410c-b23e-0f93d7c608c2"},"vehicle_type_id":"4","last_reported":1784318205,"current_range_meters":24800,"station_id":"ce4bgk12rcd13ifvqbj0","pricing_plan_id":"cebpf4jnsgd1na2vs0mg"},{"bike_id":"d472fb73-0a0a-4fee-b27c-cb9cb7dc54af","system_id":"levelo_inurba_marseille","lat":43.24174,"lon":5.36392,"is_reserved":false,"is_disabled":false,"rental_uris":{"android":"levelo://app?vid=d472fb73-0a0a-4fee-b27c-cb9cb7dc54af","ios":"levelo://app?vid=d472fb73-0a0a-4fee-b27c-cb9cb7dc54af"},"vehicle_type_id":"4","last_reported":1784318205,"current_range_meters":16800,"station_id":"cpo36qri1sfpv3e86is0","pricing_plan_id":"cebpf4jnsgd1na2vs0mg"},{"bike_id":"c304ab36-58cf-4feb-b4d4-9c68693cae63","system_id":"levelo_inurba_marseille","lat":43.29006,"lon":5.35596,"is_reserved":false,"is_disabled":false,"rental_uris":{"android":"levelo://app?vid=c304ab36-58cf-4feb-b4d4-9c68693cae63","ios":"levelo://app?vid=c304ab36-58cf-4feb-b4d4-9c68693cae63"},"vehicle_type_id":"4","last_reported":1784318205,"current_range_meters":28000,"station_id":"ce4bhb92rcd13ifvqen0","pricing_plan_id":"cebpf4jnsgd1na2vs0mg"},{"bike_id":"257aed01-85b4-45a5-a75d-05fda36e24a0","system_id":"levelo_inurba_marseille","lat":43.24659,"lon":5.38162,"is_reserved":false,"is_disabled":false,"rental_uris":{"android":"levelo://app?vid=257aed01-85b4-45a5-a75d-05fda36e24a0","ios":"levelo://app?vid=257aed01-85b4-45a5-a75d-05fda36e24a0"},"vehicle_type_id":"4","last_reported":1784318205,"current_range_meters":8800,"station_id":"ce4bhih2rcd13ifvqfr0","pricing_plan_id":"cebpf4jnsgd1na2vs0mg"},{"bike_id":"7c36a1bd-8996-4f6c-bece-20aeeccdebc4","system_id":"levelo_inurba_marseille","lat":43.30514,"lon":5.36524,"is_reserved":false,"is_disabled":false,"rental_uris":{"android":"levelo://app?vid=7c36a1bd-8996-4f6c-bece-20aeeccdebc4","ios":"levelo://app?vid=7c36a1bd-8996-4f6c-bece-20aeeccdebc4"},"vehicle_type_id":"4","last_reported":1784318205,"current_range_meters":28400,"station_id":"","pricing_plan_id":"cebpf4jnsgd1na2vs0mg"},{"bike_id":"5dc61c06-bebd-4da3-baac-3c58ca456e4c","system_id":"levelo_inurba_marseille","lat":43.25726,"lon":5.41104,"is_reserved":false,"is_disabled":false,"rental_uris":{"android":"levelo://app?vid=5dc61c06-bebd-4da3-baac-3c58ca456e4c","ios":"levelo://app?vid=5dc61c06-bebd-4da3-baac-3c58ca456e4c"},"vehicle_type_id":"4","last_reported":1784318205,"current_range_meters":14000,"station_id":"ce4bhkp2rcd13ifvqgd0","pricing_plan_id":"cebpf4jnsgd1na2vs0mg"},{"bike_id":"e363b584-92a2-4c61-adfd-371a2577000d","system_id":"levelo_inurba_marseille","lat":43.2989,"lon":5.43677,"is_reserved":false,"is_disabled":false,"rental_uris":{"android":"levelo://app?vid=e363b584-92a2-4c61-adfd-371a2577000d","ios":"levelo://app?vid=e363b584-92a2-4c61-adfd-371a2577000d"},"vehicle_type_id":"4","last_reported":1784318205,"current_range_meters":38400,"station_id":"ce4bhpp2rcd13ifvqhfg","pricing_plan_id":"cebpf4jnsgd1na2vs0mg"},{"bike_id":"06c8057b-fe44-4576-9188-4ed641cdff79","system_id":"levelo_inurba_marseille","lat":43.24679,"lon":5.38166,"is_reserved":false,"is_disabled":false,"rental_uris":{"android":"levelo://app?vid=06c8057b-fe44-4576-9188-4ed641cdff79","ios":"levelo://app?vid=06c8057b-fe44-4576-9188-4ed641cdff79"},"vehicle_type_id":"4","last_reported":1784318205,"current_range_meters":29600,"station_id":"ce4bhih2rcd13ifvqfr0","pricing_plan_id":"cebpf4jnsgd1na2vs0mg"},{"bike_id":"ab001a83-3eb9-418a-b773-feb9dc37cd89","system_id":"levelo_inurba_marseille","lat":43.29184,"lon":5.35791,"is_reserved":false,"is_disabled":false,"rental_uris":{"android":"levelo://app?vid=ab001a83-3eb9-418a-b773-feb9dc37cd89","ios":"levelo://app?vid=ab001a83-3eb9-418a-b773-feb9dc37cd89"},"vehicle_type_id":"4","last_reported":1784318205,"current_range_meters":30400,"station_id":"ce4bhb12rcd13ifvqel0","pricing_plan_id":"cebpf4jnsgd1na2vs0mg"},{"bike_id":"2a51f3a7-c611-4371-8d5a-810aff48c413","system_id":"levelo_inurba_marseille","lat":43.2926,"lon":5.38446,"is_reserved":false,"is_disabled":false,"rental_uris":{"android":"levelo://app?vid=2a51f3a7-c611-4371-8d5a-810aff48c413","ios":"levelo://app?vid=2a51f3a7-c611-4371-8d5a-810aff48c413"},"vehicle_type_id":"4","last_reported":1784318205,"current_range_meters":39200,"station_id":"ce4bh692rcd13ifvqea0","pricing_plan_id":"cebpf4jnsgd1na2vs0mg"},{"bike_id":"d1d34929-e68a-4bf0-8155-973aec9fb7e0","system_id":"levelo_inurba_marseille","lat":43.31358,"lon":5.38496,"is_reserved":false,"is_disabled":false,"rental_uris":{"android":"levelo://app?vid=d1d34929-e68a-4bf0-8155-973aec9fb7e0","ios":"levelo://app?vid=d1d34929-e68a-4bf0-8155-973aec9fb7e0"},"vehicle_type_id":"4","last_reported":1784318205,"current_range_meters":19200,"station_id":"ce4bgt92rcd13ifvqcf0","pricing_plan_id":"cebpf4jnsgd1na2vs0mg"},{"bike_id":"7ff8118f-6c81-4cdf-8a1d-4753d954065d","system_id":"levelo_inurba_marseille","lat":43.29599,"lon":5.37987,"is_reserved":false,"is_disabled":false,"rental_uris":{"android":"levelo://app?vid=7ff8118f-6c81-4cdf-8a1d-4753d954065d","ios":"levelo://app?vid=7ff8118f-6c81-4cdf-8a1d-4753d954065d"},"vehicle_type_id":"4","last_reported":1784318205,"current_range_meters":9200,"station_id":"","pricing_plan_id":"cebpf4jnsgd1na2vs0mg"},{"bike_id":"982b17fa-0bd7-4260-a0c8-0ded7a1d881a","system_id":"levelo_inurba_marseille","lat":43.29775,"lon":5.3709,"is_reserved":false,"is_disabled":false,"rental_uris":{"android":"levelo://app?vid=982b17fa-0bd7-4260-a0c8-0ded7a1d881a","ios":"levelo://app?vid=982b17fa-0bd7-4260-a0c8-0ded7a1d881a"},"vehicle_type_id":"4","last_reported":1784318205,"current_range_meters":9200,"station_id":"ce4bgop2rcd13ifvqc1g","pricing_plan_id":"cebpf4jnsgd1na2vs0mg"},{"bike_id":"0efa47ee-d0bf-416e-82f3-4055cb3fadd2","system_id":"levelo_inurba_marseille","lat":43.24801,"lon":5.37455,"is_reserved":false,"is_disabled":false,"rental_uris":{"android":"levelo://app?vid=0efa47ee-d0bf-416e-82f3-4055cb3fadd2","ios":"levelo://app?vid=0efa47ee-d0bf-416e-82f3-4055cb3fadd2"},"vehicle_type_id":"4","last_reported":1784318205,"current_range_meters":6400,"station_id":"ce4bhgh2rcd13ifvqfb0","pricing_plan_id":"cebpf4jnsgd1na2vs0mg"},{"bike_id":"d16faeb6-c99d-41ca-bc1a-e9e9fe2b78e6","system_id":"levelo_inurba_marseille","lat":43.29005,"lon":5.3561,"is_reserved":false,"is_disabled":false,"rental_uris":{"android":"levelo://app?vid=d16faeb6-c99d-41ca-bc1a-e9e9fe2b78e6","ios":"levelo://app?vid=d16faeb6-c99d-41ca-bc1a-e9e9fe2b78e6"},"vehicle_type_id":"4","last_reported":1784318205,"current_range_meters":3600,"station_id":"ce4bhb92rcd13ifvqen0","pricing_plan_id":"cebpf4jnsgd1na2vs0mg"},{"bike_id":"25a94663-ca29-4aea-b736-903685dbeed5","system_id":"levelo_inurba_marseille","lat":43.23959,"lon":5.36631,"is_reserved":false,"is_disabled":true,"rental_uris":{"android":"levelo://app?vid=25a94663-ca29-4aea-b736-903685dbeed5","ios":"levelo://app?vid=25a94663-ca29-4aea-b736-903685dbeed5"},"vehicle_type_id":"4","last_reported":1784318205,"current_range_meters":39200,"station_id":"ce4bhi12rcd13ifvqfp0","pricing_plan_id":"cebpf4jnsgd1na2vs0mg"},{"bike_id":"33c96332-c4be-4d84-a2e8-9ad162dcde7e","system_id":"levelo_inurba_marseille","lat":43.29686,"lon":5.37301,"is_reserved":false,"is_disabled":false,"rental_uris":{"android":"levelo://app?vid=33c96332-c4be-4d84-a2e8-9ad162dcde7e","ios":"levelo://app?vid=33c96332-c4be-4d84-a2e8-9ad162dcde7e"},"vehicle_type_id":"4","last_reported":1784318205,"current_range_meters":14400,"station_id":"ce4bgk12rcd13ifvqbj0","pricing_plan_id":"cebpf4jnsgd1na2vs0mg"},{"bike_id":"e3c06a25-063b-42ea-a6ac-ab70983824b8","system_id":"levelo_inurba_marseille","lat":43.29687,"lon":5.37298,"is_reserved":false,"is_disabled":false,"rental_uris":{"android":"levelo://app?vid=e3c06a25-063b-42ea-a6ac-ab70983824b8","ios":"levelo://app?vid=e3c06a25-063b-42ea-a6ac-ab70983824b8"},"vehicle_type_id":"4","last_reported":1784318205,"current_range_meters":36800,"station_id":"ce4bgk12rcd13ifvqbj0","pricing_plan_id":"cebpf4jnsgd1na2vs0mg"},{"bike_id":"1de5753c-f77d-4a34-b134-58bee8bc010c","system_id":"levelo_inurba_marseille","lat":43.2657,"lon":5.37293,"is_reserved":false,"is_disabled":true,"rental_uris":{"android":"levelo://app?vid=1de5753c-f77d-4a34-b134-58bee8bc010c","ios":"levelo://app?vid=1de5753c-f77d-4a34-b134-58bee8bc010c"},"vehicle_type_id":"4","last_reported":1784318205,"current_range_meters":24000,"station_id":"ce4bhg12rcd13ifvqf70","pricing_plan_id":"cebpf4jnsgd1na2vs0mg"},{"bike_id":"a5d975d5-3ed4-4390-8eb7-b4643b82d507","system_id":"levelo_inurba_marseille","lat":43.3148,"lon":5.37294,"is_reserved":false,"is_disabled":false,"rental_uris":{"android":"levelo://app?vid=a5d975d5-3ed4-4390-8eb7-b4643b82d507","ios":"levelo://app?vid=a5d975d5-3ed4-4390-8eb7-b4643b82d507"},"vehicle_type_id":"4","last_reported":1784318205,"current_range_meters":38400,"station_id":"ce4bgt12rcd13ifvqcd0","pricing_plan_id":"cebpf4jnsgd1na2vs0mg"},{"bike_id":"3139a56e-a280-4b2d-8b60-4faf0f0415e5","system_id":"levelo_inurba_marseille","lat":43.29636,"lon":5.37705,"is_reserved":false,"is_disabled":false,"rental_uris":{"android":"levelo://app?vid=3139a56e-a280-4b2d-8b60-4faf0f0415e5","ios":"levelo://app?vid=3139a56e-a280-4b2d-8b60-4faf0f0415e5"},"vehicle_type_id":"4","last_reported":1784318205,"current_range_meters":6800,"station_id":"ce4bgi92rcd13ifvqb90","pricing_plan_id":"cebpf4jnsgd1na2vs0mg"},{"bike_id":"8be2e633-a03f-4b78-840c-060869635527","system_id":"levelo_inurba_marseille","lat":43.28591,"lon":5.35115,"is_reserved":false,"is_disabled":false,"rental_uris":{"android":"levelo://app?vid=8be2e633-a03f-4b78-840c-060869635527","ios":"levelo://app?vid=8be2e633-a03f-4b78-840c-060869635527"},"vehicle_type_id":"4","last_reported":1784318205,"current_range_meters":28800,"station_id":"ce4bhch2rcd13ifvqeug","pricing_plan_id":"cebpf4jnsgd1na2vs0mg"},{"bike_id":"70b4266b-6f2a-4bb7-934f-a2a2bf37b44f","system_id":"levelo_inurba_marseille","lat":43.25126,"lon":5.40332,"is_reserved":false,"is_disabled":true,"rental_uris":{"android":"levelo://app?vid=70b4266b-6f2a-4bb7-934f-a2a2bf37b44f","ios":"levelo://app?vid=70b4266b-6f2a-4bb7-934f-a2a2bf37b44f"},"vehicle_type_id":"4","last_reported":1784318205,"current_range_meters":39200,"station_id":"ce4bhlh2rcd13ifvqgig","pricing_plan_id":"cebpf4jnsgd1na2vs0mg"},{"bike_id":"6f1b1d46-595b-478d-a07a-3d9589da78d8","system_id":"levelo_inurba_marseille","lat":43.28613,"lon":5.35121,"is_reserved":false,"is_disabled":false,"rental_uris":{"android":"levelo://app?vid=6f1b1d46-595b-478d-a07a-3d9589da78d8","ios":"levelo://app?vid=6f1b1d46-595b-478d-a07a-3d9589da78d8"},"vehicle_type_id":"4","last_reported":1784318205,"current_range_meters":39200,"station_id":"ce4bhch2rcd13ifvqeug","pricing_plan_id":"cebpf4jnsgd1na2vs0mg"},{"bike_id":"1fe3a4fd-be47-4f48-94b2-b19bebc1b7fb","system_id":"levelo_inurba_marseille","lat":43.29575,"lon":5.3746,"is_reserved":false,"is_disabled":false,"rental_uris":{"android":"levelo://app?vid=1fe3a4fd-be47-4f48-94b2-b19bebc1b7fb","ios":"levelo://app?vid=1fe3a4fd-be47-4f48-94b2-b19bebc1b7fb"},"vehicle_type_id":"4","last_reported":1784318205,"current_range_meters":28800,"station_id":"ce4bgh92rcd13ifvqb50","pricing_plan_id":"cebpf4jnsgd1na2vs0mg"},{"bike_id":"e40578c0-4602-46e0-9e7c-eae05af3da61","system_id":"levelo_inurba_marseille","lat":43.30955,"lon":5.39038,"is_reserved":false,"is_disabled":false,"rental_uris":{"android":"levelo://app?vid=e40578c0-4602-46e0-9e7c-eae05af3da61","ios":"levelo://app?vid=e40578c0-4602-46e0-9e7c-eae05af3da61"},"vehicle_type_id":"4","last_reported":1784318205,"current_range_meters":14800,"station_id":"ce4bgup2rcd13ifvqco0","pricing_plan_id":"cebpf4jnsgd1na2vs0mg"},{"bike_id":"303ae646-cd5e-48d0-9044-1b73844a7f5b","system_id":"levelo_inurba_marseille","lat":43.30181,"lon":5.36642,"is_reserved":false,"is_disabled":false,"rental_uris":{"android":"levelo://app?vid=303ae646-cd5e-48d0-9044-1b73844a7f5b","ios":"levelo://app?vid=303ae646-cd5e-48d0-9044-1b73844a7f5b"},"vehicle_type_id":"4","last_reported":1784318205,"current_range_meters":31200,"station_id":"ce4bgrh2rcd13ifvqc8g","pricing_plan_id":"cebpf4jnsgd1na2vs0mg"},{"bike_id":"0f6ff1da-c9e3-42e7-a8d3-8280d1c0addc","system_id":"levelo_inurba_marseille","lat":43.3374,"lon":5.37464,"is_reserved":false,"is_disabled":false,"rental_uris":{"android":"levelo://app?vid=0f6ff1da-c9e3-42e7-a8d3-8280d1c0addc","ios":"levelo://app?vid=0f6ff1da-c9e3-42e7-a8d3-8280d1c0addc"},"vehicle_type_id":"4","last_reported":1784318205,"current_range_meters":32400,"station_id":"","pricing_plan_id":"cebpf4jnsgd1na2vs0mg"},{"bike_id":"1e628dec-3141-48e0-b510-1c285ab03f4c","system_id":"levelo_inurba_marseille","lat":43.26394,"lon":5.41052,"is_reserved":false,"is_disabled":true,"rental_uris":{"android":"levelo://app?vid=1e628dec-3141-48e0-b510-1c285ab03f4c","ios":"levelo://app?vid=1e628dec-3141-48e0-b510-1c285ab03f4c"},"vehicle_type_id":"4","last_reported":1784318205,"current_range_meters":39200,"station_id":"st_d4e5ca6na9uc73bfl5fg","pricing_plan_id":"cebpf4jnsgd1na2vs0mg"},{"bike_id":"8337f5b4-2806-4bc0-9f71-af183adb5db8","system_id":"levelo_inurba_marseille","lat":43.23812,"lon":5.43504,"is_reserved":false,"is_disabled":false,"rental_uris":{"android":"levelo://app?vid=8337f5b4-2806-4bc0-9f71-af183adb5db8","ios":"levelo://app?vid=8337f5b4-2806-4bc0-9f71-af183adb5db8"},"vehicle_type_id":"4","last_reported":1784318205,"current_range_meters":10800,"station_id":"","pricing_plan_id":"cebpf4jnsgd1na2vs0mg"},{"bike_id":"ea71c8d1-30cf-4c2b-bf0b-50f0a387ffd1","system_id":"levelo_inurba_marseille","lat":43.29535,"lon":5.38547,"is_reserved":false,"is_disabled":false,"rental_uris":{"android":"levelo://app?vid=ea71c8d1-30cf-4c2b-bf0b-50f0a387ffd1","ios":"levelo://app?vid=ea71c8d1-30cf-4c2b-bf0b-50f0a387ffd1"},"vehicle_type_id":"4","last_reported":1784318205,"current_range_meters":27200,"station_id":"ce4bgih2rcd13ifvqba0","pricing_plan_id":"cebpf4jnsgd1na2vs0mg"},{"bike_id":"2cc4581e-b277-447b-bd23-83ef602da365","system_id":"levelo_inurba_marseille","lat":43.29757,"lon":5.37054,"is_reserved":false,"is_disabled":false,"rental_uris":{"android":"levelo://app?vid=2cc4581e-b277-447b-bd23-83ef602da365","ios":"levelo://app?vid=2cc4581e-b277-447b-bd23-83ef602da365"},"vehicle_type_id":"4","last_reported":1784318205,"current_range_meters":38000,"station_id":"ce4bgop2rcd13ifvqc1g","pricing_plan_id":"cebpf4jnsgd1na2vs0mg"},{"bike_id":"7e1ec820-0ac2-4238-8cf1-ec7dbfdba514","system_id":"levelo_inurba_marseille","lat":43.28583,"lon":5.39465,"is_reserved":false,"is_disabled":false,"rental_uris":{"android":"levelo://app?vid=7e1ec820-0ac2-4238-8cf1-ec7dbfdba514","ios":"levelo://app?vid=7e1ec820-0ac2-4238-8cf1-ec7dbfdba514"},"vehicle_type_id":"4","last_reported":1784318205,"current_range_meters":37600,"station_id":"ce4bh292rcd13ifvqdg0","pricing_plan_id":"cebpf4jnsgd1na2vs0mg"},{"bike_id":"832a74fa-6640-4f4e-a94c-86b76477eb6c","system_id":"levelo_inurba_marseille","lat":43.29267,"lon":5.36842,"is_reserved":false,"is_disabled":false,"rental_uris":{"android":"levelo://app?vid=832a74fa-6640-4f4e-a94c-86b76477eb6c","ios":"levelo://app?vid=832a74fa-6640-4f4e-a94c-86b76477eb6c"},"vehicle_type_id":"4","last_reported":1784318205,"current_range_meters":15200,"station_id":"","pricing_plan_id":"cebpf4jnsgd1na2vs0mg"},{"bike_id":"e1a284f9-5e4e-407c-a907-36602c41246a","system_id":"levelo_inurba_marseille","lat":43.24163,"lon":5.39728,"is_reserved":false,"is_disabled":false,"rental_uris":{"android":"levelo://app?vid=e1a284f9-5e4e-407c-a907-36602c41246a","ios":"levelo://app?vid=e1a284f9-5e4e-407c-a907-36602c41246a"},"vehicle_type_id":"4","last_reported":1784318205,"current_range_meters":39200,"station_id":"ce4bhn12rcd13ifvqgpg","pricing_plan_id":"cebpf4jnsgd1na2vs0mg"},{"bike_id":"57861aa2-3770-4cb0-9ca6-87fa36583c4f","system_id":"levelo_inurba_marseille","lat":43.31378,"lon":5.38488,"is_reserved":false,"is_disabled":false,"rental_uris":{"android":"levelo://app?vid=57861aa2-3770-4cb0-9ca6-87fa36583c4f","ios":"levelo://app?vid=57861aa2-3770-4cb0-9ca6-87fa36583c4f"},"vehicle_type_id":"4","last_reported":1784318205,"current_range_meters":39200,"station_id":"ce4bgt92rcd13ifvqcf0","pricing_plan_id":"cebpf4jnsgd1na2vs0mg"},{"bike_id":"6eeebffa-a103-4bd0-938a-8e8411918217","system_id":"levelo_inurba_marseille","lat":43.28609,"lon":5.35082,"is_reserved":false,"is_disabled":false,"rental_uris":{"android":"levelo://app?vid=6eeebffa-a103-4bd0-938a-8e8411918217","ios":"levelo://app?vid=6eeebffa-a103-4bd0-938a-8e8411918217"},"vehicle_type_id":"4","last_reported":1784318205,"current_range_meters":17200,"station_id":"ce4bhch2rcd13ifvqeug","pricing_plan_id":"cebpf4jnsgd1na2vs0mg"},{"bike_id":"f56bd1c7-e825-466c-8ff0-81007a7cb04c","system_id":"levelo_inurba_marseille","lat":43.29709,"lon":5.36601,"is_reserved":false,"is_disabled":false,"rental_uris":{"android":"levelo://app?vid=f56bd1c7-e825-466c-8ff0-81007a7cb04c","ios":"levelo://app?vid=f56bd1c7-e825-466c-8ff0-81007a7cb04c"},"vehicle_type_id":"4","last_reported":1784318205,"current_range_meters":9600,"station_id":"","pricing_plan_id":"cebpf4jnsgd1na2vs0mg"},{"bike_id":"1a53f233-c2af-43ee-8d32-b4cc4ca4ccb6","system_id":"levelo_inurba_marseille","lat":43.28605,"lon":5.35098,"is_reserved":false,"is_disabled":false,"rental_uris":{"android":"levelo://app?vid=1a53f233-c2af-43ee-8d32-b4cc4ca4ccb6","ios":"levelo://app?vid=1a53f233-c2af-43ee-8d32-b4cc4ca4ccb6"},"vehicle_type_id":"4","last_reported":1784318205,"current_range_meters":26800,"station_id":"ce4bhch2rcd13ifvqeug","pricing_plan_id":"cebpf4jnsgd1na2vs0mg"},{"bike_id":"942148f9-90f2-4171-8f05-98ba0ca85bcb","system_id":"levelo_inurba_marseille","lat":43.28473,"lon":5.48405,"is_reserved":false,"is_disabled":true,"rental_uris":{"android":"levelo://app?vid=942148f9-90f2-4171-8f05-98ba0ca85bcb","ios":"levelo://app?vid=942148f9-90f2-4171-8f05-98ba0ca85bcb"},"vehicle_type_id":"4","last_reported":1784318205,"current_range_meters":8400,"station_id":"st_d3svhcjqgbts73a3dn0g","pricing_plan_id":"cebpf4jnsgd1na2vs0mg"},{"bike_id":"fb2fd340-4653-467f-8051-d34d4f3fd73e","system_id":"levelo_inurba_marseille","lat":43.26552,"lon":5.37279,"is_reserved":false,"is_disabled":false,"rental_uris":{"android":"levelo://app?vid=fb2fd340-4653-467f-8051-d34d4f3fd73e","ios":"levelo://app?vid=fb2fd340-4653-467f-8051-d34d4f3fd73e"},"vehicle_type_id":"4","last_reported":1784318205,"current_range_meters":30800,"station_id":"ce4bhg12rcd13ifvqf70","pricing_plan_id":"cebpf4jnsgd1na2vs0mg"},{"bike_id":"b2b194ed-86a5-4dc8-b828-5b80e1681197","system_id":"levelo_inurba_marseille","lat":43.28557,"lon":5.44174,"is_reserved":false,"is_disabled":false,"rental_uris":{"android":"levelo://app?vid=b2b194ed-86a5-4dc8-b828-5b80e1681197","ios":"levelo://app?vid=b2b194ed-86a5-4dc8-b828-5b80e1681197"},"vehicle_type_id":"4","last_reported":1784318205,"current_range_meters":39200,"station_id":"st_d3j3df2ikq2c7380ej80","pricing_plan_id":"cebpf4jnsgd1na2vs0mg"},{"bike_id":"99ec0fcf-34d0-4e40-a895-e3e944a3e6fb","system_id":"levelo_inurba_marseille","lat":43.29761,"lon":5.37065,"is_reserved":false,"is_disabled":false,"rental_uris":{"android":"levelo://app?vid=99ec0fcf-34d0-4e40-a895-e3e944a3e6fb","ios":"levelo://app?vid=99ec0fcf-34d0-4e40-a895-e3e944a3e6fb"},"vehicle_type_id":"4","last_reported":1784318205,"current_range_meters":9600,"station_id":"ce4bgop2rcd13ifvqc1g","pricing_plan_id":"cebpf4jnsgd1na2vs0mg"},{"bike_id":"2a93def1-9840-4751-b465-b53bb0ce6123","system_id":"levelo_inurba_marseille","lat":43.22559,"lon":5.41652,"is_reserved":false,"is_disabled":false,"rental_uris":{"android":"levelo://app?vid=2a93def1-9840-4751-b465-b53bb0ce6123","ios":"levelo://app?vid=2a93def1-9840-4751-b465-b53bb0ce6123"},"vehicle_type_id":"4","last_reported":1784318205,"current_range_meters":15200,"station_id":"st_d2o4gvlbi1j2169b742g","pricing_plan_id":"cebpf4jnsgd1na2vs0mg"},{"bike_id":"8d156d0a-5f86-40da-b89d-c44e51c746a9","system_id":"levelo_inurba_marseille","lat":43.30533,"lon":5.3657,"is_reserved":false,"is_disabled":false,"rental_uris":{"android":"levelo://app?vid=8d156d0a-5f86-40da-b89d-c44e51c746a9","ios":"levelo://app?vid=8d156d0a-5f86-40da-b89d-c44e51c746a9"},"vehicle_type_id":"4","last_reported":1784318205,"current_range_meters":14800,"station_id":"ce4bgs12rcd13ifvqcag","pricing_plan_id":"cebpf4jnsgd1na2vs0mg"},{"bike_id":"d2b08bfe-8d05-4397-91e9-fe938a2b845f","system_id":"levelo_inurba_marseille","lat":43.27494,"lon":5.42453,"is_reserved":false,"is_disabled":false,"rental_uris":{"android":"levelo://app?vid=d2b08bfe-8d05-4397-91e9-fe938a2b845f","ios":"levelo://app?vid=d2b08bfe-8d05-4397-91e9-fe938a2b845f"},"vehicle_type_id":"4","last_reported":1784318205,"current_range_meters":34000,"station_id":"ce4bhn92rcd13ifvqgrg","pricing_plan_id":"cebpf4jnsgd1na2vs0mg"},{"bike_id":"74c16eef-2e1f-4fb1-be3b-647d5e4babae","system_id":"levelo_inurba_marseille","lat":43.29572,"lon":5.37506,"is_reserved":false,"is_disabled":false,"rental_uris":{"android":"levelo://app?vid=74c16eef-2e1f-4fb1-be3b-647d5e4babae","ios":"levelo://app?vid=74c16eef-2e1f-4fb1-be3b-647d5e4babae"},"vehicle_type_id":"4","last_reported":1784318205,"current_range_meters":25200,"station_id":"ce4bgh92rcd13ifvqb50","pricing_plan_id":"cebpf4jnsgd1na2vs0mg"},{"bike_id":"8da7e2dd-be7d-48ea-9690-fd5135a8f76b","system_id":"levelo_inurba_marseille","lat":43.29195,"lon":5.3581,"is_reserved":false,"is_disabled":false,"rental_uris":{"android":"levelo://app?vid=8da7e2dd-be7d-48ea-9690-fd5135a8f76b","ios":"levelo://app?vid=8da7e2dd-be7d-48ea-9690-fd5135a8f76b"},"vehicle_type_id":"4","last_reported":1784318205,"current_range_meters":6400,"station_id":"ce4bhb12rcd13ifvqel0","pricing_plan_id":"cebpf4jnsgd1na2vs0mg"},{"bike_id":"e97d923d-d560-461e-94e7-6b746b3d8d92","system_id":"levelo_inurba_marseille","lat":43.32112,"lon":5.36777,"is_reserved":false,"is_disabled":false,"rental_uris":{"android":"levelo://app?vid=e97d923d-d560-461e-94e7-6b746b3d8d92","ios":"levelo://app?vid=e97d923d-d560-461e-94e7-6b746b3d8d92"},"vehicle_type_id":"4","last_reported":1784318205,"current_range_meters":28400,"station_id":"ce4bhrh2rcd13ifvqhug","pricing_plan_id":"cebpf4jnsgd1na2vs0mg"},{"bike_id":"467988ca-fbee-470b-ab84-ebfe11bb3e24","system_id":"levelo_inurba_marseille","lat":43.2621,"lon":5.37445,"is_reserved":false,"is_disabled":false,"rental_uris":{"android":"levelo://app?vid=467988ca-fbee-470b-ab84-ebfe11bb3e24","ios":"levelo://app?vid=467988ca-fbee-470b-ab84-ebfe11bb3e24"},"vehicle_type_id":"4","last_reported":1784318205,"current_range_meters":16400,"station_id":"ce4bhgp2rcd13ifvqfc0","pricing_plan_id":"cebpf4jnsgd1na2vs0mg"},{"bike_id":"565c01a9-5b48-4b15-9336-679d19f212f5","system_id":"levelo_inurba_marseille","lat":43.26213,"lon":5.38764,"is_reserved":false,"is_disabled":false,"rental_uris":{"android":"levelo://app?vid=565c01a9-5b48-4b15-9336-679d19f212f5","ios":"levelo://app?vid=565c01a9-5b48-4b15-9336-679d19f212f5"},"vehicle_type_id":"4","last_reported":1784318205,"current_range_meters":37600,"station_id":"st_d8gjfg747rts73coq3b0","pricing_plan_id":"cebpf4jnsgd1na2vs0mg"},{"bike_id":"48837646-8c52-45de-9e76-9ec9cdd47775","system_id":"levelo_inurba_marseille","lat":43.28773,"lon":5.38545,"is_reserved":false,"is_disabled":false,"rental_uris":{"android":"levelo://app?vid=48837646-8c52-45de-9e76-9ec9cdd47775","ios":"levelo://app?vid=48837646-8c52-45de-9e76-9ec9cdd47775"},"vehicle_type_id":"4","last_reported":1784318205,"current_range_meters":13600,"station_id":"","pricing_plan_id":"cebpf4jnsgd1na2vs0mg"},{"bike_id":"df5237e6-cd62-4014-ae7f-79eb317e6644","system_id":"levelo_inurba_marseille","lat":43.27624,"lon":5.36113,"is_reserved":false,"is_disabled":false,"rental_uris":{"android":"levelo://app?vid=df5237e6-cd62-4014-ae7f-79eb317e6644","ios":"levelo://app?vid=df5237e6-cd62-4014-ae7f-79eb317e6644"},"vehicle_type_id":"4","last_reported":1784318205,"current_range_meters":12800,"station_id":"ce4bgj92rcd13ifvqbe0","pricing_plan_id":"cebpf4jnsgd1na2vs0mg"},{"bike_id":"23705090-a9c4-45d6-b321-15be5bf7d0f8","system_id":"levelo_inurba_marseille","lat":43.2175,"lon":5.34599,"is_reserved":false,"is_disabled":false,"rental_uris":{"android":"levelo://app?vid=23705090-a9c4-45d6-b321-15be5bf7d0f8","ios":"levelo://app?vid=23705090-a9c4-45d6-b321-15be5bf7d0f8"},"vehicle_type_id":"4","last_reported":1784318205,"current_range_meters":12800,"station_id":"st_cvj6r9ubvosntc0bgbag","pricing_plan_id":"cebpf4jnsgd1na2vs0mg"},{"bike_id":"57889d2e-37dd-4f8f-b3ab-1bc0a62b2215","system_id":"levelo_inurba_marseille","lat":43.30455,"lon":5.37908,"is_reserved":false,"is_disabled":true,"rental_uris":{"android":"levelo://app?vid=57889d2e-37dd-4f8f-b3ab-1bc0a62b2215","ios":"levelo://app?vid=57889d2e-37dd-4f8f-b3ab-1bc0a62b2215"},"vehicle_type_id":"4","last_reported":1784318205,"current_range_meters":25200,"station_id":"ce4bgup2rcd13ifvqcn0","pricing_plan_id":"cebpf4jnsgd1na2vs0mg"},{"bike_id":"970016f7-1296-4711-8e58-0e80ca657b98","system_id":"levelo_inurba_marseille","lat":43.27613,"lon":5.36114,"is_reserved":false,"is_disabled":false,"rental_uris":{"android":"levelo://app?vid=970016f7-1296-4711-8e58-0e80ca657b98","ios":"levelo://app?vid=970016f7-1296-4711-8e58-0e80ca657b98"},"vehicle_type_id":"4","last_reported":1784318205,"current_range_meters":28800,"station_id":"ce4bgj92rcd13ifvqbe0","pricing_plan_id":"cebpf4jnsgd1na2vs0mg"},{"bike_id":"426ad90a-273e-4118-974f-07dac402473c","system_id":"levelo_inurba_marseille","lat":43.29572,"lon":5.37523,"is_reserved":false,"is_disabled":false,"rental_uris":{"android":"levelo://app?vid=426ad90a-273e-4118-974f-07dac402473c","ios":"levelo://app?vid=426ad90a-273e-4118-974f-07dac402473c"},"vehicle_type_id":"4","last_reported":1784318205,"current_range_meters":3200,"station_id":"ce4bgh92rcd13ifvqb50","pricing_plan_id":"cebpf4jnsgd1na2vs0mg"},{"bike_id":"51905566-557d-413c-97fd-b84daf11e827","system_id":"levelo_inurba_marseille","lat":43.27741,"lon":5.38794,"is_reserved":false,"is_disabled":true,"rental_uris":{"android":"levelo://app?vid=51905566-557d-413c-97fd-b84daf11e827","ios":"levelo://app?vid=51905566-557d-413c-97fd-b84daf11e827"},"vehicle_type_id":"4","last_reported":1784318205,"current_range_meters":29600,"station_id":"","pricing_plan_id":"cebpf4jnsgd1na2vs0mg"},{"bike_id":"2116d610-7fe3-46de-8648-da9bac1d13d6","system_id":"levelo_inurba_marseille","lat":43.28693,"lon":5.3741,"is_reserved":false,"is_disabled":true,"rental_uris":{"android":"levelo://app?vid=2116d610-7fe3-46de-8648-da9bac1d13d6","ios":"levelo://app?vid=2116d610-7fe3-46de-8648-da9bac1d13d6"},"vehicle_type_id":"4","last_reported":1784318205,"current_range_meters":20400,"station_id":"ce4bh3p2rcd13ifvqdq0","pricing_plan_id":"cebpf4jnsgd1na2vs0mg"},{"bike_id":"e961417d-032c-40ea-9946-d012f0b3d68b","system_id":"levelo_inurba_marseille","lat":43.28929,"lon":5.39625,"is_reserved":false,"is_disabled":false,"rental_uris":{"android":"levelo://app?vid=e961417d-032c-40ea-9946-d012f0b3d68b","ios":"levelo://app?vid=e961417d-032c-40ea-9946-d012f0b3d68b"},"vehicle_type_id":"4","last_reported":1784318205,"current_range_meters":26000,"station_id":"ce4bh3h2rcd13ifvqdn0","pricing_plan_id":"cebpf4jnsgd1na2vs0mg"},{"bike_id":"78b472ae-7ca1-438d-a65f-f93d06645001","system_id":"levelo_inurba_marseille","lat":43.29212,"lon":5.36047,"is_reserved":false,"is_disabled":true,"rental_uris":{"android":"levelo://app?vid=78b472ae-7ca1-438d-a65f-f93d06645001","ios":"levelo://app?vid=78b472ae-7ca1-438d-a65f-f93d06645001"},"vehicle_type_id":"4","last_reported":1784318205,"current_range_meters":6000,"station_id":"","pricing_plan_id":"cebpf4jnsgd1na2vs0mg"},{"bike_id":"b4946daf-69c3-40cd-9846-e8dc3a52f4e3","system_id":"levelo_inurba_marseille","lat":43.28455,"lon":5.34967,"is_reserved":false,"is_disabled":false,"rental_uris":{"android":"levelo://app?vid=b4946daf-69c3-40cd-9846-e8dc3a52f4e3","ios":"levelo://app?vid=b4946daf-69c3-40cd-9846-e8dc3a52f4e3"},"vehicle_type_id":"4","last_reported":1784318205,"current_range_meters":36000,"station_id":"ce4bhbh2rcd13ifvqepg","pricing_plan_id":"cebpf4jnsgd1na2vs0mg"},{"bike_id":"68d69d5f-9706-47ae-875f-4a07b688f36e","system_id":"levelo_inurba_marseille","lat":43.3059,"lon":5.39366,"is_reserved":false,"is_disabled":false,"rental_uris":{"android":"levelo://app?vid=68d69d5f-9706-47ae-875f-4a07b688f36e","ios":"levelo://app?vid=68d69d5f-9706-47ae-875f-4a07b688f36e"},"vehicle_type_id":"4","last_reported":1784318205,"current_range_meters":18800,"station_id":"ce4bh0p2rcd13ifvqd80","pricing_plan_id":"cebpf4jnsgd1na2vs0mg"},{"bike_id":"871dd8a5-9839-454b-857f-e2dd4859231c","system_id":"levelo_inurba_marseille","lat":43.28698,"lon":5.37941,"is_reserved":false,"is_disabled":false,"rental_uris":{"android":"levelo://app?vid=871dd8a5-9839-454b-857f-e2dd4859231c","ios":"levelo://app?vid=871dd8a5-9839-454b-857f-e2dd4859231c"},"vehicle_type_id":"4","last_reported":1784318205,"current_range_meters":36400,"station_id":"ce4bh9p2rcd13ifvqec0","pricing_plan_id":"cebpf4jnsgd1na2vs0mg"},{"bike_id":"34fdf98c-b3fa-45ce-85b0-86cdad0eefc0","system_id":"levelo_inurba_marseille","lat":43.2919,"lon":5.358,"is_reserved":false,"is_disabled":false,"rental_uris":{"android":"levelo://app?vid=34fdf98c-b3fa-45ce-85b0-86cdad0eefc0","ios":"levelo://app?vid=34fdf98c-b3fa-45ce-85b0-86cdad0eefc0"},"vehicle_type_id":"4","last_reported":1784318205,"current_range_meters":39200,"station_id":"ce4bhb12rcd13ifvqel0","pricing_plan_id":"cebpf4jnsgd1na2vs0mg"},{"bike_id":"819aa6ab-8a73-4f76-8fe5-0ae4b9e1703c","system_id":"levelo_inurba_marseille","lat":43.30955,"lon":5.39034,"is_reserved":false,"is_disabled":false,"rental_uris":{"android":"levelo://app?vid=819aa6ab-8a73-4f76-8fe5-0ae4b9e1703c","ios":"levelo://app?vid=819aa6ab-8a73-4f76-8fe5-0ae4b9e1703c"},"vehicle_type_id":"4","last_reported":1784318205,"current_range_meters":28400,"station_id":"ce4bgup2rcd13ifvqco0","pricing_plan_id":"cebpf4jnsgd1na2vs0mg"},{"bike_id":"cbf57bb6-373a-442c-9860-92cf9215a1bb","system_id":"levelo_inurba_marseille","lat":43.30553,"lon":5.36519,"is_reserved":false,"is_disabled":true,"rental_uris":{"android":"levelo://app?vid=cbf57bb6-373a-442c-9860-92cf9215a1bb","ios":"levelo://app?vid=cbf57bb6-373a-442c-9860-92cf9215a1bb"},"vehicle_type_id":"4","last_reported":1784318205,"current_range_meters":27600,"station_id":"ce4bgs12rcd13ifvqcag","pricing_plan_id":"cebpf4jnsgd1na2vs0mg"},{"bike_id":"f7517ec0-4d9f-4694-8867-75262bb49b5b","system_id":"levelo_inurba_marseille","lat":43.26206,"lon":5.3744,"is_reserved":false,"is_disabled":false,"rental_uris":{"android":"levelo://app?vid=f7517ec0-4d9f-4694-8867-75262bb49b5b","ios":"levelo://app?vid=f7517ec0-4d9f-4694-8867-75262bb49b5b"},"vehicle_type_id":"4","last_reported":1784318205,"current_range_meters":39200,"station_id":"ce4bhgp2rcd13ifvqfc0","pricing_plan_id":"cebpf4jnsgd1na2vs0mg"},{"bike_id":"ca553299-8d31-49bd-a6b4-332c888225b5","system_id":"levelo_inurba_marseille","lat":43.25725,"lon":5.41115,"is_reserved":false,"is_disabled":false,"rental_uris":{"android":"levelo://app?vid=ca553299-8d31-49bd-a6b4-332c888225b5","ios":"levelo://app?vid=ca553299-8d31-49bd-a6b4-332c888225b5"},"vehicle_type_id":"4","last_reported":1784318205,"current_range_meters":33600,"station_id":"ce4bhkp2rcd13ifvqgd0","pricing_plan_id":"cebpf4jnsgd1na2vs0mg"},{"bike_id":"90c5d125-3664-4e66-908f-7ad8ea13c72e","system_id":"levelo_inurba_marseille","lat":43.29983,"lon":5.3843,"is_reserved":false,"is_disabled":true,"rental_uris":{"android":"levelo://app?vid=90c5d125-3664-4e66-908f-7ad8ea13c72e","ios":"levelo://app?vid=90c5d125-3664-4e66-908f-7ad8ea13c72e"},"vehicle_type_id":"4","last_reported":1784318205,"current_range_meters":400,"station_id":"ce4bgj92rcd13ifvqbd0","pricing_plan_id":"cebpf4jnsgd1na2vs0mg"},{"bike_id":"e8b2132e-2e2f-4678-bd27-ce3f9f11f158","system_id":"levelo_inurba_marseille","lat":43.30454,"lon":5.37923,"is_reserved":false,"is_disabled":true,"rental_uris":{"android":"levelo://app?vid=e8b2132e-2e2f-4678-bd27-ce3f9f11f158","ios":"levelo://app?vid=e8b2132e-2e2f-4678-bd27-ce3f9f11f158"},"vehicle_type_id":"4","last_reported":1784318205,"current_range_meters":18000,"station_id":"ce4bgup2rcd13ifvqcn0","pricing_plan_id":"cebpf4jnsgd1na2vs0mg"},{"bike_id":"17f00b12-f8d0-413a-b992-98dadbd11261","system_id":"levelo_inurba_marseille","lat":43.25006,"lon":5.38923,"is_reserved":false,"is_disabled":false,"rental_uris":{"android":"levelo://app?vid=17f00b12-f8d0-413a-b992-98dadbd11261","ios":"levelo://app?vid=17f00b12-f8d0-413a-b992-98dadbd11261"},"vehicle_type_id":"4","last_reported":1784318205,"current_range_meters":34000,"station_id":"ce4bhgp2rcd13ifvqfd0","pricing_plan_id":"cebpf4jnsgd1na2vs0mg"},{"bike_id":"87fddd0f-45f0-4bef-b28b-ddeb238fae59","system_id":"levelo_inurba_marseille","lat":43.28613,"lon":5.35113,"is_reserved":false,"is_disabled":false,"rental_uris":{"android":"levelo://app?vid=87fddd0f-45f0-4bef-b28b-ddeb238fae59","ios":"levelo://app?vid=87fddd0f-45f0-4bef-b28b-ddeb238fae59"},"vehicle_type_id":"4","last_reported":1784318205,"current_range_meters":7200,"station_id":"ce4bhch2rcd13ifvqeug","pricing_plan_id":"cebpf4jnsgd1na2vs0mg"},{"bike_id":"4ce74d39-8cc5-4051-aa63-3dcb6d561cd3","system_id":"levelo_inurba_marseille","lat":43.27946,"lon":5.38682,"is_reserved":false,"is_disabled":false,"rental_uris":{"android":"levelo://app?vid=4ce74d39-8cc5-4051-aa63-3dcb6d561cd3","ios":"levelo://app?vid=4ce74d39-8cc5-4051-aa63-3dcb6d561cd3"},"vehicle_type_id":"4","last_reported":1784318205,"current_range_meters":3200,"station_id":"","pricing_plan_id":"cebpf4jnsgd1na2vs0mg"},{"bike_id":"4f54c651-15d1-492f-8d09-70f1f809ad4f","system_id":"levelo_inurba_marseille","lat":43.27485,"lon":5.4255,"is_reserved":false,"is_disabled":false,"rental_uris":{"android":"levelo://app?vid=4f54c651-15d1-492f-8d09-70f1f809ad4f","ios":"levelo://app?vid=4f54c651-15d1-492f-8d09-70f1f809ad4f"},"vehicle_type_id":"4","last_reported":1784318205,"current_range_meters":28000,"station_id":"st_d8t4bh7nbrqs73arha60","pricing_plan_id":"cebpf4jnsgd1na2vs0mg"},{"bike_id":"d5a4ff25-31d4-4152-b052-19f3b36bea80","system_id":"levelo_inurba_marseille","lat":43.2468,"lon":5.38177,"is_reserved":false,"is_disabled":false,"rental_uris":{"android":"levelo://app?vid=d5a4ff25-31d4-4152-b052-19f3b36bea80","ios":"levelo://app?vid=d5a4ff25-31d4-4152-b052-19f3b36bea80"},"vehicle_type_id":"4","last_reported":1784318205,"current_range_meters":6800,"station_id":"ce4bhih2rcd13ifvqfr0","pricing_plan_id":"cebpf4jnsgd1na2vs0mg"},{"bike_id":"e1102441-6b3f-49e5-87d2-8b10eca1a676","system_id":"levelo_inurba_marseille","lat":43.2621,"lon":5.37453,"is_reserved":false,"is_disabled":false,"rental_uris":{"android":"levelo://app?vid=e1102441-6b3f-49e5-87d2-8b10eca1a676","ios":"levelo://app?vid=e1102441-6b3f-49e5-87d2-8b10eca1a676"},"vehicle_type_id":"4","last_reported":1784318205,"current_range_meters":25600,"station_id":"ce4bhgp2rcd13ifvqfc0","pricing_plan_id":"cebpf4jnsgd1na2vs0mg"},{"bike_id":"a47fcb6b-4cc0-444c-ab14-a01fb70698d7","system_id":"levelo_inurba_marseille","lat":43.29536,"lon":5.3854,"is_reserved":false,"is_disabled":false,"rental_uris":{"android":"levelo://app?vid=a47fcb6b-4cc0-444c-ab14-a01fb70698d7","ios":"levelo://app?vid=a47fcb6b-4cc0-444c-ab14-a01fb70698d7"},"vehicle_type_id":"4","last_reported":1784318205,"current_range_meters":36000,"station_id":"ce4bgih2rcd13ifvqba0","pricing_plan_id":"cebpf4jnsgd1na2vs0mg"},{"bike_id":"83b0b5ec-2dbd-4610-8b9f-84635e3e80c7","system_id":"levelo_inurba_marseille","lat":43.29706,"lon":5.377,"is_reserved":false,"is_disabled":false,"rental_uris":{"android":"levelo://app?vid=83b0b5ec-2dbd-4610-8b9f-84635e3e80c7","ios":"levelo://app?vid=83b0b5ec-2dbd-4610-8b9f-84635e3e80c7"},"vehicle_type_id":"4","last_reported":1784318205,"current_range_meters":19600,"station_id":"ce4bgkh2rcd13ifvqbl0","pricing_plan_id":"cebpf4jnsgd1na2vs0mg"},{"bike_id":"44807dbb-bf50-463c-b977-8138957f17bd","system_id":"levelo_inurba_marseille","lat":43.30957,"lon":5.39054,"is_reserved":false,"is_disabled":false,"rental_uris":{"android":"levelo://app?vid=44807dbb-bf50-463c-b977-8138957f17bd","ios":"levelo://app?vid=44807dbb-bf50-463c-b977-8138957f17bd"},"vehicle_type_id":"4","last_reported":1784318205,"current_range_meters":38400,"station_id":"ce4bgup2rcd13ifvqco0","pricing_plan_id":"cebpf4jnsgd1na2vs0mg"},{"bike_id":"e35b3037-ccf2-48a7-b6f2-14a77143bba4","system_id":"levelo_inurba_marseille","lat":43.32338,"lon":5.36709,"is_reserved":false,"is_disabled":false,"rental_uris":{"android":"levelo://app?vid=e35b3037-ccf2-48a7-b6f2-14a77143bba4","ios":"levelo://app?vid=e35b3037-ccf2-48a7-b6f2-14a77143bba4"},"vehicle_type_id":"4","last_reported":1784318205,"current_range_meters":33200,"station_id":"ce4bhsh2rcd13ifvqi2g","pricing_plan_id":"cebpf4jnsgd1na2vs0mg"},{"bike_id":"0cc9064c-9e67-4dd7-b11e-84260d626c23","system_id":"levelo_inurba_marseille","lat":43.29908,"lon":5.3814,"is_reserved":false,"is_disabled":true,"rental_uris":{"android":"levelo://app?vid=0cc9064c-9e67-4dd7-b11e-84260d626c23","ios":"levelo://app?vid=0cc9064c-9e67-4dd7-b11e-84260d626c23"},"vehicle_type_id":"4","last_reported":1784318205,"current_range_meters":31200,"station_id":"ce4bgj12rcd13ifvqbc0","pricing_plan_id":"cebpf4jnsgd1na2vs0mg"},{"bike_id":"27e47b1c-c6c8-4c7a-9057-a30a031a40ae","system_id":"levelo_inurba_marseille","lat":43.28421,"lon":5.34995,"is_reserved":false,"is_disabled":true,"rental_uris":{"android":"levelo://app?vid=27e47b1c-c6c8-4c7a-9057-a30a031a40ae","ios":"levelo://app?vid=27e47b1c-c6c8-4c7a-9057-a30a031a40ae"},"vehicle_type_id":"4","last_reported":1784318205,"current_range_meters":30400,"station_id":"ce4bhbh2rcd13ifvqepg","pricing_plan_id":"cebpf4jnsgd1na2vs0mg"},{"bike_id":"b4424ee8-7f60-4bb5-93f3-e312e94324d9","system_id":"levelo_inurba_marseille","lat":43.28192,"lon":5.34873,"is_reserved":false,"is_disabled":false,"rental_uris":{"android":"levelo://app?vid=b4424ee8-7f60-4bb5-93f3-e312e94324d9","ios":"levelo://app?vid=b4424ee8-7f60-4bb5-93f3-e312e94324d9"},"vehicle_type_id":"4","last_reported":1784318205,"current_range_meters":8400,"station_id":"","pricing_plan_id":"cebpf4jnsgd1na2vs0mg"},{"bike_id":"a100635c-4fd4-4084-8d7e-bade1685fe4c","system_id":"levelo_inurba_marseille","lat":43.298848,"lon":5.389128,"is_reserved":false,"is_disabled":false,"rental_uris":{"android":"levelo://app?vid=a100635c-4fd4-4084-8d7e-bade1685fe4c","ios":"levelo://app?vid=a100635c-4fd4-4084-8d7e-bade1685fe4c"},"vehicle_type_id":"4","last_reported":1784318205,"current_range_meters":8400,"station_id":"ce4bh392rcd13ifvqdl0","pricing_plan_id":"cebpf4jnsgd1na2vs0mg"},{"bike_id":"b7c3b80c-fe32-491b-bb00-78a2c7a53dc9","system_id":"levelo_inurba_marseille","lat":43.25539,"lon":5.37609,"is_reserved":false,"is_disabled":false,"rental_uris":{"android":"levelo://app?vid=b7c3b80c-fe32-491b-bb00-78a2c7a53dc9","ios":"levelo://app?vid=b7c3b80c-fe32-491b-bb00-78a2c7a53dc9"},"vehicle_type_id":"4","last_reported":1784318205,"current_range_meters":19200,"station_id":"","pricing_plan_id":"cebpf4jnsgd1na2vs0mg"},{"bike_id":"e4a3421d-ad96-453d-a7c8-f8180d881500","system_id":"levelo_inurba_marseille","lat":43.30584,"lon":5.39355,"is_reserved":false,"is_disabled":false,"rental_uris":{"android":"levelo://app?vid=e4a3421d-ad96-453d-a7c8-f8180d881500","ios":"levelo://app?vid=e4a3421d-ad96-453d-a7c8-f8180d881500"},"vehicle_type_id":"4","last_reported":1784318205,"current_range_meters":14000,"station_id":"ce4bh0p2rcd13ifvqd80","pricing_plan_id":"cebpf4jnsgd1na2vs0mg"},{"bike_id":"202f9ad0-42a8-41b4-9ba7-c7ec0280e620","system_id":"levelo_inurba_marseille","lat":43.23194,"lon":5.35541,"is_reserved":false,"is_disabled":false,"rental_uris":{"android":"levelo://app?vid=202f9ad0-42a8-41b4-9ba7-c7ec0280e620","ios":"levelo://app?vid=202f9ad0-42a8-41b4-9ba7-c7ec0280e620"},"vehicle_type_id":"4","last_reported":1784318205,"current_range_meters":38000,"station_id":"ce4bhu92rcd13ifvqi70","pricing_plan_id":"cebpf4jnsgd1na2vs0mg"},{"bike_id":"7588b2f3-548a-4f4e-9456-c2d49cbe649c","system_id":"levelo_inurba_marseille","lat":43.29855,"lon":5.36282,"is_reserved":false,"is_disabled":false,"rental_uris":{"android":"levelo://app?vid=7588b2f3-548a-4f4e-9456-c2d49cbe649c","ios":"levelo://app?vid=7588b2f3-548a-4f4e-9456-c2d49cbe649c"},"vehicle_type_id":"4","last_reported":1784318205,"current_range_meters":36000,"station_id":"ce4bgpp2rcd13ifvqc3g","pricing_plan_id":"cebpf4jnsgd1na2vs0mg"},{"bike_id":"89a24b49-b48c-4a38-a352-eeebc0df24e6","system_id":"levelo_inurba_marseille","lat":43.29301,"lon":5.37207,"is_reserved":false,"is_disabled":false,"rental_uris":{"android":"levelo://app?vid=89a24b49-b48c-4a38-a352-eeebc0df24e6","ios":"levelo://app?vid=89a24b49-b48c-4a38-a352-eeebc0df24e6"},"vehicle_type_id":"4","last_reported":1784318205,"current_range_meters":39200,"station_id":"ce4bgh92rcd13ifvqb40","pricing_plan_id":"cebpf4jnsgd1na2vs0mg"},{"bike_id":"f3955824-bc9b-40e3-bb4b-91c4e41aa833","system_id":"levelo_inurba_marseille","lat":43.30138,"lon":5.37415,"is_reserved":false,"is_disabled":true,"rental_uris":{"android":"levelo://app?vid=f3955824-bc9b-40e3-bb4b-91c4e41aa833","ios":"levelo://app?vid=f3955824-bc9b-40e3-bb4b-91c4e41aa833"},"vehicle_type_id":"4","last_reported":1784318205,"current_range_meters":14400,"station_id":"ce4bgs92rcd13ifvqcc0","pricing_plan_id":"cebpf4jnsgd1na2vs0mg"},{"bike_id":"d476fb3f-e49e-4f5b-b09c-632907604424","system_id":"levelo_inurba_marseille","lat":43.29508,"lon":5.38596,"is_reserved":false,"is_disabled":false,"rental_uris":{"android":"levelo://app?vid=d476fb3f-e49e-4f5b-b09c-632907604424","ios":"levelo://app?vid=d476fb3f-e49e-4f5b-b09c-632907604424"},"vehicle_type_id":"4","last_reported":1784318205,"current_range_meters":38000,"station_id":"ce4bgih2rcd13ifvqba0","pricing_plan_id":"cebpf4jnsgd1na2vs0mg"},{"bike_id":"4f166448-d2a4-4ed7-99ce-660a23d803a9","system_id":"levelo_inurba_marseille","lat":43.29204,"lon":5.35786,"is_reserved":false,"is_disabled":false,"rental_uris":{"android":"levelo://app?vid=4f166448-d2a4-4ed7-99ce-660a23d803a9","ios":"levelo://app?vid=4f166448-d2a4-4ed7-99ce-660a23d803a9"},"vehicle_type_id":"4","last_reported":1784318205,"current_range_meters":28400,"station_id":"ce4bhb12rcd13ifvqel0","pricing_plan_id":"cebpf4jnsgd1na2vs0mg"},{"bike_id":"bddf699c-638f-4218-b9ff-74e23f22ec83","system_id":"levelo_inurba_marseille","lat":43.25512,"lon":5.37661,"is_reserved":false,"is_disabled":false,"rental_uris":{"android":"levelo://app?vid=bddf699c-638f-4218-b9ff-74e23f22ec83","ios":"levelo://app?vid=bddf699c-638f-4218-b9ff-74e23f22ec83"},"vehicle_type_id":"4","last_reported":1784318205,"current_range_meters":36800,"station_id":"ce4bhh12rcd13ifvqff0","pricing_plan_id":"cebpf4jnsgd1na2vs0mg"},{"bike_id":"e342b9f1-a6f4-474a-88a4-70e56cc058cc","system_id":"levelo_inurba_marseille","lat":43.31889,"lon":5.36834,"is_reserved":false,"is_disabled":false,"rental_uris":{"android":"levelo://app?vid=e342b9f1-a6f4-474a-88a4-70e56cc058cc","ios":"levelo://app?vid=e342b9f1-a6f4-474a-88a4-70e56cc058cc"},"vehicle_type_id":"4","last_reported":1784318205,"current_range_meters":39200,"station_id":"st_d6o2h0d0559c73evc1b0","pricing_plan_id":"cebpf4jnsgd1na2vs0mg"},{"bike_id":"b6590b8d-7d1d-4a84-a8b0-990b13671f66","system_id":"levelo_inurba_marseille","lat":43.260263,"lon":5.375491,"is_reserved":false,"is_disabled":false,"rental_uris":{"android":"levelo://app?vid=b6590b8d-7d1d-4a84-a8b0-990b13671f66","ios":"levelo://app?vid=b6590b8d-7d1d-4a84-a8b0-990b13671f66"},"vehicle_type_id":"4","last_reported":1784318205,"current_range_meters":28400,"station_id":"ce4bh392rcd13ifvqdm0","pricing_plan_id":"cebpf4jnsgd1na2vs0mg"},{"bike_id":"553fb599-9d9c-42b5-ab18-96881079f4d4","system_id":"levelo_inurba_marseille","lat":43.27371,"lon":5.36249,"is_reserved":false,"is_disabled":false,"rental_uris":{"android":"levelo://app?vid=553fb599-9d9c-42b5-ab18-96881079f4d4","ios":"levelo://app?vid=553fb599-9d9c-42b5-ab18-96881079f4d4"},"vehicle_type_id":"4","last_reported":1784318205,"current_range_meters":38400,"station_id":"ce4bhbh2rcd13ifvqeo0","pricing_plan_id":"cebpf4jnsgd1na2vs0mg"},{"bike_id":"0d3e100f-48fe-47e1-bef7-0a1dcfcc4955","system_id":"levelo_inurba_marseille","lat":43.3372,"lon":5.39201,"is_reserved":false,"is_disabled":false,"rental_uris":{"android":"levelo://app?vid=0d3e100f-48fe-47e1-bef7-0a1dcfcc4955","ios":"levelo://app?vid=0d3e100f-48fe-47e1-bef7-0a1dcfcc4955"},"vehicle_type_id":"4","last_reported":1784318205,"current_range_meters":29600,"station_id":"ce4bhr92rcd13ifvqhsg","pricing_plan_id":"cebpf4jnsgd1na2vs0mg"},{"bike_id":"679bde17-74f7-465e-951f-cd8f632ebdd3","system_id":"levelo_inurba_marseille","lat":43.29769,"lon":5.37078,"is_reserved":false,"is_disabled":false,"rental_uris":{"android":"levelo://app?vid=679bde17-74f7-465e-951f-cd8f632ebdd3","ios":"levelo://app?vid=679bde17-74f7-465e-951f-cd8f632ebdd3"},"vehicle_type_id":"4","last_reported":1784318205,"current_range_meters":39200,"station_id":"ce4bgop2rcd13ifvqc1g","pricing_plan_id":"cebpf4jnsgd1na2vs0mg"},{"bike_id":"ddbfbc6e-9ea5-4164-b0a2-7cc31ec7c025","system_id":"levelo_inurba_marseille","lat":43.3213,"lon":5.36793,"is_reserved":false,"is_disabled":false,"rental_uris":{"android":"levelo://app?vid=ddbfbc6e-9ea5-4164-b0a2-7cc31ec7c025","ios":"levelo://app?vid=ddbfbc6e-9ea5-4164-b0a2-7cc31ec7c025"},"vehicle_type_id":"4","last_reported":1784318205,"current_range_meters":17600,"station_id":"ce4bhrh2rcd13ifvqhug","pricing_plan_id":"cebpf4jnsgd1na2vs0mg"},{"bike_id":"175a72f7-599f-41b7-93d5-241d55c7e6ae","system_id":"levelo_inurba_marseille","lat":43.30957,"lon":5.39043,"is_reserved":false,"is_disabled":false,"rental_uris":{"android":"levelo://app?vid=175a72f7-599f-41b7-93d5-241d55c7e6ae","ios":"levelo://app?vid=175a72f7-599f-41b7-93d5-241d55c7e6ae"},"vehicle_type_id":"4","last_reported":1784318205,"current_range_meters":16400,"station_id":"ce4bgup2rcd13ifvqco0","pricing_plan_id":"cebpf4jnsgd1na2vs0mg"},{"bike_id":"ec304bfe-6b63-4258-879d-03200a53af27","system_id":"levelo_inurba_marseille","lat":43.29612,"lon":5.37697,"is_reserved":false,"is_disabled":false,"rental_uris":{"android":"levelo://app?vid=ec304bfe-6b63-4258-879d-03200a53af27","ios":"levelo://app?vid=ec304bfe-6b63-4258-879d-03200a53af27"},"vehicle_type_id":"4","last_reported":1784318205,"current_range_meters":39200,"station_id":"ce4bgi92rcd13ifvqb90","pricing_plan_id":"cebpf4jnsgd1na2vs0mg"},{"bike_id":"82023b68-46df-41b5-9d8b-ec4c67021220","system_id":"levelo_inurba_marseille","lat":43.30228,"lon":5.40013,"is_reserved":false,"is_disabled":true,"rental_uris":{"android":"levelo://app?vid=82023b68-46df-41b5-9d8b-ec4c67021220","ios":"levelo://app?vid=82023b68-46df-41b5-9d8b-ec4c67021220"},"vehicle_type_id":"4","last_reported":1784318205,"current_range_meters":34800,"station_id":"ce4bgvh2rcd13ifvqcs0","pricing_plan_id":"cebpf4jnsgd1na2vs0mg"},{"bike_id":"32c147b5-a969-4cf0-ae85-b52b4e9fef06","system_id":"levelo_inurba_marseille","lat":43.293,"lon":5.37459,"is_reserved":false,"is_disabled":true,"rental_uris":{"android":"levelo://app?vid=32c147b5-a969-4cf0-ae85-b52b4e9fef06","ios":"levelo://app?vid=32c147b5-a969-4cf0-ae85-b52b4e9fef06"},"vehicle_type_id":"4","last_reported":1784318205,"current_range_meters":400,"station_id":"ce4bgi12rcd13ifvqb70","pricing_plan_id":"cebpf4jnsgd1na2vs0mg"},{"bike_id":"9add7d9b-214a-40dc-a324-5a0e81d35b67","system_id":"levelo_inurba_marseille","lat":43.26561,"lon":5.40324,"is_reserved":false,"is_disabled":true,"rental_uris":{"android":"levelo://app?vid=9add7d9b-214a-40dc-a324-5a0e81d35b67","ios":"levelo://app?vid=9add7d9b-214a-40dc-a324-5a0e81d35b67"},"vehicle_type_id":"4","last_reported":1784318205,"current_range_meters":16400,"station_id":"ce4bhmp2rcd13ifvqgng","pricing_plan_id":"cebpf4jnsgd1na2vs0mg"},{"bike_id":"91f0e4ce-79d8-4655-828a-63e54a2d5488","system_id":"levelo_inurba_marseille","lat":43.24816,"lon":5.37461,"is_reserved":false,"is_disabled":false,"rental_uris":{"android":"levelo://app?vid=91f0e4ce-79d8-4655-828a-63e54a2d5488","ios":"levelo://app?vid=91f0e4ce-79d8-4655-828a-63e54a2d5488"},"vehicle_type_id":"4","last_reported":1784318205,"current_range_meters":8400,"station_id":"ce4bhgh2rcd13ifvqfb0","pricing_plan_id":"cebpf4jnsgd1na2vs0mg"},{"bike_id":"03622894-c978-439d-bfb4-643c65979b79","system_id":"levelo_inurba_marseille","lat":43.29791,"lon":5.371,"is_reserved":false,"is_disabled":false,"rental_uris":{"android":"levelo://app?vid=03622894-c978-439d-bfb4-643c65979b79","ios":"levelo://app?vid=03622894-c978-439d-bfb4-643c65979b79"},"vehicle_type_id":"4","last_reported":1784318205,"current_range_meters":18800,"station_id":"ce4bgop2rcd13ifvqc1g","pricing_plan_id":"cebpf4jnsgd1na2vs0mg"},{"bike_id":"08e37548-b939-4c95-ad3e-38d80489c90b","system_id":"levelo_inurba_marseille","lat":43.21716,"lon":5.34415,"is_reserved":false,"is_disabled":false,"rental_uris":{"android":"levelo://app?vid=08e37548-b939-4c95-ad3e-38d80489c90b","ios":"levelo://app?vid=08e37548-b939-4c95-ad3e-38d80489c90b"},"vehicle_type_id":"4","last_reported":1784318205,"current_range_meters":5600,"station_id":"","pricing_plan_id":"cebpf4jnsgd1na2vs0mg"},{"bike_id":"8a266fb1-2bb9-4f83-9f4e-79213a3066cf","system_id":"levelo_inurba_marseille","lat":43.280719,"lon":5.347648,"is_reserved":false,"is_disabled":true,"rental_uris":{"android":"levelo://app?vid=8a266fb1-2bb9-4f83-9f4e-79213a3066cf","ios":"levelo://app?vid=8a266fb1-2bb9-4f83-9f4e-79213a3066cf"},"vehicle_type_id":"4","last_reported":1784318205,"current_range_meters":0,"station_id":"","pricing_plan_id":"cebpf4jnsgd1na2vs0mg"},{"bike_id":"6a92006f-71dd-48e4-ac20-d001b032ad0b","system_id":"levelo_inurba_marseille","lat":43.29686,"lon":5.37297,"is_reserved":false,"is_disabled":false,"rental_uris":{"android":"levelo://app?vid=6a92006f-71dd-48e4-ac20-d001b032ad0b","ios":"levelo://app?vid=6a92006f-71dd-48e4-ac20-d001b032ad0b"},"vehicle_type_id":"4","last_reported":1784318205,"current_range_meters":38400,"station_id":"ce4bgk12rcd13ifvqbj0","pricing_plan_id":"cebpf4jnsgd1na2vs0mg"},{"bike_id":"4fa46307-e1a1-4f6c-a5e9-4130cf7619fd","system_id":"levelo_inurba_marseille","lat":43.26184,"lon":5.37455,"is_reserved":false,"is_disabled":false,"rental_uris":{"android":"levelo://app?vid=4fa46307-e1a1-4f6c-a5e9-4130cf7619fd","ios":"levelo://app?vid=4fa46307-e1a1-4f6c-a5e9-4130cf7619fd"},"vehicle_type_id":"4","last_reported":1784318205,"current_range_meters":32800,"station_id":"ce4bhgp2rcd13ifvqfc0","pricing_plan_id":"cebpf4jnsgd1na2vs0mg"},{"bike_id":"70983346-79ce-4be2-bb36-25e64cd17b9c","system_id":"levelo_inurba_marseille","lat":43.269324,"lon":5.389173,"is_reserved":false,"is_disabled":false,"rental_uris":{"android":"levelo://app?vid=70983346-79ce-4be2-bb36-25e64cd17b9c","ios":"levelo://app?vid=70983346-79ce-4be2-bb36-25e64cd17b9c"},"vehicle_type_id":"4","last_reported":1784318205,"current_range_meters":28000,"station_id":"ce4bhhh2rcd13ifvqfl0","pricing_plan_id":"cebpf4jnsgd1na2vs0mg"},{"bike_id":"44a2d414-1ac1-4189-b47c-dc4459103bc9","system_id":"levelo_inurba_marseille","lat":43.33784,"lon":5.37454,"is_reserved":false,"is_disabled":false,"rental_uris":{"android":"levelo://app?vid=44a2d414-1ac1-4189-b47c-dc4459103bc9","ios":"levelo://app?vid=44a2d414-1ac1-4189-b47c-dc4459103bc9"},"vehicle_type_id":"4","last_reported":1784318205,"current_range_meters":32800,"station_id":"","pricing_plan_id":"cebpf4jnsgd1na2vs0mg"},{"bike_id":"afa4ef56-03d1-4be1-b020-ce7389dda535","system_id":"levelo_inurba_marseille","lat":43.29283,"lon":5.37552,"is_reserved":false,"is_disabled":false,"rental_uris":{"android":"levelo://app?vid=afa4ef56-03d1-4be1-b020-ce7389dda535","ios":"levelo://app?vid=afa4ef56-03d1-4be1-b020-ce7389dda535"},"vehicle_type_id":"4","last_reported":1784318205,"current_range_meters":38400,"station_id":"ce4bgi12rcd13ifvqb80","pricing_plan_id":"cebpf4jnsgd1na2vs0mg"},{"bike_id":"2c16c416-ac46-4a61-ab93-a4b1f17ce0f9","system_id":"levelo_inurba_marseille","lat":43.30955,"lon":5.39072,"is_reserved":false,"is_disabled":false,"rental_uris":{"android":"levelo://app?vid=2c16c416-ac46-4a61-ab93-a4b1f17ce0f9","ios":"levelo://app?vid=2c16c416-ac46-4a61-ab93-a4b1f17ce0f9"},"vehicle_type_id":"4","last_reported":1784318205,"current_range_meters":39200,"station_id":"ce4bgup2rcd13ifvqco0","pricing_plan_id":"cebpf4jnsgd1na2vs0mg"},{"bike_id":"3c5ffc7e-5f22-44bb-9587-c15e8e458634","system_id":"levelo_inurba_marseille","lat":43.30324,"lon":5.40443,"is_reserved":false,"is_disabled":false,"rental_uris":{"android":"levelo://app?vid=3c5ffc7e-5f22-44bb-9587-c15e8e458634","ios":"levelo://app?vid=3c5ffc7e-5f22-44bb-9587-c15e8e458634"},"vehicle_type_id":"4","last_reported":1784318205,"current_range_meters":40000,"station_id":"ce4bh012rcd13ifvqd10","pricing_plan_id":"cebpf4jnsgd1na2vs0mg"},{"bike_id":"aa899d6f-0408-4a23-8d3b-ffb1059b430c","system_id":"levelo_inurba_marseille","lat":43.23966,"lon":5.36626,"is_reserved":false,"is_disabled":false,"rental_uris":{"android":"levelo://app?vid=aa899d6f-0408-4a23-8d3b-ffb1059b430c","ios":"levelo://app?vid=aa899d6f-0408-4a23-8d3b-ffb1059b430c"},"vehicle_type_id":"4","last_reported":1784318205,"current_range_meters":11200,"station_id":"ce4bhi12rcd13ifvqfp0","pricing_plan_id":"cebpf4jnsgd1na2vs0mg"},{"bike_id":"9dcfdf96-578b-46e7-b429-1767b2ea8f00","system_id":"levelo_inurba_marseille","lat":43.24634,"lon":5.38161,"is_reserved":false,"is_disabled":false,"rental_uris":{"android":"levelo://app?vid=9dcfdf96-578b-46e7-b429-1767b2ea8f00","ios":"levelo://app?vid=9dcfdf96-578b-46e7-b429-1767b2ea8f00"},"vehicle_type_id":"4","last_reported":1784318205,"current_range_meters":38800,"station_id":"ce4bhih2rcd13ifvqfr0","pricing_plan_id":"cebpf4jnsgd1na2vs0mg"},{"bike_id":"b1e2bb15-708a-421f-9c6b-004d74bf9841","system_id":"levelo_inurba_marseille","lat":43.27371,"lon":5.36262,"is_reserved":false,"is_disabled":false,"rental_uris":{"android":"levelo://app?vid=b1e2bb15-708a-421f-9c6b-004d74bf9841","ios":"levelo://app?vid=b1e2bb15-708a-421f-9c6b-004d74bf9841"},"vehicle_type_id":"4","last_reported":1784318205,"current_range_meters":18000,"station_id":"ce4bhbh2rcd13ifvqeo0","pricing_plan_id":"cebpf4jnsgd1na2vs0mg"},{"bike_id":"313bbed8-31cd-4778-8bec-89f0da621e3b","system_id":"levelo_inurba_marseille","lat":43.24803,"lon":5.37438,"is_reserved":false,"is_disabled":false,"rental_uris":{"android":"levelo://app?vid=313bbed8-31cd-4778-8bec-89f0da621e3b","ios":"levelo://app?vid=313bbed8-31cd-4778-8bec-89f0da621e3b"},"vehicle_type_id":"4","last_reported":1784318205,"current_range_meters":38000,"station_id":"ce4bhgh2rcd13ifvqfb0","pricing_plan_id":"cebpf4jnsgd1na2vs0mg"},{"bike_id":"7604574c-06cb-407e-9e16-b7858411e1bc","system_id":"levelo_inurba_marseille","lat":43.27808,"lon":5.40741,"is_reserved":false,"is_disabled":true,"rental_uris":{"android":"levelo://app?vid=7604574c-06cb-407e-9e16-b7858411e1bc","ios":"levelo://app?vid=7604574c-06cb-407e-9e16-b7858411e1bc"},"vehicle_type_id":"4","last_reported":1784318205,"current_range_meters":20400,"station_id":"ce4bhnh2rcd13ifvqgtg","pricing_plan_id":"cebpf4jnsgd1na2vs0mg"},{"bike_id":"600d3649-4b6d-473c-a715-d27921e00684","system_id":"levelo_inurba_marseille","lat":43.23199,"lon":5.35536,"is_reserved":false,"is_disabled":false,"rental_uris":{"android":"levelo://app?vid=600d3649-4b6d-473c-a715-d27921e00684","ios":"levelo://app?vid=600d3649-4b6d-473c-a715-d27921e00684"},"vehicle_type_id":"4","last_reported":1784318205,"current_range_meters":24800,"station_id":"ce4bhu92rcd13ifvqi70","pricing_plan_id":"cebpf4jnsgd1na2vs0mg"},{"bike_id":"8601b829-59f8-4eab-bab2-2f8e891d8617","system_id":"levelo_inurba_marseille","lat":43.254993,"lon":5.376487,"is_reserved":false,"is_disabled":false,"rental_uris":{"android":"levelo://app?vid=8601b829-59f8-4eab-bab2-2f8e891d8617","ios":"levelo://app?vid=8601b829-59f8-4eab-bab2-2f8e891d8617"},"vehicle_type_id":"4","last_reported":1784318205,"current_range_meters":28400,"station_id":"ce4bhh12rcd13ifvqff0","pricing_plan_id":"cebpf4jnsgd1na2vs0mg"},{"bike_id":"61f91879-6716-4daa-b1d6-e53cb45051b5","system_id":"levelo_inurba_marseille","lat":43.2737,"lon":5.36259,"is_reserved":false,"is_disabled":false,"rental_uris":{"android":"levelo://app?vid=61f91879-6716-4daa-b1d6-e53cb45051b5","ios":"levelo://app?vid=61f91879-6716-4daa-b1d6-e53cb45051b5"},"vehicle_type_id":"4","last_reported":1784318205,"current_range_meters":39200,"station_id":"ce4bhbh2rcd13ifvqeo0","pricing_plan_id":"cebpf4jnsgd1na2vs0mg"},{"bike_id":"d1210815-3b6f-46d9-8562-5a9f90c2f696","system_id":"levelo_inurba_marseille","lat":43.29185,"lon":5.35798,"is_reserved":false,"is_disabled":true,"rental_uris":{"android":"levelo://app?vid=d1210815-3b6f-46d9-8562-5a9f90c2f696","ios":"levelo://app?vid=d1210815-3b6f-46d9-8562-5a9f90c2f696"},"vehicle_type_id":"4","last_reported":1784318205,"current_range_meters":9200,"station_id":"ce4bhb12rcd13ifvqel0","pricing_plan_id":"cebpf4jnsgd1na2vs0mg"},{"bike_id":"625b633d-f8de-424b-ba0e-8c9213c1a102","system_id":"levelo_inurba_marseille","lat":43.29967,"lon":5.4132,"is_reserved":false,"is_disabled":false,"rental_uris":{"android":"levelo://app?vid=625b633d-f8de-424b-ba0e-8c9213c1a102","ios":"levelo://app?vid=625b633d-f8de-424b-ba0e-8c9213c1a102"},"vehicle_type_id":"4","last_reported":1784318205,"current_range_meters":36400,"station_id":"ce4bhp12rcd13ifvqh9g","pricing_plan_id":"cebpf4jnsgd1na2vs0mg"},{"bike_id":"08ece367-f2bf-4bfe-ad49-8f2ead69141b","system_id":"levelo_inurba_marseille","lat":43.2737,"lon":5.36258,"is_reserved":false,"is_disabled":false,"rental_uris":{"android":"levelo://app?vid=08ece367-f2bf-4bfe-ad49-8f2ead69141b","ios":"levelo://app?vid=08ece367-f2bf-4bfe-ad49-8f2ead69141b"},"vehicle_type_id":"4","last_reported":1784318205,"current_range_meters":30400,"station_id":"ce4bhbh2rcd13ifvqeo0","pricing_plan_id":"cebpf4jnsgd1na2vs0mg"},{"bike_id":"4f68d89f-2860-4fe4-aeef-ae7316f7c98e","system_id":"levelo_inurba_marseille","lat":43.2894,"lon":5.42788,"is_reserved":false,"is_disabled":false,"rental_uris":{"android":"levelo://app?vid=4f68d89f-2860-4fe4-aeef-ae7316f7c98e","ios":"levelo://app?vid=4f68d89f-2860-4fe4-aeef-ae7316f7c98e"},"vehicle_type_id":"4","last_reported":1784318205,"current_range_meters":24400,"station_id":"","pricing_plan_id":"cebpf4jnsgd1na2vs0mg"},{"bike_id":"74f40de1-9ba9-4565-b41f-4c766ac53f24","system_id":"levelo_inurba_marseille","lat":43.29173,"lon":5.37154,"is_reserved":false,"is_disabled":false,"rental_uris":{"android":"levelo://app?vid=74f40de1-9ba9-4565-b41f-4c766ac53f24","ios":"levelo://app?vid=74f40de1-9ba9-4565-b41f-4c766ac53f24"},"vehicle_type_id":"4","last_reported":1784318205,"current_range_meters":14000,"station_id":"ce4bha92rcd13ifvqeh0","pricing_plan_id":"cebpf4jnsgd1na2vs0mg"},{"bike_id":"579a2162-a323-43de-ac84-5392bfb6659b","system_id":"levelo_inurba_marseille","lat":43.323581,"lon":5.367507,"is_reserved":false,"is_disabled":false,"rental_uris":{"android":"levelo://app?vid=579a2162-a323-43de-ac84-5392bfb6659b","ios":"levelo://app?vid=579a2162-a323-43de-ac84-5392bfb6659b"},"vehicle_type_id":"4","last_reported":1784318205,"current_range_meters":4000,"station_id":"st_d6o2h0d0559c73evc1b0","pricing_plan_id":"cebpf4jnsgd1na2vs0mg"},{"bike_id":"35bd0f1d-508e-41f7-83fa-f3e805aab35e","system_id":"levelo_inurba_marseille","lat":43.30276,"lon":5.37705,"is_reserved":false,"is_disabled":true,"rental_uris":{"android":"levelo://app?vid=35bd0f1d-508e-41f7-83fa-f3e805aab35e","ios":"levelo://app?vid=35bd0f1d-508e-41f7-83fa-f3e805aab35e"},"vehicle_type_id":"4","last_reported":1784318205,"current_range_meters":11600,"station_id":"ce4bguh2rcd13ifvqcj0","pricing_plan_id":"cebpf4jnsgd1na2vs0mg"},{"bike_id":"d6bda731-d678-4d85-858b-965a4c047af8","system_id":"levelo_inurba_marseille","lat":43.30526,"lon":5.3655,"is_reserved":false,"is_disabled":false,"rental_uris":{"android":"levelo://app?vid=d6bda731-d678-4d85-858b-965a4c047af8","ios":"levelo://app?vid=d6bda731-d678-4d85-858b-965a4c047af8"},"vehicle_type_id":"4","last_reported":1784318205,"current_range_meters":33600,"station_id":"ce4bgs12rcd13ifvqcag","pricing_plan_id":"cebpf4jnsgd1na2vs0mg"},{"bike_id":"1c54de74-b651-4768-a095-de4663e92140","system_id":"levelo_inurba_marseille","lat":43.3136,"lon":5.38491,"is_reserved":false,"is_disabled":false,"rental_uris":{"android":"levelo://app?vid=1c54de74-b651-4768-a095-de4663e92140","ios":"levelo://app?vid=1c54de74-b651-4768-a095-de4663e92140"},"vehicle_type_id":"4","last_reported":1784318205,"current_range_meters":14000,"station_id":"ce4bgt92rcd13ifvqcf0","pricing_plan_id":"cebpf4jnsgd1na2vs0mg"},{"bike_id":"16d35d02-7447-43b0-ac6e-9b3ecf023a4a","system_id":"levelo_inurba_marseille","lat":43.26025,"lon":5.37555,"is_reserved":false,"is_disabled":false,"rental_uris":{"android":"levelo://app?vid=16d35d02-7447-43b0-ac6e-9b3ecf023a4a","ios":"levelo://app?vid=16d35d02-7447-43b0-ac6e-9b3ecf023a4a"},"vehicle_type_id":"4","last_reported":1784318205,"current_range_meters":24800,"station_id":"ce4bhgh2rcd13ifvqfa0","pricing_plan_id":"cebpf4jnsgd1na2vs0mg"},{"bike_id":"b9d135ef-7330-4add-9631-980f8ecf58af","system_id":"levelo_inurba_marseille","lat":43.26193,"lon":5.37454,"is_reserved":false,"is_disabled":false,"rental_uris":{"android":"levelo://app?vid=b9d135ef-7330-4add-9631-980f8ecf58af","ios":"levelo://app?vid=b9d135ef-7330-4add-9631-980f8ecf58af"},"vehicle_type_id":"4","last_reported":1784318205,"current_range_meters":8000,"station_id":"ce4bhgp2rcd13ifvqfc0","pricing_plan_id":"cebpf4jnsgd1na2vs0mg"},{"bike_id":"aa5d3c4c-9f33-4be5-be80-01a02d569199","system_id":"levelo_inurba_marseille","lat":43.2695,"lon":5.38969,"is_reserved":false,"is_disabled":true,"rental_uris":{"android":"levelo://app?vid=aa5d3c4c-9f33-4be5-be80-01a02d569199","ios":"levelo://app?vid=aa5d3c4c-9f33-4be5-be80-01a02d569199"},"vehicle_type_id":"4","last_reported":1784318205,"current_range_meters":35200,"station_id":"ce4bhhh2rcd13ifvqfl0","pricing_plan_id":"cebpf4jnsgd1na2vs0mg"},{"bike_id":"4161e6fd-155e-4643-8fdf-5bceb31024ec","system_id":"levelo_inurba_marseille","lat":43.30362,"lon":5.42515,"is_reserved":false,"is_disabled":false,"rental_uris":{"android":"levelo://app?vid=4161e6fd-155e-4643-8fdf-5bceb31024ec","ios":"levelo://app?vid=4161e6fd-155e-4643-8fdf-5bceb31024ec"},"vehicle_type_id":"4","last_reported":1784318205,"current_range_meters":38800,"station_id":"","pricing_plan_id":"cebpf4jnsgd1na2vs0mg"},{"bike_id":"098cb1b0-aa89-454f-9bc2-2c4ea2f0e0ee","system_id":"levelo_inurba_marseille","lat":43.31563,"lon":5.4055,"is_reserved":false,"is_disabled":false,"rental_uris":{"android":"levelo://app?vid=098cb1b0-aa89-454f-9bc2-2c4ea2f0e0ee","ios":"levelo://app?vid=098cb1b0-aa89-454f-9bc2-2c4ea2f0e0ee"},"vehicle_type_id":"4","last_reported":1784318205,"current_range_meters":18800,"station_id":"","pricing_plan_id":"cebpf4jnsgd1na2vs0mg"},{"bike_id":"b999c4de-71e5-49f1-adc8-530bd4aa9637","system_id":"levelo_inurba_marseille","lat":43.21187,"lon":5.35076,"is_reserved":false,"is_disabled":false,"rental_uris":{"android":"levelo://app?vid=b999c4de-71e5-49f1-adc8-530bd4aa9637","ios":"levelo://app?vid=b999c4de-71e5-49f1-adc8-530bd4aa9637"},"vehicle_type_id":"4","last_reported":1784318205,"current_range_meters":39200,"station_id":"st_cvj6sg6p6f1abm77japg","pricing_plan_id":"cebpf4jnsgd1na2vs0mg"},{"bike_id":"eff7ef13-223c-42b5-ab23-72bbc6d4047e","system_id":"levelo_inurba_marseille","lat":43.28587,"lon":5.35077,"is_reserved":false,"is_disabled":false,"rental_uris":{"android":"levelo://app?vid=eff7ef13-223c-42b5-ab23-72bbc6d4047e","ios":"levelo://app?vid=eff7ef13-223c-42b5-ab23-72bbc6d4047e"},"vehicle_type_id":"4","last_reported":1784318205,"current_range_meters":16400,"station_id":"ce4bhch2rcd13ifvqeug","pricing_plan_id":"cebpf4jnsgd1na2vs0mg"},{"bike_id":"e6f9c658-d2d8-4403-8906-affa6dfc6faf","system_id":"levelo_inurba_marseille","lat":43.26555,"lon":5.37293,"is_reserved":false,"is_disabled":false,"rental_uris":{"android":"levelo://app?vid=e6f9c658-d2d8-4403-8906-affa6dfc6faf","ios":"levelo://app?vid=e6f9c658-d2d8-4403-8906-affa6dfc6faf"},"vehicle_type_id":"4","last_reported":1784318205,"current_range_meters":39200,"station_id":"ce4bhg12rcd13ifvqf70","pricing_plan_id":"cebpf4jnsgd1na2vs0mg"},{"bike_id":"aeadc001-b838-45ac-ab10-da795bb8945b","system_id":"levelo_inurba_marseille","lat":43.30415,"lon":5.41277,"is_reserved":false,"is_disabled":false,"rental_uris":{"android":"levelo://app?vid=aeadc001-b838-45ac-ab10-da795bb8945b","ios":"levelo://app?vid=aeadc001-b838-45ac-ab10-da795bb8945b"},"vehicle_type_id":"4","last_reported":1784318205,"current_range_meters":21600,"station_id":"ce4bhop2rcd13ifvqh8g","pricing_plan_id":"cebpf4jnsgd1na2vs0mg"},{"bike_id":"5a29e6f3-d0ba-49e7-af5d-f8e60471c1fc","system_id":"levelo_inurba_marseille","lat":43.27459,"lon":5.4253,"is_reserved":false,"is_disabled":true,"rental_uris":{"android":"levelo://app?vid=5a29e6f3-d0ba-49e7-af5d-f8e60471c1fc","ios":"levelo://app?vid=5a29e6f3-d0ba-49e7-af5d-f8e60471c1fc"},"vehicle_type_id":"4","last_reported":1784318205,"current_range_meters":9200,"station_id":"st_d8t4bh7nbrqs73arha60","pricing_plan_id":"cebpf4jnsgd1na2vs0mg"},{"bike_id":"81ca3ada-0818-4f62-8bb9-e6024f14a74c","system_id":"levelo_inurba_marseille","lat":43.23199,"lon":5.35553,"is_reserved":false,"is_disabled":false,"rental_uris":{"android":"levelo://app?vid=81ca3ada-0818-4f62-8bb9-e6024f14a74c","ios":"levelo://app?vid=81ca3ada-0818-4f62-8bb9-e6024f14a74c"},"vehicle_type_id":"4","last_reported":1784318205,"current_range_meters":11200,"station_id":"ce4bhu92rcd13ifvqi70","pricing_plan_id":"cebpf4jnsgd1na2vs0mg"},{"bike_id":"d3b82640-d84c-42c7-8c57-b5a14f4fcab5","system_id":"levelo_inurba_marseille","lat":43.30877,"lon":5.37206,"is_reserved":false,"is_disabled":false,"rental_uris":{"android":"levelo://app?vid=d3b82640-d84c-42c7-8c57-b5a14f4fcab5","ios":"levelo://app?vid=d3b82640-d84c-42c7-8c57-b5a14f4fcab5"},"vehicle_type_id":"4","last_reported":1784318205,"current_range_meters":36800,"station_id":"ce4bguh2rcd13ifvqckg","pricing_plan_id":"cebpf4jnsgd1na2vs0mg"},{"bike_id":"57c66e41-d905-4d3e-bdab-9d946f2a37e8","system_id":"levelo_inurba_marseille","lat":43.286134,"lon":5.350956,"is_reserved":false,"is_disabled":false,"rental_uris":{"android":"levelo://app?vid=57c66e41-d905-4d3e-bdab-9d946f2a37e8","ios":"levelo://app?vid=57c66e41-d905-4d3e-bdab-9d946f2a37e8"},"vehicle_type_id":"4","last_reported":1784318205,"current_range_meters":28800,"station_id":"ce4bhch2rcd13ifvqeug","pricing_plan_id":"cebpf4jnsgd1na2vs0mg"},{"bike_id":"50aa6815-cb65-48bd-999a-1d2dfbbe24c7","system_id":"levelo_inurba_marseille","lat":43.28471,"lon":5.48406,"is_reserved":false,"is_disabled":false,"rental_uris":{"android":"levelo://app?vid=50aa6815-cb65-48bd-999a-1d2dfbbe24c7","ios":"levelo://app?vid=50aa6815-cb65-48bd-999a-1d2dfbbe24c7"},"vehicle_type_id":"4","last_reported":1784318205,"current_range_meters":6400,"station_id":"st_d3svhcjqgbts73a3dn0g","pricing_plan_id":"cebpf4jnsgd1na2vs0mg"},