{"last_updated":1691950042,"ttl":30,"version":"2.2","data":{"bikes":[{"bike_id":"474c9fc7-166a-4005-8d05-a9e6ef933d38","system_id":"levelo_inurba_marseille","lat":43.314811,"lon":5.373104,"is_reserved":false,"is_disabled":false,"rental_uris":{"android":"levelo://app?vid=474c9fc7-166a-4005-8d05-a9e6ef933d38","ios":"levelo://app?vid=474c9fc7-166a-4005-8d05-a9e6ef933d38"},"vehicle_type_id":"4","last_reported":1691950043,"current_range_meters":0,"station_id":"ce4bgt12rcd13ifvqcd0","pricing_plan_id":"free"},{"bike_id":"001b1697-fd1d-4b18-b69a-7b8de9261abd","system_id":"levelo_inurba_marseille","lat":43.314811,"lon":5.373104,"is_reserved":false,"is_disabled":false,"rental_uris":{"android":"levelo://app?vid=001b1697-fd1d-4b18-b69a-7b8de9261abd","ios":"levelo://app?vid=001b1697-fd1d-4b18-b69a-7b8de9261abd"},"vehicle_type_id":"4","last_reported":1691950043,"current_range_meters":9600,"station_id":"ce4bgt12rcd13ifvqcd0","pricing_plan_id":"free"},{"bike_id":"1f930587-cf81-4436-91f9-2e7a782a6bb3","system_id":"levelo_inurba_marseille","lat":43.309039,"lon":5.371797,"is_reserved":false,"is_disabled":false,"rental_uris":{"android":"levelo://app?vid=1f930587-cf81-4436-91f9-2e7a782a6bb3","ios":"levelo://app?vid=1f930587-cf81-4436-91f9-2e7a782a6bb3"},"vehicle_type_id":"4","last_reported":1691950043,"current_range_meters":15200,"station_id":"ce4bguh2rcd13ifvqckg","pricing_plan_id":"free"},{"bike_id":"4130add7-0810-4d2f-a345-338f540cdf42","system_id":"levelo_inurba_marseille","lat":43.312239,"lon":5.368562,"is_reserved":false,"is_disabled":false,"rental_uris":{"android":"levelo://app?vid=4130add7-0810-4d2f-a345-338f540cdf42","ios":"levelo://app?vid=4130add7-0810-4d2f-a345-338f540cdf42"},"vehicle_type_id":"4","last_reported":1691950043,"current_range_meters":18800,"station_id":"ce4bgl92rcd13ifvqbq0","pricing_plan_id":"free"},{"bike_id":"f028e6ca-67ae-492f-ae77-177d7724adcb","system_id":"levelo_inurba_marseille","lat":43.305368,"lon":5.367343,"is_reserved":false,"is_disabled":false,"rental_uris":{"android":"levelo://app?vid=f028e6ca-67ae-492f-ae77-177d7724adcb","ios":"levelo://app?vid=f028e6ca-67ae-492f-ae77-177d7724adcb"},"vehicle_type_id":"4","last_reported":1691950043,"current_range_meters":0,"station_id":"ce4bgrp2rcd13ifvqc9g","pricing_plan_id":"free"},{"bike_id":"a310b53f-f636-4c6f-8c61-b9206bffc88e","system_id":"levelo_inurba_marseille","lat":43.311131,"lon":5.377651,"is_reserved":false,"is_disabled":false,"rental_uris":{"android":"levelo://app?vid=a310b53f-f636-4c6f-8c61-b9206bffc88e","ios":"levelo://app?vid=a310b53f-f636-4c6f-8c61-b9206bffc88e"},"vehicle_type_id":"4","last_reported":1691950043,"current_range_meters":9200,"station_id":"ce4bgt92rcd13ifvqcg0","pricing_plan_id":"free"},{"bike_id":"2e023f26-690b-4243-9a63-b3e4e3441178","system_id":"levelo_inurba_marseille","lat":43.30801,"lon":5.37634,"is_reserved":false,"is_disabled":false,"rental_uris":{"android":"levelo://app?vid=2e023f26-690b-4243-9a63-b3e4e3441178","ios":"levelo://app?vid=2e023f26-690b-4243-9a63-b3e4e3441178"},"vehicle_type_id":"4","last_reported":1691950043,"current_range_meters":0,"station_id":"ce4bgv92rcd13ifvqcq0","pricing_plan_id":"free"},{"bike_id":"0b41ddf6-1860-4525-bed0-452a903d3f7c","system_id":"levelo_inurba_marseille","lat":43.31926,"lon":5.37418,"is_reserved":false,"is_disabled":false,"rental_uris":{"android":"levelo://app?vid=0b41ddf6-1860-4525-bed0-452a903d3f7c","ios":"levelo://app?vid=0b41ddf6-1860-4525-bed0-452a903d3f7c"},"vehicle_type_id":"4","last_reported":1691950043,"current_range_meters":15600,"station_id":"","pricing_plan_id":"free"},{"bike_id":"82973fd6-508a-4044-87cc-b5ef16d37f43","system_id":"levelo_inurba_marseille","lat":43.317075,"lon":5.377367,"is_reserved":false,"is_disabled":false,"rental_uris":{"android":"levelo://app?vid=82973fd6-508a-4044-87cc-b5ef16d37f43","ios":"levelo://app?vid=82973fd6-508a-4044-87cc-b5ef16d37f43"},"vehicle_type_id":"4","last_reported":1691950043,"current_range_meters":28800,"station_id":"ce4bgth2rcd13ifvqch0","pricing_plan_id":"free"},{"bike_id":"de460d34-bb09-4664-b305-4061da085597","system_id":"levelo_inurba_marseille","lat":43.31891,"lon":5.37694,"is_reserved":false,"is_disabled":false,"rental_uris":{"android":"levelo://app?vid=de460d34-bb09-4664-b305-4061da085597","ios":"levelo://app?vid=de460d34-bb09-4664-b305-4061da085597"},"vehicle_type_id":"4","last_reported":1691950043,"current_range_meters":19600,"station_id":"","pricing_plan_id":"free"},{"bike_id":"4776d223-119d-4108-819f-9a9b949591b9","system_id":"levelo_inurba_marseille","lat":43.315293,"lon":5.380349,"is_reserved":false,"is_disabled":false,"rental_uris":{"android":"levelo://app?vid=4776d223-119d-4108-819f-9a9b949591b9","ios":"levelo://app?vid=4776d223-119d-4108-819f-9a9b949591b9"},"vehicle_type_id":"4","last_reported":1691950043,"current_range_meters":23200,"station_id":"ce4bhsp2rcd13ifvqi50","pricing_plan_id":"free"},{"bike_id":"061c8d67-017d-436c-a69d-4739d7109d5f","system_id":"levelo_inurba_marseille","lat":43.315293,"lon":5.380349,"is_reserved":false,"is_disabled":false,"rental_uris":{"android":"levelo://app?vid=061c8d67-017d-436c-a69d-4739d7109d5f","ios":"levelo://app?vid=061c8d67-017d-436c-a69d-4739d7109d5f"},"vehicle_type_id":"4","last_reported":1691950043,"current_range_meters":11600,"station_id":"ce4bhsp2rcd13ifvqi50","pricing_plan_id":"free"},{"bike_id":"d625d531-5034-474b-abb4-6df6deb493be","system_id":"levelo_inurba_marseille","lat":43.31538,"lon":5.38019,"is_reserved":false,"is_disabled":false,"rental_uris":{"android":"levelo://app?vid=d625d531-5034-474b-abb4-6df6deb493be","ios":"levelo://app?vid=d625d531-5034-474b-abb4-6df6deb493be"},"vehicle_type_id":"4","last_reported":1691950043,"current_range_meters":15600,"station_id":"ce4bhsp2rcd13ifvqi50","pricing_plan_id":"free"},{"bike_id":"91a1afbf-ecd7-44d6-a6a6-d4716539f2f2","system_id":"levelo_inurba_marseille","lat":43.315293,"lon":5.380349,"is_reserved":false,"is_disabled":false,"rental_uris":{"android":"levelo://app?vid=91a1afbf-ecd7-44d6-a6a6-d4716539f2f2","ios":"levelo://app?vid=91a1afbf-ecd7-44d6-a6a6-d4716539f2f2"},"vehicle_type_id":"4","last_reported":1691950043,"current_range_meters":20800,"station_id":"ce4bhsp2rcd13ifvqi50","pricing_plan_id":"free"},{"bike_id":"1d4001ce-b10f-4932-8cf8-d78ab4da1b32","system_id":"levelo_inurba_marseille","lat":43.315293,"lon":5.380349,"is_reserved":false,"is_disabled":false,"rental_uris":{"android":"levelo://app?vid=1d4001ce-b10f-4932-8cf8-d78ab4da1b32","ios":"levelo://app?vid=1d4001ce-b10f-4932-8cf8-d78ab4da1b32"},"vehicle_type_id":"4","last_reported":1691950043,"current_range_meters":12800,"station_id":"ce4bhsp2rcd13ifvqi50","pricing_plan_id":"free"},{"bike_id":"b5698e6e-13cb-4874-a1f7-a559392d3af4","system_id":"levelo_inurba_marseille","lat":43.315293,"lon":5.380349,"is_reserved":false,"is_disabled":false,"rental_uris":{"android":"levelo://app?vid=b5698e6e-13cb-4874-a1f7-a559392d3af4","ios":"levelo://app?vid=b5698e6e-13cb-4874-a1f7-a559392d3af4"},"vehicle_type_id":"4","last_reported":1691950043,"current_range_meters":30800,"station_id":"ce4bhsp2rcd13ifvqi50","pricing_plan_id":"free"},{"bike_id":"6a0232fa-80b1-4833-b4f3-d079d6504d6f","system_id":"levelo_inurba_marseille","lat":43.31536,"lon":5.38025,"is_reserved":false,"is_disabled":false,"rental_uris":{"android":"levelo://app?vid=6a0232fa-80b1-4833-b4f3-d079d6504d6f","ios":"levelo://app?vid=6a0232fa-80b1-4833-b4f3-d079d6504d6f"},"vehicle_type_id":"4","last_reported":1691950043,"current_range_meters":26400,"station_id":"ce4bhsp2rcd13ifvqi50","pricing_plan_id":"free"},{"bike_id":"8c12ea8d-a36f-4d35-b5a5-64cc158eff9f","system_id":"levelo_inurba_marseille","lat":43.31541,"lon":5.38025,"is_reserved":false,"is_disabled":false,"rental_uris":{"android":"levelo://app?vid=8c12ea8d-a36f-4d35-b5a5-64cc158eff9f","ios":"levelo://app?vid=8c12ea8d-a36f-4d35-b5a5-64cc158eff9f"},"vehicle_type_id":"4","last_reported":1691950043,"current_range_meters":6400,"station_id":"ce4bhsp2rcd13ifvqi50","pricing_plan_id":"free"},{"bike_id":"e00290c8-1d56-4e61-b8dc-949a9f696918","system_id":"levelo_inurba_marseille","lat":43.315293,"lon":5.380349,"is_reserved":false,"is_disabled":false,"rental_uris":{"android":"levelo://app?vid=e00290c8-1d56-4e61-b8dc-949a9f696918","ios":"levelo://app?vid=e00290c8-1d56-4e61-b8dc-949a9f696918"},"vehicle_type_id":"4","last_reported":1691950043,"current_range_meters":4800,"station_id":"ce4bhsp2rcd13ifvqi50","pricing_plan_id":"free"},{"bike_id":"ee65936e-c51d-4ed8-bd5e-f57e6949ba5d","system_id":"levelo_inurba_marseille","lat":43.31538,"lon":5.38037,"is_reserved":false,"is_disabled":false,"rental_uris":{"android":"levelo://app?vid=ee65936e-c51d-4ed8-bd5e-f57e6949ba5d","ios":"levelo://app?vid=ee65936e-c51d-4ed8-bd5e-f57e6949ba5d"},"vehicle_type_id":"4","last_reported":1691950043,"current_range_meters":21600,"station_id":"ce4bhsp2rcd13ifvqi50","pricing_plan_id":"free"},{"bike_id":"0d91cb03-14fa-4afe-9fd9-96cd5a2a737f","system_id":"levelo_inurba_marseille","lat":43.30187,"lon":5.36616,"is_reserved":false,"is_disabled":false,"rental_uris":{"android":"levelo://app?vid=0d91cb03-14fa-4afe-9fd9-96cd5a2a737f","ios":"levelo://app?vid=0d91cb03-14fa-4afe-9fd9-96cd5a2a737f"},"vehicle_type_id":"4","last_reported":1691950043,"current_range_meters":0,"station_id":"ce4bgrh2rcd13ifvqc8g","pricing_plan_id":"free"},{"bike_id":"6f8ef17a-7233-480b-bf5c-0670e618535f","system_id":"levelo_inurba_marseille","lat":43.31997,"lon":5.38136,"is_reserved":false,"is_disabled":false,"rental_uris":{"android":"levelo://app?vid=6f8ef17a-7233-480b-bf5c-0670e618535f","ios":"levelo://app?vid=6f8ef17a-7233-480b-bf5c-0670e618535f"},"vehicle_type_id":"4","last_reported":1691950043,"current_range_meters":30400,"station_id":"ce4bhr12rcd13ifvqhpg","pricing_plan_id":"free"},{"bike_id":"78abbae6-fb70-438b-804f-1c5ad07d176a","system_id":"levelo_inurba_marseille","lat":43.319935,"lon":5.381699,"is_reserved":false,"is_disabled":false,"rental_uris":{"android":"levelo://app?vid=78abbae6-fb70-438b-804f-1c5ad07d176a","ios":"levelo://app?vid=78abbae6-fb70-438b-804f-1c5ad07d176a"},"vehicle_type_id":"4","last_reported":1691950043,"current_range_meters":16400,"station_id":"ce4bhr12rcd13ifvqhpg","pricing_plan_id":"free"},{"bike_id":"10ace6ff-ef76-4b4d-a04f-2ec52dd81c45","system_id":"levelo_inurba_marseille","lat":43.31993,"lon":5.38142,"is_reserved":false,"is_disabled":false,"rental_uris":{"android":"levelo://app?vid=10ace6ff-ef76-4b4d-a04f-2ec52dd81c45","ios":"levelo://app?vid=10ace6ff-ef76-4b4d-a04f-2ec52dd81c45"},"vehicle_type_id":"4","last_reported":1691950043,"current_range_meters":28000,"station_id":"ce4bhr12rcd13ifvqhpg","pricing_plan_id":"free"},{"bike_id":"8257b402-9e5d-4065-83c8-88f3934663dd","system_id":"levelo_inurba_marseille","lat":43.31996,"lon":5.38146,"is_reserved":false,"is_disabled":false,"rental_uris":{"android":"levelo://app?vid=8257b402-9e5d-4065-83c8-88f3934663dd","ios":"levelo://app?vid=8257b402-9e5d-4065-83c8-88f3934663dd"},"vehicle_type_id":"4","last_reported":1691950043,"current_range_meters":24400,"station_id":"ce4bhr12rcd13ifvqhpg","pricing_plan_id":"free"},{"bike_id":"c17c70c2-0b4d-4d13-87b6-0d4475584bb3","system_id":"levelo_inurba_marseille","lat":43.319935,"lon":5.381699,"is_reserved":false,"is_disabled":false,"rental_uris":{"android":"levelo://app?vid=c17c70c2-0b4d-4d13-87b6-0d4475584bb3","ios":"levelo://app?vid=c17c70c2-0b4d-4d13-87b6-0d4475584bb3"},"vehicle_type_id":"4","last_reported":1691950043,"current_range_meters":18000,"station_id":"ce4bhr12rcd13ifvqhpg","pricing_plan_id":"free"},{"bike_id":"7d6cbf53-9f9c-483a-aa70-5d0974268f88","system_id":"levelo_inurba_marseille","lat":43.313571,"lon":5.384829,"is_reserved":false,"is_disabled":false,"rental_uris":{"android":"levelo://app?vid=7d6cbf53-9f9c-483a-aa70-5d0974268f88","ios":"levelo://app?vid=7d6cbf53-9f9c-483a-aa70-5d0974268f88"},"vehicle_type_id":"4","last_reported":1691950043,"current_range_meters":4800,"station_id":"ce4bgt92rcd13ifvqcf0","pricing_plan_id":"free"},{"bike_id":"bf0ebb28-55fb-4f87-bb59-3ee042c40e9f","system_id":"levelo_inurba_marseille","lat":43.313571,"lon":5.384829,"is_reserved":false,"is_disabled":false,"rental_uris":{"android":"levelo://app?vid=bf0ebb28-55fb-4f87-bb59-3ee042c40e9f","ios":"levelo://app?vid=bf0ebb28-55fb-4f87-bb59-3ee042c40e9f"},"vehicle_type_id":"4","last_reported":1691950043,"current_range_meters":14000,"station_id":"ce4bgt92rcd13ifvqcf0","pricing_plan_id":"free"},{"bike_id":"9a9cc946-37db-495b-86ae-bf1f98b58ab8","system_id":"levelo_inurba_marseille","lat":43.30549,"lon":5.38428,"is_reserved":false,"is_disabled":false,"rental_uris":{"android":"levelo://app?vid=9a9cc946-37db-495b-86ae-bf1f98b58ab8","ios":"levelo://app?vid=9a9cc946-37db-495b-86ae-bf1f98b58ab8"},"vehicle_type_id":"4","last_reported":1691950043,"current_range_meters":4800,"station_id":"ce4bgg92rcd13ifvqb30","pricing_plan_id":"free"},{"bike_id":"cb90d932-d68f-4a70-8538-1975cb7ae183","system_id":"levelo_inurba_marseille","lat":43.30532,"lon":5.384198,"is_reserved":false,"is_disabled":false,"rental_uris":{"android":"levelo://app?vid=cb90d932-d68f-4a70-8538-1975cb7ae183","ios":"levelo://app?vid=cb90d932-d68f-4a70-8538-1975cb7ae183"},"vehicle_type_id":"4","last_reported":1691950043,"current_range_meters":12000,"station_id":"","pricing_plan_id":"free"},{"bike_id":"3f717c95-35c0-4480-bf0e-7626f0c8340a","system_id":"levelo_inurba_marseille","lat":43.311722,"lon":5.387247,"is_reserved":false,"is_disabled":false,"rental_uris":{"android":"levelo://app?vid=3f717c95-35c0-4480-bf0e-7626f0c8340a","ios":"levelo://app?vid=3f717c95-35c0-4480-bf0e-7626f0c8340a"},"vehicle_type_id":"4","last_reported":1691950043,"current_range_meters":13600,"station_id":"ce4bgv12rcd13ifvqcp0","pricing_plan_id":"free"},{"bike_id":"0e21fc93-b0a1-4139-a02b-7f28a239e2f3","system_id":"levelo_inurba_marseille","lat":43.297774,"lon":5.370875,"is_reserved":false,"is_disabled":false,"rental_uris":{"android":"levelo://app?vid=0e21fc93-b0a1-4139-a02b-7f28a239e2f3","ios":"levelo://app?vid=0e21fc93-b0a1-4139-a02b-7f28a239e2f3"},"vehicle_type_id":"4","last_reported":1691950043,"current_range_meters":20000,"station_id":"ce4bgop2rcd13ifvqc1g","pricing_plan_id":"free"},{"bike_id":"3de0c75c-7417-48ca-a8e7-c305ccb425a3","system_id":"levelo_inurba_marseille","lat":43.297774,"lon":5.370875,"is_reserved":false,"is_disabled":false,"rental_uris":{"android":"levelo://app?vid=3de0c75c-7417-48ca-a8e7-c305ccb425a3","ios":"levelo://app?vid=3de0c75c-7417-48ca-a8e7-c305ccb425a3"},"vehicle_type_id":"4","last_reported":1691950043,"current_range_meters":8800,"station_id":"ce4bgop2rcd13ifvqc1g","pricing_plan_id":"free"},{"bike_id":"2e341b8a-19ca-467a-9062-4e524deac17d","system_id":"levelo_inurba_marseille","lat":43.32283,"lon":5.38264,"is_reserved":false,"is_disabled":false,"rental_uris":{"android":"levelo://app?vid=2e341b8a-19ca-467a-9062-4e524deac17d","ios":"levelo://app?vid=2e341b8a-19ca-467a-9062-4e524deac17d"},"vehicle_type_id":"4","last_reported":1691950043,"current_range_meters":22800,"station_id":"ce4bhr12rcd13ifvqhqg","pricing_plan_id":"free"},{"bike_id":"de7e422c-72cd-43c3-8ab6-3bd536fd8669","system_id":"levelo_inurba_marseille","lat":43.32296,"lon":5.38249,"is_reserved":false,"is_disabled":false,"rental_uris":{"android":"levelo://app?vid=de7e422c-72cd-43c3-8ab6-3bd536fd8669","ios":"levelo://app?vid=de7e422c-72cd-43c3-8ab6-3bd536fd8669"},"vehicle_type_id":"4","last_reported":1691950043,"current_range_meters":26400,"station_id":"ce4bhr12rcd13ifvqhqg","pricing_plan_id":"free"},{"bike_id":"d3042d76-ddde-40f9-a1f8-5dfd6f7a0500","system_id":"levelo_inurba_marseille","lat":43.32287,"lon":5.3827,"is_reserved":false,"is_disabled":false,"rental_uris":{"android":"levelo://app?vid=d3042d76-ddde-40f9-a1f8-5dfd6f7a0500","ios":"levelo://app?vid=d3042d76-ddde-40f9-a1f8-5dfd6f7a0500"},"vehicle_type_id":"4","last_reported":1691950043,"current_range_meters":15200,"station_id":"ce4bhr12rcd13ifvqhqg","pricing_plan_id":"free"},{"bike_id":"3d75ec31-9bc5-447c-81ba-d21539df621f","system_id":"levelo_inurba_marseille","lat":43.3229,"lon":5.38269,"is_reserved":false,"is_disabled":false,"rental_uris":{"android":"levelo://app?vid=3d75ec31-9bc5-447c-81ba-d21539df621f","ios":"levelo://app?vid=3d75ec31-9bc5-447c-81ba-d21539df621f"},"vehicle_type_id":"4","last_reported":1691950043,"current_range_meters":4400,"station_id":"ce4bhr12rcd13ifvqhqg","pricing_plan_id":"free"},{"bike_id":"2a877c10-47b3-4336-884b-4186f2d4f096","system_id":"levelo_inurba_marseille","lat":43.32293,"lon":5.38266,"is_reserved":false,"is_disabled":false,"rental_uris":{"android":"levelo://app?vid=2a877c10-47b3-4336-884b-4186f2d4f096","ios":"levelo://app?vid=2a877c10-47b3-4336-884b-4186f2d4f096"},"vehicle_type_id":"4","last_reported":1691950043,"current_range_meters":8000,"station_id":"ce4bhr12rcd13ifvqhqg","pricing_plan_id":"free"},{"bike_id":"daf1c66e-67e4-446b-ab69-51ad2a5f2181","system_id":"levelo_inurba_marseille","lat":43.322872,"lon":5.382756,"is_reserved":false,"is_disabled":false,"rental_uris":{"android":"levelo://app?vid=daf1c66e-67e4-446b-ab69-51ad2a5f2181","ios":"levelo://app?vid=daf1c66e-67e4-446b-ab69-51ad2a5f2181"},"vehicle_type_id":"4","last_reported":1691950043,"current_range_meters":21200,"station_id":"ce4bhr12rcd13ifvqhqg","pricing_plan_id":"free"},{"bike_id":"34544adb-53d3-44b1-86f1-bb8bc7dbf546","system_id":"levelo_inurba_marseille","lat":43.32294,"lon":5.38267,"is_reserved":false,"is_disabled":false,"rental_uris":{"android":"levelo://app?vid=34544adb-53d3-44b1-86f1-bb8bc7dbf546","ios":"levelo://app?vid=34544adb-53d3-44b1-86f1-bb8bc7dbf546"},"vehicle_type_id":"4","last_reported":1691950043,"current_range_meters":19600,"station_id":"ce4bhr12rcd13ifvqhqg","pricing_plan_id":"free"},{"bike_id":"ccde4fab-a619-4b85-80d1-631ae22c1186","system_id":"levelo_inurba_marseille","lat":43.32282,"lon":5.38284,"is_reserved":false,"is_disabled":false,"rental_uris":{"android":"levelo://app?vid=ccde4fab-a619-4b85-80d1-631ae22c1186","ios":"levelo://app?vid=ccde4fab-a619-4b85-80d1-631ae22c1186"},"vehicle_type_id":"4","last_reported":1691950043,"current_range_meters":14000,"station_id":"ce4bhr12rcd13ifvqhqg","pricing_plan_id":"free"},{"bike_id":"026ee3db-f828-4ad6-9e78-43e60a812318","system_id":"levelo_inurba_marseille","lat":43.32293,"lon":5.38271,"is_reserved":false,"is_disabled":false,"rental_uris":{"android":"levelo://app?vid=026ee3db-f828-4ad6-9e78-43e60a812318","ios":"levelo://app?vid=026ee3db-f828-4ad6-9e78-43e60a812318"},"vehicle_type_id":"4","last_reported":1691950043,"current_range_meters":14800,"station_id":"ce4bhr12rcd13ifvqhqg","pricing_plan_id":"free"},{"bike_id":"cd57bb78-e25a-4f76-8e50-c045c4859149","system_id":"levelo_inurba_marseille","lat":43.32827,"lon":5.36689,"is_reserved":false,"is_disabled":false,"rental_uris":{"android":"levelo://app?vid=cd57bb78-e25a-4f76-8e50-c045c4859149","ios":"levelo://app?vid=cd57bb78-e25a-4f76-8e50-c045c4859149"},"vehicle_type_id":"4","last_reported":1691950043,"current_range_meters":7600,"station_id":"ce4bhs92rcd13ifvqi0g","pricing_plan_id":"free"},{"bike_id":"53943a50-8d69-4b20-b459-cf6b8dbe01ba","system_id":"levelo_inurba_marseille","lat":43.32828,"lon":5.3667,"is_reserved":false,"is_disabled":false,"rental_uris":{"android":"levelo://app?vid=53943a50-8d69-4b20-b459-cf6b8dbe01ba","ios":"levelo://app?vid=53943a50-8d69-4b20-b459-cf6b8dbe01ba"},"vehicle_type_id":"4","last_reported":1691950043,"current_range_meters":0,"station_id":"ce4bhs92rcd13ifvqi0g","pricing_plan_id":"free"},{"bike_id":"dd789220-e7b5-42c1-b9dc-dc4243148021","system_id":"levelo_inurba_marseille","lat":43.297163,"lon":5.365866,"is_reserved":false,"is_disabled":false,"rental_uris":{"android":"levelo://app?vid=dd789220-e7b5-42c1-b9dc-dc4243148021","ios":"levelo://app?vid=dd789220-e7b5-42c1-b9dc-dc4243148021"},"vehicle_type_id":"4","last_reported":1691950043,"current_range_meters":31600,"station_id":"ce4bgn12rcd13ifvqbt0","pricing_plan_id":"free"},{"bike_id":"fce6e237-2141-4734-a8bd-9542606d913a","system_id":"levelo_inurba_marseille","lat":43.2968,"lon":5.37291,"is_reserved":false,"is_disabled":false,"rental_uris":{"android":"levelo://app?vid=fce6e237-2141-4734-a8bd-9542606d913a","ios":"levelo://app?vid=fce6e237-2141-4734-a8bd-9542606d913a"},"vehicle_type_id":"4","last_reported":1691950043,"current_range_meters":27600,"station_id":"ce4bgk12rcd13ifvqbj0","pricing_plan_id":"free"},{"bike_id":"e50742da-febe-468d-bee8-a64dd117ca3d","system_id":"levelo_inurba_marseille","lat":43.2968,"lon":5.37291,"is_reserved":false,"is_disabled":false,"rental_uris":{"android":"levelo://app?vid=e50742da-febe-468d-bee8-a64dd117ca3d","ios":"levelo://app?vid=e50742da-febe-468d-bee8-a64dd117ca3d"},"vehicle_type_id":"4","last_reported":1691950043,"current_range_meters":18000,"station_id":"ce4bgk12rcd13ifvqbj0","pricing_plan_id":"free"},{"bike_id":"dfe40a5e-1838-4ea0-a555-e3b4f2fd0905","system_id":"levelo_inurba_marseille","lat":43.309589,"lon":5.390258,"is_reserved":false,"is_disabled":false,"rental_uris":{"android":"levelo://app?vid=dfe40a5e-1838-4ea0-a555-e3b4f2fd0905","ios":"levelo://app?vid=dfe40a5e-1838-4ea0-a555-e3b4f2fd0905"},"vehicle_type_id":"4","last_reported":1691950043,"current_range_meters":19600,"station_id":"ce4bgup2rcd13ifvqco0","pricing_plan_id":"free"},{"bike_id":"8b5cfba0-54b2-4a04-962b-0ea98fc8816e","system_id":"levelo_inurba_marseille","lat":43.299028,"lon":5.381509,"is_reserved":false,"is_disabled":false,"rental_uris":{"android":"levelo://app?vid=8b5cfba0-54b2-4a04-962b-0ea98fc8816e","ios":"levelo://app?vid=8b5cfba0-54b2-4a04-962b-0ea98fc8816e"},"vehicle_type_id":"4","last_reported":1691950043,"current_range_meters":3200,"station_id":"ce4bgj12rcd13ifvqbc0","pricing_plan_id":"free"},{"bike_id":"1b05befc-eaa4-47be-a900-19ca8d72c33c","system_id":"levelo_inurba_marseille","lat":43.296921,"lon":5.376579,"is_reserved":false,"is_disabled":false,"rental_uris":{"android":"levelo://app?vid=1b05befc-eaa4-47be-a900-19ca8d72c33c","ios":"levelo://app?vid=1b05befc-eaa4-47be-a900-19ca8d72c33c"},"vehicle_type_id":"4","last_reported":1691950043,"current_range_meters":26000,"station_id":"ce4bgkh2rcd13ifvqbl0","pricing_plan_id":"free"},{"bike_id":"cba627b2-2b84-4350-bc1e-cdf542972d0d","system_id":"levelo_inurba_marseille","lat":43.309589,"lon":5.390258,"is_reserved":false,"is_disabled":false,"rental_uris":{"android":"levelo://app?vid=cba627b2-2b84-4350-bc1e-cdf542972d0d","ios":"levelo://app?vid=cba627b2-2b84-4350-bc1e-cdf542972d0d"},"vehicle_type_id":"4","last_reported":1691950043,"current_range_meters":28800,"station_id":"ce4bgup2rcd13ifvqco0","pricing_plan_id":"free"},{"bike_id":"a3147d59-f7ca-4f81-95d5-13e68e337abb","system_id":"levelo_inurba_marseille","lat":43.309589,"lon":5.390258,"is_reserved":false,"is_disabled":false,"rental_uris":{"android":"levelo://app?vid=a3147d59-f7ca-4f81-95d5-13e68e337abb","ios":"levelo://app?vid=a3147d59-f7ca-4f81-95d5-13e68e337abb"},"vehicle_type_id":"4","last_reported":1691950043,"current_range_meters":7600,"station_id":"ce4bgup2rcd13ifvqco0","pricing_plan_id":"free"},{"bike_id":"937e0da5-5ccd-4c81-b3e9-141c062b145b","system_id":"levelo_inurba_marseille","lat":43.31762,"lon":5.39005,"is_reserved":false,"is_disabled":false,"rental_uris":{"android":"levelo://app?vid=937e0da5-5ccd-4c81-b3e9-141c062b145b","ios":"levelo://app?vid=937e0da5-5ccd-4c81-b3e9-141c062b145b"},"vehicle_type_id":"4","last_reported":1691950043,"current_range_meters":2000,"station_id":"","pricing_plan_id":"free"},{"bike_id":"08959ba9-573b-47a9-bd97-09b0f92f16f4","system_id":"levelo_inurba_marseille","lat":43.317557,"lon":5.390173,"is_reserved":false,"is_disabled":false,"rental_uris":{"android":"levelo://app?vid=08959ba9-573b-47a9-bd97-09b0f92f16f4","ios":"levelo://app?vid=08959ba9-573b-47a9-bd97-09b0f92f16f4"},"vehicle_type_id":"4","last_reported":1691950043,"current_range_meters":1600,"station_id":"ce4bhqp2rcd13ifvqhng","pricing_plan_id":"free"},{"bike_id":"017ed09b-7e6c-410a-b0bd-ab3c482abd60","system_id":"levelo_inurba_marseille","lat":43.317557,"lon":5.390173,"is_reserved":false,"is_disabled":false,"rental_uris":{"android":"levelo://app?vid=017ed09b-7e6c-410a-b0bd-ab3c482abd60","ios":"levelo://app?vid=017ed09b-7e6c-410a-b0bd-ab3c482abd60"},"vehicle_type_id":"4","last_reported":1691950043,"current_range_meters":24800,"station_id":"ce4bhqp2rcd13ifvqhng","pricing_plan_id":"free"},{"bike_id":"94300d13-627d-40bc-a5c5-c1ea69f104e0","system_id":"levelo_inurba_marseille","lat":43.29582,"lon":5.37363,"is_reserved":false,"is_disabled":false,"rental_uris":{"android":"levelo://app?vid=94300d13-627d-40bc-a5c5-c1ea69f104e0","ios":"levelo://app?vid=94300d13-627d-40bc-a5c5-c1ea69f104e0"},"vehicle_type_id":"4","last_reported":1691950043,"current_range_meters":24400,"station_id":"","pricing_plan_id":"free"},{"bike_id":"42819a22-e879-4046-984a-b63fdb30d7e1","system_id":"levelo_inurba_marseille","lat":43.304278,"lon":5.388868,"is_reserved":false,"is_disabled":false,"rental_uris":{"android":"levelo://app?vid=42819a22-e879-4046-984a-b63fdb30d7e1","ios":"levelo://app?vid=42819a22-e879-4046-984a-b63fdb30d7e1"},"vehicle_type_id":"4","last_reported":1691950043,"current_range_meters":12800,"station_id":"ce4bgk12rcd13ifvqbi0","pricing_plan_id":"free"},{"bike_id":"81d9a6ba-ac32-470c-a6e5-1f9ad70f03e4","system_id":"levelo_inurba_marseille","lat":43.304278,"lon":5.388868,"is_reserved":false,"is_disabled":false,"rental_uris":{"android":"levelo://app?vid=81d9a6ba-ac32-470c-a6e5-1f9ad70f03e4","ios":"levelo://app?vid=81d9a6ba-ac32-470c-a6e5-1f9ad70f03e4"},"vehicle_type_id":"4","last_reported":1691950043,"current_range_meters":2000,"station_id":"ce4bgk12rcd13ifvqbi0","pricing_plan_id":"free"},{"bike_id":"d12ffa89-147a-452d-9590-5a4f3e226dcc","system_id":"levelo_inurba_marseille","lat":43.29571,"lon":5.37497,"is_reserved":false,"is_disabled":false,"rental_uris":{"android":"levelo://app?vid=d12ffa89-147a-452d-9590-5a4f3e226dcc","ios":"levelo://app?vid=d12ffa89-147a-452d-9590-5a4f3e226dcc"},"vehicle_type_id":"4","last_reported":1691950043,"current_range_meters":8400,"station_id":"ce4bgh92rcd13ifvqb50","pricing_plan_id":"free"},{"bike_id":"3b6cdbf5-c9a8-43bb-ae3a-a88654a0ffdf","system_id":"levelo_inurba_marseille","lat":43.30429,"lon":5.38878,"is_reserved":false,"is_disabled":false,"rental_uris":{"android":"levelo://app?vid=3b6cdbf5-c9a8-43bb-ae3a-a88654a0ffdf","ios":"levelo://app?vid=3b6cdbf5-c9a8-43bb-ae3a-a88654a0ffdf"},"vehicle_type_id":"4","last_reported":1691950043,"current_range_meters":9200,"station_id":"ce4bgk12rcd13ifvqbi0","pricing_plan_id":"free"},{"bike_id":"a4df99ce-0488-49dd-a888-94686f562e88","system_id":"levelo_inurba_marseille","lat":43.295748,"lon":5.37522,"is_reserved":false,"is_disabled":false,"rental_uris":{"android":"levelo://app?vid=a4df99ce-0488-49dd-a888-94686f562e88","ios":"levelo://app?vid=a4df99ce-0488-49dd-a888-94686f562e88"},"vehicle_type_id":"4","last_reported":1691950043,"current_range_meters":28000,"station_id":"ce4bgh92rcd13ifvqb50","pricing_plan_id":"free"},{"bike_id":"4b67e014-8f88-4d8f-9e35-857494b0f917","system_id":"levelo_inurba_marseille","lat":43.296277,"lon":5.377108,"is_reserved":false,"is_disabled":false,"rental_uris":{"android":"levelo://app?vid=4b67e014-8f88-4d8f-9e35-857494b0f917","ios":"levelo://app?vid=4b67e014-8f88-4d8f-9e35-857494b0f917"},"vehicle_type_id":"4","last_reported":1691950043,"current_range_meters":17200,"station_id":"ce4bgi92rcd13ifvqb90","pricing_plan_id":"free"},{"bike_id":"f9217360-b620-4b28-89aa-d95c0b2f690a","system_id":"levelo_inurba_marseille","lat":43.296263,"lon":5.377094,"is_reserved":false,"is_disabled":false,"rental_uris":{"android":"levelo://app?vid=f9217360-b620-4b28-89aa-d95c0b2f690a","ios":"levelo://app?vid=f9217360-b620-4b28-89aa-d95c0b2f690a"},"vehicle_type_id":"4","last_reported":1691950043,"current_range_meters":0,"station_id":"ce4bgi92rcd13ifvqb90","pricing_plan_id":"free"},{"bike_id":"d659969f-c17e-417c-aec7-80be38b7da8c","system_id":"levelo_inurba_marseille","lat":43.2977,"lon":5.38152,"is_reserved":false,"is_disabled":false,"rental_uris":{"android":"levelo://app?vid=d659969f-c17e-417c-aec7-80be38b7da8c","ios":"levelo://app?vid=d659969f-c17e-417c-aec7-80be38b7da8c"},"vehicle_type_id":"4","last_reported":1691950043,"current_range_meters":4000,"station_id":"ce4bgip2rcd13ifvqbb0","pricing_plan_id":"free"},{"bike_id":"8e4b94e9-ef5a-4fa8-8baa-05546714f60a","system_id":"levelo_inurba_marseille","lat":43.29539,"lon":5.37554,"is_reserved":false,"is_disabled":false,"rental_uris":{"android":"levelo://app?vid=8e4b94e9-ef5a-4fa8-8baa-05546714f60a","ios":"levelo://app?vid=8e4b94e9-ef5a-4fa8-8baa-05546714f60a"},"vehicle_type_id":"4","last_reported":1691950043,"current_range_meters":2400,"station_id":"ce4bgkp2rcd13ifvqbmg","pricing_plan_id":"free"},{"bike_id":"baf1d6c4-9775-4816-b853-de8dda754430","system_id":"levelo_inurba_marseille","lat":43.29973,"lon":5.3849,"is_reserved":false,"is_disabled":false,"rental_uris":{"android":"levelo://app?vid=baf1d6c4-9775-4816-b853-de8dda754430","ios":"levelo://app?vid=baf1d6c4-9775-4816-b853-de8dda754430"},"vehicle_type_id":"4","last_reported":1691950043,"current_range_meters":9600,"station_id":"ce4bgj92rcd13ifvqbd0","pricing_plan_id":"free"},{"bike_id":"bafa6ba2-33f7-4c52-b557-a019907d2746","system_id":"levelo_inurba_marseille","lat":43.299717,"lon":5.384845,"is_reserved":false,"is_disabled":false,"rental_uris":{"android":"levelo://app?vid=bafa6ba2-33f7-4c52-b557-a019907d2746","ios":"levelo://app?vid=bafa6ba2-33f7-4c52-b557-a019907d2746"},"vehicle_type_id":"4","last_reported":1691950043,"current_range_meters":7600,"station_id":"ce4bgj92rcd13ifvqbd0","pricing_plan_id":"free"},{"bike_id":"3bd7a96a-4b01-442f-89a9-23daa6688275","system_id":"levelo_inurba_marseille","lat":43.32367,"lon":5.388836,"is_reserved":false,"is_disabled":false,"rental_uris":{"android":"levelo://app?vid=3bd7a96a-4b01-442f-89a9-23daa6688275","ios":"levelo://app?vid=3bd7a96a-4b01-442f-89a9-23daa6688275"},"vehicle_type_id":"4","last_reported":1691950043,"current_range_meters":16400,"station_id":"ce4bhqp2rcd13ifvqhog","pricing_plan_id":"free"},{"bike_id":"cee70c3b-2c01-41c8-8062-9eaa900d90a1","system_id":"levelo_inurba_marseille","lat":43.29602,"lon":5.381084,"is_reserved":false,"is_disabled":false,"rental_uris":{"android":"levelo://app?vid=cee70c3b-2c01-41c8-8062-9eaa900d90a1","ios":"levelo://app?vid=cee70c3b-2c01-41c8-8062-9eaa900d90a1"},"vehicle_type_id":"4","last_reported":1691950043,"current_range_meters":22000,"station_id":"ce4bgl12rcd13ifvqbo0","pricing_plan_id":"free"},{"bike_id":"c5131781-16c4-486a-93fd-d69eed0278c5","system_id":"levelo_inurba_marseille","lat":43.293249,"lon":5.371578,"is_reserved":false,"is_disabled":false,"rental_uris":{"android":"levelo://app?vid=c5131781-16c4-486a-93fd-d69eed0278c5","ios":"levelo://app?vid=c5131781-16c4-486a-93fd-d69eed0278c5"},"vehicle_type_id":"4","last_reported":1691950043,"current_range_meters":0,"station_id":"ce4bgh92rcd13ifvqb40","pricing_plan_id":"free"},{"bike_id":"9af4c0aa-67fd-4c4f-a7c3-7aa72f242322","system_id":"levelo_inurba_marseille","lat":43.29302,"lon":5.37174,"is_reserved":false,"is_disabled":false,"rental_uris":{"android":"levelo://app?vid=9af4c0aa-67fd-4c4f-a7c3-7aa72f242322","ios":"levelo://app?vid=9af4c0aa-67fd-4c4f-a7c3-7aa72f242322"},"vehicle_type_id":"4","last_reported":1691950043,"current_range_meters":0,"station_id":"ce4bgh92rcd13ifvqb40","pricing_plan_id":"free"},{"bike_id":"dbe406a0-e31d-4174-932b-0d8d584d17c2","system_id":"levelo_inurba_marseille","lat":43.292749,"lon":5.368398,"is_reserved":false,"is_disabled":false,"rental_uris":{"android":"levelo://app?vid=dbe406a0-e31d-4174-932b-0d8d584d17c2","ios":"levelo://app?vid=dbe406a0-e31d-4174-932b-0d8d584d17c2"},"vehicle_type_id":"4","last_reported":1691950043,"current_range_meters":30800,"station_id":"ce4bhbp2rcd13ifvqesg","pricing_plan_id":"free"},{"bike_id":"d24177bb-4b0c-4b50-8bbc-4bf6349bbc4b","system_id":"levelo_inurba_marseille","lat":43.293009,"lon":5.374584,"is_reserved":false,"is_disabled":false,"rental_uris":{"android":"levelo://app?vid=d24177bb-4b0c-4b50-8bbc-4bf6349bbc4b","ios":"levelo://app?vid=d24177bb-4b0c-4b50-8bbc-4bf6349bbc4b"},"vehicle_type_id":"4","last_reported":1691950043,"current_range_meters":8400,"station_id":"ce4bgi12rcd13ifvqb70","pricing_plan_id":"free"},{"bike_id":"28dc7125-96a7-42c2-a11b-1b3f7e7c434d","system_id":"levelo_inurba_marseille","lat":43.293009,"lon":5.374584,"is_reserved":false,"is_disabled":false,"rental_uris":{"android":"levelo://app?vid=28dc7125-96a7-42c2-a11b-1b3f7e7c434d","ios":"levelo://app?vid=28dc7125-96a7-42c2-a11b-1b3f7e7c434d"},"vehicle_type_id":"4","last_reported":1691950043,"current_range_meters":5600,"station_id":"ce4bgi12rcd13ifvqb70","pricing_plan_id":"free"},{"bike_id":"c70f94ec-90f3-4826-ae52-fa3e29f12fa9","system_id":"levelo_inurba_marseille","lat":43.305994,"lon":5.393687,"is_reserved":false,"is_disabled":false,"rental_uris":{"android":"levelo://app?vid=c70f94ec-90f3-4826-ae52-fa3e29f12fa9","ios":"levelo://app?vid=c70f94ec-90f3-4826-ae52-fa3e29f12fa9"},"vehicle_type_id":"4","last_reported":1691950043,"current_range_meters":14400,"station_id":"ce4bh0p2rcd13ifvqd80","pricing_plan_id":"free"},{"bike_id":"9021a03a-3a8b-4b4e-8f33-70662830833b","system_id":"levelo_inurba_marseille","lat":43.293009,"lon":5.374584,"is_reserved":false,"is_disabled":false,"rental_uris":{"android":"levelo://app?vid=9021a03a-3a8b-4b4e-8f33-70662830833b","ios":"levelo://app?vid=9021a03a-3a8b-4b4e-8f33-70662830833b"},"vehicle_type_id":"4","last_reported":1691950043,"current_range_meters":1200,"station_id":"ce4bgi12rcd13ifvqb70","pricing_plan_id":"free"},{"bike_id":"20e4c415-63e3-4afe-bb8a-d90daf568d96","system_id":"levelo_inurba_marseille","lat":43.293009,"lon":5.374584,"is_reserved":false,"is_disabled":false,"rental_uris":{"android":"levelo://app?vid=20e4c415-63e3-4afe-bb8a-d90daf568d96","ios":"levelo://app?vid=20e4c415-63e3-4afe-bb8a-d90daf568d96"},"vehicle_type_id":"4","last_reported":1691950043,"current_range_meters":18400,"station_id":"ce4bgi12rcd13ifvqb70","pricing_plan_id":"free"},{"bike_id":"1a630ef5-c2fb-4b86-9ee4-7b0d41c15000","system_id":"levelo_inurba_marseille","lat":43.293009,"lon":5.374584,"is_reserved":false,"is_disabled":false,"rental_uris":{"android":"levelo://app?vid=1a630ef5-c2fb-4b86-9ee4-7b0d41c15000","ios":"levelo://app?vid=1a630ef5-c2fb-4b86-9ee4-7b0d41c15000"},"vehicle_type_id":"4","last_reported":1691950043,"current_range_meters":23200,"station_id":"ce4bgi12rcd13ifvqb70","pricing_plan_id":"free"},{"bike_id":"30b75f38-6149-41d7-8581-cee7f7a7dd05","system_id":"levelo_inurba_marseille","lat":43.305994,"lon":5.393687,"is_reserved":false,"is_disabled":false,"rental_uris":{"android":"levelo://app?vid=30b75f38-6149-41d7-8581-cee7f7a7dd05","ios":"levelo://app?vid=30b75f38-6149-41d7-8581-cee7f7a7dd05"},"vehicle_type_id":"4","last_reported":1691950043,"current_range_meters":27200,"station_id":"ce4bh0p2rcd13ifvqd80","pricing_plan_id":"free"},{"bike_id":"6e347a21-4a2b-474d-8b49-6c9e0d8da918","system_id":"levelo_inurba_marseille","lat":43.30314,"lon":5.39207,"is_reserved":false,"is_disabled":false,"rental_uris":{"android":"levelo://app?vid=6e347a21-4a2b-474d-8b49-6c9e0d8da918","ios":"levelo://app?vid=6e347a21-4a2b-474d-8b49-6c9e0d8da918"},"vehicle_type_id":"4","last_reported":1691950043,"current_range_meters":23600,"station_id":"ce4bgkh2rcd13ifvqbk0","pricing_plan_id":"free"},{"bike_id":"e7db246d-c5a1-4781-ae31-34a08ebef1d1","system_id":"levelo_inurba_marseille","lat":43.302992,"lon":5.392136,"is_reserved":false,"is_disabled":false,"rental_uris":{"android":"levelo://app?vid=e7db246d-c5a1-4781-ae31-34a08ebef1d1","ios":"levelo://app?vid=e7db246d-c5a1-4781-ae31-34a08ebef1d1"},"vehicle_type_id":"4","last_reported":1691950043,"current_range_meters":400,"station_id":"ce4bgkh2rcd13ifvqbk0","pricing_plan_id":"free"},{"bike_id":"c82fa036-2933-456e-8ec1-f74d00a2d000","system_id":"levelo_inurba_marseille","lat":43.300852,"lon":5.390859,"is_reserved":false,"is_disabled":false,"rental_uris":{"android":"levelo://app?vid=c82fa036-2933-456e-8ec1-f74d00a2d000","ios":"levelo://app?vid=c82fa036-2933-456e-8ec1-f74d00a2d000"},"vehicle_type_id":"4","last_reported":1691950043,"current_range_meters":9600,"station_id":"ce4bh192rcd13ifvqdb0","pricing_plan_id":"free"},{"bike_id":"602915af-dbbe-412f-9dda-575a64097970","system_id":"levelo_inurba_marseille","lat":43.292663,"lon":5.376394,"is_reserved":false,"is_disabled":false,"rental_uris":{"android":"levelo://app?vid=602915af-dbbe-412f-9dda-575a64097970","ios":"levelo://app?vid=602915af-dbbe-412f-9dda-575a64097970"},"vehicle_type_id":"4","last_reported":1691950043,"current_range_meters":1600,"station_id":"ce4bgi12rcd13ifvqb80","pricing_plan_id":"free"},{"bike_id":"892981db-b49f-4f30-93fb-8ee28ed1511d","system_id":"levelo_inurba_marseille","lat":43.292663,"lon":5.376389,"is_reserved":false,"is_disabled":false,"rental_uris":{"android":"levelo://app?vid=892981db-b49f-4f30-93fb-8ee28ed1511d","ios":"levelo://app?vid=892981db-b49f-4f30-93fb-8ee28ed1511d"},"vehicle_type_id":"4","last_reported":1691950043,"current_range_meters":24800,"station_id":"ce4bgi12rcd13ifvqb80","pricing_plan_id":"free"},{"bike_id":"e194cd81-c181-41d5-9e6e-269d174078ac","system_id":"levelo_inurba_marseille","lat":43.298764,"lon":5.388973,"is_reserved":false,"is_disabled":false,"rental_uris":{"android":"levelo://app?vid=e194cd81-c181-41d5-9e6e-269d174078ac","ios":"levelo://app?vid=e194cd81-c181-41d5-9e6e-269d174078ac"},"vehicle_type_id":"4","last_reported":1691950043,"current_range_meters":1600,"station_id":"ce4bh392rcd13ifvqdl0","pricing_plan_id":"free"},{"bike_id":"9e4e4cf2-160f-436a-8129-ec757026e734","system_id":"levelo_inurba_marseille","lat":43.291675,"lon":5.371583,"is_reserved":false,"is_disabled":false,"rental_uris":{"android":"levelo://app?vid=9e4e4cf2-160f-436a-8129-ec757026e734","ios":"levelo://app?vid=9e4e4cf2-160f-436a-8129-ec757026e734"},"vehicle_type_id":"4","last_reported":1691950043,"current_range_meters":26000,"station_id":"ce4bha92rcd13ifvqeh0","pricing_plan_id":"free"},{"bike_id":"58bbc7eb-943c-457a-9a6f-c38ea86d36af","system_id":"levelo_inurba_marseille","lat":43.291675,"lon":5.371583,"is_reserved":false,"is_disabled":false,"rental_uris":{"android":"levelo://app?vid=58bbc7eb-943c-457a-9a6f-c38ea86d36af","ios":"levelo://app?vid=58bbc7eb-943c-457a-9a6f-c38ea86d36af"},"vehicle_type_id":"4","last_reported":1691950043,"current_range_meters":20000,"station_id":"ce4bha92rcd13ifvqeh0","pricing_plan_id":"free"},{"bike_id":"88555eeb-2832-4fa8-9606-5e5af608adab","system_id":"levelo_inurba_marseille","lat":43.31309,"lon":5.39676,"is_reserved":false,"is_disabled":false,"rental_uris":{"android":"levelo://app?vid=88555eeb-2832-4fa8-9606-5e5af608adab","ios":"levelo://app?vid=88555eeb-2832-4fa8-9606-5e5af608adab"},"vehicle_type_id":"4","last_reported":1691950043,"current_range_meters":7200,"station_id":"ce4bgvp2rcd13ifvqcu0","pricing_plan_id":"free"},{"bike_id":"35187cd7-8d2d-4ef8-9189-b86b7dbd7881","system_id":"levelo_inurba_marseille","lat":43.31328,"lon":5.39681,"is_reserved":false,"is_disabled":false,"rental_uris":{"android":"levelo://app?vid=35187cd7-8d2d-4ef8-9189-b86b7dbd7881","ios":"levelo://app?vid=35187cd7-8d2d-4ef8-9189-b86b7dbd7881"},"vehicle_type_id":"4","last_reported":1691950043,"current_range_meters":18800,"station_id":"ce4bgvp2rcd13ifvqcu0","pricing_plan_id":"free"},{"bike_id":"9fa75bb3-ad35-46fc-b003-c78325c3e1ba","system_id":"levelo_inurba_marseille","lat":43.31324,"lon":5.39694,"is_reserved":false,"is_disabled":false,"rental_uris":{"android":"levelo://app?vid=9fa75bb3-ad35-46fc-b003-c78325c3e1ba","ios":"levelo://app?vid=9fa75bb3-ad35-46fc-b003-c78325c3e1ba"},"vehicle_type_id":"4","last_reported":1691950043,"current_range_meters":9200,"station_id":"ce4bgvp2rcd13ifvqcu0","pricing_plan_id":"free"},{"bike_id":"218ea80a-4247-4324-b6ce-9eea21254b4f","system_id":"levelo_inurba_marseille","lat":43.31328,"lon":5.39696,"is_reserved":false,"is_disabled":false,"rental_uris":{"android":"levelo://app?vid=218ea80a-4247-4324-b6ce-9eea21254b4f","ios":"levelo://app?vid=218ea80a-4247-4324-b6ce-9eea21254b4f"},"vehicle_type_id":"4","last_reported":1691950043,"current_range_meters":4400,"station_id":"ce4bgvp2rcd13ifvqcu0","pricing_plan_id":"free"},{"bike_id":"08f36a47-45da-4d29-86e5-e9dc14e46560","system_id":"levelo_inurba_marseille","lat":43.309038,"lon":5.396546,"is_reserved":false,"is_disabled":false,"rental_uris":{"android":"levelo://app?vid=08f36a47-45da-4d29-86e5-e9dc14e46560","ios":"levelo://app?vid=08f36a47-45da-4d29-86e5-e9dc14e46560"},"vehicle_type_id":"4","last_reported":1691950043,"current_range_meters":22000,"station_id":"ce4bh012rcd13ifvqcv0","pricing_plan_id":"free"},{"bike_id":"3ed159c2-505b-4261-9cd8-91077750c05e","system_id":"levelo_inurba_marseille","lat":43.29529,"lon":5.385581,"is_reserved":false,"is_disabled":false,"rental_uris":{"android":"levelo://app?vid=3ed159c2-505b-4261-9cd8-91077750c05e","ios":"levelo://app?vid=3ed159c2-505b-4261-9cd8-91077750c05e"},"vehicle_type_id":"4","last_reported":1691950043,"current_range_meters":4000,"station_id":"ce4bgih2rcd13ifvqba0","pricing_plan_id":"free"},{"bike_id":"fa7f2d8c-f787-4db0-84f4-6a16f7c21aa8","system_id":"levelo_inurba_marseille","lat":43.29529,"lon":5.385581,"is_reserved":false,"is_disabled":false,"rental_uris":{"android":"levelo://app?vid=fa7f2d8c-f787-4db0-84f4-6a16f7c21aa8","ios":"levelo://app?vid=fa7f2d8c-f787-4db0-84f4-6a16f7c21aa8"},"vehicle_type_id":"4","last_reported":1691950043,"current_range_meters":15600,"station_id":"ce4bgih2rcd13ifvqba0","pricing_plan_id":"free"},{"bike_id":"c1a7c044-aa01-4f6a-bd65-2801e1421cf1","system_id":"levelo_inurba_marseille","lat":43.302008,"lon":5.394694,"is_reserved":false,"is_disabled":false,"rental_uris":{"android":"levelo://app?vid=c1a7c044-aa01-4f6a-bd65-2801e1421cf1","ios":"levelo://app?vid=c1a7c044-aa01-4f6a-bd65-2801e1421cf1"},"vehicle_type_id":"4","last_reported":1691950043,"current_range_meters":0,"station_id":"ce4bh0p2rcd13ifvqd70","pricing_plan_id":"free"},{"bike_id":"73b5b8b9-5441-4a4b-958b-7c9b836d92e7","system_id":"levelo_inurba_marseille","lat":43.294153,"lon":5.386305,"is_reserved":false,"is_disabled":false,"rental_uris":{"android":"levelo://app?vid=73b5b8b9-5441-4a4b-958b-7c9b836d92e7","ios":"levelo://app?vid=73b5b8b9-5441-4a4b-958b-7c9b836d92e7"},"vehicle_type_id":"4","last_reported":1691950043,"current_range_meters":0,"station_id":"ce4bh2h2rcd13ifvqdh0","pricing_plan_id":"free"},{"bike_id":"29988db2-922f-4d46-90f8-2e074943bd73","system_id":"levelo_inurba_marseille","lat":43.29416,"lon":5.38628,"is_reserved":false,"is_disabled":false,"rental_uris":{"android":"levelo://app?vid=29988db2-922f-4d46-90f8-2e074943bd73","ios":"levelo://app?vid=29988db2-922f-4d46-90f8-2e074943bd73"},"vehicle_type_id":"4","last_reported":1691950043,"current_range_meters":5600,"station_id":"ce4bh2h2rcd13ifvqdh0","pricing_plan_id":"free"},{"bike_id":"7b9beed0-ed42-4d9b-994e-aedb19ed78cc","system_id":"levelo_inurba_marseille","lat":43.292642,"lon":5.384254,"is_reserved":false,"is_disabled":false,"rental_uris":{"android":"levelo://app?vid=7b9beed0-ed42-4d9b-994e-aedb19ed78cc","ios":"levelo://app?vid=7b9beed0-ed42-4d9b-994e-aedb19ed78cc"},"vehicle_type_id":"4","last_reported":1691950043,"current_range_meters":0,"station_id":"ce4bh692rcd13ifvqea0","pricing_plan_id":"free"},{"bike_id":"12d2db94-36ea-4709-9bbe-f1155afd9e3c","system_id":"levelo_inurba_marseille","lat":43.292642,"lon":5.384254,"is_reserved":false,"is_disabled":false,"rental_uris":{"android":"levelo://app?vid=12d2db94-36ea-4709-9bbe-f1155afd9e3c","ios":"levelo://app?vid=12d2db94-36ea-4709-9bbe-f1155afd9e3c"},"vehicle_type_id":"4","last_reported":1691950043,"current_range_meters":18000,"station_id":"ce4bh692rcd13ifvqea0","pricing_plan_id":"free"},{"bike_id":"f630d97a-473b-4c60-a0a5-3cf5445ccbcb","system_id":"levelo_inurba_marseille","lat":43.292642,"lon":5.384254,"is_reserved":false,"is_disabled":false,"rental_uris":{"android":"levelo://app?vid=f630d97a-473b-4c60-a0a5-3cf5445ccbcb","ios":"levelo://app?vid=f630d97a-473b-4c60-a0a5-3cf5445ccbcb"},"vehicle_type_id":"4","last_reported":1691950043,"current_range_meters":0,"station_id":"ce4bh692rcd13ifvqea0","pricing_plan_id":"free"},{"bike_id":"69c23820-b8c4-4b33-a6c2-28beb4ed1d2a","system_id":"levelo_inurba_marseille","lat":43.330357,"lon":5.38912,"is_reserved":false,"is_disabled":false,"rental_uris":{"android":"levelo://app?vid=69c23820-b8c4-4b33-a6c2-28beb4ed1d2a","ios":"levelo://app?vid=69c23820-b8c4-4b33-a6c2-28beb4ed1d2a"},"vehicle_type_id":"4","last_reported":1691950043,"current_range_meters":8800,"station_id":"","pricing_plan_id":"free"},{"bike_id":"6442b6c7-ca7c-4053-8cc8-de08ef501135","system_id":"levelo_inurba_marseille","lat":43.33041,"lon":5.38914,"is_reserved":false,"is_disabled":false,"rental_uris":{"android":"levelo://app?vid=6442b6c7-ca7c-4053-8cc8-de08ef501135","ios":"levelo://app?vid=6442b6c7-ca7c-4053-8cc8-de08ef501135"},"vehicle_type_id":"4","last_reported":1691950043,"current_range_meters":31200,"station_id":"ce4bhr92rcd13ifvqhrg","pricing_plan_id":"free"},{"bike_id":"3d4f9485-05e3-4530-850f-dac89566f289","system_id":"levelo_inurba_marseille","lat":43.330457,"lon":5.389242,"is_reserved":false,"is_disabled":false,"rental_uris":{"android":"levelo://app?vid=3d4f9485-05e3-4530-850f-dac89566f289","ios":"levelo://app?vid=3d4f9485-05e3-4530-850f-dac89566f289"},"vehicle_type_id":"4","last_reported":1691950043,"current_range_meters":29600,"station_id":"ce4bhr92rcd13ifvqhrg","pricing_plan_id":"free"},{"bike_id":"9ef4775d-1eef-4f53-b9fa-b7d1ca1a147a","system_id":"levelo_inurba_marseille","lat":43.33048,"lon":5.38921,"is_reserved":false,"is_disabled":false,"rental_uris":{"android":"levelo://app?vid=9ef4775d-1eef-4f53-b9fa-b7d1ca1a147a","ios":"levelo://app?vid=9ef4775d-1eef-4f53-b9fa-b7d1ca1a147a"},"vehicle_type_id":"4","last_reported":1691950043,"current_range_meters":31200,"station_id":"ce4bhr92rcd13ifvqhrg","pricing_plan_id":"free"},{"bike_id":"8f878f28-ac1b-4cce-960b-11748c4b16d3","system_id":"levelo_inurba_marseille","lat":43.330455,"lon":5.389258,"is_reserved":false,"is_disabled":false,"rental_uris":{"android":"levelo://app?vid=8f878f28-ac1b-4cce-960b-11748c4b16d3","ios":"levelo://app?vid=8f878f28-ac1b-4cce-960b-11748c4b16d3"},"vehicle_type_id":"4","last_reported":1691950043,"current_range_meters":29600,"station_id":"ce4bhr92rcd13ifvqhrg","pricing_plan_id":"free"},{"bike_id":"892867ae-c845-473e-87fc-2b3f5701ecf4","system_id":"levelo_inurba_marseille","lat":43.29003,"lon":5.35608,"is_reserved":false,"is_disabled":false,"rental_uris":{"android":"levelo://app?vid=892867ae-c845-473e-87fc-2b3f5701ecf4","ios":"levelo://app?vid=892867ae-c845-473e-87fc-2b3f5701ecf4"},"vehicle_type_id":"4","last_reported":1691950043,"current_range_meters":13600,"station_id":"ce4bhb92rcd13ifvqen0","pricing_plan_id":"free"},{"bike_id":"d92191b5-3897-428d-989c-4b986c7a7e64","system_id":"levelo_inurba_marseille","lat":43.29,"lon":5.35607,"is_reserved":false,"is_disabled":false,"rental_uris":{"android":"levelo://app?vid=d92191b5-3897-428d-989c-4b986c7a7e64","ios":"levelo://app?vid=d92191b5-3897-428d-989c-4b986c7a7e64"},"vehicle_type_id":"4","last_reported":1691950043,"current_range_meters":12800,"station_id":"ce4bhb92rcd13ifvqen0","pricing_plan_id":"free"},{"bike_id":"b196e7c2-39b5-485c-b7d7-2598bdf80c34","system_id":"levelo_inurba_marseille","lat":43.330563,"lon":5.389194,"is_reserved":false,"is_disabled":false,"rental_uris":{"android":"levelo://app?vid=b196e7c2-39b5-485c-b7d7-2598bdf80c34","ios":"levelo://app?vid=b196e7c2-39b5-485c-b7d7-2598bdf80c34"},"vehicle_type_id":"4","last_reported":1691950043,"current_range_meters":28400,"station_id":"ce4bhr92rcd13ifvqhrg","pricing_plan_id":"free"},{"bike_id":"0ac2b7dd-caa0-4a1f-a860-30ce518b34a1","system_id":"levelo_inurba_marseille","lat":43.29106,"lon":5.38154,"is_reserved":false,"is_disabled":false,"rental_uris":{"android":"levelo://app?vid=0ac2b7dd-caa0-4a1f-a860-30ce518b34a1","ios":"levelo://app?vid=0ac2b7dd-caa0-4a1f-a860-30ce518b34a1"},"vehicle_type_id":"4","last_reported":1691950043,"current_range_meters":0,"station_id":"ce4bh512rcd13ifvqe2g","pricing_plan_id":"free"},{"bike_id":"be005e4f-d207-40fd-bd99-241d744b2797","system_id":"levelo_inurba_marseille","lat":43.33084,"lon":5.389,"is_reserved":false,"is_disabled":false,"rental_uris":{"android":"levelo://app?vid=be005e4f-d207-40fd-bd99-241d744b2797","ios":"levelo://app?vid=be005e4f-d207-40fd-bd99-241d744b2797"},"vehicle_type_id":"4","last_reported":1691950043,"current_range_meters":28800,"station_id":"ce4bhr92rcd13ifvqhrg","pricing_plan_id":"free"},{"bike_id":"11059a7b-4bf8-4c42-89ff-b95f6820800a","system_id":"levelo_inurba_marseille","lat":43.289743,"lon":5.378304,"is_reserved":false,"is_disabled":false,"rental_uris":{"android":"levelo://app?vid=11059a7b-4bf8-4c42-89ff-b95f6820800a","ios":"levelo://app?vid=11059a7b-4bf8-4c42-89ff-b95f6820800a"},"vehicle_type_id":"4","last_reported":1691950043,"current_range_meters":15200,"station_id":"ce4bh9p2rcd13ifvqed0","pricing_plan_id":"free"},{"bike_id":"78fb0030-277b-4191-b78f-2207244affaf","system_id":"levelo_inurba_marseille","lat":43.295169,"lon":5.390426,"is_reserved":false,"is_disabled":false,"rental_uris":{"android":"levelo://app?vid=78fb0030-277b-4191-b78f-2207244affaf","ios":"levelo://app?vid=78fb0030-277b-4191-b78f-2207244affaf"},"vehicle_type_id":"4","last_reported":1691950043,"current_range_meters":14000,"station_id":"ce4bh3p2rcd13ifvqdp0","pricing_plan_id":"free"},{"bike_id":"139f5b73-548e-4be2-ab7d-93d2ca094145","system_id":"levelo_inurba_marseille","lat":43.295169,"lon":5.390426,"is_reserved":false,"is_disabled":false,"rental_uris":{"android":"levelo://app?vid=139f5b73-548e-4be2-ab7d-93d2ca094145","ios":"levelo://app?vid=139f5b73-548e-4be2-ab7d-93d2ca094145"},"vehicle_type_id":"4","last_reported":1691950043,"current_range_meters":14000,"station_id":"ce4bh3p2rcd13ifvqdp0","pricing_plan_id":"free"},{"bike_id":"982add29-e854-4305-bba8-9ce8b75865db","system_id":"levelo_inurba_marseille","lat":43.2901,"lon":5.381269,"is_reserved":false,"is_disabled":false,"rental_uris":{"android":"levelo://app?vid=982add29-e854-4305-bba8-9ce8b75865db","ios":"levelo://app?vid=982add29-e854-4305-bba8-9ce8b75865db"},"vehicle_type_id":"4","last_reported":1691950043,"current_range_meters":30000,"station_id":"ce4bh4p2rcd13ifvqe1g","pricing_plan_id":"free"},{"bike_id":"fe9437b9-1641-448f-8cb0-0304bb59d880","system_id":"levelo_inurba_marseille","lat":43.2901,"lon":5.381269,"is_reserved":false,"is_disabled":false,"rental_uris":{"android":"levelo://app?vid=fe9437b9-1641-448f-8cb0-0304bb59d880","ios":"levelo://app?vid=fe9437b9-1641-448f-8cb0-0304bb59d880"},"vehicle_type_id":"4","last_reported":1691950043,"current_range_meters":28400,"station_id":"ce4bh4p2rcd13ifvqe1g","pricing_plan_id":"free"},{"bike_id":"8839d8b5-a0e7-4be5-9c35-5f7fb6fafff8","system_id":"levelo_inurba_marseille","lat":43.29021,"lon":5.38125,"is_reserved":false,"is_disabled":false,"rental_uris":{"android":"levelo://app?vid=8839d8b5-a0e7-4be5-9c35-5f7fb6fafff8","ios":"levelo://app?vid=8839d8b5-a0e7-4be5-9c35-5f7fb6fafff8"},"vehicle_type_id":"4","last_reported":1691950043,"current_range_meters":18800,"station_id":"ce4bh4p2rcd13ifvqe1g","pricing_plan_id":"free"},{"bike_id":"57b85aad-658a-4f8f-ab23-350b8c825a2c","system_id":"levelo_inurba_marseille","lat":43.2901,"lon":5.381269,"is_reserved":false,"is_disabled":false,"rental_uris":{"android":"levelo://app?vid=57b85aad-658a-4f8f-ab23-350b8c825a2c","ios":"levelo://app?vid=57b85aad-658a-4f8f-ab23-350b8c825a2c"},"vehicle_type_id":"4","last_reported":1691950043,"current_range_meters":23600,"station_id":"ce4bh4p2rcd13ifvqe1g","pricing_plan_id":"free"},{"bike_id":"352391d8-6fd5-48d1-8c79-045c32379cf9","system_id":"levelo_inurba_marseille","lat":43.29016,"lon":5.38129,"is_reserved":false,"is_disabled":false,"rental_uris":{"android":"levelo://app?vid=352391d8-6fd5-48d1-8c79-045c32379cf9","ios":"levelo://app?vid=352391d8-6fd5-48d1-8c79-045c32379cf9"},"vehicle_type_id":"4","last_reported":1691950043,"current_range_meters":0,"station_id":"ce4bh4p2rcd13ifvqe1g","pricing_plan_id":"free"},{"bike_id":"e5ee0acf-4e1b-4468-b851-5c089c883a8c","system_id":"levelo_inurba_marseille","lat":43.2901,"lon":5.381269,"is_reserved":false,"is_disabled":false,"rental_uris":{"android":"levelo://app?vid=e5ee0acf-4e1b-4468-b851-5c089c883a8c","ios":"levelo://app?vid=e5ee0acf-4e1b-4468-b851-5c089c883a8c"},"vehicle_type_id":"4","last_reported":1691950043,"current_range_meters":21200,"station_id":"ce4bh4p2rcd13ifvqe1g","pricing_plan_id":"free"},{"bike_id":"7051dbd0-9c0a-4813-8036-e1c913565f50","system_id":"levelo_inurba_marseille","lat":43.309201,"lon":5.401318,"is_reserved":false,"is_disabled":false,"rental_uris":{"android":"levelo://app?vid=7051dbd0-9c0a-4813-8036-e1c913565f50","ios":"levelo://app?vid=7051dbd0-9c0a-4813-8036-e1c913565f50"},"vehicle_type_id":"4","last_reported":1691950043,"current_range_meters":19200,"station_id":"ce4bgvp2rcd13ifvqct0","pricing_plan_id":"free"},{"bike_id":"2dfef5f9-9527-4b28-be83-d791517ecfbe","system_id":"levelo_inurba_marseille","lat":43.292724,"lon":5.401131,"is_reserved":false,"is_disabled":false,"rental_uris":{"android":"levelo://app?vid=2dfef5f9-9527-4b28-be83-d791517ecfbe","ios":"levelo://app?vid=2dfef5f9-9527-4b28-be83-d791517ecfbe"},"vehicle_type_id":"4","last_reported":1691950043,"current_range_meters":10800,"station_id":"ce4bh312rcd13ifvqdk0","pricing_plan_id":"free"},{"bike_id":"f5ba6713-e18d-4444-ae87-2f93c5e3a259","system_id":"levelo_inurba_marseille","lat":43.231794,"lon":5.400052,"is_reserved":false,"is_disabled":false,"rental_uris":{"android":"levelo://app?vid=f5ba6713-e18d-4444-ae87-2f93c5e3a259","ios":"levelo://app?vid=f5ba6713-e18d-4444-ae87-2f93c5e3a259"},"vehicle_type_id":"4","last_reported":1691950043,"current_range_meters":24000,"station_id":"ce4bhn12rcd13ifvqgqg","pricing_plan_id":"free"},{"bike_id":"45184e88-a30b-48ed-9575-37acac1f0ef8","system_id":"levelo_inurba_marseille","lat":43.30642,"lon":5.401031,"is_reserved":false,"is_disabled":false,"rental_uris":{"android":"levelo://app?vid=45184e88-a30b-48ed-9575-37acac1f0ef8","ios":"levelo://app?vid=45184e88-a30b-48ed-9575-37acac1f0ef8"},"vehicle_type_id":"4","last_reported":1691950043,"current_range_meters":25200,"station_id":"ce4bh112rcd13ifvqda0","pricing_plan_id":"free"},{"bike_id":"9e9239ed-497a-4edf-9737-361d2f3258bd","system_id":"levelo_inurba_marseille","lat":43.30642,"lon":5.401031,"is_reserved":false,"is_disabled":false,"rental_uris":{"android":"levelo://app?vid=9e9239ed-497a-4edf-9737-361d2f3258bd","ios":"levelo://app?vid=9e9239ed-497a-4edf-9737-361d2f3258bd"},"vehicle_type_id":"4","last_reported":1691950043,"current_range_meters":18400,"station_id":"ce4bh112rcd13ifvqda0","pricing_plan_id":"free"},{"bike_id":"dd6e5f8a-eeb2-496d-8c78-04736015c632","system_id":"levelo_inurba_marseille","lat":43.30642,"lon":5.401031,"is_reserved":false,"is_disabled":false,"rental_uris":{"android":"levelo://app?vid=dd6e5f8a-eeb2-496d-8c78-04736015c632","ios":"levelo://app?vid=dd6e5f8a-eeb2-496d-8c78-04736015c632"},"vehicle_type_id":"4","last_reported":1691950043,"current_range_meters":0,"station_id":"ce4bh112rcd13ifvqda0","pricing_plan_id":"free"},{"bike_id":"75199276-b705-4ad7-b6a9-49aeaa84628a","system_id":"levelo_inurba_marseille","lat":43.286591,"lon":5.363346,"is_reserved":false,"is_disabled":false,"rental_uris":{"android":"levelo://app?vid=75199276-b705-4ad7-b6a9-49aeaa84628a","ios":"levelo://app?vid=75199276-b705-4ad7-b6a9-49aeaa84628a"},"vehicle_type_id":"4","last_reported":1691950043,"current_range_meters":31600,"station_id":"ce4bhah2rcd13ifvqej0","pricing_plan_id":"free"},{"bike_id":"721c1c9e-49b1-4751-9d7b-125e0539ee40","system_id":"levelo_inurba_marseille","lat":43.286591,"lon":5.363346,"is_reserved":false,"is_disabled":false,"rental_uris":{"android":"levelo://app?vid=721c1c9e-49b1-4751-9d7b-125e0539ee40","ios":"levelo://app?vid=721c1c9e-49b1-4751-9d7b-125e0539ee40"},"vehicle_type_id":"4","last_reported":1691950043,"current_range_meters":9200,"station_id":"ce4bhah2rcd13ifvqej0","pricing_plan_id":"free"},{"bike_id":"915f802e-f31b-4c71-8de0-2a5fc39e5970","system_id":"levelo_inurba_marseille","lat":43.32994,"lon":5.39403,"is_reserved":false,"is_disabled":false,"rental_uris":{"android":"levelo://app?vid=915f802e-f31b-4c71-8de0-2a5fc39e5970","ios":"levelo://app?vid=915f802e-f31b-4c71-8de0-2a5fc39e5970"},"vehicle_type_id":"4","last_reported":1691950043,"current_range_meters":0,"station_id":"","pricing_plan_id":"free"},{"bike_id":"55ff7cb3-cb41-4b62-9b66-a310c41a19b6","system_id":"levelo_inurba_marseille","lat":43.28706,"lon":5.3739,"is_reserved":false,"is_disabled":false,"rental_uris":{"android":"levelo://app?vid=55ff7cb3-cb41-4b62-9b66-a310c41a19b6","ios":"levelo://app?vid=55ff7cb3-cb41-4b62-9b66-a310c41a19b6"},"vehicle_type_id":"4","last_reported":1691950043,"current_range_meters":29200,"station_id":"ce4bh3p2rcd13ifvqdq0","pricing_plan_id":"free"},{"bike_id":"50dffa20-4826-47d4-a15b-819d07e3e9a3","system_id":"levelo_inurba_marseille","lat":43.286961,"lon":5.373785,"is_reserved":false,"is_disabled":false,"rental_uris":{"android":"levelo://app?vid=50dffa20-4826-47d4-a15b-819d07e3e9a3","ios":"levelo://app?vid=50dffa20-4826-47d4-a15b-819d07e3e9a3"},"vehicle_type_id":"4","last_reported":1691950043,"current_range_meters":18000,"station_id":"ce4bh3p2rcd13ifvqdq0","pricing_plan_id":"free"},{"bike_id":"94a09e04-22eb-4113-8bb0-ff6e8456a3a6","system_id":"levelo_inurba_marseille","lat":43.286961,"lon":5.373785,"is_reserved":false,"is_disabled":false,"rental_uris":{"android":"levelo://app?vid=94a09e04-22eb-4113-8bb0-ff6e8456a3a6","ios":"levelo://app?vid=94a09e04-22eb-4113-8bb0-ff6e8456a3a6"},"vehicle_type_id":"4","last_reported":1691950043,"current_range_meters":6400,"station_id":"ce4bh3p2rcd13ifvqdq0","pricing_plan_id":"free"},{"bike_id":"fdd5a930-78f3-4efa-afc3-46a44edb6570","system_id":"levelo_inurba_marseille","lat":43.286591,"lon":5.363346,"is_reserved":false,"is_disabled":false,"rental_uris":{"android":"levelo://app?vid=fdd5a930-78f3-4efa-afc3-46a44edb6570","ios":"levelo://app?vid=fdd5a930-78f3-4efa-afc3-46a44edb6570"},"vehicle_type_id":"4","last_reported":1691950043,"current_range_meters":10400,"station_id":"ce4bhah2rcd13ifvqej0","pricing_plan_id":"free"},{"bike_id":"2c9a6c7a-a6bc-47fc-86c8-01004c129202","system_id":"levelo_inurba_marseille","lat":43.286961,"lon":5.373785,"is_reserved":false,"is_disabled":false,"rental_uris":{"android":"levelo://app?vid=2c9a6c7a-a6bc-47fc-86c8-01004c129202","ios":"levelo://app?vid=2c9a6c7a-a6bc-47fc-86c8-01004c129202"},"vehicle_type_id":"4","last_reported":1691950043,"current_range_meters":24400,"station_id":"ce4bh3p2rcd13ifvqdq0","pricing_plan_id":"free"},{"bike_id":"6fabf025-fd26-473c-bf1f-bf33db2cb515","system_id":"levelo_inurba_marseille","lat":43.28701,"lon":5.37397,"is_reserved":false,"is_disabled":false,"rental_uris":{"android":"levelo://app?vid=6fabf025-fd26-473c-bf1f-bf33db2cb515","ios":"levelo://app?vid=6fabf025-fd26-473c-bf1f-bf33db2cb515"},"vehicle_type_id":"4","last_reported":1691950043,"current_range_meters":27600,"station_id":"ce4bh3p2rcd13ifvqdq0","pricing_plan_id":"free"},{"bike_id":"fd946c29-85f3-4e10-8a64-ddd96a4c671b","system_id":"levelo_inurba_marseille","lat":43.286593,"lon":5.363346,"is_reserved":false,"is_disabled":false,"rental_uris":{"android":"levelo://app?vid=fd946c29-85f3-4e10-8a64-ddd96a4c671b","ios":"levelo://app?vid=fd946c29-85f3-4e10-8a64-ddd96a4c671b"},"vehicle_type_id":"4","last_reported":1691950043,"current_range_meters":18000,"station_id":"ce4bhah2rcd13ifvqej0","pricing_plan_id":"free"},{"bike_id":"ff5146fb-30c4-42a2-847b-f6c8c15b464e","system_id":"levelo_inurba_marseille","lat":43.30258,"lon":5.40052,"is_reserved":false,"is_disabled":false,"rental_uris":{"android":"levelo://app?vid=ff5146fb-30c4-42a2-847b-f6c8c15b464e","ios":"levelo://app?vid=ff5146fb-30c4-42a2-847b-f6c8c15b464e"},"vehicle_type_id":"4","last_reported":1691950043,"current_range_meters":30800,"station_id":"","pricing_plan_id":"free"},{"bike_id":"a0025992-dbc8-4fb3-b823-51c8f11fb4da","system_id":"levelo_inurba_marseille","lat":43.290336,"lon":5.386425,"is_reserved":false,"is_disabled":false,"rental_uris":{"android":"levelo://app?vid=a0025992-dbc8-4fb3-b823-51c8f11fb4da","ios":"levelo://app?vid=a0025992-dbc8-4fb3-b823-51c8f11fb4da"},"vehicle_type_id":"4","last_reported":1691950043,"current_range_meters":30800,"station_id":"ce4bh4p2rcd13ifvqe0g","pricing_plan_id":"free"},{"bike_id":"8bb0e7d0-c756-46bf-aa02-bcd517c89304","system_id":"levelo_inurba_marseille","lat":43.290336,"lon":5.386425,"is_reserved":false,"is_disabled":false,"rental_uris":{"android":"levelo://app?vid=8bb0e7d0-c756-46bf-aa02-bcd517c89304","ios":"levelo://app?vid=8bb0e7d0-c756-46bf-aa02-bcd517c89304"},"vehicle_type_id":"4","last_reported":1691950043,"current_range_meters":19600,"station_id":"ce4bh4p2rcd13ifvqe0g","pricing_plan_id":"free"},{"bike_id":"8785d06e-f3ab-4859-be07-3a049ddcee9d","system_id":"levelo_inurba_marseille","lat":43.302759,"lon":5.400793,"is_reserved":false,"is_disabled":false,"rental_uris":{"android":"levelo://app?vid=8785d06e-f3ab-4859-be07-3a049ddcee9d","ios":"levelo://app?vid=8785d06e-f3ab-4859-be07-3a049ddcee9d"},"vehicle_type_id":"4","last_reported":1691950043,"current_range_meters":14800,"station_id":"ce4bgvh2rcd13ifvqcs0","pricing_plan_id":"free"},{"bike_id":"1dfdeec5-84ae-4c7b-9077-ef83e949d346","system_id":"levelo_inurba_marseille","lat":43.290336,"lon":5.386425,"is_reserved":false,"is_disabled":false,"rental_uris":{"android":"levelo://app?vid=1dfdeec5-84ae-4c7b-9077-ef83e949d346","ios":"levelo://app?vid=1dfdeec5-84ae-4c7b-9077-ef83e949d346"},"vehicle_type_id":"4","last_reported":1691950043,"current_range_meters":4800,"station_id":"ce4bh4p2rcd13ifvqe0g","pricing_plan_id":"free"},{"bike_id":"50b6dd82-19c8-4ae1-ab40-0e54f8e3d8e1","system_id":"levelo_inurba_marseille","lat":43.28612,"lon":5.37056,"is_reserved":false,"is_disabled":false,"rental_uris":{"android":"levelo://app?vid=50b6dd82-19c8-4ae1-ab40-0e54f8e3d8e1","ios":"levelo://app?vid=50b6dd82-19c8-4ae1-ab40-0e54f8e3d8e1"},"vehicle_type_id":"4","last_reported":1691950043,"current_range_meters":4400,"station_id":"ce4bht12rcd13ifvqi60","pricing_plan_id":"free"},{"bike_id":"04e80991-7bd5-4eaa-ae88-1721f0a71114","system_id":"levelo_inurba_marseille","lat":43.28611,"lon":5.3706,"is_reserved":false,"is_disabled":false,"rental_uris":{"android":"levelo://app?vid=04e80991-7bd5-4eaa-ae88-1721f0a71114","ios":"levelo://app?vid=04e80991-7bd5-4eaa-ae88-1721f0a71114"},"vehicle_type_id":"4","last_reported":1691950043,"current_range_meters":15200,"station_id":"ce4bht12rcd13ifvqi60","pricing_plan_id":"free"},{"bike_id":"a2348519-1ec9-43d1-be2f-1db32422f0fc","system_id":"levelo_inurba_marseille","lat":43.287184,"lon":5.37937,"is_reserved":false,"is_disabled":false,"rental_uris":{"android":"levelo://app?vid=a2348519-1ec9-43d1-be2f-1db32422f0fc","ios":"levelo://app?vid=a2348519-1ec9-43d1-be2f-1db32422f0fc"},"vehicle_type_id":"4","last_reported":1691950043,"current_range_meters":28000,"station_id":"ce4bh9p2rcd13ifvqec0","pricing_plan_id":"free"},{"bike_id":"a67f315e-8c67-45c6-abd4-49c83c156e71","system_id":"levelo_inurba_marseille","lat":43.287184,"lon":5.37937,"is_reserved":false,"is_disabled":false,"rental_uris":{"android":"levelo://app?vid=a67f315e-8c67-45c6-abd4-49c83c156e71","ios":"levelo://app?vid=a67f315e-8c67-45c6-abd4-49c83c156e71"},"vehicle_type_id":"4","last_reported":1691950043,"current_range_meters":13600,"station_id":"ce4bh9p2rcd13ifvqec0","pricing_plan_id":"free"},{"bike_id":"12707d68-b5fe-4ec7-a6f9-452190304a78","system_id":"levelo_inurba_marseille","lat":43.287184,"lon":5.37937,"is_reserved":false,"is_disabled":false,"rental_uris":{"android":"levelo://app?vid=12707d68-b5fe-4ec7-a6f9-452190304a78","ios":"levelo://app?vid=12707d68-b5fe-4ec7-a6f9-452190304a78"},"vehicle_type_id":"4","last_reported":1691950043,"current_range_meters":26000,"station_id":"ce4bh9p2rcd13ifvqec0","pricing_plan_id":"free"},{"bike_id":"d4ff582b-62d1-4777-b686-141d25a2ceae","system_id":"levelo_inurba_marseille","lat":43.316517,"lon":5.404375,"is_reserved":false,"is_disabled":false,"rental_uris":{"android":"levelo://app?vid=d4ff582b-62d1-4777-b686-141d25a2ceae","ios":"levelo://app?vid=d4ff582b-62d1-4777-b686-141d25a2ceae"},"vehicle_type_id":"4","last_reported":1691950043,"current_range_meters":15600,"station_id":"ce4bh012rcd13ifvqd00","pricing_plan_id":"free"},{"bike_id":"088bb3cd-0e53-46d0-bb8f-c95b4aa8095d","system_id":"levelo_inurba_marseille","lat":43.28617,"lon":5.35109,"is_reserved":false,"is_disabled":false,"rental_uris":{"android":"levelo://app?vid=088bb3cd-0e53-46d0-bb8f-c95b4aa8095d","ios":"levelo://app?vid=088bb3cd-0e53-46d0-bb8f-c95b4aa8095d"},"vehicle_type_id":"4","last_reported":1691950043,"current_range_meters":23200,"station_id":"ce4bhch2rcd13ifvqeug","pricing_plan_id":"free"},{"bike_id":"a9020d42-cec0-4bc5-90be-c5cf248e7850","system_id":"levelo_inurba_marseille","lat":43.254945,"lon":5.376454,"is_reserved":false,"is_disabled":false,"rental_uris":{"android":"levelo://app?vid=a9020d42-cec0-4bc5-90be-c5cf248e7850","ios":"levelo://app?vid=a9020d42-cec0-4bc5-90be-c5cf248e7850"},"vehicle_type_id":"4","last_reported":1691950043,"current_range_meters":800,"station_id":"ce4bhh12rcd13ifvqff0","pricing_plan_id":"free"},{"bike_id":"33e4141f-33b2-4487-b986-7feb5dfe391b","system_id":"levelo_inurba_marseille","lat":43.28616,"lon":5.35098,"is_reserved":false,"is_disabled":false,"rental_uris":{"android":"levelo://app?vid=33e4141f-33b2-4487-b986-7feb5dfe391b","ios":"levelo://app?vid=33e4141f-33b2-4487-b986-7feb5dfe391b"},"vehicle_type_id":"4","last_reported":1691950043,"current_range_meters":25600,"station_id":"ce4bhch2rcd13ifvqeug","pricing_plan_id":"free"},{"bike_id":"edecb395-89b4-401c-b878-f6dc76493177","system_id":"levelo_inurba_marseille","lat":43.28417,"lon":5.37515,"is_reserved":false,"is_disabled":false,"rental_uris":{"android":"levelo://app?vid=edecb395-89b4-401c-b878-f6dc76493177","ios":"levelo://app?vid=edecb395-89b4-401c-b878-f6dc76493177"},"vehicle_type_id":"4","last_reported":1691950043,"current_range_meters":11200,"station_id":"ce4bh412rcd13ifvqds0","pricing_plan_id":"free"},{"bike_id":"87e92c70-11c3-4f87-aaca-bc7d4407b67b","system_id":"levelo_inurba_marseille","lat":43.2841,"lon":5.37506,"is_reserved":false,"is_disabled":false,"rental_uris":{"android":"levelo://app?vid=87e92c70-11c3-4f87-aaca-bc7d4407b67b","ios":"levelo://app?vid=87e92c70-11c3-4f87-aaca-bc7d4407b67b"},"vehicle_type_id":"4","last_reported":1691950043,"current_range_meters":10800,"station_id":"ce4bh412rcd13ifvqds0","pricing_plan_id":"free"},{"bike_id":"dd8422a0-33b6-43e9-a5ce-3fe553dc86f1","system_id":"levelo_inurba_marseille","lat":43.295713,"lon":5.399639,"is_reserved":false,"is_disabled":false,"rental_uris":{"android":"levelo://app?vid=dd8422a0-33b6-43e9-a5ce-3fe553dc86f1","ios":"levelo://app?vid=dd8422a0-33b6-43e9-a5ce-3fe553dc86f1"},"vehicle_type_id":"4","last_reported":1691950043,"current_range_meters":10400,"station_id":"ce4bh312rcd13ifvqdj0","pricing_plan_id":"free"},{"bike_id":"47edd269-0bec-4e55-822a-8294afcf1dbc","system_id":"levelo_inurba_marseille","lat":43.283998,"lon":5.375062,"is_reserved":false,"is_disabled":false,"rental_uris":{"android":"levelo://app?vid=47edd269-0bec-4e55-822a-8294afcf1dbc","ios":"levelo://app?vid=47edd269-0bec-4e55-822a-8294afcf1dbc"},"vehicle_type_id":"4","last_reported":1691950043,"current_range_meters":15600,"station_id":"ce4bh412rcd13ifvqds0","pricing_plan_id":"free"},{"bike_id":"73d29ba9-3c6f-4364-ba92-fc9531ec0285","system_id":"levelo_inurba_marseille","lat":43.283998,"lon":5.375062,"is_reserved":false,"is_disabled":false,"rental_uris":{"android":"levelo://app?vid=73d29ba9-3c6f-4364-ba92-fc9531ec0285","ios":"levelo://app?vid=73d29ba9-3c6f-4364-ba92-fc9531ec0285"},"vehicle_type_id":"4","last_reported":1691950043,"current_range_meters":28000,"station_id":"ce4bh412rcd13ifvqds0","pricing_plan_id":"free"},{"bike_id":"96ade314-aef4-4d61-a1dc-fa8b20e20423","system_id":"levelo_inurba_marseille","lat":43.286595,"lon":5.386795,"is_reserved":false,"is_disabled":false,"rental_uris":{"android":"levelo://app?vid=96ade314-aef4-4d61-a1dc-fa8b20e20423","ios":"levelo://app?vid=96ade314-aef4-4d61-a1dc-fa8b20e20423"},"vehicle_type_id":"4","last_reported":1691950043,"current_range_meters":15200,"station_id":"ce4bh492rcd13ifvqdug","pricing_plan_id":"free"},{"bike_id":"1c38b4e3-14ba-4ff1-bf05-d05c1963dc14","system_id":"levelo_inurba_marseille","lat":43.286595,"lon":5.386795,"is_reserved":false,"is_disabled":false,"rental_uris":{"android":"levelo://app?vid=1c38b4e3-14ba-4ff1-bf05-d05c1963dc14","ios":"levelo://app?vid=1c38b4e3-14ba-4ff1-bf05-d05c1963dc14"},"vehicle_type_id":"4","last_reported":1691950043,"current_range_meters":400,"station_id":"ce4bh492rcd13ifvqdug","pricing_plan_id":"free"},{"bike_id":"e3e767bc-c4cd-4c27-bbbb-079ce2074be1","system_id":"levelo_inurba_marseille","lat":43.28665,"lon":5.38661,"is_reserved":false,"is_disabled":false,"rental_uris":{"android":"levelo://app?vid=e3e767bc-c4cd-4c27-bbbb-079ce2074be1","ios":"levelo://app?vid=e3e767bc-c4cd-4c27-bbbb-079ce2074be1"},"vehicle_type_id":"4","last_reported":1691950043,"current_range_meters":0,"station_id":"ce4bh492rcd13ifvqdug","pricing_plan_id":"free"},{"bike_id":"516bb14a-6b1b-4c06-b018-75a599b6c480","system_id":"levelo_inurba_marseille","lat":43.33717,"lon":5.39176,"is_reserved":false,"is_disabled":false,"rental_uris":{"android":"levelo://app?vid=516bb14a-6b1b-4c06-b018-75a599b6c480","ios":"levelo://app?vid=516bb14a-6b1b-4c06-b018-75a599b6c480"},"vehicle_type_id":"4","last_reported":1691950043,"current_range_meters":22000,"station_id":"ce4bhr92rcd13ifvqhsg","pricing_plan_id":"free"},{"bike_id":"3418df2e-6699-4bed-91a2-b25e9f32f724","system_id":"levelo_inurba_marseille","lat":43.33717,"lon":5.391857,"is_reserved":false,"is_disabled":false,"rental_uris":{"android":"levelo://app?vid=3418df2e-6699-4bed-91a2-b25e9f32f724","ios":"levelo://app?vid=3418df2e-6699-4bed-91a2-b25e9f32f724"},"vehicle_type_id":"4","last_reported":1691950043,"current_range_meters":2000,"station_id":"ce4bhr92rcd13ifvqhsg","pricing_plan_id":"free"},{"bike_id":"90d8ace0-e5bf-47ad-b675-c380db4610c9","system_id":"levelo_inurba_marseille","lat":43.284793,"lon":5.384113,"is_reserved":false,"is_disabled":false,"rental_uris":{"android":"levelo://app?vid=90d8ace0-e5bf-47ad-b675-c380db4610c9","ios":"levelo://app?vid=90d8ace0-e5bf-47ad-b675-c380db4610c9"},"vehicle_type_id":"4","last_reported":1691950043,"current_range_meters":11200,"station_id":"ce4bh512rcd13ifvqe3g","pricing_plan_id":"free"},{"bike_id":"d26a8734-e2aa-43a6-96dc-ced8a22ee7e7","system_id":"levelo_inurba_marseille","lat":43.284787,"lon":5.384116,"is_reserved":false,"is_disabled":false,"rental_uris":{"android":"levelo://app?vid=d26a8734-e2aa-43a6-96dc-ced8a22ee7e7","ios":"levelo://app?vid=d26a8734-e2aa-43a6-96dc-ced8a22ee7e7"},"vehicle_type_id":"4","last_reported":1691950043,"current_range_meters":26000,"station_id":"ce4bh512rcd13ifvqe3g","pricing_plan_id":"free"},{"bike_id":"d01d7400-b825-422d-be93-895f744156fc","system_id":"levelo_inurba_marseille","lat":43.284787,"lon":5.384116,"is_reserved":false,"is_disabled":false,"rental_uris":{"android":"levelo://app?vid=d01d7400-b825-422d-be93-895f744156fc","ios":"levelo://app?vid=d01d7400-b825-422d-be93-895f744156fc"},"vehicle_type_id":"4","last_reported":1691950043,"current_range_meters":28400,"station_id":"ce4bh512rcd13ifvqe3g","pricing_plan_id":"free"},{"bike_id":"b935019f-05e4-4069-97ca-0735c2467fdb","system_id":"levelo_inurba_marseille","lat":43.284787,"lon":5.384116,"is_reserved":false,"is_disabled":false,"rental_uris":{"android":"levelo://app?vid=b935019f-05e4-4069-97ca-0735c2467fdb","ios":"levelo://app?vid=b935019f-05e4-4069-97ca-0735c2467fdb"},"vehicle_type_id":"4","last_reported":1691950043,"current_range_meters":25200,"station_id":"ce4bh512rcd13ifvqe3g","pricing_plan_id":"free"},{"bike_id":"a309cfdb-5772-4d87-9505-f6f265dc2e13","system_id":"levelo_inurba_marseille","lat":43.28848,"lon":5.39306,"is_reserved":false,"is_disabled":false,"rental_uris":{"android":"levelo://app?vid=a309cfdb-5772-4d87-9505-f6f265dc2e13","ios":"levelo://app?vid=a309cfdb-5772-4d87-9505-f6f265dc2e13"},"vehicle_type_id":"4","last_reported":1691950043,"current_range_meters":20000,"station_id":"","pricing_plan_id":"free"},{"bike_id":"237d112b-1ebc-4373-956b-dbe8b6265ee8","system_id":"levelo_inurba_marseille","lat":43.288501,"lon":5.393087,"is_reserved":false,"is_disabled":false,"rental_uris":{"android":"levelo://app?vid=237d112b-1ebc-4373-956b-dbe8b6265ee8","ios":"levelo://app?vid=237d112b-1ebc-4373-956b-dbe8b6265ee8"},"vehicle_type_id":"4","last_reported":1691950043,"current_range_meters":26000,"station_id":"ce4bh2p2rcd13ifvqdi0","pricing_plan_id":"free"},{"bike_id":"edc49d56-61ae-42e6-ad84-8fc11689397d","system_id":"levelo_inurba_marseille","lat":43.288497,"lon":5.393089,"is_reserved":false,"is_disabled":false,"rental_uris":{"android":"levelo://app?vid=edc49d56-61ae-42e6-ad84-8fc11689397d","ios":"levelo://app?vid=edc49d56-61ae-42e6-ad84-8fc11689397d"},"vehicle_type_id":"4","last_reported":1691950043,"current_range_meters":7600,"station_id":"ce4bh2p2rcd13ifvqdi0","pricing_plan_id":"free"},{"bike_id":"9a9da0fc-b8ad-4bd1-aa15-966787e82d36","system_id":"levelo_inurba_marseille","lat":43.283498,"lon":5.380948,"is_reserved":false,"is_disabled":false,"rental_uris":{"android":"levelo://app?vid=9a9da0fc-b8ad-4bd1-aa15-966787e82d36","ios":"levelo://app?vid=9a9da0fc-b8ad-4bd1-aa15-966787e82d36"},"vehicle_type_id":"4","last_reported":1691950043,"current_range_meters":800,"station_id":"ce4bh412rcd13ifvqdr0","pricing_plan_id":"free"},{"bike_id":"c05d9dd3-2cc7-441e-8d63-526c8905af3c","system_id":"levelo_inurba_marseille","lat":43.283498,"lon":5.380948,"is_reserved":false,"is_disabled":false,"rental_uris":{"android":"levelo://app?vid=c05d9dd3-2cc7-441e-8d63-526c8905af3c","ios":"levelo://app?vid=c05d9dd3-2cc7-441e-8d63-526c8905af3c"},"vehicle_type_id":"4","last_reported":1691950043,"current_range_meters":4000,"station_id":"ce4bh412rcd13ifvqdr0","pricing_plan_id":"free"},{"bike_id":"d1df03c0-9819-4996-bfec-4a219204f3c3","system_id":"levelo_inurba_marseille","lat":43.283498,"lon":5.380948,"is_reserved":false,"is_disabled":false,"rental_uris":{"android":"levelo://app?vid=d1df03c0-9819-4996-bfec-4a219204f3c3","ios":"levelo://app?vid=d1df03c0-9819-4996-bfec-4a219204f3c3"},"vehicle_type_id":"4","last_reported":1691950043,"current_range_meters":0,"station_id":"ce4bh412rcd13ifvqdr0","pricing_plan_id":"free"},{"bike_id":"fe6500a3-fbce-42e4-914a-4ccbcc75e54c","system_id":"levelo_inurba_marseille","lat":43.289363,"lon":5.396322,"is_reserved":false,"is_disabled":false,"rental_uris":{"android":"levelo://app?vid=fe6500a3-fbce-42e4-914a-4ccbcc75e54c","ios":"levelo://app?vid=fe6500a3-fbce-42e4-914a-4ccbcc75e54c"},"vehicle_type_id":"4","last_reported":1691950043,"current_range_meters":16800,"station_id":"ce4bh3h2rcd13ifvqdn0","pricing_plan_id":"free"},{"bike_id":"ae7b87b4-eec9-4cb1-8d74-c05654532134","system_id":"levelo_inurba_marseille","lat":43.292825,"lon":5.401113,"is_reserved":false,"is_disabled":false,"rental_uris":{"android":"levelo://app?vid=ae7b87b4-eec9-4cb1-8d74-c05654532134","ios":"levelo://app?vid=ae7b87b4-eec9-4cb1-8d74-c05654532134"},"vehicle_type_id":"4","last_reported":1691950043,"current_range_meters":5600,"station_id":"","pricing_plan_id":"free"},{"bike_id":"1362f2a9-34a2-4dfd-9c22-51e3e8c75955","system_id":"levelo_inurba_marseille","lat":43.29283,"lon":5.40119,"is_reserved":false,"is_disabled":false,"rental_uris":{"android":"levelo://app?vid=1362f2a9-34a2-4dfd-9c22-51e3e8c75955","ios":"levelo://app?vid=1362f2a9-34a2-4dfd-9c22-51e3e8c75955"},"vehicle_type_id":"4","last_reported":1691950043,"current_range_meters":14000,"station_id":"ce4bh312rcd13ifvqdk0","pricing_plan_id":"free"},{"bike_id":"5cec26ac-344f-432b-af34-450b75305b9b","system_id":"levelo_inurba_marseille","lat":43.292724,"lon":5.401131,"is_reserved":false,"is_disabled":false,"rental_uris":{"android":"levelo://app?vid=5cec26ac-344f-432b-af34-450b75305b9b","ios":"levelo://app?vid=5cec26ac-344f-432b-af34-450b75305b9b"},"vehicle_type_id":"4","last_reported":1691950043,"current_range_meters":31600,"station_id":"ce4bh312rcd13ifvqdk0","pricing_plan_id":"free"},{"bike_id":"55d72a5e-d09d-4e0a-8a6e-19d97733c025","system_id":"levelo_inurba_marseille","lat":43.28039,"lon":5.369297,"is_reserved":false,"is_disabled":false,"rental_uris":{"android":"levelo://app?vid=55d72a5e-d09d-4e0a-8a6e-19d97733c025","ios":"levelo://app?vid=55d72a5e-d09d-4e0a-8a6e-19d97733c025"},"vehicle_type_id":"4","last_reported":1691950043,"current_range_meters":18800,"station_id":"ce4bha12rcd13ifvqef0","pricing_plan_id":"free"},{"bike_id":"88940920-727e-47f8-bee6-24feedff1167","system_id":"levelo_inurba_marseille","lat":43.282754,"lon":5.350519,"is_reserved":false,"is_disabled":false,"rental_uris":{"android":"levelo://app?vid=88940920-727e-47f8-bee6-24feedff1167","ios":"levelo://app?vid=88940920-727e-47f8-bee6-24feedff1167"},"vehicle_type_id":"4","last_reported":1691950043,"current_range_meters":31600,"station_id":"ce4bhbp2rcd13ifvqerg","pricing_plan_id":"free"},{"bike_id":"2df5159a-5991-4e8c-971f-dc95bec3dcd5","system_id":"levelo_inurba_marseille","lat":43.282754,"lon":5.350519,"is_reserved":false,"is_disabled":false,"rental_uris":{"android":"levelo://app?vid=2df5159a-5991-4e8c-971f-dc95bec3dcd5","ios":"levelo://app?vid=2df5159a-5991-4e8c-971f-dc95bec3dcd5"},"vehicle_type_id":"4","last_reported":1691950043,"current_range_meters":0,"station_id":"ce4bhbp2rcd13ifvqerg","pricing_plan_id":"free"},{"bike_id":"d7bc90c8-4ac3-4da7-b967-644186044d56","system_id":"levelo_inurba_marseille","lat":43.283502,"lon":5.386471,"is_reserved":false,"is_disabled":false,"rental_uris":{"android":"levelo://app?vid=d7bc90c8-4ac3-4da7-b967-644186044d56","ios":"levelo://app?vid=d7bc90c8-4ac3-4da7-b967-644186044d56"},"vehicle_type_id":"4","last_reported":1691950043,"current_range_meters":28000,"station_id":"ce4bh492rcd13ifvqdvg","pricing_plan_id":"free"},{"bike_id":"20b7e206-0abd-4fb6-b00a-f775c89fb549","system_id":"levelo_inurba_marseille","lat":43.28039,"lon":5.369297,"is_reserved":false,"is_disabled":false,"rental_uris":{"android":"levelo://app?vid=20b7e206-0abd-4fb6-b00a-f775c89fb549","ios":"levelo://app?vid=20b7e206-0abd-4fb6-b00a-f775c89fb549"},"vehicle_type_id":"4","last_reported":1691950043,"current_range_meters":6000,"station_id":"ce4bha12rcd13ifvqef0","pricing_plan_id":"free"},{"bike_id":"1d7541d6-9596-4fd6-bc27-ff66be0f6838","system_id":"levelo_inurba_marseille","lat":43.283502,"lon":5.386471,"is_reserved":false,"is_disabled":false,"rental_uris":{"android":"levelo://app?vid=1d7541d6-9596-4fd6-bc27-ff66be0f6838","ios":"levelo://app?vid=1d7541d6-9596-4fd6-bc27-ff66be0f6838"},"vehicle_type_id":"4","last_reported":1691950043,"current_range_meters":14800,"station_id":"ce4bh492rcd13ifvqdvg","pricing_plan_id":"free"},{"bike_id":"89ed71bf-2e1f-4a97-953f-dc35c0acca7f","system_id":"levelo_inurba_marseille","lat":43.28039,"lon":5.369297,"is_reserved":false,"is_disabled":false,"rental_uris":{"android":"levelo://app?vid=89ed71bf-2e1f-4a97-953f-dc35c0acca7f","ios":"levelo://app?vid=89ed71bf-2e1f-4a97-953f-dc35c0acca7f"},"vehicle_type_id":"4","last_reported":1691950043,"current_range_meters":7600,"station_id":"ce4bha12rcd13ifvqef0","pricing_plan_id":"free"},{"bike_id":"eb8e4c4f-5fc5-4007-ab2b-231fad0dc17c","system_id":"levelo_inurba_marseille","lat":43.29041,"lon":5.399634,"is_reserved":false,"is_disabled":false,"rental_uris":{"android":"levelo://app?vid=eb8e4c4f-5fc5-4007-ab2b-231fad0dc17c","ios":"levelo://app?vid=eb8e4c4f-5fc5-4007-ab2b-231fad0dc17c"},"vehicle_type_id":"4","last_reported":1691950043,"current_range_meters":31600,"station_id":"ce4bh392rcd13ifvqdm0","pricing_plan_id":"free"},{"bike_id":"8147c9bc-f27f-4c3a-b118-7fedd5d9ab19","system_id":"levelo_inurba_marseille","lat":43.28109,"lon":5.37833,"is_reserved":false,"is_disabled":false,"rental_uris":{"android":"levelo://app?vid=8147c9bc-f27f-4c3a-b118-7fedd5d9ab19","ios":"levelo://app?vid=8147c9bc-f27f-4c3a-b118-7fedd5d9ab19"},"vehicle_type_id":"4","last_reported":1691950043,"current_range_meters":11600,"station_id":"ce4bha12rcd13ifvqee0","pricing_plan_id":"free"},{"bike_id":"683c98ea-e490-4706-bd56-aa0f9e750467","system_id":"levelo_inurba_marseille","lat":43.281044,"lon":5.378308,"is_reserved":false,"is_disabled":false,"rental_uris":{"android":"levelo://app?vid=683c98ea-e490-4706-bd56-aa0f9e750467","ios":"levelo://app?vid=683c98ea-e490-4706-bd56-aa0f9e750467"},"vehicle_type_id":"4","last_reported":1691950043,"current_range_meters":5200,"station_id":"ce4bha12rcd13ifvqee0","pricing_plan_id":"free"},{"bike_id":"060d76a9-eb2c-4821-a93d-404c03475902","system_id":"levelo_inurba_marseille","lat":43.287154,"lon":5.399979,"is_reserved":false,"is_disabled":false,"rental_uris":{"android":"levelo://app?vid=060d76a9-eb2c-4821-a93d-404c03475902","ios":"levelo://app?vid=060d76a9-eb2c-4821-a93d-404c03475902"},"vehicle_type_id":"4","last_reported":1691950043,"current_range_meters":11200,"station_id":"ce4bho92rcd13ifvqh3g","pricing_plan_id":"free"},{"bike_id":"1d9056f9-155b-4b9c-be66-8eb03c751f58","system_id":"levelo_inurba_marseille","lat":43.27966,"lon":5.36355,"is_reserved":false,"is_disabled":false,"rental_uris":{"android":"levelo://app?vid=1d9056f9-155b-4b9c-be66-8eb03c751f58","ios":"levelo://app?vid=1d9056f9-155b-4b9c-be66-8eb03c751f58"},"vehicle_type_id":"4","last_reported":1691950043,"current_range_meters":2400,"station_id":"","pricing_plan_id":"free"},{"bike_id":"c9d735c7-f765-46bf-a73c-cb3b7453f66f","system_id":"levelo_inurba_marseille","lat":43.284462,"lon":5.392121,"is_reserved":false,"is_disabled":false,"rental_uris":{"android":"levelo://app?vid=c9d735c7-f765-46bf-a73c-cb3b7453f66f","ios":"levelo://app?vid=c9d735c7-f765-46bf-a73c-cb3b7453f66f"},"vehicle_type_id":"4","last_reported":1691950043,"current_range_meters":5600,"station_id":"ce4bhoh2rcd13ifvqh5g","pricing_plan_id":"free"},{"bike_id":"6c5ce2f4-d879-43ec-a1f2-c7d1cf189e97","system_id":"levelo_inurba_marseille","lat":43.28438,"lon":5.39198,"is_reserved":false,"is_disabled":false,"rental_uris":{"android":"levelo://app?vid=6c5ce2f4-d879-43ec-a1f2-c7d1cf189e97","ios":"levelo://app?vid=6c5ce2f4-d879-43ec-a1f2-c7d1cf189e97"},"vehicle_type_id":"4","last_reported":1691950043,"current_range_meters":17600,"station_id":"ce4bhoh2rcd13ifvqh5g","pricing_plan_id":"free"},{"bike_id":"ee205d92-5143-474c-ae39-3bbf62e23187","system_id":"levelo_inurba_marseille","lat":43.28576,"lon":5.39485,"is_reserved":false,"is_disabled":false,"rental_uris":{"android":"levelo://app?vid=ee205d92-5143-474c-ae39-3bbf62e23187","ios":"levelo://app?vid=ee205d92-5143-474c-ae39-3bbf62e23187"},"vehicle_type_id":"4","last_reported":1691950043,"current_range_meters":26000,"station_id":"ce4bh292rcd13ifvqdg0","pricing_plan_id":"free"},{"bike_id":"a0f258ed-ced3-412c-a3a0-592502c28464","system_id":"levelo_inurba_marseille","lat":43.32661,"lon":5.40929,"is_reserved":false,"is_disabled":false,"rental_uris":{"android":"levelo://app?vid=a0f258ed-ced3-412c-a3a0-592502c28464","ios":"levelo://app?vid=a0f258ed-ced3-412c-a3a0-592502c28464"},"vehicle_type_id":"4","last_reported":1691950043,"current_range_meters":10800,"station_id":"","pricing_plan_id":"free"},{"bike_id":"538e7572-332d-415e-b6cd-e74457693da6","system_id":"levelo_inurba_marseille","lat":43.2857,"lon":5.39486,"is_reserved":false,"is_disabled":false,"rental_uris":{"android":"levelo://app?vid=538e7572-332d-415e-b6cd-e74457693da6","ios":"levelo://app?vid=538e7572-332d-415e-b6cd-e74457693da6"},"vehicle_type_id":"4","last_reported":1691950043,"current_range_meters":15200,"station_id":"ce4bh292rcd13ifvqdg0","pricing_plan_id":"free"},{"bike_id":"4ca2ead3-1d1a-4dd7-8c6f-a0877bd63423","system_id":"levelo_inurba_marseille","lat":43.32654,"lon":5.40983,"is_reserved":false,"is_disabled":false,"rental_uris":{"android":"levelo://app?vid=4ca2ead3-1d1a-4dd7-8c6f-a0877bd63423","ios":"levelo://app?vid=4ca2ead3-1d1a-4dd7-8c6f-a0877bd63423"},"vehicle_type_id":"4","last_reported":1691950043,"current_range_meters":0,"station_id":"ce4bhpp2rcd13ifvqhgg","pricing_plan_id":"free"},{"bike_id":"02f7a1e3-31ef-47e2-8193-ac43caa766bd","system_id":"levelo_inurba_marseille","lat":43.32655,"lon":5.40985,"is_reserved":false,"is_disabled":false,"rental_uris":{"android":"levelo://app?vid=02f7a1e3-31ef-47e2-8193-ac43caa766bd","ios":"levelo://app?vid=02f7a1e3-31ef-47e2-8193-ac43caa766bd"},"vehicle_type_id":"4","last_reported":1691950043,"current_range_meters":4800,"station_id":"ce4bhpp2rcd13ifvqhgg","pricing_plan_id":"free"},{"bike_id":"9ea259a8-b496-43b8-89d1-876caca90afa","system_id":"levelo_inurba_marseille","lat":43.32659,"lon":5.4099,"is_reserved":false,"is_disabled":false,"rental_uris":{"android":"levelo://app?vid=9ea259a8-b496-43b8-89d1-876caca90afa","ios":"levelo://app?vid=9ea259a8-b496-43b8-89d1-876caca90afa"},"vehicle_type_id":"4","last_reported":1691950043,"current_range_meters":26800,"station_id":"ce4bhpp2rcd13ifvqhgg","pricing_plan_id":"free"},{"bike_id":"635634ec-5d41-407c-9adf-d323829aed3b","system_id":"levelo_inurba_marseille","lat":43.32659,"lon":5.40991,"is_reserved":false,"is_disabled":false,"rental_uris":{"android":"levelo://app?vid=635634ec-5d41-407c-9adf-d323829aed3b","ios":"levelo://app?vid=635634ec-5d41-407c-9adf-d323829aed3b"},"vehicle_type_id":"4","last_reported":1691950043,"current_range_meters":0,"station_id":"ce4bhpp2rcd13ifvqhgg","pricing_plan_id":"free"},{"bike_id":"7d20c6f9-54b3-482c-9f46-2975184da393","system_id":"levelo_inurba_marseille","lat":43.32657,"lon":5.40994,"is_reserved":false,"is_disabled":false,"rental_uris":{"android":"levelo://app?vid=7d20c6f9-54b3-482c-9f46-2975184da393","ios":"levelo://app?vid=7d20c6f9-54b3-482c-9f46-2975184da393"},"vehicle_type_id":"4","last_reported":1691950043,"current_range_meters":4800,"station_id":"ce4bhpp2rcd13ifvqhgg","pricing_plan_id":"free"},{"bike_id":"efc2e4c7-e2e3-4994-ab4a-1e549672444f","system_id":"levelo_inurba_marseille","lat":43.32656,"lon":5.40995,"is_reserved":false,"is_disabled":false,"rental_uris":{"android":"levelo://app?vid=efc2e4c7-e2e3-4994-ab4a-1e549672444f","ios":"levelo://app?vid=efc2e4c7-e2e3-4994-ab4a-1e549672444f"},"vehicle_type_id":"4","last_reported":1691950043,"current_range_meters":6000,"station_id":"ce4bhpp2rcd13ifvqhgg","pricing_plan_id":"free"},{"bike_id":"7349dc2f-1868-4375-bc54-2ea69ae51761","system_id":"levelo_inurba_marseille","lat":43.32659,"lon":5.40997,"is_reserved":false,"is_disabled":false,"rental_uris":{"android":"levelo://app?vid=7349dc2f-1868-4375-bc54-2ea69ae51761","ios":"levelo://app?vid=7349dc2f-1868-4375-bc54-2ea69ae51761"},"vehicle_type_id":"4","last_reported":1691950043,"current_range_meters":21600,"station_id":"ce4bhpp2rcd13ifvqhgg","pricing_plan_id":"free"},{"bike_id":"6cbbe917-8b47-476b-8e9f-e102b926e57e","system_id":"levelo_inurba_marseille","lat":43.32499,"lon":5.41117,"is_reserved":false,"is_disabled":false,"rental_uris":{"android":"levelo://app?vid=6cbbe917-8b47-476b-8e9f-e102b926e57e","ios":"levelo://app?vid=6cbbe917-8b47-476b-8e9f-e102b926e57e"},"vehicle_type_id":"4","last_reported":1691950043,"current_range_meters":31200,"station_id":"","pricing_plan_id":"free"},{"bike_id":"8b8f8637-7ff7-4dd2-9215-b0692c72feaa","system_id":"levelo_inurba_marseille","lat":43.304188,"lon":5.412904,"is_reserved":false,"is_disabled":false,"rental_uris":{"android":"levelo://app?vid=8b8f8637-7ff7-4dd2-9215-b0692c72feaa","ios":"levelo://app?vid=8b8f8637-7ff7-4dd2-9215-b0692c72feaa"},"vehicle_type_id":"4","last_reported":1691950043,"current_range_meters":6800,"station_id":"ce4bhop2rcd13ifvqh8g","pricing_plan_id":"free"},{"bike_id":"1cb7cf3b-87b5-42bd-b17c-1a9d8836ab80","system_id":"levelo_inurba_marseille","lat":43.279087,"lon":5.380114,"is_reserved":false,"is_disabled":false,"rental_uris":{"android":"levelo://app?vid=1cb7cf3b-87b5-42bd-b17c-1a9d8836ab80","ios":"levelo://app?vid=1cb7cf3b-87b5-42bd-b17c-1a9d8836ab80"},"vehicle_type_id":"4","last_reported":1691950043,"current_range_meters":27600,"station_id":"ce4bhf92rcd13ifvqf50","pricing_plan_id":"free"},{"bike_id":"e613e85f-b0c7-48a6-9aef-92e5bd78b85b","system_id":"levelo_inurba_marseille","lat":43.279087,"lon":5.380114,"is_reserved":false,"is_disabled":false,"rental_uris":{"android":"levelo://app?vid=e613e85f-b0c7-48a6-9aef-92e5bd78b85b","ios":"levelo://app?vid=e613e85f-b0c7-48a6-9aef-92e5bd78b85b"},"vehicle_type_id":"4","last_reported":1691950043,"current_range_meters":27200,"station_id":"ce4bhf92rcd13ifvqf50","pricing_plan_id":"free"},{"bike_id":"ebd724cb-28a5-4548-bd5e-b3645a3e9f27","system_id":"levelo_inurba_marseille","lat":43.279087,"lon":5.380114,"is_reserved":false,"is_disabled":false,"rental_uris":{"android":"levelo://app?vid=ebd724cb-28a5-4548-bd5e-b3645a3e9f27","ios":"levelo://app?vid=ebd724cb-28a5-4548-bd5e-b3645a3e9f27"},"vehicle_type_id":"4","last_reported":1691950043,"current_range_meters":20800,"station_id":"ce4bhf92rcd13ifvqf50","pricing_plan_id":"free"},{"bike_id":"a71e14f5-a741-466a-bdb1-4008ee10f211","system_id":"levelo_inurba_marseille","lat":43.287154,"lon":5.399979,"is_reserved":false,"is_disabled":false,"rental_uris":{"android":"levelo://app?vid=a71e14f5-a741-466a-bdb1-4008ee10f211","ios":"levelo://app?vid=a71e14f5-a741-466a-bdb1-4008ee10f211"},"vehicle_type_id":"4","last_reported":1691950043,"current_range_meters":28400,"station_id":"ce4bho92rcd13ifvqh3g","pricing_plan_id":"free"},{"bike_id":"5ddf8eb4-72a9-457a-a046-0d8a465b4460","system_id":"levelo_inurba_marseille","lat":43.287154,"lon":5.399979,"is_reserved":false,"is_disabled":false,"rental_uris":{"android":"levelo://app?vid=5ddf8eb4-72a9-457a-a046-0d8a465b4460","ios":"levelo://app?vid=5ddf8eb4-72a9-457a-a046-0d8a465b4460"},"vehicle_type_id":"4","last_reported":1691950043,"current_range_meters":14800,"station_id":"ce4bho92rcd13ifvqh3g","pricing_plan_id":"free"},{"bike_id":"cecbf370-d010-423e-a407-e6b728b6842d","system_id":"levelo_inurba_marseille","lat":43.287154,"lon":5.399979,"is_reserved":false,"is_disabled":false,"rental_uris":{"android":"levelo://app?vid=cecbf370-d010-423e-a407-e6b728b6842d","ios":"levelo://app?vid=cecbf370-d010-423e-a407-e6b728b6842d"},"vehicle_type_id":"4","last_reported":1691950043,"current_range_meters":18400,"station_id":"ce4bho92rcd13ifvqh3g","pricing_plan_id":"free"},{"bike_id":"70c8bb31-223a-41c7-a57d-0b0ae275ff29","system_id":"levelo_inurba_marseille","lat":43.279742,"lon":5.38744,"is_reserved":false,"is_disabled":false,"rental_uris":{"android":"levelo://app?vid=70c8bb31-223a-41c7-a57d-0b0ae275ff29","ios":"levelo://app?vid=70c8bb31-223a-41c7-a57d-0b0ae275ff29"},"vehicle_type_id":"4","last_reported":1691950043,"current_range_meters":10800,"station_id":"ce4bhg12rcd13ifvqf80","pricing_plan_id":"free"},{"bike_id":"79131f08-b4de-4046-abb1-6097f67236a1","system_id":"levelo_inurba_marseille","lat":43.279742,"lon":5.38744,"is_reserved":false,"is_disabled":false,"rental_uris":{"android":"levelo://app?vid=79131f08-b4de-4046-abb1-6097f67236a1","ios":"levelo://app?vid=79131f08-b4de-4046-abb1-6097f67236a1"},"vehicle_type_id":"4","last_reported":1691950043,"current_range_meters":0,"station_id":"ce4bhg12rcd13ifvqf80","pricing_plan_id":"free"},{"bike_id":"d92b930d-b223-48bd-8f1f-b17606a7ef64","system_id":"levelo_inurba_marseille","lat":43.3205,"lon":5.41549,"is_reserved":false,"is_disabled":false,"rental_uris":{"android":"levelo://app?vid=d92b930d-b223-48bd-8f1f-b17606a7ef64","ios":"levelo://app?vid=d92b930d-b223-48bd-8f1f-b17606a7ef64"},"vehicle_type_id":"4","last_reported":1691950043,"current_range_meters":1200,"station_id":"ce4bhq92rcd13ifvqhkg","pricing_plan_id":"free"},{"bike_id":"c327718a-8fe6-4791-a349-aba0f8f94e82","system_id":"levelo_inurba_marseille","lat":43.279742,"lon":5.38744,"is_reserved":false,"is_disabled":false,"rental_uris":{"android":"levelo://app?vid=c327718a-8fe6-4791-a349-aba0f8f94e82","ios":"levelo://app?vid=c327718a-8fe6-4791-a349-aba0f8f94e82"},"vehicle_type_id":"4","last_reported":1691950043,"current_range_meters":28000,"station_id":"ce4bhg12rcd13ifvqf80","pricing_plan_id":"free"},{"bike_id":"470a8186-c2db-41ce-a498-bc62e271a2cd","system_id":"levelo_inurba_marseille","lat":43.279742,"lon":5.38744,"is_reserved":false,"is_disabled":false,"rental_uris":{"android":"levelo://app?vid=470a8186-c2db-41ce-a498-bc62e271a2cd","ios":"levelo://app?vid=470a8186-c2db-41ce-a498-bc62e271a2cd"},"vehicle_type_id":"4","last_reported":1691950043,"current_range_meters":22400,"station_id":"ce4bhg12rcd13ifvqf80","pricing_plan_id":"free"},{"bike_id":"3f898700-bc5a-43d5-9395-2f0741f6e5e7","system_id":"levelo_inurba_marseille","lat":43.27618,"lon":5.361009,"is_reserved":false,"is_disabled":false,"rental_uris":{"android":"levelo://app?vid=3f898700-bc5a-43d5-9395-2f0741f6e5e7","ios":"levelo://app?vid=3f898700-bc5a-43d5-9395-2f0741f6e5e7"},"vehicle_type_id":"4","last_reported":1691950043,"current_range_meters":16400,"station_id":"ce4bgj92rcd13ifvqbe0","pricing_plan_id":"free"},{"bike_id":"989ffb06-2036-45d7-a421-7028fa2f2ea9","system_id":"levelo_inurba_marseille","lat":43.27624,"lon":5.36099,"is_reserved":false,"is_disabled":false,"rental_uris":{"android":"levelo://app?vid=989ffb06-2036-45d7-a421-7028fa2f2ea9","ios":"levelo://app?vid=989ffb06-2036-45d7-a421-7028fa2f2ea9"},"vehicle_type_id":"4","last_reported":1691950043,"current_range_meters":14000,"station_id":"ce4bgj92rcd13ifvqbe0","pricing_plan_id":"free"},{"bike_id":"1c95e95b-e8a8-470c-bf7c-127c2d331631","system_id":"levelo_inurba_marseille","lat":43.325233,"lon":5.414318,"is_reserved":false,"is_disabled":false,"rental_uris":{"android":"levelo://app?vid=1c95e95b-e8a8-470c-bf7c-127c2d331631","ios":"levelo://app?vid=1c95e95b-e8a8-470c-bf7c-127c2d331631"},"vehicle_type_id":"4","last_reported":1691950043,"current_range_meters":28400,"station_id":"ce4bhq12rcd13ifvqhhg","pricing_plan_id":"free"},{"bike_id":"aed2127b-4f0a-41f5-b999-30c5bd689065","system_id":"levelo_inurba_marseille","lat":43.27618,"lon":5.361009,"is_reserved":false,"is_disabled":false,"rental_uris":{"android":"levelo://app?vid=aed2127b-4f0a-41f5-b999-30c5bd689065","ios":"levelo://app?vid=aed2127b-4f0a-41f5-b999-30c5bd689065"},"vehicle_type_id":"4","last_reported":1691950043,"current_range_meters":10000,"station_id":"ce4bgj92rcd13ifvqbe0","pricing_plan_id":"free"},{"bike_id":"7190b780-51e3-4498-a30d-e8fdb5ed2d24","system_id":"levelo_inurba_marseille","lat":43.27618,"lon":5.361009,"is_reserved":false,"is_disabled":false,"rental_uris":{"android":"levelo://app?vid=7190b780-51e3-4498-a30d-e8fdb5ed2d24","ios":"levelo://app?vid=7190b780-51e3-4498-a30d-e8fdb5ed2d24"},"vehicle_type_id":"4","last_reported":1691950043,"current_range_meters":6400,"station_id":"ce4bgj92rcd13ifvqbe0","pricing_plan_id":"free"},{"bike_id":"d07a18f0-68da-43fd-8185-b1d6d132f943","system_id":"levelo_inurba_marseille","lat":43.27618,"lon":5.361009,"is_reserved":false,"is_disabled":false,"rental_uris":{"android":"levelo://app?vid=d07a18f0-68da-43fd-8185-b1d6d132f943","ios":"levelo://app?vid=d07a18f0-68da-43fd-8185-b1d6d132f943"},"vehicle_type_id":"4","last_reported":1691950043,"current_range_meters":3600,"station_id":"ce4bgj92rcd13ifvqbe0","pricing_plan_id":"free"},{"bike_id":"386ed8e3-b71e-4f68-86af-202c5b76503e","system_id":"levelo_inurba_marseille","lat":43.27618,"lon":5.36105,"is_reserved":false,"is_disabled":false,"rental_uris":{"android":"levelo://app?vid=386ed8e3-b71e-4f68-86af-202c5b76503e","ios":"levelo://app?vid=386ed8e3-b71e-4f68-86af-202c5b76503e"},"vehicle_type_id":"4","last_reported":1691950043,"current_range_meters":19200,"station_id":"ce4bgj92rcd13ifvqbe0","pricing_plan_id":"free"},{"bike_id":"a74bff2f-4db5-41e7-a6fe-cacfd9a512b3","system_id":"levelo_inurba_marseille","lat":43.276183,"lon":5.361009,"is_reserved":false,"is_disabled":false,"rental_uris":{"android":"levelo://app?vid=a74bff2f-4db5-41e7-a6fe-cacfd9a512b3","ios":"levelo://app?vid=a74bff2f-4db5-41e7-a6fe-cacfd9a512b3"},"vehicle_type_id":"4","last_reported":1691950043,"current_range_meters":14000,"station_id":"ce4bgj92rcd13ifvqbe0","pricing_plan_id":"free"},{"bike_id":"23544c30-2768-4114-97c1-cb03b5d27c55","system_id":"levelo_inurba_marseille","lat":43.27541,"lon":5.35997,"is_reserved":false,"is_disabled":false,"rental_uris":{"android":"levelo://app?vid=23544c30-2768-4114-97c1-cb03b5d27c55","ios":"levelo://app?vid=23544c30-2768-4114-97c1-cb03b5d27c55"},"vehicle_type_id":"4","last_reported":1691950043,"current_range_meters":22800,"station_id":"ce4bgj92rcd13ifvqbe0","pricing_plan_id":"free"},{"bike_id":"cbfd4a71-af23-44f8-b401-4db5c09ec9ba","system_id":"levelo_inurba_marseille","lat":43.2807,"lon":5.39645,"is_reserved":false,"is_disabled":false,"rental_uris":{"android":"levelo://app?vid=cbfd4a71-af23-44f8-b401-4db5c09ec9ba","ios":"levelo://app?vid=cbfd4a71-af23-44f8-b401-4db5c09ec9ba"},"vehicle_type_id":"4","last_reported":1691950043,"current_range_meters":2800,"station_id":"ce4bho12rcd13ifvqh2g","pricing_plan_id":"free"},{"bike_id":"4ce1539b-bbd1-4c91-95ae-3fba5998ebda","system_id":"levelo_inurba_marseille","lat":43.280784,"lon":5.396622,"is_reserved":false,"is_disabled":false,"rental_uris":{"android":"levelo://app?vid=4ce1539b-bbd1-4c91-95ae-3fba5998ebda","ios":"levelo://app?vid=4ce1539b-bbd1-4c91-95ae-3fba5998ebda"},"vehicle_type_id":"4","last_reported":1691950043,"current_range_meters":27600,"station_id":"ce4bho12rcd13ifvqh2g","pricing_plan_id":"free"},{"bike_id":"f73b838a-07d8-4204-8c69-5cf8d9f48611","system_id":"levelo_inurba_marseille","lat":43.303837,"lon":5.418724,"is_reserved":false,"is_disabled":false,"rental_uris":{"android":"levelo://app?vid=f73b838a-07d8-4204-8c69-5cf8d9f48611","ios":"levelo://app?vid=f73b838a-07d8-4204-8c69-5cf8d9f48611"},"vehicle_type_id":"4","last_reported":1691950043,"current_range_meters":29200,"station_id":"ce4bhop2rcd13ifvqh7g","pricing_plan_id":"free"},{"bike_id":"b6bf6979-95d7-4a0b-b33d-0009a7d866ab","system_id":"levelo_inurba_marseille","lat":43.278399,"lon":5.392139,"is_reserved":false,"is_disabled":false,"rental_uris":{"android":"levelo://app?vid=b6bf6979-95d7-4a0b-b33d-0009a7d866ab","ios":"levelo://app?vid=b6bf6979-95d7-4a0b-b33d-0009a7d866ab"},"vehicle_type_id":"4","last_reported":1691950043,"current_range_meters":4400,"station_id":"ce4bhjp2rcd13ifvqga0","pricing_plan_id":"free"},{"bike_id":"f65d7c12-cf54-4f90-8427-eaf4134efb61","system_id":"levelo_inurba_marseille","lat":43.275625,"lon":5.384392,"is_reserved":false,"is_disabled":false,"rental_uris":{"android":"levelo://app?vid=f65d7c12-cf54-4f90-8427-eaf4134efb61","ios":"levelo://app?vid=f65d7c12-cf54-4f90-8427-eaf4134efb61"},"vehicle_type_id":"4","last_reported":1691950043,"current_range_meters":6000,"station_id":"ce4bhh92rcd13ifvqfi0","pricing_plan_id":"free"},{"bike_id":"2b9ea48e-6e5e-47b0-9089-9cf3f475f7db","system_id":"levelo_inurba_marseille","lat":43.275625,"lon":5.384392,"is_reserved":false,"is_disabled":false,"rental_uris":{"android":"levelo://app?vid=2b9ea48e-6e5e-47b0-9089-9cf3f475f7db","ios":"levelo://app?vid=2b9ea48e-6e5e-47b0-9089-9cf3f475f7db"},"vehicle_type_id":"4","last_reported":1691950043,"current_range_meters":0,"station_id":"ce4bhh92rcd13ifvqfi0","pricing_plan_id":"free"},{"bike_id":"58e83634-5280-4c3d-a240-9fac602921d1","system_id":"levelo_inurba_marseille","lat":43.275625,"lon":5.384392,"is_reserved":false,"is_disabled":false,"rental_uris":{"android":"levelo://app?vid=58e83634-5280-4c3d-a240-9fac602921d1","ios":"levelo://app?vid=58e83634-5280-4c3d-a240-9fac602921d1"},"vehicle_type_id":"4","last_reported":1691950043,"current_range_meters":400,"station_id":"ce4bhh92rcd13ifvqfi0","pricing_plan_id":"free"},{"bike_id":"2c002134-e4d2-41d1-b436-28e8e2ea24ca","system_id":"levelo_inurba_marseille","lat":43.276769,"lon":5.388787,"is_reserved":false,"is_disabled":false,"rental_uris":{"android":"levelo://app?vid=2c002134-e4d2-41d1-b436-28e8e2ea24ca","ios":"levelo://app?vid=2c002134-e4d2-41d1-b436-28e8e2ea24ca"},