{"last_updated":1731564810,"ttl":60,"version":"2.2","data":{"bikes":[{"bike_id":"a9e32afe-028a-4d94-95f4-042295ca9c9d","system_id":"levelo_inurba_marseille","lat":43.2556,"lon":5.38264,"is_reserved":false,"is_disabled":false,"rental_uris":{"android":"levelo://app?vid=a9e32afe-028a-4d94-95f4-042295ca9c9d","ios":"levelo://app?vid=a9e32afe-028a-4d94-95f4-042295ca9c9d"},"vehicle_type_id":"4","last_reported":1731564810,"current_range_meters":38400,"station_id":"ce4bhih2rcd13ifvqfs0","pricing_plan_id":"cebpf4jnsgd1na2vs0mg"},{"bike_id":"77cdb67a-18e3-47a2-8371-0b326871aa22","system_id":"levelo_inurba_marseille","lat":43.28939,"lon":5.36388,"is_reserved":false,"is_disabled":false,"rental_uris":{"android":"levelo://app?vid=77cdb67a-18e3-47a2-8371-0b326871aa22","ios":"levelo://app?vid=77cdb67a-18e3-47a2-8371-0b326871aa22"},"vehicle_type_id":"4","last_reported":1731564810,"current_range_meters":38800,"station_id":"ce4bhc92rcd13ifvqetg","pricing_plan_id":"cebpf4jnsgd1na2vs0mg"},{"bike_id":"b74cb09f-382c-42dd-9f0b-cfd941347c2c","system_id":"levelo_inurba_marseille","lat":43.30887,"lon":5.39654,"is_reserved":false,"is_disabled":false,"rental_uris":{"android":"levelo://app?vid=b74cb09f-382c-42dd-9f0b-cfd941347c2c","ios":"levelo://app?vid=b74cb09f-382c-42dd-9f0b-cfd941347c2c"},"vehicle_type_id":"4","last_reported":1731564810,"current_range_meters":38000,"station_id":"ce4bh012rcd13ifvqcv0","pricing_plan_id":"cebpf4jnsgd1na2vs0mg"},{"bike_id":"717b066d-ff0c-450c-96e5-9d90722466cc","system_id":"levelo_inurba_marseille","lat":43.30315,"lon":5.36912,"is_reserved":false,"is_disabled":false,"rental_uris":{"android":"levelo://app?vid=717b066d-ff0c-450c-96e5-9d90722466cc","ios":"levelo://app?vid=717b066d-ff0c-450c-96e5-9d90722466cc"},"vehicle_type_id":"4","last_reported":1731564810,"current_range_meters":38800,"station_id":"ce4bgqh2rcd13ifvqc5g","pricing_plan_id":"cebpf4jnsgd1na2vs0mg"},{"bike_id":"2d85a8c9-73cd-4fa7-9d24-3a50ba732dcc","system_id":"levelo_inurba_marseille","lat":43.23958,"lon":5.36642,"is_reserved":false,"is_disabled":false,"rental_uris":{"android":"levelo://app?vid=2d85a8c9-73cd-4fa7-9d24-3a50ba732dcc","ios":"levelo://app?vid=2d85a8c9-73cd-4fa7-9d24-3a50ba732dcc"},"vehicle_type_id":"4","last_reported":1731564810,"current_range_meters":38800,"station_id":"ce4bhi12rcd13ifvqfp0","pricing_plan_id":"cebpf4jnsgd1na2vs0mg"},{"bike_id":"a8523969-7310-41b8-ba95-7f5054b6a770","system_id":"levelo_inurba_marseille","lat":43.32658,"lon":5.40992,"is_reserved":false,"is_disabled":false,"rental_uris":{"android":"levelo://app?vid=a8523969-7310-41b8-ba95-7f5054b6a770","ios":"levelo://app?vid=a8523969-7310-41b8-ba95-7f5054b6a770"},"vehicle_type_id":"4","last_reported":1731564810,"current_range_meters":38800,"station_id":"ce4bhpp2rcd13ifvqhgg","pricing_plan_id":"cebpf4jnsgd1na2vs0mg"},{"bike_id":"dbe43188-124b-4e9e-86bf-c480e823b103","system_id":"levelo_inurba_marseille","lat":43.30345,"lon":5.39383,"is_reserved":false,"is_disabled":false,"rental_uris":{"android":"levelo://app?vid=dbe43188-124b-4e9e-86bf-c480e823b103","ios":"levelo://app?vid=dbe43188-124b-4e9e-86bf-c480e823b103"},"vehicle_type_id":"4","last_reported":1731564810,"current_range_meters":17200,"station_id":"","pricing_plan_id":"cebpf4jnsgd1na2vs0mg"},{"bike_id":"eb66c83e-9c22-451e-9a96-11fcf0b6a22c","system_id":"levelo_inurba_marseille","lat":43.31799,"lon":5.39011,"is_reserved":false,"is_disabled":false,"rental_uris":{"android":"levelo://app?vid=eb66c83e-9c22-451e-9a96-11fcf0b6a22c","ios":"levelo://app?vid=eb66c83e-9c22-451e-9a96-11fcf0b6a22c"},"vehicle_type_id":"4","last_reported":1731564810,"current_range_meters":37600,"station_id":"ce4bhqp2rcd13ifvqhng","pricing_plan_id":"cebpf4jnsgd1na2vs0mg"},{"bike_id":"77b69f18-7c6a-412a-9655-4f3da3f95e57","system_id":"levelo_inurba_marseille","lat":43.26025,"lon":5.375509,"is_reserved":false,"is_disabled":false,"rental_uris":{"android":"levelo://app?vid=77b69f18-7c6a-412a-9655-4f3da3f95e57","ios":"levelo://app?vid=77b69f18-7c6a-412a-9655-4f3da3f95e57"},"vehicle_type_id":"4","last_reported":1731564810,"current_range_meters":38800,"station_id":"ce4bhgh2rcd13ifvqfa0","pricing_plan_id":"cebpf4jnsgd1na2vs0mg"},{"bike_id":"f8bbd4b4-0bbe-4f81-add8-6857ac517585","system_id":"levelo_inurba_marseille","lat":43.31885,"lon":5.40731,"is_reserved":false,"is_disabled":false,"rental_uris":{"android":"levelo://app?vid=f8bbd4b4-0bbe-4f81-add8-6857ac517585","ios":"levelo://app?vid=f8bbd4b4-0bbe-4f81-add8-6857ac517585"},"vehicle_type_id":"4","last_reported":1731564810,"current_range_meters":36000,"station_id":"ce4bhq12rcd13ifvqhig","pricing_plan_id":"cebpf4jnsgd1na2vs0mg"},{"bike_id":"1e6d8114-e844-4347-a41a-9379c7d57f71","system_id":"levelo_inurba_marseille","lat":43.26936,"lon":5.4025,"is_reserved":false,"is_disabled":false,"rental_uris":{"android":"levelo://app?vid=1e6d8114-e844-4347-a41a-9379c7d57f71","ios":"levelo://app?vid=1e6d8114-e844-4347-a41a-9379c7d57f71"},"vehicle_type_id":"4","last_reported":1731564810,"current_range_meters":24000,"station_id":"cjm6bp8fraef2m0cb0m0","pricing_plan_id":"cebpf4jnsgd1na2vs0mg"},{"bike_id":"052f9b93-6cd6-4b1f-acb9-36b85dbc4923","system_id":"levelo_inurba_marseille","lat":43.28452,"lon":5.35901,"is_reserved":false,"is_disabled":false,"rental_uris":{"android":"levelo://app?vid=052f9b93-6cd6-4b1f-acb9-36b85dbc4923","ios":"levelo://app?vid=052f9b93-6cd6-4b1f-acb9-36b85dbc4923"},"vehicle_type_id":"4","last_reported":1731564810,"current_range_meters":8800,"station_id":"ce4bhah2rcd13ifvqei0","pricing_plan_id":"cebpf4jnsgd1na2vs0mg"},{"bike_id":"ae292185-8e91-4db6-a612-c3563674c7fa","system_id":"levelo_inurba_marseille","lat":43.31749,"lon":5.39027,"is_reserved":false,"is_disabled":false,"rental_uris":{"android":"levelo://app?vid=ae292185-8e91-4db6-a612-c3563674c7fa","ios":"levelo://app?vid=ae292185-8e91-4db6-a612-c3563674c7fa"},"vehicle_type_id":"4","last_reported":1731564810,"current_range_meters":22800,"station_id":"ce4bhqp2rcd13ifvqhng","pricing_plan_id":"cebpf4jnsgd1na2vs0mg"},{"bike_id":"44553630-054c-4022-b9f8-63a7e0a3c106","system_id":"levelo_inurba_marseille","lat":43.23198,"lon":5.39974,"is_reserved":false,"is_disabled":false,"rental_uris":{"android":"levelo://app?vid=44553630-054c-4022-b9f8-63a7e0a3c106","ios":"levelo://app?vid=44553630-054c-4022-b9f8-63a7e0a3c106"},"vehicle_type_id":"4","last_reported":1731564810,"current_range_meters":14000,"station_id":"ce4bhn12rcd13ifvqgqg","pricing_plan_id":"cebpf4jnsgd1na2vs0mg"},{"bike_id":"91fe36a8-bc4f-4b08-8287-b0444a16f338","system_id":"levelo_inurba_marseille","lat":43.23155,"lon":5.43719,"is_reserved":false,"is_disabled":false,"rental_uris":{"android":"levelo://app?vid=91fe36a8-bc4f-4b08-8287-b0444a16f338","ios":"levelo://app?vid=91fe36a8-bc4f-4b08-8287-b0444a16f338"},"vehicle_type_id":"4","last_reported":1731564810,"current_range_meters":38000,"station_id":"ce4bhmp2rcd13ifvqgog","pricing_plan_id":"cebpf4jnsgd1na2vs0mg"},{"bike_id":"73da9a75-f79e-4090-86a7-a059dbc4a57e","system_id":"levelo_inurba_marseille","lat":43.30093,"lon":5.39081,"is_reserved":false,"is_disabled":false,"rental_uris":{"android":"levelo://app?vid=73da9a75-f79e-4090-86a7-a059dbc4a57e","ios":"levelo://app?vid=73da9a75-f79e-4090-86a7-a059dbc4a57e"},"vehicle_type_id":"4","last_reported":1731564810,"current_range_meters":38000,"station_id":"ce4bh192rcd13ifvqdb0","pricing_plan_id":"cebpf4jnsgd1na2vs0mg"},{"bike_id":"f5c3439b-e8e8-48e2-b9cd-0c4b842fb896","system_id":"levelo_inurba_marseille","lat":43.25087,"lon":5.39519,"is_reserved":false,"is_disabled":false,"rental_uris":{"android":"levelo://app?vid=f5c3439b-e8e8-48e2-b9cd-0c4b842fb896","ios":"levelo://app?vid=f5c3439b-e8e8-48e2-b9cd-0c4b842fb896"},"vehicle_type_id":"4","last_reported":1731564810,"current_range_meters":23200,"station_id":"ce4bhm12rcd13ifvqgkg","pricing_plan_id":"cebpf4jnsgd1na2vs0mg"},{"bike_id":"4f6386c1-cffb-4610-b64d-62e0d4870946","system_id":"levelo_inurba_marseille","lat":43.2873,"lon":5.36078,"is_reserved":false,"is_disabled":false,"rental_uris":{"android":"levelo://app?vid=4f6386c1-cffb-4610-b64d-62e0d4870946","ios":"levelo://app?vid=4f6386c1-cffb-4610-b64d-62e0d4870946"},"vehicle_type_id":"4","last_reported":1731564810,"current_range_meters":38800,"station_id":"cki0cbj6b192h4jlfktg","pricing_plan_id":"cebpf4jnsgd1na2vs0mg"},{"bike_id":"3b18cb70-5566-4f31-8dbf-ae39d6d51962","system_id":"levelo_inurba_marseille","lat":43.30933,"lon":5.40147,"is_reserved":false,"is_disabled":false,"rental_uris":{"android":"levelo://app?vid=3b18cb70-5566-4f31-8dbf-ae39d6d51962","ios":"levelo://app?vid=3b18cb70-5566-4f31-8dbf-ae39d6d51962"},"vehicle_type_id":"4","last_reported":1731564810,"current_range_meters":8000,"station_id":"ce4bgvp2rcd13ifvqct0","pricing_plan_id":"cebpf4jnsgd1na2vs0mg"},{"bike_id":"b64af34c-4cdf-474a-9735-d719d3d9d718","system_id":"levelo_inurba_marseille","lat":43.30461,"lon":5.3791,"is_reserved":false,"is_disabled":false,"rental_uris":{"android":"levelo://app?vid=b64af34c-4cdf-474a-9735-d719d3d9d718","ios":"levelo://app?vid=b64af34c-4cdf-474a-9735-d719d3d9d718"},"vehicle_type_id":"4","last_reported":1731564810,"current_range_meters":39200,"station_id":"ce4bgup2rcd13ifvqcn0","pricing_plan_id":"cebpf4jnsgd1na2vs0mg"},{"bike_id":"d9c902c9-ceb4-4faa-92db-38f2e5e1d341","system_id":"levelo_inurba_marseille","lat":43.25816,"lon":5.39436,"is_reserved":false,"is_disabled":false,"rental_uris":{"android":"levelo://app?vid=d9c902c9-ceb4-4faa-92db-38f2e5e1d341","ios":"levelo://app?vid=d9c902c9-ceb4-4faa-92db-38f2e5e1d341"},"vehicle_type_id":"4","last_reported":1731564810,"current_range_meters":4000,"station_id":"ce4bhip2rcd13ifvqft0","pricing_plan_id":"cebpf4jnsgd1na2vs0mg"},{"bike_id":"6731da3f-d8a2-49d1-abf3-b85f7793c4b9","system_id":"levelo_inurba_marseille","lat":43.30805,"lon":5.381518,"is_reserved":false,"is_disabled":false,"rental_uris":{"android":"levelo://app?vid=6731da3f-d8a2-49d1-abf3-b85f7793c4b9","ios":"levelo://app?vid=6731da3f-d8a2-49d1-abf3-b85f7793c4b9"},"vehicle_type_id":"4","last_reported":1731564810,"current_range_meters":26000,"station_id":"ce4bgt12rcd13ifvqce0","pricing_plan_id":"cebpf4jnsgd1na2vs0mg"},{"bike_id":"01ecd40e-2276-4e4f-8718-c6fcd768f34c","system_id":"levelo_inurba_marseille","lat":43.24807,"lon":5.37455,"is_reserved":false,"is_disabled":false,"rental_uris":{"android":"levelo://app?vid=01ecd40e-2276-4e4f-8718-c6fcd768f34c","ios":"levelo://app?vid=01ecd40e-2276-4e4f-8718-c6fcd768f34c"},"vehicle_type_id":"4","last_reported":1731564810,"current_range_meters":28800,"station_id":"ce4bhgh2rcd13ifvqfb0","pricing_plan_id":"cebpf4jnsgd1na2vs0mg"},{"bike_id":"3a7c1686-16fb-43f9-a859-6da762d7feac","system_id":"levelo_inurba_marseille","lat":43.307776,"lon":5.376487,"is_reserved":false,"is_disabled":false,"rental_uris":{"android":"levelo://app?vid=3a7c1686-16fb-43f9-a859-6da762d7feac","ios":"levelo://app?vid=3a7c1686-16fb-43f9-a859-6da762d7feac"},"vehicle_type_id":"4","last_reported":1731564810,"current_range_meters":37600,"station_id":"ce4bgv92rcd13ifvqcq0","pricing_plan_id":"cebpf4jnsgd1na2vs0mg"},{"bike_id":"57787bb0-1cf7-4460-ad20-7da83147c060","system_id":"levelo_inurba_marseille","lat":43.31172,"lon":5.38716,"is_reserved":false,"is_disabled":false,"rental_uris":{"android":"levelo://app?vid=57787bb0-1cf7-4460-ad20-7da83147c060","ios":"levelo://app?vid=57787bb0-1cf7-4460-ad20-7da83147c060"},"vehicle_type_id":"4","last_reported":1731564810,"current_range_meters":27200,"station_id":"ce4bgv12rcd13ifvqcp0","pricing_plan_id":"cebpf4jnsgd1na2vs0mg"},{"bike_id":"deeb86ad-6988-4b1a-861c-2717a7c11d1e","system_id":"levelo_inurba_marseille","lat":43.28151,"lon":5.42646,"is_reserved":false,"is_disabled":false,"rental_uris":{"android":"levelo://app?vid=deeb86ad-6988-4b1a-861c-2717a7c11d1e","ios":"levelo://app?vid=deeb86ad-6988-4b1a-861c-2717a7c11d1e"},"vehicle_type_id":"4","last_reported":1731564810,"current_range_meters":38400,"station_id":"ce4bhnh2rcd13ifvqgug","pricing_plan_id":"cebpf4jnsgd1na2vs0mg"},{"bike_id":"67cc0176-d02d-4779-bd99-3da0a1e49a5d","system_id":"levelo_inurba_marseille","lat":43.30415,"lon":5.41295,"is_reserved":false,"is_disabled":false,"rental_uris":{"android":"levelo://app?vid=67cc0176-d02d-4779-bd99-3da0a1e49a5d","ios":"levelo://app?vid=67cc0176-d02d-4779-bd99-3da0a1e49a5d"},"vehicle_type_id":"4","last_reported":1731564810,"current_range_meters":38000,"station_id":"ce4bhop2rcd13ifvqh8g","pricing_plan_id":"cebpf4jnsgd1na2vs0mg"},{"bike_id":"10f83ea1-21fc-49d5-934a-4b6f18d7a2b7","system_id":"levelo_inurba_marseille","lat":43.336127,"lon":5.410195,"is_reserved":false,"is_disabled":false,"rental_uris":{"android":"levelo://app?vid=10f83ea1-21fc-49d5-934a-4b6f18d7a2b7","ios":"levelo://app?vid=10f83ea1-21fc-49d5-934a-4b6f18d7a2b7"},"vehicle_type_id":"4","last_reported":1731564810,"current_range_meters":31200,"station_id":"ce4bhqh2rcd13ifvqhmg","pricing_plan_id":"cebpf4jnsgd1na2vs0mg"},{"bike_id":"198a4570-d525-4fce-b1c3-000649728c8b","system_id":"levelo_inurba_marseille","lat":43.27311,"lon":5.39089,"is_reserved":false,"is_disabled":false,"rental_uris":{"android":"levelo://app?vid=198a4570-d525-4fce-b1c3-000649728c8b","ios":"levelo://app?vid=198a4570-d525-4fce-b1c3-000649728c8b"},"vehicle_type_id":"4","last_reported":1731564810,"current_range_meters":37600,"station_id":"ce4bhgp2rcd13ifvqfe0","pricing_plan_id":"cebpf4jnsgd1na2vs0mg"},{"bike_id":"d0733b5e-6bfa-4bdb-8b6a-792a1167a5b8","system_id":"levelo_inurba_marseille","lat":43.31165,"lon":5.38707,"is_reserved":false,"is_disabled":false,"rental_uris":{"android":"levelo://app?vid=d0733b5e-6bfa-4bdb-8b6a-792a1167a5b8","ios":"levelo://app?vid=d0733b5e-6bfa-4bdb-8b6a-792a1167a5b8"},"vehicle_type_id":"4","last_reported":1731564810,"current_range_meters":38800,"station_id":"ce4bgv12rcd13ifvqcp0","pricing_plan_id":"cebpf4jnsgd1na2vs0mg"},{"bike_id":"341b4146-f80f-4069-97ee-692e0462699f","system_id":"levelo_inurba_marseille","lat":43.31067,"lon":5.38344,"is_reserved":false,"is_disabled":false,"rental_uris":{"android":"levelo://app?vid=341b4146-f80f-4069-97ee-692e0462699f","ios":"levelo://app?vid=341b4146-f80f-4069-97ee-692e0462699f"},"vehicle_type_id":"4","last_reported":1731564810,"current_range_meters":16400,"station_id":"ce4bgv92rcd13ifvqcr0","pricing_plan_id":"cebpf4jnsgd1na2vs0mg"},{"bike_id":"4a74f469-1d99-48ee-a8ca-9199898c00a4","system_id":"levelo_inurba_marseille","lat":43.23196,"lon":5.3555,"is_reserved":false,"is_disabled":false,"rental_uris":{"android":"levelo://app?vid=4a74f469-1d99-48ee-a8ca-9199898c00a4","ios":"levelo://app?vid=4a74f469-1d99-48ee-a8ca-9199898c00a4"},"vehicle_type_id":"4","last_reported":1731564810,"current_range_meters":23200,"station_id":"ce4bhu92rcd13ifvqi70","pricing_plan_id":"cebpf4jnsgd1na2vs0mg"},{"bike_id":"c513423a-06cf-4613-b0fc-fcc6a06b898c","system_id":"levelo_inurba_marseille","lat":43.26048,"lon":5.39396,"is_reserved":false,"is_disabled":false,"rental_uris":{"android":"levelo://app?vid=c513423a-06cf-4613-b0fc-fcc6a06b898c","ios":"levelo://app?vid=c513423a-06cf-4613-b0fc-fcc6a06b898c"},"vehicle_type_id":"4","last_reported":1731564810,"current_range_meters":38800,"station_id":"ce4bhh92rcd13ifvqfj0","pricing_plan_id":"cebpf4jnsgd1na2vs0mg"},{"bike_id":"dafd56e6-4f75-4b61-b4e0-5b75d8c1a00c","system_id":"levelo_inurba_marseille","lat":43.2872,"lon":5.36082,"is_reserved":false,"is_disabled":false,"rental_uris":{"android":"levelo://app?vid=dafd56e6-4f75-4b61-b4e0-5b75d8c1a00c","ios":"levelo://app?vid=dafd56e6-4f75-4b61-b4e0-5b75d8c1a00c"},"vehicle_type_id":"4","last_reported":1731564810,"current_range_meters":36400,"station_id":"cki0cbj6b192h4jlfktg","pricing_plan_id":"cebpf4jnsgd1na2vs0mg"},{"bike_id":"77849bd5-5bfe-4445-8191-82da714d15fa","system_id":"levelo_inurba_marseille","lat":43.27813,"lon":5.40716,"is_reserved":false,"is_disabled":false,"rental_uris":{"android":"levelo://app?vid=77849bd5-5bfe-4445-8191-82da714d15fa","ios":"levelo://app?vid=77849bd5-5bfe-4445-8191-82da714d15fa"},"vehicle_type_id":"4","last_reported":1731564810,"current_range_meters":35200,"station_id":"ce4bhnh2rcd13ifvqgtg","pricing_plan_id":"cebpf4jnsgd1na2vs0mg"},{"bike_id":"b4d728fa-35f7-4e39-83b7-6c7e64d06469","system_id":"levelo_inurba_marseille","lat":43.25585,"lon":5.38234,"is_reserved":false,"is_disabled":false,"rental_uris":{"android":"levelo://app?vid=b4d728fa-35f7-4e39-83b7-6c7e64d06469","ios":"levelo://app?vid=b4d728fa-35f7-4e39-83b7-6c7e64d06469"},"vehicle_type_id":"4","last_reported":1731564810,"current_range_meters":38800,"station_id":"ce4bhih2rcd13ifvqfs0","pricing_plan_id":"cebpf4jnsgd1na2vs0mg"},{"bike_id":"baeed238-b5b4-482c-9e5c-2accf4da025a","system_id":"levelo_inurba_marseille","lat":43.28031,"lon":5.36948,"is_reserved":false,"is_disabled":false,"rental_uris":{"android":"levelo://app?vid=baeed238-b5b4-482c-9e5c-2accf4da025a","ios":"levelo://app?vid=baeed238-b5b4-482c-9e5c-2accf4da025a"},"vehicle_type_id":"4","last_reported":1731564810,"current_range_meters":38400,"station_id":"ce4bha12rcd13ifvqef0","pricing_plan_id":"cebpf4jnsgd1na2vs0mg"},{"bike_id":"c686a523-a68c-45a9-a771-1fc5ac658cfe","system_id":"levelo_inurba_marseille","lat":43.32333,"lon":5.40617,"is_reserved":false,"is_disabled":false,"rental_uris":{"android":"levelo://app?vid=c686a523-a68c-45a9-a771-1fc5ac658cfe","ios":"levelo://app?vid=c686a523-a68c-45a9-a771-1fc5ac658cfe"},"vehicle_type_id":"4","last_reported":1731564810,"current_range_meters":39200,"station_id":"ce4bhq92rcd13ifvqhjg","pricing_plan_id":"cebpf4jnsgd1na2vs0mg"},{"bike_id":"6db1e6c8-06cc-4380-90f6-7eba7199060d","system_id":"levelo_inurba_marseille","lat":43.31084,"lon":5.38351,"is_reserved":false,"is_disabled":false,"rental_uris":{"android":"levelo://app?vid=6db1e6c8-06cc-4380-90f6-7eba7199060d","ios":"levelo://app?vid=6db1e6c8-06cc-4380-90f6-7eba7199060d"},"vehicle_type_id":"4","last_reported":1731564810,"current_range_meters":38800,"station_id":"ce4bgv92rcd13ifvqcr0","pricing_plan_id":"cebpf4jnsgd1na2vs0mg"},{"bike_id":"4a5ca1e0-4e13-4a04-b77d-92aecf8fbba5","system_id":"levelo_inurba_marseille","lat":43.306442,"lon":5.400758,"is_reserved":false,"is_disabled":false,"rental_uris":{"android":"levelo://app?vid=4a5ca1e0-4e13-4a04-b77d-92aecf8fbba5","ios":"levelo://app?vid=4a5ca1e0-4e13-4a04-b77d-92aecf8fbba5"},"vehicle_type_id":"4","last_reported":1731564810,"current_range_meters":38800,"station_id":"ce4bh112rcd13ifvqda0","pricing_plan_id":"cebpf4jnsgd1na2vs0mg"},{"bike_id":"b401526e-9797-412b-a024-2aeff2654ce6","system_id":"levelo_inurba_marseille","lat":43.279361,"lon":5.354991,"is_reserved":false,"is_disabled":false,"rental_uris":{"android":"levelo://app?vid=b401526e-9797-412b-a024-2aeff2654ce6","ios":"levelo://app?vid=b401526e-9797-412b-a024-2aeff2654ce6"},"vehicle_type_id":"4","last_reported":1731564810,"current_range_meters":6800,"station_id":"","pricing_plan_id":"cebpf4jnsgd1na2vs0mg"},{"bike_id":"37dcd8c4-5f61-405b-84ad-7c41c7125b21","system_id":"levelo_inurba_marseille","lat":43.24075,"lon":5.37743,"is_reserved":false,"is_disabled":false,"rental_uris":{"android":"levelo://app?vid=37dcd8c4-5f61-405b-84ad-7c41c7125b21","ios":"levelo://app?vid=37dcd8c4-5f61-405b-84ad-7c41c7125b21"},"vehicle_type_id":"4","last_reported":1731564810,"current_range_meters":38000,"station_id":"ce4bhnp2rcd13ifvqgvg","pricing_plan_id":"cebpf4jnsgd1na2vs0mg"},{"bike_id":"75659cfe-2d87-40df-8a8a-06fea6680d55","system_id":"levelo_inurba_marseille","lat":43.29441,"lon":5.3974,"is_reserved":false,"is_disabled":false,"rental_uris":{"android":"levelo://app?vid=75659cfe-2d87-40df-8a8a-06fea6680d55","ios":"levelo://app?vid=75659cfe-2d87-40df-8a8a-06fea6680d55"},"vehicle_type_id":"4","last_reported":1731564810,"current_range_meters":9600,"station_id":"ce4bh3h2rcd13ifvqdo0","pricing_plan_id":"cebpf4jnsgd1na2vs0mg"},{"bike_id":"5031991e-125b-41e6-a14f-3bafbd97c480","system_id":"levelo_inurba_marseille","lat":43.30806,"lon":5.38163,"is_reserved":false,"is_disabled":false,"rental_uris":{"android":"levelo://app?vid=5031991e-125b-41e6-a14f-3bafbd97c480","ios":"levelo://app?vid=5031991e-125b-41e6-a14f-3bafbd97c480"},"vehicle_type_id":"4","last_reported":1731564810,"current_range_meters":20000,"station_id":"ce4bgt12rcd13ifvqce0","pricing_plan_id":"cebpf4jnsgd1na2vs0mg"},{"bike_id":"d90d861b-f246-48e4-b5c6-8f100bd8f91c","system_id":"levelo_inurba_marseille","lat":43.25086,"lon":5.39517,"is_reserved":false,"is_disabled":false,"rental_uris":{"android":"levelo://app?vid=d90d861b-f246-48e4-b5c6-8f100bd8f91c","ios":"levelo://app?vid=d90d861b-f246-48e4-b5c6-8f100bd8f91c"},"vehicle_type_id":"4","last_reported":1731564810,"current_range_meters":25200,"station_id":"ce4bhm12rcd13ifvqgkg","pricing_plan_id":"cebpf4jnsgd1na2vs0mg"},{"bike_id":"263d9352-745d-4496-b9ba-001591edf2fa","system_id":"levelo_inurba_marseille","lat":43.25502,"lon":5.37649,"is_reserved":false,"is_disabled":false,"rental_uris":{"android":"levelo://app?vid=263d9352-745d-4496-b9ba-001591edf2fa","ios":"levelo://app?vid=263d9352-745d-4496-b9ba-001591edf2fa"},"vehicle_type_id":"4","last_reported":1731564810,"current_range_meters":38000,"station_id":"ce4bhh12rcd13ifvqff0","pricing_plan_id":"cebpf4jnsgd1na2vs0mg"},{"bike_id":"70f50ed8-bb6c-40e0-9262-e5b76f896273","system_id":"levelo_inurba_marseille","lat":43.28485,"lon":5.38594,"is_reserved":false,"is_disabled":false,"rental_uris":{"android":"levelo://app?vid=70f50ed8-bb6c-40e0-9262-e5b76f896273","ios":"levelo://app?vid=70f50ed8-bb6c-40e0-9262-e5b76f896273"},"vehicle_type_id":"4","last_reported":1731564810,"current_range_meters":33200,"station_id":"ce4bh8p2rcd13ifvqeb0","pricing_plan_id":"cebpf4jnsgd1na2vs0mg"},{"bike_id":"7e63faf9-d024-496e-b376-c55c44be2590","system_id":"levelo_inurba_marseille","lat":43.27178,"lon":5.40993,"is_reserved":false,"is_disabled":false,"rental_uris":{"android":"levelo://app?vid=7e63faf9-d024-496e-b376-c55c44be2590","ios":"levelo://app?vid=7e63faf9-d024-496e-b376-c55c44be2590"},"vehicle_type_id":"4","last_reported":1731564810,"current_range_meters":9200,"station_id":"ce4bhl12rcd13ifvqgf0","pricing_plan_id":"cebpf4jnsgd1na2vs0mg"},{"bike_id":"ba072c81-68e1-461a-864f-4e07b99f5aff","system_id":"levelo_inurba_marseille","lat":43.30461,"lon":5.37917,"is_reserved":false,"is_disabled":false,"rental_uris":{"android":"levelo://app?vid=ba072c81-68e1-461a-864f-4e07b99f5aff","ios":"levelo://app?vid=ba072c81-68e1-461a-864f-4e07b99f5aff"},"vehicle_type_id":"4","last_reported":1731564810,"current_range_meters":20000,"station_id":"ce4bgup2rcd13ifvqcn0","pricing_plan_id":"cebpf4jnsgd1na2vs0mg"},{"bike_id":"44376c3b-e62c-4341-acee-1fb0b2497c4c","system_id":"levelo_inurba_marseille","lat":43.23966,"lon":5.36632,"is_reserved":false,"is_disabled":false,"rental_uris":{"android":"levelo://app?vid=44376c3b-e62c-4341-acee-1fb0b2497c4c","ios":"levelo://app?vid=44376c3b-e62c-4341-acee-1fb0b2497c4c"},"vehicle_type_id":"4","last_reported":1731564810,"current_range_meters":32800,"station_id":"ce4bhi12rcd13ifvqfp0","pricing_plan_id":"cebpf4jnsgd1na2vs0mg"},{"bike_id":"7cdb67bd-0174-4b2a-a978-6d8f0879f18a","system_id":"levelo_inurba_marseille","lat":43.317544,"lon":5.390229,"is_reserved":false,"is_disabled":false,"rental_uris":{"android":"levelo://app?vid=7cdb67bd-0174-4b2a-a978-6d8f0879f18a","ios":"levelo://app?vid=7cdb67bd-0174-4b2a-a978-6d8f0879f18a"},"vehicle_type_id":"4","last_reported":1731564810,"current_range_meters":37600,"station_id":"ce4bhqp2rcd13ifvqhng","pricing_plan_id":"cebpf4jnsgd1na2vs0mg"},{"bike_id":"45865806-bc2c-4c6c-8332-c61b5ccd45c4","system_id":"levelo_inurba_marseille","lat":43.31533,"lon":5.38034,"is_reserved":false,"is_disabled":false,"rental_uris":{"android":"levelo://app?vid=45865806-bc2c-4c6c-8332-c61b5ccd45c4","ios":"levelo://app?vid=45865806-bc2c-4c6c-8332-c61b5ccd45c4"},"vehicle_type_id":"4","last_reported":1731564810,"current_range_meters":38800,"station_id":"ce4bhsp2rcd13ifvqi50","pricing_plan_id":"cebpf4jnsgd1na2vs0mg"},{"bike_id":"4743b628-4196-4803-a236-60c643e56ffa","system_id":"levelo_inurba_marseille","lat":43.29201,"lon":5.39299,"is_reserved":false,"is_disabled":false,"rental_uris":{"android":"levelo://app?vid=4743b628-4196-4803-a236-60c643e56ffa","ios":"levelo://app?vid=4743b628-4196-4803-a236-60c643e56ffa"},"vehicle_type_id":"4","last_reported":1731564810,"current_range_meters":38400,"station_id":"ce4bh192rcd13ifvqdd0","pricing_plan_id":"cebpf4jnsgd1na2vs0mg"},{"bike_id":"6f2381a1-e714-4222-b8c9-b959e0ca15ec","system_id":"levelo_inurba_marseille","lat":43.30895,"lon":5.39652,"is_reserved":false,"is_disabled":false,"rental_uris":{"android":"levelo://app?vid=6f2381a1-e714-4222-b8c9-b959e0ca15ec","ios":"levelo://app?vid=6f2381a1-e714-4222-b8c9-b959e0ca15ec"},"vehicle_type_id":"4","last_reported":1731564810,"current_range_meters":36800,"station_id":"ce4bh012rcd13ifvqcv0","pricing_plan_id":"cebpf4jnsgd1na2vs0mg"},{"bike_id":"f6be5a9f-da9f-4673-8aa7-5387ec0333e4","system_id":"levelo_inurba_marseille","lat":43.28085,"lon":5.39655,"is_reserved":false,"is_disabled":false,"rental_uris":{"android":"levelo://app?vid=f6be5a9f-da9f-4673-8aa7-5387ec0333e4","ios":"levelo://app?vid=f6be5a9f-da9f-4673-8aa7-5387ec0333e4"},"vehicle_type_id":"4","last_reported":1731564810,"current_range_meters":15200,"station_id":"ce4bho12rcd13ifvqh2g","pricing_plan_id":"cebpf4jnsgd1na2vs0mg"},{"bike_id":"081da35e-7be4-4677-ae21-4a21c62d9f91","system_id":"levelo_inurba_marseille","lat":43.316476,"lon":5.368407,"is_reserved":false,"is_disabled":false,"rental_uris":{"android":"levelo://app?vid=081da35e-7be4-4677-ae21-4a21c62d9f91","ios":"levelo://app?vid=081da35e-7be4-4677-ae21-4a21c62d9f91"},"vehicle_type_id":"4","last_reported":1731564810,"current_range_meters":36800,"station_id":"ce4bgrh2rcd13ifvqc8g","pricing_plan_id":"cebpf4jnsgd1na2vs0mg"},{"bike_id":"2bf92c27-8abc-430a-95a6-e953cd3e299e","system_id":"levelo_inurba_marseille","lat":43.29628,"lon":5.40601,"is_reserved":false,"is_disabled":false,"rental_uris":{"android":"levelo://app?vid=2bf92c27-8abc-430a-95a6-e953cd3e299e","ios":"levelo://app?vid=2bf92c27-8abc-430a-95a6-e953cd3e299e"},"vehicle_type_id":"4","last_reported":1731564810,"current_range_meters":38800,"station_id":"ce4bh0h2rcd13ifvqd60","pricing_plan_id":"cebpf4jnsgd1na2vs0mg"},{"bike_id":"88f4a0ea-f89b-4e50-88f3-da55f603f69a","system_id":"levelo_inurba_marseille","lat":43.32102,"lon":5.36779,"is_reserved":false,"is_disabled":false,"rental_uris":{"android":"levelo://app?vid=88f4a0ea-f89b-4e50-88f3-da55f603f69a","ios":"levelo://app?vid=88f4a0ea-f89b-4e50-88f3-da55f603f69a"},"vehicle_type_id":"4","last_reported":1731564810,"current_range_meters":16800,"station_id":"ce4bhrh2rcd13ifvqhug","pricing_plan_id":"cebpf4jnsgd1na2vs0mg"},{"bike_id":"6eebe7e0-e2df-48f4-b6ca-e9514d151868","system_id":"levelo_inurba_marseille","lat":43.29277,"lon":5.40115,"is_reserved":false,"is_disabled":false,"rental_uris":{"android":"levelo://app?vid=6eebe7e0-e2df-48f4-b6ca-e9514d151868","ios":"levelo://app?vid=6eebe7e0-e2df-48f4-b6ca-e9514d151868"},"vehicle_type_id":"4","last_reported":1731564810,"current_range_meters":36000,"station_id":"ce4bh312rcd13ifvqdk0","pricing_plan_id":"cebpf4jnsgd1na2vs0mg"},{"bike_id":"4f727579-cd49-4be4-8a91-84e66e2eade4","system_id":"levelo_inurba_marseille","lat":43.309072,"lon":5.402739,"is_reserved":false,"is_disabled":false,"rental_uris":{"android":"levelo://app?vid=4f727579-cd49-4be4-8a91-84e66e2eade4","ios":"levelo://app?vid=4f727579-cd49-4be4-8a91-84e66e2eade4"},"vehicle_type_id":"4","last_reported":1731564810,"current_range_meters":38000,"station_id":"","pricing_plan_id":"cebpf4jnsgd1na2vs0mg"},{"bike_id":"c4d3108a-1727-4984-9260-0d0a54662088","system_id":"levelo_inurba_marseille","lat":43.2838,"lon":5.38648,"is_reserved":false,"is_disabled":false,"rental_uris":{"android":"levelo://app?vid=c4d3108a-1727-4984-9260-0d0a54662088","ios":"levelo://app?vid=c4d3108a-1727-4984-9260-0d0a54662088"},"vehicle_type_id":"4","last_reported":1731564810,"current_range_meters":37600,"station_id":"ce4bh492rcd13ifvqdvg","pricing_plan_id":"cebpf4jnsgd1na2vs0mg"},{"bike_id":"0c17992f-3f97-498a-955a-e117f8bf9f00","system_id":"levelo_inurba_marseille","lat":43.29572,"lon":5.39966,"is_reserved":false,"is_disabled":false,"rental_uris":{"android":"levelo://app?vid=0c17992f-3f97-498a-955a-e117f8bf9f00","ios":"levelo://app?vid=0c17992f-3f97-498a-955a-e117f8bf9f00"},"vehicle_type_id":"4","last_reported":1731564810,"current_range_meters":32000,"station_id":"ce4bh312rcd13ifvqdj0","pricing_plan_id":"cebpf4jnsgd1na2vs0mg"},{"bike_id":"b0b9f0a5-6c3e-4409-abd1-3ff962e212a0","system_id":"levelo_inurba_marseille","lat":43.30934,"lon":5.40145,"is_reserved":false,"is_disabled":false,"rental_uris":{"android":"levelo://app?vid=b0b9f0a5-6c3e-4409-abd1-3ff962e212a0","ios":"levelo://app?vid=b0b9f0a5-6c3e-4409-abd1-3ff962e212a0"},"vehicle_type_id":"4","last_reported":1731564810,"current_range_meters":38800,"station_id":"ce4bgvp2rcd13ifvqct0","pricing_plan_id":"cebpf4jnsgd1na2vs0mg"},{"bike_id":"203e76b4-b6a7-4141-81bb-1c6c13698fa7","system_id":"levelo_inurba_marseille","lat":43.28153,"lon":5.42648,"is_reserved":false,"is_disabled":false,"rental_uris":{"android":"levelo://app?vid=203e76b4-b6a7-4141-81bb-1c6c13698fa7","ios":"levelo://app?vid=203e76b4-b6a7-4141-81bb-1c6c13698fa7"},"vehicle_type_id":"4","last_reported":1731564810,"current_range_meters":38800,"station_id":"ce4bhnh2rcd13ifvqgug","pricing_plan_id":"cebpf4jnsgd1na2vs0mg"},{"bike_id":"817849d8-25eb-48a4-b155-e11b87f519ff","system_id":"levelo_inurba_marseille","lat":43.305398,"lon":5.365433,"is_reserved":false,"is_disabled":false,"rental_uris":{"android":"levelo://app?vid=817849d8-25eb-48a4-b155-e11b87f519ff","ios":"levelo://app?vid=817849d8-25eb-48a4-b155-e11b87f519ff"},"vehicle_type_id":"4","last_reported":1731564810,"current_range_meters":38000,"station_id":"ce4bgs12rcd13ifvqcag","pricing_plan_id":"cebpf4jnsgd1na2vs0mg"},{"bike_id":"b5c48233-4f2d-4568-a512-177511afea67","system_id":"levelo_inurba_marseille","lat":43.29046,"lon":5.35926,"is_reserved":false,"is_disabled":false,"rental_uris":{"android":"levelo://app?vid=b5c48233-4f2d-4568-a512-177511afea67","ios":"levelo://app?vid=b5c48233-4f2d-4568-a512-177511afea67"},"vehicle_type_id":"4","last_reported":1731564810,"current_range_meters":38800,"station_id":"ce4bha92rcd13ifvqeg0","pricing_plan_id":"cebpf4jnsgd1na2vs0mg"},{"bike_id":"5d7c50d9-a10f-4e3b-afec-77c1a7e640d5","system_id":"levelo_inurba_marseille","lat":43.307773,"lon":5.376533,"is_reserved":false,"is_disabled":false,"rental_uris":{"android":"levelo://app?vid=5d7c50d9-a10f-4e3b-afec-77c1a7e640d5","ios":"levelo://app?vid=5d7c50d9-a10f-4e3b-afec-77c1a7e640d5"},"vehicle_type_id":"4","last_reported":1731564810,"current_range_meters":28000,"station_id":"ce4bgv92rcd13ifvqcq0","pricing_plan_id":"cebpf4jnsgd1na2vs0mg"},{"bike_id":"3dd2ef49-ad1c-43a1-ac6b-b877c1801c2f","system_id":"levelo_inurba_marseille","lat":43.27898,"lon":5.38014,"is_reserved":false,"is_disabled":false,"rental_uris":{"android":"levelo://app?vid=3dd2ef49-ad1c-43a1-ac6b-b877c1801c2f","ios":"levelo://app?vid=3dd2ef49-ad1c-43a1-ac6b-b877c1801c2f"},"vehicle_type_id":"4","last_reported":1731564810,"current_range_meters":38800,"station_id":"ce4bhf92rcd13ifvqf50","pricing_plan_id":"cebpf4jnsgd1na2vs0mg"},{"bike_id":"9cf5fe7b-47e5-4da9-8f85-ef1aeead96c5","system_id":"levelo_inurba_marseille","lat":43.3065,"lon":5.40083,"is_reserved":false,"is_disabled":false,"rental_uris":{"android":"levelo://app?vid=9cf5fe7b-47e5-4da9-8f85-ef1aeead96c5","ios":"levelo://app?vid=9cf5fe7b-47e5-4da9-8f85-ef1aeead96c5"},"vehicle_type_id":"4","last_reported":1731564810,"current_range_meters":38800,"station_id":"ce4bh112rcd13ifvqda0","pricing_plan_id":"cebpf4jnsgd1na2vs0mg"},{"bike_id":"d99bff46-e3e0-4c25-9719-3fa3dd9a1a6e","system_id":"levelo_inurba_marseille","lat":43.31399,"lon":5.37418,"is_reserved":false,"is_disabled":false,"rental_uris":{"android":"levelo://app?vid=d99bff46-e3e0-4c25-9719-3fa3dd9a1a6e","ios":"levelo://app?vid=d99bff46-e3e0-4c25-9719-3fa3dd9a1a6e"},"vehicle_type_id":"4","last_reported":1731564810,"current_range_meters":22000,"station_id":"","pricing_plan_id":"cebpf4jnsgd1na2vs0mg"},{"bike_id":"281020df-5f59-497b-b4e2-fd02c6b10da5","system_id":"levelo_inurba_marseille","lat":43.26805,"lon":5.40267,"is_reserved":false,"is_disabled":false,"rental_uris":{"android":"levelo://app?vid=281020df-5f59-497b-b4e2-fd02c6b10da5","ios":"levelo://app?vid=281020df-5f59-497b-b4e2-fd02c6b10da5"},"vehicle_type_id":"4","last_reported":1731564810,"current_range_meters":38000,"station_id":"ce501612rcd8frsf0b60","pricing_plan_id":"cebpf4jnsgd1na2vs0mg"},{"bike_id":"1f9bbbe2-6d43-4695-ad1c-62239c6576c6","system_id":"levelo_inurba_marseille","lat":43.28462,"lon":5.35878,"is_reserved":false,"is_disabled":false,"rental_uris":{"android":"levelo://app?vid=1f9bbbe2-6d43-4695-ad1c-62239c6576c6","ios":"levelo://app?vid=1f9bbbe2-6d43-4695-ad1c-62239c6576c6"},"vehicle_type_id":"4","last_reported":1731564810,"current_range_meters":8800,"station_id":"ce4bhah2rcd13ifvqei0","pricing_plan_id":"cebpf4jnsgd1na2vs0mg"},{"bike_id":"4e2374da-ae8a-4e80-b322-a311f399cd72","system_id":"levelo_inurba_marseille","lat":43.30635,"lon":5.40081,"is_reserved":false,"is_disabled":false,"rental_uris":{"android":"levelo://app?vid=4e2374da-ae8a-4e80-b322-a311f399cd72","ios":"levelo://app?vid=4e2374da-ae8a-4e80-b322-a311f399cd72"},"vehicle_type_id":"4","last_reported":1731564810,"current_range_meters":16000,"station_id":"ce4bh112rcd13ifvqda0","pricing_plan_id":"cebpf4jnsgd1na2vs0mg"},{"bike_id":"41216121-f9a5-4d0d-b4ad-c65a5f5a6201","system_id":"levelo_inurba_marseille","lat":43.33724,"lon":5.39185,"is_reserved":false,"is_disabled":false,"rental_uris":{"android":"levelo://app?vid=41216121-f9a5-4d0d-b4ad-c65a5f5a6201","ios":"levelo://app?vid=41216121-f9a5-4d0d-b4ad-c65a5f5a6201"},"vehicle_type_id":"4","last_reported":1731564810,"current_range_meters":37600,"station_id":"ce4bhr92rcd13ifvqhsg","pricing_plan_id":"cebpf4jnsgd1na2vs0mg"},{"bike_id":"07df449b-4274-4142-8432-30fbab1e34c7","system_id":"levelo_inurba_marseille","lat":43.316925,"lon":5.423986,"is_reserved":false,"is_disabled":false,"rental_uris":{"android":"levelo://app?vid=07df449b-4274-4142-8432-30fbab1e34c7","ios":"levelo://app?vid=07df449b-4274-4142-8432-30fbab1e34c7"},"vehicle_type_id":"4","last_reported":1731564810,"current_range_meters":6400,"station_id":"ce4bhp92rcd13ifvqhbg","pricing_plan_id":"cebpf4jnsgd1na2vs0mg"},{"bike_id":"805bb8b1-9cc6-4f3e-a15b-1d33acae2c35","system_id":"levelo_inurba_marseille","lat":43.25088,"lon":5.39513,"is_reserved":false,"is_disabled":false,"rental_uris":{"android":"levelo://app?vid=805bb8b1-9cc6-4f3e-a15b-1d33acae2c35","ios":"levelo://app?vid=805bb8b1-9cc6-4f3e-a15b-1d33acae2c35"},"vehicle_type_id":"4","last_reported":1731564810,"current_range_meters":8800,"station_id":"ce4bhm12rcd13ifvqgkg","pricing_plan_id":"cebpf4jnsgd1na2vs0mg"},{"bike_id":"9e9a2369-1d14-4981-a72c-1ddb3ebe0ae3","system_id":"levelo_inurba_marseille","lat":43.27988,"lon":5.41671,"is_reserved":false,"is_disabled":false,"rental_uris":{"android":"levelo://app?vid=9e9a2369-1d14-4981-a72c-1ddb3ebe0ae3","ios":"levelo://app?vid=9e9a2369-1d14-4981-a72c-1ddb3ebe0ae3"},"vehicle_type_id":"4","last_reported":1731564810,"current_range_meters":38000,"station_id":"ce4bho12rcd13ifvqh1g","pricing_plan_id":"cebpf4jnsgd1na2vs0mg"},{"bike_id":"e84c3e0e-ecb8-4ff3-a803-0156741b8ebd","system_id":"levelo_inurba_marseille","lat":43.31383,"lon":5.38507,"is_reserved":false,"is_disabled":false,"rental_uris":{"android":"levelo://app?vid=e84c3e0e-ecb8-4ff3-a803-0156741b8ebd","ios":"levelo://app?vid=e84c3e0e-ecb8-4ff3-a803-0156741b8ebd"},"vehicle_type_id":"4","last_reported":1731564810,"current_range_meters":19200,"station_id":"ce4bgt92rcd13ifvqcf0","pricing_plan_id":"cebpf4jnsgd1na2vs0mg"},{"bike_id":"1f82fd4c-c516-4a93-bc94-937e463bfe2a","system_id":"levelo_inurba_marseille","lat":43.284895,"lon":5.34997,"is_reserved":false,"is_disabled":false,"rental_uris":{"android":"levelo://app?vid=1f82fd4c-c516-4a93-bc94-937e463bfe2a","ios":"levelo://app?vid=1f82fd4c-c516-4a93-bc94-937e463bfe2a"},"vehicle_type_id":"4","last_reported":1731564810,"current_range_meters":34800,"station_id":"ce4bhbh2rcd13ifvqepg","pricing_plan_id":"cebpf4jnsgd1na2vs0mg"},{"bike_id":"98815e11-316c-46d0-a9a4-8247fa6ca6a0","system_id":"levelo_inurba_marseille","lat":43.31694,"lon":5.40471,"is_reserved":false,"is_disabled":false,"rental_uris":{"android":"levelo://app?vid=98815e11-316c-46d0-a9a4-8247fa6ca6a0","ios":"levelo://app?vid=98815e11-316c-46d0-a9a4-8247fa6ca6a0"},"vehicle_type_id":"4","last_reported":1731564810,"current_range_meters":26000,"station_id":"ce4bh012rcd13ifvqd00","pricing_plan_id":"cebpf4jnsgd1na2vs0mg"},{"bike_id":"30d01d40-b344-44b8-8b4b-a5db4d84b4d9","system_id":"levelo_inurba_marseille","lat":43.31281,"lon":5.4017,"is_reserved":false,"is_disabled":false,"rental_uris":{"android":"levelo://app?vid=30d01d40-b344-44b8-8b4b-a5db4d84b4d9","ios":"levelo://app?vid=30d01d40-b344-44b8-8b4b-a5db4d84b4d9"},"vehicle_type_id":"4","last_reported":1731564810,"current_range_meters":38400,"station_id":"ce4bh092rcd13ifvqd30","pricing_plan_id":"cebpf4jnsgd1na2vs0mg"},{"bike_id":"dce9d18a-2eb0-485e-b7f9-a6c9a12da3ae","system_id":"levelo_inurba_marseille","lat":43.27203,"lon":5.39189,"is_reserved":false,"is_disabled":false,"rental_uris":{"android":"levelo://app?vid=dce9d18a-2eb0-485e-b7f9-a6c9a12da3ae","ios":"levelo://app?vid=dce9d18a-2eb0-485e-b7f9-a6c9a12da3ae"},"vehicle_type_id":"4","last_reported":1731564810,"current_range_meters":38800,"station_id":"ce4bhhp2rcd13ifvqfm0","pricing_plan_id":"cebpf4jnsgd1na2vs0mg"},{"bike_id":"601a1465-051c-4093-a525-7d32214d84ba","system_id":"levelo_inurba_marseille","lat":43.27317,"lon":5.39075,"is_reserved":false,"is_disabled":false,"rental_uris":{"android":"levelo://app?vid=601a1465-051c-4093-a525-7d32214d84ba","ios":"levelo://app?vid=601a1465-051c-4093-a525-7d32214d84ba"},"vehicle_type_id":"4","last_reported":1731564810,"current_range_meters":8400,"station_id":"ce4bhgp2rcd13ifvqfe0","pricing_plan_id":"cebpf4jnsgd1na2vs0mg"},{"bike_id":"d4999c7f-8b6e-4a0e-b01a-e88fae560a5c","system_id":"levelo_inurba_marseille","lat":43.2905,"lon":5.35918,"is_reserved":false,"is_disabled":false,"rental_uris":{"android":"levelo://app?vid=d4999c7f-8b6e-4a0e-b01a-e88fae560a5c","ios":"levelo://app?vid=d4999c7f-8b6e-4a0e-b01a-e88fae560a5c"},"vehicle_type_id":"4","last_reported":1731564810,"current_range_meters":38400,"station_id":"ce4bha92rcd13ifvqeg0","pricing_plan_id":"cebpf4jnsgd1na2vs0mg"},{"bike_id":"cb9a6aa0-0b19-47f1-9052-a16185b299c2","system_id":"levelo_inurba_marseille","lat":43.298783,"lon":5.397336,"is_reserved":false,"is_disabled":false,"rental_uris":{"android":"levelo://app?vid=cb9a6aa0-0b19-47f1-9052-a16185b299c2","ios":"levelo://app?vid=cb9a6aa0-0b19-47f1-9052-a16185b299c2"},"vehicle_type_id":"4","last_reported":1731564810,"current_range_meters":39200,"station_id":"ce4bh0h2rcd13ifvqd50","pricing_plan_id":"cebpf4jnsgd1na2vs0mg"},{"bike_id":"e7176aa2-d3c2-43a2-b061-c0a4679ce72f","system_id":"levelo_inurba_marseille","lat":43.29844,"lon":5.36268,"is_reserved":false,"is_disabled":false,"rental_uris":{"android":"levelo://app?vid=e7176aa2-d3c2-43a2-b061-c0a4679ce72f","ios":"levelo://app?vid=e7176aa2-d3c2-43a2-b061-c0a4679ce72f"},"vehicle_type_id":"4","last_reported":1731564810,"current_range_meters":24400,"station_id":"ce4bgpp2rcd13ifvqc3g","pricing_plan_id":"cebpf4jnsgd1na2vs0mg"},{"bike_id":"4d588559-87d9-4b67-ac55-1a3523c0923d","system_id":"levelo_inurba_marseille","lat":43.29892,"lon":5.43659,"is_reserved":false,"is_disabled":false,"rental_uris":{"android":"levelo://app?vid=4d588559-87d9-4b67-ac55-1a3523c0923d","ios":"levelo://app?vid=4d588559-87d9-4b67-ac55-1a3523c0923d"},"vehicle_type_id":"4","last_reported":1731564810,"current_range_meters":38800,"station_id":"ce4bhpp2rcd13ifvqhfg","pricing_plan_id":"cebpf4jnsgd1na2vs0mg"},{"bike_id":"090f2c6f-1542-476a-bdba-fe3151f59ec4","system_id":"levelo_inurba_marseille","lat":43.30134,"lon":5.37412,"is_reserved":false,"is_disabled":false,"rental_uris":{"android":"levelo://app?vid=090f2c6f-1542-476a-bdba-fe3151f59ec4","ios":"levelo://app?vid=090f2c6f-1542-476a-bdba-fe3151f59ec4"},"vehicle_type_id":"4","last_reported":1731564810,"current_range_meters":31200,"station_id":"ce4bgs92rcd13ifvqcc0","pricing_plan_id":"cebpf4jnsgd1na2vs0mg"},{"bike_id":"2d16809b-b950-4ab3-9ebf-e094f3c550af","system_id":"levelo_inurba_marseille","lat":43.31685,"lon":5.40463,"is_reserved":false,"is_disabled":false,"rental_uris":{"android":"levelo://app?vid=2d16809b-b950-4ab3-9ebf-e094f3c550af","ios":"levelo://app?vid=2d16809b-b950-4ab3-9ebf-e094f3c550af"},"vehicle_type_id":"4","last_reported":1731564810,"current_range_meters":26000,"station_id":"ce4bh012rcd13ifvqd00","pricing_plan_id":"cebpf4jnsgd1na2vs0mg"},{"bike_id":"6a013f38-7997-41e7-ac4a-77fc2e02fba8","system_id":"levelo_inurba_marseille","lat":43.30295,"lon":5.39213,"is_reserved":false,"is_disabled":false,"rental_uris":{"android":"levelo://app?vid=6a013f38-7997-41e7-ac4a-77fc2e02fba8","ios":"levelo://app?vid=6a013f38-7997-41e7-ac4a-77fc2e02fba8"},"vehicle_type_id":"4","last_reported":1731564810,"current_range_meters":37600,"station_id":"ce4bgkh2rcd13ifvqbk0","pricing_plan_id":"cebpf4jnsgd1na2vs0mg"},{"bike_id":"419b7743-8f57-440d-9edb-7dda77b1aa34","system_id":"levelo_inurba_marseille","lat":43.3015,"lon":5.38081,"is_reserved":false,"is_disabled":false,"rental_uris":{"android":"levelo://app?vid=419b7743-8f57-440d-9edb-7dda77b1aa34","ios":"levelo://app?vid=419b7743-8f57-440d-9edb-7dda77b1aa34"},"vehicle_type_id":"4","last_reported":1731564810,"current_range_meters":37600,"station_id":"ce4bgjp2rcd13ifvqbh0","pricing_plan_id":"cebpf4jnsgd1na2vs0mg"},{"bike_id":"6cfa6652-479d-4f14-bb48-8ecafbe3740b","system_id":"levelo_inurba_marseille","lat":43.30422,"lon":5.39757,"is_reserved":false,"is_disabled":false,"rental_uris":{"android":"levelo://app?vid=6cfa6652-479d-4f14-bb48-8ecafbe3740b","ios":"levelo://app?vid=6cfa6652-479d-4f14-bb48-8ecafbe3740b"},"vehicle_type_id":"4","last_reported":1731564810,"current_range_meters":22400,"station_id":"ce4bh092rcd13ifvqd20","pricing_plan_id":"cebpf4jnsgd1na2vs0mg"},{"bike_id":"2dfe3ff7-15f1-44d8-8056-486b409d3678","system_id":"levelo_inurba_marseille","lat":43.31691,"lon":5.40467,"is_reserved":false,"is_disabled":false,"rental_uris":{"android":"levelo://app?vid=2dfe3ff7-15f1-44d8-8056-486b409d3678","ios":"levelo://app?vid=2dfe3ff7-15f1-44d8-8056-486b409d3678"},"vehicle_type_id":"4","last_reported":1731564810,"current_range_meters":35600,"station_id":"ce4bh012rcd13ifvqd00","pricing_plan_id":"cebpf4jnsgd1na2vs0mg"},{"bike_id":"40754b4a-72c4-442c-83e0-e5cfb0a116c5","system_id":"levelo_inurba_marseille","lat":43.30456,"lon":5.39216,"is_reserved":false,"is_disabled":false,"rental_uris":{"android":"levelo://app?vid=40754b4a-72c4-442c-83e0-e5cfb0a116c5","ios":"levelo://app?vid=40754b4a-72c4-442c-83e0-e5cfb0a116c5"},"vehicle_type_id":"4","last_reported":1731564810,"current_range_meters":34000,"station_id":"","pricing_plan_id":"cebpf4jnsgd1na2vs0mg"},{"bike_id":"8963f262-bdcb-43f5-9e37-237198779ba8","system_id":"levelo_inurba_marseille","lat":43.33773,"lon":5.37442,"is_reserved":false,"is_disabled":false,"rental_uris":{"android":"levelo://app?vid=8963f262-bdcb-43f5-9e37-237198779ba8","ios":"levelo://app?vid=8963f262-bdcb-43f5-9e37-237198779ba8"},"vehicle_type_id":"4","last_reported":1731564810,"current_range_meters":35200,"station_id":"","pricing_plan_id":"cebpf4jnsgd1na2vs0mg"},{"bike_id":"131d5275-8201-4abf-89e3-9cd3bb0ce7b5","system_id":"levelo_inurba_marseille","lat":43.306834,"lon":5.380212,"is_reserved":false,"is_disabled":false,"rental_uris":{"android":"levelo://app?vid=131d5275-8201-4abf-89e3-9cd3bb0ce7b5","ios":"levelo://app?vid=131d5275-8201-4abf-89e3-9cd3bb0ce7b5"},"vehicle_type_id":"4","last_reported":1731564810,"current_range_meters":34000,"station_id":"","pricing_plan_id":"cebpf4jnsgd1na2vs0mg"},{"bike_id":"398b47b3-a042-4cec-b1dd-254773a78263","system_id":"levelo_inurba_marseille","lat":43.274001,"lon":5.38949,"is_reserved":false,"is_disabled":false,"rental_uris":{"android":"levelo://app?vid=398b47b3-a042-4cec-b1dd-254773a78263","ios":"levelo://app?vid=398b47b3-a042-4cec-b1dd-254773a78263"},"vehicle_type_id":"4","last_reported":1731564810,"current_range_meters":6400,"station_id":"","pricing_plan_id":"cebpf4jnsgd1na2vs0mg"},{"bike_id":"2dc62b80-6ad9-49d5-8f5c-c7911c6081d0","system_id":"levelo_inurba_marseille","lat":43.28936,"lon":5.36647,"is_reserved":false,"is_disabled":false,"rental_uris":{"android":"levelo://app?vid=2dc62b80-6ad9-49d5-8f5c-c7911c6081d0","ios":"levelo://app?vid=2dc62b80-6ad9-49d5-8f5c-c7911c6081d0"},"vehicle_type_id":"4","last_reported":1731564810,"current_range_meters":30400,"station_id":"ce4bhap2rcd13ifvqek0","pricing_plan_id":"cebpf4jnsgd1na2vs0mg"},{"bike_id":"e2e8cf64-8e1e-401b-8271-5c6262fce2aa","system_id":"levelo_inurba_marseille","lat":43.28036,"lon":5.36942,"is_reserved":false,"is_disabled":false,"rental_uris":{"android":"levelo://app?vid=e2e8cf64-8e1e-401b-8271-5c6262fce2aa","ios":"levelo://app?vid=e2e8cf64-8e1e-401b-8271-5c6262fce2aa"},"vehicle_type_id":"4","last_reported":1731564810,"current_range_meters":38800,"station_id":"ce4bha12rcd13ifvqef0","pricing_plan_id":"cebpf4jnsgd1na2vs0mg"},{"bike_id":"44d4aeee-f0c2-4734-b402-fb62f0186632","system_id":"levelo_inurba_marseille","lat":43.24384,"lon":5.37049,"is_reserved":false,"is_disabled":false,"rental_uris":{"android":"levelo://app?vid=44d4aeee-f0c2-4734-b402-fb62f0186632","ios":"levelo://app?vid=44d4aeee-f0c2-4734-b402-fb62f0186632"},"vehicle_type_id":"4","last_reported":1731564810,"current_range_meters":30000,"station_id":"ce4bhhh2rcd13ifvqfk0","pricing_plan_id":"cebpf4jnsgd1na2vs0mg"},{"bike_id":"68e917fb-7a0e-415a-99ab-50edab48b82a","system_id":"levelo_inurba_marseille","lat":43.30868,"lon":5.39632,"is_reserved":false,"is_disabled":false,"rental_uris":{"android":"levelo://app?vid=68e917fb-7a0e-415a-99ab-50edab48b82a","ios":"levelo://app?vid=68e917fb-7a0e-415a-99ab-50edab48b82a"},"vehicle_type_id":"4","last_reported":1731564810,"current_range_meters":32000,"station_id":"ce4bh012rcd13ifvqcv0","pricing_plan_id":"cebpf4jnsgd1na2vs0mg"},{"bike_id":"bfa67605-738a-4a04-8785-ac934e987ef3","system_id":"levelo_inurba_marseille","lat":43.31695,"lon":5.40463,"is_reserved":false,"is_disabled":false,"rental_uris":{"android":"levelo://app?vid=bfa67605-738a-4a04-8785-ac934e987ef3","ios":"levelo://app?vid=bfa67605-738a-4a04-8785-ac934e987ef3"},"vehicle_type_id":"4","last_reported":1731564810,"current_range_meters":40000,"station_id":"ce4bh012rcd13ifvqd00","pricing_plan_id":"cebpf4jnsgd1na2vs0mg"},{"bike_id":"92e3ad17-17c9-4714-a148-ef9436ad6113","system_id":"levelo_inurba_marseille","lat":43.22932,"lon":5.35382,"is_reserved":false,"is_disabled":false,"rental_uris":{"android":"levelo://app?vid=92e3ad17-17c9-4714-a148-ef9436ad6113","ios":"levelo://app?vid=92e3ad17-17c9-4714-a148-ef9436ad6113"},"vehicle_type_id":"4","last_reported":1731564810,"current_range_meters":38800,"station_id":"cpo3532slgdg3j2ikp40","pricing_plan_id":"cebpf4jnsgd1na2vs0mg"},{"bike_id":"187a7fa8-9afd-4d26-b5e7-6a10712e67a7","system_id":"levelo_inurba_marseille","lat":43.23147,"lon":5.43714,"is_reserved":false,"is_disabled":false,"rental_uris":{"android":"levelo://app?vid=187a7fa8-9afd-4d26-b5e7-6a10712e67a7","ios":"levelo://app?vid=187a7fa8-9afd-4d26-b5e7-6a10712e67a7"},"vehicle_type_id":"4","last_reported":1731564810,"current_range_meters":39200,"station_id":"ce4bhmp2rcd13ifvqgog","pricing_plan_id":"cebpf4jnsgd1na2vs0mg"},{"bike_id":"e6a03aba-3d73-49a9-891f-883f2f916f86","system_id":"levelo_inurba_marseille","lat":43.30881,"lon":5.39645,"is_reserved":false,"is_disabled":false,"rental_uris":{"android":"levelo://app?vid=e6a03aba-3d73-49a9-891f-883f2f916f86","ios":"levelo://app?vid=e6a03aba-3d73-49a9-891f-883f2f916f86"},"vehicle_type_id":"4","last_reported":1731564810,"current_range_meters":36400,"station_id":"ce4bh012rcd13ifvqcv0","pricing_plan_id":"cebpf4jnsgd1na2vs0mg"},{"bike_id":"187dab1e-6f52-4db4-a1d6-a502ef5495b2","system_id":"levelo_inurba_marseille","lat":43.28636,"lon":5.38341,"is_reserved":false,"is_disabled":false,"rental_uris":{"android":"levelo://app?vid=187dab1e-6f52-4db4-a1d6-a502ef5495b2","ios":"levelo://app?vid=187dab1e-6f52-4db4-a1d6-a502ef5495b2"},"vehicle_type_id":"4","last_reported":1731564810,"current_range_meters":32800,"station_id":"","pricing_plan_id":"cebpf4jnsgd1na2vs0mg"},{"bike_id":"d776d60f-7094-4000-b5f7-8ffe37594415","system_id":"levelo_inurba_marseille","lat":43.28567,"lon":5.394949,"is_reserved":false,"is_disabled":false,"rental_uris":{"android":"levelo://app?vid=d776d60f-7094-4000-b5f7-8ffe37594415","ios":"levelo://app?vid=d776d60f-7094-4000-b5f7-8ffe37594415"},"vehicle_type_id":"4","last_reported":1731564810,"current_range_meters":38400,"station_id":"ce4bh292rcd13ifvqdg0","pricing_plan_id":"cebpf4jnsgd1na2vs0mg"},{"bike_id":"beb7b9bd-a544-4d0c-b0ee-a6204f3f5108","system_id":"levelo_inurba_marseille","lat":43.291962,"lon":5.385193,"is_reserved":false,"is_disabled":false,"rental_uris":{"android":"levelo://app?vid=beb7b9bd-a544-4d0c-b0ee-a6204f3f5108","ios":"levelo://app?vid=beb7b9bd-a544-4d0c-b0ee-a6204f3f5108"},"vehicle_type_id":"4","last_reported":1731564810,"current_range_meters":25600,"station_id":"","pricing_plan_id":"cebpf4jnsgd1na2vs0mg"},{"bike_id":"82f309e6-c4ae-421f-89cb-1d64a8e0ef10","system_id":"levelo_inurba_marseille","lat":43.337444,"lon":5.374475,"is_reserved":false,"is_disabled":false,"rental_uris":{"android":"levelo://app?vid=82f309e6-c4ae-421f-89cb-1d64a8e0ef10","ios":"levelo://app?vid=82f309e6-c4ae-421f-89cb-1d64a8e0ef10"},"vehicle_type_id":"4","last_reported":1731564810,"current_range_meters":34000,"station_id":"","pricing_plan_id":"cebpf4jnsgd1na2vs0mg"},{"bike_id":"5419d154-3ce9-4c40-9294-d16b9d2b3431","system_id":"levelo_inurba_marseille","lat":43.337444,"lon":5.374475,"is_reserved":false,"is_disabled":false,"rental_uris":{"android":"levelo://app?vid=5419d154-3ce9-4c40-9294-d16b9d2b3431","ios":"levelo://app?vid=5419d154-3ce9-4c40-9294-d16b9d2b3431"},"vehicle_type_id":"4","last_reported":1731564810,"current_range_meters":34000,"station_id":"","pricing_plan_id":"cebpf4jnsgd1na2vs0mg"},{"bike_id":"b615b6de-5530-40a5-9554-a272be97687a","system_id":"levelo_inurba_marseille","lat":43.31358,"lon":5.38506,"is_reserved":false,"is_disabled":false,"rental_uris":{"android":"levelo://app?vid=b615b6de-5530-40a5-9554-a272be97687a","ios":"levelo://app?vid=b615b6de-5530-40a5-9554-a272be97687a"},"vehicle_type_id":"4","last_reported":1731564810,"current_range_meters":30400,"station_id":"ce4bgt92rcd13ifvqcf0","pricing_plan_id":"cebpf4jnsgd1na2vs0mg"},{"bike_id":"9a849f58-7a7d-4d73-abb4-c064f5d657cf","system_id":"levelo_inurba_marseille","lat":43.30932,"lon":5.40153,"is_reserved":false,"is_disabled":false,"rental_uris":{"android":"levelo://app?vid=9a849f58-7a7d-4d73-abb4-c064f5d657cf","ios":"levelo://app?vid=9a849f58-7a7d-4d73-abb4-c064f5d657cf"},"vehicle_type_id":"4","last_reported":1731564810,"current_range_meters":37600,"station_id":"ce4bgvp2rcd13ifvqct0","pricing_plan_id":"cebpf4jnsgd1na2vs0mg"},{"bike_id":"6e4ab7d2-c1df-4ea4-bb4b-2f5c43ed5717","system_id":"levelo_inurba_marseille","lat":43.33768,"lon":5.37439,"is_reserved":false,"is_disabled":false,"rental_uris":{"android":"levelo://app?vid=6e4ab7d2-c1df-4ea4-bb4b-2f5c43ed5717","ios":"levelo://app?vid=6e4ab7d2-c1df-4ea4-bb4b-2f5c43ed5717"},"vehicle_type_id":"4","last_reported":1731564810,"current_range_meters":33600,"station_id":"","pricing_plan_id":"cebpf4jnsgd1na2vs0mg"},{"bike_id":"8382100a-fdf5-4e43-82cf-5b28c1d5c421","system_id":"levelo_inurba_marseille","lat":43.301439,"lon":5.374217,"is_reserved":false,"is_disabled":false,"rental_uris":{"android":"levelo://app?vid=8382100a-fdf5-4e43-82cf-5b28c1d5c421","ios":"levelo://app?vid=8382100a-fdf5-4e43-82cf-5b28c1d5c421"},"vehicle_type_id":"4","last_reported":1731564810,"current_range_meters":10800,"station_id":"ce4bgs92rcd13ifvqcc0","pricing_plan_id":"cebpf4jnsgd1na2vs0mg"},{"bike_id":"e9c22987-e77f-4667-8b0b-54aee6909c3e","system_id":"levelo_inurba_marseille","lat":43.30175,"lon":5.36616,"is_reserved":false,"is_disabled":false,"rental_uris":{"android":"levelo://app?vid=e9c22987-e77f-4667-8b0b-54aee6909c3e","ios":"levelo://app?vid=e9c22987-e77f-4667-8b0b-54aee6909c3e"},"vehicle_type_id":"4","last_reported":1731564810,"current_range_meters":38800,"station_id":"ce4bgrh2rcd13ifvqc8g","pricing_plan_id":"cebpf4jnsgd1na2vs0mg"},{"bike_id":"2e10cc50-770f-4f75-be0f-4e12b149451d","system_id":"levelo_inurba_marseille","lat":43.31887,"lon":5.40737,"is_reserved":false,"is_disabled":false,"rental_uris":{"android":"levelo://app?vid=2e10cc50-770f-4f75-be0f-4e12b149451d","ios":"levelo://app?vid=2e10cc50-770f-4f75-be0f-4e12b149451d"},"vehicle_type_id":"4","last_reported":1731564810,"current_range_meters":38800,"station_id":"ce4bhq12rcd13ifvqhig","pricing_plan_id":"cebpf4jnsgd1na2vs0mg"},{"bike_id":"bf572986-72e5-4ae6-bf1e-d22b0a1d0215","system_id":"levelo_inurba_marseille","lat":43.31168,"lon":5.38708,"is_reserved":false,"is_disabled":false,"rental_uris":{"android":"levelo://app?vid=bf572986-72e5-4ae6-bf1e-d22b0a1d0215","ios":"levelo://app?vid=bf572986-72e5-4ae6-bf1e-d22b0a1d0215"},"vehicle_type_id":"4","last_reported":1731564810,"current_range_meters":8000,"station_id":"ce4bgv12rcd13ifvqcp0","pricing_plan_id":"cebpf4jnsgd1na2vs0mg"},{"bike_id":"9722550f-1a69-4d6e-8160-2610e45f09a4","system_id":"levelo_inurba_marseille","lat":43.28029,"lon":5.369394,"is_reserved":false,"is_disabled":false,"rental_uris":{"android":"levelo://app?vid=9722550f-1a69-4d6e-8160-2610e45f09a4","ios":"levelo://app?vid=9722550f-1a69-4d6e-8160-2610e45f09a4"},"vehicle_type_id":"4","last_reported":1731564810,"current_range_meters":38800,"station_id":"ce4bha12rcd13ifvqef0","pricing_plan_id":"cebpf4jnsgd1na2vs0mg"},{"bike_id":"42744b5d-4b77-4c92-808c-ebf462138a5f","system_id":"levelo_inurba_marseille","lat":43.31555,"lon":5.38619,"is_reserved":false,"is_disabled":false,"rental_uris":{"android":"levelo://app?vid=42744b5d-4b77-4c92-808c-ebf462138a5f","ios":"levelo://app?vid=42744b5d-4b77-4c92-808c-ebf462138a5f"},"vehicle_type_id":"4","last_reported":1731564810,"current_range_meters":24800,"station_id":"","pricing_plan_id":"cebpf4jnsgd1na2vs0mg"},{"bike_id":"c9d041c0-acec-4cf4-bba2-e01a92441368","system_id":"levelo_inurba_marseille","lat":43.337444,"lon":5.374475,"is_reserved":false,"is_disabled":false,"rental_uris":{"android":"levelo://app?vid=c9d041c0-acec-4cf4-bba2-e01a92441368","ios":"levelo://app?vid=c9d041c0-acec-4cf4-bba2-e01a92441368"},"vehicle_type_id":"4","last_reported":1731564810,"current_range_meters":32800,"station_id":"","pricing_plan_id":"cebpf4jnsgd1na2vs0mg"},{"bike_id":"06ce8277-6238-4e82-9a81-1df8844cbd38","system_id":"levelo_inurba_marseille","lat":43.31531,"lon":5.38034,"is_reserved":false,"is_disabled":false,"rental_uris":{"android":"levelo://app?vid=06ce8277-6238-4e82-9a81-1df8844cbd38","ios":"levelo://app?vid=06ce8277-6238-4e82-9a81-1df8844cbd38"},"vehicle_type_id":"4","last_reported":1731564810,"current_range_meters":38800,"station_id":"ce4bhsp2rcd13ifvqi50","pricing_plan_id":"cebpf4jnsgd1na2vs0mg"},{"bike_id":"38bbdcff-2bf0-472f-b7a7-55224c74f01e","system_id":"levelo_inurba_marseille","lat":43.28846,"lon":5.35827,"is_reserved":false,"is_disabled":false,"rental_uris":{"android":"levelo://app?vid=38bbdcff-2bf0-472f-b7a7-55224c74f01e","ios":"levelo://app?vid=38bbdcff-2bf0-472f-b7a7-55224c74f01e"},"vehicle_type_id":"4","last_reported":1731564810,"current_range_meters":36800,"station_id":"ce4bhb12rcd13ifvqem0","pricing_plan_id":"cebpf4jnsgd1na2vs0mg"},{"bike_id":"9aef9200-3170-4f01-8e62-576a9deb994b","system_id":"levelo_inurba_marseille","lat":43.298983,"lon":5.436627,"is_reserved":false,"is_disabled":false,"rental_uris":{"android":"levelo://app?vid=9aef9200-3170-4f01-8e62-576a9deb994b","ios":"levelo://app?vid=9aef9200-3170-4f01-8e62-576a9deb994b"},"vehicle_type_id":"4","last_reported":1731564810,"current_range_meters":38800,"station_id":"ce4bhpp2rcd13ifvqhfg","pricing_plan_id":"cebpf4jnsgd1na2vs0mg"},{"bike_id":"2e6a1118-1c5f-4c27-9a47-3bd23eaff188","system_id":"levelo_inurba_marseille","lat":43.30885,"lon":5.37205,"is_reserved":false,"is_disabled":false,"rental_uris":{"android":"levelo://app?vid=2e6a1118-1c5f-4c27-9a47-3bd23eaff188","ios":"levelo://app?vid=2e6a1118-1c5f-4c27-9a47-3bd23eaff188"},"vehicle_type_id":"4","last_reported":1731564810,"current_range_meters":38000,"station_id":"ce4bguh2rcd13ifvqckg","pricing_plan_id":"cebpf4jnsgd1na2vs0mg"},{"bike_id":"eb68643d-ca0b-4957-85e7-de6e869d8b12","system_id":"levelo_inurba_marseille","lat":43.309261,"lon":5.401547,"is_reserved":false,"is_disabled":false,"rental_uris":{"android":"levelo://app?vid=eb68643d-ca0b-4957-85e7-de6e869d8b12","ios":"levelo://app?vid=eb68643d-ca0b-4957-85e7-de6e869d8b12"},"vehicle_type_id":"4","last_reported":1731564810,"current_range_meters":28800,"station_id":"ce4bgvp2rcd13ifvqct0","pricing_plan_id":"cebpf4jnsgd1na2vs0mg"},{"bike_id":"6f1adf72-fb2b-4aae-9b58-b66153e79e9a","system_id":"levelo_inurba_marseille","lat":43.29184,"lon":5.3581,"is_reserved":false,"is_disabled":false,"rental_uris":{"android":"levelo://app?vid=6f1adf72-fb2b-4aae-9b58-b66153e79e9a","ios":"levelo://app?vid=6f1adf72-fb2b-4aae-9b58-b66153e79e9a"},"vehicle_type_id":"4","last_reported":1731564810,"current_range_meters":37600,"station_id":"ce4bhb12rcd13ifvqel0","pricing_plan_id":"cebpf4jnsgd1na2vs0mg"},{"bike_id":"83db3d35-395b-4ed7-9aa2-68cd83d3a943","system_id":"levelo_inurba_marseille","lat":43.288498,"lon":5.393165,"is_reserved":false,"is_disabled":false,"rental_uris":{"android":"levelo://app?vid=83db3d35-395b-4ed7-9aa2-68cd83d3a943","ios":"levelo://app?vid=83db3d35-395b-4ed7-9aa2-68cd83d3a943"},"vehicle_type_id":"4","last_reported":1731564810,"current_range_meters":26800,"station_id":"ce4bh2p2rcd13ifvqdi0","pricing_plan_id":"cebpf4jnsgd1na2vs0mg"},{"bike_id":"4e6d66a1-951b-479b-8162-56e4999b9e01","system_id":"levelo_inurba_marseille","lat":43.310779,"lon":5.388753,"is_reserved":false,"is_disabled":false,"rental_uris":{"android":"levelo://app?vid=4e6d66a1-951b-479b-8162-56e4999b9e01","ios":"levelo://app?vid=4e6d66a1-951b-479b-8162-56e4999b9e01"},"vehicle_type_id":"4","last_reported":1731564810,"current_range_meters":12000,"station_id":"ce4bh4p2rcd13ifvqe1g","pricing_plan_id":"cebpf4jnsgd1na2vs0mg"},{"bike_id":"5f1b89ae-1266-4792-91ad-55b706dc1643","system_id":"levelo_inurba_marseille","lat":43.23964,"lon":5.36638,"is_reserved":false,"is_disabled":false,"rental_uris":{"android":"levelo://app?vid=5f1b89ae-1266-4792-91ad-55b706dc1643","ios":"levelo://app?vid=5f1b89ae-1266-4792-91ad-55b706dc1643"},"vehicle_type_id":"4","last_reported":1731564810,"current_range_meters":38800,"station_id":"ce4bhi12rcd13ifvqfp0","pricing_plan_id":"cebpf4jnsgd1na2vs0mg"},{"bike_id":"41216786-c537-48ee-ba23-962247c384b3","system_id":"levelo_inurba_marseille","lat":43.30461,"lon":5.37918,"is_reserved":false,"is_disabled":false,"rental_uris":{"android":"levelo://app?vid=41216786-c537-48ee-ba23-962247c384b3","ios":"levelo://app?vid=41216786-c537-48ee-ba23-962247c384b3"},"vehicle_type_id":"4","last_reported":1731564810,"current_range_meters":39200,"station_id":"ce4bgup2rcd13ifvqcn0","pricing_plan_id":"cebpf4jnsgd1na2vs0mg"},{"bike_id":"56b95c73-8922-4454-af0c-d312d9510ff0","system_id":"levelo_inurba_marseille","lat":43.30648,"lon":5.40088,"is_reserved":false,"is_disabled":false,"rental_uris":{"android":"levelo://app?vid=56b95c73-8922-4454-af0c-d312d9510ff0","ios":"levelo://app?vid=56b95c73-8922-4454-af0c-d312d9510ff0"},"vehicle_type_id":"4","last_reported":1731564810,"current_range_meters":38800,"station_id":"ce4bh112rcd13ifvqda0","pricing_plan_id":"cebpf4jnsgd1na2vs0mg"},{"bike_id":"5164f3a8-922f-488f-8ce2-4806c9a0e188","system_id":"levelo_inurba_marseille","lat":43.30887,"lon":5.39644,"is_reserved":false,"is_disabled":false,"rental_uris":{"android":"levelo://app?vid=5164f3a8-922f-488f-8ce2-4806c9a0e188","ios":"levelo://app?vid=5164f3a8-922f-488f-8ce2-4806c9a0e188"},"vehicle_type_id":"4","last_reported":1731564810,"current_range_meters":20400,"station_id":"ce4bh012rcd13ifvqcv0","pricing_plan_id":"cebpf4jnsgd1na2vs0mg"},{"bike_id":"994ae73e-b160-43d9-817d-790c5daccc4d","system_id":"levelo_inurba_marseille","lat":43.30147,"lon":5.38078,"is_reserved":false,"is_disabled":false,"rental_uris":{"android":"levelo://app?vid=994ae73e-b160-43d9-817d-790c5daccc4d","ios":"levelo://app?vid=994ae73e-b160-43d9-817d-790c5daccc4d"},"vehicle_type_id":"4","last_reported":1731564810,"current_range_meters":36800,"station_id":"ce4bgjp2rcd13ifvqbh0","pricing_plan_id":"cebpf4jnsgd1na2vs0mg"},{"bike_id":"929996c8-eb75-49bc-a4c9-6cfd09c05ed2","system_id":"levelo_inurba_marseille","lat":43.32362,"lon":5.38891,"is_reserved":false,"is_disabled":false,"rental_uris":{"android":"levelo://app?vid=929996c8-eb75-49bc-a4c9-6cfd09c05ed2","ios":"levelo://app?vid=929996c8-eb75-49bc-a4c9-6cfd09c05ed2"},"vehicle_type_id":"4","last_reported":1731564810,"current_range_meters":36400,"station_id":"ce4bhqp2rcd13ifvqhog","pricing_plan_id":"cebpf4jnsgd1na2vs0mg"},{"bike_id":"83a46b88-087d-4287-b780-84d4db7aff44","system_id":"levelo_inurba_marseille","lat":43.32366,"lon":5.38884,"is_reserved":false,"is_disabled":false,"rental_uris":{"android":"levelo://app?vid=83a46b88-087d-4287-b780-84d4db7aff44","ios":"levelo://app?vid=83a46b88-087d-4287-b780-84d4db7aff44"},"vehicle_type_id":"4","last_reported":1731564810,"current_range_meters":23200,"station_id":"ce4bhqp2rcd13ifvqhog","pricing_plan_id":"cebpf4jnsgd1na2vs0mg"},{"bike_id":"033c5c19-203a-4d11-a7e6-91e96fa07efd","system_id":"levelo_inurba_marseille","lat":43.31326,"lon":5.39697,"is_reserved":false,"is_disabled":false,"rental_uris":{"android":"levelo://app?vid=033c5c19-203a-4d11-a7e6-91e96fa07efd","ios":"levelo://app?vid=033c5c19-203a-4d11-a7e6-91e96fa07efd"},"vehicle_type_id":"4","last_reported":1731564810,"current_range_meters":38800,"station_id":"ce4bgvp2rcd13ifvqcu0","pricing_plan_id":"cebpf4jnsgd1na2vs0mg"},{"bike_id":"a8aa4d8a-1a1d-47ba-9fb8-41d4d24deb77","system_id":"levelo_inurba_marseille","lat":43.28105,"lon":5.37842,"is_reserved":false,"is_disabled":false,"rental_uris":{"android":"levelo://app?vid=a8aa4d8a-1a1d-47ba-9fb8-41d4d24deb77","ios":"levelo://app?vid=a8aa4d8a-1a1d-47ba-9fb8-41d4d24deb77"},"vehicle_type_id":"4","last_reported":1731564810,"current_range_meters":9600,"station_id":"ce4bha12rcd13ifvqee0","pricing_plan_id":"cebpf4jnsgd1na2vs0mg"},{"bike_id":"170905c7-f490-4232-b141-663a4bd15902","system_id":"levelo_inurba_marseille","lat":43.29869,"lon":5.39736,"is_reserved":false,"is_disabled":false,"rental_uris":{"android":"levelo://app?vid=170905c7-f490-4232-b141-663a4bd15902","ios":"levelo://app?vid=170905c7-f490-4232-b141-663a4bd15902"},"vehicle_type_id":"4","last_reported":1731564810,"current_range_meters":38000,"station_id":"ce4bh0h2rcd13ifvqd50","pricing_plan_id":"cebpf4jnsgd1na2vs0mg"},{"bike_id":"337ea833-1b01-4041-a864-7a3676c066d7","system_id":"levelo_inurba_marseille","lat":43.27071,"lon":5.42286,"is_reserved":false,"is_disabled":false,"rental_uris":{"android":"levelo://app?vid=337ea833-1b01-4041-a864-7a3676c066d7","ios":"levelo://app?vid=337ea833-1b01-4041-a864-7a3676c066d7"},"vehicle_type_id":"4","last_reported":1731564810,"current_range_meters":38800,"station_id":"ce4bhk92rcd13ifvqgb0","pricing_plan_id":"cebpf4jnsgd1na2vs0mg"},{"bike_id":"7616a63e-4040-448c-a84b-1c511a4e52ab","system_id":"levelo_inurba_marseille","lat":43.31069,"lon":5.38363,"is_reserved":false,"is_disabled":false,"rental_uris":{"android":"levelo://app?vid=7616a63e-4040-448c-a84b-1c511a4e52ab","ios":"levelo://app?vid=7616a63e-4040-448c-a84b-1c511a4e52ab"},"vehicle_type_id":"4","last_reported":1731564810,"current_range_meters":16400,"station_id":"ce4bgv92rcd13ifvqcr0","pricing_plan_id":"cebpf4jnsgd1na2vs0mg"},{"bike_id":"2b7d50ef-9a61-4209-b8f1-3f971410cd24","system_id":"levelo_inurba_marseille","lat":43.31688,"lon":5.40474,"is_reserved":false,"is_disabled":false,"rental_uris":{"android":"levelo://app?vid=2b7d50ef-9a61-4209-b8f1-3f971410cd24","ios":"levelo://app?vid=2b7d50ef-9a61-4209-b8f1-3f971410cd24"},"vehicle_type_id":"4","last_reported":1731564810,"current_range_meters":9200,"station_id":"ce4bh012rcd13ifvqd00","pricing_plan_id":"cebpf4jnsgd1na2vs0mg"},{"bike_id":"1fa720e0-6645-4fb9-a818-7ad2db2fa1f6","system_id":"levelo_inurba_marseille","lat":43.29975,"lon":5.38497,"is_reserved":false,"is_disabled":false,"rental_uris":{"android":"levelo://app?vid=1fa720e0-6645-4fb9-a818-7ad2db2fa1f6","ios":"levelo://app?vid=1fa720e0-6645-4fb9-a818-7ad2db2fa1f6"},"vehicle_type_id":"4","last_reported":1731564810,"current_range_meters":17600,"station_id":"ce4bgj92rcd13ifvqbd0","pricing_plan_id":"cebpf4jnsgd1na2vs0mg"},{"bike_id":"9e328efb-e0cc-4b46-aeae-6c1812186486","system_id":"levelo_inurba_marseille","lat":43.30459,"lon":5.37907,"is_reserved":false,"is_disabled":false,"rental_uris":{"android":"levelo://app?vid=9e328efb-e0cc-4b46-aeae-6c1812186486","ios":"levelo://app?vid=9e328efb-e0cc-4b46-aeae-6c1812186486"},"vehicle_type_id":"4","last_reported":1731564810,"current_range_meters":32000,"station_id":"ce4bgup2rcd13ifvqcn0","pricing_plan_id":"cebpf4jnsgd1na2vs0mg"},{"bike_id":"d57ed4c6-233a-4b03-8e63-472eff6ba1dc","system_id":"levelo_inurba_marseille","lat":43.29002,"lon":5.35624,"is_reserved":false,"is_disabled":false,"rental_uris":{"android":"levelo://app?vid=d57ed4c6-233a-4b03-8e63-472eff6ba1dc","ios":"levelo://app?vid=d57ed4c6-233a-4b03-8e63-472eff6ba1dc"},"vehicle_type_id":"4","last_reported":1731564810,"current_range_meters":38400,"station_id":"ce4bhb92rcd13ifvqen0","pricing_plan_id":"cebpf4jnsgd1na2vs0mg"},{"bike_id":"1ed7d770-636b-47b3-afbf-c1d47b213604","system_id":"levelo_inurba_marseille","lat":43.30882,"lon":5.39648,"is_reserved":false,"is_disabled":false,"rental_uris":{"android":"levelo://app?vid=1ed7d770-636b-47b3-afbf-c1d47b213604","ios":"levelo://app?vid=1ed7d770-636b-47b3-afbf-c1d47b213604"},"vehicle_type_id":"4","last_reported":1731564810,"current_range_meters":10000,"station_id":"ce4bh012rcd13ifvqcv0","pricing_plan_id":"cebpf4jnsgd1na2vs0mg"},{"bike_id":"0017d6cf-6c90-4bf0-9626-a3ec2112cc8e","system_id":"levelo_inurba_marseille","lat":43.27907,"lon":5.38005,"is_reserved":false,"is_disabled":false,"rental_uris":{"android":"levelo://app?vid=0017d6cf-6c90-4bf0-9626-a3ec2112cc8e","ios":"levelo://app?vid=0017d6cf-6c90-4bf0-9626-a3ec2112cc8e"},"vehicle_type_id":"4","last_reported":1731564810,"current_range_meters":8800,"station_id":"ce4bhf92rcd13ifvqf50","pricing_plan_id":"cebpf4jnsgd1na2vs0mg"},{"bike_id":"244fe09c-487d-4a26-a9e4-c62125f82ee6","system_id":"levelo_inurba_marseille","lat":43.27808,"lon":5.40708,"is_reserved":false,"is_disabled":false,"rental_uris":{"android":"levelo://app?vid=244fe09c-487d-4a26-a9e4-c62125f82ee6","ios":"levelo://app?vid=244fe09c-487d-4a26-a9e4-c62125f82ee6"},"vehicle_type_id":"4","last_reported":1731564810,"current_range_meters":38800,"station_id":"ce4bhnh2rcd13ifvqgtg","pricing_plan_id":"cebpf4jnsgd1na2vs0mg"},{"bike_id":"5b41e762-1614-46f6-92e6-bba5e7d3cb79","system_id":"levelo_inurba_marseille","lat":43.28462,"lon":5.35882,"is_reserved":false,"is_disabled":false,"rental_uris":{"android":"levelo://app?vid=5b41e762-1614-46f6-92e6-bba5e7d3cb79","ios":"levelo://app?vid=5b41e762-1614-46f6-92e6-bba5e7d3cb79"},"vehicle_type_id":"4","last_reported":1731564810,"current_range_meters":38800,"station_id":"ce4bhah2rcd13ifvqei0","pricing_plan_id":"cebpf4jnsgd1na2vs0mg"},{"bike_id":"012927f2-0ce0-4abc-933c-6366952c031d","system_id":"levelo_inurba_marseille","lat":43.24175,"lon":5.39729,"is_reserved":false,"is_disabled":false,"rental_uris":{"android":"levelo://app?vid=012927f2-0ce0-4abc-933c-6366952c031d","ios":"levelo://app?vid=012927f2-0ce0-4abc-933c-6366952c031d"},"vehicle_type_id":"4","last_reported":1731564810,"current_range_meters":28000,"station_id":"ce4bhn12rcd13ifvqgpg","pricing_plan_id":"cebpf4jnsgd1na2vs0mg"},{"bike_id":"6adcbd2b-9899-4fee-aa0f-a378a1941d7a","system_id":"levelo_inurba_marseille","lat":43.29221,"lon":5.36081,"is_reserved":false,"is_disabled":false,"rental_uris":{"android":"levelo://app?vid=6adcbd2b-9899-4fee-aa0f-a378a1941d7a","ios":"levelo://app?vid=6adcbd2b-9899-4fee-aa0f-a378a1941d7a"},"vehicle_type_id":"4","last_reported":1731564810,"current_range_meters":26800,"station_id":"ce4bhbh2rcd13ifvqeqg","pricing_plan_id":"cebpf4jnsgd1na2vs0mg"},{"bike_id":"7235b819-14b1-4e75-bcb1-e0307a7a8d28","system_id":"levelo_inurba_marseille","lat":43.27972,"lon":5.38763,"is_reserved":false,"is_disabled":false,"rental_uris":{"android":"levelo://app?vid=7235b819-14b1-4e75-bcb1-e0307a7a8d28","ios":"levelo://app?vid=7235b819-14b1-4e75-bcb1-e0307a7a8d28"},"vehicle_type_id":"4","last_reported":1731564810,"current_range_meters":30000,"station_id":"ce4bhg12rcd13ifvqf80","pricing_plan_id":"cebpf4jnsgd1na2vs0mg"},{"bike_id":"85358b47-b147-41bf-9e92-5e6b5279e626","system_id":"levelo_inurba_marseille","lat":43.30427,"lon":5.39754,"is_reserved":false,"is_disabled":false,"rental_uris":{"android":"levelo://app?vid=85358b47-b147-41bf-9e92-5e6b5279e626","ios":"levelo://app?vid=85358b47-b147-41bf-9e92-5e6b5279e626"},"vehicle_type_id":"4","last_reported":1731564810,"current_range_meters":24000,"station_id":"ce4bh092rcd13ifvqd20","pricing_plan_id":"cebpf4jnsgd1na2vs0mg"},{"bike_id":"1951ed30-ed91-4241-95e7-23f48f436d43","system_id":"levelo_inurba_marseille","lat":43.26934,"lon":5.4026,"is_reserved":false,"is_disabled":false,"rental_uris":{"android":"levelo://app?vid=1951ed30-ed91-4241-95e7-23f48f436d43","ios":"levelo://app?vid=1951ed30-ed91-4241-95e7-23f48f436d43"},"vehicle_type_id":"4","last_reported":1731564810,"current_range_meters":28800,"station_id":"cjm6bp8fraef2m0cb0m0","pricing_plan_id":"cebpf4jnsgd1na2vs0mg"},{"bike_id":"fd1e7b30-f859-4736-a101-5352f5409432","system_id":"levelo_inurba_marseille","lat":43.28036,"lon":5.36942,"is_reserved":false,"is_disabled":false,"rental_uris":{"android":"levelo://app?vid=fd1e7b30-f859-4736-a101-5352f5409432","ios":"levelo://app?vid=fd1e7b30-f859-4736-a101-5352f5409432"},"vehicle_type_id":"4","last_reported":1731564810,"current_range_meters":36800,"station_id":"ce4bha12rcd13ifvqef0","pricing_plan_id":"cebpf4jnsgd1na2vs0mg"},{"bike_id":"7c9b8995-ac96-4708-b4eb-b4b17631b9d8","system_id":"levelo_inurba_marseille","lat":43.337444,"lon":5.374475,"is_reserved":false,"is_disabled":false,"rental_uris":{"android":"levelo://app?vid=7c9b8995-ac96-4708-b4eb-b4b17631b9d8","ios":"levelo://app?vid=7c9b8995-ac96-4708-b4eb-b4b17631b9d8"},"vehicle_type_id":"4","last_reported":1731564810,"current_range_meters":34000,"station_id":"","pricing_plan_id":"cebpf4jnsgd1na2vs0mg"},{"bike_id":"8ab17290-17a8-48a2-8dba-505756bb84a7","system_id":"levelo_inurba_marseille","lat":43.28426,"lon":5.39192,"is_reserved":false,"is_disabled":false,"rental_uris":{"android":"levelo://app?vid=8ab17290-17a8-48a2-8dba-505756bb84a7","ios":"levelo://app?vid=8ab17290-17a8-48a2-8dba-505756bb84a7"},"vehicle_type_id":"4","last_reported":1731564810,"current_range_meters":38800,"station_id":"ce4bhoh2rcd13ifvqh5g","pricing_plan_id":"cebpf4jnsgd1na2vs0mg"},{"bike_id":"96837c80-6d46-454d-b22b-e1a41d22d9a3","system_id":"levelo_inurba_marseille","lat":43.2439,"lon":5.37057,"is_reserved":false,"is_disabled":false,"rental_uris":{"android":"levelo://app?vid=96837c80-6d46-454d-b22b-e1a41d22d9a3","ios":"levelo://app?vid=96837c80-6d46-454d-b22b-e1a41d22d9a3"},"vehicle_type_id":"4","last_reported":1731564810,"current_range_meters":18800,"station_id":"ce4bhhh2rcd13ifvqfk0","pricing_plan_id":"cebpf4jnsgd1na2vs0mg"},{"bike_id":"bfa998e5-f39d-4565-8083-ac8883bcdd82","system_id":"levelo_inurba_marseille","lat":43.24074,"lon":5.37756,"is_reserved":false,"is_disabled":false,"rental_uris":{"android":"levelo://app?vid=bfa998e5-f39d-4565-8083-ac8883bcdd82","ios":"levelo://app?vid=bfa998e5-f39d-4565-8083-ac8883bcdd82"},"vehicle_type_id":"4","last_reported":1731564810,"current_range_meters":9600,"station_id":"ce4bhnp2rcd13ifvqgvg","pricing_plan_id":"cebpf4jnsgd1na2vs0mg"},{"bike_id":"a4df5d8f-a96e-44fd-a33c-a0551b9dcb5d","system_id":"levelo_inurba_marseille","lat":43.27062,"lon":5.42278,"is_reserved":false,"is_disabled":false,"rental_uris":{"android":"levelo://app?vid=a4df5d8f-a96e-44fd-a33c-a0551b9dcb5d","ios":"levelo://app?vid=a4df5d8f-a96e-44fd-a33c-a0551b9dcb5d"},"vehicle_type_id":"4","last_reported":1731564810,"current_range_meters":39200,"station_id":"ce4bhk92rcd13ifvqgb0","pricing_plan_id":"cebpf4jnsgd1na2vs0mg"},{"bike_id":"ea9d824b-e109-408d-9583-880839570f08","system_id":"levelo_inurba_marseille","lat":43.32338,"lon":5.40628,"is_reserved":false,"is_disabled":false,"rental_uris":{"android":"levelo://app?vid=ea9d824b-e109-408d-9583-880839570f08","ios":"levelo://app?vid=ea9d824b-e109-408d-9583-880839570f08"},"vehicle_type_id":"4","last_reported":1731564810,"current_range_meters":20000,"station_id":"ce4bhq92rcd13ifvqhjg","pricing_plan_id":"cebpf4jnsgd1na2vs0mg"},{"bike_id":"caed76f8-7fcb-4143-a047-45544b91ced9","system_id":"levelo_inurba_marseille","lat":43.30425,"lon":5.39755,"is_reserved":false,"is_disabled":false,"rental_uris":{"android":"levelo://app?vid=caed76f8-7fcb-4143-a047-45544b91ced9","ios":"levelo://app?vid=caed76f8-7fcb-4143-a047-45544b91ced9"},"vehicle_type_id":"4","last_reported":1731564810,"current_range_meters":38800,"station_id":"ce4bh092rcd13ifvqd20","pricing_plan_id":"cebpf4jnsgd1na2vs0mg"},{"bike_id":"95ee45c3-40e4-41fe-a8db-c41167d39590","system_id":"levelo_inurba_marseille","lat":43.28376,"lon":5.38635,"is_reserved":false,"is_disabled":false,"rental_uris":{"android":"levelo://app?vid=95ee45c3-40e4-41fe-a8db-c41167d39590","ios":"levelo://app?vid=95ee45c3-40e4-41fe-a8db-c41167d39590"},"vehicle_type_id":"4","last_reported":1731564810,"current_range_meters":39200,"station_id":"ce4bh492rcd13ifvqdvg","pricing_plan_id":"cebpf4jnsgd1na2vs0mg"},{"bike_id":"a0030329-7869-42e4-81d2-c11185cc27f8","system_id":"levelo_inurba_marseille","lat":43.24801,"lon":5.37447,"is_reserved":false,"is_disabled":false,"rental_uris":{"android":"levelo://app?vid=a0030329-7869-42e4-81d2-c11185cc27f8","ios":"levelo://app?vid=a0030329-7869-42e4-81d2-c11185cc27f8"},"vehicle_type_id":"4","last_reported":1731564810,"current_range_meters":38800,"station_id":"ce4bhgh2rcd13ifvqfb0","pricing_plan_id":"cebpf4jnsgd1na2vs0mg"},{"bike_id":"b3b5223c-5272-409d-bc43-d2e21832bcd1","system_id":"levelo_inurba_marseille","lat":43.30344,"lon":5.41873,"is_reserved":false,"is_disabled":false,"rental_uris":{"android":"levelo://app?vid=b3b5223c-5272-409d-bc43-d2e21832bcd1","ios":"levelo://app?vid=b3b5223c-5272-409d-bc43-d2e21832bcd1"},"vehicle_type_id":"4","last_reported":1731564810,"current_range_meters":38800,"station_id":"ce4bhop2rcd13ifvqh7g","pricing_plan_id":"cebpf4jnsgd1na2vs0mg"},{"bike_id":"87d93078-85b6-4456-ba43-4faf2544291e","system_id":"levelo_inurba_marseille","lat":43.31326,"lon":5.39693,"is_reserved":false,"is_disabled":false,"rental_uris":{"android":"levelo://app?vid=87d93078-85b6-4456-ba43-4faf2544291e","ios":"levelo://app?vid=87d93078-85b6-4456-ba43-4faf2544291e"},"vehicle_type_id":"4","last_reported":1731564810,"current_range_meters":38800,"station_id":"ce4bgvp2rcd13ifvqcu0","pricing_plan_id":"cebpf4jnsgd1na2vs0mg"},{"bike_id":"05e1fca1-ddc2-4b44-be8c-57a27e93f2c5","system_id":"levelo_inurba_marseille","lat":43.31724,"lon":5.42405,"is_reserved":false,"is_disabled":false,"rental_uris":{"android":"levelo://app?vid=05e1fca1-ddc2-4b44-be8c-57a27e93f2c5","ios":"levelo://app?vid=05e1fca1-ddc2-4b44-be8c-57a27e93f2c5"},"vehicle_type_id":"4","last_reported":1731564810,"current_range_meters":37600,"station_id":"ce4bhp92rcd13ifvqhbg","pricing_plan_id":"cebpf4jnsgd1na2vs0mg"},{"bike_id":"27b4e9bd-df15-4424-acdd-3f5ada6cd854","system_id":"levelo_inurba_marseille","lat":43.269373,"lon":5.402466,"is_reserved":false,"is_disabled":false,"rental_uris":{"android":"levelo://app?vid=27b4e9bd-df15-4424-acdd-3f5ada6cd854","ios":"levelo://app?vid=27b4e9bd-df15-4424-acdd-3f5ada6cd854"},"vehicle_type_id":"4","last_reported":1731564810,"current_range_meters":38000,"station_id":"cjm6bp8fraef2m0cb0m0","pricing_plan_id":"cebpf4jnsgd1na2vs0mg"},{"bike_id":"d015c667-9869-4600-b7c7-c7397f56f513","system_id":"levelo_inurba_marseille","lat":43.29037,"lon":5.37562,"is_reserved":false,"is_disabled":false,"rental_uris":{"android":"levelo://app?vid=d015c667-9869-4600-b7c7-c7397f56f513","ios":"levelo://app?vid=d015c667-9869-4600-b7c7-c7397f56f513"},"vehicle_type_id":"4","last_reported":1731564810,"current_range_meters":25200,"station_id":"ce4bh692rcd13ifvqe90","pricing_plan_id":"cebpf4jnsgd1na2vs0mg"},{"bike_id":"83f700c3-f7b1-4a09-9190-340c479d326a","system_id":"levelo_inurba_marseille","lat":43.31168,"lon":5.38718,"is_reserved":false,"is_disabled":false,"rental_uris":{"android":"levelo://app?vid=83f700c3-f7b1-4a09-9190-340c479d326a","ios":"levelo://app?vid=83f700c3-f7b1-4a09-9190-340c479d326a"},"vehicle_type_id":"4","last_reported":1731564810,"current_range_meters":8000,"station_id":"ce4bgv12rcd13ifvqcp0","pricing_plan_id":"cebpf4jnsgd1na2vs0mg"},{"bike_id":"200ccbcd-2376-442e-b02b-103dd43743c7","system_id":"levelo_inurba_marseille","lat":43.27668,"lon":5.38896,"is_reserved":false,"is_disabled":false,"rental_uris":{"android":"levelo://app?vid=200ccbcd-2376-442e-b02b-103dd43743c7","ios":"levelo://app?vid=200ccbcd-2376-442e-b02b-103dd43743c7"},"vehicle_type_id":"4","last_reported":1731564810,"current_range_meters":36800,"station_id":"ce4bhi12rcd13ifvqfo0","pricing_plan_id":"cebpf4jnsgd1na2vs0mg"},{"bike_id":"b0d85fe2-0998-4f61-8962-f8d4a991e278","system_id":"levelo_inurba_marseille","lat":43.29028,"lon":5.3998,"is_reserved":false,"is_disabled":false,"rental_uris":{"android":"levelo://app?vid=b0d85fe2-0998-4f61-8962-f8d4a991e278","ios":"levelo://app?vid=b0d85fe2-0998-4f61-8962-f8d4a991e278"},"vehicle_type_id":"4","last_reported":1731564810,"current_range_meters":28400,"station_id":"ce4bh392rcd13ifvqdm0","pricing_plan_id":"cebpf4jnsgd1na2vs0mg"},{"bike_id":"47ba2751-aa15-48df-b4b4-e53c2d94cbca","system_id":"levelo_inurba_marseille","lat":43.25863,"lon":5.39902,"is_reserved":false,"is_disabled":false,"rental_uris":{"android":"levelo://app?vid=47ba2751-aa15-48df-b4b4-e53c2d94cbca","ios":"levelo://app?vid=47ba2751-aa15-48df-b4b4-e53c2d94cbca"},"vehicle_type_id":"4","last_reported":1731564810,"current_range_meters":38800,"station_id":"ce4bhl92rcd13ifvqghg","pricing_plan_id":"cebpf4jnsgd1na2vs0mg"},{"bike_id":"1f6b3c61-9259-434c-b5ca-122f9ce10181","system_id":"levelo_inurba_marseille","lat":43.28575,"lon":5.39496,"is_reserved":false,"is_disabled":false,"rental_uris":{"android":"levelo://app?vid=1f6b3c61-9259-434c-b5ca-122f9ce10181","ios":"levelo://app?vid=1f6b3c61-9259-434c-b5ca-122f9ce10181"},"vehicle_type_id":"4","last_reported":1731564810,"current_range_meters":26800,"station_id":"ce4bh292rcd13ifvqdg0","pricing_plan_id":"cebpf4jnsgd1na2vs0mg"},{"bike_id":"dc61d19c-1cee-4753-936b-7b21a8abe5b9","system_id":"levelo_inurba_marseille","lat":43.29786,"lon":5.39345,"is_reserved":false,"is_disabled":false,"rental_uris":{"android":"levelo://app?vid=dc61d19c-1cee-4753-936b-7b21a8abe5b9","ios":"levelo://app?vid=dc61d19c-1cee-4753-936b-7b21a8abe5b9"},"vehicle_type_id":"4","last_reported":1731564810,"current_range_meters":20800,"station_id":"chh1huq6cuj3fo74tm60","pricing_plan_id":"cebpf4jnsgd1na2vs0mg"},{"bike_id":"e617c853-b6aa-4255-970a-27ca041a3bea","system_id":"levelo_inurba_marseille","lat":43.302204,"lon":5.369068,"is_reserved":false,"is_disabled":false,"rental_uris":{"android":"levelo://app?vid=e617c853-b6aa-4255-970a-27ca041a3bea","ios":"levelo://app?vid=e617c853-b6aa-4255-970a-27ca041a3bea"},"vehicle_type_id":"4","last_reported":1731564810,"current_range_meters":17600,"station_id":"ce4bh0p2rcd13ifvqd70","pricing_plan_id":"cebpf4jnsgd1na2vs0mg"},{"bike_id":"e4d5b0f4-4e79-4845-b7b0-ec0d0e1da314","system_id":"levelo_inurba_marseille","lat":43.29036,"lon":5.39976,"is_reserved":false,"is_disabled":false,"rental_uris":{"android":"levelo://app?vid=e4d5b0f4-4e79-4845-b7b0-ec0d0e1da314","ios":"levelo://app?vid=e4d5b0f4-4e79-4845-b7b0-ec0d0e1da314"},"vehicle_type_id":"4","last_reported":1731564810,"current_range_meters":22400,"station_id":"ce4bh392rcd13ifvqdm0","pricing_plan_id":"cebpf4jnsgd1na2vs0mg"},{"bike_id":"7735a892-8d6b-4a93-b64f-341778d38d92","system_id":"levelo_inurba_marseille","lat":43.33611,"lon":5.4102,"is_reserved":false,"is_disabled":false,"rental_uris":{"android":"levelo://app?vid=7735a892-8d6b-4a93-b64f-341778d38d92","ios":"levelo://app?vid=7735a892-8d6b-4a93-b64f-341778d38d92"},"vehicle_type_id":"4","last_reported":1731564810,"current_range_meters":26000,"station_id":"ce4bhqh2rcd13ifvqhmg","pricing_plan_id":"cebpf4jnsgd1na2vs0mg"},{"bike_id":"a4ec425c-e618-4c93-8518-14aaf2cc1493","system_id":"levelo_inurba_marseille","lat":43.31754,"lon":5.39035,"is_reserved":false,"is_disabled":false,"rental_uris":{"android":"levelo://app?vid=a4ec425c-e618-4c93-8518-14aaf2cc1493","ios":"levelo://app?vid=a4ec425c-e618-4c93-8518-14aaf2cc1493"},"vehicle_type_id":"4","last_reported":1731564810,"current_range_meters":38000,"station_id":"ce4bhqp2rcd13ifvqhng","pricing_plan_id":"cebpf4jnsgd1na2vs0mg"},{"bike_id":"48d5a2ad-51a8-460d-bbfc-8e2d640cab9e","system_id":"levelo_inurba_marseille","lat":43.29254,"lon":5.40901,"is_reserved":false,"is_disabled":false,"rental_uris":{"android":"levelo://app?vid=48d5a2ad-51a8-460d-bbfc-8e2d640cab9e","ios":"levelo://app?vid=48d5a2ad-51a8-460d-bbfc-8e2d640cab9e"},"vehicle_type_id":"4","last_reported":1731564810,"current_range_meters":38000,"station_id":"ce4bh192rcd13ifvqdc0","pricing_plan_id":"cebpf4jnsgd1na2vs0mg"},{"bike_id":"3778c6c0-cd45-44a4-8594-49be9525fd27","system_id":"levelo_inurba_marseille","lat":43.29526,"lon":5.39047,"is_reserved":false,"is_disabled":false,"rental_uris":{"android":"levelo://app?vid=3778c6c0-cd45-44a4-8594-49be9525fd27","ios":"levelo://app?vid=3778c6c0-cd45-44a4-8594-49be9525fd27"},"vehicle_type_id":"4","last_reported":1731564810,"current_range_meters":4800,"station_id":"ce4bh3p2rcd13ifvqdp0","pricing_plan_id":"cebpf4jnsgd1na2vs0mg"},{"bike_id":"8317080c-9232-4b29-8b04-ff6d86be6301","system_id":"levelo_inurba_marseille","lat":43.31225,"lon":5.36857,"is_reserved":false,"is_disabled":false,"rental_uris":{"android":"levelo://app?vid=8317080c-9232-4b29-8b04-ff6d86be6301","ios":"levelo://app?vid=8317080c-9232-4b29-8b04-ff6d86be6301"},"vehicle_type_id":"4","last_reported":1731564810,"current_range_meters":35600,"station_id":"ce4bgl92rcd13ifvqbq0","pricing_plan_id":"cebpf4jnsgd1na2vs0mg"},{"bike_id":"dae5cfe0-b8b5-4b7f-a29e-18f7f77aa5ed","system_id":"levelo_inurba_marseille","lat":43.29925,"lon":5.38036,"is_reserved":false,"is_disabled":false,"rental_uris":{"android":"levelo://app?vid=dae5cfe0-b8b5-4b7f-a29e-18f7f77aa5ed","ios":"levelo://app?vid=dae5cfe0-b8b5-4b7f-a29e-18f7f77aa5ed"},"vehicle_type_id":"4","last_reported":1731564810,"current_range_meters":25200,"station_id":"","pricing_plan_id":"cebpf4jnsgd1na2vs0mg"},{"bike_id":"1606602f-da62-4339-8912-118cec5ef4b9","system_id":"levelo_inurba_marseille","lat":43.28697,"lon":5.39974,"is_reserved":false,"is_disabled":false,"rental_uris":{"android":"levelo://app?vid=1606602f-da62-4339-8912-118cec5ef4b9","ios":"levelo://app?vid=1606602f-da62-4339-8912-118cec5ef4b9"},"vehicle_type_id":"4","last_reported":1731564810,"current_range_meters":38800,"station_id":"ce4bho92rcd13ifvqh3g","pricing_plan_id":"cebpf4jnsgd1na2vs0mg"},{"bike_id":"9e4868d1-d7bd-46d5-a321-e3594e2b8567","system_id":"levelo_inurba_marseille","lat":43.28702,"lon":5.37394,"is_reserved":false,"is_disabled":false,"rental_uris":{"android":"levelo://app?vid=9e4868d1-d7bd-46d5-a321-e3594e2b8567","ios":"levelo://app?vid=9e4868d1-d7bd-46d5-a321-e3594e2b8567"},"vehicle_type_id":"4","last_reported":1731564810,"current_range_meters":30400,"station_id":"ce4bh3p2rcd13ifvqdq0","pricing_plan_id":"cebpf4jnsgd1na2vs0mg"},{"bike_id":"e26bd35b-a9f3-4848-8dcc-19763627c8ab","system_id":"levelo_inurba_marseille","lat":43.29872,"lon":5.39731,"is_reserved":false,"is_disabled":false,"rental_uris":{"android":"levelo://app?vid=e26bd35b-a9f3-4848-8dcc-19763627c8ab","ios":"levelo://app?vid=e26bd35b-a9f3-4848-8dcc-19763627c8ab"},"vehicle_type_id":"4","last_reported":1731564810,"current_range_meters":8000,"station_id":"ce4bh0h2rcd13ifvqd50","pricing_plan_id":"cebpf4jnsgd1na2vs0mg"},{"bike_id":"f87f2439-11e3-4811-826c-aae8008298a8","system_id":"levelo_inurba_marseille","lat":43.30316,"lon":5.36906,"is_reserved":false,"is_disabled":false,"rental_uris":{"android":"levelo://app?vid=f87f2439-11e3-4811-826c-aae8008298a8","ios":"levelo://app?vid=f87f2439-11e3-4811-826c-aae8008298a8"},"vehicle_type_id":"4","last_reported":1731564810,"current_range_meters":36400,"station_id":"ce4bgqh2rcd13ifvqc5g","pricing_plan_id":"cebpf4jnsgd1na2vs0mg"},{"bike_id":"65512001-41e1-4669-b982-0a39690902a4","system_id":"levelo_inurba_marseille","lat":43.281021,"lon":5.378433,"is_reserved":false,"is_disabled":false,"rental_uris":{"android":"levelo://app?vid=65512001-41e1-4669-b982-0a39690902a4","ios":"levelo://app?vid=65512001-41e1-4669-b982-0a39690902a4"},"vehicle_type_id":"4","last_reported":1731564810,"current_range_meters":38000,"station_id":"ce4bha12rcd13ifvqee0","pricing_plan_id":"cebpf4jnsgd1na2vs0mg"},{"bike_id":"c3096774-94fa-4407-9929-28f7cf224e8b","system_id":"levelo_inurba_marseille","lat":43.25085,"lon":5.39518,"is_reserved":false,"is_disabled":false,"rental_uris":{"android":"levelo://app?vid=c3096774-94fa-4407-9929-28f7cf224e8b","ios":"levelo://app?vid=c3096774-94fa-4407-9929-28f7cf224e8b"},"vehicle_type_id":"4","last_reported":1731564810,"current_range_meters":31200,"station_id":"ce4bhm12rcd13ifvqgkg","pricing_plan_id":"cebpf4jnsgd1na2vs0mg"},{"bike_id":"7891995d-7c39-4fa5-ab0a-02ee601a522d","system_id":"levelo_inurba_marseille","lat":43.31992,"lon":5.38144,"is_reserved":false,"is_disabled":false,"rental_uris":{"android":"levelo://app?vid=7891995d-7c39-4fa5-ab0a-02ee601a522d","ios":"levelo://app?vid=7891995d-7c39-4fa5-ab0a-02ee601a522d"},"vehicle_type_id":"4","last_reported":1731564810,"current_range_meters":38000,"station_id":"ce4bhr12rcd13ifvqhpg","pricing_plan_id":"cebpf4jnsgd1na2vs0mg"},{"bike_id":"e4935905-67da-4e99-bbf5-f13614b8f314","system_id":"levelo_inurba_marseille","lat":43.23959,"lon":5.36643,"is_reserved":false,"is_disabled":false,"rental_uris":{"android":"levelo://app?vid=e4935905-67da-4e99-bbf5-f13614b8f314","ios":"levelo://app?vid=e4935905-67da-4e99-bbf5-f13614b8f314"},"vehicle_type_id":"4","last_reported":1731564810,"current_range_meters":10800,"station_id":"ce4bhi12rcd13ifvqfp0","pricing_plan_id":"cebpf4jnsgd1na2vs0mg"},{"bike_id":"bdcc9a51-736c-43b2-b49a-c4544260165b","system_id":"levelo_inurba_marseille","lat":43.27997,"lon":5.41661,"is_reserved":false,"is_disabled":false,"rental_uris":{"android":"levelo://app?vid=bdcc9a51-736c-43b2-b49a-c4544260165b","ios":"levelo://app?vid=bdcc9a51-736c-43b2-b49a-c4544260165b"},"vehicle_type_id":"4","last_reported":1731564810,"current_range_meters":38000,"station_id":"ce4bho12rcd13ifvqh1g","pricing_plan_id":"cebpf4jnsgd1na2vs0mg"},{"bike_id":"8d50ff26-5c0d-495e-9c47-593ba9484efb","system_id":"levelo_inurba_marseille","lat":43.26947,"lon":5.38643,"is_reserved":false,"is_disabled":false,"rental_uris":{"android":"levelo://app?vid=8d50ff26-5c0d-495e-9c47-593ba9484efb","ios":"levelo://app?vid=8d50ff26-5c0d-495e-9c47-593ba9484efb"},"vehicle_type_id":"4","last_reported":1731564810,"current_range_meters":38800,"station_id":"ce4bhh92rcd13ifvqfh0","pricing_plan_id":"cebpf4jnsgd1na2vs0mg"},{"bike_id":"1f70dcbd-92e1-4de5-869d-e0fda4ca0b8d","system_id":"levelo_inurba_marseille","lat":43.25729,"lon":5.41106,"is_reserved":false,"is_disabled":false,"rental_uris":{"android":"levelo://app?vid=1f70dcbd-92e1-4de5-869d-e0fda4ca0b8d","ios":"levelo://app?vid=1f70dcbd-92e1-4de5-869d-e0fda4ca0b8d"},"vehicle_type_id":"4","last_reported":1731564810,"current_range_meters":16400,"station_id":"ce4bhkp2rcd13ifvqgd0","pricing_plan_id":"cebpf4jnsgd1na2vs0mg"},{"bike_id":"f2c0c674-a5e7-4997-8a27-413af9bcc481","system_id":"levelo_inurba_marseille","lat":43.2861,"lon":5.35102,"is_reserved":false,"is_disabled":false,"rental_uris":{"android":"levelo://app?vid=f2c0c674-a5e7-4997-8a27-413af9bcc481","ios":"levelo://app?vid=f2c0c674-a5e7-4997-8a27-413af9bcc481"},"vehicle_type_id":"4","last_reported":1731564810,"current_range_meters":12000,"station_id":"ce4bhch2rcd13ifvqeug","pricing_plan_id":"cebpf4jnsgd1na2vs0mg"},{"bike_id":"791a9dcb-89ad-4909-9ade-651cbe464120","system_id":"levelo_inurba_marseille","lat":43.29626,"lon":5.406,"is_reserved":false,"is_disabled":false,"rental_uris":{"android":"levelo://app?vid=791a9dcb-89ad-4909-9ade-651cbe464120","ios":"levelo://app?vid=791a9dcb-89ad-4909-9ade-651cbe464120"},"vehicle_type_id":"4","last_reported":1731564810,"current_range_meters":37600,"station_id":"ce4bh0h2rcd13ifvqd60","pricing_plan_id":"cebpf4jnsgd1na2vs0mg"},{"bike_id":"272ef7ad-b649-405b-b92a-ef8cfa3ac84a","system_id":"levelo_inurba_marseille","lat":43.27187,"lon":5.4099,"is_reserved":false,"is_disabled":false,"rental_uris":{"android":"levelo://app?vid=272ef7ad-b649-405b-b92a-ef8cfa3ac84a","ios":"levelo://app?vid=272ef7ad-b649-405b-b92a-ef8cfa3ac84a"},"vehicle_type_id":"4","last_reported":1731564810,"current_range_meters":29600,"station_id":"ce4bhl12rcd13ifvqgf0","pricing_plan_id":"cebpf4jnsgd1na2vs0mg"},{"bike_id":"f64f8a56-bc81-4ee1-a898-ff585bdcf3f8","system_id":"levelo_inurba_marseille","lat":43.26936,"lon":5.40255,"is_reserved":false,"is_disabled":false,"rental_uris":{"android":"levelo://app?vid=f64f8a56-bc81-4ee1-a898-ff585bdcf3f8","ios":"levelo://app?vid=f64f8a56-bc81-4ee1-a898-ff585bdcf3f8"},"vehicle_type_id":"4","last_reported":1731564810,"current_range_meters":36800,"station_id":"cjm6bp8fraef2m0cb0m0","pricing_plan_id":"cebpf4jnsgd1na2vs0mg"},{"bike_id":"1311c692-6e9d-4afb-b7b0-20686564fe7a","system_id":"levelo_inurba_marseille","lat":43.337444,"lon":5.374475,"is_reserved":false,"is_disabled":false,"rental_uris":{"android":"levelo://app?vid=1311c692-6e9d-4afb-b7b0-20686564fe7a","ios":"levelo://app?vid=1311c692-6e9d-4afb-b7b0-20686564fe7a"},"vehicle_type_id":"4","last_reported":1731564810,"current_range_meters":34000,"station_id":"","pricing_plan_id":"cebpf4jnsgd1na2vs0mg"},{"bike_id":"217ba1ca-c305-45d5-a657-921ab86441a1","system_id":"levelo_inurba_marseille","lat":43.29801,"lon":5.38127,"is_reserved":false,"is_disabled":false,"rental_uris":{"android":"levelo://app?vid=217ba1ca-c305-45d5-a657-921ab86441a1","ios":"levelo://app?vid=217ba1ca-c305-45d5-a657-921ab86441a1"},"vehicle_type_id":"4","last_reported":1731564810,"current_range_meters":38400,"station_id":"ce4bgip2rcd13ifvqbb0","pricing_plan_id":"cebpf4jnsgd1na2vs0mg"},{"bike_id":"07a4be1c-5cf0-4f3e-8c27-4c3e24078daa","system_id":"levelo_inurba_marseille","lat":43.24808,"lon":5.37455,"is_reserved":false,"is_disabled":false,"rental_uris":{"android":"levelo://app?vid=07a4be1c-5cf0-4f3e-8c27-4c3e24078daa","ios":"levelo://app?vid=07a4be1c-5cf0-4f3e-8c27-4c3e24078daa"},"vehicle_type_id":"4","last_reported":1731564810,"current_range_meters":16000,"station_id":"ce4bhgh2rcd13ifvqfb0","pricing_plan_id":"cebpf4jnsgd1na2vs0mg"},{"bike_id":"ecb3cc37-9673-4250-b386-228d12a366ea","system_id":"levelo_inurba_marseille","lat":43.27814,"lon":5.40709,"is_reserved":false,"is_disabled":false,"rental_uris":{"android":"levelo://app?vid=ecb3cc37-9673-4250-b386-228d12a366ea","ios":"levelo://app?vid=ecb3cc37-9673-4250-b386-228d12a366ea"},"vehicle_type_id":"4","last_reported":1731564810,"current_range_meters":37600,"station_id":"ce4bhnh2rcd13ifvqgtg","pricing_plan_id":"cebpf4jnsgd1na2vs0mg"},{"bike_id":"56dc3c5f-db72-44a4-ba3b-d813eb883a4c","system_id":"levelo_inurba_marseille","lat":43.30949,"lon":5.39044,"is_reserved":false,"is_disabled":false,"rental_uris":{"android":"levelo://app?vid=56dc3c5f-db72-44a4-ba3b-d813eb883a4c","ios":"levelo://app?vid=56dc3c5f-db72-44a4-ba3b-d813eb883a4c"},"vehicle_type_id":"4","last_reported":1731564810,"current_range_meters":31200,"station_id":"ce4bgup2rcd13ifvqco0","pricing_plan_id":"cebpf4jnsgd1na2vs0mg"},{"bike_id":"6494c944-b237-4634-87dc-5352173d26aa","system_id":"levelo_inurba_marseille","lat":43.298061,"lon":5.404092,"is_reserved":false,"is_disabled":false,"rental_uris":{"android":"levelo://app?vid=6494c944-b237-4634-87dc-5352173d26aa","ios":"levelo://app?vid=6494c944-b237-4634-87dc-5352173d26aa"},"vehicle_type_id":"4","last_reported":1731564810,"current_range_meters":32400,"station_id":"ce4bh512rcd13ifvqe3g","pricing_plan_id":"cebpf4jnsgd1na2vs0mg"},{"bike_id":"064785b1-570d-4d3d-b30e-ad791fb7597f","system_id":"levelo_inurba_marseille","lat":43.30424,"lon":5.39748,"is_reserved":false,"is_disabled":false,"rental_uris":{"android":"levelo://app?vid=064785b1-570d-4d3d-b30e-ad791fb7597f","ios":"levelo://app?vid=064785b1-570d-4d3d-b30e-ad791fb7597f"},"vehicle_type_id":"4","last_reported":1731564810,"current_range_meters":40000,"station_id":"ce4bh092rcd13ifvqd20","pricing_plan_id":"cebpf4jnsgd1na2vs0mg"},{"bike_id":"75f71ef1-6e08-415a-bb8b-dfb0f44294ba","system_id":"levelo_inurba_marseille","lat":43.27989,"lon":5.41658,"is_reserved":false,"is_disabled":false,"rental_uris":{"android":"levelo://app?vid=75f71ef1-6e08-415a-bb8b-dfb0f44294ba","ios":"levelo://app?vid=75f71ef1-6e08-415a-bb8b-dfb0f44294ba"},"vehicle_type_id":"4","last_reported":1731564810,"current_range_meters":6800,"station_id":"ce4bho12rcd13ifvqh1g","pricing_plan_id":"cebpf4jnsgd1na2vs0mg"},{"bike_id":"a365b508-1ef5-4939-b750-e9d43b113938","system_id":"levelo_inurba_marseille","lat":43.31755,"lon":5.39028,"is_reserved":false,"is_disabled":false,"rental_uris":{"android":"levelo://app?vid=a365b508-1ef5-4939-b750-e9d43b113938","ios":"levelo://app?vid=a365b508-1ef5-4939-b750-e9d43b113938"},"vehicle_type_id":"4","last_reported":1731564810,"current_range_meters":36000,"station_id":"ce4bhqp2rcd13ifvqhng","pricing_plan_id":"cebpf4jnsgd1na2vs0mg"},{"bike_id":"20a6022f-93e7-457d-9e65-34fc2c4ed419","system_id":"levelo_inurba_marseille","lat":43.28445,"lon":5.39185,"is_reserved":false,"is_disabled":false,"rental_uris":{"android":"levelo://app?vid=20a6022f-93e7-457d-9e65-34fc2c4ed419","ios":"levelo://app?vid=20a6022f-93e7-457d-9e65-34fc2c4ed419"},"vehicle_type_id":"4","last_reported":1731564810,"current_range_meters":16800,"station_id":"ce4bhoh2rcd13ifvqh5g","pricing_plan_id":"cebpf4jnsgd1na2vs0mg"},{"bike_id":"1bab20d9-5249-42f3-a734-b2707dbc0253","system_id":"levelo_inurba_marseille","lat":43.29807,"lon":5.38105,"is_reserved":false,"is_disabled":false,"rental_uris":{"android":"levelo://app?vid=1bab20d9-5249-42f3-a734-b2707dbc0253","ios":"levelo://app?vid=1bab20d9-5249-42f3-a734-b2707dbc0253"},"vehicle_type_id":"4","last_reported":1731564810,"current_range_meters":39200,"station_id":"ce4bgip2rcd13ifvqbb0","pricing_plan_id":"cebpf4jnsgd1na2vs0mg"},{"bike_id":"bb196ce4-c942-4277-b14f-31260b7cbaf3","system_id":"levelo_inurba_marseille","lat":43.33119,"lon":5.39695,"is_reserved":false,"is_disabled":false,"rental_uris":{"android":"levelo://app?vid=bb196ce4-c942-4277-b14f-31260b7cbaf3","ios":"levelo://app?vid=bb196ce4-c942-4277-b14f-31260b7cbaf3"},"vehicle_type_id":"4","last_reported":1731564810,"current_range_meters":8400,"station_id":"","pricing_plan_id":"cebpf4jnsgd1na2vs0mg"},{"bike_id":"bd46ae1d-8198-446f-a700-38e6e558ca14","system_id":"levelo_inurba_marseille","lat":43.30182,"lon":5.36612,"is_reserved":false,"is_disabled":false,"rental_uris":{"android":"levelo://app?vid=bd46ae1d-8198-446f-a700-38e6e558ca14","ios":"levelo://app?vid=bd46ae1d-8198-446f-a700-38e6e558ca14"},"vehicle_type_id":"4","last_reported":1731564810,"current_range_meters":38800,"station_id":"ce4bgrh2rcd13ifvqc8g","pricing_plan_id":"cebpf4jnsgd1na2vs0mg"},{"bike_id":"f255514b-e307-4a6c-ba61-6b38fc69f7ec","system_id":"levelo_inurba_marseille","lat":43.2893,"lon":5.38416,"is_reserved":false,"is_disabled":false,"rental_uris":{"android":"levelo://app?vid=f255514b-e307-4a6c-ba61-6b38fc69f7ec","ios":"levelo://app?vid=f255514b-e307-4a6c-ba61-6b38fc69f7ec"},"vehicle_type_id":"4","last_reported":1731564810,"current_range_meters":38800,"station_id":"ce4bh612rcd13ifvqe6g","pricing_plan_id":"cebpf4jnsgd1na2vs0mg"},{"bike_id":"7eb195af-2c7b-4df9-8d64-12716036951a","system_id":"levelo_inurba_marseille","lat":43.304192,"lon":5.412746,"is_reserved":false,"is_disabled":false,"rental_uris":{"android":"levelo://app?vid=7eb195af-2c7b-4df9-8d64-12716036951a","ios":"levelo://app?vid=7eb195af-2c7b-4df9-8d64-12716036951a"},"vehicle_type_id":"4","last_reported":1731564810,"current_range_meters":38800,"station_id":"ce4bhop2rcd13ifvqh8g","pricing_plan_id":"cebpf4jnsgd1na2vs0mg"},{"bike_id":"7dc814f5-6091-4ac1-87d7-cf23c08e1f89","system_id":"levelo_inurba_marseille","lat":43.30929,"lon":5.40146,"is_reserved":false,"is_disabled":false,"rental_uris":{"android":"levelo://app?vid=7dc814f5-6091-4ac1-87d7-cf23c08e1f89","ios":"levelo://app?vid=7dc814f5-6091-4ac1-87d7-cf23c08e1f89"},"vehicle_type_id":"4","last_reported":1731564810,"current_range_meters":38800,"station_id":"ce4bgvp2rcd13ifvqct0","pricing_plan_id":"cebpf4jnsgd1na2vs0mg"},{"bike_id":"6acd5ba3-3e59-4b69-8d5c-35163cca2555","system_id":"levelo_inurba_marseille","lat":43.308044,"lon":5.381479,"is_reserved":false,"is_disabled":false,"rental_uris":{"android":"levelo://app?vid=6acd5ba3-3e59-4b69-8d5c-35163cca2555","ios":"levelo://app?vid=6acd5ba3-3e59-4b69-8d5c-35163cca2555"},"vehicle_type_id":"4","last_reported":1731564810,"current_range_meters":36400,"station_id":"ce4bgt12rcd13ifvqce0","pricing_plan_id":"cebpf4jnsgd1na2vs0mg"},{"bike_id":"0fede992-ba59-464c-8019-e193b84ef8bf","system_id":"levelo_inurba_marseille","lat":43.28701,"lon":5.39981,"is_reserved":false,"is_disabled":false,"rental_uris":{"android":"levelo://app?vid=0fede992-ba59-464c-8019-e193b84ef8bf","ios":"levelo://app?vid=0fede992-ba59-464c-8019-e193b84ef8bf"},"vehicle_type_id":"4","last_reported":1731564810,"current_range_meters":22800,"station_id":"ce4bho92rcd13ifvqh3g","pricing_plan_id":"cebpf4jnsgd1na2vs0mg"},{"bike_id":"e03c9d55-9919-4e26-9280-ff49435958b5","system_id":"levelo_inurba_marseille","lat":43.306511,"lon":5.400878,"is_reserved":false,"is_disabled":false,"rental_uris":{"android":"levelo://app?vid=e03c9d55-9919-4e26-9280-ff49435958b5","ios":"levelo://app?vid=e03c9d55-9919-4e26-9280-ff49435958b5"},"vehicle_type_id":"4","last_reported":1731564810,"current_range_meters":20000,"station_id":"ce4bh112rcd13ifvqda0","pricing_plan_id":"cebpf4jnsgd1na2vs0mg"},{"bike_id":"ed2d8bd5-9c27-40ae-959f-74a893930887","system_id":"levelo_inurba_marseille","lat":43.255821,"lon":5.382361,"is_reserved":false,"is_disabled":false,"rental_uris":{"android":"levelo://app?vid=ed2d8bd5-9c27-40ae-959f-74a893930887","ios":"levelo://app?vid=ed2d8bd5-9c27-40ae-959f-74a893930887"},"vehicle_type_id":"4","last_reported":1731564810,"current_range_meters":10800,"station_id":"ce4bhih2rcd13ifvqfs0","pricing_plan_id":"cebpf4jnsgd1na2vs0mg"},{"bike_id":"f5df91d9-4a7c-43df-9009-00af233090e5","system_id":"levelo_inurba_marseille","lat":43.336104,"lon":5.410256,"is_reserved":false,"is_disabled":false,"rental_uris":{"android":"levelo://app?vid=f5df91d9-4a7c-43df-9009-00af233090e5","ios":"levelo://app?vid=f5df91d9-4a7c-43df-9009-00af233090e5"},"vehicle_type_id":"4","last_reported":1731564810,"current_range_meters":38800,"station_id":"ce4bhqh2rcd13ifvqhmg","pricing_plan_id":"cebpf4jnsgd1na2vs0mg"},{"bike_id":"a351fa12-a76b-4950-b3f5-bcba51fa6aee","system_id":"levelo_inurba_marseille","lat":43.32342,"lon":5.40617,"is_reserved":false,"is_disabled":false,"rental_uris":{"android":"levelo://app?vid=a351fa12-a76b-4950-b3f5-bcba51fa6aee","ios":"levelo://app?vid=a351fa12-a76b-4950-b3f5-bcba51fa6aee"},"vehicle_type_id":"4","last_reported":1731564810,"current_range_meters":28800,"station_id":"ce4bhq92rcd13ifvqhjg","pricing_plan_id":"cebpf4jnsgd1na2vs0mg"},