{"last_updated":1686675966,"ttl":30,"version":"2.2","data":{"bikes":[{"bike_id":"a142fcc1-dd44-4e45-a4d3-f750f9811ffe","system_id":"levelo_inurba_marseille","lat":43.31186,"lon":5.36783,"is_reserved":false,"is_disabled":false,"rental_uris":{"android":"levelo://app?vid=a142fcc1-dd44-4e45-a4d3-f750f9811ffe","ios":"levelo://app?vid=a142fcc1-dd44-4e45-a4d3-f750f9811ffe"},"vehicle_type_id":"4","last_reported":1686675967,"current_range_meters":11600,"station_id":"","pricing_plan_id":"free"},{"bike_id":"2236174f-9b48-4e77-bc47-17f9275c2cb6","system_id":"levelo_inurba_marseille","lat":43.309076,"lon":5.368465,"is_reserved":false,"is_disabled":false,"rental_uris":{"android":"levelo://app?vid=2236174f-9b48-4e77-bc47-17f9275c2cb6","ios":"levelo://app?vid=2236174f-9b48-4e77-bc47-17f9275c2cb6"},"vehicle_type_id":"4","last_reported":1686675967,"current_range_meters":1200,"station_id":"ce4bgn92rcd13ifvqbvg","pricing_plan_id":"free"},{"bike_id":"5bf8b6b5-e4a6-4e54-9f23-7a2e4632bdfa","system_id":"levelo_inurba_marseille","lat":43.309076,"lon":5.368465,"is_reserved":false,"is_disabled":false,"rental_uris":{"android":"levelo://app?vid=5bf8b6b5-e4a6-4e54-9f23-7a2e4632bdfa","ios":"levelo://app?vid=5bf8b6b5-e4a6-4e54-9f23-7a2e4632bdfa"},"vehicle_type_id":"4","last_reported":1686675967,"current_range_meters":29200,"station_id":"ce4bgn92rcd13ifvqbvg","pricing_plan_id":"free"},{"bike_id":"b81f946f-64cf-4e0b-baa9-17ca19b957cb","system_id":"levelo_inurba_marseille","lat":43.30884,"lon":5.37144,"is_reserved":false,"is_disabled":false,"rental_uris":{"android":"levelo://app?vid=b81f946f-64cf-4e0b-baa9-17ca19b957cb","ios":"levelo://app?vid=b81f946f-64cf-4e0b-baa9-17ca19b957cb"},"vehicle_type_id":"4","last_reported":1686675967,"current_range_meters":20800,"station_id":"","pricing_plan_id":"free"},{"bike_id":"e382cbb8-dfec-4cd7-a18c-2d3a3e31f9c6","system_id":"levelo_inurba_marseille","lat":43.308606,"lon":5.372099,"is_reserved":false,"is_disabled":false,"rental_uris":{"android":"levelo://app?vid=e382cbb8-dfec-4cd7-a18c-2d3a3e31f9c6","ios":"levelo://app?vid=e382cbb8-dfec-4cd7-a18c-2d3a3e31f9c6"},"vehicle_type_id":"4","last_reported":1686675967,"current_range_meters":8000,"station_id":"ce4bguh2rcd13ifvqckg","pricing_plan_id":"free"},{"bike_id":"c467708f-edb2-41e1-9886-5f26b940ab77","system_id":"levelo_inurba_marseille","lat":43.31687,"lon":5.37217,"is_reserved":false,"is_disabled":false,"rental_uris":{"android":"levelo://app?vid=c467708f-edb2-41e1-9886-5f26b940ab77","ios":"levelo://app?vid=c467708f-edb2-41e1-9886-5f26b940ab77"},"vehicle_type_id":"4","last_reported":1686675967,"current_range_meters":25600,"station_id":"","pricing_plan_id":"free"},{"bike_id":"e23bbe96-7c6c-47bb-9098-229231175521","system_id":"levelo_inurba_marseille","lat":43.30538,"lon":5.36558,"is_reserved":false,"is_disabled":false,"rental_uris":{"android":"levelo://app?vid=e23bbe96-7c6c-47bb-9098-229231175521","ios":"levelo://app?vid=e23bbe96-7c6c-47bb-9098-229231175521"},"vehicle_type_id":"4","last_reported":1686675967,"current_range_meters":3200,"station_id":"ce4bgs12rcd13ifvqcag","pricing_plan_id":"free"},{"bike_id":"76f5681c-8d7c-4b1e-812c-d50673a300b9","system_id":"levelo_inurba_marseille","lat":43.305368,"lon":5.367343,"is_reserved":false,"is_disabled":false,"rental_uris":{"android":"levelo://app?vid=76f5681c-8d7c-4b1e-812c-d50673a300b9","ios":"levelo://app?vid=76f5681c-8d7c-4b1e-812c-d50673a300b9"},"vehicle_type_id":"4","last_reported":1686675967,"current_range_meters":26000,"station_id":"ce4bgrp2rcd13ifvqc9g","pricing_plan_id":"free"},{"bike_id":"cf021f6a-3d31-4aaf-8686-953915255536","system_id":"levelo_inurba_marseille","lat":43.305706,"lon":5.365654,"is_reserved":false,"is_disabled":false,"rental_uris":{"android":"levelo://app?vid=cf021f6a-3d31-4aaf-8686-953915255536","ios":"levelo://app?vid=cf021f6a-3d31-4aaf-8686-953915255536"},"vehicle_type_id":"4","last_reported":1686675967,"current_range_meters":2400,"station_id":"ce4bgs12rcd13ifvqcag","pricing_plan_id":"free"},{"bike_id":"24b5a833-fbb4-41ab-a944-eef5346c8c23","system_id":"levelo_inurba_marseille","lat":43.31744,"lon":5.37516,"is_reserved":false,"is_disabled":false,"rental_uris":{"android":"levelo://app?vid=24b5a833-fbb4-41ab-a944-eef5346c8c23","ios":"levelo://app?vid=24b5a833-fbb4-41ab-a944-eef5346c8c23"},"vehicle_type_id":"4","last_reported":1686675967,"current_range_meters":9600,"station_id":"","pricing_plan_id":"free"},{"bike_id":"ccd8f1f7-8873-452b-a907-4519dbcb7e9a","system_id":"levelo_inurba_marseille","lat":43.30602,"lon":5.37219,"is_reserved":false,"is_disabled":false,"rental_uris":{"android":"levelo://app?vid=ccd8f1f7-8873-452b-a907-4519dbcb7e9a","ios":"levelo://app?vid=ccd8f1f7-8873-452b-a907-4519dbcb7e9a"},"vehicle_type_id":"4","last_reported":1686675967,"current_range_meters":20400,"station_id":"ce4bgqh2rcd13ifvqc4g","pricing_plan_id":"free"},{"bike_id":"6a7aef6e-67e5-4cba-95bc-f013ad5e0ca2","system_id":"levelo_inurba_marseille","lat":43.305989,"lon":5.37225,"is_reserved":false,"is_disabled":false,"rental_uris":{"android":"levelo://app?vid=6a7aef6e-67e5-4cba-95bc-f013ad5e0ca2","ios":"levelo://app?vid=6a7aef6e-67e5-4cba-95bc-f013ad5e0ca2"},"vehicle_type_id":"4","last_reported":1686675967,"current_range_meters":0,"station_id":"ce4bgqh2rcd13ifvqc4g","pricing_plan_id":"free"},{"bike_id":"25f01d42-b32d-4e3e-b724-9b0a55e82783","system_id":"levelo_inurba_marseille","lat":43.305989,"lon":5.37225,"is_reserved":false,"is_disabled":false,"rental_uris":{"android":"levelo://app?vid=25f01d42-b32d-4e3e-b724-9b0a55e82783","ios":"levelo://app?vid=25f01d42-b32d-4e3e-b724-9b0a55e82783"},"vehicle_type_id":"4","last_reported":1686675967,"current_range_meters":31200,"station_id":"ce4bgqh2rcd13ifvqc4g","pricing_plan_id":"free"},{"bike_id":"82678d08-e572-4bb2-b77f-349e84dcdd29","system_id":"levelo_inurba_marseille","lat":43.32077,"lon":5.37132,"is_reserved":false,"is_disabled":false,"rental_uris":{"android":"levelo://app?vid=82678d08-e572-4bb2-b77f-349e84dcdd29","ios":"levelo://app?vid=82678d08-e572-4bb2-b77f-349e84dcdd29"},"vehicle_type_id":"4","last_reported":1686675967,"current_range_meters":7200,"station_id":"ce4bhs92rcd13ifvqi0g","pricing_plan_id":"free"},{"bike_id":"2424216c-0462-4ad0-b127-d0366c91b61c","system_id":"levelo_inurba_marseille","lat":43.317075,"lon":5.377367,"is_reserved":false,"is_disabled":false,"rental_uris":{"android":"levelo://app?vid=2424216c-0462-4ad0-b127-d0366c91b61c","ios":"levelo://app?vid=2424216c-0462-4ad0-b127-d0366c91b61c"},"vehicle_type_id":"4","last_reported":1686675967,"current_range_meters":29600,"station_id":"ce4bgth2rcd13ifvqch0","pricing_plan_id":"free"},{"bike_id":"4a754460-fadd-46aa-8025-e29151f697b6","system_id":"levelo_inurba_marseille","lat":43.317075,"lon":5.377367,"is_reserved":false,"is_disabled":false,"rental_uris":{"android":"levelo://app?vid=4a754460-fadd-46aa-8025-e29151f697b6","ios":"levelo://app?vid=4a754460-fadd-46aa-8025-e29151f697b6"},"vehicle_type_id":"4","last_reported":1686675967,"current_range_meters":31200,"station_id":"ce4bgth2rcd13ifvqch0","pricing_plan_id":"free"},{"bike_id":"ff78f526-10b8-468f-b250-f826397e5fbc","system_id":"levelo_inurba_marseille","lat":43.31878,"lon":5.37708,"is_reserved":false,"is_disabled":false,"rental_uris":{"android":"levelo://app?vid=ff78f526-10b8-468f-b250-f826397e5fbc","ios":"levelo://app?vid=ff78f526-10b8-468f-b250-f826397e5fbc"},"vehicle_type_id":"4","last_reported":1686675967,"current_range_meters":17600,"station_id":"","pricing_plan_id":"free"},{"bike_id":"09e2162d-8797-43ad-977d-8ed6ed96204e","system_id":"levelo_inurba_marseille","lat":43.30304,"lon":5.368987,"is_reserved":false,"is_disabled":false,"rental_uris":{"android":"levelo://app?vid=09e2162d-8797-43ad-977d-8ed6ed96204e","ios":"levelo://app?vid=09e2162d-8797-43ad-977d-8ed6ed96204e"},"vehicle_type_id":"4","last_reported":1686675967,"current_range_meters":16800,"station_id":"ce4bgqh2rcd13ifvqc5g","pricing_plan_id":"free"},{"bike_id":"0dee2d46-e335-49d7-b42e-0a09ccaad7a6","system_id":"levelo_inurba_marseille","lat":43.31541,"lon":5.38045,"is_reserved":false,"is_disabled":false,"rental_uris":{"android":"levelo://app?vid=0dee2d46-e335-49d7-b42e-0a09ccaad7a6","ios":"levelo://app?vid=0dee2d46-e335-49d7-b42e-0a09ccaad7a6"},"vehicle_type_id":"4","last_reported":1686675967,"current_range_meters":14000,"station_id":"ce4bhsp2rcd13ifvqi50","pricing_plan_id":"free"},{"bike_id":"f6abd20f-e21b-4dbe-a6bc-709e43f579cc","system_id":"levelo_inurba_marseille","lat":43.31598,"lon":5.38068,"is_reserved":false,"is_disabled":false,"rental_uris":{"android":"levelo://app?vid=f6abd20f-e21b-4dbe-a6bc-709e43f579cc","ios":"levelo://app?vid=f6abd20f-e21b-4dbe-a6bc-709e43f579cc"},"vehicle_type_id":"4","last_reported":1686675967,"current_range_meters":29600,"station_id":"","pricing_plan_id":"free"},{"bike_id":"a099f032-958f-44e1-8098-ea074b50266b","system_id":"levelo_inurba_marseille","lat":43.308012,"lon":5.381511,"is_reserved":false,"is_disabled":false,"rental_uris":{"android":"levelo://app?vid=a099f032-958f-44e1-8098-ea074b50266b","ios":"levelo://app?vid=a099f032-958f-44e1-8098-ea074b50266b"},"vehicle_type_id":"4","last_reported":1686675967,"current_range_meters":4000,"station_id":"ce4bgt12rcd13ifvqce0","pricing_plan_id":"free"},{"bike_id":"e6d5f0fb-c8b3-49d7-b92d-2ef531c05609","system_id":"levelo_inurba_marseille","lat":43.301429,"lon":5.37413,"is_reserved":false,"is_disabled":false,"rental_uris":{"android":"levelo://app?vid=e6d5f0fb-c8b3-49d7-b92d-2ef531c05609","ios":"levelo://app?vid=e6d5f0fb-c8b3-49d7-b92d-2ef531c05609"},"vehicle_type_id":"4","last_reported":1686675967,"current_range_meters":30000,"station_id":"ce4bgs92rcd13ifvqcc0","pricing_plan_id":"free"},{"bike_id":"692f9216-e4db-44bd-a7bb-707044154d04","system_id":"levelo_inurba_marseille","lat":43.313571,"lon":5.384829,"is_reserved":false,"is_disabled":false,"rental_uris":{"android":"levelo://app?vid=692f9216-e4db-44bd-a7bb-707044154d04","ios":"levelo://app?vid=692f9216-e4db-44bd-a7bb-707044154d04"},"vehicle_type_id":"4","last_reported":1686675967,"current_range_meters":3200,"station_id":"ce4bgt92rcd13ifvqcf0","pricing_plan_id":"free"},{"bike_id":"2b0d1345-222d-462d-a1d3-1daaa2596211","system_id":"levelo_inurba_marseille","lat":43.299222,"lon":5.365554,"is_reserved":false,"is_disabled":false,"rental_uris":{"android":"levelo://app?vid=2b0d1345-222d-462d-a1d3-1daaa2596211","ios":"levelo://app?vid=2b0d1345-222d-462d-a1d3-1daaa2596211"},"vehicle_type_id":"4","last_reported":1686675967,"current_range_meters":24000,"station_id":"ce4bgm92rcd13ifvqbr0","pricing_plan_id":"free"},{"bike_id":"e7a14f1c-0d76-4ea2-909b-49780e66768f","system_id":"levelo_inurba_marseille","lat":43.299243,"lon":5.37481,"is_reserved":false,"is_disabled":false,"rental_uris":{"android":"levelo://app?vid=e7a14f1c-0d76-4ea2-909b-49780e66768f","ios":"levelo://app?vid=e7a14f1c-0d76-4ea2-909b-49780e66768f"},"vehicle_type_id":"4","last_reported":1686675967,"current_range_meters":22800,"station_id":"ce4bgjh2rcd13ifvqbg0","pricing_plan_id":"free"},{"bike_id":"1b8fc8c1-5f91-4e7e-a187-484eac777cf1","system_id":"levelo_inurba_marseille","lat":43.297774,"lon":5.370875,"is_reserved":false,"is_disabled":false,"rental_uris":{"android":"levelo://app?vid=1b8fc8c1-5f91-4e7e-a187-484eac777cf1","ios":"levelo://app?vid=1b8fc8c1-5f91-4e7e-a187-484eac777cf1"},"vehicle_type_id":"4","last_reported":1686675967,"current_range_meters":30800,"station_id":"ce4bgop2rcd13ifvqc1g","pricing_plan_id":"free"},{"bike_id":"b008a40b-52ae-461d-9bb5-99a7bee05b7b","system_id":"levelo_inurba_marseille","lat":43.2985,"lon":5.37482,"is_reserved":false,"is_disabled":false,"rental_uris":{"android":"levelo://app?vid=b008a40b-52ae-461d-9bb5-99a7bee05b7b","ios":"levelo://app?vid=b008a40b-52ae-461d-9bb5-99a7bee05b7b"},"vehicle_type_id":"4","last_reported":1686675967,"current_range_meters":30800,"station_id":"","pricing_plan_id":"free"},{"bike_id":"8dd39784-33cd-4f4a-973a-c0235968b597","system_id":"levelo_inurba_marseille","lat":43.32824,"lon":5.36675,"is_reserved":false,"is_disabled":false,"rental_uris":{"android":"levelo://app?vid=8dd39784-33cd-4f4a-973a-c0235968b597","ios":"levelo://app?vid=8dd39784-33cd-4f4a-973a-c0235968b597"},"vehicle_type_id":"4","last_reported":1686675967,"current_range_meters":0,"station_id":"ce4bhs92rcd13ifvqi0g","pricing_plan_id":"free"},{"bike_id":"c0ddccd8-dcfd-400c-955a-b8cfc9b7cee6","system_id":"levelo_inurba_marseille","lat":43.328371,"lon":5.366912,"is_reserved":false,"is_disabled":false,"rental_uris":{"android":"levelo://app?vid=c0ddccd8-dcfd-400c-955a-b8cfc9b7cee6","ios":"levelo://app?vid=c0ddccd8-dcfd-400c-955a-b8cfc9b7cee6"},"vehicle_type_id":"4","last_reported":1686675967,"current_range_meters":24400,"station_id":"ce4bhs92rcd13ifvqi0g","pricing_plan_id":"free"},{"bike_id":"d6e91199-ee59-403b-826f-8e5eccc77340","system_id":"levelo_inurba_marseille","lat":43.2968,"lon":5.37291,"is_reserved":false,"is_disabled":false,"rental_uris":{"android":"levelo://app?vid=d6e91199-ee59-403b-826f-8e5eccc77340","ios":"levelo://app?vid=d6e91199-ee59-403b-826f-8e5eccc77340"},"vehicle_type_id":"4","last_reported":1686675967,"current_range_meters":800,"station_id":"ce4bgk12rcd13ifvqbj0","pricing_plan_id":"free"},{"bike_id":"9aac99b0-85d8-477c-b27b-b5e30b9c3ab4","system_id":"levelo_inurba_marseille","lat":43.2968,"lon":5.37291,"is_reserved":false,"is_disabled":false,"rental_uris":{"android":"levelo://app?vid=9aac99b0-85d8-477c-b27b-b5e30b9c3ab4","ios":"levelo://app?vid=9aac99b0-85d8-477c-b27b-b5e30b9c3ab4"},"vehicle_type_id":"4","last_reported":1686675967,"current_range_meters":20800,"station_id":"ce4bgk12rcd13ifvqbj0","pricing_plan_id":"free"},{"bike_id":"88d0330c-5bb0-4a19-9b65-d4683b42e015","system_id":"levelo_inurba_marseille","lat":43.29683,"lon":5.36046,"is_reserved":false,"is_disabled":false,"rental_uris":{"android":"levelo://app?vid=88d0330c-5bb0-4a19-9b65-d4683b42e015","ios":"levelo://app?vid=88d0330c-5bb0-4a19-9b65-d4683b42e015"},"vehicle_type_id":"4","last_reported":1686675967,"current_range_meters":21200,"station_id":"ce4bgpp2rcd13ifvqc3g","pricing_plan_id":"free"},{"bike_id":"5075f3e7-232c-462e-8d99-e4f44d51784f","system_id":"levelo_inurba_marseille","lat":43.296935,"lon":5.376544,"is_reserved":false,"is_disabled":false,"rental_uris":{"android":"levelo://app?vid=5075f3e7-232c-462e-8d99-e4f44d51784f","ios":"levelo://app?vid=5075f3e7-232c-462e-8d99-e4f44d51784f"},"vehicle_type_id":"4","last_reported":1686675967,"current_range_meters":29600,"station_id":"ce4bgkh2rcd13ifvqbl0","pricing_plan_id":"free"},{"bike_id":"d3f4d128-e3e0-42f3-90d4-976936865e13","system_id":"levelo_inurba_marseille","lat":43.31753,"lon":5.39006,"is_reserved":false,"is_disabled":false,"rental_uris":{"android":"levelo://app?vid=d3f4d128-e3e0-42f3-90d4-976936865e13","ios":"levelo://app?vid=d3f4d128-e3e0-42f3-90d4-976936865e13"},"vehicle_type_id":"4","last_reported":1686675967,"current_range_meters":8800,"station_id":"ce4bhqp2rcd13ifvqhng","pricing_plan_id":"free"},{"bike_id":"637a93d2-6975-47c2-8805-017e4aac8916","system_id":"levelo_inurba_marseille","lat":43.31749,"lon":5.39015,"is_reserved":false,"is_disabled":false,"rental_uris":{"android":"levelo://app?vid=637a93d2-6975-47c2-8805-017e4aac8916","ios":"levelo://app?vid=637a93d2-6975-47c2-8805-017e4aac8916"},"vehicle_type_id":"4","last_reported":1686675967,"current_range_meters":14800,"station_id":"ce4bhqp2rcd13ifvqhng","pricing_plan_id":"free"},{"bike_id":"988784bf-6cf1-432b-a960-04d3365c0163","system_id":"levelo_inurba_marseille","lat":43.3176,"lon":5.39014,"is_reserved":false,"is_disabled":false,"rental_uris":{"android":"levelo://app?vid=988784bf-6cf1-432b-a960-04d3365c0163","ios":"levelo://app?vid=988784bf-6cf1-432b-a960-04d3365c0163"},"vehicle_type_id":"4","last_reported":1686675967,"current_range_meters":20800,"station_id":"ce4bhqp2rcd13ifvqhng","pricing_plan_id":"free"},{"bike_id":"3aeb5edb-6189-47cd-bb49-e2a928ab8142","system_id":"levelo_inurba_marseille","lat":43.31754,"lon":5.39024,"is_reserved":false,"is_disabled":false,"rental_uris":{"android":"levelo://app?vid=3aeb5edb-6189-47cd-bb49-e2a928ab8142","ios":"levelo://app?vid=3aeb5edb-6189-47cd-bb49-e2a928ab8142"},"vehicle_type_id":"4","last_reported":1686675967,"current_range_meters":17600,"station_id":"ce4bhqp2rcd13ifvqhng","pricing_plan_id":"free"},{"bike_id":"c53dc16d-2429-4c8e-bb40-2e14de4412e5","system_id":"levelo_inurba_marseille","lat":43.298037,"lon":5.381066,"is_reserved":false,"is_disabled":false,"rental_uris":{"android":"levelo://app?vid=c53dc16d-2429-4c8e-bb40-2e14de4412e5","ios":"levelo://app?vid=c53dc16d-2429-4c8e-bb40-2e14de4412e5"},"vehicle_type_id":"4","last_reported":1686675967,"current_range_meters":30400,"station_id":"ce4bgip2rcd13ifvqbb0","pricing_plan_id":"free"},{"bike_id":"0cbfb058-bd23-4cd3-b7b0-be2f1e5bdfce","system_id":"levelo_inurba_marseille","lat":43.296277,"lon":5.377108,"is_reserved":false,"is_disabled":false,"rental_uris":{"android":"levelo://app?vid=0cbfb058-bd23-4cd3-b7b0-be2f1e5bdfce","ios":"levelo://app?vid=0cbfb058-bd23-4cd3-b7b0-be2f1e5bdfce"},"vehicle_type_id":"4","last_reported":1686675967,"current_range_meters":31200,"station_id":"ce4bgi92rcd13ifvqb90","pricing_plan_id":"free"},{"bike_id":"d06456ec-a075-49ef-88a6-a611e3db32cf","system_id":"levelo_inurba_marseille","lat":43.32367,"lon":5.388836,"is_reserved":false,"is_disabled":false,"rental_uris":{"android":"levelo://app?vid=d06456ec-a075-49ef-88a6-a611e3db32cf","ios":"levelo://app?vid=d06456ec-a075-49ef-88a6-a611e3db32cf"},"vehicle_type_id":"4","last_reported":1686675967,"current_range_meters":22400,"station_id":"ce4bhqp2rcd13ifvqhog","pricing_plan_id":"free"},{"bike_id":"c249ee5d-650e-45b1-accb-7ac50e94d326","system_id":"levelo_inurba_marseille","lat":43.32367,"lon":5.388836,"is_reserved":false,"is_disabled":false,"rental_uris":{"android":"levelo://app?vid=c249ee5d-650e-45b1-accb-7ac50e94d326","ios":"levelo://app?vid=c249ee5d-650e-45b1-accb-7ac50e94d326"},"vehicle_type_id":"4","last_reported":1686675967,"current_range_meters":25200,"station_id":"ce4bhqp2rcd13ifvqhog","pricing_plan_id":"free"},{"bike_id":"2c9ad911-25e0-4222-8751-d809dfadd582","system_id":"levelo_inurba_marseille","lat":43.32367,"lon":5.388836,"is_reserved":false,"is_disabled":false,"rental_uris":{"android":"levelo://app?vid=2c9ad911-25e0-4222-8751-d809dfadd582","ios":"levelo://app?vid=2c9ad911-25e0-4222-8751-d809dfadd582"},"vehicle_type_id":"4","last_reported":1686675967,"current_range_meters":19600,"station_id":"ce4bhqp2rcd13ifvqhog","pricing_plan_id":"free"},{"bike_id":"5bf0258c-bc99-4ed6-91a2-ae34c12f1820","system_id":"levelo_inurba_marseille","lat":43.29602,"lon":5.381084,"is_reserved":false,"is_disabled":false,"rental_uris":{"android":"levelo://app?vid=5bf0258c-bc99-4ed6-91a2-ae34c12f1820","ios":"levelo://app?vid=5bf0258c-bc99-4ed6-91a2-ae34c12f1820"},"vehicle_type_id":"4","last_reported":1686675967,"current_range_meters":21600,"station_id":"ce4bgl12rcd13ifvqbo0","pricing_plan_id":"free"},{"bike_id":"166dc7e2-8ea5-42ef-b1fd-e43ad4aa63ab","system_id":"levelo_inurba_marseille","lat":43.29275,"lon":5.36836,"is_reserved":false,"is_disabled":false,"rental_uris":{"android":"levelo://app?vid=166dc7e2-8ea5-42ef-b1fd-e43ad4aa63ab","ios":"levelo://app?vid=166dc7e2-8ea5-42ef-b1fd-e43ad4aa63ab"},"vehicle_type_id":"4","last_reported":1686675967,"current_range_meters":0,"station_id":"ce4bhbp2rcd13ifvqesg","pricing_plan_id":"free"},{"bike_id":"557e6f19-b01f-4da5-9a61-f16ab3863897","system_id":"levelo_inurba_marseille","lat":43.29539,"lon":5.38136,"is_reserved":false,"is_disabled":false,"rental_uris":{"android":"levelo://app?vid=557e6f19-b01f-4da5-9a61-f16ab3863897","ios":"levelo://app?vid=557e6f19-b01f-4da5-9a61-f16ab3863897"},"vehicle_type_id":"4","last_reported":1686675967,"current_range_meters":0,"station_id":"","pricing_plan_id":"free"},{"bike_id":"c9efa7d7-6051-4c56-9c68-3a467a224503","system_id":"levelo_inurba_marseille","lat":43.29382,"lon":5.37849,"is_reserved":false,"is_disabled":false,"rental_uris":{"android":"levelo://app?vid=c9efa7d7-6051-4c56-9c68-3a467a224503","ios":"levelo://app?vid=c9efa7d7-6051-4c56-9c68-3a467a224503"},"vehicle_type_id":"4","last_reported":1686675967,"current_range_meters":2800,"station_id":"ce4bgjh2rcd13ifvqbf0","pricing_plan_id":"free"},{"bike_id":"781c85d1-ea3a-4961-9aee-d8ac601fee2e","system_id":"levelo_inurba_marseille","lat":43.29267,"lon":5.3597,"is_reserved":false,"is_disabled":false,"rental_uris":{"android":"levelo://app?vid=781c85d1-ea3a-4961-9aee-d8ac601fee2e","ios":"levelo://app?vid=781c85d1-ea3a-4961-9aee-d8ac601fee2e"},"vehicle_type_id":"4","last_reported":1686675967,"current_range_meters":13600,"station_id":"","pricing_plan_id":"free"},{"bike_id":"428b490f-80fc-4b35-ac34-68911c849f26","system_id":"levelo_inurba_marseille","lat":43.2936,"lon":5.37835,"is_reserved":false,"is_disabled":false,"rental_uris":{"android":"levelo://app?vid=428b490f-80fc-4b35-ac34-68911c849f26","ios":"levelo://app?vid=428b490f-80fc-4b35-ac34-68911c849f26"},"vehicle_type_id":"4","last_reported":1686675967,"current_range_meters":6400,"station_id":"ce4bgjh2rcd13ifvqbf0","pricing_plan_id":"free"},{"bike_id":"283bc49d-571d-4529-9dee-c7c433f616b1","system_id":"levelo_inurba_marseille","lat":43.292311,"lon":5.360731,"is_reserved":false,"is_disabled":false,"rental_uris":{"android":"levelo://app?vid=283bc49d-571d-4529-9dee-c7c433f616b1","ios":"levelo://app?vid=283bc49d-571d-4529-9dee-c7c433f616b1"},"vehicle_type_id":"4","last_reported":1686675967,"current_range_meters":21200,"station_id":"ce4bhbh2rcd13ifvqeqg","pricing_plan_id":"free"},{"bike_id":"9509ad3d-cbf9-4665-98ac-4d4ecb6aa669","system_id":"levelo_inurba_marseille","lat":43.3103,"lon":5.39551,"is_reserved":false,"is_disabled":false,"rental_uris":{"android":"levelo://app?vid=9509ad3d-cbf9-4665-98ac-4d4ecb6aa669","ios":"levelo://app?vid=9509ad3d-cbf9-4665-98ac-4d4ecb6aa669"},"vehicle_type_id":"4","last_reported":1686675967,"current_range_meters":4000,"station_id":"","pricing_plan_id":"free"},{"bike_id":"7d727a70-d17c-494c-8404-288a778414b7","system_id":"levelo_inurba_marseille","lat":43.298797,"lon":5.388635,"is_reserved":false,"is_disabled":false,"rental_uris":{"android":"levelo://app?vid=7d727a70-d17c-494c-8404-288a778414b7","ios":"levelo://app?vid=7d727a70-d17c-494c-8404-288a778414b7"},"vehicle_type_id":"4","last_reported":1686675967,"current_range_meters":0,"station_id":"ce4bh4p2rcd13ifvqe0g","pricing_plan_id":"free"},{"bike_id":"1322fedf-4522-4bb8-9682-4469cdabb738","system_id":"levelo_inurba_marseille","lat":43.309038,"lon":5.396546,"is_reserved":false,"is_disabled":false,"rental_uris":{"android":"levelo://app?vid=1322fedf-4522-4bb8-9682-4469cdabb738","ios":"levelo://app?vid=1322fedf-4522-4bb8-9682-4469cdabb738"},"vehicle_type_id":"4","last_reported":1686675967,"current_range_meters":9200,"station_id":"ce4bh012rcd13ifvqcv0","pricing_plan_id":"free"},{"bike_id":"08161066-584b-42db-9ab6-07331d7189ec","system_id":"levelo_inurba_marseille","lat":43.31327,"lon":5.39687,"is_reserved":false,"is_disabled":false,"rental_uris":{"android":"levelo://app?vid=08161066-584b-42db-9ab6-07331d7189ec","ios":"levelo://app?vid=08161066-584b-42db-9ab6-07331d7189ec"},"vehicle_type_id":"4","last_reported":1686675967,"current_range_meters":0,"station_id":"ce4bgvp2rcd13ifvqcu0","pricing_plan_id":"free"},{"bike_id":"05ed5723-83d0-41ea-be60-46a379fcab4e","system_id":"levelo_inurba_marseille","lat":43.31325,"lon":5.39689,"is_reserved":false,"is_disabled":false,"rental_uris":{"android":"levelo://app?vid=05ed5723-83d0-41ea-be60-46a379fcab4e","ios":"levelo://app?vid=05ed5723-83d0-41ea-be60-46a379fcab4e"},"vehicle_type_id":"4","last_reported":1686675967,"current_range_meters":6400,"station_id":"ce4bgvp2rcd13ifvqcu0","pricing_plan_id":"free"},{"bike_id":"ef263153-4755-4dbd-a50b-5893ee09f169","system_id":"levelo_inurba_marseille","lat":43.313291,"lon":5.396838,"is_reserved":false,"is_disabled":false,"rental_uris":{"android":"levelo://app?vid=ef263153-4755-4dbd-a50b-5893ee09f169","ios":"levelo://app?vid=ef263153-4755-4dbd-a50b-5893ee09f169"},"vehicle_type_id":"4","last_reported":1686675967,"current_range_meters":8000,"station_id":"ce4bgvp2rcd13ifvqcu0","pricing_plan_id":"free"},{"bike_id":"93996089-64ee-4457-a559-4fe90c2dbcf5","system_id":"levelo_inurba_marseille","lat":43.302008,"lon":5.394694,"is_reserved":false,"is_disabled":false,"rental_uris":{"android":"levelo://app?vid=93996089-64ee-4457-a559-4fe90c2dbcf5","ios":"levelo://app?vid=93996089-64ee-4457-a559-4fe90c2dbcf5"},"vehicle_type_id":"4","last_reported":1686675967,"current_range_meters":800,"station_id":"ce4bh0p2rcd13ifvqd70","pricing_plan_id":"free"},{"bike_id":"0f7f10df-d334-455c-ab3e-00ba74ce7c6b","system_id":"levelo_inurba_marseille","lat":43.302008,"lon":5.394694,"is_reserved":false,"is_disabled":false,"rental_uris":{"android":"levelo://app?vid=0f7f10df-d334-455c-ab3e-00ba74ce7c6b","ios":"levelo://app?vid=0f7f10df-d334-455c-ab3e-00ba74ce7c6b"},"vehicle_type_id":"4","last_reported":1686675967,"current_range_meters":0,"station_id":"ce4bh0p2rcd13ifvqd70","pricing_plan_id":"free"},{"bike_id":"d96bc280-5f7f-46fa-845c-a07f90f53adf","system_id":"levelo_inurba_marseille","lat":43.294153,"lon":5.386305,"is_reserved":false,"is_disabled":false,"rental_uris":{"android":"levelo://app?vid=d96bc280-5f7f-46fa-845c-a07f90f53adf","ios":"levelo://app?vid=d96bc280-5f7f-46fa-845c-a07f90f53adf"},"vehicle_type_id":"4","last_reported":1686675967,"current_range_meters":10000,"station_id":"ce4bh2h2rcd13ifvqdh0","pricing_plan_id":"free"},{"bike_id":"3617f938-20b5-47c4-8914-317a294606c3","system_id":"levelo_inurba_marseille","lat":43.294153,"lon":5.386305,"is_reserved":false,"is_disabled":false,"rental_uris":{"android":"levelo://app?vid=3617f938-20b5-47c4-8914-317a294606c3","ios":"levelo://app?vid=3617f938-20b5-47c4-8914-317a294606c3"},"vehicle_type_id":"4","last_reported":1686675967,"current_range_meters":22800,"station_id":"ce4bh2h2rcd13ifvqdh0","pricing_plan_id":"free"},{"bike_id":"923733ec-98be-41eb-9723-4ab36d7b4fbf","system_id":"levelo_inurba_marseille","lat":43.292644,"lon":5.384257,"is_reserved":false,"is_disabled":false,"rental_uris":{"android":"levelo://app?vid=923733ec-98be-41eb-9723-4ab36d7b4fbf","ios":"levelo://app?vid=923733ec-98be-41eb-9723-4ab36d7b4fbf"},"vehicle_type_id":"4","last_reported":1686675967,"current_range_meters":10000,"station_id":"ce4bh692rcd13ifvqea0","pricing_plan_id":"free"},{"bike_id":"267c914c-3d9e-4f7a-ae03-50505927acd3","system_id":"levelo_inurba_marseille","lat":43.294162,"lon":5.386292,"is_reserved":false,"is_disabled":false,"rental_uris":{"android":"levelo://app?vid=267c914c-3d9e-4f7a-ae03-50505927acd3","ios":"levelo://app?vid=267c914c-3d9e-4f7a-ae03-50505927acd3"},"vehicle_type_id":"4","last_reported":1686675967,"current_range_meters":6800,"station_id":"ce4bh2h2rcd13ifvqdh0","pricing_plan_id":"free"},{"bike_id":"a8c54c11-1193-4917-ace1-d1e8642b2337","system_id":"levelo_inurba_marseille","lat":43.294162,"lon":5.386292,"is_reserved":false,"is_disabled":false,"rental_uris":{"android":"levelo://app?vid=a8c54c11-1193-4917-ace1-d1e8642b2337","ios":"levelo://app?vid=a8c54c11-1193-4917-ace1-d1e8642b2337"},"vehicle_type_id":"4","last_reported":1686675967,"current_range_meters":0,"station_id":"ce4bh2h2rcd13ifvqdh0","pricing_plan_id":"free"},{"bike_id":"2a5e528a-bc52-4f2e-8352-6f49d9414428","system_id":"levelo_inurba_marseille","lat":43.289468,"lon":5.363719,"is_reserved":false,"is_disabled":false,"rental_uris":{"android":"levelo://app?vid=2a5e528a-bc52-4f2e-8352-6f49d9414428","ios":"levelo://app?vid=2a5e528a-bc52-4f2e-8352-6f49d9414428"},"vehicle_type_id":"4","last_reported":1686675967,"current_range_meters":4800,"station_id":"ce4bhc92rcd13ifvqetg","pricing_plan_id":"free"},{"bike_id":"0a4beee8-1d0b-40b6-a628-dd56857f4693","system_id":"levelo_inurba_marseille","lat":43.294032,"lon":5.386342,"is_reserved":false,"is_disabled":false,"rental_uris":{"android":"levelo://app?vid=0a4beee8-1d0b-40b6-a628-dd56857f4693","ios":"levelo://app?vid=0a4beee8-1d0b-40b6-a628-dd56857f4693"},"vehicle_type_id":"4","last_reported":1686675967,"current_range_meters":11600,"station_id":"","pricing_plan_id":"free"},{"bike_id":"715c9bfd-7b18-455e-9608-4491cf432553","system_id":"levelo_inurba_marseille","lat":43.289468,"lon":5.363719,"is_reserved":false,"is_disabled":false,"rental_uris":{"android":"levelo://app?vid=715c9bfd-7b18-455e-9608-4491cf432553","ios":"levelo://app?vid=715c9bfd-7b18-455e-9608-4491cf432553"},"vehicle_type_id":"4","last_reported":1686675967,"current_range_meters":10800,"station_id":"ce4bhc92rcd13ifvqetg","pricing_plan_id":"free"},{"bike_id":"9d0a396e-1359-471f-a00b-023a6a8612cb","system_id":"levelo_inurba_marseille","lat":43.31017,"lon":5.39913,"is_reserved":false,"is_disabled":false,"rental_uris":{"android":"levelo://app?vid=9d0a396e-1359-471f-a00b-023a6a8612cb","ios":"levelo://app?vid=9d0a396e-1359-471f-a00b-023a6a8612cb"},"vehicle_type_id":"4","last_reported":1686675967,"current_range_meters":8400,"station_id":"","pricing_plan_id":"free"},{"bike_id":"932b7cd9-dff5-460a-84c9-e9fdc644efb4","system_id":"levelo_inurba_marseille","lat":43.30416,"lon":5.39744,"is_reserved":false,"is_disabled":false,"rental_uris":{"android":"levelo://app?vid=932b7cd9-dff5-460a-84c9-e9fdc644efb4","ios":"levelo://app?vid=932b7cd9-dff5-460a-84c9-e9fdc644efb4"},"vehicle_type_id":"4","last_reported":1686675967,"current_range_meters":23200,"station_id":"ce4bh092rcd13ifvqd20","pricing_plan_id":"free"},{"bike_id":"743f6c57-c2a2-484d-b8a4-4d61f90a86d4","system_id":"levelo_inurba_marseille","lat":43.292642,"lon":5.384254,"is_reserved":false,"is_disabled":false,"rental_uris":{"android":"levelo://app?vid=743f6c57-c2a2-484d-b8a4-4d61f90a86d4","ios":"levelo://app?vid=743f6c57-c2a2-484d-b8a4-4d61f90a86d4"},"vehicle_type_id":"4","last_reported":1686675967,"current_range_meters":19600,"station_id":"ce4bh692rcd13ifvqea0","pricing_plan_id":"free"},{"bike_id":"f15f12ae-b5bb-4527-a799-9f84bc0ebe04","system_id":"levelo_inurba_marseille","lat":43.33038,"lon":5.38921,"is_reserved":false,"is_disabled":false,"rental_uris":{"android":"levelo://app?vid=f15f12ae-b5bb-4527-a799-9f84bc0ebe04","ios":"levelo://app?vid=f15f12ae-b5bb-4527-a799-9f84bc0ebe04"},"vehicle_type_id":"4","last_reported":1686675967,"current_range_meters":31200,"station_id":"ce4bhr92rcd13ifvqhrg","pricing_plan_id":"free"},{"bike_id":"73af8695-7c95-45b3-ad0b-11280d41fcbb","system_id":"levelo_inurba_marseille","lat":43.33039,"lon":5.38928,"is_reserved":false,"is_disabled":false,"rental_uris":{"android":"levelo://app?vid=73af8695-7c95-45b3-ad0b-11280d41fcbb","ios":"levelo://app?vid=73af8695-7c95-45b3-ad0b-11280d41fcbb"},"vehicle_type_id":"4","last_reported":1686675967,"current_range_meters":8400,"station_id":"ce4bhr92rcd13ifvqhrg","pricing_plan_id":"free"},{"bike_id":"45b83fac-9e4a-40c6-8ddf-05629209ff1f","system_id":"levelo_inurba_marseille","lat":43.330456,"lon":5.389184,"is_reserved":false,"is_disabled":false,"rental_uris":{"android":"levelo://app?vid=45b83fac-9e4a-40c6-8ddf-05629209ff1f","ios":"levelo://app?vid=45b83fac-9e4a-40c6-8ddf-05629209ff1f"},"vehicle_type_id":"4","last_reported":1686675967,"current_range_meters":16000,"station_id":"ce4bhr92rcd13ifvqhrg","pricing_plan_id":"free"},{"bike_id":"83fd5db6-dc1c-4e68-a3dd-013cba37af8e","system_id":"levelo_inurba_marseille","lat":43.33043,"lon":5.38923,"is_reserved":false,"is_disabled":false,"rental_uris":{"android":"levelo://app?vid=83fd5db6-dc1c-4e68-a3dd-013cba37af8e","ios":"levelo://app?vid=83fd5db6-dc1c-4e68-a3dd-013cba37af8e"},"vehicle_type_id":"4","last_reported":1686675967,"current_range_meters":14000,"station_id":"ce4bhr92rcd13ifvqhrg","pricing_plan_id":"free"},{"bike_id":"7a8ee1d0-0cf9-4ced-aea6-17bc4447d478","system_id":"levelo_inurba_marseille","lat":43.29524,"lon":5.39023,"is_reserved":false,"is_disabled":false,"rental_uris":{"android":"levelo://app?vid=7a8ee1d0-0cf9-4ced-aea6-17bc4447d478","ios":"levelo://app?vid=7a8ee1d0-0cf9-4ced-aea6-17bc4447d478"},"vehicle_type_id":"4","last_reported":1686675967,"current_range_meters":28800,"station_id":"ce4bh3p2rcd13ifvqdp0","pricing_plan_id":"free"},{"bike_id":"113c686c-60e2-4223-b369-c58468aadd60","system_id":"levelo_inurba_marseille","lat":43.295169,"lon":5.390426,"is_reserved":false,"is_disabled":false,"rental_uris":{"android":"levelo://app?vid=113c686c-60e2-4223-b369-c58468aadd60","ios":"levelo://app?vid=113c686c-60e2-4223-b369-c58468aadd60"},"vehicle_type_id":"4","last_reported":1686675967,"current_range_meters":15600,"station_id":"ce4bh3p2rcd13ifvqdp0","pricing_plan_id":"free"},{"bike_id":"8d00fd40-ee50-4fdf-a7cc-c5c22e44958c","system_id":"levelo_inurba_marseille","lat":43.295169,"lon":5.390426,"is_reserved":false,"is_disabled":false,"rental_uris":{"android":"levelo://app?vid=8d00fd40-ee50-4fdf-a7cc-c5c22e44958c","ios":"levelo://app?vid=8d00fd40-ee50-4fdf-a7cc-c5c22e44958c"},"vehicle_type_id":"4","last_reported":1686675967,"current_range_meters":27600,"station_id":"ce4bh3p2rcd13ifvqdp0","pricing_plan_id":"free"},{"bike_id":"fd3d2154-bb32-4d2f-82ca-5c6df31f1cfd","system_id":"levelo_inurba_marseille","lat":43.28856,"lon":5.358371,"is_reserved":false,"is_disabled":false,"rental_uris":{"android":"levelo://app?vid=fd3d2154-bb32-4d2f-82ca-5c6df31f1cfd","ios":"levelo://app?vid=fd3d2154-bb32-4d2f-82ca-5c6df31f1cfd"},"vehicle_type_id":"4","last_reported":1686675967,"current_range_meters":15600,"station_id":"ce4bhb12rcd13ifvqem0","pricing_plan_id":"free"},{"bike_id":"248e1f14-3e7c-4292-8dc7-3dfeab5c9983","system_id":"levelo_inurba_marseille","lat":43.28855,"lon":5.35841,"is_reserved":false,"is_disabled":false,"rental_uris":{"android":"levelo://app?vid=248e1f14-3e7c-4292-8dc7-3dfeab5c9983","ios":"levelo://app?vid=248e1f14-3e7c-4292-8dc7-3dfeab5c9983"},"vehicle_type_id":"4","last_reported":1686675967,"current_range_meters":29200,"station_id":"ce4bhb12rcd13ifvqem0","pricing_plan_id":"free"},{"bike_id":"6485b115-9dfe-4b29-b1e3-d3afd704a8be","system_id":"levelo_inurba_marseille","lat":43.337317,"lon":5.374437,"is_reserved":false,"is_disabled":false,"rental_uris":{"android":"levelo://app?vid=6485b115-9dfe-4b29-b1e3-d3afd704a8be","ios":"levelo://app?vid=6485b115-9dfe-4b29-b1e3-d3afd704a8be"},"vehicle_type_id":"4","last_reported":1686675967,"current_range_meters":29200,"station_id":"","pricing_plan_id":"free"},{"bike_id":"c0fb8083-e02d-4dec-b1b9-fa095e6c5b75","system_id":"levelo_inurba_marseille","lat":43.337396,"lon":5.374526,"is_reserved":false,"is_disabled":false,"rental_uris":{"android":"levelo://app?vid=c0fb8083-e02d-4dec-b1b9-fa095e6c5b75","ios":"levelo://app?vid=c0fb8083-e02d-4dec-b1b9-fa095e6c5b75"},"vehicle_type_id":"4","last_reported":1686675967,"current_range_meters":12000,"station_id":"ce4bhp92rcd13ifvqhag","pricing_plan_id":"free"},{"bike_id":"1972c50d-39a1-4df3-962d-93c3c8a1320c","system_id":"levelo_inurba_marseille","lat":43.309371,"lon":5.401449,"is_reserved":false,"is_disabled":false,"rental_uris":{"android":"levelo://app?vid=1972c50d-39a1-4df3-962d-93c3c8a1320c","ios":"levelo://app?vid=1972c50d-39a1-4df3-962d-93c3c8a1320c"},"vehicle_type_id":"4","last_reported":1686675967,"current_range_meters":2400,"station_id":"ce4bgvp2rcd13ifvqct0","pricing_plan_id":"free"},{"bike_id":"8aef1687-b414-460c-b1d1-bfff5edb72d2","system_id":"levelo_inurba_marseille","lat":43.309371,"lon":5.401449,"is_reserved":false,"is_disabled":false,"rental_uris":{"android":"levelo://app?vid=8aef1687-b414-460c-b1d1-bfff5edb72d2","ios":"levelo://app?vid=8aef1687-b414-460c-b1d1-bfff5edb72d2"},"vehicle_type_id":"4","last_reported":1686675967,"current_range_meters":21600,"station_id":"ce4bgvp2rcd13ifvqct0","pricing_plan_id":"free"},{"bike_id":"c5024299-4056-4a5d-9953-b73832c807fb","system_id":"levelo_inurba_marseille","lat":43.309371,"lon":5.401449,"is_reserved":false,"is_disabled":false,"rental_uris":{"android":"levelo://app?vid=c5024299-4056-4a5d-9953-b73832c807fb","ios":"levelo://app?vid=c5024299-4056-4a5d-9953-b73832c807fb"},"vehicle_type_id":"4","last_reported":1686675967,"current_range_meters":10000,"station_id":"ce4bgvp2rcd13ifvqct0","pricing_plan_id":"free"},{"bike_id":"588e34a7-ba7a-48c7-91de-0e47ded90344","system_id":"levelo_inurba_marseille","lat":43.33754,"lon":5.37465,"is_reserved":false,"is_disabled":false,"rental_uris":{"android":"levelo://app?vid=588e34a7-ba7a-48c7-91de-0e47ded90344","ios":"levelo://app?vid=588e34a7-ba7a-48c7-91de-0e47ded90344"},"vehicle_type_id":"4","last_reported":1686675967,"current_range_meters":30800,"station_id":"","pricing_plan_id":"free"},{"bike_id":"ea03c79d-f315-40db-8e1e-c8c7f4d4a21b","system_id":"levelo_inurba_marseille","lat":43.33764,"lon":5.37449,"is_reserved":false,"is_disabled":false,"rental_uris":{"android":"levelo://app?vid=ea03c79d-f315-40db-8e1e-c8c7f4d4a21b","ios":"levelo://app?vid=ea03c79d-f315-40db-8e1e-c8c7f4d4a21b"},"vehicle_type_id":"4","last_reported":1686675967,"current_range_meters":29600,"station_id":"","pricing_plan_id":"free"},{"bike_id":"b54d7825-53c3-4d57-b48f-bc67877c2517","system_id":"levelo_inurba_marseille","lat":43.337628,"lon":5.374598,"is_reserved":false,"is_disabled":false,"rental_uris":{"android":"levelo://app?vid=b54d7825-53c3-4d57-b48f-bc67877c2517","ios":"levelo://app?vid=b54d7825-53c3-4d57-b48f-bc67877c2517"},"vehicle_type_id":"4","last_reported":1686675967,"current_range_meters":31200,"station_id":"","pricing_plan_id":"free"},{"bike_id":"fa181341-c291-4ea4-a42b-92edf8409522","system_id":"levelo_inurba_marseille","lat":43.30642,"lon":5.401031,"is_reserved":false,"is_disabled":false,"rental_uris":{"android":"levelo://app?vid=fa181341-c291-4ea4-a42b-92edf8409522","ios":"levelo://app?vid=fa181341-c291-4ea4-a42b-92edf8409522"},"vehicle_type_id":"4","last_reported":1686675967,"current_range_meters":15200,"station_id":"ce4bh112rcd13ifvqda0","pricing_plan_id":"free"},{"bike_id":"6bf42a1a-e003-4b7b-b6d8-1ecb62afa6ca","system_id":"levelo_inurba_marseille","lat":43.30642,"lon":5.401031,"is_reserved":false,"is_disabled":false,"rental_uris":{"android":"levelo://app?vid=6bf42a1a-e003-4b7b-b6d8-1ecb62afa6ca","ios":"levelo://app?vid=6bf42a1a-e003-4b7b-b6d8-1ecb62afa6ca"},"vehicle_type_id":"4","last_reported":1686675967,"current_range_meters":21200,"station_id":"ce4bh112rcd13ifvqda0","pricing_plan_id":"free"},{"bike_id":"682edd32-fbf1-417a-9457-b65f7dd86c23","system_id":"levelo_inurba_marseille","lat":43.30642,"lon":5.401031,"is_reserved":false,"is_disabled":false,"rental_uris":{"android":"levelo://app?vid=682edd32-fbf1-417a-9457-b65f7dd86c23","ios":"levelo://app?vid=682edd32-fbf1-417a-9457-b65f7dd86c23"},"vehicle_type_id":"4","last_reported":1686675967,"current_range_meters":19200,"station_id":"ce4bh112rcd13ifvqda0","pricing_plan_id":"free"},{"bike_id":"ff12bbef-f9e9-4aec-8b35-c19dfa437d80","system_id":"levelo_inurba_marseille","lat":43.301117,"lon":5.398795,"is_reserved":false,"is_disabled":false,"rental_uris":{"android":"levelo://app?vid=ff12bbef-f9e9-4aec-8b35-c19dfa437d80","ios":"levelo://app?vid=ff12bbef-f9e9-4aec-8b35-c19dfa437d80"},"vehicle_type_id":"4","last_reported":1686675967,"current_range_meters":28000,"station_id":"ce4bh0h2rcd13ifvqd40","pricing_plan_id":"free"},{"bike_id":"5be2e90a-8f17-46be-a605-0940d1fb50f0","system_id":"levelo_inurba_marseille","lat":43.301117,"lon":5.398795,"is_reserved":false,"is_disabled":false,"rental_uris":{"android":"levelo://app?vid=5be2e90a-8f17-46be-a605-0940d1fb50f0","ios":"levelo://app?vid=5be2e90a-8f17-46be-a605-0940d1fb50f0"},"vehicle_type_id":"4","last_reported":1686675967,"current_range_meters":5600,"station_id":"ce4bh0h2rcd13ifvqd40","pricing_plan_id":"free"},{"bike_id":"0d9e718c-3a27-4c82-b17f-a3ed429d19fe","system_id":"levelo_inurba_marseille","lat":43.301117,"lon":5.398795,"is_reserved":false,"is_disabled":false,"rental_uris":{"android":"levelo://app?vid=0d9e718c-3a27-4c82-b17f-a3ed429d19fe","ios":"levelo://app?vid=0d9e718c-3a27-4c82-b17f-a3ed429d19fe"},"vehicle_type_id":"4","last_reported":1686675967,"current_range_meters":18400,"station_id":"ce4bh0h2rcd13ifvqd40","pricing_plan_id":"free"},{"bike_id":"30e77f20-3404-4df7-ad3e-171c1064854d","system_id":"levelo_inurba_marseille","lat":43.30124,"lon":5.39869,"is_reserved":false,"is_disabled":false,"rental_uris":{"android":"levelo://app?vid=30e77f20-3404-4df7-ad3e-171c1064854d","ios":"levelo://app?vid=30e77f20-3404-4df7-ad3e-171c1064854d"},"vehicle_type_id":"4","last_reported":1686675967,"current_range_meters":16000,"station_id":"ce4bh0h2rcd13ifvqd40","pricing_plan_id":"free"},{"bike_id":"8d71baf4-8c77-427f-84cb-40df76aeb256","system_id":"levelo_inurba_marseille","lat":43.301117,"lon":5.398795,"is_reserved":false,"is_disabled":false,"rental_uris":{"android":"levelo://app?vid=8d71baf4-8c77-427f-84cb-40df76aeb256","ios":"levelo://app?vid=8d71baf4-8c77-427f-84cb-40df76aeb256"},"vehicle_type_id":"4","last_reported":1686675967,"current_range_meters":9600,"station_id":"ce4bh0h2rcd13ifvqd40","pricing_plan_id":"free"},{"bike_id":"3eedadc2-c9de-47a1-9c05-b1d81b4467f2","system_id":"levelo_inurba_marseille","lat":43.298681,"lon":5.397225,"is_reserved":false,"is_disabled":false,"rental_uris":{"android":"levelo://app?vid=3eedadc2-c9de-47a1-9c05-b1d81b4467f2","ios":"levelo://app?vid=3eedadc2-c9de-47a1-9c05-b1d81b4467f2"},"vehicle_type_id":"4","last_reported":1686675967,"current_range_meters":0,"station_id":"ce4bh0h2rcd13ifvqd50","pricing_plan_id":"free"},{"bike_id":"bf7fcd9c-4009-4744-8ce1-e25b442e24c0","system_id":"levelo_inurba_marseille","lat":43.286591,"lon":5.363346,"is_reserved":false,"is_disabled":false,"rental_uris":{"android":"levelo://app?vid=bf7fcd9c-4009-4744-8ce1-e25b442e24c0","ios":"levelo://app?vid=bf7fcd9c-4009-4744-8ce1-e25b442e24c0"},"vehicle_type_id":"4","last_reported":1686675967,"current_range_meters":0,"station_id":"ce4bhah2rcd13ifvqej0","pricing_plan_id":"free"},{"bike_id":"9cf6f045-0f26-44fb-94fc-3f5f7745fa98","system_id":"levelo_inurba_marseille","lat":43.28663,"lon":5.36347,"is_reserved":false,"is_disabled":false,"rental_uris":{"android":"levelo://app?vid=9cf6f045-0f26-44fb-94fc-3f5f7745fa98","ios":"levelo://app?vid=9cf6f045-0f26-44fb-94fc-3f5f7745fa98"},"vehicle_type_id":"4","last_reported":1686675967,"current_range_meters":0,"station_id":"ce4bhah2rcd13ifvqej0","pricing_plan_id":"free"},{"bike_id":"c59c30f0-4c89-448b-8c0d-198a98291002","system_id":"levelo_inurba_marseille","lat":43.286591,"lon":5.363346,"is_reserved":false,"is_disabled":false,"rental_uris":{"android":"levelo://app?vid=c59c30f0-4c89-448b-8c0d-198a98291002","ios":"levelo://app?vid=c59c30f0-4c89-448b-8c0d-198a98291002"},"vehicle_type_id":"4","last_reported":1686675967,"current_range_meters":16800,"station_id":"ce4bhah2rcd13ifvqej0","pricing_plan_id":"free"},{"bike_id":"77fd5b3a-c2b1-4c08-8f8a-f7bce8bb7e23","system_id":"levelo_inurba_marseille","lat":43.295194,"lon":5.39397,"is_reserved":false,"is_disabled":false,"rental_uris":{"android":"levelo://app?vid=77fd5b3a-c2b1-4c08-8f8a-f7bce8bb7e23","ios":"levelo://app?vid=77fd5b3a-c2b1-4c08-8f8a-f7bce8bb7e23"},"vehicle_type_id":"4","last_reported":1686675967,"current_range_meters":11200,"station_id":"ce4bh292rcd13ifvqdf0","pricing_plan_id":"free"},{"bike_id":"03ab5c3c-7d2b-4ba8-a661-447bd211aa03","system_id":"levelo_inurba_marseille","lat":43.295194,"lon":5.39397,"is_reserved":false,"is_disabled":false,"rental_uris":{"android":"levelo://app?vid=03ab5c3c-7d2b-4ba8-a661-447bd211aa03","ios":"levelo://app?vid=03ab5c3c-7d2b-4ba8-a661-447bd211aa03"},"vehicle_type_id":"4","last_reported":1686675967,"current_range_meters":10800,"station_id":"ce4bh292rcd13ifvqdf0","pricing_plan_id":"free"},{"bike_id":"b3a7810d-b24b-430a-bd82-fc2f1af9e510","system_id":"levelo_inurba_marseille","lat":43.29033,"lon":5.38646,"is_reserved":false,"is_disabled":false,"rental_uris":{"android":"levelo://app?vid=b3a7810d-b24b-430a-bd82-fc2f1af9e510","ios":"levelo://app?vid=b3a7810d-b24b-430a-bd82-fc2f1af9e510"},"vehicle_type_id":"4","last_reported":1686675967,"current_range_meters":12000,"station_id":"ce4bh4p2rcd13ifvqe0g","pricing_plan_id":"free"},{"bike_id":"357283ea-9d28-470c-8751-36af006bc3a1","system_id":"levelo_inurba_marseille","lat":43.290313,"lon":5.386428,"is_reserved":false,"is_disabled":false,"rental_uris":{"android":"levelo://app?vid=357283ea-9d28-470c-8751-36af006bc3a1","ios":"levelo://app?vid=357283ea-9d28-470c-8751-36af006bc3a1"},"vehicle_type_id":"4","last_reported":1686675967,"current_range_meters":18400,"station_id":"ce4bh4p2rcd13ifvqe0g","pricing_plan_id":"free"},{"bike_id":"c33804ff-dc5f-4b41-91e5-c31451e8a2bf","system_id":"levelo_inurba_marseille","lat":43.290345,"lon":5.38646,"is_reserved":false,"is_disabled":false,"rental_uris":{"android":"levelo://app?vid=c33804ff-dc5f-4b41-91e5-c31451e8a2bf","ios":"levelo://app?vid=c33804ff-dc5f-4b41-91e5-c31451e8a2bf"},"vehicle_type_id":"4","last_reported":1686675967,"current_range_meters":0,"station_id":"ce4bh4p2rcd13ifvqe0g","pricing_plan_id":"free"},{"bike_id":"800dbc27-f1c7-44a5-8311-aed54e159783","system_id":"levelo_inurba_marseille","lat":43.29031,"lon":5.38649,"is_reserved":false,"is_disabled":false,"rental_uris":{"android":"levelo://app?vid=800dbc27-f1c7-44a5-8311-aed54e159783","ios":"levelo://app?vid=800dbc27-f1c7-44a5-8311-aed54e159783"},"vehicle_type_id":"4","last_reported":1686675967,"current_range_meters":0,"station_id":"ce4bh4p2rcd13ifvqe0g","pricing_plan_id":"free"},{"bike_id":"91b590b5-0085-4839-a20c-3b78eed4648e","system_id":"levelo_inurba_marseille","lat":43.302759,"lon":5.400793,"is_reserved":false,"is_disabled":false,"rental_uris":{"android":"levelo://app?vid=91b590b5-0085-4839-a20c-3b78eed4648e","ios":"levelo://app?vid=91b590b5-0085-4839-a20c-3b78eed4648e"},"vehicle_type_id":"4","last_reported":1686675967,"current_range_meters":4800,"station_id":"ce4bgvh2rcd13ifvqcs0","pricing_plan_id":"free"},{"bike_id":"10122341-05dc-45f4-9f10-3c5b77559aa9","system_id":"levelo_inurba_marseille","lat":43.29029,"lon":5.38649,"is_reserved":false,"is_disabled":false,"rental_uris":{"android":"levelo://app?vid=10122341-05dc-45f4-9f10-3c5b77559aa9","ios":"levelo://app?vid=10122341-05dc-45f4-9f10-3c5b77559aa9"},"vehicle_type_id":"4","last_reported":1686675967,"current_range_meters":26800,"station_id":"ce4bh4p2rcd13ifvqe0g","pricing_plan_id":"free"},{"bike_id":"1692c304-0682-47ca-a30f-b416248d27b4","system_id":"levelo_inurba_marseille","lat":43.286039,"lon":5.370679,"is_reserved":false,"is_disabled":false,"rental_uris":{"android":"levelo://app?vid=1692c304-0682-47ca-a30f-b416248d27b4","ios":"levelo://app?vid=1692c304-0682-47ca-a30f-b416248d27b4"},"vehicle_type_id":"4","last_reported":1686675967,"current_range_meters":23200,"station_id":"ce4bht12rcd13ifvqi60","pricing_plan_id":"free"},{"bike_id":"f266fec9-0966-4a07-b18c-9dac471ec570","system_id":"levelo_inurba_marseille","lat":43.286039,"lon":5.370679,"is_reserved":false,"is_disabled":false,"rental_uris":{"android":"levelo://app?vid=f266fec9-0966-4a07-b18c-9dac471ec570","ios":"levelo://app?vid=f266fec9-0966-4a07-b18c-9dac471ec570"},"vehicle_type_id":"4","last_reported":1686675967,"current_range_meters":20000,"station_id":"ce4bht12rcd13ifvqi60","pricing_plan_id":"free"},{"bike_id":"64cecb82-c6ac-478d-9761-2e724fb01f0d","system_id":"levelo_inurba_marseille","lat":43.286039,"lon":5.370681,"is_reserved":false,"is_disabled":false,"rental_uris":{"android":"levelo://app?vid=64cecb82-c6ac-478d-9761-2e724fb01f0d","ios":"levelo://app?vid=64cecb82-c6ac-478d-9761-2e724fb01f0d"},"vehicle_type_id":"4","last_reported":1686675967,"current_range_meters":7600,"station_id":"ce4bht12rcd13ifvqi60","pricing_plan_id":"free"},{"bike_id":"1b01c095-a5a0-4804-b3e5-c6b2842205d3","system_id":"levelo_inurba_marseille","lat":43.31644,"lon":5.40432,"is_reserved":false,"is_disabled":false,"rental_uris":{"android":"levelo://app?vid=1b01c095-a5a0-4804-b3e5-c6b2842205d3","ios":"levelo://app?vid=1b01c095-a5a0-4804-b3e5-c6b2842205d3"},"vehicle_type_id":"4","last_reported":1686675967,"current_range_meters":5200,"station_id":"ce4bh012rcd13ifvqd00","pricing_plan_id":"free"},{"bike_id":"509fff96-76c0-425e-ab8d-37927b56fd39","system_id":"levelo_inurba_marseille","lat":43.291994,"lon":5.392907,"is_reserved":false,"is_disabled":false,"rental_uris":{"android":"levelo://app?vid=509fff96-76c0-425e-ab8d-37927b56fd39","ios":"levelo://app?vid=509fff96-76c0-425e-ab8d-37927b56fd39"},"vehicle_type_id":"4","last_reported":1686675967,"current_range_meters":0,"station_id":"ce4bh192rcd13ifvqdd0","pricing_plan_id":"free"},{"bike_id":"d0e26480-c99c-4f05-82af-2bbae8984866","system_id":"levelo_inurba_marseille","lat":43.291994,"lon":5.392907,"is_reserved":false,"is_disabled":false,"rental_uris":{"android":"levelo://app?vid=d0e26480-c99c-4f05-82af-2bbae8984866","ios":"levelo://app?vid=d0e26480-c99c-4f05-82af-2bbae8984866"},"vehicle_type_id":"4","last_reported":1686675967,"current_range_meters":5200,"station_id":"ce4bh192rcd13ifvqdd0","pricing_plan_id":"free"},{"bike_id":"2b21876a-6264-4fb4-b344-e598dbc527d3","system_id":"levelo_inurba_marseille","lat":43.28503,"lon":5.37459,"is_reserved":false,"is_disabled":false,"rental_uris":{"android":"levelo://app?vid=2b21876a-6264-4fb4-b344-e598dbc527d3","ios":"levelo://app?vid=2b21876a-6264-4fb4-b344-e598dbc527d3"},"vehicle_type_id":"4","last_reported":1686675967,"current_range_meters":10000,"station_id":"","pricing_plan_id":"free"},{"bike_id":"750604c3-4c39-4652-95c0-f85c6c81de7a","system_id":"levelo_inurba_marseille","lat":43.284534,"lon":5.358662,"is_reserved":false,"is_disabled":false,"rental_uris":{"android":"levelo://app?vid=750604c3-4c39-4652-95c0-f85c6c81de7a","ios":"levelo://app?vid=750604c3-4c39-4652-95c0-f85c6c81de7a"},"vehicle_type_id":"4","last_reported":1686675967,"current_range_meters":6800,"station_id":"ce4bhah2rcd13ifvqei0","pricing_plan_id":"free"},{"bike_id":"96c6d250-0fcf-4329-957e-fddcb3159f66","system_id":"levelo_inurba_marseille","lat":43.284534,"lon":5.358662,"is_reserved":false,"is_disabled":false,"rental_uris":{"android":"levelo://app?vid=96c6d250-0fcf-4329-957e-fddcb3159f66","ios":"levelo://app?vid=96c6d250-0fcf-4329-957e-fddcb3159f66"},"vehicle_type_id":"4","last_reported":1686675967,"current_range_meters":9200,"station_id":"ce4bhah2rcd13ifvqei0","pricing_plan_id":"free"},{"bike_id":"7759e3c8-6667-4a6f-8548-81fb845146bd","system_id":"levelo_inurba_marseille","lat":43.284534,"lon":5.358662,"is_reserved":false,"is_disabled":false,"rental_uris":{"android":"levelo://app?vid=7759e3c8-6667-4a6f-8548-81fb845146bd","ios":"levelo://app?vid=7759e3c8-6667-4a6f-8548-81fb845146bd"},"vehicle_type_id":"4","last_reported":1686675967,"current_range_meters":11600,"station_id":"ce4bhah2rcd13ifvqei0","pricing_plan_id":"free"},{"bike_id":"7e18a9d1-d0af-48c1-82c5-423e7bd8f5ef","system_id":"levelo_inurba_marseille","lat":43.284534,"lon":5.358662,"is_reserved":false,"is_disabled":false,"rental_uris":{"android":"levelo://app?vid=7e18a9d1-d0af-48c1-82c5-423e7bd8f5ef","ios":"levelo://app?vid=7e18a9d1-d0af-48c1-82c5-423e7bd8f5ef"},"vehicle_type_id":"4","last_reported":1686675967,"current_range_meters":4400,"station_id":"ce4bhah2rcd13ifvqei0","pricing_plan_id":"free"},{"bike_id":"690f04f6-4f3a-447f-9494-d460b3e46778","system_id":"levelo_inurba_marseille","lat":43.284534,"lon":5.358662,"is_reserved":false,"is_disabled":false,"rental_uris":{"android":"levelo://app?vid=690f04f6-4f3a-447f-9494-d460b3e46778","ios":"levelo://app?vid=690f04f6-4f3a-447f-9494-d460b3e46778"},"vehicle_type_id":"4","last_reported":1686675967,"current_range_meters":1200,"station_id":"ce4bhah2rcd13ifvqei0","pricing_plan_id":"free"},{"bike_id":"90d3ee54-59dc-4862-a361-c0220b9cd201","system_id":"levelo_inurba_marseille","lat":43.284534,"lon":5.358662,"is_reserved":false,"is_disabled":false,"rental_uris":{"android":"levelo://app?vid=90d3ee54-59dc-4862-a361-c0220b9cd201","ios":"levelo://app?vid=90d3ee54-59dc-4862-a361-c0220b9cd201"},"vehicle_type_id":"4","last_reported":1686675967,"current_range_meters":5600,"station_id":"ce4bhah2rcd13ifvqei0","pricing_plan_id":"free"},{"bike_id":"cef24b2a-d69e-41cd-b701-fd5193cf4a14","system_id":"levelo_inurba_marseille","lat":43.28617,"lon":5.35111,"is_reserved":false,"is_disabled":false,"rental_uris":{"android":"levelo://app?vid=cef24b2a-d69e-41cd-b701-fd5193cf4a14","ios":"levelo://app?vid=cef24b2a-d69e-41cd-b701-fd5193cf4a14"},"vehicle_type_id":"4","last_reported":1686675967,"current_range_meters":2000,"station_id":"","pricing_plan_id":"free"},{"bike_id":"5b79492d-fe5e-4235-bf46-e9acf4d529c4","system_id":"levelo_inurba_marseille","lat":43.285856,"lon":5.350771,"is_reserved":false,"is_disabled":false,"rental_uris":{"android":"levelo://app?vid=5b79492d-fe5e-4235-bf46-e9acf4d529c4","ios":"levelo://app?vid=5b79492d-fe5e-4235-bf46-e9acf4d529c4"},"vehicle_type_id":"4","last_reported":1686675967,"current_range_meters":17200,"station_id":"ce4bhch2rcd13ifvqeug","pricing_plan_id":"free"},{"bike_id":"e6ec6d4e-c090-4044-a46c-7fcf7e15e819","system_id":"levelo_inurba_marseille","lat":43.285856,"lon":5.350771,"is_reserved":false,"is_disabled":false,"rental_uris":{"android":"levelo://app?vid=e6ec6d4e-c090-4044-a46c-7fcf7e15e819","ios":"levelo://app?vid=e6ec6d4e-c090-4044-a46c-7fcf7e15e819"},"vehicle_type_id":"4","last_reported":1686675967,"current_range_meters":6800,"station_id":"ce4bhch2rcd13ifvqeug","pricing_plan_id":"free"},{"bike_id":"8860e4a1-e9da-42dd-ade8-dac89ba4cf6e","system_id":"levelo_inurba_marseille","lat":43.285856,"lon":5.350771,"is_reserved":false,"is_disabled":false,"rental_uris":{"android":"levelo://app?vid=8860e4a1-e9da-42dd-ade8-dac89ba4cf6e","ios":"levelo://app?vid=8860e4a1-e9da-42dd-ade8-dac89ba4cf6e"},"vehicle_type_id":"4","last_reported":1686675967,"current_range_meters":19600,"station_id":"ce4bhch2rcd13ifvqeug","pricing_plan_id":"free"},{"bike_id":"e69cd4b6-9ca0-4aad-8b99-f670372a26ac","system_id":"levelo_inurba_marseille","lat":43.28407,"lon":5.37515,"is_reserved":false,"is_disabled":false,"rental_uris":{"android":"levelo://app?vid=e69cd4b6-9ca0-4aad-8b99-f670372a26ac","ios":"levelo://app?vid=e69cd4b6-9ca0-4aad-8b99-f670372a26ac"},"vehicle_type_id":"4","last_reported":1686675967,"current_range_meters":10000,"station_id":"","pricing_plan_id":"free"},{"bike_id":"6368932a-37db-40d5-ada2-febd9f2c6582","system_id":"levelo_inurba_marseille","lat":43.295713,"lon":5.399639,"is_reserved":false,"is_disabled":false,"rental_uris":{"android":"levelo://app?vid=6368932a-37db-40d5-ada2-febd9f2c6582","ios":"levelo://app?vid=6368932a-37db-40d5-ada2-febd9f2c6582"},"vehicle_type_id":"4","last_reported":1686675967,"current_range_meters":1600,"station_id":"ce4bh312rcd13ifvqdj0","pricing_plan_id":"free"},{"bike_id":"bd466ea3-fee6-4ca9-99ee-8e016a9c1166","system_id":"levelo_inurba_marseille","lat":43.295713,"lon":5.399639,"is_reserved":false,"is_disabled":false,"rental_uris":{"android":"levelo://app?vid=bd466ea3-fee6-4ca9-99ee-8e016a9c1166","ios":"levelo://app?vid=bd466ea3-fee6-4ca9-99ee-8e016a9c1166"},"vehicle_type_id":"4","last_reported":1686675967,"current_range_meters":15200,"station_id":"ce4bh312rcd13ifvqdj0","pricing_plan_id":"free"},{"bike_id":"8456410e-77bc-4082-818f-8762a3bcb033","system_id":"levelo_inurba_marseille","lat":43.28403,"lon":5.37513,"is_reserved":false,"is_disabled":false,"rental_uris":{"android":"levelo://app?vid=8456410e-77bc-4082-818f-8762a3bcb033","ios":"levelo://app?vid=8456410e-77bc-4082-818f-8762a3bcb033"},"vehicle_type_id":"4","last_reported":1686675967,"current_range_meters":19200,"station_id":"","pricing_plan_id":"free"},{"bike_id":"d0664fbb-6398-429f-95f1-598d68f1ad0f","system_id":"levelo_inurba_marseille","lat":43.28403,"lon":5.37514,"is_reserved":false,"is_disabled":false,"rental_uris":{"android":"levelo://app?vid=d0664fbb-6398-429f-95f1-598d68f1ad0f","ios":"levelo://app?vid=d0664fbb-6398-429f-95f1-598d68f1ad0f"},"vehicle_type_id":"4","last_reported":1686675967,"current_range_meters":10000,"station_id":"","pricing_plan_id":"free"},{"bike_id":"9b6bcc82-171f-4fe6-8f56-d5101e37b75a","system_id":"levelo_inurba_marseille","lat":43.28399,"lon":5.3752,"is_reserved":false,"is_disabled":false,"rental_uris":{"android":"levelo://app?vid=9b6bcc82-171f-4fe6-8f56-d5101e37b75a","ios":"levelo://app?vid=9b6bcc82-171f-4fe6-8f56-d5101e37b75a"},"vehicle_type_id":"4","last_reported":1686675967,"current_range_meters":2800,"station_id":"","pricing_plan_id":"free"},{"bike_id":"5edff5b9-a1ba-40bf-b372-7e34a865256f","system_id":"levelo_inurba_marseille","lat":43.296263,"lon":5.40601,"is_reserved":false,"is_disabled":false,"rental_uris":{"android":"levelo://app?vid=5edff5b9-a1ba-40bf-b372-7e34a865256f","ios":"levelo://app?vid=5edff5b9-a1ba-40bf-b372-7e34a865256f"},"vehicle_type_id":"4","last_reported":1686675967,"current_range_meters":12800,"station_id":"ce4bh0h2rcd13ifvqd60","pricing_plan_id":"free"},{"bike_id":"17da8659-ec08-4490-899a-e620bf7e8f14","system_id":"levelo_inurba_marseille","lat":43.286595,"lon":5.386795,"is_reserved":false,"is_disabled":false,"rental_uris":{"android":"levelo://app?vid=17da8659-ec08-4490-899a-e620bf7e8f14","ios":"levelo://app?vid=17da8659-ec08-4490-899a-e620bf7e8f14"},"vehicle_type_id":"4","last_reported":1686675967,"current_range_meters":18000,"station_id":"ce4bh492rcd13ifvqdug","pricing_plan_id":"free"},{"bike_id":"e2fc70b8-7548-494f-8e43-0c065153422e","system_id":"levelo_inurba_marseille","lat":43.323464,"lon":5.406297,"is_reserved":false,"is_disabled":false,"rental_uris":{"android":"levelo://app?vid=e2fc70b8-7548-494f-8e43-0c065153422e","ios":"levelo://app?vid=e2fc70b8-7548-494f-8e43-0c065153422e"},"vehicle_type_id":"4","last_reported":1686675967,"current_range_meters":30800,"station_id":"ce4bhq92rcd13ifvqhjg","pricing_plan_id":"free"},{"bike_id":"579e79ab-7087-4bc4-9acd-ea154959fe33","system_id":"levelo_inurba_marseille","lat":43.3038,"lon":5.40694,"is_reserved":false,"is_disabled":false,"rental_uris":{"android":"levelo://app?vid=579e79ab-7087-4bc4-9acd-ea154959fe33","ios":"levelo://app?vid=579e79ab-7087-4bc4-9acd-ea154959fe33"},"vehicle_type_id":"4","last_reported":1686675967,"current_range_meters":18800,"station_id":"","pricing_plan_id":"free"},{"bike_id":"16e5fedd-6e86-436a-a0a2-72c7cd60a6ea","system_id":"levelo_inurba_marseille","lat":43.32345,"lon":5.40616,"is_reserved":false,"is_disabled":false,"rental_uris":{"android":"levelo://app?vid=16e5fedd-6e86-436a-a0a2-72c7cd60a6ea","ios":"levelo://app?vid=16e5fedd-6e86-436a-a0a2-72c7cd60a6ea"},"vehicle_type_id":"4","last_reported":1686675967,"current_range_meters":31200,"station_id":"ce4bhq92rcd13ifvqhjg","pricing_plan_id":"free"},{"bike_id":"3809e364-cfe3-479b-9723-8a57900a25ad","system_id":"levelo_inurba_marseille","lat":43.323464,"lon":5.406297,"is_reserved":false,"is_disabled":false,"rental_uris":{"android":"levelo://app?vid=3809e364-cfe3-479b-9723-8a57900a25ad","ios":"levelo://app?vid=3809e364-cfe3-479b-9723-8a57900a25ad"},"vehicle_type_id":"4","last_reported":1686675967,"current_range_meters":2400,"station_id":"ce4bhq92rcd13ifvqhjg","pricing_plan_id":"free"},{"bike_id":"f62ba153-082f-40a0-996c-72d65e874915","system_id":"levelo_inurba_marseille","lat":43.323464,"lon":5.406297,"is_reserved":false,"is_disabled":false,"rental_uris":{"android":"levelo://app?vid=f62ba153-082f-40a0-996c-72d65e874915","ios":"levelo://app?vid=f62ba153-082f-40a0-996c-72d65e874915"},"vehicle_type_id":"4","last_reported":1686675967,"current_range_meters":20000,"station_id":"ce4bhq92rcd13ifvqhjg","pricing_plan_id":"free"},{"bike_id":"28952e2b-315b-4ae8-8e61-52cadc751aab","system_id":"levelo_inurba_marseille","lat":43.288497,"lon":5.393089,"is_reserved":false,"is_disabled":false,"rental_uris":{"android":"levelo://app?vid=28952e2b-315b-4ae8-8e61-52cadc751aab","ios":"levelo://app?vid=28952e2b-315b-4ae8-8e61-52cadc751aab"},"vehicle_type_id":"4","last_reported":1686675967,"current_range_meters":23200,"station_id":"ce4bh2p2rcd13ifvqdi0","pricing_plan_id":"free"},{"bike_id":"8339db73-bb1c-4576-a18e-bab5c8cd2f6f","system_id":"levelo_inurba_marseille","lat":43.288497,"lon":5.393089,"is_reserved":false,"is_disabled":false,"rental_uris":{"android":"levelo://app?vid=8339db73-bb1c-4576-a18e-bab5c8cd2f6f","ios":"levelo://app?vid=8339db73-bb1c-4576-a18e-bab5c8cd2f6f"},"vehicle_type_id":"4","last_reported":1686675967,"current_range_meters":16800,"station_id":"ce4bh2p2rcd13ifvqdi0","pricing_plan_id":"free"},{"bike_id":"db59923e-cdfb-4ca7-a6d1-a7524d4a1a9c","system_id":"levelo_inurba_marseille","lat":43.284219,"lon":5.3497,"is_reserved":false,"is_disabled":false,"rental_uris":{"android":"levelo://app?vid=db59923e-cdfb-4ca7-a6d1-a7524d4a1a9c","ios":"levelo://app?vid=db59923e-cdfb-4ca7-a6d1-a7524d4a1a9c"},"vehicle_type_id":"4","last_reported":1686675967,"current_range_meters":31200,"station_id":"ce4bhbh2rcd13ifvqepg","pricing_plan_id":"free"},{"bike_id":"f1844c56-1a25-495e-994b-fa05d8fcafe5","system_id":"levelo_inurba_marseille","lat":43.28421,"lon":5.34992,"is_reserved":false,"is_disabled":false,"rental_uris":{"android":"levelo://app?vid=f1844c56-1a25-495e-994b-fa05d8fcafe5","ios":"levelo://app?vid=f1844c56-1a25-495e-994b-fa05d8fcafe5"},"vehicle_type_id":"4","last_reported":1686675967,"current_range_meters":1600,"station_id":"ce4bhbh2rcd13ifvqepg","pricing_plan_id":"free"},{"bike_id":"0d46d6fa-165c-46e1-bd6f-56220cb23070","system_id":"levelo_inurba_marseille","lat":43.284219,"lon":5.3497,"is_reserved":false,"is_disabled":false,"rental_uris":{"android":"levelo://app?vid=0d46d6fa-165c-46e1-bd6f-56220cb23070","ios":"levelo://app?vid=0d46d6fa-165c-46e1-bd6f-56220cb23070"},"vehicle_type_id":"4","last_reported":1686675967,"current_range_meters":1200,"station_id":"ce4bhbh2rcd13ifvqepg","pricing_plan_id":"free"},{"bike_id":"58f08fb0-176a-4fd2-8276-da24a5841bd5","system_id":"levelo_inurba_marseille","lat":43.284219,"lon":5.3497,"is_reserved":false,"is_disabled":false,"rental_uris":{"android":"levelo://app?vid=58f08fb0-176a-4fd2-8276-da24a5841bd5","ios":"levelo://app?vid=58f08fb0-176a-4fd2-8276-da24a5841bd5"},"vehicle_type_id":"4","last_reported":1686675967,"current_range_meters":12800,"station_id":"ce4bhbh2rcd13ifvqepg","pricing_plan_id":"free"},{"bike_id":"13da791a-bbbc-429b-ae56-b9a5c1f1e5c8","system_id":"levelo_inurba_marseille","lat":43.284219,"lon":5.3497,"is_reserved":false,"is_disabled":false,"rental_uris":{"android":"levelo://app?vid=13da791a-bbbc-429b-ae56-b9a5c1f1e5c8","ios":"levelo://app?vid=13da791a-bbbc-429b-ae56-b9a5c1f1e5c8"},"vehicle_type_id":"4","last_reported":1686675967,"current_range_meters":2000,"station_id":"ce4bhbh2rcd13ifvqepg","pricing_plan_id":"free"},{"bike_id":"8a1082f1-c614-475a-8d27-e1f1c1e08157","system_id":"levelo_inurba_marseille","lat":43.28415,"lon":5.3499,"is_reserved":false,"is_disabled":false,"rental_uris":{"android":"levelo://app?vid=8a1082f1-c614-475a-8d27-e1f1c1e08157","ios":"levelo://app?vid=8a1082f1-c614-475a-8d27-e1f1c1e08157"},"vehicle_type_id":"4","last_reported":1686675967,"current_range_meters":17600,"station_id":"ce4bhbh2rcd13ifvqepg","pricing_plan_id":"free"},{"bike_id":"41ad3bfa-744a-48b5-8f15-6635ee32b9df","system_id":"levelo_inurba_marseille","lat":43.284219,"lon":5.3497,"is_reserved":false,"is_disabled":false,"rental_uris":{"android":"levelo://app?vid=41ad3bfa-744a-48b5-8f15-6635ee32b9df","ios":"levelo://app?vid=41ad3bfa-744a-48b5-8f15-6635ee32b9df"},"vehicle_type_id":"4","last_reported":1686675967,"current_range_meters":24800,"station_id":"ce4bhbh2rcd13ifvqepg","pricing_plan_id":"free"},{"bike_id":"ce77a310-3a46-4ad9-91c3-94410e06b7f7","system_id":"levelo_inurba_marseille","lat":43.284219,"lon":5.3497,"is_reserved":false,"is_disabled":false,"rental_uris":{"android":"levelo://app?vid=ce77a310-3a46-4ad9-91c3-94410e06b7f7","ios":"levelo://app?vid=ce77a310-3a46-4ad9-91c3-94410e06b7f7"},"vehicle_type_id":"4","last_reported":1686675967,"current_range_meters":16800,"station_id":"ce4bhbh2rcd13ifvqepg","pricing_plan_id":"free"},{"bike_id":"6ca178b8-46b5-4fe3-ba19-8d32e05338e4","system_id":"levelo_inurba_marseille","lat":43.284219,"lon":5.3497,"is_reserved":false,"is_disabled":false,"rental_uris":{"android":"levelo://app?vid=6ca178b8-46b5-4fe3-ba19-8d32e05338e4","ios":"levelo://app?vid=6ca178b8-46b5-4fe3-ba19-8d32e05338e4"},"vehicle_type_id":"4","last_reported":1686675967,"current_range_meters":24000,"station_id":"ce4bhbh2rcd13ifvqepg","pricing_plan_id":"free"},{"bike_id":"e4c1470b-3009-4c6d-8ab9-32398cfbe1e8","system_id":"levelo_inurba_marseille","lat":43.28411,"lon":5.34985,"is_reserved":false,"is_disabled":false,"rental_uris":{"android":"levelo://app?vid=e4c1470b-3009-4c6d-8ab9-32398cfbe1e8","ios":"levelo://app?vid=e4c1470b-3009-4c6d-8ab9-32398cfbe1e8"},"vehicle_type_id":"4","last_reported":1686675967,"current_range_meters":11200,"station_id":"ce4bhbh2rcd13ifvqepg","pricing_plan_id":"free"},{"bike_id":"507b3214-c6ff-4344-9a04-4a62a5587996","system_id":"levelo_inurba_marseille","lat":43.28408,"lon":5.34984,"is_reserved":false,"is_disabled":false,"rental_uris":{"android":"levelo://app?vid=507b3214-c6ff-4344-9a04-4a62a5587996","ios":"levelo://app?vid=507b3214-c6ff-4344-9a04-4a62a5587996"},"vehicle_type_id":"4","last_reported":1686675967,"current_range_meters":26400,"station_id":"ce4bhbh2rcd13ifvqepg","pricing_plan_id":"free"},{"bike_id":"0d3b5797-4a3e-4f37-911c-a91ff97b98e6","system_id":"levelo_inurba_marseille","lat":43.284219,"lon":5.3497,"is_reserved":false,"is_disabled":false,"rental_uris":{"android":"levelo://app?vid=0d3b5797-4a3e-4f37-911c-a91ff97b98e6","ios":"levelo://app?vid=0d3b5797-4a3e-4f37-911c-a91ff97b98e6"},"vehicle_type_id":"4","last_reported":1686675967,"current_range_meters":21600,"station_id":"ce4bhbh2rcd13ifvqepg","pricing_plan_id":"free"},{"bike_id":"e658bf8d-ead6-41d0-aa7d-26ed289d9fe6","system_id":"levelo_inurba_marseille","lat":43.28407,"lon":5.34969,"is_reserved":false,"is_disabled":false,"rental_uris":{"android":"levelo://app?vid=e658bf8d-ead6-41d0-aa7d-26ed289d9fe6","ios":"levelo://app?vid=e658bf8d-ead6-41d0-aa7d-26ed289d9fe6"},"vehicle_type_id":"4","last_reported":1686675967,"current_range_meters":800,"station_id":"ce4bhbh2rcd13ifvqepg","pricing_plan_id":"free"},{"bike_id":"53ac039e-90f1-4fb2-b1fc-416513ea3241","system_id":"levelo_inurba_marseille","lat":43.28404,"lon":5.34973,"is_reserved":false,"is_disabled":false,"rental_uris":{"android":"levelo://app?vid=53ac039e-90f1-4fb2-b1fc-416513ea3241","ios":"levelo://app?vid=53ac039e-90f1-4fb2-b1fc-416513ea3241"},"vehicle_type_id":"4","last_reported":1686675967,"current_range_meters":16800,"station_id":"ce4bhbh2rcd13ifvqepg","pricing_plan_id":"free"},{"bike_id":"a4081a8c-e00c-42e5-a351-9928a354a74c","system_id":"levelo_inurba_marseille","lat":43.284,"lon":5.34978,"is_reserved":false,"is_disabled":false,"rental_uris":{"android":"levelo://app?vid=a4081a8c-e00c-42e5-a351-9928a354a74c","ios":"levelo://app?vid=a4081a8c-e00c-42e5-a351-9928a354a74c"},"vehicle_type_id":"4","last_reported":1686675967,"current_range_meters":31200,"station_id":"ce4bhbh2rcd13ifvqepg","pricing_plan_id":"free"},{"bike_id":"32b3b1e1-7d77-4aac-bf13-bbe6a76e4551","system_id":"levelo_inurba_marseille","lat":43.289363,"lon":5.396322,"is_reserved":false,"is_disabled":false,"rental_uris":{"android":"levelo://app?vid=32b3b1e1-7d77-4aac-bf13-bbe6a76e4551","ios":"levelo://app?vid=32b3b1e1-7d77-4aac-bf13-bbe6a76e4551"},"vehicle_type_id":"4","last_reported":1686675967,"current_range_meters":800,"station_id":"ce4bh3h2rcd13ifvqdn0","pricing_plan_id":"free"},{"bike_id":"ff4c6425-128a-4497-9a52-0fe45b60c8da","system_id":"levelo_inurba_marseille","lat":43.292724,"lon":5.401131,"is_reserved":false,"is_disabled":false,"rental_uris":{"android":"levelo://app?vid=ff4c6425-128a-4497-9a52-0fe45b60c8da","ios":"levelo://app?vid=ff4c6425-128a-4497-9a52-0fe45b60c8da"},"vehicle_type_id":"4","last_reported":1686675967,"current_range_meters":23600,"station_id":"ce4bh312rcd13ifvqdk0","pricing_plan_id":"free"},{"bike_id":"d9e98527-aa09-4d6b-ade7-e179c91d1aab","system_id":"levelo_inurba_marseille","lat":43.28272,"lon":5.35064,"is_reserved":false,"is_disabled":false,"rental_uris":{"android":"levelo://app?vid=d9e98527-aa09-4d6b-ade7-e179c91d1aab","ios":"levelo://app?vid=d9e98527-aa09-4d6b-ade7-e179c91d1aab"},"vehicle_type_id":"4","last_reported":1686675967,"current_range_meters":28400,"station_id":"ce4bhbp2rcd13ifvqerg","pricing_plan_id":"free"},{"bike_id":"af2e4930-7105-4cf9-ba05-76ff977cf671","system_id":"levelo_inurba_marseille","lat":43.282744,"lon":5.350533,"is_reserved":false,"is_disabled":false,"rental_uris":{"android":"levelo://app?vid=af2e4930-7105-4cf9-ba05-76ff977cf671","ios":"levelo://app?vid=af2e4930-7105-4cf9-ba05-76ff977cf671"},"vehicle_type_id":"4","last_reported":1686675967,"current_range_meters":13600,"station_id":"ce4bhbp2rcd13ifvqerg","pricing_plan_id":"free"},{"bike_id":"ecc24f0a-a01e-4dff-a937-5565f4be7307","system_id":"levelo_inurba_marseille","lat":43.283502,"lon":5.386471,"is_reserved":false,"is_disabled":false,"rental_uris":{"android":"levelo://app?vid=ecc24f0a-a01e-4dff-a937-5565f4be7307","ios":"levelo://app?vid=ecc24f0a-a01e-4dff-a937-5565f4be7307"},"vehicle_type_id":"4","last_reported":1686675967,"current_range_meters":2400,"station_id":"ce4bh492rcd13ifvqdvg","pricing_plan_id":"free"},{"bike_id":"a39fb1a5-a863-4d26-bc18-cb5985f510fa","system_id":"levelo_inurba_marseille","lat":43.281044,"lon":5.378308,"is_reserved":false,"is_disabled":false,"rental_uris":{"android":"levelo://app?vid=a39fb1a5-a863-4d26-bc18-cb5985f510fa","ios":"levelo://app?vid=a39fb1a5-a863-4d26-bc18-cb5985f510fa"},"vehicle_type_id":"4","last_reported":1686675967,"current_range_meters":21600,"station_id":"ce4bha12rcd13ifvqee0","pricing_plan_id":"free"},{"bike_id":"2dd1cac1-e0e9-4467-815f-0f73cdd6b02c","system_id":"levelo_inurba_marseille","lat":43.281044,"lon":5.378308,"is_reserved":false,"is_disabled":false,"rental_uris":{"android":"levelo://app?vid=2dd1cac1-e0e9-4467-815f-0f73cdd6b02c","ios":"levelo://app?vid=2dd1cac1-e0e9-4467-815f-0f73cdd6b02c"},"vehicle_type_id":"4","last_reported":1686675967,"current_range_meters":18000,"station_id":"ce4bha12rcd13ifvqee0","pricing_plan_id":"free"},{"bike_id":"71163962-ad67-4e6b-8366-d5b2c8cae856","system_id":"levelo_inurba_marseille","lat":43.281044,"lon":5.378308,"is_reserved":false,"is_disabled":false,"rental_uris":{"android":"levelo://app?vid=71163962-ad67-4e6b-8366-d5b2c8cae856","ios":"levelo://app?vid=71163962-ad67-4e6b-8366-d5b2c8cae856"},"vehicle_type_id":"4","last_reported":1686675967,"current_range_meters":8800,"station_id":"ce4bha12rcd13ifvqee0","pricing_plan_id":"free"},{"bike_id":"6d0bd562-cbd9-4ff1-9a66-9b4baa69de4c","system_id":"levelo_inurba_marseille","lat":43.296263,"lon":5.40601,"is_reserved":false,"is_disabled":false,"rental_uris":{"android":"levelo://app?vid=6d0bd562-cbd9-4ff1-9a66-9b4baa69de4c","ios":"levelo://app?vid=6d0bd562-cbd9-4ff1-9a66-9b4baa69de4c"},"vehicle_type_id":"4","last_reported":1686675967,"current_range_meters":10400,"station_id":"ce4bh0h2rcd13ifvqd60","pricing_plan_id":"free"},{"bike_id":"537d2c7d-a178-4002-ab78-acccd3ef1038","system_id":"levelo_inurba_marseille","lat":43.284462,"lon":5.392121,"is_reserved":false,"is_disabled":false,"rental_uris":{"android":"levelo://app?vid=537d2c7d-a178-4002-ab78-acccd3ef1038","ios":"levelo://app?vid=537d2c7d-a178-4002-ab78-acccd3ef1038"},"vehicle_type_id":"4","last_reported":1686675967,"current_range_meters":0,"station_id":"ce4bhoh2rcd13ifvqh5g","pricing_plan_id":"free"},{"bike_id":"318b489c-b81d-41dc-9dfb-2f300d5e3e7e","system_id":"levelo_inurba_marseille","lat":43.287154,"lon":5.399979,"is_reserved":false,"is_disabled":false,"rental_uris":{"android":"levelo://app?vid=318b489c-b81d-41dc-9dfb-2f300d5e3e7e","ios":"levelo://app?vid=318b489c-b81d-41dc-9dfb-2f300d5e3e7e"},"vehicle_type_id":"4","last_reported":1686675967,"current_range_meters":16000,"station_id":"ce4bho92rcd13ifvqh3g","pricing_plan_id":"free"},{"bike_id":"f1820458-0498-4089-8003-3eda18e499cf","system_id":"levelo_inurba_marseille","lat":43.299579,"lon":5.413255,"is_reserved":false,"is_disabled":false,"rental_uris":{"android":"levelo://app?vid=f1820458-0498-4089-8003-3eda18e499cf","ios":"levelo://app?vid=f1820458-0498-4089-8003-3eda18e499cf"},"vehicle_type_id":"4","last_reported":1686675967,"current_range_meters":2400,"station_id":"ce4bhp12rcd13ifvqh9g","pricing_plan_id":"free"},{"bike_id":"0a685758-6b77-4e42-b817-f0d461bfb4d5","system_id":"levelo_inurba_marseille","lat":43.292571,"lon":5.409107,"is_reserved":false,"is_disabled":false,"rental_uris":{"android":"levelo://app?vid=0a685758-6b77-4e42-b817-f0d461bfb4d5","ios":"levelo://app?vid=0a685758-6b77-4e42-b817-f0d461bfb4d5"},"vehicle_type_id":"4","last_reported":1686675967,"current_range_meters":4400,"station_id":"ce4bh192rcd13ifvqdc0","pricing_plan_id":"free"},{"bike_id":"725de65e-c314-424b-957e-19d230ade603","system_id":"levelo_inurba_marseille","lat":43.292571,"lon":5.409107,"is_reserved":false,"is_disabled":false,"rental_uris":{"android":"levelo://app?vid=725de65e-c314-424b-957e-19d230ade603","ios":"levelo://app?vid=725de65e-c314-424b-957e-19d230ade603"},"vehicle_type_id":"4","last_reported":1686675967,"current_range_meters":24800,"station_id":"ce4bh192rcd13ifvqdc0","pricing_plan_id":"free"},{"bike_id":"5adb49ef-f3a7-4177-94b6-5d2b27dd703e","system_id":"levelo_inurba_marseille","lat":43.292569,"lon":5.409107,"is_reserved":false,"is_disabled":false,"rental_uris":{"android":"levelo://app?vid=5adb49ef-f3a7-4177-94b6-5d2b27dd703e","ios":"levelo://app?vid=5adb49ef-f3a7-4177-94b6-5d2b27dd703e"},"vehicle_type_id":"4","last_reported":1686675967,"current_range_meters":0,"station_id":"ce4bh192rcd13ifvqdc0","pricing_plan_id":"free"},{"bike_id":"ae39e40d-71b9-4312-8a15-c9263c849f97","system_id":"levelo_inurba_marseille","lat":43.29798,"lon":5.41339,"is_reserved":false,"is_disabled":false,"rental_uris":{"android":"levelo://app?vid=ae39e40d-71b9-4312-8a15-c9263c849f97","ios":"levelo://app?vid=ae39e40d-71b9-4312-8a15-c9263c849f97"},"vehicle_type_id":"4","last_reported":1686675967,"current_range_meters":20400,"station_id":"","pricing_plan_id":"free"},{"bike_id":"e2e62d40-9d5f-4155-a755-768bccb6bffd","system_id":"levelo_inurba_marseille","lat":43.280784,"lon":5.396622,"is_reserved":false,"is_disabled":false,"rental_uris":{"android":"levelo://app?vid=e2e62d40-9d5f-4155-a755-768bccb6bffd","ios":"levelo://app?vid=e2e62d40-9d5f-4155-a755-768bccb6bffd"},"vehicle_type_id":"4","last_reported":1686675967,"current_range_meters":13600,"station_id":"ce4bho12rcd13ifvqh2g","pricing_plan_id":"free"},{"bike_id":"ef420247-4f74-4477-ab44-b67e83348c43","system_id":"levelo_inurba_marseille","lat":43.280784,"lon":5.396622,"is_reserved":false,"is_disabled":false,"rental_uris":{"android":"levelo://app?vid=ef420247-4f74-4477-ab44-b67e83348c43","ios":"levelo://app?vid=ef420247-4f74-4477-ab44-b67e83348c43"},"vehicle_type_id":"4","last_reported":1686675967,"current_range_meters":23200,"station_id":"ce4bho12rcd13ifvqh2g","pricing_plan_id":"free"},{"bike_id":"8e373716-70f5-47af-9465-ac5ed2756cf1","system_id":"levelo_inurba_marseille","lat":43.278399,"lon":5.392139,"is_reserved":false,"is_disabled":false,"rental_uris":{"android":"levelo://app?vid=8e373716-70f5-47af-9465-ac5ed2756cf1","ios":"levelo://app?vid=8e373716-70f5-47af-9465-ac5ed2756cf1"},"vehicle_type_id":"4","last_reported":1686675967,"current_range_meters":9600,"station_id":"ce4bhjp2rcd13ifvqga0","pricing_plan_id":"free"},{"bike_id":"4420a990-5171-4355-8a77-20a789f8197a","system_id":"levelo_inurba_marseille","lat":43.278399,"lon":5.392139,"is_reserved":false,"is_disabled":false,"rental_uris":{"android":"levelo://app?vid=4420a990-5171-4355-8a77-20a789f8197a","ios":"levelo://app?vid=4420a990-5171-4355-8a77-20a789f8197a"},"vehicle_type_id":"4","last_reported":1686675967,"current_range_meters":16400,"station_id":"ce4bhjp2rcd13ifvqga0","pricing_plan_id":"free"},{"bike_id":"0db72719-d03c-40d0-8a9b-0ce873e296c5","system_id":"levelo_inurba_marseille","lat":43.278399,"lon":5.392139,"is_reserved":false,"is_disabled":false,"rental_uris":{"android":"levelo://app?vid=0db72719-d03c-40d0-8a9b-0ce873e296c5","ios":"levelo://app?vid=0db72719-d03c-40d0-8a9b-0ce873e296c5"},"vehicle_type_id":"4","last_reported":1686675967,"current_range_meters":19600,"station_id":"ce4bhjp2rcd13ifvqga0","pricing_plan_id":"free"},{"bike_id":"f7fbce54-259a-489f-b9d9-ff8cd5abf47d","system_id":"levelo_inurba_marseille","lat":43.278399,"lon":5.392139,"is_reserved":false,"is_disabled":false,"rental_uris":{"android":"levelo://app?vid=f7fbce54-259a-489f-b9d9-ff8cd5abf47d","ios":"levelo://app?vid=f7fbce54-259a-489f-b9d9-ff8cd5abf47d"},"vehicle_type_id":"4","last_reported":1686675967,"current_range_meters":23600,"station_id":"ce4bhjp2rcd13ifvqga0","pricing_plan_id":"free"},{"bike_id":"ba96e7b2-3f9a-4c29-9bff-5ee909f0926f","system_id":"levelo_inurba_marseille","lat":43.278399,"lon":5.392139,"is_reserved":false,"is_disabled":false,"rental_uris":{"android":"levelo://app?vid=ba96e7b2-3f9a-4c29-9bff-5ee909f0926f","ios":"levelo://app?vid=ba96e7b2-3f9a-4c29-9bff-5ee909f0926f"},"vehicle_type_id":"4","last_reported":1686675967,"current_range_meters":21200,"station_id":"ce4bhjp2rcd13ifvqga0","pricing_plan_id":"free"},{"bike_id":"efdb63a4-cb15-49c0-83e0-4b707c8a1081","system_id":"levelo_inurba_marseille","lat":43.278399,"lon":5.392139,"is_reserved":false,"is_disabled":false,"rental_uris":{"android":"levelo://app?vid=efdb63a4-cb15-49c0-83e0-4b707c8a1081","ios":"levelo://app?vid=efdb63a4-cb15-49c0-83e0-4b707c8a1081"},"vehicle_type_id":"4","last_reported":1686675967,"current_range_meters":2800,"station_id":"ce4bhjp2rcd13ifvqga0","pricing_plan_id":"free"},{"bike_id":"f70faa8f-272e-48d2-b9b5-29ca99348113","system_id":"levelo_inurba_marseille","lat":43.28047,"lon":5.39713,"is_reserved":false,"is_disabled":false,"rental_uris":{"android":"levelo://app?vid=f70faa8f-272e-48d2-b9b5-29ca99348113","ios":"levelo://app?vid=f70faa8f-272e-48d2-b9b5-29ca99348113"},"vehicle_type_id":"4","last_reported":1686675967,"current_range_meters":7600,"station_id":"","pricing_plan_id":"free"},{"bike_id":"bfca4923-9c21-4bd2-80f7-87936d467433","system_id":"levelo_inurba_marseille","lat":43.273609,"lon":5.362708,"is_reserved":false,"is_disabled":false,"rental_uris":{"android":"levelo://app?vid=bfca4923-9c21-4bd2-80f7-87936d467433","ios":"levelo://app?vid=bfca4923-9c21-4bd2-80f7-87936d467433"},"vehicle_type_id":"4","last_reported":1686675967,"current_range_meters":24800,"station_id":"ce4bhbh2rcd13ifvqeo0","pricing_plan_id":"free"},{"bike_id":"56abaf1f-8327-4e5e-9a8a-350e67eaee1a","system_id":"levelo_inurba_marseille","lat":43.273609,"lon":5.362708,"is_reserved":false,"is_disabled":false,"rental_uris":{"android":"levelo://app?vid=56abaf1f-8327-4e5e-9a8a-350e67eaee1a","ios":"levelo://app?vid=56abaf1f-8327-4e5e-9a8a-350e67eaee1a"},"vehicle_type_id":"4","last_reported":1686675967,"current_range_meters":800,"station_id":"ce4bhbh2rcd13ifvqeo0","pricing_plan_id":"free"},{"bike_id":"a8f8b517-09b4-4197-94bb-6fa9d03dd022","system_id":"levelo_inurba_marseille","lat":43.27626,"lon":5.39177,"is_reserved":false,"is_disabled":false,"rental_uris":{"android":"levelo://app?vid=a8f8b517-09b4-4197-94bb-6fa9d03dd022","ios":"levelo://app?vid=a8f8b517-09b4-4197-94bb-6fa9d03dd022"},"vehicle_type_id":"4","last_reported":1686675967,"current_range_meters":27200,"station_id":"","pricing_plan_id":"free"},{"bike_id":"60369bb0-0d71-43b9-a915-5d4c7e589c53","system_id":"levelo_inurba_marseille","lat":43.317121,"lon":5.423936,"is_reserved":false,"is_disabled":false,"rental_uris":{"android":"levelo://app?vid=60369bb0-0d71-43b9-a915-5d4c7e589c53","ios":"levelo://app?vid=60369bb0-0d71-43b9-a915-5d4c7e589c53"},"vehicle_type_id":"4","last_reported":1686675967,"current_range_meters":31200,"station_id":"ce4bhp92rcd13ifvqhbg","pricing_plan_id":"free"},{"bike_id":"c135417b-40c4-4c04-943e-b7711837ba3c","system_id":"levelo_inurba_marseille","lat":43.317121,"lon":5.423936,"is_reserved":false,"is_disabled":false,"rental_uris":{"android":"levelo://app?vid=c135417b-40c4-4c04-943e-b7711837ba3c","ios":"levelo://app?vid=c135417b-40c4-4c04-943e-b7711837ba3c"},"vehicle_type_id":"4","last_reported":1686675967,"current_range_meters":26400,"station_id":"ce4bhp92rcd13ifvqhbg","pricing_plan_id":"free"},{"bike_id":"5a7b269b-2b02-4a20-952b-e6460f24f80b","system_id":"levelo_inurba_marseille","lat":43.317121,"lon":5.423936,"is_reserved":false,"is_disabled":false,"rental_uris":{"android":"levelo://app?vid=5a7b269b-2b02-4a20-952b-e6460f24f80b","ios":"levelo://app?vid=5a7b269b-2b02-4a20-952b-e6460f24f80b"},"vehicle_type_id":"4","last_reported":1686675967,"current_range_meters":29600,"station_id":"ce4bhp92rcd13ifvqhbg","pricing_plan_id":"free"},{"bike_id":"ffc5bc62-68dd-44d2-8618-bda22ad3a73e","system_id":"levelo_inurba_marseille","lat":43.317121,"lon":5.423936,"is_reserved":false,"is_disabled":false,"rental_uris":{"android":"levelo://app?vid=ffc5bc62-68dd-44d2-8618-bda22ad3a73e","ios":"levelo://app?vid=ffc5bc62-68dd-44d2-8618-bda22ad3a73e"},"vehicle_type_id":"4","last_reported":1686675967,"current_range_meters":31200,"station_id":"ce4bhp92rcd13ifvqhbg","pricing_plan_id":"free"},{"bike_id":"753c6b72-ca8a-45ae-bd9d-8eca801d7a1c","system_id":"levelo_inurba_marseille","lat":43.27614,"lon":5.39489,"is_reserved":false,"is_disabled":false,"rental_uris":{"android":"levelo://app?vid=753c6b72-ca8a-45ae-bd9d-8eca801d7a1c","ios":"levelo://app?vid=753c6b72-ca8a-45ae-bd9d-8eca801d7a1c"},"vehicle_type_id":"4","last_reported":1686675967,"current_range_meters":5600,"station_id":"","pricing_plan_id":"free"},{"bike_id":"85a54c3b-658d-49a6-a99a-46259b0f9d6a","system_id":"levelo_inurba_marseille","lat":43.27422,"lon":5.394,"is_reserved":false,"is_disabled":false,"rental_uris":{"android":"levelo://app?vid=85a54c3b-658d-49a6-a99a-46259b0f9d6a","ios":"levelo://app?vid=85a54c3b-658d-49a6-a99a-46259b0f9d6a"},"vehicle_type_id":"4","last_reported":1686675967,"current_range_meters":0,"station_id":"","pricing_plan_id":"free"},{"bike_id":"f82c4e0b-ce86-4de4-962b-f266d6ba506e","system_id":"levelo_inurba_marseille","lat":43.273125,"lon":5.390731,"is_reserved":false,"is_disabled":false,"rental_uris":{"android":"levelo://app?vid=f82c4e0b-ce86-4de4-962b-f266d6ba506e","ios":"levelo://app?vid=f82c4e0b-ce86-4de4-962b-f266d6ba506e"},"vehicle_type_id":"4","last_reported":1686675967,"current_range_meters":26400,"station_id":"ce4bhgp2rcd13ifvqfe0","pricing_plan_id":"free"},{"bike_id":"712a663d-9d8b-4e24-b283-6c1a4bc8ee54","system_id":"levelo_inurba_marseille","lat":43.304096,"lon":5.425385,"is_reserved":false,"is_disabled":false,"rental_uris":{"android":"levelo://app?vid=712a663d-9d8b-4e24-b283-6c1a4bc8ee54","ios":"levelo://app?vid=712a663d-9d8b-4e24-b283-6c1a4bc8ee54"},"vehicle_type_id":"4","last_reported":1686675967,"current_range_meters":19600,"station_id":"ce4bhoh2rcd13ifvqh6g","pricing_plan_id":"free"},{"bike_id":"00fe3741-2221-4c79-ac0f-81c0a3a02f34","system_id":"levelo_inurba_marseille","lat":43.295523,"lon":5.422926,"is_reserved":false,"is_disabled":false,"rental_uris":{"android":"levelo://app?vid=00fe3741-2221-4c79-ac0f-81c0a3a02f34","ios":"levelo://app?vid=00fe3741-2221-4c79-ac0f-81c0a3a02f34"},"vehicle_type_id":"4","last_reported":1686675967,"current_range_meters":25600,"station_id":"ce4bhph2rcd13ifvqhdg","pricing_plan_id":"free"},{"bike_id":"a48ace70-10d7-45e1-9916-526e9284513d","system_id":"levelo_inurba_marseille","lat":43.272118,"lon":5.391758,"is_reserved":false,"is_disabled":false,"rental_uris":{"android":"levelo://app?vid=a48ace70-10d7-45e1-9916-526e9284513d","ios":"levelo://app?vid=a48ace70-10d7-45e1-9916-526e9284513d"},"vehicle_type_id":"4","last_reported":1686675967,"current_range_meters":0,"station_id":"ce4bhhp2rcd13ifvqfm0","pricing_plan_id":"free"},{"bike_id":"4a618e50-84b6-40dd-b5d2-7188c61be156","system_id":"levelo_inurba_marseille","lat":43.278128,"lon":5.407195,"is_reserved":false,"is_disabled":false,"rental_uris":{"android":"levelo://app?vid=4a618e50-84b6-40dd-b5d2-7188c61be156","ios":"levelo://app?vid=4a618e50-84b6-40dd-b5d2-7188c61be156"},"vehicle_type_id":"4","last_reported":1686675967,"current_range_meters":15200,"station_id":"ce4bhnh2rcd13ifvqgtg","pricing_plan_id":"free"},{"bike_id":"9fb00c9d-0b33-4dab-87d6-7026cca0560a","system_id":"levelo_inurba_marseille","lat":43.278128,"lon":5.407195,"is_reserved":false,"is_disabled":false,"rental_uris":{"android":"levelo://app?vid=9fb00c9d-0b33-4dab-87d6-7026cca0560a","ios":"levelo://app?vid=9fb00c9d-0b33-4dab-87d6-7026cca0560a"},"vehicle_type_id":"4","last_reported":1686675967,"current_range_meters":28400,"station_id":"ce4bhnh2rcd13ifvqgtg","pricing_plan_id":"free"},{"bike_id":"6275aaca-a354-407f-be44-df40f2969d44","system_id":"levelo_inurba_marseille","lat":43.26685,"lon":5.38269,"is_reserved":false,"is_disabled":false,"rental_uris":{"android":"levelo://app?vid=6275aaca-a354-407f-be44-df40f2969d44","ios":"levelo://app?vid=6275aaca-a354-407f-be44-df40f2969d44"},"vehicle_type_id":"4","last_reported":1686675967,"current_range_meters":31200,"station_id":"ce4bhg92rcd13ifvqf90","pricing_plan_id":"free"},{"bike_id":"cfba2fbe-9ed5-423f-b411-8d6c38451715","system_id":"levelo_inurba_marseille","lat":43.26681,"lon":5.382694,"is_reserved":false,"is_disabled":false,"rental_uris":{"android":"levelo://app?vid=cfba2fbe-9ed5-423f-b411-8d6c38451715","ios":"levelo://app?vid=cfba2fbe-9ed5-423f-b411-8d6c38451715"},"vehicle_type_id":"4","last_reported":1686675967,"current_range_meters":31200,"station_id":"ce4bhg92rcd13ifvqf90","pricing_plan_id":"free"},{"bike_id":"dbd5b06d-c39e-4ea1-ab1f-b7dda85fd1b8","system_id":"levelo_inurba_marseille","lat":43.26681,"lon":5.382694,"is_reserved":false,"is_disabled":false,"rental_uris":{"android":"levelo://app?vid=dbd5b06d-c39e-4ea1-ab1f-b7dda85fd1b8","ios":"levelo://app?vid=dbd5b06d-c39e-4ea1-ab1f-b7dda85fd1b8"},"vehicle_type_id":"4","last_reported":1686675967,"current_range_meters":0,"station_id":"ce4bhg92rcd13ifvqf90","pricing_plan_id":"free"},{"bike_id":"c93dc4b3-0ea0-4a28-aa1e-3dafe84d8ce3","system_id":"levelo_inurba_marseille","lat":43.26681,"lon":5.382694,"is_reserved":false,"is_disabled":false,"rental_uris":{"android":"levelo://app?vid=c93dc4b3-0ea0-4a28-aa1e-3dafe84d8ce3","ios":"levelo://app?vid=c93dc4b3-0ea0-4a28-aa1e-3dafe84d8ce3"},"vehicle_type_id":"4","last_reported":1686675967,"current_range_meters":19600,"station_id":"ce4bhg92rcd13ifvqf90","pricing_plan_id":"free"},{"bike_id":"9a129c7f-beb5-4d42-95a2-6eca48744e6a","system_id":"levelo_inurba_marseille","lat":43.26793,"lon":5.39009,"is_reserved":false,"is_disabled":false,"rental_uris":{"android":"levelo://app?vid=9a129c7f-beb5-4d42-95a2-6eca48744e6a","ios":"levelo://app?vid=9a129c7f-beb5-4d42-95a2-6eca48744e6a"},"vehicle_type_id":"4","last_reported":1686675967,"current_range_meters":27600,"station_id":"","pricing_plan_id":"free"},{"bike_id":"4c694481-1fc0-4939-90dd-80bffad96f21","system_id":"levelo_inurba_marseille","lat":43.27996,"lon":5.416624,"is_reserved":false,"is_disabled":false,"rental_uris":{"android":"levelo://app?vid=4c694481-1fc0-4939-90dd-80bffad96f21","ios":"levelo://app?vid=4c694481-1fc0-4939-90dd-80bffad96f21"},"vehicle_type_id":"4","last_reported":1686675967,"current_range_meters":7600,"station_id":"ce4bho12rcd13ifvqh1g","pricing_plan_id":"free"},{"bike_id":"544ecff3-03f7-4a66-96d9-f82d214679cd","system_id":"levelo_inurba_marseille","lat":43.27996,"lon":5.416624,"is_reserved":false,"is_disabled":false,"rental_uris":{"android":"levelo://app?vid=544ecff3-03f7-4a66-96d9-f82d214679cd","ios":"levelo://app?vid=544ecff3-03f7-4a66-96d9-f82d214679cd"},"vehicle_type_id":"4","last_reported":1686675967,"current_range_meters":29600,"station_id":"ce4bho12rcd13ifvqh1g","pricing_plan_id":"free"},{"bike_id":"9fa38242-22b2-4e58-beeb-64728c7bb024","system_id":"levelo_inurba_marseille","lat":43.27996,"lon":5.416624,"is_reserved":false,"is_disabled":false,"rental_uris":{"android":"levelo://app?vid=9fa38242-22b2-4e58-beeb-64728c7bb024","ios":"levelo://app?vid=9fa38242-22b2-4e58-beeb-64728c7bb024"},"vehicle_type_id":"4","last_reported":1686675967,"current_range_meters":22800,"station_id":"ce4bho12rcd13ifvqh1g","pricing_plan_id":"free"},{"bike_id":"2ac9646c-6e08-4ba6-8c7d-0c000aeebdba","system_id":"levelo_inurba_marseille","lat":43.27996,"lon":5.416624,"is_reserved":false,"is_disabled":false,"rental_uris":{"android":"levelo://app?vid=2ac9646c-6e08-4ba6-8c7d-0c000aeebdba","ios":"levelo://app?vid=2ac9646c-6e08-4ba6-8c7d-0c000aeebdba"},"vehicle_type_id":"4","last_reported":1686675967,"current_range_meters":13200,"station_id":"ce4bho12rcd13ifvqh1g","pricing_plan_id":"free"},{"bike_id":"1c27f7c8-2b3c-4f27-8c90-574d932e95c1","system_id":"levelo_inurba_marseille","lat":43.267966,"lon":5.393976,"is_reserved":false,"is_disabled":false,"rental_uris":{"android":"levelo://app?vid=1c27f7c8-2b3c-4f27-8c90-574d932e95c1","ios":"levelo://app?vid=1c27f7c8-2b3c-4f27-8c90-574d932e95c1"},"vehicle_type_id":"4","last_reported":1686675967,"current_range_meters":15600,"station_id":"ce4bhh12rcd13ifvqfg0","pricing_plan_id":"free"},{"bike_id":"b449d63f-e9e1-44d2-9da8-33448ae88f65","system_id":"levelo_inurba_marseille","lat":43.26783,"lon":5.3941,"is_reserved":false,"is_disabled":false,"rental_uris":{"android":"levelo://app?vid=b449d63f-e9e1-44d2-9da8-33448ae88f65","ios":"levelo://app?vid=b449d63f-e9e1-44d2-9da8-33448ae88f65"},"vehicle_type_id":"4","last_reported":1686675967,"current_range_meters":400,"station_id":"ce4bhh12rcd13ifvqfg0","pricing_plan_id":"free"},{"bike_id":"020964d2-3527-461a-8bfa-2f062c12bd03","system_id":"levelo_inurba_marseille","lat":43.267966,"lon":5.393976,"is_reserved":false,"is_disabled":false,"rental_uris":{"android":"levelo://app?vid=020964d2-3527-461a-8bfa-2f062c12bd03","ios":"levelo://app?vid=020964d2-3527-461a-8bfa-2f062c12bd03"},"vehicle_type_id":"4","last_reported":1686675967,"current_range_meters":10000,"station_id":"ce4bhh12rcd13ifvqfg0","pricing_plan_id":"free"},{"bike_id":"acaa0056-1fca-4079-9790-91524ac9d8f9","system_id":"levelo_inurba_marseille","lat":43.267966,"lon":5.393976,"is_reserved":false,"is_disabled":false,"rental_uris":{"android":"levelo://app?vid=acaa0056-1fca-4079-9790-91524ac9d8f9","ios":"levelo://app?vid=acaa0056-1fca-4079-9790-91524ac9d8f9"},"vehicle_type_id":"4","last_reported":1686675967,"current_range_meters":400,"station_id":"ce4bhh12rcd13ifvqfg0","pricing_plan_id":"free"},{"bike_id":"3987290e-fd4b-4f2b-81c0-57fca98f9cde","system_id":"levelo_inurba_marseille","lat":43.267966,"lon":5.393976,"is_reserved":false,"is_disabled":false,"rental_uris":{"android":"levelo://app?vid=3987290e-fd4b-4f2b-81c0-57fca98f9cde","ios":"levelo://app?vid=3987290e-fd4b-4f2b-81c0-57fca98f9cde"},"vehicle_type_id":"4","last_reported":1686675967,"current_range_meters":29600,"station_id":"ce4bhh12rcd13ifvqfg0","pricing_plan_id":"free"},{"bike_id":"1b996804-f7a8-4157-a8c3-416f8c6313c5","system_id":"levelo_inurba_marseille","lat":43.30801,"lon":5.43529,"is_reserved":false,"is_disabled":false,"rental_uris":{"android":"levelo://app?vid=1b996804-f7a8-4157-a8c3-416f8c6313c5","ios":"levelo://app?vid=1b996804-f7a8-4157-a8c3-416f8c6313c5"},"vehicle_type_id":"4","last_reported":1686675967,"current_range_meters":5200,"station_id":"","pricing_plan_id":"free"},{"bike_id":"b1b6bc0a-3c09-44e0-9f6d-357d4bfa3d8d","system_id":"levelo_inurba_marseille","lat":43.28045,"lon":5.42117,"is_reserved":false,"is_disabled":false,"rental_uris":{"android":"levelo://app?vid=b1b6bc0a-3c09-44e0-9f6d-357d4bfa3d8d","ios":"levelo://app?vid=b1b6bc0a-3c09-44e0-9f6d-357d4bfa3d8d"},"vehicle_type_id":"4","last_reported":1686675967,"current_range_meters":16400,"station_id":"","pricing_plan_id":"free"},{"bike_id":"6454d3e3-8e72-45d5-ab77-8ac24ec64ff5","system_id":"levelo_inurba_marseille","lat":43.261782,"lon":5.374515,"is_reserved":false,"is_disabled":false,"rental_uris":{"android":"levelo://app?vid=6454d3e3-8e72-45d5-ab77-8ac24ec64ff5","ios":"levelo://app?vid=6454d3e3-8e72-45d5-ab77-8ac24ec64ff5"},"vehicle_type_id":"4","last_reported":1686675967,"current_range_meters":31200,"station_id":"ce4bhgp2rcd13ifvqfc0","pricing_plan_id":"free"},{"bike_id":"2f583540-78a5-4b54-863b-09b180f3cdac","system_id":"levelo_inurba_marseille","lat":43.31713,"lon":5.43704,"is_reserved":false,"is_disabled":false,"rental_uris":{"android":"levelo://app?vid=2f583540-78a5-4b54-863b-09b180f3cdac","ios":"levelo://app?vid=2f583540-78a5-4b54-863b-09b180f3cdac"},"vehicle_type_id":"4","last_reported":1686675967,"current_range_meters":18000,"station_id":"ce4bhp92rcd13ifvqhcg","pricing_plan_id":"free"},{"bike_id":"54898245-53c7-4e00-a696-a427e941bfd8","system_id":"levelo_inurba_marseille","lat":43.31716,"lon":5.43704,"is_reserved":false,"is_disabled":false,"rental_uris":{"android":"levelo://app?vid=54898245-53c7-4e00-a696-a427e941bfd8","ios":"levelo://app?vid=54898245-53c7-4e00-a696-a427e941bfd8"},"vehicle_type_id":"4","last_reported":1686675967,"current_range_meters":16000,"station_id":"ce4bhp92rcd13ifvqhcg","pricing_plan_id":"free"},{"bike_id":"0156680e-f08f-4bbd-bdab-d42a7e1185a9","system_id":"levelo_inurba_marseille","lat":43.31712,"lon":5.43709,"is_reserved":false,"is_disabled":false,"rental_uris":{"android":"levelo://app?vid=0156680e-f08f-4bbd-bdab-d42a7e1185a9","ios":"levelo://app?vid=0156680e-f08f-4bbd-bdab-d42a7e1185a9"},"vehicle_type_id":"4","last_reported":1686675967,"current_range_meters":4400,"station_id":"ce4bhp92rcd13ifvqhcg","pricing_plan_id":"free"},{"bike_id":"048f9987-6f86-4b22-bfe7-e39f6d178aea","system_id":"levelo_inurba_marseille","lat":43.31718,"lon":5.43709,"is_reserved":false,"is_disabled":false,"rental_uris":{"android":"levelo://app?vid=048f9987-6f86-4b22-bfe7-e39f6d178aea","ios":"levelo://app?vid=048f9987-6f86-4b22-bfe7-e39f6d178aea"},"vehicle_type_id":"4","last_reported":1686675967,"current_range_meters":2800,"station_id":"ce4bhp92rcd13ifvqhcg","pricing_plan_id":"free"},{"bike_id":"d22a8864-2146-4129-a239-f4923d18a83b","system_id":"levelo_inurba_marseille","lat":43.27323,"lon":5.41207,"is_reserved":false,"is_disabled":false,"rental_uris":{"android":"levelo://app?vid=d22a8864-2146-4129-a239-f4923d18a83b","ios":"levelo://app?vid=d22a8864-2146-4129-a239-f4923d18a83b"},"vehicle_type_id":"4","last_reported":1686675967,"current_range_meters":14000,"station_id":"","pricing_plan_id":"free"},{"bike_id":"e02043cc-4147-4f37-b05c-782b4c0d4973","system_id":"levelo_inurba_marseille","lat":43.262012,"lon":5.379307,"is_reserved":false,"is_disabled":false,"rental_uris":{"android":"levelo://app?vid=e02043cc-4147-4f37-b05c-782b4c0d4973","ios":"levelo://app?vid=e02043cc-4147-4f37-b05c-782b4c0d4973"},"vehicle_type_id":"4","last_reported":1686675967,"current_range_meters":25600,"station_id":"ce4bhjp2rcd13ifvqg90","pricing_plan_id":"free"},{"bike_id":"7ce96ff6-920c-4e17-9d82-a1aae6b1d988","system_id":"levelo_inurba_marseille","lat":43.27176,"lon":5.40996,"is_reserved":false,"is_disabled":false,"rental_uris":{"android":"levelo://app?vid=7ce96ff6-920c-4e17-9d82-a1aae6b1d988","ios":"levelo://app?vid=7ce96ff6-920c-4e17-9d82-a1aae6b1d988"},"vehicle_type_id":"4","last_reported":1686675967,"current_range_meters":19200,"station_id":"","pricing_plan_id":"free"},{"bike_id":"6b6f0830-6b94-4ddf-aca6-cce6530e3a3f","system_id":"levelo_inurba_marseille","lat":43.262012,"lon":5.379307,"is_reserved":false,"is_disabled":false,"rental_uris":{"android":"levelo://app?vid=6b6f0830-6b94-4ddf-aca6-cce6530e3a3f","ios":"levelo://app?vid=6b6f0830-6b94-4ddf-aca6-cce6530e3a3f"},"vehicle_type_id":"4","last_reported":1686675967,"current_range_meters":0,"station_id":"ce4bhjp2rcd13ifvqg90","pricing_plan_id":"free"},{"bike_id":"3933affc-2f8a-44cf-88e5-c8a87181ee6b","system_id":"levelo_inurba_marseille","lat":43.271368,"lon":5.40928,"is_reserved":false,"is_disabled":false,"rental_uris":{"android":"levelo://app?vid=3933affc-2f8a-44cf-88e5-c8a87181ee6b","ios":"levelo://app?vid=3933affc-2f8a-44cf-88e5-c8a87181ee6b"},"vehicle_type_id":"4","last_reported":1686675967,"current_range_meters":9600,"station_id":"ce4bhl12rcd13ifvqgf0","pricing_plan_id":"free"},{"bike_id":"b6da24d3-dbfb-462f-901a-bcc3c8b5f860","system_id":"levelo_inurba_marseille","lat":43.271368,"lon":5.40928,"is_reserved":false,"is_disabled":false,"rental_uris":{"android":"levelo://app?vid=b6da24d3-dbfb-462f-901a-bcc3c8b5f860","ios":"levelo://app?vid=b6da24d3-dbfb-462f-901a-bcc3c8b5f860"},"vehicle_type_id":"4","last_reported":1686675967,"current_range_meters":21600,"station_id":"ce4bhl12rcd13ifvqgf0","pricing_plan_id":"free"},{"bike_id":"b6e4eabc-4eed-493e-95a8-d5e167278969","system_id":"levelo_inurba_marseille","lat":43.271368,"lon":5.40928,"is_reserved":false,"is_disabled":false,"rental_uris":{"android":"levelo://app?vid=b6e4eabc-4eed-493e-95a8-d5e167278969","ios":"levelo://app?vid=b6e4eabc-4eed-493e-95a8-d5e167278969"},"vehicle_type_id":"4","last_reported":1686675967,"current_range_meters":31200,"station_id":"ce4bhl12rcd13ifvqgf0","pricing_plan_id":"free"},{"bike_id":"83feb69d-e216-46c2-be59-04e6b160042f","system_id":"levelo_inurba_marseille","lat":43.267959,"lon":5.402685,"is_reserved":false,"is_disabled":false,"rental_uris":{"android":"levelo://app?vid=83feb69d-e216-46c2-be59-04e6b160042f","ios":"levelo://app?vid=83feb69d-e216-46c2-be59-04e6b160042f"},"vehicle_type_id":"4","last_reported":1686675967,"current_range_meters":21600,"station_id":"ce501612rcd8frsf0b60","pricing_plan_id":"free"},{"bike_id":"c213bb75-321a-4c94-bc5e-f18a23639f8c","system_id":"levelo_inurba_marseille","lat":43.267959,"lon":5.402685,"is_reserved":false,"is_disabled":false,"rental_uris":{"android":"levelo://app?vid=c213bb75-321a-4c94-bc5e-f18a23639f8c","ios":"levelo://app?vid=c213bb75-321a-4c94-bc5e-f18a23639f8c"},"vehicle_type_id":"4","last_reported":1686675967,"current_range_meters":11600,"station_id":"ce501612rcd8frsf0b60","pricing_plan_id":"free"},{"bike_id":"2c7c82a4-ef22-46a7-9324-79fe36125f7a","system_id":"levelo_inurba_marseille","lat":43.298768,"lon":5.43643,"is_reserved":false,"is_disabled":false,"rental_uris":{"android":"levelo://app?vid=2c7c82a4-ef22-46a7-9324-79fe36125f7a","ios":"levelo://app?vid=2c7c82a4-ef22-46a7-9324-79fe36125f7a"},"vehicle_type_id":"4","last_reported":1686675967,"current_range_meters":28400,"station_id":"ce4bhpp2rcd13ifvqhfg","pricing_plan_id":"free"},{"bike_id":"c52676a4-9cea-432a-80b9-c4d1de789255","system_id":"levelo_inurba_marseille","lat":43.298768,"lon":5.43643,"is_reserved":false,"is_disabled":false,"rental_uris":{"android":"levelo://app?vid=c52676a4-9cea-432a-80b9-c4d1de789255","ios":"levelo://app?vid=c52676a4-9cea-432a-80b9-c4d1de789255"},"vehicle_type_id":"4","last_reported":1686675967,"current_range_meters":28400,"station_id":"ce4bhpp2rcd13ifvqhfg","pricing_plan_id":"free"},{"bike_id":"d38cfd9d-9ac9-4b28-9833-ff66219dfeb3","system_id":"levelo_inurba_marseille","lat":43.2607,"lon":5.393983,"is_reserved":false,"is_disabled":false,"rental_uris":{"android":"levelo://app?vid=d38cfd9d-9ac9-4b28-9833-ff66219dfeb3","ios":"levelo://app?vid=d38cfd9d-9ac9-4b28-9833-ff66219dfeb3"},"vehicle_type_id":"4","last_reported":1686675967,"current_range_meters":2400,"station_id":"ce4bhh92rcd13ifvqfj0","pricing_plan_id":"free"},{"bike_id":"4d107f13-a5c8-4025-a64c-5e919e2849a7","system_id":"levelo_inurba_marseille","lat":43.2607,"lon":5.393983,"is_reserved":false,"is_disabled":false,"rental_uris":{"android":"levelo://app?vid=4d107f13-a5c8-4025-a64c-5e919e2849a7","ios":"levelo://app?vid=4d107f13-a5c8-4025-a64c-5e919e2849a7"},"vehicle_type_id":"4","last_reported":1686675967,"current_range_meters":16800,"station_id":"ce4bhh92rcd13ifvqfj0","pricing_plan_id":"free"},{"bike_id":"0aecb3e0-e8e5-47a0-8a64-10abc30ac92b","system_id":"levelo_inurba_marseille","lat":43.2607,"lon":5.393983,"is_reserved":false,"is_disabled":false,"rental_uris":{"android":"levelo://app?vid=0aecb3e0-e8e5-47a0-8a64-10abc30ac92b","ios":"levelo://app?vid=0aecb3e0-e8e5-47a0-8a64-10abc30ac92b"},"vehicle_type_id":"4","last_reported":1686675967,"current_range_meters":3600,"station_id":"ce4bhh92rcd13ifvqfj0","pricing_plan_id":"free"},{"bike_id":"94466b18-7715-45ee-a179-9a3b0797487b","system_id":"levelo_inurba_marseille","lat":43.26824,"lon":5.41363,"is_reserved":false,"is_disabled":false,"rental_uris":{"android":"levelo://app?vid=94466b18-7715-45ee-a179-9a3b0797487b","ios":"levelo://app?vid=94466b18-7715-45ee-a179-9a3b0797487b"},