{"last_updated":1738660148,"ttl":60,"version":"2.2","data":{"bikes":[{"bike_id":"a6accd57-54cf-4d44-87f9-766d1013e2f7","system_id":"levelo_inurba_marseille","lat":43.25999,"lon":5.37569,"is_reserved":false,"is_disabled":false,"rental_uris":{"android":"levelo://app?vid=a6accd57-54cf-4d44-87f9-766d1013e2f7","ios":"levelo://app?vid=a6accd57-54cf-4d44-87f9-766d1013e2f7"},"vehicle_type_id":"4","last_reported":1738660148,"current_range_meters":36800,"station_id":"ce4bhgh2rcd13ifvqfa0","pricing_plan_id":"cebpf4jnsgd1na2vs0mg"},{"bike_id":"3dd6c08f-719a-43b7-9e16-fa033ab26402","system_id":"levelo_inurba_marseille","lat":43.30159,"lon":5.38083,"is_reserved":false,"is_disabled":true,"rental_uris":{"android":"levelo://app?vid=3dd6c08f-719a-43b7-9e16-fa033ab26402","ios":"levelo://app?vid=3dd6c08f-719a-43b7-9e16-fa033ab26402"},"vehicle_type_id":"4","last_reported":1738660148,"current_range_meters":21600,"station_id":"ce4bgjp2rcd13ifvqbh0","pricing_plan_id":"cebpf4jnsgd1na2vs0mg"},{"bike_id":"39f3158f-eccf-4248-be0e-27e17087573e","system_id":"levelo_inurba_marseille","lat":43.3046,"lon":5.37901,"is_reserved":false,"is_disabled":false,"rental_uris":{"android":"levelo://app?vid=39f3158f-eccf-4248-be0e-27e17087573e","ios":"levelo://app?vid=39f3158f-eccf-4248-be0e-27e17087573e"},"vehicle_type_id":"4","last_reported":1738660148,"current_range_meters":26000,"station_id":"ce4bgup2rcd13ifvqcn0","pricing_plan_id":"cebpf4jnsgd1na2vs0mg"},{"bike_id":"176cb06f-f5e2-40ce-a5f0-b94c8af2011d","system_id":"levelo_inurba_marseille","lat":43.30901,"lon":5.36862,"is_reserved":false,"is_disabled":false,"rental_uris":{"android":"levelo://app?vid=176cb06f-f5e2-40ce-a5f0-b94c8af2011d","ios":"levelo://app?vid=176cb06f-f5e2-40ce-a5f0-b94c8af2011d"},"vehicle_type_id":"4","last_reported":1738660148,"current_range_meters":26800,"station_id":"ce4bgn92rcd13ifvqbvg","pricing_plan_id":"cebpf4jnsgd1na2vs0mg"},{"bike_id":"64594683-6f86-4a5c-9e34-47a05b42ae02","system_id":"levelo_inurba_marseille","lat":43.30904,"lon":5.36849,"is_reserved":false,"is_disabled":false,"rental_uris":{"android":"levelo://app?vid=64594683-6f86-4a5c-9e34-47a05b42ae02","ios":"levelo://app?vid=64594683-6f86-4a5c-9e34-47a05b42ae02"},"vehicle_type_id":"4","last_reported":1738660148,"current_range_meters":24400,"station_id":"ce4bgn92rcd13ifvqbvg","pricing_plan_id":"cebpf4jnsgd1na2vs0mg"},{"bike_id":"cd2f54e6-1316-4441-b465-0b39fcf50cc5","system_id":"levelo_inurba_marseille","lat":43.30463,"lon":5.37916,"is_reserved":false,"is_disabled":false,"rental_uris":{"android":"levelo://app?vid=cd2f54e6-1316-4441-b465-0b39fcf50cc5","ios":"levelo://app?vid=cd2f54e6-1316-4441-b465-0b39fcf50cc5"},"vehicle_type_id":"4","last_reported":1738660148,"current_range_meters":32400,"station_id":"ce4bgup2rcd13ifvqcn0","pricing_plan_id":"cebpf4jnsgd1na2vs0mg"},{"bike_id":"878aa16d-c15f-4ee8-bdbd-dd74bcfe9106","system_id":"levelo_inurba_marseille","lat":43.31351,"lon":5.38501,"is_reserved":false,"is_disabled":false,"rental_uris":{"android":"levelo://app?vid=878aa16d-c15f-4ee8-bdbd-dd74bcfe9106","ios":"levelo://app?vid=878aa16d-c15f-4ee8-bdbd-dd74bcfe9106"},"vehicle_type_id":"4","last_reported":1738660148,"current_range_meters":8400,"station_id":"ce4bgt92rcd13ifvqcf0","pricing_plan_id":"cebpf4jnsgd1na2vs0mg"},{"bike_id":"218cf88c-674f-46a7-9455-3b01fdb97c07","system_id":"levelo_inurba_marseille","lat":43.23149,"lon":5.43717,"is_reserved":false,"is_disabled":false,"rental_uris":{"android":"levelo://app?vid=218cf88c-674f-46a7-9455-3b01fdb97c07","ios":"levelo://app?vid=218cf88c-674f-46a7-9455-3b01fdb97c07"},"vehicle_type_id":"4","last_reported":1738660148,"current_range_meters":2800,"station_id":"ce4bhmp2rcd13ifvqgog","pricing_plan_id":"cebpf4jnsgd1na2vs0mg"},{"bike_id":"03e56226-a4a2-447a-b0ef-d77b2ac074e2","system_id":"levelo_inurba_marseille","lat":43.24078,"lon":5.37756,"is_reserved":false,"is_disabled":false,"rental_uris":{"android":"levelo://app?vid=03e56226-a4a2-447a-b0ef-d77b2ac074e2","ios":"levelo://app?vid=03e56226-a4a2-447a-b0ef-d77b2ac074e2"},"vehicle_type_id":"4","last_reported":1738660148,"current_range_meters":24800,"station_id":"ce4bhnp2rcd13ifvqgvg","pricing_plan_id":"cebpf4jnsgd1na2vs0mg"},{"bike_id":"34189982-6632-44fa-a854-62f98624a855","system_id":"levelo_inurba_marseille","lat":43.29277,"lon":5.36847,"is_reserved":false,"is_disabled":false,"rental_uris":{"android":"levelo://app?vid=34189982-6632-44fa-a854-62f98624a855","ios":"levelo://app?vid=34189982-6632-44fa-a854-62f98624a855"},"vehicle_type_id":"4","last_reported":1738660148,"current_range_meters":30000,"station_id":"ce4bhbp2rcd13ifvqesg","pricing_plan_id":"cebpf4jnsgd1na2vs0mg"},{"bike_id":"b228fcd1-0432-4c37-8737-3e17f7fe8089","system_id":"levelo_inurba_marseille","lat":43.29225,"lon":5.36074,"is_reserved":false,"is_disabled":false,"rental_uris":{"android":"levelo://app?vid=b228fcd1-0432-4c37-8737-3e17f7fe8089","ios":"levelo://app?vid=b228fcd1-0432-4c37-8737-3e17f7fe8089"},"vehicle_type_id":"4","last_reported":1738660148,"current_range_meters":16400,"station_id":"ce4bhbh2rcd13ifvqeqg","pricing_plan_id":"cebpf4jnsgd1na2vs0mg"},{"bike_id":"db90e030-6fe7-4a19-9bb1-0175ffc7c8b8","system_id":"levelo_inurba_marseille","lat":43.30466,"lon":5.37898,"is_reserved":false,"is_disabled":true,"rental_uris":{"android":"levelo://app?vid=db90e030-6fe7-4a19-9bb1-0175ffc7c8b8","ios":"levelo://app?vid=db90e030-6fe7-4a19-9bb1-0175ffc7c8b8"},"vehicle_type_id":"4","last_reported":1738660148,"current_range_meters":25200,"station_id":"ce4bgup2rcd13ifvqcn0","pricing_plan_id":"cebpf4jnsgd1na2vs0mg"},{"bike_id":"c83fec32-dcf8-45bb-9c13-a99bd785b12a","system_id":"levelo_inurba_marseille","lat":43.24066,"lon":5.37776,"is_reserved":false,"is_disabled":false,"rental_uris":{"android":"levelo://app?vid=c83fec32-dcf8-45bb-9c13-a99bd785b12a","ios":"levelo://app?vid=c83fec32-dcf8-45bb-9c13-a99bd785b12a"},"vehicle_type_id":"4","last_reported":1738660148,"current_range_meters":14800,"station_id":"ce4bhnp2rcd13ifvqgvg","pricing_plan_id":"cebpf4jnsgd1na2vs0mg"},{"bike_id":"c76c22af-cdc0-4ea2-a606-9fdbf3a2d2bd","system_id":"levelo_inurba_marseille","lat":43.30294,"lon":5.36886,"is_reserved":false,"is_disabled":false,"rental_uris":{"android":"levelo://app?vid=c76c22af-cdc0-4ea2-a606-9fdbf3a2d2bd","ios":"levelo://app?vid=c76c22af-cdc0-4ea2-a606-9fdbf3a2d2bd"},"vehicle_type_id":"4","last_reported":1738660148,"current_range_meters":34800,"station_id":"ce4bgqh2rcd13ifvqc5g","pricing_plan_id":"cebpf4jnsgd1na2vs0mg"},{"bike_id":"81fc2b49-7d41-4bc4-9c6c-fc4ded896c4f","system_id":"levelo_inurba_marseille","lat":43.299216,"lon":5.374561,"is_reserved":false,"is_disabled":true,"rental_uris":{"android":"levelo://app?vid=81fc2b49-7d41-4bc4-9c6c-fc4ded896c4f","ios":"levelo://app?vid=81fc2b49-7d41-4bc4-9c6c-fc4ded896c4f"},"vehicle_type_id":"4","last_reported":1738660148,"current_range_meters":33600,"station_id":"ce4bgjh2rcd13ifvqbg0","pricing_plan_id":"cebpf4jnsgd1na2vs0mg"},{"bike_id":"b2f5ad0b-e859-4a5a-afe6-19f2444b14ba","system_id":"levelo_inurba_marseille","lat":43.3199,"lon":5.38143,"is_reserved":false,"is_disabled":false,"rental_uris":{"android":"levelo://app?vid=b2f5ad0b-e859-4a5a-afe6-19f2444b14ba","ios":"levelo://app?vid=b2f5ad0b-e859-4a5a-afe6-19f2444b14ba"},"vehicle_type_id":"4","last_reported":1738660148,"current_range_meters":37600,"station_id":"ce4bhr12rcd13ifvqhpg","pricing_plan_id":"cebpf4jnsgd1na2vs0mg"},{"bike_id":"f670e577-d2e0-4476-9e77-01baed11281c","system_id":"levelo_inurba_marseille","lat":43.26785,"lon":5.39425,"is_reserved":false,"is_disabled":false,"rental_uris":{"android":"levelo://app?vid=f670e577-d2e0-4476-9e77-01baed11281c","ios":"levelo://app?vid=f670e577-d2e0-4476-9e77-01baed11281c"},"vehicle_type_id":"4","last_reported":1738660148,"current_range_meters":38000,"station_id":"ce4bhh12rcd13ifvqfg0","pricing_plan_id":"cebpf4jnsgd1na2vs0mg"},{"bike_id":"c835a4f7-cc05-45bd-a5f6-1bed625cc89d","system_id":"levelo_inurba_marseille","lat":43.24077,"lon":5.37754,"is_reserved":false,"is_disabled":false,"rental_uris":{"android":"levelo://app?vid=c835a4f7-cc05-45bd-a5f6-1bed625cc89d","ios":"levelo://app?vid=c835a4f7-cc05-45bd-a5f6-1bed625cc89d"},"vehicle_type_id":"4","last_reported":1738660148,"current_range_meters":7200,"station_id":"ce4bhnp2rcd13ifvqgvg","pricing_plan_id":"cebpf4jnsgd1na2vs0mg"},{"bike_id":"07b737d1-78fa-4e32-b729-7baf9f3c2d7a","system_id":"levelo_inurba_marseille","lat":43.28706,"lon":5.37949,"is_reserved":false,"is_disabled":false,"rental_uris":{"android":"levelo://app?vid=07b737d1-78fa-4e32-b729-7baf9f3c2d7a","ios":"levelo://app?vid=07b737d1-78fa-4e32-b729-7baf9f3c2d7a"},"vehicle_type_id":"4","last_reported":1738660148,"current_range_meters":9600,"station_id":"ce4bh9p2rcd13ifvqec0","pricing_plan_id":"cebpf4jnsgd1na2vs0mg"},{"bike_id":"e2130e0f-8b32-4adf-ad94-1289f742c741","system_id":"levelo_inurba_marseille","lat":43.30932,"lon":5.40155,"is_reserved":false,"is_disabled":false,"rental_uris":{"android":"levelo://app?vid=e2130e0f-8b32-4adf-ad94-1289f742c741","ios":"levelo://app?vid=e2130e0f-8b32-4adf-ad94-1289f742c741"},"vehicle_type_id":"4","last_reported":1738660148,"current_range_meters":38800,"station_id":"ce4bgvp2rcd13ifvqct0","pricing_plan_id":"cebpf4jnsgd1na2vs0mg"},{"bike_id":"c5bc887f-937a-4827-8fcd-0e5d0dcc3dcb","system_id":"levelo_inurba_marseille","lat":43.30548,"lon":5.36512,"is_reserved":false,"is_disabled":false,"rental_uris":{"android":"levelo://app?vid=c5bc887f-937a-4827-8fcd-0e5d0dcc3dcb","ios":"levelo://app?vid=c5bc887f-937a-4827-8fcd-0e5d0dcc3dcb"},"vehicle_type_id":"4","last_reported":1738660148,"current_range_meters":35200,"station_id":"ce4bgs12rcd13ifvqcag","pricing_plan_id":"cebpf4jnsgd1na2vs0mg"},{"bike_id":"1f1a2b54-e794-4f98-9a8a-e7896c67bcf7","system_id":"levelo_inurba_marseille","lat":43.24179,"lon":5.39719,"is_reserved":false,"is_disabled":false,"rental_uris":{"android":"levelo://app?vid=1f1a2b54-e794-4f98-9a8a-e7896c67bcf7","ios":"levelo://app?vid=1f1a2b54-e794-4f98-9a8a-e7896c67bcf7"},"vehicle_type_id":"4","last_reported":1738660148,"current_range_meters":36400,"station_id":"ce4bhn12rcd13ifvqgpg","pricing_plan_id":"cebpf4jnsgd1na2vs0mg"},{"bike_id":"820e8ef9-125b-498e-aafa-fafccb5e57f1","system_id":"levelo_inurba_marseille","lat":43.30539,"lon":5.36709,"is_reserved":false,"is_disabled":false,"rental_uris":{"android":"levelo://app?vid=820e8ef9-125b-498e-aafa-fafccb5e57f1","ios":"levelo://app?vid=820e8ef9-125b-498e-aafa-fafccb5e57f1"},"vehicle_type_id":"4","last_reported":1738660148,"current_range_meters":25600,"station_id":"ce4bgrp2rcd13ifvqc9g","pricing_plan_id":"cebpf4jnsgd1na2vs0mg"},{"bike_id":"e534ed31-6c84-40bd-908a-616c7918b43b","system_id":"levelo_inurba_marseille","lat":43.30947,"lon":5.3905,"is_reserved":false,"is_disabled":false,"rental_uris":{"android":"levelo://app?vid=e534ed31-6c84-40bd-908a-616c7918b43b","ios":"levelo://app?vid=e534ed31-6c84-40bd-908a-616c7918b43b"},"vehicle_type_id":"4","last_reported":1738660148,"current_range_meters":8000,"station_id":"ce4bgup2rcd13ifvqco0","pricing_plan_id":"cebpf4jnsgd1na2vs0mg"},{"bike_id":"7e953663-785f-4ca5-b64b-6c0ab0420a03","system_id":"levelo_inurba_marseille","lat":43.2751,"lon":5.42462,"is_reserved":false,"is_disabled":false,"rental_uris":{"android":"levelo://app?vid=7e953663-785f-4ca5-b64b-6c0ab0420a03","ios":"levelo://app?vid=7e953663-785f-4ca5-b64b-6c0ab0420a03"},"vehicle_type_id":"4","last_reported":1738660148,"current_range_meters":31200,"station_id":"ce4bhn92rcd13ifvqgrg","pricing_plan_id":"cebpf4jnsgd1na2vs0mg"},{"bike_id":"c92d27b3-011a-4b9b-85d3-c7a68cdf0054","system_id":"levelo_inurba_marseille","lat":43.324777,"lon":5.365669,"is_reserved":false,"is_disabled":true,"rental_uris":{"android":"levelo://app?vid=c92d27b3-011a-4b9b-85d3-c7a68cdf0054","ios":"levelo://app?vid=c92d27b3-011a-4b9b-85d3-c7a68cdf0054"},"vehicle_type_id":"4","last_reported":1738660148,"current_range_meters":17600,"station_id":"","pricing_plan_id":"cebpf4jnsgd1na2vs0mg"},{"bike_id":"3e574816-3754-460d-8072-f6ebe3757ea0","system_id":"levelo_inurba_marseille","lat":43.32365,"lon":5.367754,"is_reserved":false,"is_disabled":false,"rental_uris":{"android":"levelo://app?vid=3e574816-3754-460d-8072-f6ebe3757ea0","ios":"levelo://app?vid=3e574816-3754-460d-8072-f6ebe3757ea0"},"vehicle_type_id":"4","last_reported":1738660148,"current_range_meters":18000,"station_id":"ce4bhsh2rcd13ifvqi2g","pricing_plan_id":"cebpf4jnsgd1na2vs0mg"},{"bike_id":"c2713548-3811-4ac0-ba42-9180d830f676","system_id":"levelo_inurba_marseille","lat":43.30299,"lon":5.36908,"is_reserved":false,"is_disabled":false,"rental_uris":{"android":"levelo://app?vid=c2713548-3811-4ac0-ba42-9180d830f676","ios":"levelo://app?vid=c2713548-3811-4ac0-ba42-9180d830f676"},"vehicle_type_id":"4","last_reported":1738660148,"current_range_meters":27600,"station_id":"ce4bgqh2rcd13ifvqc5g","pricing_plan_id":"cebpf4jnsgd1na2vs0mg"},{"bike_id":"894a5eac-5e63-4046-9700-4ea00802ee12","system_id":"levelo_inurba_marseille","lat":43.28477,"lon":5.38431,"is_reserved":false,"is_disabled":false,"rental_uris":{"android":"levelo://app?vid=894a5eac-5e63-4046-9700-4ea00802ee12","ios":"levelo://app?vid=894a5eac-5e63-4046-9700-4ea00802ee12"},"vehicle_type_id":"4","last_reported":1738660148,"current_range_meters":14800,"station_id":"ce4bh512rcd13ifvqe3g","pricing_plan_id":"cebpf4jnsgd1na2vs0mg"},{"bike_id":"a1a7079b-68b5-45ca-9af8-b6bc9f7cd559","system_id":"levelo_inurba_marseille","lat":43.2293,"lon":5.35381,"is_reserved":false,"is_disabled":false,"rental_uris":{"android":"levelo://app?vid=a1a7079b-68b5-45ca-9af8-b6bc9f7cd559","ios":"levelo://app?vid=a1a7079b-68b5-45ca-9af8-b6bc9f7cd559"},"vehicle_type_id":"4","last_reported":1738660148,"current_range_meters":38800,"station_id":"cpo3532slgdg3j2ikp40","pricing_plan_id":"cebpf4jnsgd1na2vs0mg"},{"bike_id":"391156ab-23e6-4087-9fff-4d00554806c8","system_id":"levelo_inurba_marseille","lat":43.27539,"lon":5.38477,"is_reserved":false,"is_disabled":false,"rental_uris":{"android":"levelo://app?vid=391156ab-23e6-4087-9fff-4d00554806c8","ios":"levelo://app?vid=391156ab-23e6-4087-9fff-4d00554806c8"},"vehicle_type_id":"4","last_reported":1738660148,"current_range_meters":33600,"station_id":"ce4bhh92rcd13ifvqfi0","pricing_plan_id":"cebpf4jnsgd1na2vs0mg"},{"bike_id":"c5d244f0-0f80-49dd-80ea-357f59117f57","system_id":"levelo_inurba_marseille","lat":43.30537,"lon":5.36715,"is_reserved":false,"is_disabled":false,"rental_uris":{"android":"levelo://app?vid=c5d244f0-0f80-49dd-80ea-357f59117f57","ios":"levelo://app?vid=c5d244f0-0f80-49dd-80ea-357f59117f57"},"vehicle_type_id":"4","last_reported":1738660148,"current_range_meters":6000,"station_id":"ce4bgrp2rcd13ifvqc9g","pricing_plan_id":"cebpf4jnsgd1na2vs0mg"},{"bike_id":"7a2d1c7c-697f-41e7-9a56-3b4fb1b139f2","system_id":"levelo_inurba_marseille","lat":43.23152,"lon":5.43717,"is_reserved":false,"is_disabled":false,"rental_uris":{"android":"levelo://app?vid=7a2d1c7c-697f-41e7-9a56-3b4fb1b139f2","ios":"levelo://app?vid=7a2d1c7c-697f-41e7-9a56-3b4fb1b139f2"},"vehicle_type_id":"4","last_reported":1738660148,"current_range_meters":8800,"station_id":"ce4bhmp2rcd13ifvqgog","pricing_plan_id":"cebpf4jnsgd1na2vs0mg"},{"bike_id":"8b7cdb48-c19b-44dd-8859-dc2aba3e48ea","system_id":"levelo_inurba_marseille","lat":43.25574,"lon":5.38236,"is_reserved":false,"is_disabled":false,"rental_uris":{"android":"levelo://app?vid=8b7cdb48-c19b-44dd-8859-dc2aba3e48ea","ios":"levelo://app?vid=8b7cdb48-c19b-44dd-8859-dc2aba3e48ea"},"vehicle_type_id":"4","last_reported":1738660148,"current_range_meters":8000,"station_id":"ce4bhih2rcd13ifvqfs0","pricing_plan_id":"cebpf4jnsgd1na2vs0mg"},{"bike_id":"1e80229c-3730-4f6a-ad92-db35f7d75e3d","system_id":"levelo_inurba_marseille","lat":43.27178,"lon":5.40995,"is_reserved":false,"is_disabled":false,"rental_uris":{"android":"levelo://app?vid=1e80229c-3730-4f6a-ad92-db35f7d75e3d","ios":"levelo://app?vid=1e80229c-3730-4f6a-ad92-db35f7d75e3d"},"vehicle_type_id":"4","last_reported":1738660148,"current_range_meters":38000,"station_id":"ce4bhl12rcd13ifvqgf0","pricing_plan_id":"cebpf4jnsgd1na2vs0mg"},{"bike_id":"a989f7eb-c39d-479f-a8dc-55e581823a87","system_id":"levelo_inurba_marseille","lat":43.30793,"lon":5.37657,"is_reserved":false,"is_disabled":false,"rental_uris":{"android":"levelo://app?vid=a989f7eb-c39d-479f-a8dc-55e581823a87","ios":"levelo://app?vid=a989f7eb-c39d-479f-a8dc-55e581823a87"},"vehicle_type_id":"4","last_reported":1738660148,"current_range_meters":29600,"station_id":"ce4bgv92rcd13ifvqcq0","pricing_plan_id":"cebpf4jnsgd1na2vs0mg"},{"bike_id":"b2a6436f-4c95-46dd-a3bd-6af91e9591d2","system_id":"levelo_inurba_marseille","lat":43.25586,"lon":5.38232,"is_reserved":false,"is_disabled":false,"rental_uris":{"android":"levelo://app?vid=b2a6436f-4c95-46dd-a3bd-6af91e9591d2","ios":"levelo://app?vid=b2a6436f-4c95-46dd-a3bd-6af91e9591d2"},"vehicle_type_id":"4","last_reported":1738660148,"current_range_meters":19600,"station_id":"ce4bhih2rcd13ifvqfs0","pricing_plan_id":"cebpf4jnsgd1na2vs0mg"},{"bike_id":"fcd446ef-f8e6-45a0-806e-34fecb9910fa","system_id":"levelo_inurba_marseille","lat":43.27486,"lon":5.42456,"is_reserved":false,"is_disabled":false,"rental_uris":{"android":"levelo://app?vid=fcd446ef-f8e6-45a0-806e-34fecb9910fa","ios":"levelo://app?vid=fcd446ef-f8e6-45a0-806e-34fecb9910fa"},"vehicle_type_id":"4","last_reported":1738660148,"current_range_meters":20000,"station_id":"ce4bhn92rcd13ifvqgrg","pricing_plan_id":"cebpf4jnsgd1na2vs0mg"},{"bike_id":"3a9e538c-65c2-479b-b2d6-6e9e8856f5d8","system_id":"levelo_inurba_marseille","lat":43.25915,"lon":5.40924,"is_reserved":false,"is_disabled":false,"rental_uris":{"android":"levelo://app?vid=3a9e538c-65c2-479b-b2d6-6e9e8856f5d8","ios":"levelo://app?vid=3a9e538c-65c2-479b-b2d6-6e9e8856f5d8"},"vehicle_type_id":"4","last_reported":1738660148,"current_range_meters":26000,"station_id":"ce4bhm92rcd13ifvqglg","pricing_plan_id":"cebpf4jnsgd1na2vs0mg"},{"bike_id":"f49399e3-6204-4840-b71d-d4fdec09f64b","system_id":"levelo_inurba_marseille","lat":43.25935,"lon":5.40904,"is_reserved":false,"is_disabled":false,"rental_uris":{"android":"levelo://app?vid=f49399e3-6204-4840-b71d-d4fdec09f64b","ios":"levelo://app?vid=f49399e3-6204-4840-b71d-d4fdec09f64b"},"vehicle_type_id":"4","last_reported":1738660148,"current_range_meters":28800,"station_id":"ce4bhm92rcd13ifvqglg","pricing_plan_id":"cebpf4jnsgd1na2vs0mg"},{"bike_id":"6a63ff52-6ed1-4940-b0b4-eb2a8bc83e74","system_id":"levelo_inurba_marseille","lat":43.2927,"lon":5.36842,"is_reserved":false,"is_disabled":false,"rental_uris":{"android":"levelo://app?vid=6a63ff52-6ed1-4940-b0b4-eb2a8bc83e74","ios":"levelo://app?vid=6a63ff52-6ed1-4940-b0b4-eb2a8bc83e74"},"vehicle_type_id":"4","last_reported":1738660148,"current_range_meters":28000,"station_id":"ce4bhbp2rcd13ifvqesg","pricing_plan_id":"cebpf4jnsgd1na2vs0mg"},{"bike_id":"1a794636-1de8-48ff-a1bf-f41557cb147d","system_id":"levelo_inurba_marseille","lat":43.34603,"lon":5.38075,"is_reserved":false,"is_disabled":false,"rental_uris":{"android":"levelo://app?vid=1a794636-1de8-48ff-a1bf-f41557cb147d","ios":"levelo://app?vid=1a794636-1de8-48ff-a1bf-f41557cb147d"},"vehicle_type_id":"4","last_reported":1738660148,"current_range_meters":14000,"station_id":"","pricing_plan_id":"cebpf4jnsgd1na2vs0mg"},{"bike_id":"3c8e5445-cf86-469e-9c11-4a5caaef9b7e","system_id":"levelo_inurba_marseille","lat":43.2464,"lon":5.38895,"is_reserved":false,"is_disabled":false,"rental_uris":{"android":"levelo://app?vid=3c8e5445-cf86-469e-9c11-4a5caaef9b7e","ios":"levelo://app?vid=3c8e5445-cf86-469e-9c11-4a5caaef9b7e"},"vehicle_type_id":"4","last_reported":1738660148,"current_range_meters":38800,"station_id":"ce4bhg12rcd13ifvqf60","pricing_plan_id":"cebpf4jnsgd1na2vs0mg"},{"bike_id":"d6839042-ffb2-4301-bb52-472b8256b81e","system_id":"levelo_inurba_marseille","lat":43.30442,"lon":5.37927,"is_reserved":false,"is_disabled":false,"rental_uris":{"android":"levelo://app?vid=d6839042-ffb2-4301-bb52-472b8256b81e","ios":"levelo://app?vid=d6839042-ffb2-4301-bb52-472b8256b81e"},"vehicle_type_id":"4","last_reported":1738660148,"current_range_meters":32800,"station_id":"ce4bgup2rcd13ifvqcn0","pricing_plan_id":"cebpf4jnsgd1na2vs0mg"},{"bike_id":"9d61ac4e-e68f-4b98-917f-b08321d44dbd","system_id":"levelo_inurba_marseille","lat":43.28969,"lon":5.37846,"is_reserved":false,"is_disabled":false,"rental_uris":{"android":"levelo://app?vid=9d61ac4e-e68f-4b98-917f-b08321d44dbd","ios":"levelo://app?vid=9d61ac4e-e68f-4b98-917f-b08321d44dbd"},"vehicle_type_id":"4","last_reported":1738660148,"current_range_meters":39200,"station_id":"ce4bh9p2rcd13ifvqed0","pricing_plan_id":"cebpf4jnsgd1na2vs0mg"},{"bike_id":"73eafdd5-6e61-4fa8-88ae-0301d718a618","system_id":"levelo_inurba_marseille","lat":43.32285,"lon":5.38271,"is_reserved":false,"is_disabled":false,"rental_uris":{"android":"levelo://app?vid=73eafdd5-6e61-4fa8-88ae-0301d718a618","ios":"levelo://app?vid=73eafdd5-6e61-4fa8-88ae-0301d718a618"},"vehicle_type_id":"4","last_reported":1738660148,"current_range_meters":30800,"station_id":"ce4bhr12rcd13ifvqhqg","pricing_plan_id":"cebpf4jnsgd1na2vs0mg"},{"bike_id":"0580b22c-e37b-43ae-9129-b4938c90022d","system_id":"levelo_inurba_marseille","lat":43.31495,"lon":5.37298,"is_reserved":false,"is_disabled":false,"rental_uris":{"android":"levelo://app?vid=0580b22c-e37b-43ae-9129-b4938c90022d","ios":"levelo://app?vid=0580b22c-e37b-43ae-9129-b4938c90022d"},"vehicle_type_id":"4","last_reported":1738660148,"current_range_meters":30000,"station_id":"ce4bgt12rcd13ifvqcd0","pricing_plan_id":"cebpf4jnsgd1na2vs0mg"},{"bike_id":"13bc01dd-b19c-4b2d-b1c1-1a3c85340b9a","system_id":"levelo_inurba_marseille","lat":43.24648,"lon":5.38894,"is_reserved":false,"is_disabled":false,"rental_uris":{"android":"levelo://app?vid=13bc01dd-b19c-4b2d-b1c1-1a3c85340b9a","ios":"levelo://app?vid=13bc01dd-b19c-4b2d-b1c1-1a3c85340b9a"},"vehicle_type_id":"4","last_reported":1738660148,"current_range_meters":7200,"station_id":"ce4bhg12rcd13ifvqf60","pricing_plan_id":"cebpf4jnsgd1na2vs0mg"},{"bike_id":"30d68ac6-7ba6-4749-8154-bf914e372a6a","system_id":"levelo_inurba_marseille","lat":43.32365,"lon":5.38874,"is_reserved":false,"is_disabled":false,"rental_uris":{"android":"levelo://app?vid=30d68ac6-7ba6-4749-8154-bf914e372a6a","ios":"levelo://app?vid=30d68ac6-7ba6-4749-8154-bf914e372a6a"},"vehicle_type_id":"4","last_reported":1738660148,"current_range_meters":38000,"station_id":"ce4bhqp2rcd13ifvqhog","pricing_plan_id":"cebpf4jnsgd1na2vs0mg"},{"bike_id":"70db77fa-5101-4cc3-b5ef-7ecd27e20697","system_id":"levelo_inurba_marseille","lat":43.2305,"lon":5.35499,"is_reserved":false,"is_disabled":false,"rental_uris":{"android":"levelo://app?vid=70db77fa-5101-4cc3-b5ef-7ecd27e20697","ios":"levelo://app?vid=70db77fa-5101-4cc3-b5ef-7ecd27e20697"},"vehicle_type_id":"4","last_reported":1738660148,"current_range_meters":24800,"station_id":"cpo3342slgdg3j2ifvpg","pricing_plan_id":"cebpf4jnsgd1na2vs0mg"},{"bike_id":"f6dacf6b-80aa-4ed3-b60f-a447a5860aff","system_id":"levelo_inurba_marseille","lat":43.29232,"lon":5.36071,"is_reserved":false,"is_disabled":false,"rental_uris":{"android":"levelo://app?vid=f6dacf6b-80aa-4ed3-b60f-a447a5860aff","ios":"levelo://app?vid=f6dacf6b-80aa-4ed3-b60f-a447a5860aff"},"vehicle_type_id":"4","last_reported":1738660148,"current_range_meters":14000,"station_id":"ce4bhbh2rcd13ifvqeqg","pricing_plan_id":"cebpf4jnsgd1na2vs0mg"},{"bike_id":"e33c097b-83d0-40ec-9fbf-364e5b0a9ef8","system_id":"levelo_inurba_marseille","lat":43.23191,"lon":5.35565,"is_reserved":false,"is_disabled":false,"rental_uris":{"android":"levelo://app?vid=e33c097b-83d0-40ec-9fbf-364e5b0a9ef8","ios":"levelo://app?vid=e33c097b-83d0-40ec-9fbf-364e5b0a9ef8"},"vehicle_type_id":"4","last_reported":1738660148,"current_range_meters":39200,"station_id":"ce4bhu92rcd13ifvqi70","pricing_plan_id":"cebpf4jnsgd1na2vs0mg"},{"bike_id":"15a26f1c-8db6-4e23-b349-ee383d713225","system_id":"levelo_inurba_marseille","lat":43.2904,"lon":5.39952,"is_reserved":false,"is_disabled":true,"rental_uris":{"android":"levelo://app?vid=15a26f1c-8db6-4e23-b349-ee383d713225","ios":"levelo://app?vid=15a26f1c-8db6-4e23-b349-ee383d713225"},"vehicle_type_id":"4","last_reported":1738660148,"current_range_meters":22800,"station_id":"ce4bh392rcd13ifvqdm0","pricing_plan_id":"cebpf4jnsgd1na2vs0mg"},{"bike_id":"cdb1d13a-cf3d-48a4-9289-25226a0f52fc","system_id":"levelo_inurba_marseille","lat":43.26564,"lon":5.39017,"is_reserved":false,"is_disabled":false,"rental_uris":{"android":"levelo://app?vid=cdb1d13a-cf3d-48a4-9289-25226a0f52fc","ios":"levelo://app?vid=cdb1d13a-cf3d-48a4-9289-25226a0f52fc"},"vehicle_type_id":"4","last_reported":1738660148,"current_range_meters":24400,"station_id":"ce4bhe12rcd13ifvqf30","pricing_plan_id":"cebpf4jnsgd1na2vs0mg"},{"bike_id":"dc7053bf-404a-4185-a924-64707a11b476","system_id":"levelo_inurba_marseille","lat":43.30267,"lon":5.37687,"is_reserved":false,"is_disabled":false,"rental_uris":{"android":"levelo://app?vid=dc7053bf-404a-4185-a924-64707a11b476","ios":"levelo://app?vid=dc7053bf-404a-4185-a924-64707a11b476"},"vehicle_type_id":"4","last_reported":1738660148,"current_range_meters":27600,"station_id":"ce4bguh2rcd13ifvqcj0","pricing_plan_id":"cebpf4jnsgd1na2vs0mg"},{"bike_id":"8c6b7a51-ddd8-424b-ae4e-3239e83554e1","system_id":"levelo_inurba_marseille","lat":43.30467,"lon":5.378987,"is_reserved":false,"is_disabled":false,"rental_uris":{"android":"levelo://app?vid=8c6b7a51-ddd8-424b-ae4e-3239e83554e1","ios":"levelo://app?vid=8c6b7a51-ddd8-424b-ae4e-3239e83554e1"},"vehicle_type_id":"4","last_reported":1738660148,"current_range_meters":27600,"station_id":"ce4bgup2rcd13ifvqcn0","pricing_plan_id":"cebpf4jnsgd1na2vs0mg"},{"bike_id":"0e775c38-7145-4e54-8c6f-1ded1dd2ad0f","system_id":"levelo_inurba_marseille","lat":43.27496,"lon":5.42461,"is_reserved":false,"is_disabled":false,"rental_uris":{"android":"levelo://app?vid=0e775c38-7145-4e54-8c6f-1ded1dd2ad0f","ios":"levelo://app?vid=0e775c38-7145-4e54-8c6f-1ded1dd2ad0f"},"vehicle_type_id":"4","last_reported":1738660148,"current_range_meters":28000,"station_id":"ce4bhn92rcd13ifvqgrg","pricing_plan_id":"cebpf4jnsgd1na2vs0mg"},{"bike_id":"cedd1b75-7ca7-45aa-a6ce-9bae6e8b581f","system_id":"levelo_inurba_marseille","lat":43.26944,"lon":5.38649,"is_reserved":false,"is_disabled":false,"rental_uris":{"android":"levelo://app?vid=cedd1b75-7ca7-45aa-a6ce-9bae6e8b581f","ios":"levelo://app?vid=cedd1b75-7ca7-45aa-a6ce-9bae6e8b581f"},"vehicle_type_id":"4","last_reported":1738660148,"current_range_meters":39200,"station_id":"ce4bhh92rcd13ifvqfh0","pricing_plan_id":"cebpf4jnsgd1na2vs0mg"},{"bike_id":"89e0fb27-5f26-4cfe-9f61-e8651117733f","system_id":"levelo_inurba_marseille","lat":43.22919,"lon":5.35392,"is_reserved":false,"is_disabled":false,"rental_uris":{"android":"levelo://app?vid=89e0fb27-5f26-4cfe-9f61-e8651117733f","ios":"levelo://app?vid=89e0fb27-5f26-4cfe-9f61-e8651117733f"},"vehicle_type_id":"4","last_reported":1738660148,"current_range_meters":38000,"station_id":"cpo3532slgdg3j2ikp40","pricing_plan_id":"cebpf4jnsgd1na2vs0mg"},{"bike_id":"c99192c5-d228-4fa6-b582-8ef5a907c121","system_id":"levelo_inurba_marseille","lat":43.289775,"lon":5.378405,"is_reserved":false,"is_disabled":false,"rental_uris":{"android":"levelo://app?vid=c99192c5-d228-4fa6-b582-8ef5a907c121","ios":"levelo://app?vid=c99192c5-d228-4fa6-b582-8ef5a907c121"},"vehicle_type_id":"4","last_reported":1738660148,"current_range_meters":39200,"station_id":"ce4bh9p2rcd13ifvqed0","pricing_plan_id":"cebpf4jnsgd1na2vs0mg"},{"bike_id":"cfdf0950-ea3c-4b92-804b-57a6b13d3e7a","system_id":"levelo_inurba_marseille","lat":43.274902,"lon":5.424564,"is_reserved":false,"is_disabled":false,"rental_uris":{"android":"levelo://app?vid=cfdf0950-ea3c-4b92-804b-57a6b13d3e7a","ios":"levelo://app?vid=cfdf0950-ea3c-4b92-804b-57a6b13d3e7a"},"vehicle_type_id":"4","last_reported":1738660148,"current_range_meters":33600,"station_id":"ce4bhn92rcd13ifvqgrg","pricing_plan_id":"cebpf4jnsgd1na2vs0mg"},{"bike_id":"c548f53c-8626-4aa7-a88e-8260a0782630","system_id":"levelo_inurba_marseille","lat":43.25925,"lon":5.409,"is_reserved":false,"is_disabled":false,"rental_uris":{"android":"levelo://app?vid=c548f53c-8626-4aa7-a88e-8260a0782630","ios":"levelo://app?vid=c548f53c-8626-4aa7-a88e-8260a0782630"},"vehicle_type_id":"4","last_reported":1738660148,"current_range_meters":4000,"station_id":"ce4bhm92rcd13ifvqglg","pricing_plan_id":"cebpf4jnsgd1na2vs0mg"},{"bike_id":"5b406e0d-76c2-4128-ae56-d87c22288738","system_id":"levelo_inurba_marseille","lat":43.30909,"lon":5.36854,"is_reserved":false,"is_disabled":false,"rental_uris":{"android":"levelo://app?vid=5b406e0d-76c2-4128-ae56-d87c22288738","ios":"levelo://app?vid=5b406e0d-76c2-4128-ae56-d87c22288738"},"vehicle_type_id":"4","last_reported":1738660148,"current_range_meters":28400,"station_id":"ce4bgn92rcd13ifvqbvg","pricing_plan_id":"cebpf4jnsgd1na2vs0mg"},{"bike_id":"73ce5867-64af-413e-8de7-68ce3423aed3","system_id":"levelo_inurba_marseille","lat":43.24075,"lon":5.37759,"is_reserved":false,"is_disabled":false,"rental_uris":{"android":"levelo://app?vid=73ce5867-64af-413e-8de7-68ce3423aed3","ios":"levelo://app?vid=73ce5867-64af-413e-8de7-68ce3423aed3"},"vehicle_type_id":"4","last_reported":1738660148,"current_range_meters":20000,"station_id":"ce4bhnp2rcd13ifvqgvg","pricing_plan_id":"cebpf4jnsgd1na2vs0mg"},{"bike_id":"b215dd6e-9910-4def-beb6-1006112b71da","system_id":"levelo_inurba_marseille","lat":43.240695,"lon":5.37756,"is_reserved":false,"is_disabled":false,"rental_uris":{"android":"levelo://app?vid=b215dd6e-9910-4def-beb6-1006112b71da","ios":"levelo://app?vid=b215dd6e-9910-4def-beb6-1006112b71da"},"vehicle_type_id":"4","last_reported":1738660148,"current_range_meters":39200,"station_id":"ce4bhnp2rcd13ifvqgvg","pricing_plan_id":"cebpf4jnsgd1na2vs0mg"},{"bike_id":"b8377e0a-43f0-421f-b7bc-be53cdc947c8","system_id":"levelo_inurba_marseille","lat":43.32546,"lon":5.41449,"is_reserved":false,"is_disabled":false,"rental_uris":{"android":"levelo://app?vid=b8377e0a-43f0-421f-b7bc-be53cdc947c8","ios":"levelo://app?vid=b8377e0a-43f0-421f-b7bc-be53cdc947c8"},"vehicle_type_id":"4","last_reported":1738660148,"current_range_meters":37600,"station_id":"ce4bhq12rcd13ifvqhhg","pricing_plan_id":"cebpf4jnsgd1na2vs0mg"},{"bike_id":"d2fe3b60-5bf9-48ec-b8c0-2ba955686084","system_id":"levelo_inurba_marseille","lat":43.2558,"lon":5.38221,"is_reserved":false,"is_disabled":false,"rental_uris":{"android":"levelo://app?vid=d2fe3b60-5bf9-48ec-b8c0-2ba955686084","ios":"levelo://app?vid=d2fe3b60-5bf9-48ec-b8c0-2ba955686084"},"vehicle_type_id":"4","last_reported":1738660148,"current_range_meters":8400,"station_id":"ce4bhih2rcd13ifvqfs0","pricing_plan_id":"cebpf4jnsgd1na2vs0mg"},{"bike_id":"9a246337-8b93-40ac-8041-a37c41945aaf","system_id":"levelo_inurba_marseille","lat":43.26928,"lon":5.40247,"is_reserved":false,"is_disabled":false,"rental_uris":{"android":"levelo://app?vid=9a246337-8b93-40ac-8041-a37c41945aaf","ios":"levelo://app?vid=9a246337-8b93-40ac-8041-a37c41945aaf"},"vehicle_type_id":"4","last_reported":1738660148,"current_range_meters":7200,"station_id":"cjm6bp8fraef2m0cb0m0","pricing_plan_id":"cebpf4jnsgd1na2vs0mg"},{"bike_id":"3bee43d5-e27e-4692-8630-5bfa4bfc3f39","system_id":"levelo_inurba_marseille","lat":43.32296,"lon":5.38323,"is_reserved":false,"is_disabled":false,"rental_uris":{"android":"levelo://app?vid=3bee43d5-e27e-4692-8630-5bfa4bfc3f39","ios":"levelo://app?vid=3bee43d5-e27e-4692-8630-5bfa4bfc3f39"},"vehicle_type_id":"4","last_reported":1738660148,"current_range_meters":25600,"station_id":"ce4bhr12rcd13ifvqhqg","pricing_plan_id":"cebpf4jnsgd1na2vs0mg"},{"bike_id":"278902b4-7b50-4f46-8ac1-6d0f29cc8638","system_id":"levelo_inurba_marseille","lat":43.24388,"lon":5.37049,"is_reserved":false,"is_disabled":false,"rental_uris":{"android":"levelo://app?vid=278902b4-7b50-4f46-8ac1-6d0f29cc8638","ios":"levelo://app?vid=278902b4-7b50-4f46-8ac1-6d0f29cc8638"},"vehicle_type_id":"4","last_reported":1738660148,"current_range_meters":36000,"station_id":"ce4bhhh2rcd13ifvqfk0","pricing_plan_id":"cebpf4jnsgd1na2vs0mg"},{"bike_id":"892d3765-5c4a-4b7c-80bb-37a8d91fb9fc","system_id":"levelo_inurba_marseille","lat":43.27304,"lon":5.39092,"is_reserved":false,"is_disabled":false,"rental_uris":{"android":"levelo://app?vid=892d3765-5c4a-4b7c-80bb-37a8d91fb9fc","ios":"levelo://app?vid=892d3765-5c4a-4b7c-80bb-37a8d91fb9fc"},"vehicle_type_id":"4","last_reported":1738660148,"current_range_meters":8800,"station_id":"ce4bhgp2rcd13ifvqfe0","pricing_plan_id":"cebpf4jnsgd1na2vs0mg"},{"bike_id":"1296b03b-2cea-4701-83bd-76fc58cddc12","system_id":"levelo_inurba_marseille","lat":43.29269,"lon":5.36851,"is_reserved":false,"is_disabled":true,"rental_uris":{"android":"levelo://app?vid=1296b03b-2cea-4701-83bd-76fc58cddc12","ios":"levelo://app?vid=1296b03b-2cea-4701-83bd-76fc58cddc12"},"vehicle_type_id":"4","last_reported":1738660148,"current_range_meters":0,"station_id":"ce4bhbp2rcd13ifvqesg","pricing_plan_id":"cebpf4jnsgd1na2vs0mg"},{"bike_id":"061fe1f7-1b1b-403e-bdb0-1319fb067ccf","system_id":"levelo_inurba_marseille","lat":43.32578,"lon":5.41488,"is_reserved":false,"is_disabled":false,"rental_uris":{"android":"levelo://app?vid=061fe1f7-1b1b-403e-bdb0-1319fb067ccf","ios":"levelo://app?vid=061fe1f7-1b1b-403e-bdb0-1319fb067ccf"},"vehicle_type_id":"4","last_reported":1738660148,"current_range_meters":39200,"station_id":"ce4bhq12rcd13ifvqhhg","pricing_plan_id":"cebpf4jnsgd1na2vs0mg"},{"bike_id":"3ab0ceb6-cd89-477f-8038-1be761eb4bda","system_id":"levelo_inurba_marseille","lat":43.29217,"lon":5.36039,"is_reserved":false,"is_disabled":false,"rental_uris":{"android":"levelo://app?vid=3ab0ceb6-cd89-477f-8038-1be761eb4bda","ios":"levelo://app?vid=3ab0ceb6-cd89-477f-8038-1be761eb4bda"},"vehicle_type_id":"4","last_reported":1738660148,"current_range_meters":14000,"station_id":"ce4bhbh2rcd13ifvqeqg","pricing_plan_id":"cebpf4jnsgd1na2vs0mg"},{"bike_id":"cb22c695-a4a1-4b40-8327-76d0a13c0d1d","system_id":"levelo_inurba_marseille","lat":43.30537,"lon":5.36743,"is_reserved":false,"is_disabled":false,"rental_uris":{"android":"levelo://app?vid=cb22c695-a4a1-4b40-8327-76d0a13c0d1d","ios":"levelo://app?vid=cb22c695-a4a1-4b40-8327-76d0a13c0d1d"},"vehicle_type_id":"4","last_reported":1738660148,"current_range_meters":23200,"station_id":"ce4bgrp2rcd13ifvqc9g","pricing_plan_id":"cebpf4jnsgd1na2vs0mg"},{"bike_id":"d14c171e-4796-4dc4-a988-c22409690072","system_id":"levelo_inurba_marseille","lat":43.24068,"lon":5.37765,"is_reserved":false,"is_disabled":false,"rental_uris":{"android":"levelo://app?vid=d14c171e-4796-4dc4-a988-c22409690072","ios":"levelo://app?vid=d14c171e-4796-4dc4-a988-c22409690072"},"vehicle_type_id":"4","last_reported":1738660148,"current_range_meters":25600,"station_id":"ce4bhnp2rcd13ifvqgvg","pricing_plan_id":"cebpf4jnsgd1na2vs0mg"},{"bike_id":"e9d21bf5-c89c-40a4-8ddc-10393fb9ea44","system_id":"levelo_inurba_marseille","lat":43.30302,"lon":5.3922,"is_reserved":false,"is_disabled":true,"rental_uris":{"android":"levelo://app?vid=e9d21bf5-c89c-40a4-8ddc-10393fb9ea44","ios":"levelo://app?vid=e9d21bf5-c89c-40a4-8ddc-10393fb9ea44"},"vehicle_type_id":"4","last_reported":1738660148,"current_range_meters":0,"station_id":"ce4bgkh2rcd13ifvqbk0","pricing_plan_id":"cebpf4jnsgd1na2vs0mg"},{"bike_id":"a7707bf1-29c6-4f48-976f-2880303742fc","system_id":"levelo_inurba_marseille","lat":43.29518,"lon":5.39022,"is_reserved":false,"is_disabled":true,"rental_uris":{"android":"levelo://app?vid=a7707bf1-29c6-4f48-976f-2880303742fc","ios":"levelo://app?vid=a7707bf1-29c6-4f48-976f-2880303742fc"},"vehicle_type_id":"4","last_reported":1738660148,"current_range_meters":14800,"station_id":"ce4bh3p2rcd13ifvqdp0","pricing_plan_id":"cebpf4jnsgd1na2vs0mg"},{"bike_id":"cda6c1fe-0f78-49ea-ac45-361d8d9def33","system_id":"levelo_inurba_marseille","lat":43.2922,"lon":5.36086,"is_reserved":false,"is_disabled":false,"rental_uris":{"android":"levelo://app?vid=cda6c1fe-0f78-49ea-ac45-361d8d9def33","ios":"levelo://app?vid=cda6c1fe-0f78-49ea-ac45-361d8d9def33"},"vehicle_type_id":"4","last_reported":1738660148,"current_range_meters":34000,"station_id":"ce4bhbh2rcd13ifvqeqg","pricing_plan_id":"cebpf4jnsgd1na2vs0mg"},{"bike_id":"af21b367-4269-4594-b228-5a4aa2d7c730","system_id":"levelo_inurba_marseille","lat":43.26553,"lon":5.37284,"is_reserved":false,"is_disabled":false,"rental_uris":{"android":"levelo://app?vid=af21b367-4269-4594-b228-5a4aa2d7c730","ios":"levelo://app?vid=af21b367-4269-4594-b228-5a4aa2d7c730"},"vehicle_type_id":"4","last_reported":1738660148,"current_range_meters":4400,"station_id":"ce4bhg12rcd13ifvqf70","pricing_plan_id":"cebpf4jnsgd1na2vs0mg"},{"bike_id":"8af0b331-8042-4fb4-ad0c-c579fbbb63b7","system_id":"levelo_inurba_marseille","lat":43.33599,"lon":5.40973,"is_reserved":false,"is_disabled":false,"rental_uris":{"android":"levelo://app?vid=8af0b331-8042-4fb4-ad0c-c579fbbb63b7","ios":"levelo://app?vid=8af0b331-8042-4fb4-ad0c-c579fbbb63b7"},"vehicle_type_id":"4","last_reported":1738660148,"current_range_meters":39200,"station_id":"ce4bhqh2rcd13ifvqhmg","pricing_plan_id":"cebpf4jnsgd1na2vs0mg"},{"bike_id":"a91cdf06-8aaf-4398-8173-3fb2561d3057","system_id":"levelo_inurba_marseille","lat":43.25573,"lon":5.38245,"is_reserved":false,"is_disabled":false,"rental_uris":{"android":"levelo://app?vid=a91cdf06-8aaf-4398-8173-3fb2561d3057","ios":"levelo://app?vid=a91cdf06-8aaf-4398-8173-3fb2561d3057"},"vehicle_type_id":"4","last_reported":1738660148,"current_range_meters":35600,"station_id":"ce4bhih2rcd13ifvqfs0","pricing_plan_id":"cebpf4jnsgd1na2vs0mg"},{"bike_id":"54d06fd4-9213-43ef-8373-28e5edb151d5","system_id":"levelo_inurba_marseille","lat":43.30472,"lon":5.37906,"is_reserved":false,"is_disabled":false,"rental_uris":{"android":"levelo://app?vid=54d06fd4-9213-43ef-8373-28e5edb151d5","ios":"levelo://app?vid=54d06fd4-9213-43ef-8373-28e5edb151d5"},"vehicle_type_id":"4","last_reported":1738660148,"current_range_meters":27600,"station_id":"ce4bgup2rcd13ifvqcn0","pricing_plan_id":"cebpf4jnsgd1na2vs0mg"},{"bike_id":"5794738f-6954-407c-9ea2-0777a18e7e06","system_id":"levelo_inurba_marseille","lat":43.27376,"lon":5.36257,"is_reserved":false,"is_disabled":false,"rental_uris":{"android":"levelo://app?vid=5794738f-6954-407c-9ea2-0777a18e7e06","ios":"levelo://app?vid=5794738f-6954-407c-9ea2-0777a18e7e06"},"vehicle_type_id":"4","last_reported":1738660148,"current_range_meters":16800,"station_id":"ce4bhbh2rcd13ifvqeo0","pricing_plan_id":"cebpf4jnsgd1na2vs0mg"},{"bike_id":"f99c2d6a-f6bd-43c9-9b5e-96aec13e4155","system_id":"levelo_inurba_marseille","lat":43.31342,"lon":5.36727,"is_reserved":false,"is_disabled":false,"rental_uris":{"android":"levelo://app?vid=f99c2d6a-f6bd-43c9-9b5e-96aec13e4155","ios":"levelo://app?vid=f99c2d6a-f6bd-43c9-9b5e-96aec13e4155"},"vehicle_type_id":"4","last_reported":1738660148,"current_range_meters":39200,"station_id":"ce4bgr92rcd13ifvqc6g","pricing_plan_id":"cebpf4jnsgd1na2vs0mg"},{"bike_id":"49170bb5-5f8f-4c9a-9641-befe48837358","system_id":"levelo_inurba_marseille","lat":43.29044,"lon":5.39945,"is_reserved":false,"is_disabled":false,"rental_uris":{"android":"levelo://app?vid=49170bb5-5f8f-4c9a-9641-befe48837358","ios":"levelo://app?vid=49170bb5-5f8f-4c9a-9641-befe48837358"},"vehicle_type_id":"4","last_reported":1738660148,"current_range_meters":31200,"station_id":"ce4bh392rcd13ifvqdm0","pricing_plan_id":"cebpf4jnsgd1na2vs0mg"},{"bike_id":"8deac318-65a8-448d-93f6-837f094a0dbe","system_id":"levelo_inurba_marseille","lat":43.31352,"lon":5.36696,"is_reserved":false,"is_disabled":false,"rental_uris":{"android":"levelo://app?vid=8deac318-65a8-448d-93f6-837f094a0dbe","ios":"levelo://app?vid=8deac318-65a8-448d-93f6-837f094a0dbe"},"vehicle_type_id":"4","last_reported":1738660148,"current_range_meters":38800,"station_id":"ce4bgr92rcd13ifvqc6g","pricing_plan_id":"cebpf4jnsgd1na2vs0mg"},{"bike_id":"0416cf78-7863-4eec-b5e5-3557e2310ee1","system_id":"levelo_inurba_marseille","lat":43.26772,"lon":5.3943,"is_reserved":false,"is_disabled":true,"rental_uris":{"android":"levelo://app?vid=0416cf78-7863-4eec-b5e5-3557e2310ee1","ios":"levelo://app?vid=0416cf78-7863-4eec-b5e5-3557e2310ee1"},"vehicle_type_id":"4","last_reported":1738660148,"current_range_meters":0,"station_id":"ce4bhh12rcd13ifvqfg0","pricing_plan_id":"cebpf4jnsgd1na2vs0mg"},{"bike_id":"d956c0fa-8e81-4a5c-a819-66560ebeacd2","system_id":"levelo_inurba_marseille","lat":43.28152,"lon":5.42652,"is_reserved":false,"is_disabled":false,"rental_uris":{"android":"levelo://app?vid=d956c0fa-8e81-4a5c-a819-66560ebeacd2","ios":"levelo://app?vid=d956c0fa-8e81-4a5c-a819-66560ebeacd2"},"vehicle_type_id":"4","last_reported":1738660148,"current_range_meters":7200,"station_id":"ce4bhnh2rcd13ifvqgug","pricing_plan_id":"cebpf4jnsgd1na2vs0mg"},{"bike_id":"fce60211-e366-4b6a-a2fe-3b2bbe576c6b","system_id":"levelo_inurba_marseille","lat":43.31478,"lon":5.37319,"is_reserved":false,"is_disabled":false,"rental_uris":{"android":"levelo://app?vid=fce60211-e366-4b6a-a2fe-3b2bbe576c6b","ios":"levelo://app?vid=fce60211-e366-4b6a-a2fe-3b2bbe576c6b"},"vehicle_type_id":"4","last_reported":1738660148,"current_range_meters":37600,"station_id":"ce4bgt12rcd13ifvqcd0","pricing_plan_id":"cebpf4jnsgd1na2vs0mg"},{"bike_id":"7fdd338e-83cb-49bf-81f4-cc7bdeea298f","system_id":"levelo_inurba_marseille","lat":43.24159,"lon":5.36417,"is_reserved":false,"is_disabled":false,"rental_uris":{"android":"levelo://app?vid=7fdd338e-83cb-49bf-81f4-cc7bdeea298f","ios":"levelo://app?vid=7fdd338e-83cb-49bf-81f4-cc7bdeea298f"},"vehicle_type_id":"4","last_reported":1738660148,"current_range_meters":24800,"station_id":"cpo36qri1sfpv3e86is0","pricing_plan_id":"cebpf4jnsgd1na2vs0mg"},{"bike_id":"e270e9c9-c637-4eec-85ca-20047cef130b","system_id":"levelo_inurba_marseille","lat":43.23151,"lon":5.43723,"is_reserved":false,"is_disabled":true,"rental_uris":{"android":"levelo://app?vid=e270e9c9-c637-4eec-85ca-20047cef130b","ios":"levelo://app?vid=e270e9c9-c637-4eec-85ca-20047cef130b"},"vehicle_type_id":"4","last_reported":1738660148,"current_range_meters":1200,"station_id":"ce4bhmp2rcd13ifvqgog","pricing_plan_id":"cebpf4jnsgd1na2vs0mg"},{"bike_id":"98682d30-e93c-49a6-a226-9bd09ce46180","system_id":"levelo_inurba_marseille","lat":43.2606,"lon":5.39395,"is_reserved":false,"is_disabled":false,"rental_uris":{"android":"levelo://app?vid=98682d30-e93c-49a6-a226-9bd09ce46180","ios":"levelo://app?vid=98682d30-e93c-49a6-a226-9bd09ce46180"},"vehicle_type_id":"4","last_reported":1738660148,"current_range_meters":38800,"station_id":"ce4bhh92rcd13ifvqfj0","pricing_plan_id":"cebpf4jnsgd1na2vs0mg"},{"bike_id":"dfe4a7c7-0508-43ad-a0c0-ea841f1a5151","system_id":"levelo_inurba_marseille","lat":43.31218,"lon":5.36858,"is_reserved":false,"is_disabled":false,"rental_uris":{"android":"levelo://app?vid=dfe4a7c7-0508-43ad-a0c0-ea841f1a5151","ios":"levelo://app?vid=dfe4a7c7-0508-43ad-a0c0-ea841f1a5151"},"vehicle_type_id":"4","last_reported":1738660148,"current_range_meters":35200,"station_id":"ce4bgl92rcd13ifvqbq0","pricing_plan_id":"cebpf4jnsgd1na2vs0mg"},{"bike_id":"0779427b-9373-4e00-a6df-90da704710dd","system_id":"levelo_inurba_marseille","lat":43.29304,"lon":5.371715,"is_reserved":false,"is_disabled":false,"rental_uris":{"android":"levelo://app?vid=0779427b-9373-4e00-a6df-90da704710dd","ios":"levelo://app?vid=0779427b-9373-4e00-a6df-90da704710dd"},"vehicle_type_id":"4","last_reported":1738660148,"current_range_meters":38800,"station_id":"ce4bgh92rcd13ifvqb40","pricing_plan_id":"cebpf4jnsgd1na2vs0mg"},{"bike_id":"ab21f6d2-741a-4615-9802-4ed65daecb37","system_id":"levelo_inurba_marseille","lat":43.2668,"lon":5.3826,"is_reserved":false,"is_disabled":false,"rental_uris":{"android":"levelo://app?vid=ab21f6d2-741a-4615-9802-4ed65daecb37","ios":"levelo://app?vid=ab21f6d2-741a-4615-9802-4ed65daecb37"},"vehicle_type_id":"4","last_reported":1738660148,"current_range_meters":35200,"station_id":"ce4bhg92rcd13ifvqf90","pricing_plan_id":"cebpf4jnsgd1na2vs0mg"},{"bike_id":"005249ad-a5ba-4e73-997c-32d7121f7635","system_id":"levelo_inurba_marseille","lat":43.27912,"lon":5.39577,"is_reserved":false,"is_disabled":false,"rental_uris":{"android":"levelo://app?vid=005249ad-a5ba-4e73-997c-32d7121f7635","ios":"levelo://app?vid=005249ad-a5ba-4e73-997c-32d7121f7635"},"vehicle_type_id":"4","last_reported":1738660148,"current_range_meters":30000,"station_id":"ce4bhf92rcd13ifvqf40","pricing_plan_id":"cebpf4jnsgd1na2vs0mg"},{"bike_id":"c1ac1f60-a8dc-4824-a6ad-b9fcfc0f1194","system_id":"levelo_inurba_marseille","lat":43.29514,"lon":5.37505,"is_reserved":false,"is_disabled":false,"rental_uris":{"android":"levelo://app?vid=c1ac1f60-a8dc-4824-a6ad-b9fcfc0f1194","ios":"levelo://app?vid=c1ac1f60-a8dc-4824-a6ad-b9fcfc0f1194"},"vehicle_type_id":"4","last_reported":1738660148,"current_range_meters":26000,"station_id":"ce4bgkp2rcd13ifvqbmg","pricing_plan_id":"cebpf4jnsgd1na2vs0mg"},{"bike_id":"7268df03-0057-41ae-b742-1d956fd18e03","system_id":"levelo_inurba_marseille","lat":43.26945,"lon":5.38645,"is_reserved":false,"is_disabled":false,"rental_uris":{"android":"levelo://app?vid=7268df03-0057-41ae-b742-1d956fd18e03","ios":"levelo://app?vid=7268df03-0057-41ae-b742-1d956fd18e03"},"vehicle_type_id":"4","last_reported":1738660148,"current_range_meters":12800,"station_id":"ce4bhh92rcd13ifvqfh0","pricing_plan_id":"cebpf4jnsgd1na2vs0mg"},{"bike_id":"88f6ec14-1047-428a-bfc8-ed7564b679d3","system_id":"levelo_inurba_marseille","lat":43.244,"lon":5.37057,"is_reserved":false,"is_disabled":false,"rental_uris":{"android":"levelo://app?vid=88f6ec14-1047-428a-bfc8-ed7564b679d3","ios":"levelo://app?vid=88f6ec14-1047-428a-bfc8-ed7564b679d3"},"vehicle_type_id":"4","last_reported":1738660148,"current_range_meters":4800,"station_id":"ce4bhhh2rcd13ifvqfk0","pricing_plan_id":"cebpf4jnsgd1na2vs0mg"},{"bike_id":"fd66f9d4-5572-4d76-a230-08820815be74","system_id":"levelo_inurba_marseille","lat":43.29794,"lon":5.38115,"is_reserved":false,"is_disabled":false,"rental_uris":{"android":"levelo://app?vid=fd66f9d4-5572-4d76-a230-08820815be74","ios":"levelo://app?vid=fd66f9d4-5572-4d76-a230-08820815be74"},"vehicle_type_id":"4","last_reported":1738660148,"current_range_meters":8800,"station_id":"ce4bgip2rcd13ifvqbb0","pricing_plan_id":"cebpf4jnsgd1na2vs0mg"},{"bike_id":"865e7d8b-8981-4f25-879f-2ffa78f4edfd","system_id":"levelo_inurba_marseille","lat":43.23954,"lon":5.36627,"is_reserved":false,"is_disabled":false,"rental_uris":{"android":"levelo://app?vid=865e7d8b-8981-4f25-879f-2ffa78f4edfd","ios":"levelo://app?vid=865e7d8b-8981-4f25-879f-2ffa78f4edfd"},"vehicle_type_id":"4","last_reported":1738660148,"current_range_meters":4400,"station_id":"ce4bhi12rcd13ifvqfp0","pricing_plan_id":"cebpf4jnsgd1na2vs0mg"},{"bike_id":"d236b23f-174d-4fff-af81-c971b0017636","system_id":"levelo_inurba_marseille","lat":43.27494,"lon":5.42446,"is_reserved":false,"is_disabled":false,"rental_uris":{"android":"levelo://app?vid=d236b23f-174d-4fff-af81-c971b0017636","ios":"levelo://app?vid=d236b23f-174d-4fff-af81-c971b0017636"},"vehicle_type_id":"4","last_reported":1738660148,"current_range_meters":28000,"station_id":"ce4bhn92rcd13ifvqgrg","pricing_plan_id":"cebpf4jnsgd1na2vs0mg"},{"bike_id":"40040c8e-2685-4c87-9802-c71ca769ff08","system_id":"levelo_inurba_marseille","lat":43.31375,"lon":5.36683,"is_reserved":false,"is_disabled":false,"rental_uris":{"android":"levelo://app?vid=40040c8e-2685-4c87-9802-c71ca769ff08","ios":"levelo://app?vid=40040c8e-2685-4c87-9802-c71ca769ff08"},"vehicle_type_id":"4","last_reported":1738660148,"current_range_meters":24000,"station_id":"ce4bgr92rcd13ifvqc6g","pricing_plan_id":"cebpf4jnsgd1na2vs0mg"},{"bike_id":"03215b30-aa65-4b10-b451-ed50967ec88e","system_id":"levelo_inurba_marseille","lat":43.34445,"lon":5.35977,"is_reserved":false,"is_disabled":true,"rental_uris":{"android":"levelo://app?vid=03215b30-aa65-4b10-b451-ed50967ec88e","ios":"levelo://app?vid=03215b30-aa65-4b10-b451-ed50967ec88e"},"vehicle_type_id":"4","last_reported":1738660148,"current_range_meters":0,"station_id":"","pricing_plan_id":"cebpf4jnsgd1na2vs0mg"},{"bike_id":"362b8e1d-c9e1-490d-a4e0-861ce9907193","system_id":"levelo_inurba_marseille","lat":43.24079,"lon":5.37756,"is_reserved":false,"is_disabled":false,"rental_uris":{"android":"levelo://app?vid=362b8e1d-c9e1-490d-a4e0-861ce9907193","ios":"levelo://app?vid=362b8e1d-c9e1-490d-a4e0-861ce9907193"},"vehicle_type_id":"4","last_reported":1738660148,"current_range_meters":11600,"station_id":"ce4bhnp2rcd13ifvqgvg","pricing_plan_id":"cebpf4jnsgd1na2vs0mg"},{"bike_id":"e909661d-e36b-46c7-8f76-361f4308c549","system_id":"levelo_inurba_marseille","lat":43.29935,"lon":5.37464,"is_reserved":false,"is_disabled":false,"rental_uris":{"android":"levelo://app?vid=e909661d-e36b-46c7-8f76-361f4308c549","ios":"levelo://app?vid=e909661d-e36b-46c7-8f76-361f4308c549"},"vehicle_type_id":"4","last_reported":1738660148,"current_range_meters":16000,"station_id":"ce4bgjh2rcd13ifvqbg0","pricing_plan_id":"cebpf4jnsgd1na2vs0mg"},{"bike_id":"d1d51ec2-e1ab-4b92-9a4b-f935b04ef436","system_id":"levelo_inurba_marseille","lat":43.24993,"lon":5.38919,"is_reserved":false,"is_disabled":false,"rental_uris":{"android":"levelo://app?vid=d1d51ec2-e1ab-4b92-9a4b-f935b04ef436","ios":"levelo://app?vid=d1d51ec2-e1ab-4b92-9a4b-f935b04ef436"},"vehicle_type_id":"4","last_reported":1738660148,"current_range_meters":24800,"station_id":"ce4bhgp2rcd13ifvqfd0","pricing_plan_id":"cebpf4jnsgd1na2vs0mg"},{"bike_id":"66e207d9-0e49-41bc-b8c7-fa36242f8418","system_id":"levelo_inurba_marseille","lat":43.32364,"lon":5.38886,"is_reserved":false,"is_disabled":false,"rental_uris":{"android":"levelo://app?vid=66e207d9-0e49-41bc-b8c7-fa36242f8418","ios":"levelo://app?vid=66e207d9-0e49-41bc-b8c7-fa36242f8418"},"vehicle_type_id":"4","last_reported":1738660148,"current_range_meters":12400,"station_id":"ce4bhqp2rcd13ifvqhog","pricing_plan_id":"cebpf4jnsgd1na2vs0mg"},{"bike_id":"7a2080c9-d44a-471c-9acd-526428e8e5dc","system_id":"levelo_inurba_marseille","lat":43.22936,"lon":5.35386,"is_reserved":false,"is_disabled":false,"rental_uris":{"android":"levelo://app?vid=7a2080c9-d44a-471c-9acd-526428e8e5dc","ios":"levelo://app?vid=7a2080c9-d44a-471c-9acd-526428e8e5dc"},"vehicle_type_id":"4","last_reported":1738660148,"current_range_meters":37600,"station_id":"cpo3532slgdg3j2ikp40","pricing_plan_id":"cebpf4jnsgd1na2vs0mg"},{"bike_id":"e13a24f9-4692-47cd-aa92-a38002a14a15","system_id":"levelo_inurba_marseille","lat":43.296,"lon":5.37736,"is_reserved":false,"is_disabled":false,"rental_uris":{"android":"levelo://app?vid=e13a24f9-4692-47cd-aa92-a38002a14a15","ios":"levelo://app?vid=e13a24f9-4692-47cd-aa92-a38002a14a15"},"vehicle_type_id":"4","last_reported":1738660148,"current_range_meters":38800,"station_id":"ce4bgi92rcd13ifvqb90","pricing_plan_id":"cebpf4jnsgd1na2vs0mg"},{"bike_id":"2c58a77e-b690-40d2-af4f-4e59f348130b","system_id":"levelo_inurba_marseille","lat":43.32342,"lon":5.38952,"is_reserved":false,"is_disabled":true,"rental_uris":{"android":"levelo://app?vid=2c58a77e-b690-40d2-af4f-4e59f348130b","ios":"levelo://app?vid=2c58a77e-b690-40d2-af4f-4e59f348130b"},"vehicle_type_id":"4","last_reported":1738660148,"current_range_meters":32400,"station_id":"","pricing_plan_id":"cebpf4jnsgd1na2vs0mg"},{"bike_id":"60721e6e-8171-4431-b294-a987ae57b022","system_id":"levelo_inurba_marseille","lat":43.29626,"lon":5.40603,"is_reserved":false,"is_disabled":false,"rental_uris":{"android":"levelo://app?vid=60721e6e-8171-4431-b294-a987ae57b022","ios":"levelo://app?vid=60721e6e-8171-4431-b294-a987ae57b022"},"vehicle_type_id":"4","last_reported":1738660148,"current_range_meters":38800,"station_id":"ce4bh0h2rcd13ifvqd60","pricing_plan_id":"cebpf4jnsgd1na2vs0mg"},{"bike_id":"d4decd6c-2a51-4ba8-8222-5965e66e3b2d","system_id":"levelo_inurba_marseille","lat":43.28942,"lon":5.396597,"is_reserved":false,"is_disabled":false,"rental_uris":{"android":"levelo://app?vid=d4decd6c-2a51-4ba8-8222-5965e66e3b2d","ios":"levelo://app?vid=d4decd6c-2a51-4ba8-8222-5965e66e3b2d"},"vehicle_type_id":"4","last_reported":1738660148,"current_range_meters":38800,"station_id":"ce4bh3h2rcd13ifvqdn0","pricing_plan_id":"cebpf4jnsgd1na2vs0mg"},{"bike_id":"227d1457-7acb-444d-bf95-2cc0d4b33a5a","system_id":"levelo_inurba_marseille","lat":43.26537,"lon":5.39043,"is_reserved":false,"is_disabled":false,"rental_uris":{"android":"levelo://app?vid=227d1457-7acb-444d-bf95-2cc0d4b33a5a","ios":"levelo://app?vid=227d1457-7acb-444d-bf95-2cc0d4b33a5a"},"vehicle_type_id":"4","last_reported":1738660148,"current_range_meters":19600,"station_id":"ce4bhe12rcd13ifvqf30","pricing_plan_id":"cebpf4jnsgd1na2vs0mg"},{"bike_id":"556b9b10-c973-42c5-85a9-ca6a27ee9171","system_id":"levelo_inurba_marseille","lat":43.29184,"lon":5.36043,"is_reserved":false,"is_disabled":false,"rental_uris":{"android":"levelo://app?vid=556b9b10-c973-42c5-85a9-ca6a27ee9171","ios":"levelo://app?vid=556b9b10-c973-42c5-85a9-ca6a27ee9171"},"vehicle_type_id":"4","last_reported":1738660148,"current_range_meters":8000,"station_id":"ce4bhbh2rcd13ifvqeqg","pricing_plan_id":"cebpf4jnsgd1na2vs0mg"},{"bike_id":"0bb638d0-2838-47fa-8a2d-f175e9aec41a","system_id":"levelo_inurba_marseille","lat":43.23961,"lon":5.36648,"is_reserved":false,"is_disabled":false,"rental_uris":{"android":"levelo://app?vid=0bb638d0-2838-47fa-8a2d-f175e9aec41a","ios":"levelo://app?vid=0bb638d0-2838-47fa-8a2d-f175e9aec41a"},"vehicle_type_id":"4","last_reported":1738660148,"current_range_meters":15200,"station_id":"ce4bhi12rcd13ifvqfp0","pricing_plan_id":"cebpf4jnsgd1na2vs0mg"},{"bike_id":"b36ef2f6-7bc0-4491-8829-15afa327554f","system_id":"levelo_inurba_marseille","lat":43.30541,"lon":5.36717,"is_reserved":false,"is_disabled":false,"rental_uris":{"android":"levelo://app?vid=b36ef2f6-7bc0-4491-8829-15afa327554f","ios":"levelo://app?vid=b36ef2f6-7bc0-4491-8829-15afa327554f"},"vehicle_type_id":"4","last_reported":1738660148,"current_range_meters":28400,"station_id":"ce4bgrp2rcd13ifvqc9g","pricing_plan_id":"cebpf4jnsgd1na2vs0mg"},{"bike_id":"9be03674-7120-4176-aff8-82689c3366f6","system_id":"levelo_inurba_marseille","lat":43.25928,"lon":5.40898,"is_reserved":false,"is_disabled":false,"rental_uris":{"android":"levelo://app?vid=9be03674-7120-4176-aff8-82689c3366f6","ios":"levelo://app?vid=9be03674-7120-4176-aff8-82689c3366f6"},"vehicle_type_id":"4","last_reported":1738660148,"current_range_meters":14800,"station_id":"ce4bhm92rcd13ifvqglg","pricing_plan_id":"cebpf4jnsgd1na2vs0mg"},{"bike_id":"2fed9ba3-3909-423b-8e60-69abd9978d73","system_id":"levelo_inurba_marseille","lat":43.26798,"lon":5.40228,"is_reserved":false,"is_disabled":false,"rental_uris":{"android":"levelo://app?vid=2fed9ba3-3909-423b-8e60-69abd9978d73","ios":"levelo://app?vid=2fed9ba3-3909-423b-8e60-69abd9978d73"},"vehicle_type_id":"4","last_reported":1738660148,"current_range_meters":38800,"station_id":"ce501612rcd8frsf0b60","pricing_plan_id":"cebpf4jnsgd1na2vs0mg"},{"bike_id":"57177188-63b6-4ba7-b8e7-32133daa92a4","system_id":"levelo_inurba_marseille","lat":43.30279,"lon":5.3695,"is_reserved":false,"is_disabled":false,"rental_uris":{"android":"levelo://app?vid=57177188-63b6-4ba7-b8e7-32133daa92a4","ios":"levelo://app?vid=57177188-63b6-4ba7-b8e7-32133daa92a4"},"vehicle_type_id":"4","last_reported":1738660148,"current_range_meters":32400,"station_id":"ce4bgqh2rcd13ifvqc5g","pricing_plan_id":"cebpf4jnsgd1na2vs0mg"},{"bike_id":"98709c99-b7fd-450f-bb98-395cad9c7ffe","system_id":"levelo_inurba_marseille","lat":43.28678,"lon":5.3618,"is_reserved":false,"is_disabled":true,"rental_uris":{"android":"levelo://app?vid=98709c99-b7fd-450f-bb98-395cad9c7ffe","ios":"levelo://app?vid=98709c99-b7fd-450f-bb98-395cad9c7ffe"},"vehicle_type_id":"4","last_reported":1738660148,"current_range_meters":6800,"station_id":"cki0cbj6b192h4jlfktg","pricing_plan_id":"cebpf4jnsgd1na2vs0mg"},{"bike_id":"a2360890-da0d-437a-916b-04e787d9f58a","system_id":"levelo_inurba_marseille","lat":43.32488,"lon":5.36562,"is_reserved":false,"is_disabled":false,"rental_uris":{"android":"levelo://app?vid=a2360890-da0d-437a-916b-04e787d9f58a","ios":"levelo://app?vid=a2360890-da0d-437a-916b-04e787d9f58a"},"vehicle_type_id":"4","last_reported":1738660148,"current_range_meters":35200,"station_id":"ce4bhs12rcd13ifvqhvg","pricing_plan_id":"cebpf4jnsgd1na2vs0mg"},{"bike_id":"6e7c1ac2-e791-43c7-8c36-9db37854d07d","system_id":"levelo_inurba_marseille","lat":43.28627,"lon":5.35095,"is_reserved":false,"is_disabled":true,"rental_uris":{"android":"levelo://app?vid=6e7c1ac2-e791-43c7-8c36-9db37854d07d","ios":"levelo://app?vid=6e7c1ac2-e791-43c7-8c36-9db37854d07d"},"vehicle_type_id":"4","last_reported":1738660148,"current_range_meters":26800,"station_id":"ce4bhch2rcd13ifvqeug","pricing_plan_id":"cebpf4jnsgd1na2vs0mg"},{"bike_id":"b6032f4b-edb6-4222-814c-aae3fb9ce67d","system_id":"levelo_inurba_marseille","lat":43.28152,"lon":5.42654,"is_reserved":false,"is_disabled":false,"rental_uris":{"android":"levelo://app?vid=b6032f4b-edb6-4222-814c-aae3fb9ce67d","ios":"levelo://app?vid=b6032f4b-edb6-4222-814c-aae3fb9ce67d"},"vehicle_type_id":"4","last_reported":1738660148,"current_range_meters":12000,"station_id":"ce4bhnh2rcd13ifvqgug","pricing_plan_id":"cebpf4jnsgd1na2vs0mg"},{"bike_id":"0e6989f3-bc8d-4fb5-bebe-c9a7083bfc49","system_id":"levelo_inurba_marseille","lat":43.2963,"lon":5.40596,"is_reserved":false,"is_disabled":false,"rental_uris":{"android":"levelo://app?vid=0e6989f3-bc8d-4fb5-bebe-c9a7083bfc49","ios":"levelo://app?vid=0e6989f3-bc8d-4fb5-bebe-c9a7083bfc49"},"vehicle_type_id":"4","last_reported":1738660148,"current_range_meters":39200,"station_id":"ce4bh0h2rcd13ifvqd60","pricing_plan_id":"cebpf4jnsgd1na2vs0mg"},{"bike_id":"48ad2ada-c5f9-43ce-83c7-1d09232e6b48","system_id":"levelo_inurba_marseille","lat":43.265,"lon":5.39552,"is_reserved":false,"is_disabled":false,"rental_uris":{"android":"levelo://app?vid=48ad2ada-c5f9-43ce-83c7-1d09232e6b48","ios":"levelo://app?vid=48ad2ada-c5f9-43ce-83c7-1d09232e6b48"},"vehicle_type_id":"4","last_reported":1738660148,"current_range_meters":25200,"station_id":"ce4bhi12rcd13ifvqfq0","pricing_plan_id":"cebpf4jnsgd1na2vs0mg"},{"bike_id":"8b00ffde-54ad-483f-909e-e039fa476bdd","system_id":"levelo_inurba_marseille","lat":43.2968,"lon":5.37298,"is_reserved":false,"is_disabled":false,"rental_uris":{"android":"levelo://app?vid=8b00ffde-54ad-483f-909e-e039fa476bdd","ios":"levelo://app?vid=8b00ffde-54ad-483f-909e-e039fa476bdd"},"vehicle_type_id":"4","last_reported":1738660148,"current_range_meters":18800,"station_id":"ce4bgk12rcd13ifvqbj0","pricing_plan_id":"cebpf4jnsgd1na2vs0mg"},{"bike_id":"5875daa5-2b51-4890-86b6-114703e4a4f2","system_id":"levelo_inurba_marseille","lat":43.31106,"lon":5.38002,"is_reserved":false,"is_disabled":false,"rental_uris":{"android":"levelo://app?vid=5875daa5-2b51-4890-86b6-114703e4a4f2","ios":"levelo://app?vid=5875daa5-2b51-4890-86b6-114703e4a4f2"},"vehicle_type_id":"4","last_reported":1738660148,"current_range_meters":11200,"station_id":"","pricing_plan_id":"cebpf4jnsgd1na2vs0mg"},{"bike_id":"17152edd-b1d4-4a46-be84-5f51cb6d3ffc","system_id":"levelo_inurba_marseille","lat":43.29172,"lon":5.37161,"is_reserved":false,"is_disabled":false,"rental_uris":{"android":"levelo://app?vid=17152edd-b1d4-4a46-be84-5f51cb6d3ffc","ios":"levelo://app?vid=17152edd-b1d4-4a46-be84-5f51cb6d3ffc"},"vehicle_type_id":"4","last_reported":1738660148,"current_range_meters":38000,"station_id":"ce4bha92rcd13ifvqeh0","pricing_plan_id":"cebpf4jnsgd1na2vs0mg"},{"bike_id":"9f8a4819-e39e-4a53-910e-41c0cb445168","system_id":"levelo_inurba_marseille","lat":43.29557,"lon":5.37508,"is_reserved":false,"is_disabled":false,"rental_uris":{"android":"levelo://app?vid=9f8a4819-e39e-4a53-910e-41c0cb445168","ios":"levelo://app?vid=9f8a4819-e39e-4a53-910e-41c0cb445168"},"vehicle_type_id":"4","last_reported":1738660148,"current_range_meters":28400,"station_id":"ce4bgh92rcd13ifvqb50","pricing_plan_id":"cebpf4jnsgd1na2vs0mg"},{"bike_id":"cf5202f9-aba3-4aae-aca5-a11fed3d2433","system_id":"levelo_inurba_marseille","lat":43.24181,"lon":5.39687,"is_reserved":false,"is_disabled":false,"rental_uris":{"android":"levelo://app?vid=cf5202f9-aba3-4aae-aca5-a11fed3d2433","ios":"levelo://app?vid=cf5202f9-aba3-4aae-aca5-a11fed3d2433"},"vehicle_type_id":"4","last_reported":1738660148,"current_range_meters":20400,"station_id":"ce4bhn12rcd13ifvqgpg","pricing_plan_id":"cebpf4jnsgd1na2vs0mg"},{"bike_id":"5056aeb2-6f80-4ea0-9897-dccfd7616052","system_id":"levelo_inurba_marseille","lat":43.29299,"lon":5.37439,"is_reserved":false,"is_disabled":false,"rental_uris":{"android":"levelo://app?vid=5056aeb2-6f80-4ea0-9897-dccfd7616052","ios":"levelo://app?vid=5056aeb2-6f80-4ea0-9897-dccfd7616052"},"vehicle_type_id":"4","last_reported":1738660148,"current_range_meters":25600,"station_id":"ce4bgi12rcd13ifvqb70","pricing_plan_id":"cebpf4jnsgd1na2vs0mg"},{"bike_id":"3ca53271-0e58-4f09-a6c8-ace88698b7a9","system_id":"levelo_inurba_marseille","lat":43.24991,"lon":5.38935,"is_reserved":false,"is_disabled":false,"rental_uris":{"android":"levelo://app?vid=3ca53271-0e58-4f09-a6c8-ace88698b7a9","ios":"levelo://app?vid=3ca53271-0e58-4f09-a6c8-ace88698b7a9"},"vehicle_type_id":"4","last_reported":1738660148,"current_range_meters":33600,"station_id":"ce4bhgp2rcd13ifvqfd0","pricing_plan_id":"cebpf4jnsgd1na2vs0mg"},{"bike_id":"8cf86aea-68f2-4102-a684-9c437466dd34","system_id":"levelo_inurba_marseille","lat":43.25577,"lon":5.38224,"is_reserved":false,"is_disabled":false,"rental_uris":{"android":"levelo://app?vid=8cf86aea-68f2-4102-a684-9c437466dd34","ios":"levelo://app?vid=8cf86aea-68f2-4102-a684-9c437466dd34"},"vehicle_type_id":"4","last_reported":1738660148,"current_range_meters":6400,"station_id":"ce4bhih2rcd13ifvqfs0","pricing_plan_id":"cebpf4jnsgd1na2vs0mg"},{"bike_id":"49dfd201-9c9e-4c2d-9035-d7194487066e","system_id":"levelo_inurba_marseille","lat":43.30468,"lon":5.37899,"is_reserved":false,"is_disabled":false,"rental_uris":{"android":"levelo://app?vid=49dfd201-9c9e-4c2d-9035-d7194487066e","ios":"levelo://app?vid=49dfd201-9c9e-4c2d-9035-d7194487066e"},"vehicle_type_id":"4","last_reported":1738660148,"current_range_meters":39200,"station_id":"ce4bgup2rcd13ifvqcn0","pricing_plan_id":"cebpf4jnsgd1na2vs0mg"},{"bike_id":"8a24c8d9-2c91-4996-8e85-7adae68fd668","system_id":"levelo_inurba_marseille","lat":43.30553,"lon":5.36498,"is_reserved":false,"is_disabled":false,"rental_uris":{"android":"levelo://app?vid=8a24c8d9-2c91-4996-8e85-7adae68fd668","ios":"levelo://app?vid=8a24c8d9-2c91-4996-8e85-7adae68fd668"},"vehicle_type_id":"4","last_reported":1738660148,"current_range_meters":18000,"station_id":"ce4bgs12rcd13ifvqcag","pricing_plan_id":"cebpf4jnsgd1na2vs0mg"},{"bike_id":"c28c025b-47c1-4849-b894-a654574e0b27","system_id":"levelo_inurba_marseille","lat":43.28341,"lon":5.38122,"is_reserved":false,"is_disabled":true,"rental_uris":{"android":"levelo://app?vid=c28c025b-47c1-4849-b894-a654574e0b27","ios":"levelo://app?vid=c28c025b-47c1-4849-b894-a654574e0b27"},"vehicle_type_id":"4","last_reported":1738660148,"current_range_meters":0,"station_id":"ce4bh412rcd13ifvqdr0","pricing_plan_id":"cebpf4jnsgd1na2vs0mg"},{"bike_id":"557d0f7c-453d-4c3c-bfcb-ef55e43e5420","system_id":"levelo_inurba_marseille","lat":43.29214,"lon":5.36137,"is_reserved":false,"is_disabled":false,"rental_uris":{"android":"levelo://app?vid=557d0f7c-453d-4c3c-bfcb-ef55e43e5420","ios":"levelo://app?vid=557d0f7c-453d-4c3c-bfcb-ef55e43e5420"},"vehicle_type_id":"4","last_reported":1738660148,"current_range_meters":34800,"station_id":"ce4bhbh2rcd13ifvqeqg","pricing_plan_id":"cebpf4jnsgd1na2vs0mg"},{"bike_id":"48457462-e2e5-4b0c-9657-da77fe2191e8","system_id":"levelo_inurba_marseille","lat":43.30512,"lon":5.36586,"is_reserved":false,"is_disabled":false,"rental_uris":{"android":"levelo://app?vid=48457462-e2e5-4b0c-9657-da77fe2191e8","ios":"levelo://app?vid=48457462-e2e5-4b0c-9657-da77fe2191e8"},"vehicle_type_id":"4","last_reported":1738660148,"current_range_meters":24800,"station_id":"ce4bgs12rcd13ifvqcag","pricing_plan_id":"cebpf4jnsgd1na2vs0mg"},{"bike_id":"bc862fcc-2093-4eb1-bb6b-8520bc1c64b9","system_id":"levelo_inurba_marseille","lat":43.27813,"lon":5.40717,"is_reserved":false,"is_disabled":false,"rental_uris":{"android":"levelo://app?vid=bc862fcc-2093-4eb1-bb6b-8520bc1c64b9","ios":"levelo://app?vid=bc862fcc-2093-4eb1-bb6b-8520bc1c64b9"},"vehicle_type_id":"4","last_reported":1738660148,"current_range_meters":38800,"station_id":"ce4bhnh2rcd13ifvqgtg","pricing_plan_id":"cebpf4jnsgd1na2vs0mg"},{"bike_id":"9e60433d-9d52-40fd-a521-d470cfc69ca5","system_id":"levelo_inurba_marseille","lat":43.29878,"lon":5.38915,"is_reserved":false,"is_disabled":false,"rental_uris":{"android":"levelo://app?vid=9e60433d-9d52-40fd-a521-d470cfc69ca5","ios":"levelo://app?vid=9e60433d-9d52-40fd-a521-d470cfc69ca5"},"vehicle_type_id":"4","last_reported":1738660148,"current_range_meters":38800,"station_id":"ce4bh392rcd13ifvqdl0","pricing_plan_id":"cebpf4jnsgd1na2vs0mg"},{"bike_id":"630dd466-e4dd-4ada-8a39-01e92abf0818","system_id":"levelo_inurba_marseille","lat":43.26186,"lon":5.37455,"is_reserved":false,"is_disabled":false,"rental_uris":{"android":"levelo://app?vid=630dd466-e4dd-4ada-8a39-01e92abf0818","ios":"levelo://app?vid=630dd466-e4dd-4ada-8a39-01e92abf0818"},"vehicle_type_id":"4","last_reported":1738660148,"current_range_meters":34800,"station_id":"ce4bhgp2rcd13ifvqfc0","pricing_plan_id":"cebpf4jnsgd1na2vs0mg"},{"bike_id":"5df9bf08-43fe-4acc-898a-9db2002f38bc","system_id":"levelo_inurba_marseille","lat":43.25853,"lon":5.39902,"is_reserved":false,"is_disabled":true,"rental_uris":{"android":"levelo://app?vid=5df9bf08-43fe-4acc-898a-9db2002f38bc","ios":"levelo://app?vid=5df9bf08-43fe-4acc-898a-9db2002f38bc"},"vehicle_type_id":"4","last_reported":1738660148,"current_range_meters":16400,"station_id":"ce4bhl92rcd13ifvqghg","pricing_plan_id":"cebpf4jnsgd1na2vs0mg"},{"bike_id":"f82da6bb-bfb6-4230-be77-8860ce670df6","system_id":"levelo_inurba_marseille","lat":43.26557,"lon":5.37281,"is_reserved":false,"is_disabled":true,"rental_uris":{"android":"levelo://app?vid=f82da6bb-bfb6-4230-be77-8860ce670df6","ios":"levelo://app?vid=f82da6bb-bfb6-4230-be77-8860ce670df6"},"vehicle_type_id":"4","last_reported":1738660148,"current_range_meters":0,"station_id":"ce4bhg12rcd13ifvqf70","pricing_plan_id":"cebpf4jnsgd1na2vs0mg"},{"bike_id":"d7c4a808-69ad-4802-9cda-2ac9ba29b284","system_id":"levelo_inurba_marseille","lat":43.29296,"lon":5.37175,"is_reserved":false,"is_disabled":false,"rental_uris":{"android":"levelo://app?vid=d7c4a808-69ad-4802-9cda-2ac9ba29b284","ios":"levelo://app?vid=d7c4a808-69ad-4802-9cda-2ac9ba29b284"},"vehicle_type_id":"4","last_reported":1738660148,"current_range_meters":2800,"station_id":"ce4bgh92rcd13ifvqb40","pricing_plan_id":"cebpf4jnsgd1na2vs0mg"},{"bike_id":"3034d64e-f78e-468c-b4d6-2520a053438f","system_id":"levelo_inurba_marseille","lat":43.23187,"lon":5.4,"is_reserved":false,"is_disabled":false,"rental_uris":{"android":"levelo://app?vid=3034d64e-f78e-468c-b4d6-2520a053438f","ios":"levelo://app?vid=3034d64e-f78e-468c-b4d6-2520a053438f"},"vehicle_type_id":"4","last_reported":1738660148,"current_range_meters":10000,"station_id":"ce4bhn12rcd13ifvqgqg","pricing_plan_id":"cebpf4jnsgd1na2vs0mg"},{"bike_id":"5ae71d42-303a-4718-85d0-b330642b87da","system_id":"levelo_inurba_marseille","lat":43.29274,"lon":5.3684,"is_reserved":false,"is_disabled":false,"rental_uris":{"android":"levelo://app?vid=5ae71d42-303a-4718-85d0-b330642b87da","ios":"levelo://app?vid=5ae71d42-303a-4718-85d0-b330642b87da"},"vehicle_type_id":"4","last_reported":1738660148,"current_range_meters":38000,"station_id":"ce4bhbp2rcd13ifvqesg","pricing_plan_id":"cebpf4jnsgd1na2vs0mg"},{"bike_id":"343ee9fa-65bc-44d7-b41c-f81f2cce2b1a","system_id":"levelo_inurba_marseille","lat":43.23154,"lon":5.43708,"is_reserved":false,"is_disabled":false,"rental_uris":{"android":"levelo://app?vid=343ee9fa-65bc-44d7-b41c-f81f2cce2b1a","ios":"levelo://app?vid=343ee9fa-65bc-44d7-b41c-f81f2cce2b1a"},"vehicle_type_id":"4","last_reported":1738660148,"current_range_meters":15200,"station_id":"ce4bhmp2rcd13ifvqgog","pricing_plan_id":"cebpf4jnsgd1na2vs0mg"},{"bike_id":"7f87d5fc-9445-41df-bd3e-5287cb6adb70","system_id":"levelo_inurba_marseille","lat":43.26807,"lon":5.40275,"is_reserved":false,"is_disabled":false,"rental_uris":{"android":"levelo://app?vid=7f87d5fc-9445-41df-bd3e-5287cb6adb70","ios":"levelo://app?vid=7f87d5fc-9445-41df-bd3e-5287cb6adb70"},"vehicle_type_id":"4","last_reported":1738660148,"current_range_meters":10000,"station_id":"ce501612rcd8frsf0b60","pricing_plan_id":"cebpf4jnsgd1na2vs0mg"},{"bike_id":"9889f64f-961a-4fc8-9d44-bf6f4412f46f","system_id":"levelo_inurba_marseille","lat":43.25921,"lon":5.40919,"is_reserved":false,"is_disabled":false,"rental_uris":{"android":"levelo://app?vid=9889f64f-961a-4fc8-9d44-bf6f4412f46f","ios":"levelo://app?vid=9889f64f-961a-4fc8-9d44-bf6f4412f46f"},"vehicle_type_id":"4","last_reported":1738660148,"current_range_meters":9600,"station_id":"ce4bhm92rcd13ifvqglg","pricing_plan_id":"cebpf4jnsgd1na2vs0mg"},{"bike_id":"6ef4326b-b942-45af-aff2-bd626f026887","system_id":"levelo_inurba_marseille","lat":43.30945,"lon":5.39039,"is_reserved":false,"is_disabled":false,"rental_uris":{"android":"levelo://app?vid=6ef4326b-b942-45af-aff2-bd626f026887","ios":"levelo://app?vid=6ef4326b-b942-45af-aff2-bd626f026887"},"vehicle_type_id":"4","last_reported":1738660148,"current_range_meters":19200,"station_id":"ce4bgup2rcd13ifvqco0","pricing_plan_id":"cebpf4jnsgd1na2vs0mg"},{"bike_id":"649599e3-9252-4d00-ad77-a8ea70e06ee9","system_id":"levelo_inurba_marseille","lat":43.29223,"lon":5.36072,"is_reserved":false,"is_disabled":false,"rental_uris":{"android":"levelo://app?vid=649599e3-9252-4d00-ad77-a8ea70e06ee9","ios":"levelo://app?vid=649599e3-9252-4d00-ad77-a8ea70e06ee9"},"vehicle_type_id":"4","last_reported":1738660148,"current_range_meters":37600,"station_id":"ce4bhbh2rcd13ifvqeqg","pricing_plan_id":"cebpf4jnsgd1na2vs0mg"},{"bike_id":"a7dc0848-081a-4438-bce6-7e161a91f066","system_id":"levelo_inurba_marseille","lat":43.281626,"lon":5.426399,"is_reserved":false,"is_disabled":false,"rental_uris":{"android":"levelo://app?vid=a7dc0848-081a-4438-bce6-7e161a91f066","ios":"levelo://app?vid=a7dc0848-081a-4438-bce6-7e161a91f066"},"vehicle_type_id":"4","last_reported":1738660148,"current_range_meters":35600,"station_id":"ce4bhnh2rcd13ifvqgug","pricing_plan_id":"cebpf4jnsgd1na2vs0mg"},{"bike_id":"36dc3366-e52e-4f9e-a872-e2d020ed7b6b","system_id":"levelo_inurba_marseille","lat":43.30919,"lon":5.36849,"is_reserved":false,"is_disabled":false,"rental_uris":{"android":"levelo://app?vid=36dc3366-e52e-4f9e-a872-e2d020ed7b6b","ios":"levelo://app?vid=36dc3366-e52e-4f9e-a872-e2d020ed7b6b"},"vehicle_type_id":"4","last_reported":1738660148,"current_range_meters":38800,"station_id":"ce4bgn92rcd13ifvqbvg","pricing_plan_id":"cebpf4jnsgd1na2vs0mg"},{"bike_id":"e6beea85-171c-43b3-b198-c294e670e02a","system_id":"levelo_inurba_marseille","lat":43.26778,"lon":5.39442,"is_reserved":false,"is_disabled":false,"rental_uris":{"android":"levelo://app?vid=e6beea85-171c-43b3-b198-c294e670e02a","ios":"levelo://app?vid=e6beea85-171c-43b3-b198-c294e670e02a"},"vehicle_type_id":"4","last_reported":1738660148,"current_range_meters":17200,"station_id":"ce4bhh12rcd13ifvqfg0","pricing_plan_id":"cebpf4jnsgd1na2vs0mg"},{"bike_id":"48a6c7fc-63b6-4b42-a5f1-b849f3d55f6a","system_id":"levelo_inurba_marseille","lat":43.30957,"lon":5.39071,"is_reserved":false,"is_disabled":false,"rental_uris":{"android":"levelo://app?vid=48a6c7fc-63b6-4b42-a5f1-b849f3d55f6a","ios":"levelo://app?vid=48a6c7fc-63b6-4b42-a5f1-b849f3d55f6a"},"vehicle_type_id":"4","last_reported":1738660148,"current_range_meters":34800,"station_id":"ce4bgup2rcd13ifvqco0","pricing_plan_id":"cebpf4jnsgd1na2vs0mg"},{"bike_id":"356d0183-7d80-4eb5-95fe-3d9dd28f8f01","system_id":"levelo_inurba_marseille","lat":43.24998,"lon":5.3894,"is_reserved":false,"is_disabled":false,"rental_uris":{"android":"levelo://app?vid=356d0183-7d80-4eb5-95fe-3d9dd28f8f01","ios":"levelo://app?vid=356d0183-7d80-4eb5-95fe-3d9dd28f8f01"},"vehicle_type_id":"4","last_reported":1738660148,"current_range_meters":22000,"station_id":"ce4bhgp2rcd13ifvqfd0","pricing_plan_id":"cebpf4jnsgd1na2vs0mg"},{"bike_id":"c8bd1d84-2291-473f-ab82-361f165fe1db","system_id":"levelo_inurba_marseille","lat":43.24175,"lon":5.36367,"is_reserved":false,"is_disabled":false,"rental_uris":{"android":"levelo://app?vid=c8bd1d84-2291-473f-ab82-361f165fe1db","ios":"levelo://app?vid=c8bd1d84-2291-473f-ab82-361f165fe1db"},"vehicle_type_id":"4","last_reported":1738660148,"current_range_meters":16000,"station_id":"cpo36qri1sfpv3e86is0","pricing_plan_id":"cebpf4jnsgd1na2vs0mg"},{"bike_id":"da05f112-ffb2-4f41-a3cb-99544f3f7f0e","system_id":"levelo_inurba_marseille","lat":43.30552,"lon":5.36707,"is_reserved":false,"is_disabled":false,"rental_uris":{"android":"levelo://app?vid=da05f112-ffb2-4f41-a3cb-99544f3f7f0e","ios":"levelo://app?vid=da05f112-ffb2-4f41-a3cb-99544f3f7f0e"},"vehicle_type_id":"4","last_reported":1738660148,"current_range_meters":34000,"station_id":"ce4bgrp2rcd13ifvqc9g","pricing_plan_id":"cebpf4jnsgd1na2vs0mg"},{"bike_id":"b4e739e6-1e16-4e34-8d5d-7503a7298ee4","system_id":"levelo_inurba_marseille","lat":43.25934,"lon":5.40901,"is_reserved":false,"is_disabled":false,"rental_uris":{"android":"levelo://app?vid=b4e739e6-1e16-4e34-8d5d-7503a7298ee4","ios":"levelo://app?vid=b4e739e6-1e16-4e34-8d5d-7503a7298ee4"},"vehicle_type_id":"4","last_reported":1738660148,"current_range_meters":29600,"station_id":"ce4bhm92rcd13ifvqglg","pricing_plan_id":"cebpf4jnsgd1na2vs0mg"},{"bike_id":"bb846df9-2969-480a-aed6-edbcf9c326fb","system_id":"levelo_inurba_marseille","lat":43.24813,"lon":5.3746,"is_reserved":false,"is_disabled":false,"rental_uris":{"android":"levelo://app?vid=bb846df9-2969-480a-aed6-edbcf9c326fb","ios":"levelo://app?vid=bb846df9-2969-480a-aed6-edbcf9c326fb"},"vehicle_type_id":"4","last_reported":1738660148,"current_range_meters":25600,"station_id":"ce4bhgh2rcd13ifvqfb0","pricing_plan_id":"cebpf4jnsgd1na2vs0mg"},{"bike_id":"cd07e062-2af1-406e-bcb9-5f1ec4730937","system_id":"levelo_inurba_marseille","lat":43.23057,"lon":5.35485,"is_reserved":false,"is_disabled":false,"rental_uris":{"android":"levelo://app?vid=cd07e062-2af1-406e-bcb9-5f1ec4730937","ios":"levelo://app?vid=cd07e062-2af1-406e-bcb9-5f1ec4730937"},"vehicle_type_id":"4","last_reported":1738660148,"current_range_meters":9200,"station_id":"cpo3342slgdg3j2ifvpg","pricing_plan_id":"cebpf4jnsgd1na2vs0mg"},{"bike_id":"7bb4b040-42eb-4d12-af3c-351fb1de362d","system_id":"levelo_inurba_marseille","lat":43.2909,"lon":5.38146,"is_reserved":false,"is_disabled":false,"rental_uris":{"android":"levelo://app?vid=7bb4b040-42eb-4d12-af3c-351fb1de362d","ios":"levelo://app?vid=7bb4b040-42eb-4d12-af3c-351fb1de362d"},"vehicle_type_id":"4","last_reported":1738660148,"current_range_meters":38800,"station_id":"ce4bh512rcd13ifvqe2g","pricing_plan_id":"cebpf4jnsgd1na2vs0mg"},{"bike_id":"6d93c457-3ddd-4cec-9816-ca38730af33b","system_id":"levelo_inurba_marseille","lat":43.27045,"lon":5.40269,"is_reserved":false,"is_disabled":false,"rental_uris":{"android":"levelo://app?vid=6d93c457-3ddd-4cec-9816-ca38730af33b","ios":"levelo://app?vid=6d93c457-3ddd-4cec-9816-ca38730af33b"},"vehicle_type_id":"4","last_reported":1738660148,"current_range_meters":8000,"station_id":"ce4bhk92rcd13ifvqgc0","pricing_plan_id":"cebpf4jnsgd1na2vs0mg"},{"bike_id":"516f2549-79cf-4297-a0ad-3d3f06a71f80","system_id":"levelo_inurba_marseille","lat":43.31715,"lon":5.42415,"is_reserved":false,"is_disabled":true,"rental_uris":{"android":"levelo://app?vid=516f2549-79cf-4297-a0ad-3d3f06a71f80","ios":"levelo://app?vid=516f2549-79cf-4297-a0ad-3d3f06a71f80"},"vehicle_type_id":"4","last_reported":1738660148,"current_range_meters":3600,"station_id":"ce4bhp92rcd13ifvqhbg","pricing_plan_id":"cebpf4jnsgd1na2vs0mg"},{"bike_id":"9e9e116b-0245-457e-81f0-41dec3dfcb36","system_id":"levelo_inurba_marseille","lat":43.27491,"lon":5.4245,"is_reserved":false,"is_disabled":false,"rental_uris":{"android":"levelo://app?vid=9e9e116b-0245-457e-81f0-41dec3dfcb36","ios":"levelo://app?vid=9e9e116b-0245-457e-81f0-41dec3dfcb36"},"vehicle_type_id":"4","last_reported":1738660148,"current_range_meters":36400,"station_id":"ce4bhn92rcd13ifvqgrg","pricing_plan_id":"cebpf4jnsgd1na2vs0mg"},{"bike_id":"98c8136a-16ae-47fa-a564-d42e7b4dc97e","system_id":"levelo_inurba_marseille","lat":43.30905,"lon":5.39639,"is_reserved":false,"is_disabled":true,"rental_uris":{"android":"levelo://app?vid=98c8136a-16ae-47fa-a564-d42e7b4dc97e","ios":"levelo://app?vid=98c8136a-16ae-47fa-a564-d42e7b4dc97e"},"vehicle_type_id":"4","last_reported":1738660148,"current_range_meters":33600,"station_id":"ce4bh012rcd13ifvqcv0","pricing_plan_id":"cebpf4jnsgd1na2vs0mg"},{"bike_id":"0d1125f3-c4d3-493b-a583-6e3416f063f6","system_id":"levelo_inurba_marseille","lat":43.23192,"lon":5.35556,"is_reserved":false,"is_disabled":false,"rental_uris":{"android":"levelo://app?vid=0d1125f3-c4d3-493b-a583-6e3416f063f6","ios":"levelo://app?vid=0d1125f3-c4d3-493b-a583-6e3416f063f6"},"vehicle_type_id":"4","last_reported":1738660148,"current_range_meters":18800,"station_id":"ce4bhu92rcd13ifvqi70","pricing_plan_id":"cebpf4jnsgd1na2vs0mg"},{"bike_id":"473dc738-2184-4c96-a388-d3c1ef9e6829","system_id":"levelo_inurba_marseille","lat":43.27489,"lon":5.42446,"is_reserved":false,"is_disabled":false,"rental_uris":{"android":"levelo://app?vid=473dc738-2184-4c96-a388-d3c1ef9e6829","ios":"levelo://app?vid=473dc738-2184-4c96-a388-d3c1ef9e6829"},"vehicle_type_id":"4","last_reported":1738660148,"current_range_meters":16000,"station_id":"ce4bhn92rcd13ifvqgrg","pricing_plan_id":"cebpf4jnsgd1na2vs0mg"},{"bike_id":"04c40de0-6b7b-411d-84fc-5236aea28afc","system_id":"levelo_inurba_marseille","lat":43.30904,"lon":5.36861,"is_reserved":false,"is_disabled":false,"rental_uris":{"android":"levelo://app?vid=04c40de0-6b7b-411d-84fc-5236aea28afc","ios":"levelo://app?vid=04c40de0-6b7b-411d-84fc-5236aea28afc"},"vehicle_type_id":"4","last_reported":1738660148,"current_range_meters":38800,"station_id":"ce4bgn92rcd13ifvqbvg","pricing_plan_id":"cebpf4jnsgd1na2vs0mg"},{"bike_id":"330eba4c-e2b6-46ce-93af-c009d482439c","system_id":"levelo_inurba_marseille","lat":43.29612,"lon":5.37711,"is_reserved":false,"is_disabled":false,"rental_uris":{"android":"levelo://app?vid=330eba4c-e2b6-46ce-93af-c009d482439c","ios":"levelo://app?vid=330eba4c-e2b6-46ce-93af-c009d482439c"},"vehicle_type_id":"4","last_reported":1738660148,"current_range_meters":27200,"station_id":"ce4bgi92rcd13ifvqb90","pricing_plan_id":"cebpf4jnsgd1na2vs0mg"},{"bike_id":"15b72a17-6480-4f6d-86fc-355e39e8992c","system_id":"levelo_inurba_marseille","lat":43.27036,"lon":5.40276,"is_reserved":false,"is_disabled":true,"rental_uris":{"android":"levelo://app?vid=15b72a17-6480-4f6d-86fc-355e39e8992c","ios":"levelo://app?vid=15b72a17-6480-4f6d-86fc-355e39e8992c"},"vehicle_type_id":"4","last_reported":1738660148,"current_range_meters":27600,"station_id":"ce4bhk92rcd13ifvqgc0","pricing_plan_id":"cebpf4jnsgd1na2vs0mg"},{"bike_id":"9ea8c0a5-aa59-4f4a-ad09-1c77e9a29acd","system_id":"levelo_inurba_marseille","lat":43.24805,"lon":5.37459,"is_reserved":false,"is_disabled":false,"rental_uris":{"android":"levelo://app?vid=9ea8c0a5-aa59-4f4a-ad09-1c77e9a29acd","ios":"levelo://app?vid=9ea8c0a5-aa59-4f4a-ad09-1c77e9a29acd"},"vehicle_type_id":"4","last_reported":1738660148,"current_range_meters":26000,"station_id":"ce4bhgh2rcd13ifvqfb0","pricing_plan_id":"cebpf4jnsgd1na2vs0mg"},{"bike_id":"473e7f69-ee4e-4079-b276-de69af6c6a7a","system_id":"levelo_inurba_marseille","lat":43.31495,"lon":5.37298,"is_reserved":false,"is_disabled":false,"rental_uris":{"android":"levelo://app?vid=473e7f69-ee4e-4079-b276-de69af6c6a7a","ios":"levelo://app?vid=473e7f69-ee4e-4079-b276-de69af6c6a7a"},"vehicle_type_id":"4","last_reported":1738660148,"current_range_meters":16800,"station_id":"ce4bgt12rcd13ifvqcd0","pricing_plan_id":"cebpf4jnsgd1na2vs0mg"},{"bike_id":"4aa6a979-835f-4210-a405-64607276413b","system_id":"levelo_inurba_marseille","lat":43.24059,"lon":5.37772,"is_reserved":false,"is_disabled":false,"rental_uris":{"android":"levelo://app?vid=4aa6a979-835f-4210-a405-64607276413b","ios":"levelo://app?vid=4aa6a979-835f-4210-a405-64607276413b"},"vehicle_type_id":"4","last_reported":1738660148,"current_range_meters":38400,"station_id":"ce4bhnp2rcd13ifvqgvg","pricing_plan_id":"cebpf4jnsgd1na2vs0mg"},{"bike_id":"cb360eae-9e0a-4706-ac77-865a26f70022","system_id":"levelo_inurba_marseille","lat":43.23131,"lon":5.43729,"is_reserved":false,"is_disabled":false,"rental_uris":{"android":"levelo://app?vid=cb360eae-9e0a-4706-ac77-865a26f70022","ios":"levelo://app?vid=cb360eae-9e0a-4706-ac77-865a26f70022"},"vehicle_type_id":"4","last_reported":1738660148,"current_range_meters":8800,"station_id":"ce4bhmp2rcd13ifvqgog","pricing_plan_id":"cebpf4jnsgd1na2vs0mg"},{"bike_id":"35798297-b936-47d1-8a98-bfdb50e14c75","system_id":"levelo_inurba_marseille","lat":43.32077,"lon":5.4331,"is_reserved":false,"is_disabled":true,"rental_uris":{"android":"levelo://app?vid=35798297-b936-47d1-8a98-bfdb50e14c75","ios":"levelo://app?vid=35798297-b936-47d1-8a98-bfdb50e14c75"},"vehicle_type_id":"4","last_reported":1738660148,"current_range_meters":38000,"station_id":"","pricing_plan_id":"cebpf4jnsgd1na2vs0mg"},{"bike_id":"c3066916-eed2-4635-b496-6709235f4164","system_id":"levelo_inurba_marseille","lat":43.25,"lon":5.38961,"is_reserved":false,"is_disabled":false,"rental_uris":{"android":"levelo://app?vid=c3066916-eed2-4635-b496-6709235f4164","ios":"levelo://app?vid=c3066916-eed2-4635-b496-6709235f4164"},"vehicle_type_id":"4","last_reported":1738660148,"current_range_meters":38800,"station_id":"ce4bhgp2rcd13ifvqfd0","pricing_plan_id":"cebpf4jnsgd1na2vs0mg"},{"bike_id":"417b228d-71a2-4d40-9514-91dba2be9f7a","system_id":"levelo_inurba_marseille","lat":43.28482,"lon":5.38556,"is_reserved":false,"is_disabled":true,"rental_uris":{"android":"levelo://app?vid=417b228d-71a2-4d40-9514-91dba2be9f7a","ios":"levelo://app?vid=417b228d-71a2-4d40-9514-91dba2be9f7a"},"vehicle_type_id":"4","last_reported":1738660148,"current_range_meters":37600,"station_id":"ce4bh8p2rcd13ifvqeb0","pricing_plan_id":"cebpf4jnsgd1na2vs0mg"},{"bike_id":"e6dc612f-7f56-4634-8aac-2cfefb7b3910","system_id":"levelo_inurba_marseille","lat":43.28263,"lon":5.35079,"is_reserved":false,"is_disabled":true,"rental_uris":{"android":"levelo://app?vid=e6dc612f-7f56-4634-8aac-2cfefb7b3910","ios":"levelo://app?vid=e6dc612f-7f56-4634-8aac-2cfefb7b3910"},"vehicle_type_id":"4","last_reported":1738660148,"current_range_meters":32400,"station_id":"ce4bhbp2rcd13ifvqerg","pricing_plan_id":"cebpf4jnsgd1na2vs0mg"},{"bike_id":"fa48af50-f7f8-463b-8073-011bea7848cf","system_id":"levelo_inurba_marseille","lat":43.26949,"lon":5.40255,"is_reserved":false,"is_disabled":false,"rental_uris":{"android":"levelo://app?vid=fa48af50-f7f8-463b-8073-011bea7848cf","ios":"levelo://app?vid=fa48af50-f7f8-463b-8073-011bea7848cf"},"vehicle_type_id":"4","last_reported":1738660148,"current_range_meters":32800,"station_id":"cjm6bp8fraef2m0cb0m0","pricing_plan_id":"cebpf4jnsgd1na2vs0mg"},{"bike_id":"4d733ec9-15bf-4046-97a4-0956ab830084","system_id":"levelo_inurba_marseille","lat":43.26937,"lon":5.40319,"is_reserved":false,"is_disabled":true,"rental_uris":{"android":"levelo://app?vid=4d733ec9-15bf-4046-97a4-0956ab830084","ios":"levelo://app?vid=4d733ec9-15bf-4046-97a4-0956ab830084"},"vehicle_type_id":"4","last_reported":1738660148,"current_range_meters":10800,"station_id":"cjm6bp8fraef2m0cb0m0","pricing_plan_id":"cebpf4jnsgd1na2vs0mg"},{"bike_id":"cd65a618-318e-432f-958e-701a50dd9da8","system_id":"levelo_inurba_marseille","lat":43.2792,"lon":5.39572,"is_reserved":false,"is_disabled":false,"rental_uris":{"android":"levelo://app?vid=cd65a618-318e-432f-958e-701a50dd9da8","ios":"levelo://app?vid=cd65a618-318e-432f-958e-701a50dd9da8"},"vehicle_type_id":"4","last_reported":1738660148,"current_range_meters":3200,"station_id":"ce4bhf92rcd13ifvqf40","pricing_plan_id":"cebpf4jnsgd1na2vs0mg"},{"bike_id":"7bbd1ca9-5cb4-4750-a3f0-60560373cbff","system_id":"levelo_inurba_marseille","lat":43.254929,"lon":5.376498,"is_reserved":false,"is_disabled":false,"rental_uris":{"android":"levelo://app?vid=7bbd1ca9-5cb4-4750-a3f0-60560373cbff","ios":"levelo://app?vid=7bbd1ca9-5cb4-4750-a3f0-60560373cbff"},"vehicle_type_id":"4","last_reported":1738660148,"current_range_meters":38000,"station_id":"ce4bhh12rcd13ifvqff0","pricing_plan_id":"cebpf4jnsgd1na2vs0mg"},{"bike_id":"ced4ffb8-3665-4c2d-9a00-6773512ca7e0","system_id":"levelo_inurba_marseille","lat":43.29279,"lon":5.38435,"is_reserved":false,"is_disabled":true,"rental_uris":{"android":"levelo://app?vid=ced4ffb8-3665-4c2d-9a00-6773512ca7e0","ios":"levelo://app?vid=ced4ffb8-3665-4c2d-9a00-6773512ca7e0"},"vehicle_type_id":"4","last_reported":1738660148,"current_range_meters":0,"station_id":"ce4bh692rcd13ifvqea0","pricing_plan_id":"cebpf4jnsgd1na2vs0mg"},{"bike_id":"b33a36d4-9a6c-4b95-8224-aed4770c4627","system_id":"levelo_inurba_marseille","lat":43.27492,"lon":5.42452,"is_reserved":false,"is_disabled":false,"rental_uris":{"android":"levelo://app?vid=b33a36d4-9a6c-4b95-8224-aed4770c4627","ios":"levelo://app?vid=b33a36d4-9a6c-4b95-8224-aed4770c4627"},"vehicle_type_id":"4","last_reported":1738660148,"current_range_meters":6800,"station_id":"ce4bhn92rcd13ifvqgrg","pricing_plan_id":"cebpf4jnsgd1na2vs0mg"},{"bike_id":"070f0b27-0b2f-4f16-aced-78655828d7b9","system_id":"levelo_inurba_marseille","lat":43.27489,"lon":5.42452,"is_reserved":false,"is_disabled":false,"rental_uris":{"android":"levelo://app?vid=070f0b27-0b2f-4f16-aced-78655828d7b9","ios":"levelo://app?vid=070f0b27-0b2f-4f16-aced-78655828d7b9"},"vehicle_type_id":"4","last_reported":1738660148,"current_range_meters":27200,"station_id":"ce4bhn92rcd13ifvqgrg","pricing_plan_id":"cebpf4jnsgd1na2vs0mg"},{"bike_id":"fe41941b-58f5-45d9-9c8a-423baed09821","system_id":"levelo_inurba_marseille","lat":43.27296,"lon":5.39104,"is_reserved":false,"is_disabled":false,"rental_uris":{"android":"levelo://app?vid=fe41941b-58f5-45d9-9c8a-423baed09821","ios":"levelo://app?vid=fe41941b-58f5-45d9-9c8a-423baed09821"},"vehicle_type_id":"4","last_reported":1738660148,"current_range_meters":38800,"station_id":"ce4bhgp2rcd13ifvqfe0","pricing_plan_id":"cebpf4jnsgd1na2vs0mg"},{"bike_id":"0c5c15e8-0295-4742-9ba3-07d5adfcbe05","system_id":"levelo_inurba_marseille","lat":43.25949,"lon":5.40903,"is_reserved":false,"is_disabled":false,"rental_uris":{"android":"levelo://app?vid=0c5c15e8-0295-4742-9ba3-07d5adfcbe05","ios":"levelo://app?vid=0c5c15e8-0295-4742-9ba3-07d5adfcbe05"},"vehicle_type_id":"4","last_reported":1738660148,"current_range_meters":30000,"station_id":"ce4bhm92rcd13ifvqglg","pricing_plan_id":"cebpf4jnsgd1na2vs0mg"},{"bike_id":"a8c55296-bae2-418d-9ff0-fa424815879b","system_id":"levelo_inurba_marseille","lat":43.31353,"lon":5.367,"is_reserved":false,"is_disabled":false,"rental_uris":{"android":"levelo://app?vid=a8c55296-bae2-418d-9ff0-fa424815879b","ios":"levelo://app?vid=a8c55296-bae2-418d-9ff0-fa424815879b"},"vehicle_type_id":"4","last_reported":1738660148,"current_range_meters":14000,"station_id":"ce4bgr92rcd13ifvqc6g","pricing_plan_id":"cebpf4jnsgd1na2vs0mg"},{"bike_id":"6bb18b6b-35db-4080-8375-2a2e83c6fc4b","system_id":"levelo_inurba_marseille","lat":43.23149,"lon":5.43732,"is_reserved":false,"is_disabled":true,"rental_uris":{"android":"levelo://app?vid=6bb18b6b-35db-4080-8375-2a2e83c6fc4b","ios":"levelo://app?vid=6bb18b6b-35db-4080-8375-2a2e83c6fc4b"},"vehicle_type_id":"4","last_reported":1738660148,"current_range_meters":38400,"station_id":"ce4bhmp2rcd13ifvqgog","pricing_plan_id":"cebpf4jnsgd1na2vs0mg"},{"bike_id":"9aa042c6-a8d6-4170-a3a5-8bca951b8e14","system_id":"levelo_inurba_marseille","lat":43.29545,"lon":5.39388,"is_reserved":false,"is_disabled":false,"rental_uris":{"android":"levelo://app?vid=9aa042c6-a8d6-4170-a3a5-8bca951b8e14","ios":"levelo://app?vid=9aa042c6-a8d6-4170-a3a5-8bca951b8e14"},"vehicle_type_id":"4","last_reported":1738660148,"current_range_meters":15200,"station_id":"ce4bh292rcd13ifvqdf0","pricing_plan_id":"cebpf4jnsgd1na2vs0mg"},{"bike_id":"752349b0-989f-416f-93e1-78e34c5f1122","system_id":"levelo_inurba_marseille","lat":43.26783,"lon":5.39417,"is_reserved":false,"is_disabled":false,"rental_uris":{"android":"levelo://app?vid=752349b0-989f-416f-93e1-78e34c5f1122","ios":"levelo://app?vid=752349b0-989f-416f-93e1-78e34c5f1122"},"vehicle_type_id":"4","last_reported":1738660148,"current_range_meters":29600,"station_id":"ce4bhh12rcd13ifvqfg0","pricing_plan_id":"cebpf4jnsgd1na2vs0mg"},{"bike_id":"787b7837-f258-4886-bbf5-841ee39c0166","system_id":"levelo_inurba_marseille","lat":43.28266,"lon":5.35096,"is_reserved":false,"is_disabled":true,"rental_uris":{"android":"levelo://app?vid=787b7837-f258-4886-bbf5-841ee39c0166","ios":"levelo://app?vid=787b7837-f258-4886-bbf5-841ee39c0166"},"vehicle_type_id":"4","last_reported":1738660148,"current_range_meters":37600,"station_id":"ce4bhbp2rcd13ifvqerg","pricing_plan_id":"cebpf4jnsgd1na2vs0mg"},{"bike_id":"35e9be92-813b-4a24-804a-34341a2b466d","system_id":"levelo_inurba_marseille","lat":43.2648,"lon":5.39559,"is_reserved":false,"is_disabled":false,"rental_uris":{"android":"levelo://app?vid=35e9be92-813b-4a24-804a-34341a2b466d","ios":"levelo://app?vid=35e9be92-813b-4a24-804a-34341a2b466d"},"vehicle_type_id":"4","last_reported":1738660148,"current_range_meters":38800,"station_id":"ce4bhi12rcd13ifvqfq0","pricing_plan_id":"cebpf4jnsgd1na2vs0mg"},{"bike_id":"2726d875-1d0b-4730-b675-cd20129246db","system_id":"levelo_inurba_marseille","lat":43.25931,"lon":5.40901,"is_reserved":false,"is_disabled":false,"rental_uris":{"android":"levelo://app?vid=2726d875-1d0b-4730-b675-cd20129246db","ios":"levelo://app?vid=2726d875-1d0b-4730-b675-cd20129246db"},"vehicle_type_id":"4","last_reported":1738660148,"current_range_meters":15200,"station_id":"ce4bhm92rcd13ifvqglg","pricing_plan_id":"cebpf4jnsgd1na2vs0mg"},{"bike_id":"ae267bd0-c59d-4391-89aa-e0ebc24995ca","system_id":"levelo_inurba_marseille","lat":43.30909,"lon":5.36848,"is_reserved":false,"is_disabled":false,"rental_uris":{"android":"levelo://app?vid=ae267bd0-c59d-4391-89aa-e0ebc24995ca","ios":"levelo://app?vid=ae267bd0-c59d-4391-89aa-e0ebc24995ca"},"vehicle_type_id":"4","last_reported":1738660148,"current_range_meters":4800,"station_id":"ce4bgn92rcd13ifvqbvg","pricing_plan_id":"cebpf4jnsgd1na2vs0mg"},{"bike_id":"d42ab506-242e-49de-93ba-15e047f78824","system_id":"levelo_inurba_marseille","lat":43.29846,"lon":5.36262,"is_reserved":false,"is_disabled":false,"rental_uris":{"android":"levelo://app?vid=d42ab506-242e-49de-93ba-15e047f78824","ios":"levelo://app?vid=d42ab506-242e-49de-93ba-15e047f78824"},"vehicle_type_id":"4","last_reported":1738660148,"current_range_meters":38400,"station_id":"ce4bgpp2rcd13ifvqc3g","pricing_plan_id":"cebpf4jnsgd1na2vs0mg"},{"bike_id":"ec18b12a-8427-47cf-8e4a-de725000bb9a","system_id":"levelo_inurba_marseille","lat":43.30891,"lon":5.37208,"is_reserved":false,"is_disabled":false,"rental_uris":{"android":"levelo://app?vid=ec18b12a-8427-47cf-8e4a-de725000bb9a","ios":"levelo://app?vid=ec18b12a-8427-47cf-8e4a-de725000bb9a"},"vehicle_type_id":"4","last_reported":1738660148,"current_range_meters":32000,"station_id":"ce4bguh2rcd13ifvqckg","pricing_plan_id":"cebpf4jnsgd1na2vs0mg"},{"bike_id":"98c5fa24-0abc-41cc-a36e-b6c167cfaced","system_id":"levelo_inurba_marseille","lat":43.32286,"lon":5.38252,"is_reserved":false,"is_disabled":false,"rental_uris":{"android":"levelo://app?vid=98c5fa24-0abc-41cc-a36e-b6c167cfaced","ios":"levelo://app?vid=98c5fa24-0abc-41cc-a36e-b6c167cfaced"},"vehicle_type_id":"4","last_reported":1738660148,"current_range_meters":38000,"station_id":"ce4bhr12rcd13ifvqhqg","pricing_plan_id":"cebpf4jnsgd1na2vs0mg"},{"bike_id":"f347bf25-8784-4cc3-8194-4b683ae1ad0e","system_id":"levelo_inurba_marseille","lat":43.30314,"lon":5.36899,"is_reserved":false,"is_disabled":false,"rental_uris":{"android":"levelo://app?vid=f347bf25-8784-4cc3-8194-4b683ae1ad0e","ios":"levelo://app?vid=f347bf25-8784-4cc3-8194-4b683ae1ad0e"},"vehicle_type_id":"4","last_reported":1738660148,"current_range_meters":30000,"station_id":"ce4bgqh2rcd13ifvqc5g","pricing_plan_id":"cebpf4jnsgd1na2vs0mg"},{"bike_id":"eac8e106-76e0-4f1b-81af-4eaefecd2501","system_id":"levelo_inurba_marseille","lat":43.25005,"lon":5.3892,"is_reserved":false,"is_disabled":false,"rental_uris":{"android":"levelo://app?vid=eac8e106-76e0-4f1b-81af-4eaefecd2501","ios":"levelo://app?vid=eac8e106-76e0-4f1b-81af-4eaefecd2501"},"vehicle_type_id":"4","last_reported":1738660148,"current_range_meters":16800,"station_id":"ce4bhgp2rcd13ifvqfd0","pricing_plan_id":"cebpf4jnsgd1na2vs0mg"},{"bike_id":"c27cab57-1735-45df-9da6-6b95eed414b5","system_id":"levelo_inurba_marseille","lat":43.30953,"lon":5.39048,"is_reserved":false,"is_disabled":false,"rental_uris":{"android":"levelo://app?vid=c27cab57-1735-45df-9da6-6b95eed414b5","ios":"levelo://app?vid=c27cab57-1735-45df-9da6-6b95eed414b5"},"vehicle_type_id":"4","last_reported":1738660148,"current_range_meters":36400,"station_id":"ce4bgup2rcd13ifvqco0","pricing_plan_id":"cebpf4jnsgd1na2vs0mg"},{"bike_id":"31fd5316-6699-4a20-a1ec-d33428eaf5e7","system_id":"levelo_inurba_marseille","lat":43.30523,"lon":5.36703,"is_reserved":false,"is_disabled":false,"rental_uris":{"android":"levelo://app?vid=31fd5316-6699-4a20-a1ec-d33428eaf5e7","ios":"levelo://app?vid=31fd5316-6699-4a20-a1ec-d33428eaf5e7"},"vehicle_type_id":"4","last_reported":1738660148,"current_range_meters":27200,"station_id":"ce4bgrp2rcd13ifvqc9g","pricing_plan_id":"cebpf4jnsgd1na2vs0mg"},{"bike_id":"25f2077a-d569-4e6a-93b0-8c971d939cf0","system_id":"levelo_inurba_marseille","lat":43.27057,"lon":5.40265,"is_reserved":false,"is_disabled":true,"rental_uris":{"android":"levelo://app?vid=25f2077a-d569-4e6a-93b0-8c971d939cf0","ios":"levelo://app?vid=25f2077a-d569-4e6a-93b0-8c971d939cf0"},"vehicle_type_id":"4","last_reported":1738660148,"current_range_meters":1600,"station_id":"ce4bhk92rcd13ifvqgc0","pricing_plan_id":"cebpf4jnsgd1na2vs0mg"},{"bike_id":"18a2d958-64d1-4688-9340-ff6689aae0f0","system_id":"levelo_inurba_marseille","lat":43.29194,"lon":5.35794,"is_reserved":false,"is_disabled":false,"rental_uris":{"android":"levelo://app?vid=18a2d958-64d1-4688-9340-ff6689aae0f0","ios":"levelo://app?vid=18a2d958-64d1-4688-9340-ff6689aae0f0"},"vehicle_type_id":"4","last_reported":1738660148,"current_range_meters":38000,"station_id":"ce4bhb12rcd13ifvqel0","pricing_plan_id":"cebpf4jnsgd1na2vs0mg"},{"bike_id":"22908000-91e9-4bda-b347-ec63bc7ce632","system_id":"levelo_inurba_marseille","lat":43.2695,"lon":5.38629,"is_reserved":false,"is_disabled":false,"rental_uris":{"android":"levelo://app?vid=22908000-91e9-4bda-b347-ec63bc7ce632","ios":"levelo://app?vid=22908000-91e9-4bda-b347-ec63bc7ce632"},"vehicle_type_id":"4","last_reported":1738660148,"current_range_meters":32400,"station_id":"ce4bhh92rcd13ifvqfh0","pricing_plan_id":"cebpf4jnsgd1na2vs0mg"},{"bike_id":"61ceb31b-03f6-4213-9b34-0374ee45b479","system_id":"levelo_inurba_marseille","lat":43.32109,"lon":5.368,"is_reserved":false,"is_disabled":false,"rental_uris":{"android":"levelo://app?vid=61ceb31b-03f6-4213-9b34-0374ee45b479","ios":"levelo://app?vid=61ceb31b-03f6-4213-9b34-0374ee45b479"},"vehicle_type_id":"4","last_reported":1738660148,"current_range_meters":25200,"station_id":"ce4bhrh2rcd13ifvqhug","pricing_plan_id":"cebpf4jnsgd1na2vs0mg"},{"bike_id":"67e0b101-f1a3-4b4e-9684-12f90f2d31e6","system_id":"levelo_inurba_marseille","lat":43.30175,"lon":5.38078,"is_reserved":false,"is_disabled":false,"rental_uris":{"android":"levelo://app?vid=67e0b101-f1a3-4b4e-9684-12f90f2d31e6","ios":"levelo://app?vid=67e0b101-f1a3-4b4e-9684-12f90f2d31e6"},"vehicle_type_id":"4","last_reported":1738660148,"current_range_meters":38000,"station_id":"ce4bgjp2rcd13ifvqbh0","pricing_plan_id":"cebpf4jnsgd1na2vs0mg"},{"bike_id":"48e64539-c8f0-439b-bcf1-20ae8f537918","system_id":"levelo_inurba_marseille","lat":43.25895,"lon":5.40891,"is_reserved":false,"is_disabled":false,"rental_uris":{"android":"levelo://app?vid=48e64539-c8f0-439b-bcf1-20ae8f537918","ios":"levelo://app?vid=48e64539-c8f0-439b-bcf1-20ae8f537918"},"vehicle_type_id":"4","last_reported":1738660148,"current_range_meters":25600,"station_id":"ce4bhm92rcd13ifvqglg","pricing_plan_id":"cebpf4jnsgd1na2vs0mg"},{"bike_id":"5bc6287f-5ed6-4b7e-a064-4a574b583e66","system_id":"levelo_inurba_marseille","lat":43.30118,"lon":5.37455,"is_reserved":false,"is_disabled":false,"rental_uris":{"android":"levelo://app?vid=5bc6287f-5ed6-4b7e-a064-4a574b583e66","ios":"levelo://app?vid=5bc6287f-5ed6-4b7e-a064-4a574b583e66"},"vehicle_type_id":"4","last_reported":1738660148,"current_range_meters":27200,"station_id":"ce4bgs92rcd13ifvqcc0","pricing_plan_id":"cebpf4jnsgd1na2vs0mg"},{"bike_id":"aca7f856-95b0-4e97-8a0a-cf9d567272bd","system_id":"levelo_inurba_marseille","lat":43.23051,"lon":5.35513,"is_reserved":false,"is_disabled":false,"rental_uris":{"android":"levelo://app?vid=aca7f856-95b0-4e97-8a0a-cf9d567272bd","ios":"levelo://app?vid=aca7f856-95b0-4e97-8a0a-cf9d567272bd"},"vehicle_type_id":"4","last_reported":1738660148,"current_range_meters":34000,"station_id":"cpo3342slgdg3j2ifvpg","pricing_plan_id":"cebpf4jnsgd1na2vs0mg"},{"bike_id":"6e06bbc5-6936-46d6-a6ab-da55bda256f2","system_id":"levelo_inurba_marseille","lat":43.29167,"lon":5.37149,"is_reserved":false,"is_disabled":false,"rental_uris":{"android":"levelo://app?vid=6e06bbc5-6936-46d6-a6ab-da55bda256f2","ios":"levelo://app?vid=6e06bbc5-6936-46d6-a6ab-da55bda256f2"},"vehicle_type_id":"4","last_reported":1738660148,"current_range_meters":30000,"station_id":"ce4bha92rcd13ifvqeh0","pricing_plan_id":"cebpf4jnsgd1na2vs0mg"},{"bike_id":"9d9e6714-036c-4151-8a5d-515ad00cd54b","system_id":"levelo_inurba_marseille","lat":43.22921,"lon":5.35375,"is_reserved":false,"is_disabled":false,"rental_uris":{"android":"levelo://app?vid=9d9e6714-036c-4151-8a5d-515ad00cd54b","ios":"levelo://app?vid=9d9e6714-036c-4151-8a5d-515ad00cd54b"},"vehicle_type_id":"4","last_reported":1738660148,"current_range_meters":17600,"station_id":"cpo3532slgdg3j2ikp40","pricing_plan_id":"cebpf4jnsgd1na2vs0mg"},{"bike_id":"ccd879e3-fbb4-4bbd-9c01-d06277293c4b","system_id":"levelo_inurba_marseille","lat":43.26195,"lon":5.37949,"is_reserved":false,"is_disabled":true,"rental_uris":{"android":"levelo://app?vid=ccd879e3-fbb4-4bbd-9c01-d06277293c4b","ios":"levelo://app?vid=ccd879e3-fbb4-4bbd-9c01-d06277293c4b"},"vehicle_type_id":"4","last_reported":1738660148,"current_range_meters":30000,"station_id":"ce4bhjp2rcd13ifvqg90","pricing_plan_id":"cebpf4jnsgd1na2vs0mg"},{"bike_id":"40bdcfb2-751b-4558-b6d4-3ac74ace0aab","system_id":"levelo_inurba_marseille","lat":43.32079,"lon":5.36814,"is_reserved":false,"is_disabled":true,"rental_uris":{"android":"levelo://app?vid=40bdcfb2-751b-4558-b6d4-3ac74ace0aab","ios":"levelo://app?vid=40bdcfb2-751b-4558-b6d4-3ac74ace0aab"},"vehicle_type_id":"4","last_reported":1738660148,"current_range_meters":31200,"station_id":"ce4bhrh2rcd13ifvqhug","pricing_plan_id":"cebpf4jnsgd1na2vs0mg"},{"bike_id":"0dfb61a9-4673-401e-bfb4-e8e9b30d9f64","system_id":"levelo_inurba_marseille","lat":43.30114,"lon":5.39865,"is_reserved":false,"is_disabled":true,"rental_uris":{"android":"levelo://app?vid=0dfb61a9-4673-401e-bfb4-e8e9b30d9f64","ios":"levelo://app?vid=0dfb61a9-4673-401e-bfb4-e8e9b30d9f64"},"vehicle_type_id":"4","last_reported":1738660148,"current_range_meters":37600,"station_id":"ce4bh0h2rcd13ifvqd40","pricing_plan_id":"cebpf4jnsgd1na2vs0mg"},{"bike_id":"483b7b5c-21d2-4032-a869-8ee330a26a01","system_id":"levelo_inurba_marseille","lat":43.2956,"lon":5.3753,"is_reserved":false,"is_disabled":false,"rental_uris":{"android":"levelo://app?vid=483b7b5c-21d2-4032-a869-8ee330a26a01","ios":"levelo://app?vid=483b7b5c-21d2-4032-a869-8ee330a26a01"},"vehicle_type_id":"4","last_reported":1738660148,"current_range_meters":36000,"station_id":"ce4bgh92rcd13ifvqb50","pricing_plan_id":"cebpf4jnsgd1na2vs0mg"},