{"last_updated":1744916874,"ttl":60,"version":"2.2","data":{"bikes":[{"bike_id":"3b9a2161-8fe4-4803-95d9-9451e8d7c8ec","system_id":"levelo_inurba_marseille","lat":43.28103,"lon":5.37843,"is_reserved":false,"is_disabled":false,"rental_uris":{"android":"levelo://app?vid=3b9a2161-8fe4-4803-95d9-9451e8d7c8ec","ios":"levelo://app?vid=3b9a2161-8fe4-4803-95d9-9451e8d7c8ec"},"vehicle_type_id":"4","last_reported":1744916874,"current_range_meters":3200,"station_id":"ce4bha12rcd13ifvqee0","pricing_plan_id":"cebpf4jnsgd1na2vs0mg"},{"bike_id":"7e631608-a9a0-4e86-92bb-21916d4e6e57","system_id":"levelo_inurba_marseille","lat":43.28445,"lon":5.3916,"is_reserved":false,"is_disabled":false,"rental_uris":{"android":"levelo://app?vid=7e631608-a9a0-4e86-92bb-21916d4e6e57","ios":"levelo://app?vid=7e631608-a9a0-4e86-92bb-21916d4e6e57"},"vehicle_type_id":"4","last_reported":1744916874,"current_range_meters":3600,"station_id":"ce4bhoh2rcd13ifvqh5g","pricing_plan_id":"cebpf4jnsgd1na2vs0mg"},{"bike_id":"3dc7b70d-4ee7-42b5-97ae-61c93ff28d0c","system_id":"levelo_inurba_marseille","lat":43.286922,"lon":5.399889,"is_reserved":false,"is_disabled":false,"rental_uris":{"android":"levelo://app?vid=3dc7b70d-4ee7-42b5-97ae-61c93ff28d0c","ios":"levelo://app?vid=3dc7b70d-4ee7-42b5-97ae-61c93ff28d0c"},"vehicle_type_id":"4","last_reported":1744916874,"current_range_meters":3600,"station_id":"ce4bhh92rcd13ifvqfi0","pricing_plan_id":"cebpf4jnsgd1na2vs0mg"},{"bike_id":"77eb4654-1d9d-4978-a1fd-fdf898e44c68","system_id":"levelo_inurba_marseille","lat":43.30885,"lon":5.39669,"is_reserved":false,"is_disabled":false,"rental_uris":{"android":"levelo://app?vid=77eb4654-1d9d-4978-a1fd-fdf898e44c68","ios":"levelo://app?vid=77eb4654-1d9d-4978-a1fd-fdf898e44c68"},"vehicle_type_id":"4","last_reported":1744916874,"current_range_meters":9200,"station_id":"ce4bh012rcd13ifvqcv0","pricing_plan_id":"cebpf4jnsgd1na2vs0mg"},{"bike_id":"b8300a9f-3d51-4493-9e03-61a5f20f689d","system_id":"levelo_inurba_marseille","lat":43.30433,"lon":5.38884,"is_reserved":false,"is_disabled":false,"rental_uris":{"android":"levelo://app?vid=b8300a9f-3d51-4493-9e03-61a5f20f689d","ios":"levelo://app?vid=b8300a9f-3d51-4493-9e03-61a5f20f689d"},"vehicle_type_id":"4","last_reported":1744916874,"current_range_meters":4400,"station_id":"ce4bgk12rcd13ifvqbi0","pricing_plan_id":"cebpf4jnsgd1na2vs0mg"},{"bike_id":"606b8ccd-afda-47ae-acaf-0e7a14555463","system_id":"levelo_inurba_marseille","lat":43.29425,"lon":5.38612,"is_reserved":false,"is_disabled":false,"rental_uris":{"android":"levelo://app?vid=606b8ccd-afda-47ae-acaf-0e7a14555463","ios":"levelo://app?vid=606b8ccd-afda-47ae-acaf-0e7a14555463"},"vehicle_type_id":"4","last_reported":1744916874,"current_range_meters":4800,"station_id":"ce4bh2h2rcd13ifvqdh0","pricing_plan_id":"cebpf4jnsgd1na2vs0mg"},{"bike_id":"140e6f02-cbe3-452d-9726-d2f98a03e8a9","system_id":"levelo_inurba_marseille","lat":43.29266,"lon":5.3844,"is_reserved":false,"is_disabled":false,"rental_uris":{"android":"levelo://app?vid=140e6f02-cbe3-452d-9726-d2f98a03e8a9","ios":"levelo://app?vid=140e6f02-cbe3-452d-9726-d2f98a03e8a9"},"vehicle_type_id":"4","last_reported":1744916874,"current_range_meters":4800,"station_id":"ce4bh692rcd13ifvqea0","pricing_plan_id":"cebpf4jnsgd1na2vs0mg"},{"bike_id":"a63f3815-2bac-426b-9257-34bcced5c397","system_id":"levelo_inurba_marseille","lat":43.29255,"lon":5.40905,"is_reserved":false,"is_disabled":false,"rental_uris":{"android":"levelo://app?vid=a63f3815-2bac-426b-9257-34bcced5c397","ios":"levelo://app?vid=a63f3815-2bac-426b-9257-34bcced5c397"},"vehicle_type_id":"4","last_reported":1744916874,"current_range_meters":6000,"station_id":"ce4bh192rcd13ifvqdc0","pricing_plan_id":"cebpf4jnsgd1na2vs0mg"},{"bike_id":"5c37c543-52ea-4ca0-b815-01718a2d50c7","system_id":"levelo_inurba_marseille","lat":43.27916,"lon":5.3958,"is_reserved":false,"is_disabled":true,"rental_uris":{"android":"levelo://app?vid=5c37c543-52ea-4ca0-b815-01718a2d50c7","ios":"levelo://app?vid=5c37c543-52ea-4ca0-b815-01718a2d50c7"},"vehicle_type_id":"4","last_reported":1744916874,"current_range_meters":5600,"station_id":"ce4bhf92rcd13ifvqf40","pricing_plan_id":"cebpf4jnsgd1na2vs0mg"},{"bike_id":"94f97108-b7ab-4aa0-8a0d-41d0f2d1b3ca","system_id":"levelo_inurba_marseille","lat":43.30131,"lon":5.37428,"is_reserved":false,"is_disabled":false,"rental_uris":{"android":"levelo://app?vid=94f97108-b7ab-4aa0-8a0d-41d0f2d1b3ca","ios":"levelo://app?vid=94f97108-b7ab-4aa0-8a0d-41d0f2d1b3ca"},"vehicle_type_id":"4","last_reported":1744916874,"current_range_meters":6000,"station_id":"ce4bgs92rcd13ifvqcc0","pricing_plan_id":"cebpf4jnsgd1na2vs0mg"},{"bike_id":"47d772b1-a0b8-4e08-873c-ce7a23c259a0","system_id":"levelo_inurba_marseille","lat":43.30948,"lon":5.39027,"is_reserved":false,"is_disabled":false,"rental_uris":{"android":"levelo://app?vid=47d772b1-a0b8-4e08-873c-ce7a23c259a0","ios":"levelo://app?vid=47d772b1-a0b8-4e08-873c-ce7a23c259a0"},"vehicle_type_id":"4","last_reported":1744916874,"current_range_meters":6000,"station_id":"ce4bgup2rcd13ifvqco0","pricing_plan_id":"cebpf4jnsgd1na2vs0mg"},{"bike_id":"6fa125ed-e3dd-4f9c-93d3-cb2e8b07922e","system_id":"levelo_inurba_marseille","lat":43.3032,"lon":5.40451,"is_reserved":false,"is_disabled":false,"rental_uris":{"android":"levelo://app?vid=6fa125ed-e3dd-4f9c-93d3-cb2e8b07922e","ios":"levelo://app?vid=6fa125ed-e3dd-4f9c-93d3-cb2e8b07922e"},"vehicle_type_id":"4","last_reported":1744916874,"current_range_meters":6000,"station_id":"ce4bh012rcd13ifvqd10","pricing_plan_id":"cebpf4jnsgd1na2vs0mg"},{"bike_id":"df1c338c-dda5-405a-8c7a-0657844eea6b","system_id":"levelo_inurba_marseille","lat":43.29526,"lon":5.38533,"is_reserved":false,"is_disabled":false,"rental_uris":{"android":"levelo://app?vid=df1c338c-dda5-405a-8c7a-0657844eea6b","ios":"levelo://app?vid=df1c338c-dda5-405a-8c7a-0657844eea6b"},"vehicle_type_id":"4","last_reported":1744916874,"current_range_meters":6400,"station_id":"ce4bgih2rcd13ifvqba0","pricing_plan_id":"cebpf4jnsgd1na2vs0mg"},{"bike_id":"6e6a72e9-7ed5-4a6c-a732-77c41f63d352","system_id":"levelo_inurba_marseille","lat":43.29198,"lon":5.35812,"is_reserved":false,"is_disabled":false,"rental_uris":{"android":"levelo://app?vid=6e6a72e9-7ed5-4a6c-a732-77c41f63d352","ios":"levelo://app?vid=6e6a72e9-7ed5-4a6c-a732-77c41f63d352"},"vehicle_type_id":"4","last_reported":1744916874,"current_range_meters":6400,"station_id":"ce4bhb12rcd13ifvqel0","pricing_plan_id":"cebpf4jnsgd1na2vs0mg"},{"bike_id":"8e9c4503-50a8-4cdf-80dc-4a40c400558e","system_id":"levelo_inurba_marseille","lat":43.29414,"lon":5.3864,"is_reserved":false,"is_disabled":false,"rental_uris":{"android":"levelo://app?vid=8e9c4503-50a8-4cdf-80dc-4a40c400558e","ios":"levelo://app?vid=8e9c4503-50a8-4cdf-80dc-4a40c400558e"},"vehicle_type_id":"4","last_reported":1744916874,"current_range_meters":6800,"station_id":"ce4bh2h2rcd13ifvqdh0","pricing_plan_id":"cebpf4jnsgd1na2vs0mg"},{"bike_id":"b77b53aa-d73c-46e7-ab6f-7e3e42c72a8c","system_id":"levelo_inurba_marseille","lat":43.31333,"lon":5.39708,"is_reserved":false,"is_disabled":false,"rental_uris":{"android":"levelo://app?vid=b77b53aa-d73c-46e7-ab6f-7e3e42c72a8c","ios":"levelo://app?vid=b77b53aa-d73c-46e7-ab6f-7e3e42c72a8c"},"vehicle_type_id":"4","last_reported":1744916874,"current_range_meters":6800,"station_id":"ce4bgvp2rcd13ifvqcu0","pricing_plan_id":"cebpf4jnsgd1na2vs0mg"},{"bike_id":"409a79ab-dcd7-4c74-9be6-a03c63711a18","system_id":"levelo_inurba_marseille","lat":43.28139,"lon":5.4266,"is_reserved":false,"is_disabled":false,"rental_uris":{"android":"levelo://app?vid=409a79ab-dcd7-4c74-9be6-a03c63711a18","ios":"levelo://app?vid=409a79ab-dcd7-4c74-9be6-a03c63711a18"},"vehicle_type_id":"4","last_reported":1744916874,"current_range_meters":6800,"station_id":"ce4bhnh2rcd13ifvqgug","pricing_plan_id":"cebpf4jnsgd1na2vs0mg"},{"bike_id":"521f1214-995a-4f31-aff6-55fa4e584ec5","system_id":"levelo_inurba_marseille","lat":43.283168,"lon":5.381117,"is_reserved":false,"is_disabled":false,"rental_uris":{"android":"levelo://app?vid=521f1214-995a-4f31-aff6-55fa4e584ec5","ios":"levelo://app?vid=521f1214-995a-4f31-aff6-55fa4e584ec5"},"vehicle_type_id":"4","last_reported":1744916874,"current_range_meters":6800,"station_id":"ce4bgr92rcd13ifvqc7g","pricing_plan_id":"cebpf4jnsgd1na2vs0mg"},{"bike_id":"6751eb80-cd31-4da9-bc7e-2bbda342ed49","system_id":"levelo_inurba_marseille","lat":43.28154,"lon":5.42643,"is_reserved":false,"is_disabled":false,"rental_uris":{"android":"levelo://app?vid=6751eb80-cd31-4da9-bc7e-2bbda342ed49","ios":"levelo://app?vid=6751eb80-cd31-4da9-bc7e-2bbda342ed49"},"vehicle_type_id":"4","last_reported":1744916874,"current_range_meters":7200,"station_id":"ce4bhnh2rcd13ifvqgug","pricing_plan_id":"cebpf4jnsgd1na2vs0mg"},{"bike_id":"687c37d6-443d-4c04-91bd-700f69310d00","system_id":"levelo_inurba_marseille","lat":43.2962,"lon":5.37162,"is_reserved":false,"is_disabled":false,"rental_uris":{"android":"levelo://app?vid=687c37d6-443d-4c04-91bd-700f69310d00","ios":"levelo://app?vid=687c37d6-443d-4c04-91bd-700f69310d00"},"vehicle_type_id":"4","last_reported":1744916874,"current_range_meters":6400,"station_id":"ce4bgnh2rcd13ifvqc0g","pricing_plan_id":"cebpf4jnsgd1na2vs0mg"},{"bike_id":"994695a9-98fd-4da6-9191-c96330e6cffb","system_id":"levelo_inurba_marseille","lat":43.21774,"lon":5.34622,"is_reserved":false,"is_disabled":false,"rental_uris":{"android":"levelo://app?vid=994695a9-98fd-4da6-9191-c96330e6cffb","ios":"levelo://app?vid=994695a9-98fd-4da6-9191-c96330e6cffb"},"vehicle_type_id":"4","last_reported":1744916874,"current_range_meters":7200,"station_id":"st_cvj6r9ubvosntc0bgbag","pricing_plan_id":"cebpf4jnsgd1na2vs0mg"},{"bike_id":"8ccdb2db-4207-413d-b8a6-560e131019b4","system_id":"levelo_inurba_marseille","lat":43.27834,"lon":5.39198,"is_reserved":false,"is_disabled":false,"rental_uris":{"android":"levelo://app?vid=8ccdb2db-4207-413d-b8a6-560e131019b4","ios":"levelo://app?vid=8ccdb2db-4207-413d-b8a6-560e131019b4"},"vehicle_type_id":"4","last_reported":1744916874,"current_range_meters":7200,"station_id":"ce4bhjp2rcd13ifvqga0","pricing_plan_id":"cebpf4jnsgd1na2vs0mg"},{"bike_id":"e4dd0c46-f7e9-4972-b5d4-478d2c62968f","system_id":"levelo_inurba_marseille","lat":43.29415,"lon":5.38632,"is_reserved":false,"is_disabled":false,"rental_uris":{"android":"levelo://app?vid=e4dd0c46-f7e9-4972-b5d4-478d2c62968f","ios":"levelo://app?vid=e4dd0c46-f7e9-4972-b5d4-478d2c62968f"},"vehicle_type_id":"4","last_reported":1744916874,"current_range_meters":7200,"station_id":"ce4bh2h2rcd13ifvqdh0","pricing_plan_id":"cebpf4jnsgd1na2vs0mg"},{"bike_id":"2bf412ad-841a-4a08-95fa-dd449d5e140a","system_id":"levelo_inurba_marseille","lat":43.32334,"lon":5.40619,"is_reserved":false,"is_disabled":false,"rental_uris":{"android":"levelo://app?vid=2bf412ad-841a-4a08-95fa-dd449d5e140a","ios":"levelo://app?vid=2bf412ad-841a-4a08-95fa-dd449d5e140a"},"vehicle_type_id":"4","last_reported":1744916874,"current_range_meters":8000,"station_id":"ce4bhq92rcd13ifvqhjg","pricing_plan_id":"cebpf4jnsgd1na2vs0mg"},{"bike_id":"fd70624e-76a4-4256-b7ba-39254eb56b3d","system_id":"levelo_inurba_marseille","lat":43.3043,"lon":5.38892,"is_reserved":false,"is_disabled":false,"rental_uris":{"android":"levelo://app?vid=fd70624e-76a4-4256-b7ba-39254eb56b3d","ios":"levelo://app?vid=fd70624e-76a4-4256-b7ba-39254eb56b3d"},"vehicle_type_id":"4","last_reported":1744916874,"current_range_meters":8000,"station_id":"ce4bgk12rcd13ifvqbi0","pricing_plan_id":"cebpf4jnsgd1na2vs0mg"},{"bike_id":"12d9a8eb-fb98-45c4-b0e1-a6cf77853197","system_id":"levelo_inurba_marseille","lat":43.28267,"lon":5.35072,"is_reserved":false,"is_disabled":false,"rental_uris":{"android":"levelo://app?vid=12d9a8eb-fb98-45c4-b0e1-a6cf77853197","ios":"levelo://app?vid=12d9a8eb-fb98-45c4-b0e1-a6cf77853197"},"vehicle_type_id":"4","last_reported":1744916874,"current_range_meters":7200,"station_id":"ce4bhbp2rcd13ifvqerg","pricing_plan_id":"cebpf4jnsgd1na2vs0mg"},{"bike_id":"2a297b53-e6c9-4a44-8832-a1535085da75","system_id":"levelo_inurba_marseille","lat":43.31992,"lon":5.38171,"is_reserved":false,"is_disabled":true,"rental_uris":{"android":"levelo://app?vid=2a297b53-e6c9-4a44-8832-a1535085da75","ios":"levelo://app?vid=2a297b53-e6c9-4a44-8832-a1535085da75"},"vehicle_type_id":"4","last_reported":1744916874,"current_range_meters":8000,"station_id":"ce4bhr12rcd13ifvqhpg","pricing_plan_id":"cebpf4jnsgd1na2vs0mg"},{"bike_id":"2d08f9ae-0902-4b28-8e95-da788351cebc","system_id":"levelo_inurba_marseille","lat":43.29527,"lon":5.39013,"is_reserved":false,"is_disabled":false,"rental_uris":{"android":"levelo://app?vid=2d08f9ae-0902-4b28-8e95-da788351cebc","ios":"levelo://app?vid=2d08f9ae-0902-4b28-8e95-da788351cebc"},"vehicle_type_id":"4","last_reported":1744916874,"current_range_meters":7200,"station_id":"ce4bh3p2rcd13ifvqdp0","pricing_plan_id":"cebpf4jnsgd1na2vs0mg"},{"bike_id":"a7e6b299-0921-4771-93bb-64f21eb767d0","system_id":"levelo_inurba_marseille","lat":43.261963,"lon":5.379351,"is_reserved":false,"is_disabled":false,"rental_uris":{"android":"levelo://app?vid=a7e6b299-0921-4771-93bb-64f21eb767d0","ios":"levelo://app?vid=a7e6b299-0921-4771-93bb-64f21eb767d0"},"vehicle_type_id":"4","last_reported":1744916874,"current_range_meters":8000,"station_id":"ce4bhjp2rcd13ifvqg90","pricing_plan_id":"cebpf4jnsgd1na2vs0mg"},{"bike_id":"5e6ca147-f495-4f28-9132-1242b28c2bb7","system_id":"levelo_inurba_marseille","lat":43.30322,"lon":5.40431,"is_reserved":false,"is_disabled":false,"rental_uris":{"android":"levelo://app?vid=5e6ca147-f495-4f28-9132-1242b28c2bb7","ios":"levelo://app?vid=5e6ca147-f495-4f28-9132-1242b28c2bb7"},"vehicle_type_id":"4","last_reported":1744916874,"current_range_meters":8000,"station_id":"ce4bh012rcd13ifvqd10","pricing_plan_id":"cebpf4jnsgd1na2vs0mg"},{"bike_id":"d2d1943e-f7f3-46e2-be7a-b2c2377445dc","system_id":"levelo_inurba_marseille","lat":43.2796,"lon":5.387054,"is_reserved":false,"is_disabled":false,"rental_uris":{"android":"levelo://app?vid=d2d1943e-f7f3-46e2-be7a-b2c2377445dc","ios":"levelo://app?vid=d2d1943e-f7f3-46e2-be7a-b2c2377445dc"},"vehicle_type_id":"4","last_reported":1744916874,"current_range_meters":8000,"station_id":"ce4bhg12rcd13ifvqf80","pricing_plan_id":"cebpf4jnsgd1na2vs0mg"},{"bike_id":"ff1f076b-df2d-45a1-bbe8-f93909d4bb45","system_id":"levelo_inurba_marseille","lat":43.29027,"lon":5.38646,"is_reserved":false,"is_disabled":false,"rental_uris":{"android":"levelo://app?vid=ff1f076b-df2d-45a1-bbe8-f93909d4bb45","ios":"levelo://app?vid=ff1f076b-df2d-45a1-bbe8-f93909d4bb45"},"vehicle_type_id":"4","last_reported":1744916874,"current_range_meters":8000,"station_id":"ce4bh4p2rcd13ifvqe0g","pricing_plan_id":"cebpf4jnsgd1na2vs0mg"},{"bike_id":"72823705-7f07-4adb-897d-e1709234e554","system_id":"levelo_inurba_marseille","lat":43.23185,"lon":5.39977,"is_reserved":false,"is_disabled":false,"rental_uris":{"android":"levelo://app?vid=72823705-7f07-4adb-897d-e1709234e554","ios":"levelo://app?vid=72823705-7f07-4adb-897d-e1709234e554"},"vehicle_type_id":"4","last_reported":1744916874,"current_range_meters":8000,"station_id":"ce4bhn12rcd13ifvqgqg","pricing_plan_id":"cebpf4jnsgd1na2vs0mg"},{"bike_id":"2debf4c8-5257-4a3c-bf38-23c1500332bd","system_id":"levelo_inurba_marseille","lat":43.29517,"lon":5.39395,"is_reserved":false,"is_disabled":false,"rental_uris":{"android":"levelo://app?vid=2debf4c8-5257-4a3c-bf38-23c1500332bd","ios":"levelo://app?vid=2debf4c8-5257-4a3c-bf38-23c1500332bd"},"vehicle_type_id":"4","last_reported":1744916874,"current_range_meters":8400,"station_id":"ce4bh292rcd13ifvqdf0","pricing_plan_id":"cebpf4jnsgd1na2vs0mg"},{"bike_id":"b104b93d-3486-4201-976f-3dc4f542d5a3","system_id":"levelo_inurba_marseille","lat":43.30124,"lon":5.39878,"is_reserved":false,"is_disabled":false,"rental_uris":{"android":"levelo://app?vid=b104b93d-3486-4201-976f-3dc4f542d5a3","ios":"levelo://app?vid=b104b93d-3486-4201-976f-3dc4f542d5a3"},"vehicle_type_id":"4","last_reported":1744916874,"current_range_meters":8000,"station_id":"ce4bh0h2rcd13ifvqd40","pricing_plan_id":"cebpf4jnsgd1na2vs0mg"},{"bike_id":"08545b9c-147f-4096-92e8-2af1c560447d","system_id":"levelo_inurba_marseille","lat":43.27492,"lon":5.42453,"is_reserved":false,"is_disabled":false,"rental_uris":{"android":"levelo://app?vid=08545b9c-147f-4096-92e8-2af1c560447d","ios":"levelo://app?vid=08545b9c-147f-4096-92e8-2af1c560447d"},"vehicle_type_id":"4","last_reported":1744916874,"current_range_meters":8000,"station_id":"ce4bhn92rcd13ifvqgrg","pricing_plan_id":"cebpf4jnsgd1na2vs0mg"},{"bike_id":"e47b4217-dcb2-45b5-8ea0-370a594953e9","system_id":"levelo_inurba_marseille","lat":43.23967,"lon":5.36642,"is_reserved":false,"is_disabled":false,"rental_uris":{"android":"levelo://app?vid=e47b4217-dcb2-45b5-8ea0-370a594953e9","ios":"levelo://app?vid=e47b4217-dcb2-45b5-8ea0-370a594953e9"},"vehicle_type_id":"4","last_reported":1744916874,"current_range_meters":8000,"station_id":"ce4bhi12rcd13ifvqfp0","pricing_plan_id":"cebpf4jnsgd1na2vs0mg"},{"bike_id":"2c85d733-8bec-4ab8-b842-10773d937359","system_id":"levelo_inurba_marseille","lat":43.28003,"lon":5.41647,"is_reserved":false,"is_disabled":false,"rental_uris":{"android":"levelo://app?vid=2c85d733-8bec-4ab8-b842-10773d937359","ios":"levelo://app?vid=2c85d733-8bec-4ab8-b842-10773d937359"},"vehicle_type_id":"4","last_reported":1744916874,"current_range_meters":8400,"station_id":"ce4bho12rcd13ifvqh1g","pricing_plan_id":"cebpf4jnsgd1na2vs0mg"},{"bike_id":"ce90eeb4-f81d-4b80-9b35-94fd4698915f","system_id":"levelo_inurba_marseille","lat":43.28417,"lon":5.34991,"is_reserved":false,"is_disabled":false,"rental_uris":{"android":"levelo://app?vid=ce90eeb4-f81d-4b80-9b35-94fd4698915f","ios":"levelo://app?vid=ce90eeb4-f81d-4b80-9b35-94fd4698915f"},"vehicle_type_id":"4","last_reported":1744916874,"current_range_meters":8400,"station_id":"ce4bhbh2rcd13ifvqepg","pricing_plan_id":"cebpf4jnsgd1na2vs0mg"},{"bike_id":"df9b757d-c8c0-444d-9fc6-09bf61d6c670","system_id":"levelo_inurba_marseille","lat":43.30567,"lon":5.39361,"is_reserved":false,"is_disabled":false,"rental_uris":{"android":"levelo://app?vid=df9b757d-c8c0-444d-9fc6-09bf61d6c670","ios":"levelo://app?vid=df9b757d-c8c0-444d-9fc6-09bf61d6c670"},"vehicle_type_id":"4","last_reported":1744916874,"current_range_meters":8400,"station_id":"ce4bh0p2rcd13ifvqd80","pricing_plan_id":"cebpf4jnsgd1na2vs0mg"},{"bike_id":"a913d5c7-d0e3-4e3d-8de9-edadca288d26","system_id":"levelo_inurba_marseille","lat":43.30553,"lon":5.36536,"is_reserved":false,"is_disabled":false,"rental_uris":{"android":"levelo://app?vid=a913d5c7-d0e3-4e3d-8de9-edadca288d26","ios":"levelo://app?vid=a913d5c7-d0e3-4e3d-8de9-edadca288d26"},"vehicle_type_id":"4","last_reported":1744916874,"current_range_meters":8400,"station_id":"ce4bgs12rcd13ifvqcag","pricing_plan_id":"cebpf4jnsgd1na2vs0mg"},{"bike_id":"188a89e9-af7c-4f5c-bbbf-95c9ac1c78bd","system_id":"levelo_inurba_marseille","lat":43.32283,"lon":5.38275,"is_reserved":false,"is_disabled":false,"rental_uris":{"android":"levelo://app?vid=188a89e9-af7c-4f5c-bbbf-95c9ac1c78bd","ios":"levelo://app?vid=188a89e9-af7c-4f5c-bbbf-95c9ac1c78bd"},"vehicle_type_id":"4","last_reported":1744916874,"current_range_meters":8400,"station_id":"ce4bhr12rcd13ifvqhqg","pricing_plan_id":"cebpf4jnsgd1na2vs0mg"},{"bike_id":"c27d0490-48bc-4c2f-b50a-d25c079ab4de","system_id":"levelo_inurba_marseille","lat":43.29616,"lon":5.37155,"is_reserved":false,"is_disabled":false,"rental_uris":{"android":"levelo://app?vid=c27d0490-48bc-4c2f-b50a-d25c079ab4de","ios":"levelo://app?vid=c27d0490-48bc-4c2f-b50a-d25c079ab4de"},"vehicle_type_id":"4","last_reported":1744916874,"current_range_meters":8400,"station_id":"ce4bgnh2rcd13ifvqc0g","pricing_plan_id":"cebpf4jnsgd1na2vs0mg"},{"bike_id":"1bdba7a7-a82e-4252-906c-80db6beb180e","system_id":"levelo_inurba_marseille","lat":43.33791,"lon":5.37459,"is_reserved":false,"is_disabled":false,"rental_uris":{"android":"levelo://app?vid=1bdba7a7-a82e-4252-906c-80db6beb180e","ios":"levelo://app?vid=1bdba7a7-a82e-4252-906c-80db6beb180e"},"vehicle_type_id":"4","last_reported":1744916874,"current_range_meters":8800,"station_id":"","pricing_plan_id":"cebpf4jnsgd1na2vs0mg"},{"bike_id":"6a52c25e-e42a-4237-a980-f6f82f2e061e","system_id":"levelo_inurba_marseille","lat":43.21193,"lon":5.35068,"is_reserved":false,"is_disabled":false,"rental_uris":{"android":"levelo://app?vid=6a52c25e-e42a-4237-a980-f6f82f2e061e","ios":"levelo://app?vid=6a52c25e-e42a-4237-a980-f6f82f2e061e"},"vehicle_type_id":"4","last_reported":1744916874,"current_range_meters":8800,"station_id":"st_cvj6sg6p6f1abm77japg","pricing_plan_id":"cebpf4jnsgd1na2vs0mg"},{"bike_id":"6394bd65-3316-4887-be8a-34879c1a5e39","system_id":"levelo_inurba_marseille","lat":43.286102,"lon":5.351157,"is_reserved":false,"is_disabled":false,"rental_uris":{"android":"levelo://app?vid=6394bd65-3316-4887-be8a-34879c1a5e39","ios":"levelo://app?vid=6394bd65-3316-4887-be8a-34879c1a5e39"},"vehicle_type_id":"4","last_reported":1744916874,"current_range_meters":8800,"station_id":"ce4bh9p2rcd13ifvqec0","pricing_plan_id":"cebpf4jnsgd1na2vs0mg"},{"bike_id":"1765c7d9-956e-4b3d-8f27-53eae936f95d","system_id":"levelo_inurba_marseille","lat":43.29871,"lon":5.39747,"is_reserved":false,"is_disabled":false,"rental_uris":{"android":"levelo://app?vid=1765c7d9-956e-4b3d-8f27-53eae936f95d","ios":"levelo://app?vid=1765c7d9-956e-4b3d-8f27-53eae936f95d"},"vehicle_type_id":"4","last_reported":1744916874,"current_range_meters":8800,"station_id":"ce4bh0h2rcd13ifvqd50","pricing_plan_id":"cebpf4jnsgd1na2vs0mg"},{"bike_id":"ca1adf94-9071-42a2-80da-ec8ab9efaf57","system_id":"levelo_inurba_marseille","lat":43.29537,"lon":5.38538,"is_reserved":false,"is_disabled":false,"rental_uris":{"android":"levelo://app?vid=ca1adf94-9071-42a2-80da-ec8ab9efaf57","ios":"levelo://app?vid=ca1adf94-9071-42a2-80da-ec8ab9efaf57"},"vehicle_type_id":"4","last_reported":1744916874,"current_range_meters":9200,"station_id":"ce4bgih2rcd13ifvqba0","pricing_plan_id":"cebpf4jnsgd1na2vs0mg"},{"bike_id":"2df22311-bac1-4b8f-abff-11893969de63","system_id":"levelo_inurba_marseille","lat":43.31081,"lon":5.37818,"is_reserved":false,"is_disabled":false,"rental_uris":{"android":"levelo://app?vid=2df22311-bac1-4b8f-abff-11893969de63","ios":"levelo://app?vid=2df22311-bac1-4b8f-abff-11893969de63"},"vehicle_type_id":"4","last_reported":1744916874,"current_range_meters":9200,"station_id":"","pricing_plan_id":"cebpf4jnsgd1na2vs0mg"},{"bike_id":"350a8ef1-03fc-4413-a6e0-96995c2b11bf","system_id":"levelo_inurba_marseille","lat":43.33024,"lon":5.3904,"is_reserved":false,"is_disabled":false,"rental_uris":{"android":"levelo://app?vid=350a8ef1-03fc-4413-a6e0-96995c2b11bf","ios":"levelo://app?vid=350a8ef1-03fc-4413-a6e0-96995c2b11bf"},"vehicle_type_id":"4","last_reported":1744916874,"current_range_meters":9200,"station_id":"ce4bhr92rcd13ifvqhrg","pricing_plan_id":"cebpf4jnsgd1na2vs0mg"},{"bike_id":"82bf4372-80d2-47f9-8330-24c7f73ef58c","system_id":"levelo_inurba_marseille","lat":43.292645,"lon":5.384472,"is_reserved":false,"is_disabled":false,"rental_uris":{"android":"levelo://app?vid=82bf4372-80d2-47f9-8330-24c7f73ef58c","ios":"levelo://app?vid=82bf4372-80d2-47f9-8330-24c7f73ef58c"},"vehicle_type_id":"4","last_reported":1744916874,"current_range_meters":9200,"station_id":"ce4bh692rcd13ifvqea0","pricing_plan_id":"cebpf4jnsgd1na2vs0mg"},{"bike_id":"09e29c8d-0531-4ea0-befd-5427ca701da3","system_id":"levelo_inurba_marseille","lat":43.306075,"lon":5.372615,"is_reserved":false,"is_disabled":true,"rental_uris":{"android":"levelo://app?vid=09e29c8d-0531-4ea0-befd-5427ca701da3","ios":"levelo://app?vid=09e29c8d-0531-4ea0-befd-5427ca701da3"},"vehicle_type_id":"4","last_reported":1744916874,"current_range_meters":9200,"station_id":"ce4bgqh2rcd13ifvqc4g","pricing_plan_id":"cebpf4jnsgd1na2vs0mg"},{"bike_id":"8ee49884-4076-402b-bdc6-b1b75f8b478d","system_id":"levelo_inurba_marseille","lat":43.27919,"lon":5.39588,"is_reserved":false,"is_disabled":false,"rental_uris":{"android":"levelo://app?vid=8ee49884-4076-402b-bdc6-b1b75f8b478d","ios":"levelo://app?vid=8ee49884-4076-402b-bdc6-b1b75f8b478d"},"vehicle_type_id":"4","last_reported":1744916874,"current_range_meters":9200,"station_id":"ce4bhf92rcd13ifvqf40","pricing_plan_id":"cebpf4jnsgd1na2vs0mg"},{"bike_id":"0a0b0a73-2b27-49fb-801a-3111dcebfbac","system_id":"levelo_inurba_marseille","lat":43.2752,"lon":5.42426,"is_reserved":false,"is_disabled":false,"rental_uris":{"android":"levelo://app?vid=0a0b0a73-2b27-49fb-801a-3111dcebfbac","ios":"levelo://app?vid=0a0b0a73-2b27-49fb-801a-3111dcebfbac"},"vehicle_type_id":"4","last_reported":1744916874,"current_range_meters":9200,"station_id":"ce4bhn92rcd13ifvqgrg","pricing_plan_id":"cebpf4jnsgd1na2vs0mg"},{"bike_id":"8ee7ae49-7b6d-4b48-9fb1-547fbea007bb","system_id":"levelo_inurba_marseille","lat":43.27963,"lon":5.39585,"is_reserved":false,"is_disabled":false,"rental_uris":{"android":"levelo://app?vid=8ee7ae49-7b6d-4b48-9fb1-547fbea007bb","ios":"levelo://app?vid=8ee7ae49-7b6d-4b48-9fb1-547fbea007bb"},"vehicle_type_id":"4","last_reported":1744916874,"current_range_meters":9200,"station_id":"ce4bhf92rcd13ifvqf40","pricing_plan_id":"cebpf4jnsgd1na2vs0mg"},{"bike_id":"6a42fdd6-075d-4748-811a-29f5845c8920","system_id":"levelo_inurba_marseille","lat":43.21758,"lon":5.34595,"is_reserved":false,"is_disabled":false,"rental_uris":{"android":"levelo://app?vid=6a42fdd6-075d-4748-811a-29f5845c8920","ios":"levelo://app?vid=6a42fdd6-075d-4748-811a-29f5845c8920"},"vehicle_type_id":"4","last_reported":1744916874,"current_range_meters":9600,"station_id":"st_cvj6r9ubvosntc0bgbag","pricing_plan_id":"cebpf4jnsgd1na2vs0mg"},{"bike_id":"024d8226-e578-4ae5-97e4-321c38ca84ee","system_id":"levelo_inurba_marseille","lat":43.31218,"lon":5.36847,"is_reserved":false,"is_disabled":false,"rental_uris":{"android":"levelo://app?vid=024d8226-e578-4ae5-97e4-321c38ca84ee","ios":"levelo://app?vid=024d8226-e578-4ae5-97e4-321c38ca84ee"},"vehicle_type_id":"4","last_reported":1744916874,"current_range_meters":9600,"station_id":"ce4bgl92rcd13ifvqbq0","pricing_plan_id":"cebpf4jnsgd1na2vs0mg"},{"bike_id":"9af7eca4-0f29-45ae-8741-3af4cfbb69ef","system_id":"levelo_inurba_marseille","lat":43.25826,"lon":5.39431,"is_reserved":false,"is_disabled":false,"rental_uris":{"android":"levelo://app?vid=9af7eca4-0f29-45ae-8741-3af4cfbb69ef","ios":"levelo://app?vid=9af7eca4-0f29-45ae-8741-3af4cfbb69ef"},"vehicle_type_id":"4","last_reported":1744916874,"current_range_meters":9600,"station_id":"ce4bhip2rcd13ifvqft0","pricing_plan_id":"cebpf4jnsgd1na2vs0mg"},{"bike_id":"37ae0d63-5259-45c3-8f8d-4d2c9049fc2d","system_id":"levelo_inurba_marseille","lat":43.29305,"lon":5.37468,"is_reserved":false,"is_disabled":false,"rental_uris":{"android":"levelo://app?vid=37ae0d63-5259-45c3-8f8d-4d2c9049fc2d","ios":"levelo://app?vid=37ae0d63-5259-45c3-8f8d-4d2c9049fc2d"},"vehicle_type_id":"4","last_reported":1744916874,"current_range_meters":9600,"station_id":"ce4bgi12rcd13ifvqb70","pricing_plan_id":"cebpf4jnsgd1na2vs0mg"},{"bike_id":"7b96111b-7974-4fe6-9610-4556870a2e07","system_id":"levelo_inurba_marseille","lat":43.24409,"lon":5.37047,"is_reserved":false,"is_disabled":false,"rental_uris":{"android":"levelo://app?vid=7b96111b-7974-4fe6-9610-4556870a2e07","ios":"levelo://app?vid=7b96111b-7974-4fe6-9610-4556870a2e07"},"vehicle_type_id":"4","last_reported":1744916874,"current_range_meters":9600,"station_id":"ce4bhhh2rcd13ifvqfk0","pricing_plan_id":"cebpf4jnsgd1na2vs0mg"},{"bike_id":"ad0ec46c-cdd0-4d3b-8c79-b3898cfe8883","system_id":"levelo_inurba_marseille","lat":43.26212,"lon":5.37439,"is_reserved":false,"is_disabled":false,"rental_uris":{"android":"levelo://app?vid=ad0ec46c-cdd0-4d3b-8c79-b3898cfe8883","ios":"levelo://app?vid=ad0ec46c-cdd0-4d3b-8c79-b3898cfe8883"},"vehicle_type_id":"4","last_reported":1744916874,"current_range_meters":9600,"station_id":"ce4bhgp2rcd13ifvqfc0","pricing_plan_id":"cebpf4jnsgd1na2vs0mg"},{"bike_id":"18a8be90-2d7c-46aa-9ea8-8f80ea3a0ccf","system_id":"levelo_inurba_marseille","lat":43.29564,"lon":5.39969,"is_reserved":false,"is_disabled":false,"rental_uris":{"android":"levelo://app?vid=18a8be90-2d7c-46aa-9ea8-8f80ea3a0ccf","ios":"levelo://app?vid=18a8be90-2d7c-46aa-9ea8-8f80ea3a0ccf"},"vehicle_type_id":"4","last_reported":1744916874,"current_range_meters":9200,"station_id":"ce4bh312rcd13ifvqdj0","pricing_plan_id":"cebpf4jnsgd1na2vs0mg"},{"bike_id":"15f162f4-889b-49df-a2b0-d9c85f51b70a","system_id":"levelo_inurba_marseille","lat":43.29533,"lon":5.39023,"is_reserved":false,"is_disabled":false,"rental_uris":{"android":"levelo://app?vid=15f162f4-889b-49df-a2b0-d9c85f51b70a","ios":"levelo://app?vid=15f162f4-889b-49df-a2b0-d9c85f51b70a"},"vehicle_type_id":"4","last_reported":1744916874,"current_range_meters":9600,"station_id":"ce4bh3p2rcd13ifvqdp0","pricing_plan_id":"cebpf4jnsgd1na2vs0mg"},{"bike_id":"001a10ed-a7d7-4d8a-abb2-f7c03c8ff11f","system_id":"levelo_inurba_marseille","lat":43.2622,"lon":5.40459,"is_reserved":false,"is_disabled":false,"rental_uris":{"android":"levelo://app?vid=001a10ed-a7d7-4d8a-abb2-f7c03c8ff11f","ios":"levelo://app?vid=001a10ed-a7d7-4d8a-abb2-f7c03c8ff11f"},"vehicle_type_id":"4","last_reported":1744916874,"current_range_meters":9600,"station_id":"ce4bhmh2rcd13ifvqgmg","pricing_plan_id":"cebpf4jnsgd1na2vs0mg"},{"bike_id":"163efb22-dd14-4345-9564-349e07aa3d04","system_id":"levelo_inurba_marseille","lat":43.27677,"lon":5.3886,"is_reserved":false,"is_disabled":false,"rental_uris":{"android":"levelo://app?vid=163efb22-dd14-4345-9564-349e07aa3d04","ios":"levelo://app?vid=163efb22-dd14-4345-9564-349e07aa3d04"},"vehicle_type_id":"4","last_reported":1744916874,"current_range_meters":9600,"station_id":"ce4bhi12rcd13ifvqfo0","pricing_plan_id":"cebpf4jnsgd1na2vs0mg"},{"bike_id":"e3061286-add2-4bc6-a803-66a4d7d63e42","system_id":"levelo_inurba_marseille","lat":43.28655,"lon":5.35089,"is_reserved":false,"is_disabled":false,"rental_uris":{"android":"levelo://app?vid=e3061286-add2-4bc6-a803-66a4d7d63e42","ios":"levelo://app?vid=e3061286-add2-4bc6-a803-66a4d7d63e42"},"vehicle_type_id":"4","last_reported":1744916874,"current_range_meters":10000,"station_id":"ce4bhch2rcd13ifvqeug","pricing_plan_id":"cebpf4jnsgd1na2vs0mg"},{"bike_id":"c65f8f12-9a27-45f2-82ee-98fa61f68e7f","system_id":"levelo_inurba_marseille","lat":43.29923,"lon":5.37461,"is_reserved":false,"is_disabled":false,"rental_uris":{"android":"levelo://app?vid=c65f8f12-9a27-45f2-82ee-98fa61f68e7f","ios":"levelo://app?vid=c65f8f12-9a27-45f2-82ee-98fa61f68e7f"},"vehicle_type_id":"4","last_reported":1744916874,"current_range_meters":10000,"station_id":"ce4bgjh2rcd13ifvqbg0","pricing_plan_id":"cebpf4jnsgd1na2vs0mg"},{"bike_id":"71129149-16d8-4b49-9bfe-6e5c487d0d30","system_id":"levelo_inurba_marseille","lat":43.29268,"lon":5.38428,"is_reserved":false,"is_disabled":false,"rental_uris":{"android":"levelo://app?vid=71129149-16d8-4b49-9bfe-6e5c487d0d30","ios":"levelo://app?vid=71129149-16d8-4b49-9bfe-6e5c487d0d30"},"vehicle_type_id":"4","last_reported":1744916874,"current_range_meters":10800,"station_id":"ce4bh692rcd13ifvqea0","pricing_plan_id":"cebpf4jnsgd1na2vs0mg"},{"bike_id":"2f7e5d73-d745-409f-b841-8b1d8811f3fd","system_id":"levelo_inurba_marseille","lat":43.30564,"lon":5.392345,"is_reserved":false,"is_disabled":false,"rental_uris":{"android":"levelo://app?vid=2f7e5d73-d745-409f-b841-8b1d8811f3fd","ios":"levelo://app?vid=2f7e5d73-d745-409f-b841-8b1d8811f3fd"},"vehicle_type_id":"4","last_reported":1744916874,"current_range_meters":10800,"station_id":"ce4bh0h2rcd13ifvqd40","pricing_plan_id":"cebpf4jnsgd1na2vs0mg"},{"bike_id":"98d4606b-7d10-433c-8de8-06807df53af5","system_id":"levelo_inurba_marseille","lat":43.30889,"lon":5.37202,"is_reserved":false,"is_disabled":false,"rental_uris":{"android":"levelo://app?vid=98d4606b-7d10-433c-8de8-06807df53af5","ios":"levelo://app?vid=98d4606b-7d10-433c-8de8-06807df53af5"},"vehicle_type_id":"4","last_reported":1744916874,"current_range_meters":10800,"station_id":"ce4bguh2rcd13ifvqckg","pricing_plan_id":"cebpf4jnsgd1na2vs0mg"},{"bike_id":"6182d45b-191a-4249-88bd-5fad61239bca","system_id":"levelo_inurba_marseille","lat":43.21751,"lon":5.34599,"is_reserved":false,"is_disabled":false,"rental_uris":{"android":"levelo://app?vid=6182d45b-191a-4249-88bd-5fad61239bca","ios":"levelo://app?vid=6182d45b-191a-4249-88bd-5fad61239bca"},"vehicle_type_id":"4","last_reported":1744916874,"current_range_meters":10800,"station_id":"st_cvj6r9ubvosntc0bgbag","pricing_plan_id":"cebpf4jnsgd1na2vs0mg"},{"bike_id":"da8a9cb2-49e2-4f6a-ab27-41f466e9ea20","system_id":"levelo_inurba_marseille","lat":43.31071,"lon":5.38348,"is_reserved":false,"is_disabled":false,"rental_uris":{"android":"levelo://app?vid=da8a9cb2-49e2-4f6a-ab27-41f466e9ea20","ios":"levelo://app?vid=da8a9cb2-49e2-4f6a-ab27-41f466e9ea20"},"vehicle_type_id":"4","last_reported":1744916874,"current_range_meters":10800,"station_id":"ce4bgv92rcd13ifvqcr0","pricing_plan_id":"cebpf4jnsgd1na2vs0mg"},{"bike_id":"a60caa22-b2d2-4a2d-9db5-b3bd3a97d7ef","system_id":"levelo_inurba_marseille","lat":43.29257,"lon":5.37621,"is_reserved":false,"is_disabled":false,"rental_uris":{"android":"levelo://app?vid=a60caa22-b2d2-4a2d-9db5-b3bd3a97d7ef","ios":"levelo://app?vid=a60caa22-b2d2-4a2d-9db5-b3bd3a97d7ef"},"vehicle_type_id":"4","last_reported":1744916874,"current_range_meters":10800,"station_id":"ce4bgi12rcd13ifvqb80","pricing_plan_id":"cebpf4jnsgd1na2vs0mg"},{"bike_id":"09121f7e-4de3-487b-8796-71d867ca3962","system_id":"levelo_inurba_marseille","lat":43.2466,"lon":5.38896,"is_reserved":false,"is_disabled":false,"rental_uris":{"android":"levelo://app?vid=09121f7e-4de3-487b-8796-71d867ca3962","ios":"levelo://app?vid=09121f7e-4de3-487b-8796-71d867ca3962"},"vehicle_type_id":"4","last_reported":1744916874,"current_range_meters":11200,"station_id":"ce4bhg12rcd13ifvqf60","pricing_plan_id":"cebpf4jnsgd1na2vs0mg"},{"bike_id":"ff935f1c-246d-4e07-a399-40ad7e059de5","system_id":"levelo_inurba_marseille","lat":43.25487,"lon":5.37677,"is_reserved":false,"is_disabled":true,"rental_uris":{"android":"levelo://app?vid=ff935f1c-246d-4e07-a399-40ad7e059de5","ios":"levelo://app?vid=ff935f1c-246d-4e07-a399-40ad7e059de5"},"vehicle_type_id":"4","last_reported":1744916874,"current_range_meters":11200,"station_id":"ce4bhh12rcd13ifvqff0","pricing_plan_id":"cebpf4jnsgd1na2vs0mg"},{"bike_id":"3e2200b4-567b-416c-a20b-4faf3d55a2dc","system_id":"levelo_inurba_marseille","lat":43.29276,"lon":5.36848,"is_reserved":false,"is_disabled":false,"rental_uris":{"android":"levelo://app?vid=3e2200b4-567b-416c-a20b-4faf3d55a2dc","ios":"levelo://app?vid=3e2200b4-567b-416c-a20b-4faf3d55a2dc"},"vehicle_type_id":"4","last_reported":1744916874,"current_range_meters":11200,"station_id":"ce4bhbp2rcd13ifvqesg","pricing_plan_id":"cebpf4jnsgd1na2vs0mg"},{"bike_id":"c5ad34a5-de23-413d-9e8b-ec61ed7009c1","system_id":"levelo_inurba_marseille","lat":43.28611,"lon":5.35105,"is_reserved":false,"is_disabled":false,"rental_uris":{"android":"levelo://app?vid=c5ad34a5-de23-413d-9e8b-ec61ed7009c1","ios":"levelo://app?vid=c5ad34a5-de23-413d-9e8b-ec61ed7009c1"},"vehicle_type_id":"4","last_reported":1744916874,"current_range_meters":11200,"station_id":"ce4bhch2rcd13ifvqeug","pricing_plan_id":"cebpf4jnsgd1na2vs0mg"},{"bike_id":"586389a2-1dec-4cb5-9628-1c44f04c91db","system_id":"levelo_inurba_marseille","lat":43.29203,"lon":5.36063,"is_reserved":false,"is_disabled":false,"rental_uris":{"android":"levelo://app?vid=586389a2-1dec-4cb5-9628-1c44f04c91db","ios":"levelo://app?vid=586389a2-1dec-4cb5-9628-1c44f04c91db"},"vehicle_type_id":"4","last_reported":1744916874,"current_range_meters":9600,"station_id":"ce4bhbh2rcd13ifvqeqg","pricing_plan_id":"cebpf4jnsgd1na2vs0mg"},{"bike_id":"2e3d1586-39b9-4f2e-a808-4f2fbc6116b5","system_id":"levelo_inurba_marseille","lat":43.28435,"lon":5.37502,"is_reserved":false,"is_disabled":false,"rental_uris":{"android":"levelo://app?vid=2e3d1586-39b9-4f2e-a808-4f2fbc6116b5","ios":"levelo://app?vid=2e3d1586-39b9-4f2e-a808-4f2fbc6116b5"},"vehicle_type_id":"4","last_reported":1744916874,"current_range_meters":11600,"station_id":"ce4bh412rcd13ifvqds0","pricing_plan_id":"cebpf4jnsgd1na2vs0mg"},{"bike_id":"cbf29fce-b821-4cbd-8ecd-022dab6930e8","system_id":"levelo_inurba_marseille","lat":43.28402,"lon":5.37534,"is_reserved":false,"is_disabled":false,"rental_uris":{"android":"levelo://app?vid=cbf29fce-b821-4cbd-8ecd-022dab6930e8","ios":"levelo://app?vid=cbf29fce-b821-4cbd-8ecd-022dab6930e8"},"vehicle_type_id":"4","last_reported":1744916874,"current_range_meters":11600,"station_id":"ce4bh412rcd13ifvqds0","pricing_plan_id":"cebpf4jnsgd1na2vs0mg"},{"bike_id":"1c22e12f-8063-4f5c-bc30-12f3dd9afd64","system_id":"levelo_inurba_marseille","lat":43.27993,"lon":5.40009,"is_reserved":false,"is_disabled":false,"rental_uris":{"android":"levelo://app?vid=1c22e12f-8063-4f5c-bc30-12f3dd9afd64","ios":"levelo://app?vid=1c22e12f-8063-4f5c-bc30-12f3dd9afd64"},"vehicle_type_id":"4","last_reported":1744916874,"current_range_meters":12000,"station_id":"ce4bho92rcd13ifvqh4g","pricing_plan_id":"cebpf4jnsgd1na2vs0mg"},{"bike_id":"15377006-3615-4dbe-a453-226e5c1fd0bb","system_id":"levelo_inurba_marseille","lat":43.29997,"lon":5.38463,"is_reserved":false,"is_disabled":true,"rental_uris":{"android":"levelo://app?vid=15377006-3615-4dbe-a453-226e5c1fd0bb","ios":"levelo://app?vid=15377006-3615-4dbe-a453-226e5c1fd0bb"},"vehicle_type_id":"4","last_reported":1744916874,"current_range_meters":12000,"station_id":"ce4bgj92rcd13ifvqbd0","pricing_plan_id":"cebpf4jnsgd1na2vs0mg"},{"bike_id":"f348c235-69d5-41ec-b5f7-0a83dab5339a","system_id":"levelo_inurba_marseille","lat":43.29005,"lon":5.35622,"is_reserved":false,"is_disabled":true,"rental_uris":{"android":"levelo://app?vid=f348c235-69d5-41ec-b5f7-0a83dab5339a","ios":"levelo://app?vid=f348c235-69d5-41ec-b5f7-0a83dab5339a"},"vehicle_type_id":"4","last_reported":1744916874,"current_range_meters":12000,"station_id":"ce4bhb92rcd13ifvqen0","pricing_plan_id":"cebpf4jnsgd1na2vs0mg"},{"bike_id":"04657881-18eb-45ab-8fbd-9926a7c863cf","system_id":"levelo_inurba_marseille","lat":43.28619,"lon":5.35103,"is_reserved":false,"is_disabled":false,"rental_uris":{"android":"levelo://app?vid=04657881-18eb-45ab-8fbd-9926a7c863cf","ios":"levelo://app?vid=04657881-18eb-45ab-8fbd-9926a7c863cf"},"vehicle_type_id":"4","last_reported":1744916874,"current_range_meters":12000,"station_id":"ce4bhch2rcd13ifvqeug","pricing_plan_id":"cebpf4jnsgd1na2vs0mg"},{"bike_id":"ec8c9ac7-1e95-4171-97f3-226ce1e3c951","system_id":"levelo_inurba_marseille","lat":43.32135,"lon":5.3673,"is_reserved":false,"is_disabled":false,"rental_uris":{"android":"levelo://app?vid=ec8c9ac7-1e95-4171-97f3-226ce1e3c951","ios":"levelo://app?vid=ec8c9ac7-1e95-4171-97f3-226ce1e3c951"},"vehicle_type_id":"4","last_reported":1744916874,"current_range_meters":12400,"station_id":"ce4bhrh2rcd13ifvqhug","pricing_plan_id":"cebpf4jnsgd1na2vs0mg"},{"bike_id":"e35e6fae-3839-4213-8afe-1fd8b2f59700","system_id":"levelo_inurba_marseille","lat":43.295312,"lon":5.385452,"is_reserved":false,"is_disabled":false,"rental_uris":{"android":"levelo://app?vid=e35e6fae-3839-4213-8afe-1fd8b2f59700","ios":"levelo://app?vid=e35e6fae-3839-4213-8afe-1fd8b2f59700"},"vehicle_type_id":"4","last_reported":1744916874,"current_range_meters":12400,"station_id":"ce4bgih2rcd13ifvqba0","pricing_plan_id":"cebpf4jnsgd1na2vs0mg"},{"bike_id":"a80a4df5-4598-4632-a61d-9e99345c0b85","system_id":"levelo_inurba_marseille","lat":43.29896,"lon":5.38143,"is_reserved":false,"is_disabled":false,"rental_uris":{"android":"levelo://app?vid=a80a4df5-4598-4632-a61d-9e99345c0b85","ios":"levelo://app?vid=a80a4df5-4598-4632-a61d-9e99345c0b85"},"vehicle_type_id":"4","last_reported":1744916874,"current_range_meters":12800,"station_id":"ce4bgj12rcd13ifvqbc0","pricing_plan_id":"cebpf4jnsgd1na2vs0mg"},{"bike_id":"4a17a27b-4979-4133-9ae1-996785f8fee4","system_id":"levelo_inurba_marseille","lat":43.23083,"lon":5.3548,"is_reserved":false,"is_disabled":false,"rental_uris":{"android":"levelo://app?vid=4a17a27b-4979-4133-9ae1-996785f8fee4","ios":"levelo://app?vid=4a17a27b-4979-4133-9ae1-996785f8fee4"},"vehicle_type_id":"4","last_reported":1744916874,"current_range_meters":12400,"station_id":"cpo3342slgdg3j2ifvpg","pricing_plan_id":"cebpf4jnsgd1na2vs0mg"},{"bike_id":"c9840ebd-d167-4346-8b89-2c076efe67d8","system_id":"levelo_inurba_marseille","lat":43.28271,"lon":5.35085,"is_reserved":false,"is_disabled":false,"rental_uris":{"android":"levelo://app?vid=c9840ebd-d167-4346-8b89-2c076efe67d8","ios":"levelo://app?vid=c9840ebd-d167-4346-8b89-2c076efe67d8"},"vehicle_type_id":"4","last_reported":1744916874,"current_range_meters":12000,"station_id":"ce4bhbp2rcd13ifvqerg","pricing_plan_id":"cebpf4jnsgd1na2vs0mg"},{"bike_id":"98da1440-ddaf-41c4-ae43-8bc3e685a3bb","system_id":"levelo_inurba_marseille","lat":43.284,"lon":5.3501,"is_reserved":false,"is_disabled":false,"rental_uris":{"android":"levelo://app?vid=98da1440-ddaf-41c4-ae43-8bc3e685a3bb","ios":"levelo://app?vid=98da1440-ddaf-41c4-ae43-8bc3e685a3bb"},"vehicle_type_id":"4","last_reported":1744916874,"current_range_meters":12800,"station_id":"ce4bhbh2rcd13ifvqepg","pricing_plan_id":"cebpf4jnsgd1na2vs0mg"},{"bike_id":"b85a69cb-a265-4727-9c4f-d8b5415cf2a6","system_id":"levelo_inurba_marseille","lat":43.2944,"lon":5.39751,"is_reserved":false,"is_disabled":false,"rental_uris":{"android":"levelo://app?vid=b85a69cb-a265-4727-9c4f-d8b5415cf2a6","ios":"levelo://app?vid=b85a69cb-a265-4727-9c4f-d8b5415cf2a6"},"vehicle_type_id":"4","last_reported":1744916874,"current_range_meters":12400,"station_id":"ce4bh3h2rcd13ifvqdo0","pricing_plan_id":"cebpf4jnsgd1na2vs0mg"},{"bike_id":"173d39b4-7a97-4693-9385-db8bda0fe199","system_id":"levelo_inurba_marseille","lat":43.21752,"lon":5.34584,"is_reserved":false,"is_disabled":false,"rental_uris":{"android":"levelo://app?vid=173d39b4-7a97-4693-9385-db8bda0fe199","ios":"levelo://app?vid=173d39b4-7a97-4693-9385-db8bda0fe199"},"vehicle_type_id":"4","last_reported":1744916874,"current_range_meters":12800,"station_id":"st_cvj6r9ubvosntc0bgbag","pricing_plan_id":"cebpf4jnsgd1na2vs0mg"},{"bike_id":"64a47f4a-f4e2-4e1b-949e-3e6cf7bc5e72","system_id":"levelo_inurba_marseille","lat":43.2721,"lon":5.40992,"is_reserved":false,"is_disabled":true,"rental_uris":{"android":"levelo://app?vid=64a47f4a-f4e2-4e1b-949e-3e6cf7bc5e72","ios":"levelo://app?vid=64a47f4a-f4e2-4e1b-949e-3e6cf7bc5e72"},"vehicle_type_id":"4","last_reported":1744916874,"current_range_meters":12800,"station_id":"ce4bhl12rcd13ifvqgf0","pricing_plan_id":"cebpf4jnsgd1na2vs0mg"},{"bike_id":"8fbc98c0-0170-4556-80f2-5f643dac8b77","system_id":"levelo_inurba_marseille","lat":43.28414,"lon":5.37509,"is_reserved":false,"is_disabled":false,"rental_uris":{"android":"levelo://app?vid=8fbc98c0-0170-4556-80f2-5f643dac8b77","ios":"levelo://app?vid=8fbc98c0-0170-4556-80f2-5f643dac8b77"},"vehicle_type_id":"4","last_reported":1744916874,"current_range_meters":12800,"station_id":"ce4bh412rcd13ifvqds0","pricing_plan_id":"cebpf4jnsgd1na2vs0mg"},{"bike_id":"ae0e1566-e631-4bc5-9aed-0ebca70f0554","system_id":"levelo_inurba_marseille","lat":43.28627,"lon":5.35096,"is_reserved":false,"is_disabled":false,"rental_uris":{"android":"levelo://app?vid=ae0e1566-e631-4bc5-9aed-0ebca70f0554","ios":"levelo://app?vid=ae0e1566-e631-4bc5-9aed-0ebca70f0554"},"vehicle_type_id":"4","last_reported":1744916874,"current_range_meters":12800,"station_id":"ce4bhch2rcd13ifvqeug","pricing_plan_id":"cebpf4jnsgd1na2vs0mg"},{"bike_id":"084b5c78-5b99-4d91-a1bf-5638fca6f8cd","system_id":"levelo_inurba_marseille","lat":43.30929,"lon":5.36836,"is_reserved":false,"is_disabled":false,"rental_uris":{"android":"levelo://app?vid=084b5c78-5b99-4d91-a1bf-5638fca6f8cd","ios":"levelo://app?vid=084b5c78-5b99-4d91-a1bf-5638fca6f8cd"},"vehicle_type_id":"4","last_reported":1744916874,"current_range_meters":13600,"station_id":"ce4bgn92rcd13ifvqbvg","pricing_plan_id":"cebpf4jnsgd1na2vs0mg"},{"bike_id":"a5cd902a-048d-4a22-bc63-6cd42cbdcef4","system_id":"levelo_inurba_marseille","lat":43.30282,"lon":5.40053,"is_reserved":false,"is_disabled":false,"rental_uris":{"android":"levelo://app?vid=a5cd902a-048d-4a22-bc63-6cd42cbdcef4","ios":"levelo://app?vid=a5cd902a-048d-4a22-bc63-6cd42cbdcef4"},"vehicle_type_id":"4","last_reported":1744916874,"current_range_meters":13600,"station_id":"ce4bgvh2rcd13ifvqcs0","pricing_plan_id":"cebpf4jnsgd1na2vs0mg"},{"bike_id":"41fb0398-f2fe-4abb-ae37-a38f47615ea9","system_id":"levelo_inurba_marseille","lat":43.32361,"lon":5.36777,"is_reserved":false,"is_disabled":false,"rental_uris":{"android":"levelo://app?vid=41fb0398-f2fe-4abb-ae37-a38f47615ea9","ios":"levelo://app?vid=41fb0398-f2fe-4abb-ae37-a38f47615ea9"},"vehicle_type_id":"4","last_reported":1744916874,"current_range_meters":13600,"station_id":"ce4bhsh2rcd13ifvqi2g","pricing_plan_id":"cebpf4jnsgd1na2vs0mg"},{"bike_id":"9ecf6050-0168-4706-9fc6-6ddc31f6e8ab","system_id":"levelo_inurba_marseille","lat":43.27434,"lon":5.39414,"is_reserved":false,"is_disabled":false,"rental_uris":{"android":"levelo://app?vid=9ecf6050-0168-4706-9fc6-6ddc31f6e8ab","ios":"levelo://app?vid=9ecf6050-0168-4706-9fc6-6ddc31f6e8ab"},"vehicle_type_id":"4","last_reported":1744916874,"current_range_meters":12800,"station_id":"ce4bhdp2rcd13ifvqf20","pricing_plan_id":"cebpf4jnsgd1na2vs0mg"},{"bike_id":"aa7b1d04-d650-434d-9c3e-bbfda05966c6","system_id":"levelo_inurba_marseille","lat":43.2953,"lon":5.38547,"is_reserved":false,"is_disabled":false,"rental_uris":{"android":"levelo://app?vid=aa7b1d04-d650-434d-9c3e-bbfda05966c6","ios":"levelo://app?vid=aa7b1d04-d650-434d-9c3e-bbfda05966c6"},"vehicle_type_id":"4","last_reported":1744916874,"current_range_meters":14000,"station_id":"ce4bgih2rcd13ifvqba0","pricing_plan_id":"cebpf4jnsgd1na2vs0mg"},{"bike_id":"86794185-127c-4293-b8af-8324374a1a0e","system_id":"levelo_inurba_marseille","lat":43.28696,"lon":5.37393,"is_reserved":false,"is_disabled":false,"rental_uris":{"android":"levelo://app?vid=86794185-127c-4293-b8af-8324374a1a0e","ios":"levelo://app?vid=86794185-127c-4293-b8af-8324374a1a0e"},"vehicle_type_id":"4","last_reported":1744916874,"current_range_meters":14000,"station_id":"ce4bh3p2rcd13ifvqdq0","pricing_plan_id":"cebpf4jnsgd1na2vs0mg"},{"bike_id":"889988eb-016b-4bb9-aed5-d67f82e18ca2","system_id":"levelo_inurba_marseille","lat":43.29432,"lon":5.38608,"is_reserved":false,"is_disabled":false,"rental_uris":{"android":"levelo://app?vid=889988eb-016b-4bb9-aed5-d67f82e18ca2","ios":"levelo://app?vid=889988eb-016b-4bb9-aed5-d67f82e18ca2"},"vehicle_type_id":"4","last_reported":1744916874,"current_range_meters":14000,"station_id":"ce4bh2h2rcd13ifvqdh0","pricing_plan_id":"cebpf4jnsgd1na2vs0mg"},{"bike_id":"2da19230-f53a-427c-9cf4-a00e50b76f57","system_id":"levelo_inurba_marseille","lat":43.24059,"lon":5.37755,"is_reserved":false,"is_disabled":false,"rental_uris":{"android":"levelo://app?vid=2da19230-f53a-427c-9cf4-a00e50b76f57","ios":"levelo://app?vid=2da19230-f53a-427c-9cf4-a00e50b76f57"},"vehicle_type_id":"4","last_reported":1744916874,"current_range_meters":14000,"station_id":"ce4bhnp2rcd13ifvqgvg","pricing_plan_id":"cebpf4jnsgd1na2vs0mg"},{"bike_id":"5ccae0ed-ba8f-4ff9-bad4-ac4f9112cc92","system_id":"levelo_inurba_marseille","lat":43.2864,"lon":5.35103,"is_reserved":false,"is_disabled":false,"rental_uris":{"android":"levelo://app?vid=5ccae0ed-ba8f-4ff9-bad4-ac4f9112cc92","ios":"levelo://app?vid=5ccae0ed-ba8f-4ff9-bad4-ac4f9112cc92"},"vehicle_type_id":"4","last_reported":1744916874,"current_range_meters":14000,"station_id":"ce4bhch2rcd13ifvqeug","pricing_plan_id":"cebpf4jnsgd1na2vs0mg"},{"bike_id":"7d77b22e-64eb-4401-bd0f-e83eb9b00225","system_id":"levelo_inurba_marseille","lat":43.29421,"lon":5.38621,"is_reserved":false,"is_disabled":false,"rental_uris":{"android":"levelo://app?vid=7d77b22e-64eb-4401-bd0f-e83eb9b00225","ios":"levelo://app?vid=7d77b22e-64eb-4401-bd0f-e83eb9b00225"},"vehicle_type_id":"4","last_reported":1744916874,"current_range_meters":14000,"station_id":"ce4bh2h2rcd13ifvqdh0","pricing_plan_id":"cebpf4jnsgd1na2vs0mg"},{"bike_id":"559306d4-8b23-4192-b8d5-28a38ab3887f","system_id":"levelo_inurba_marseille","lat":43.2994,"lon":5.36545,"is_reserved":false,"is_disabled":false,"rental_uris":{"android":"levelo://app?vid=559306d4-8b23-4192-b8d5-28a38ab3887f","ios":"levelo://app?vid=559306d4-8b23-4192-b8d5-28a38ab3887f"},"vehicle_type_id":"4","last_reported":1744916874,"current_range_meters":14400,"station_id":"ce4bgm92rcd13ifvqbr0","pricing_plan_id":"cebpf4jnsgd1na2vs0mg"},{"bike_id":"75f807e4-735a-4973-98bb-9af3acad5c50","system_id":"levelo_inurba_marseille","lat":43.28928,"lon":5.36407,"is_reserved":false,"is_disabled":false,"rental_uris":{"android":"levelo://app?vid=75f807e4-735a-4973-98bb-9af3acad5c50","ios":"levelo://app?vid=75f807e4-735a-4973-98bb-9af3acad5c50"},"vehicle_type_id":"4","last_reported":1744916874,"current_range_meters":14000,"station_id":"ce4bhc92rcd13ifvqetg","pricing_plan_id":"cebpf4jnsgd1na2vs0mg"},{"bike_id":"6c557f57-1141-4362-93a0-02a0835b0e25","system_id":"levelo_inurba_marseille","lat":43.26681,"lon":5.38268,"is_reserved":false,"is_disabled":false,"rental_uris":{"android":"levelo://app?vid=6c557f57-1141-4362-93a0-02a0835b0e25","ios":"levelo://app?vid=6c557f57-1141-4362-93a0-02a0835b0e25"},"vehicle_type_id":"4","last_reported":1744916874,"current_range_meters":14400,"station_id":"ce4bhg92rcd13ifvqf90","pricing_plan_id":"cebpf4jnsgd1na2vs0mg"},{"bike_id":"2a25cd21-fe94-4e90-b470-09fd879214ea","system_id":"levelo_inurba_marseille","lat":43.2942,"lon":5.38618,"is_reserved":false,"is_disabled":false,"rental_uris":{"android":"levelo://app?vid=2a25cd21-fe94-4e90-b470-09fd879214ea","ios":"levelo://app?vid=2a25cd21-fe94-4e90-b470-09fd879214ea"},"vehicle_type_id":"4","last_reported":1744916874,"current_range_meters":14400,"station_id":"ce4bh2h2rcd13ifvqdh0","pricing_plan_id":"cebpf4jnsgd1na2vs0mg"},{"bike_id":"74a0229b-6f0d-4b35-9832-e6412f611fc3","system_id":"levelo_inurba_marseille","lat":43.29034,"lon":5.37575,"is_reserved":false,"is_disabled":false,"rental_uris":{"android":"levelo://app?vid=74a0229b-6f0d-4b35-9832-e6412f611fc3","ios":"levelo://app?vid=74a0229b-6f0d-4b35-9832-e6412f611fc3"},"vehicle_type_id":"4","last_reported":1744916874,"current_range_meters":10000,"station_id":"ce4bh692rcd13ifvqe90","pricing_plan_id":"cebpf4jnsgd1na2vs0mg"},{"bike_id":"e14c265e-eca3-4791-a3e7-f534121ae166","system_id":"levelo_inurba_marseille","lat":43.22935,"lon":5.35391,"is_reserved":false,"is_disabled":false,"rental_uris":{"android":"levelo://app?vid=e14c265e-eca3-4791-a3e7-f534121ae166","ios":"levelo://app?vid=e14c265e-eca3-4791-a3e7-f534121ae166"},"vehicle_type_id":"4","last_reported":1744916874,"current_range_meters":14400,"station_id":"cpo3532slgdg3j2ikp40","pricing_plan_id":"cebpf4jnsgd1na2vs0mg"},{"bike_id":"67ea6dd4-478e-417d-925e-53b17d097c8f","system_id":"levelo_inurba_marseille","lat":43.28712,"lon":5.37957,"is_reserved":false,"is_disabled":false,"rental_uris":{"android":"levelo://app?vid=67ea6dd4-478e-417d-925e-53b17d097c8f","ios":"levelo://app?vid=67ea6dd4-478e-417d-925e-53b17d097c8f"},"vehicle_type_id":"4","last_reported":1744916874,"current_range_meters":14400,"station_id":"ce4bh9p2rcd13ifvqec0","pricing_plan_id":"cebpf4jnsgd1na2vs0mg"},{"bike_id":"f690738c-7184-40d0-8e24-653d6c176a31","system_id":"levelo_inurba_marseille","lat":43.295603,"lon":5.422798,"is_reserved":false,"is_disabled":false,"rental_uris":{"android":"levelo://app?vid=f690738c-7184-40d0-8e24-653d6c176a31","ios":"levelo://app?vid=f690738c-7184-40d0-8e24-653d6c176a31"},"vehicle_type_id":"4","last_reported":1744916874,"current_range_meters":14400,"station_id":"ce4bhph2rcd13ifvqhdg","pricing_plan_id":"cebpf4jnsgd1na2vs0mg"},{"bike_id":"386b66dd-54dd-4f23-9399-5feab1b083fa","system_id":"levelo_inurba_marseille","lat":43.29683,"lon":5.37827,"is_reserved":false,"is_disabled":false,"rental_uris":{"android":"levelo://app?vid=386b66dd-54dd-4f23-9399-5feab1b083fa","ios":"levelo://app?vid=386b66dd-54dd-4f23-9399-5feab1b083fa"},"vehicle_type_id":"4","last_reported":1744916874,"current_range_meters":14400,"station_id":"","pricing_plan_id":"cebpf4jnsgd1na2vs0mg"},{"bike_id":"a67e5406-021e-4ace-beb9-5f5c9ab3c9b8","system_id":"levelo_inurba_marseille","lat":43.24641,"lon":5.38905,"is_reserved":false,"is_disabled":false,"rental_uris":{"android":"levelo://app?vid=a67e5406-021e-4ace-beb9-5f5c9ab3c9b8","ios":"levelo://app?vid=a67e5406-021e-4ace-beb9-5f5c9ab3c9b8"},"vehicle_type_id":"4","last_reported":1744916874,"current_range_meters":15200,"station_id":"ce4bhg12rcd13ifvqf60","pricing_plan_id":"cebpf4jnsgd1na2vs0mg"},{"bike_id":"d8e52f12-a519-4e32-817f-421fec3b8649","system_id":"levelo_inurba_marseille","lat":43.29023,"lon":5.38131,"is_reserved":false,"is_disabled":false,"rental_uris":{"android":"levelo://app?vid=d8e52f12-a519-4e32-817f-421fec3b8649","ios":"levelo://app?vid=d8e52f12-a519-4e32-817f-421fec3b8649"},"vehicle_type_id":"4","last_reported":1744916874,"current_range_meters":14800,"station_id":"ce4bh4p2rcd13ifvqe1g","pricing_plan_id":"cebpf4jnsgd1na2vs0mg"},{"bike_id":"0b5e9abd-ed34-4d44-9887-1793c13ace65","system_id":"levelo_inurba_marseille","lat":43.31166,"lon":5.3872,"is_reserved":false,"is_disabled":false,"rental_uris":{"android":"levelo://app?vid=0b5e9abd-ed34-4d44-9887-1793c13ace65","ios":"levelo://app?vid=0b5e9abd-ed34-4d44-9887-1793c13ace65"},"vehicle_type_id":"4","last_reported":1744916874,"current_range_meters":14800,"station_id":"ce4bgv12rcd13ifvqcp0","pricing_plan_id":"cebpf4jnsgd1na2vs0mg"},{"bike_id":"a472860e-2170-4660-8572-c40531c6a558","system_id":"levelo_inurba_marseille","lat":43.292632,"lon":5.38448,"is_reserved":false,"is_disabled":false,"rental_uris":{"android":"levelo://app?vid=a472860e-2170-4660-8572-c40531c6a558","ios":"levelo://app?vid=a472860e-2170-4660-8572-c40531c6a558"},"vehicle_type_id":"4","last_reported":1744916874,"current_range_meters":15200,"station_id":"ce4bghh2rcd13ifvqb60","pricing_plan_id":"cebpf4jnsgd1na2vs0mg"},{"bike_id":"a8357f9a-efd1-42a4-8b0a-e0d3da8eaac1","system_id":"levelo_inurba_marseille","lat":43.29307,"lon":5.3747,"is_reserved":false,"is_disabled":false,"rental_uris":{"android":"levelo://app?vid=a8357f9a-efd1-42a4-8b0a-e0d3da8eaac1","ios":"levelo://app?vid=a8357f9a-efd1-42a4-8b0a-e0d3da8eaac1"},"vehicle_type_id":"4","last_reported":1744916874,"current_range_meters":15200,"station_id":"ce4bgi12rcd13ifvqb70","pricing_plan_id":"cebpf4jnsgd1na2vs0mg"},{"bike_id":"290cddca-488d-4c64-803c-d654446083be","system_id":"levelo_inurba_marseille","lat":43.28459,"lon":5.35884,"is_reserved":false,"is_disabled":false,"rental_uris":{"android":"levelo://app?vid=290cddca-488d-4c64-803c-d654446083be","ios":"levelo://app?vid=290cddca-488d-4c64-803c-d654446083be"},"vehicle_type_id":"4","last_reported":1744916874,"current_range_meters":15200,"station_id":"ce4bhah2rcd13ifvqei0","pricing_plan_id":"cebpf4jnsgd1na2vs0mg"},{"bike_id":"8b0a35c8-f8a9-4620-950a-1ec316f59014","system_id":"levelo_inurba_marseille","lat":43.30264,"lon":5.40075,"is_reserved":false,"is_disabled":false,"rental_uris":{"android":"levelo://app?vid=8b0a35c8-f8a9-4620-950a-1ec316f59014","ios":"levelo://app?vid=8b0a35c8-f8a9-4620-950a-1ec316f59014"},"vehicle_type_id":"4","last_reported":1744916874,"current_range_meters":15200,"station_id":"ce4bgvh2rcd13ifvqcs0","pricing_plan_id":"cebpf4jnsgd1na2vs0mg"},{"bike_id":"28163f4f-c4de-4b1c-9a52-664b8f12f97a","system_id":"levelo_inurba_marseille","lat":43.29313,"lon":5.37157,"is_reserved":false,"is_disabled":false,"rental_uris":{"android":"levelo://app?vid=28163f4f-c4de-4b1c-9a52-664b8f12f97a","ios":"levelo://app?vid=28163f4f-c4de-4b1c-9a52-664b8f12f97a"},"vehicle_type_id":"4","last_reported":1744916874,"current_range_meters":15200,"station_id":"ce4bgh92rcd13ifvqb40","pricing_plan_id":"cebpf4jnsgd1na2vs0mg"},{"bike_id":"0aa04ff2-42b7-4b80-822d-abeaa950411e","system_id":"levelo_inurba_marseille","lat":43.29792,"lon":5.39346,"is_reserved":false,"is_disabled":false,"rental_uris":{"android":"levelo://app?vid=0aa04ff2-42b7-4b80-822d-abeaa950411e","ios":"levelo://app?vid=0aa04ff2-42b7-4b80-822d-abeaa950411e"},"vehicle_type_id":"4","last_reported":1744916874,"current_range_meters":15200,"station_id":"chh1huq6cuj3fo74tm60","pricing_plan_id":"cebpf4jnsgd1na2vs0mg"},{"bike_id":"60f8eb26-d4c3-430c-ac11-0e082ae2b9dd","system_id":"levelo_inurba_marseille","lat":43.29843,"lon":5.36266,"is_reserved":false,"is_disabled":false,"rental_uris":{"android":"levelo://app?vid=60f8eb26-d4c3-430c-ac11-0e082ae2b9dd","ios":"levelo://app?vid=60f8eb26-d4c3-430c-ac11-0e082ae2b9dd"},"vehicle_type_id":"4","last_reported":1744916874,"current_range_meters":15200,"station_id":"ce4bgpp2rcd13ifvqc3g","pricing_plan_id":"cebpf4jnsgd1na2vs0mg"},{"bike_id":"799fd552-dbb8-4e4f-8a9f-cf3ed7e77450","system_id":"levelo_inurba_marseille","lat":43.29416,"lon":5.3863,"is_reserved":false,"is_disabled":false,"rental_uris":{"android":"levelo://app?vid=799fd552-dbb8-4e4f-8a9f-cf3ed7e77450","ios":"levelo://app?vid=799fd552-dbb8-4e4f-8a9f-cf3ed7e77450"},"vehicle_type_id":"4","last_reported":1744916874,"current_range_meters":16000,"station_id":"ce4bh2h2rcd13ifvqdh0","pricing_plan_id":"cebpf4jnsgd1na2vs0mg"},{"bike_id":"e3457cbd-5979-4ab1-86f1-9b3c959192cf","system_id":"levelo_inurba_marseille","lat":43.29072,"lon":5.37148,"is_reserved":false,"is_disabled":false,"rental_uris":{"android":"levelo://app?vid=e3457cbd-5979-4ab1-86f1-9b3c959192cf","ios":"levelo://app?vid=e3457cbd-5979-4ab1-86f1-9b3c959192cf"},"vehicle_type_id":"4","last_reported":1744916874,"current_range_meters":15200,"station_id":"ce4bh5p2rcd13ifvqe4g","pricing_plan_id":"cebpf4jnsgd1na2vs0mg"},{"bike_id":"2daa1a4a-afb7-470b-9fac-d2f8da0290d5","system_id":"levelo_inurba_marseille","lat":43.25572,"lon":5.38243,"is_reserved":false,"is_disabled":false,"rental_uris":{"android":"levelo://app?vid=2daa1a4a-afb7-470b-9fac-d2f8da0290d5","ios":"levelo://app?vid=2daa1a4a-afb7-470b-9fac-d2f8da0290d5"},"vehicle_type_id":"4","last_reported":1744916874,"current_range_meters":16000,"station_id":"ce4bhih2rcd13ifvqfs0","pricing_plan_id":"cebpf4jnsgd1na2vs0mg"},{"bike_id":"35ddb9bc-e2d3-4edd-a133-57f40b04d7ac","system_id":"levelo_inurba_marseille","lat":43.29526,"lon":5.39052,"is_reserved":false,"is_disabled":false,"rental_uris":{"android":"levelo://app?vid=35ddb9bc-e2d3-4edd-a133-57f40b04d7ac","ios":"levelo://app?vid=35ddb9bc-e2d3-4edd-a133-57f40b04d7ac"},"vehicle_type_id":"4","last_reported":1744916874,"current_range_meters":15200,"station_id":"ce4bh3p2rcd13ifvqdp0","pricing_plan_id":"cebpf4jnsgd1na2vs0mg"},{"bike_id":"9ec1fe20-24a6-4108-b0e1-9c60d1548231","system_id":"levelo_inurba_marseille","lat":43.31531,"lon":5.38039,"is_reserved":false,"is_disabled":false,"rental_uris":{"android":"levelo://app?vid=9ec1fe20-24a6-4108-b0e1-9c60d1548231","ios":"levelo://app?vid=9ec1fe20-24a6-4108-b0e1-9c60d1548231"},"vehicle_type_id":"4","last_reported":1744916874,"current_range_meters":15200,"station_id":"ce4bhsp2rcd13ifvqi50","pricing_plan_id":"cebpf4jnsgd1na2vs0mg"},{"bike_id":"0fb1a105-b046-4c66-baab-c2dec6ff86a2","system_id":"levelo_inurba_marseille","lat":43.28608,"lon":5.37062,"is_reserved":false,"is_disabled":false,"rental_uris":{"android":"levelo://app?vid=0fb1a105-b046-4c66-baab-c2dec6ff86a2","ios":"levelo://app?vid=0fb1a105-b046-4c66-baab-c2dec6ff86a2"},"vehicle_type_id":"4","last_reported":1744916874,"current_range_meters":16000,"station_id":"ce4bht12rcd13ifvqi60","pricing_plan_id":"cebpf4jnsgd1na2vs0mg"},{"bike_id":"0671f626-0ad6-4042-accd-9d074be5bf2d","system_id":"levelo_inurba_marseille","lat":43.29262,"lon":5.38426,"is_reserved":false,"is_disabled":false,"rental_uris":{"android":"levelo://app?vid=0671f626-0ad6-4042-accd-9d074be5bf2d","ios":"levelo://app?vid=0671f626-0ad6-4042-accd-9d074be5bf2d"},"vehicle_type_id":"4","last_reported":1744916874,"current_range_meters":16000,"station_id":"ce4bh692rcd13ifvqea0","pricing_plan_id":"cebpf4jnsgd1na2vs0mg"},{"bike_id":"536dde2f-0bf5-4e85-aeb1-cb0580493ff9","system_id":"levelo_inurba_marseille","lat":43.31074,"lon":5.38341,"is_reserved":false,"is_disabled":false,"rental_uris":{"android":"levelo://app?vid=536dde2f-0bf5-4e85-aeb1-cb0580493ff9","ios":"levelo://app?vid=536dde2f-0bf5-4e85-aeb1-cb0580493ff9"},"vehicle_type_id":"4","last_reported":1744916874,"current_range_meters":16400,"station_id":"ce4bgv92rcd13ifvqcr0","pricing_plan_id":"cebpf4jnsgd1na2vs0mg"},{"bike_id":"c3277773-abd9-4022-a87d-6ef305b67cf2","system_id":"levelo_inurba_marseille","lat":43.29567,"lon":5.37533,"is_reserved":false,"is_disabled":false,"rental_uris":{"android":"levelo://app?vid=c3277773-abd9-4022-a87d-6ef305b67cf2","ios":"levelo://app?vid=c3277773-abd9-4022-a87d-6ef305b67cf2"},"vehicle_type_id":"4","last_reported":1744916874,"current_range_meters":16400,"station_id":"ce4bgh92rcd13ifvqb50","pricing_plan_id":"cebpf4jnsgd1na2vs0mg"},{"bike_id":"00845e1e-292e-4db5-9c9b-86ee55be5fc2","system_id":"levelo_inurba_marseille","lat":43.28725,"lon":5.36087,"is_reserved":false,"is_disabled":false,"rental_uris":{"android":"levelo://app?vid=00845e1e-292e-4db5-9c9b-86ee55be5fc2","ios":"levelo://app?vid=00845e1e-292e-4db5-9c9b-86ee55be5fc2"},"vehicle_type_id":"4","last_reported":1744916874,"current_range_meters":16400,"station_id":"cki0cbj6b192h4jlfktg","pricing_plan_id":"cebpf4jnsgd1na2vs0mg"},{"bike_id":"9ccc1250-0ff6-4acc-bd2f-67431ef76582","system_id":"levelo_inurba_marseille","lat":43.28413,"lon":5.34995,"is_reserved":false,"is_disabled":false,"rental_uris":{"android":"levelo://app?vid=9ccc1250-0ff6-4acc-bd2f-67431ef76582","ios":"levelo://app?vid=9ccc1250-0ff6-4acc-bd2f-67431ef76582"},"vehicle_type_id":"4","last_reported":1744916874,"current_range_meters":16400,"station_id":"ce4bhbh2rcd13ifvqepg","pricing_plan_id":"cebpf4jnsgd1na2vs0mg"},{"bike_id":"67ca033d-e4a0-4c4f-9175-3ed445bb7a94","system_id":"levelo_inurba_marseille","lat":43.28454,"lon":5.35881,"is_reserved":false,"is_disabled":false,"rental_uris":{"android":"levelo://app?vid=67ca033d-e4a0-4c4f-9175-3ed445bb7a94","ios":"levelo://app?vid=67ca033d-e4a0-4c4f-9175-3ed445bb7a94"},"vehicle_type_id":"4","last_reported":1744916874,"current_range_meters":16400,"station_id":"ce4bhah2rcd13ifvqei0","pricing_plan_id":"cebpf4jnsgd1na2vs0mg"},{"bike_id":"9b3bb13d-66c0-4eb1-8f75-b31ca5a75a7d","system_id":"levelo_inurba_marseille","lat":43.28935,"lon":5.38397,"is_reserved":false,"is_disabled":false,"rental_uris":{"android":"levelo://app?vid=9b3bb13d-66c0-4eb1-8f75-b31ca5a75a7d","ios":"levelo://app?vid=9b3bb13d-66c0-4eb1-8f75-b31ca5a75a7d"},"vehicle_type_id":"4","last_reported":1744916874,"current_range_meters":16400,"station_id":"ce4bh612rcd13ifvqe6g","pricing_plan_id":"cebpf4jnsgd1na2vs0mg"},{"bike_id":"510ae69c-2759-4414-9425-d7a06ed0a5fe","system_id":"levelo_inurba_marseille","lat":43.290422,"lon":5.386638,"is_reserved":false,"is_disabled":false,"rental_uris":{"android":"levelo://app?vid=510ae69c-2759-4414-9425-d7a06ed0a5fe","ios":"levelo://app?vid=510ae69c-2759-4414-9425-d7a06ed0a5fe"},"vehicle_type_id":"4","last_reported":1744916874,"current_range_meters":16400,"station_id":"ce4bh4p2rcd13ifvqe0g","pricing_plan_id":"cebpf4jnsgd1na2vs0mg"},{"bike_id":"88a589cb-7e6a-4c2c-aba2-f8667b2c7927","system_id":"levelo_inurba_marseille","lat":43.29886,"lon":5.39735,"is_reserved":false,"is_disabled":false,"rental_uris":{"android":"levelo://app?vid=88a589cb-7e6a-4c2c-aba2-f8667b2c7927","ios":"levelo://app?vid=88a589cb-7e6a-4c2c-aba2-f8667b2c7927"},"vehicle_type_id":"4","last_reported":1744916874,"current_range_meters":16400,"station_id":"ce4bh0h2rcd13ifvqd50","pricing_plan_id":"cebpf4jnsgd1na2vs0mg"},{"bike_id":"f8fc12fd-017f-4762-9135-8b3c5a08cdaf","system_id":"levelo_inurba_marseille","lat":43.31074,"lon":5.38355,"is_reserved":false,"is_disabled":false,"rental_uris":{"android":"levelo://app?vid=f8fc12fd-017f-4762-9135-8b3c5a08cdaf","ios":"levelo://app?vid=f8fc12fd-017f-4762-9135-8b3c5a08cdaf"},"vehicle_type_id":"4","last_reported":1744916874,"current_range_meters":16400,"station_id":"ce4bgv92rcd13ifvqcr0","pricing_plan_id":"cebpf4jnsgd1na2vs0mg"},{"bike_id":"5bdc7201-5a9e-4c6f-adb3-ac2aa03dc20b","system_id":"levelo_inurba_marseille","lat":43.28406,"lon":5.35006,"is_reserved":false,"is_disabled":false,"rental_uris":{"android":"levelo://app?vid=5bdc7201-5a9e-4c6f-adb3-ac2aa03dc20b","ios":"levelo://app?vid=5bdc7201-5a9e-4c6f-adb3-ac2aa03dc20b"},"vehicle_type_id":"4","last_reported":1744916874,"current_range_meters":16400,"station_id":"ce4bhbh2rcd13ifvqepg","pricing_plan_id":"cebpf4jnsgd1na2vs0mg"},{"bike_id":"e8ef03ec-94c2-4894-82ab-b33906d66d0f","system_id":"levelo_inurba_marseille","lat":43.25577,"lon":5.38252,"is_reserved":false,"is_disabled":false,"rental_uris":{"android":"levelo://app?vid=e8ef03ec-94c2-4894-82ab-b33906d66d0f","ios":"levelo://app?vid=e8ef03ec-94c2-4894-82ab-b33906d66d0f"},"vehicle_type_id":"4","last_reported":1744916874,"current_range_meters":16400,"station_id":"ce4bhih2rcd13ifvqfs0","pricing_plan_id":"cebpf4jnsgd1na2vs0mg"},{"bike_id":"a0ddb0a5-f7f0-4281-aa27-9e82747cc573","system_id":"levelo_inurba_marseille","lat":43.33754,"lon":5.37491,"is_reserved":false,"is_disabled":false,"rental_uris":{"android":"levelo://app?vid=a0ddb0a5-f7f0-4281-aa27-9e82747cc573","ios":"levelo://app?vid=a0ddb0a5-f7f0-4281-aa27-9e82747cc573"},"vehicle_type_id":"4","last_reported":1744916874,"current_range_meters":16400,"station_id":"","pricing_plan_id":"cebpf4jnsgd1na2vs0mg"},{"bike_id":"9fe6b68c-b08e-4d81-8c7d-760938ace4d6","system_id":"levelo_inurba_marseille","lat":43.29286,"lon":5.36061,"is_reserved":false,"is_disabled":false,"rental_uris":{"android":"levelo://app?vid=9fe6b68c-b08e-4d81-8c7d-760938ace4d6","ios":"levelo://app?vid=9fe6b68c-b08e-4d81-8c7d-760938ace4d6"},"vehicle_type_id":"4","last_reported":1744916874,"current_range_meters":16800,"station_id":"ce4bhbh2rcd13ifvqeqg","pricing_plan_id":"cebpf4jnsgd1na2vs0mg"},{"bike_id":"bbb1c662-cc65-4c72-8489-de78d2f0f12f","system_id":"levelo_inurba_marseille","lat":43.23066,"lon":5.35491,"is_reserved":false,"is_disabled":false,"rental_uris":{"android":"levelo://app?vid=bbb1c662-cc65-4c72-8489-de78d2f0f12f","ios":"levelo://app?vid=bbb1c662-cc65-4c72-8489-de78d2f0f12f"},"vehicle_type_id":"4","last_reported":1744916874,"current_range_meters":16800,"station_id":"cpo3342slgdg3j2ifvpg","pricing_plan_id":"cebpf4jnsgd1na2vs0mg"},{"bike_id":"bd492354-2d79-4427-82ee-84e4a12dea30","system_id":"levelo_inurba_marseille","lat":43.21197,"lon":5.35069,"is_reserved":false,"is_disabled":false,"rental_uris":{"android":"levelo://app?vid=bd492354-2d79-4427-82ee-84e4a12dea30","ios":"levelo://app?vid=bd492354-2d79-4427-82ee-84e4a12dea30"},"vehicle_type_id":"4","last_reported":1744916874,"current_range_meters":16800,"station_id":"st_cvj6sg6p6f1abm77japg","pricing_plan_id":"cebpf4jnsgd1na2vs0mg"},{"bike_id":"f67c914a-531e-4ad5-b41c-cc8fccfce3a3","system_id":"levelo_inurba_marseille","lat":43.26068,"lon":5.39405,"is_reserved":false,"is_disabled":false,"rental_uris":{"android":"levelo://app?vid=f67c914a-531e-4ad5-b41c-cc8fccfce3a3","ios":"levelo://app?vid=f67c914a-531e-4ad5-b41c-cc8fccfce3a3"},"vehicle_type_id":"4","last_reported":1744916874,"current_range_meters":16800,"station_id":"ce4bhh92rcd13ifvqfj0","pricing_plan_id":"cebpf4jnsgd1na2vs0mg"},{"bike_id":"7ed91d22-3d5b-4254-83bf-64eb2a7d5481","system_id":"levelo_inurba_marseille","lat":43.22512,"lon":5.34785,"is_reserved":false,"is_disabled":false,"rental_uris":{"android":"levelo://app?vid=7ed91d22-3d5b-4254-83bf-64eb2a7d5481","ios":"levelo://app?vid=7ed91d22-3d5b-4254-83bf-64eb2a7d5481"},"vehicle_type_id":"4","last_reported":1744916874,"current_range_meters":16800,"station_id":"","pricing_plan_id":"cebpf4jnsgd1na2vs0mg"},{"bike_id":"f81de338-fe15-4675-87a0-27670621aa37","system_id":"levelo_inurba_marseille","lat":43.247899,"lon":5.374789,"is_reserved":false,"is_disabled":false,"rental_uris":{"android":"levelo://app?vid=f81de338-fe15-4675-87a0-27670621aa37","ios":"levelo://app?vid=f81de338-fe15-4675-87a0-27670621aa37"},"vehicle_type_id":"4","last_reported":1744916874,"current_range_meters":16800,"station_id":"ce4bhgh2rcd13ifvqfb0","pricing_plan_id":"cebpf4jnsgd1na2vs0mg"},{"bike_id":"c41facca-8ed6-4772-99bb-68f11d75fa62","system_id":"levelo_inurba_marseille","lat":43.28412,"lon":5.37523,"is_reserved":false,"is_disabled":false,"rental_uris":{"android":"levelo://app?vid=c41facca-8ed6-4772-99bb-68f11d75fa62","ios":"levelo://app?vid=c41facca-8ed6-4772-99bb-68f11d75fa62"},"vehicle_type_id":"4","last_reported":1744916874,"current_range_meters":16800,"station_id":"ce4bh412rcd13ifvqds0","pricing_plan_id":"cebpf4jnsgd1na2vs0mg"},{"bike_id":"799162a7-fbbc-4134-ba51-b890197ce025","system_id":"levelo_inurba_marseille","lat":43.308,"lon":5.38158,"is_reserved":false,"is_disabled":false,"rental_uris":{"android":"levelo://app?vid=799162a7-fbbc-4134-ba51-b890197ce025","ios":"levelo://app?vid=799162a7-fbbc-4134-ba51-b890197ce025"},"vehicle_type_id":"4","last_reported":1744916874,"current_range_meters":16800,"station_id":"ce4bgt12rcd13ifvqce0","pricing_plan_id":"cebpf4jnsgd1na2vs0mg"},{"bike_id":"d57023a8-ca84-4d44-ba60-11037d1468ea","system_id":"levelo_inurba_marseille","lat":43.29251,"lon":5.38451,"is_reserved":false,"is_disabled":false,"rental_uris":{"android":"levelo://app?vid=d57023a8-ca84-4d44-ba60-11037d1468ea","ios":"levelo://app?vid=d57023a8-ca84-4d44-ba60-11037d1468ea"},"vehicle_type_id":"4","last_reported":1744916874,"current_range_meters":16800,"station_id":"ce4bh692rcd13ifvqea0","pricing_plan_id":"cebpf4jnsgd1na2vs0mg"},{"bike_id":"007ee9c7-c769-4de9-a218-517ff098b9cd","system_id":"levelo_inurba_marseille","lat":43.314505,"lon":5.373787,"is_reserved":false,"is_disabled":false,"rental_uris":{"android":"levelo://app?vid=007ee9c7-c769-4de9-a218-517ff098b9cd","ios":"levelo://app?vid=007ee9c7-c769-4de9-a218-517ff098b9cd"},"vehicle_type_id":"4","last_reported":1744916874,"current_range_meters":16800,"station_id":"","pricing_plan_id":"cebpf4jnsgd1na2vs0mg"},{"bike_id":"0ced172e-d267-48f8-823b-595463e3fa07","system_id":"levelo_inurba_marseille","lat":43.29425,"lon":5.38617,"is_reserved":false,"is_disabled":false,"rental_uris":{"android":"levelo://app?vid=0ced172e-d267-48f8-823b-595463e3fa07","ios":"levelo://app?vid=0ced172e-d267-48f8-823b-595463e3fa07"},"vehicle_type_id":"4","last_reported":1744916874,"current_range_meters":16800,"station_id":"ce4bh2h2rcd13ifvqdh0","pricing_plan_id":"cebpf4jnsgd1na2vs0mg"},{"bike_id":"68394fd5-d634-485e-8029-a1a9192346ae","system_id":"levelo_inurba_marseille","lat":43.29245,"lon":5.38433,"is_reserved":false,"is_disabled":false,"rental_uris":{"android":"levelo://app?vid=68394fd5-d634-485e-8029-a1a9192346ae","ios":"levelo://app?vid=68394fd5-d634-485e-8029-a1a9192346ae"},"vehicle_type_id":"4","last_reported":1744916874,"current_range_meters":16800,"station_id":"ce4bh692rcd13ifvqea0","pricing_plan_id":"cebpf4jnsgd1na2vs0mg"},{"bike_id":"56660fc5-93c2-40df-8f37-53cd48442837","system_id":"levelo_inurba_marseille","lat":43.2962,"lon":5.37156,"is_reserved":false,"is_disabled":false,"rental_uris":{"android":"levelo://app?vid=56660fc5-93c2-40df-8f37-53cd48442837","ios":"levelo://app?vid=56660fc5-93c2-40df-8f37-53cd48442837"},"vehicle_type_id":"4","last_reported":1744916874,"current_range_meters":16800,"station_id":"ce4bgnh2rcd13ifvqc0g","pricing_plan_id":"cebpf4jnsgd1na2vs0mg"},{"bike_id":"ddb81e49-3ca3-408e-bb7e-97e32c56d0f7","system_id":"levelo_inurba_marseille","lat":43.27903,"lon":5.3799,"is_reserved":false,"is_disabled":false,"rental_uris":{"android":"levelo://app?vid=ddb81e49-3ca3-408e-bb7e-97e32c56d0f7","ios":"levelo://app?vid=ddb81e49-3ca3-408e-bb7e-97e32c56d0f7"},"vehicle_type_id":"4","last_reported":1744916874,"current_range_meters":16800,"station_id":"ce4bhf92rcd13ifvqf50","pricing_plan_id":"cebpf4jnsgd1na2vs0mg"},{"bike_id":"135f0758-d03d-42f1-a2d6-49e93dc7a634","system_id":"levelo_inurba_marseille","lat":43.29821,"lon":5.36377,"is_reserved":false,"is_disabled":false,"rental_uris":{"android":"levelo://app?vid=135f0758-d03d-42f1-a2d6-49e93dc7a634","ios":"levelo://app?vid=135f0758-d03d-42f1-a2d6-49e93dc7a634"},"vehicle_type_id":"4","last_reported":1744916874,"current_range_meters":16800,"station_id":"","pricing_plan_id":"cebpf4jnsgd1na2vs0mg"},{"bike_id":"99c76d54-1eb0-43ad-a55d-ec5076798130","system_id":"levelo_inurba_marseille","lat":43.29702,"lon":5.36623,"is_reserved":false,"is_disabled":false,"rental_uris":{"android":"levelo://app?vid=99c76d54-1eb0-43ad-a55d-ec5076798130","ios":"levelo://app?vid=99c76d54-1eb0-43ad-a55d-ec5076798130"},"vehicle_type_id":"4","last_reported":1744916874,"current_range_meters":16400,"station_id":"ce4bgn12rcd13ifvqbt0","pricing_plan_id":"cebpf4jnsgd1na2vs0mg"},{"bike_id":"e3b9c86b-9e49-41d1-83da-e803d37c2cf4","system_id":"levelo_inurba_marseille","lat":43.301358,"lon":5.387906,"is_reserved":false,"is_disabled":true,"rental_uris":{"android":"levelo://app?vid=e3b9c86b-9e49-41d1-83da-e803d37c2cf4","ios":"levelo://app?vid=e3b9c86b-9e49-41d1-83da-e803d37c2cf4"},"vehicle_type_id":"4","last_reported":1744916874,"current_range_meters":17200,"station_id":"ce4bghh2rcd13ifvqb60","pricing_plan_id":"cebpf4jnsgd1na2vs0mg"},{"bike_id":"e320127e-635e-4437-acaa-5c58389e4c0a","system_id":"levelo_inurba_marseille","lat":43.29413,"lon":5.38607,"is_reserved":false,"is_disabled":false,"rental_uris":{"android":"levelo://app?vid=e320127e-635e-4437-acaa-5c58389e4c0a","ios":"levelo://app?vid=e320127e-635e-4437-acaa-5c58389e4c0a"},"vehicle_type_id":"4","last_reported":1744916874,"current_range_meters":17200,"station_id":"ce4bh2h2rcd13ifvqdh0","pricing_plan_id":"cebpf4jnsgd1na2vs0mg"},{"bike_id":"98fcf346-0613-42b3-acfd-38cd20c230bc","system_id":"levelo_inurba_marseille","lat":43.30254,"lon":5.40066,"is_reserved":false,"is_disabled":false,"rental_uris":{"android":"levelo://app?vid=98fcf346-0613-42b3-acfd-38cd20c230bc","ios":"levelo://app?vid=98fcf346-0613-42b3-acfd-38cd20c230bc"},"vehicle_type_id":"4","last_reported":1744916874,"current_range_meters":17200,"station_id":"ce4bgvh2rcd13ifvqcs0","pricing_plan_id":"cebpf4jnsgd1na2vs0mg"},{"bike_id":"4cdeb94d-6b8c-4d5b-a59f-49def5ff14db","system_id":"levelo_inurba_marseille","lat":43.27492,"lon":5.42462,"is_reserved":false,"is_disabled":false,"rental_uris":{"android":"levelo://app?vid=4cdeb94d-6b8c-4d5b-a59f-49def5ff14db","ios":"levelo://app?vid=4cdeb94d-6b8c-4d5b-a59f-49def5ff14db"},"vehicle_type_id":"4","last_reported":1744916874,"current_range_meters":17200,"station_id":"ce4bhn92rcd13ifvqgrg","pricing_plan_id":"cebpf4jnsgd1na2vs0mg"},{"bike_id":"d6a15406-d59a-4743-b38b-2ddcdce016e0","system_id":"levelo_inurba_marseille","lat":43.29309,"lon":5.37179,"is_reserved":false,"is_disabled":false,"rental_uris":{"android":"levelo://app?vid=d6a15406-d59a-4743-b38b-2ddcdce016e0","ios":"levelo://app?vid=d6a15406-d59a-4743-b38b-2ddcdce016e0"},"vehicle_type_id":"4","last_reported":1744916874,"current_range_meters":17200,"station_id":"ce4bgh92rcd13ifvqb40","pricing_plan_id":"cebpf4jnsgd1na2vs0mg"},{"bike_id":"0ffafc47-74ff-4ddc-86e8-6f4cf8df5cd2","system_id":"levelo_inurba_marseille","lat":43.22929,"lon":5.35379,"is_reserved":false,"is_disabled":false,"rental_uris":{"android":"levelo://app?vid=0ffafc47-74ff-4ddc-86e8-6f4cf8df5cd2","ios":"levelo://app?vid=0ffafc47-74ff-4ddc-86e8-6f4cf8df5cd2"},"vehicle_type_id":"4","last_reported":1744916874,"current_range_meters":17200,"station_id":"cpo3532slgdg3j2ikp40","pricing_plan_id":"cebpf4jnsgd1na2vs0mg"},{"bike_id":"796a6822-c16b-4283-8e25-c148db169258","system_id":"levelo_inurba_marseille","lat":43.28087,"lon":5.3966,"is_reserved":false,"is_disabled":false,"rental_uris":{"android":"levelo://app?vid=796a6822-c16b-4283-8e25-c148db169258","ios":"levelo://app?vid=796a6822-c16b-4283-8e25-c148db169258"},"vehicle_type_id":"4","last_reported":1744916874,"current_range_meters":17200,"station_id":"ce4bho12rcd13ifvqh2g","pricing_plan_id":"cebpf4jnsgd1na2vs0mg"},{"bike_id":"076355f1-ba05-4b14-94f8-7678f1392346","system_id":"levelo_inurba_marseille","lat":43.28406,"lon":5.34997,"is_reserved":false,"is_disabled":false,"rental_uris":{"android":"levelo://app?vid=076355f1-ba05-4b14-94f8-7678f1392346","ios":"levelo://app?vid=076355f1-ba05-4b14-94f8-7678f1392346"},"vehicle_type_id":"4","last_reported":1744916874,"current_range_meters":17200,"station_id":"ce4bhbh2rcd13ifvqepg","pricing_plan_id":"cebpf4jnsgd1na2vs0mg"},{"bike_id":"5ba7829e-1ef1-4ae5-a064-889b4bffd9e0","system_id":"levelo_inurba_marseille","lat":43.28084,"lon":5.3966,"is_reserved":false,"is_disabled":false,"rental_uris":{"android":"levelo://app?vid=5ba7829e-1ef1-4ae5-a064-889b4bffd9e0","ios":"levelo://app?vid=5ba7829e-1ef1-4ae5-a064-889b4bffd9e0"},"vehicle_type_id":"4","last_reported":1744916874,"current_range_meters":17200,"station_id":"ce4bho12rcd13ifvqh2g","pricing_plan_id":"cebpf4jnsgd1na2vs0mg"},{"bike_id":"98e351b6-e429-4e97-993e-f876c4c93767","system_id":"levelo_inurba_marseille","lat":43.30531,"lon":5.38438,"is_reserved":false,"is_disabled":false,"rental_uris":{"android":"levelo://app?vid=98e351b6-e429-4e97-993e-f876c4c93767","ios":"levelo://app?vid=98e351b6-e429-4e97-993e-f876c4c93767"},"vehicle_type_id":"4","last_reported":1744916874,"current_range_meters":17200,"station_id":"ce4bgg92rcd13ifvqb30","pricing_plan_id":"cebpf4jnsgd1na2vs0mg"},{"bike_id":"b41e62c2-34af-4b25-9d26-b5d23609f789","system_id":"levelo_inurba_marseille","lat":43.32332,"lon":5.40622,"is_reserved":false,"is_disabled":false,"rental_uris":{"android":"levelo://app?vid=b41e62c2-34af-4b25-9d26-b5d23609f789","ios":"levelo://app?vid=b41e62c2-34af-4b25-9d26-b5d23609f789"},"vehicle_type_id":"4","last_reported":1744916874,"current_range_meters":17600,"station_id":"ce4bhq92rcd13ifvqhjg","pricing_plan_id":"cebpf4jnsgd1na2vs0mg"},{"bike_id":"566bd714-3608-4373-8f38-fccb28c27f59","system_id":"levelo_inurba_marseille","lat":43.29425,"lon":5.38634,"is_reserved":false,"is_disabled":false,"rental_uris":{"android":"levelo://app?vid=566bd714-3608-4373-8f38-fccb28c27f59","ios":"levelo://app?vid=566bd714-3608-4373-8f38-fccb28c27f59"},"vehicle_type_id":"4","last_reported":1744916874,"current_range_meters":17600,"station_id":"ce4bh2h2rcd13ifvqdh0","pricing_plan_id":"cebpf4jnsgd1na2vs0mg"},{"bike_id":"ecf1b2ce-6838-4d42-ab1f-fc94cebd3b05","system_id":"levelo_inurba_marseille","lat":43.32365,"lon":5.38889,"is_reserved":false,"is_disabled":false,"rental_uris":{"android":"levelo://app?vid=ecf1b2ce-6838-4d42-ab1f-fc94cebd3b05","ios":"levelo://app?vid=ecf1b2ce-6838-4d42-ab1f-fc94cebd3b05"},"vehicle_type_id":"4","last_reported":1744916874,"current_range_meters":17600,"station_id":"ce4bhqp2rcd13ifvqhog","pricing_plan_id":"cebpf4jnsgd1na2vs0mg"},{"bike_id":"16272467-376b-4c3d-b24f-85b6246af5bb","system_id":"levelo_inurba_marseille","lat":43.31066,"lon":5.38357,"is_reserved":false,"is_disabled":false,"rental_uris":{"android":"levelo://app?vid=16272467-376b-4c3d-b24f-85b6246af5bb","ios":"levelo://app?vid=16272467-376b-4c3d-b24f-85b6246af5bb"},"vehicle_type_id":"4","last_reported":1744916874,"current_range_meters":17600,"station_id":"ce4bgv92rcd13ifvqcr0","pricing_plan_id":"cebpf4jnsgd1na2vs0mg"},{"bike_id":"3102fe5b-9726-4434-89d4-364e82bf2e9f","system_id":"levelo_inurba_marseille","lat":43.29415,"lon":5.38618,"is_reserved":false,"is_disabled":false,"rental_uris":{"android":"levelo://app?vid=3102fe5b-9726-4434-89d4-364e82bf2e9f","ios":"levelo://app?vid=3102fe5b-9726-4434-89d4-364e82bf2e9f"},"vehicle_type_id":"4","last_reported":1744916874,"current_range_meters":17600,"station_id":"ce4bh2h2rcd13ifvqdh0","pricing_plan_id":"cebpf4jnsgd1na2vs0mg"},{"bike_id":"51f32d2c-1879-464c-acba-93c57bc66ab6","system_id":"levelo_inurba_marseille","lat":43.29054,"lon":5.35914,"is_reserved":false,"is_disabled":true,"rental_uris":{"android":"levelo://app?vid=51f32d2c-1879-464c-acba-93c57bc66ab6","ios":"levelo://app?vid=51f32d2c-1879-464c-acba-93c57bc66ab6"},"vehicle_type_id":"4","last_reported":1744916874,"current_range_meters":17600,"station_id":"ce4bha92rcd13ifvqeg0","pricing_plan_id":"cebpf4jnsgd1na2vs0mg"},{"bike_id":"ef6e9c6f-8f69-4fcf-9727-b556a001e5bc","system_id":"levelo_inurba_marseille","lat":43.2956,"lon":5.42302,"is_reserved":false,"is_disabled":false,"rental_uris":{"android":"levelo://app?vid=ef6e9c6f-8f69-4fcf-9727-b556a001e5bc","ios":"levelo://app?vid=ef6e9c6f-8f69-4fcf-9727-b556a001e5bc"},"vehicle_type_id":"4","last_reported":1744916874,"current_range_meters":17600,"station_id":"ce4bhph2rcd13ifvqhdg","pricing_plan_id":"cebpf4jnsgd1na2vs0mg"},{"bike_id":"1bacd6f2-92a7-44cd-a9aa-80d5f49644c9","system_id":"levelo_inurba_marseille","lat":43.29544,"lon":5.39361,"is_reserved":false,"is_disabled":false,"rental_uris":{"android":"levelo://app?vid=1bacd6f2-92a7-44cd-a9aa-80d5f49644c9","ios":"levelo://app?vid=1bacd6f2-92a7-44cd-a9aa-80d5f49644c9"},"vehicle_type_id":"4","last_reported":1744916874,"current_range_meters":17600,"station_id":"ce4bh292rcd13ifvqdf0","pricing_plan_id":"cebpf4jnsgd1na2vs0mg"},{"bike_id":"7eb8853e-3665-40f5-8308-1299f0674652","system_id":"levelo_inurba_marseille","lat":43.30381,"lon":5.42492,"is_reserved":false,"is_disabled":false,"rental_uris":{"android":"levelo://app?vid=7eb8853e-3665-40f5-8308-1299f0674652","ios":"levelo://app?vid=7eb8853e-3665-40f5-8308-1299f0674652"},"vehicle_type_id":"4","last_reported":1744916874,"current_range_meters":17600,"station_id":"ce4bhoh2rcd13ifvqh6g","pricing_plan_id":"cebpf4jnsgd1na2vs0mg"},{"bike_id":"0e4796d5-2ff6-492f-b274-873781237fc6","system_id":"levelo_inurba_marseille","lat":43.31063,"lon":5.38339,"is_reserved":false,"is_disabled":false,"rental_uris":{"android":"levelo://app?vid=0e4796d5-2ff6-492f-b274-873781237fc6","ios":"levelo://app?vid=0e4796d5-2ff6-492f-b274-873781237fc6"},"vehicle_type_id":"4","last_reported":1744916874,"current_range_meters":17600,"station_id":"ce4bgv92rcd13ifvqcr0","pricing_plan_id":"cebpf4jnsgd1na2vs0mg"},{"bike_id":"934a8fc0-98f8-4aaf-a145-d485dee937c7","system_id":"levelo_inurba_marseille","lat":43.32333,"lon":5.36754,"is_reserved":false,"is_disabled":false,"rental_uris":{"android":"levelo://app?vid=934a8fc0-98f8-4aaf-a145-d485dee937c7","ios":"levelo://app?vid=934a8fc0-98f8-4aaf-a145-d485dee937c7"},"vehicle_type_id":"4","last_reported":1744916874,"current_range_meters":17600,"station_id":"ce4bhsh2rcd13ifvqi2g","pricing_plan_id":"cebpf4jnsgd1na2vs0mg"},{"bike_id":"47c271c6-4ea8-4388-a3f0-a245ec407889","system_id":"levelo_inurba_marseille","lat":43.29525,"lon":5.38553,"is_reserved":false,"is_disabled":false,"rental_uris":{"android":"levelo://app?vid=47c271c6-4ea8-4388-a3f0-a245ec407889","ios":"levelo://app?vid=47c271c6-4ea8-4388-a3f0-a245ec407889"},"vehicle_type_id":"4","last_reported":1744916874,"current_range_meters":17600,"station_id":"ce4bgih2rcd13ifvqba0","pricing_plan_id":"cebpf4jnsgd1na2vs0mg"},{"bike_id":"a789912e-dc5d-43d3-8f9e-dbd771344dfc","system_id":"levelo_inurba_marseille","lat":43.24546,"lon":5.39524,"is_reserved":false,"is_disabled":false,"rental_uris":{"android":"levelo://app?vid=a789912e-dc5d-43d3-8f9e-dbd771344dfc","ios":"levelo://app?vid=a789912e-dc5d-43d3-8f9e-dbd771344dfc"},"vehicle_type_id":"4","last_reported":1744916874,"current_range_meters":18000,"station_id":"ce4bhlp2rcd13ifvqgjg","pricing_plan_id":"cebpf4jnsgd1na2vs0mg"},{"bike_id":"50e158f1-c664-4946-b915-32b6ab01eb64","system_id":"levelo_inurba_marseille","lat":43.29026,"lon":5.38646,"is_reserved":false,"is_disabled":false,"rental_uris":{"android":"levelo://app?vid=50e158f1-c664-4946-b915-32b6ab01eb64","ios":"levelo://app?vid=50e158f1-c664-4946-b915-32b6ab01eb64"},"vehicle_type_id":"4","last_reported":1744916874,"current_range_meters":18000,"station_id":"ce4bh4p2rcd13ifvqe0g","pricing_plan_id":"cebpf4jnsgd1na2vs0mg"},{"bike_id":"b1ef82b0-7a77-4486-8ec7-83765358e14a","system_id":"levelo_inurba_marseille","lat":43.29015,"lon":5.3865,"is_reserved":false,"is_disabled":true,"rental_uris":{"android":"levelo://app?vid=b1ef82b0-7a77-4486-8ec7-83765358e14a","ios":"levelo://app?vid=b1ef82b0-7a77-4486-8ec7-83765358e14a"},"vehicle_type_id":"4","last_reported":1744916874,"current_range_meters":18000,"station_id":"ce4bh4p2rcd13ifvqe0g","pricing_plan_id":"cebpf4jnsgd1na2vs0mg"},{"bike_id":"68342d9f-f0b6-47e7-b690-b27078e67a77","system_id":"levelo_inurba_marseille","lat":43.24154,"lon":5.36408,"is_reserved":false,"is_disabled":false,"rental_uris":{"android":"levelo://app?vid=68342d9f-f0b6-47e7-b690-b27078e67a77","ios":"levelo://app?vid=68342d9f-f0b6-47e7-b690-b27078e67a77"},"vehicle_type_id":"4","last_reported":1744916874,"current_range_meters":18000,"station_id":"cpo36qri1sfpv3e86is0","pricing_plan_id":"cebpf4jnsgd1na2vs0mg"},{"bike_id":"2bc57539-fcba-468f-bf5a-417ebb99a30c","system_id":"levelo_inurba_marseille","lat":43.29314,"lon":5.37166,"is_reserved":false,"is_disabled":false,"rental_uris":{"android":"levelo://app?vid=2bc57539-fcba-468f-bf5a-417ebb99a30c","ios":"levelo://app?vid=2bc57539-fcba-468f-bf5a-417ebb99a30c"},"vehicle_type_id":"4","last_reported":1744916874,"current_range_meters":17600,"station_id":"ce4bgh92rcd13ifvqb40","pricing_plan_id":"cebpf4jnsgd1na2vs0mg"},{"bike_id":"3910a374-2199-4e97-a483-65b2cd02ef4b","system_id":"levelo_inurba_marseille","lat":43.29308,"lon":5.38426,"is_reserved":false,"is_disabled":false,"rental_uris":{"android":"levelo://app?vid=3910a374-2199-4e97-a483-65b2cd02ef4b","ios":"levelo://app?vid=3910a374-2199-4e97-a483-65b2cd02ef4b"},"vehicle_type_id":"4","last_reported":1744916874,"current_range_meters":18000,"station_id":"ce4bh692rcd13ifvqea0","pricing_plan_id":"cebpf4jnsgd1na2vs0mg"},{"bike_id":"791b2289-d015-45a4-b3a3-090c7aebd71b","system_id":"levelo_inurba_marseille","lat":43.2994,"lon":5.36544,"is_reserved":false,"is_disabled":false,"rental_uris":{"android":"levelo://app?vid=791b2289-d015-45a4-b3a3-090c7aebd71b","ios":"levelo://app?vid=791b2289-d015-45a4-b3a3-090c7aebd71b"},"vehicle_type_id":"4","last_reported":1744916874,"current_range_meters":18000,"station_id":"ce4bgm92rcd13ifvqbr0","pricing_plan_id":"cebpf4jnsgd1na2vs0mg"},{"bike_id":"85ac49b9-718c-4937-ab2a-8e998e69b6ca","system_id":"levelo_inurba_marseille","lat":43.24382,"lon":5.37061,"is_reserved":false,"is_disabled":false,"rental_uris":{"android":"levelo://app?vid=85ac49b9-718c-4937-ab2a-8e998e69b6ca","ios":"levelo://app?vid=85ac49b9-718c-4937-ab2a-8e998e69b6ca"},"vehicle_type_id":"4","last_reported":1744916874,"current_range_meters":18000,"station_id":"ce4bhhh2rcd13ifvqfk0","pricing_plan_id":"cebpf4jnsgd1na2vs0mg"},{"bike_id":"33efbe4e-e642-4271-be29-4926b421ca5b","system_id":"levelo_inurba_marseille","lat":43.24164,"lon":5.36385,"is_reserved":false,"is_disabled":false,"rental_uris":{"android":"levelo://app?vid=33efbe4e-e642-4271-be29-4926b421ca5b","ios":"levelo://app?vid=33efbe4e-e642-4271-be29-4926b421ca5b"},"vehicle_type_id":"4","last_reported":1744916874,"current_range_meters":18000,"station_id":"cpo36qri1sfpv3e86is0","pricing_plan_id":"cebpf4jnsgd1na2vs0mg"},{"bike_id":"977140b3-0178-4f57-9a05-fa771526ca5b","system_id":"levelo_inurba_marseille","lat":43.32487,"lon":5.36555,"is_reserved":false,"is_disabled":false,"rental_uris":{"android":"levelo://app?vid=977140b3-0178-4f57-9a05-fa771526ca5b","ios":"levelo://app?vid=977140b3-0178-4f57-9a05-fa771526ca5b"},"vehicle_type_id":"4","last_reported":1744916874,"current_range_meters":18000,"station_id":"ce4bhs12rcd13ifvqhvg","pricing_plan_id":"cebpf4jnsgd1na2vs0mg"},{"bike_id":"582194ef-7a33-488b-b761-11452d250b35","system_id":"levelo_inurba_marseille","lat":43.3015,"lon":5.39839,"is_reserved":false,"is_disabled":false,"rental_uris":{"android":"levelo://app?vid=582194ef-7a33-488b-b761-11452d250b35","ios":"levelo://app?vid=582194ef-7a33-488b-b761-11452d250b35"},"vehicle_type_id":"4","last_reported":1744916874,"current_range_meters":18800,"station_id":"ce4bh0h2rcd13ifvqd40","pricing_plan_id":"cebpf4jnsgd1na2vs0mg"},{"bike_id":"f332932e-b174-483a-8274-751626cfe4bb","system_id":"levelo_inurba_marseille","lat":43.28003,"lon":5.40043,"is_reserved":false,"is_disabled":false,"rental_uris":{"android":"levelo://app?vid=f332932e-b174-483a-8274-751626cfe4bb","ios":"levelo://app?vid=f332932e-b174-483a-8274-751626cfe4bb"},"vehicle_type_id":"4","last_reported":1744916874,"current_range_meters":18800,"station_id":"ce4bho92rcd13ifvqh4g","pricing_plan_id":"cebpf4jnsgd1na2vs0mg"},{"bike_id":"745a854b-125f-42df-8f6c-5ad5e0888c88","system_id":"levelo_inurba_marseille","lat":43.299011,"lon":5.397197,"is_reserved":false,"is_disabled":false,"rental_uris":{"android":"levelo://app?vid=745a854b-125f-42df-8f6c-5ad5e0888c88","ios":"levelo://app?vid=745a854b-125f-42df-8f6c-5ad5e0888c88"},"vehicle_type_id":"4","last_reported":1744916874,"current_range_meters":18800,"station_id":"ce4bgn12rcd13ifvqbt0","pricing_plan_id":"cebpf4jnsgd1na2vs0mg"},{"bike_id":"1eae06a0-1762-4e76-8997-af8f05f64b63","system_id":"levelo_inurba_marseille","lat":43.3107,"lon":5.38357,"is_reserved":false,"is_disabled":false,"rental_uris":{"android":"levelo://app?vid=1eae06a0-1762-4e76-8997-af8f05f64b63","ios":"levelo://app?vid=1eae06a0-1762-4e76-8997-af8f05f64b63"},"vehicle_type_id":"4","last_reported":1744916874,"current_range_meters":18800,"station_id":"ce4bgv92rcd13ifvqcr0","pricing_plan_id":"cebpf4jnsgd1na2vs0mg"},{"bike_id":"789c3822-56ca-4769-bcd4-8845bdea2fda","system_id":"levelo_inurba_marseille","lat":43.241643,"lon":5.363987,"is_reserved":false,"is_disabled":false,"rental_uris":{"android":"levelo://app?vid=789c3822-56ca-4769-bcd4-8845bdea2fda","ios":"levelo://app?vid=789c3822-56ca-4769-bcd4-8845bdea2fda"},"vehicle_type_id":"4","last_reported":1744916874,"current_range_meters":18800,"station_id":"cpo36qri1sfpv3e86is0","pricing_plan_id":"cebpf4jnsgd1na2vs0mg"},{"bike_id":"ff96835c-783c-4487-972f-a0bd821a79f7","system_id":"levelo_inurba_marseille","lat":43.31076,"lon":5.38347,"is_reserved":false,"is_disabled":false,"rental_uris":{"android":"levelo://app?vid=ff96835c-783c-4487-972f-a0bd821a79f7","ios":"levelo://app?vid=ff96835c-783c-4487-972f-a0bd821a79f7"},"vehicle_type_id":"4","last_reported":1744916874,"current_range_meters":18800,"station_id":"ce4bgv92rcd13ifvqcr0","pricing_plan_id":"cebpf4jnsgd1na2vs0mg"},{"bike_id":"c358b5ca-d448-4525-b2fd-38f6522458a6","system_id":"levelo_inurba_marseille","lat":43.284113,"lon":5.375183,"is_reserved":false,"is_disabled":false,"rental_uris":{"android":"levelo://app?vid=c358b5ca-d448-4525-b2fd-38f6522458a6","ios":"levelo://app?vid=c358b5ca-d448-4525-b2fd-38f6522458a6"},"vehicle_type_id":"4","last_reported":1744916874,"current_range_meters":18800,"station_id":"ce4bh412rcd13ifvqds0","pricing_plan_id":"cebpf4jnsgd1na2vs0mg"},{"bike_id":"e8e6a8d4-4124-4f20-88b5-fba6de54bcaa","system_id":"levelo_inurba_marseille","lat":43.29617,"lon":5.3716,"is_reserved":false,"is_disabled":false,"rental_uris":{"android":"levelo://app?vid=e8e6a8d4-4124-4f20-88b5-fba6de54bcaa","ios":"levelo://app?vid=e8e6a8d4-4124-4f20-88b5-fba6de54bcaa"},"vehicle_type_id":"4","last_reported":1744916874,"current_range_meters":18000,"station_id":"ce4bgnh2rcd13ifvqc0g","pricing_plan_id":"cebpf4jnsgd1na2vs0mg"},{"bike_id":"f9d3fbe6-73e5-424e-af02-f446d5b07152","system_id":"levelo_inurba_marseille","lat":43.21753,"lon":5.34628,"is_reserved":false,"is_disabled":false,"rental_uris":{"android":"levelo://app?vid=f9d3fbe6-73e5-424e-af02-f446d5b07152","ios":"levelo://app?vid=f9d3fbe6-73e5-424e-af02-f446d5b07152"},"vehicle_type_id":"4","last_reported":1744916874,"current_range_meters":18800,"station_id":"st_cvj6r9ubvosntc0bgbag","pricing_plan_id":"cebpf4jnsgd1na2vs0mg"},{"bike_id":"3efba3c6-091f-42f0-a6b1-6019d320c613","system_id":"levelo_inurba_marseille","lat":43.30404,"lon":5.39754,"is_reserved":false,"is_disabled":true,"rental_uris":{"android":"levelo://app?vid=3efba3c6-091f-42f0-a6b1-6019d320c613","ios":"levelo://app?vid=3efba3c6-091f-42f0-a6b1-6019d320c613"},"vehicle_type_id":"4","last_reported":1744916874,"current_range_meters":19200,"station_id":"ce4bh092rcd13ifvqd20","pricing_plan_id":"cebpf4jnsgd1na2vs0mg"},{"bike_id":"563f3aac-31db-4b71-ab9a-af95d3784ea6","system_id":"levelo_inurba_marseille","lat":43.28702,"lon":5.37389,"is_reserved":false,"is_disabled":false,"rental_uris":{"android":"levelo://app?vid=563f3aac-31db-4b71-ab9a-af95d3784ea6","ios":"levelo://app?vid=563f3aac-31db-4b71-ab9a-af95d3784ea6"},"vehicle_type_id":"4","last_reported":1744916874,"current_range_meters":19200,"station_id":"ce4bh3p2rcd13ifvqdq0","pricing_plan_id":"cebpf4jnsgd1na2vs0mg"},{"bike_id":"d0c391d8-8b9b-440c-b68b-1528bb943556","system_id":"levelo_inurba_marseille","lat":43.28402,"lon":5.34997,"is_reserved":false,"is_disabled":false,"rental_uris":{"android":"levelo://app?vid=d0c391d8-8b9b-440c-b68b-1528bb943556","ios":"levelo://app?vid=d0c391d8-8b9b-440c-b68b-1528bb943556"},"vehicle_type_id":"4","last_reported":1744916874,"current_range_meters":19200,"station_id":"ce4bhbh2rcd13ifvqepg","pricing_plan_id":"cebpf4jnsgd1na2vs0mg"},{"bike_id":"e28e6468-7234-4b10-aec2-055b393208a9","system_id":"levelo_inurba_marseille","lat":43.28849,"lon":5.39302,"is_reserved":false,"is_disabled":false,"rental_uris":{"android":"levelo://app?vid=e28e6468-7234-4b10-aec2-055b393208a9","ios":"levelo://app?vid=e28e6468-7234-4b10-aec2-055b393208a9"},"vehicle_type_id":"4","last_reported":1744916874,"current_range_meters":19200,"station_id":"ce4bh2p2rcd13ifvqdi0","pricing_plan_id":"cebpf4jnsgd1na2vs0mg"},{"bike_id":"98e3daef-b92b-4ab4-a3e0-f5c4802a836b","system_id":"levelo_inurba_marseille","lat":43.28929,"lon":5.38405,"is_reserved":false,"is_disabled":false,"rental_uris":{"android":"levelo://app?vid=98e3daef-b92b-4ab4-a3e0-f5c4802a836b","ios":"levelo://app?vid=98e3daef-b92b-4ab4-a3e0-f5c4802a836b"},"vehicle_type_id":"4","last_reported":1744916874,"current_range_meters":19200,"station_id":"ce4bh612rcd13ifvqe6g","pricing_plan_id":"cebpf4jnsgd1na2vs0mg"},{"bike_id":"c01d41b4-1f61-495b-9229-0be3168ab0db","system_id":"levelo_inurba_marseille","lat":43.30924,"lon":5.40144,"is_reserved":false,"is_disabled":false,"rental_uris":{"android":"levelo://app?vid=c01d41b4-1f61-495b-9229-0be3168ab0db","ios":"levelo://app?vid=c01d41b4-1f61-495b-9229-0be3168ab0db"},"vehicle_type_id":"4","last_reported":1744916874,"current_range_meters":17600,"station_id":"ce4bgvp2rcd13ifvqct0","pricing_plan_id":"cebpf4jnsgd1na2vs0mg"},{"bike_id":"07006dad-1eac-4c5b-8e9f-977d282a6f86","system_id":"levelo_inurba_marseille","lat":43.30734,"lon":5.42432,"is_reserved":false,"is_disabled":false,"rental_uris":{"android":"levelo://app?vid=07006dad-1eac-4c5b-8e9f-977d282a6f86","ios":"levelo://app?vid=07006dad-1eac-4c5b-8e9f-977d282a6f86"},"vehicle_type_id":"4","last_reported":1744916874,"current_range_meters":19200,"station_id":"st_cvj6ca6bvosntc0bfgr0","pricing_plan_id":"cebpf4jnsgd1na2vs0mg"},{"bike_id":"358f3d73-14a6-404c-ac01-3464ffc4a518","system_id":"levelo_inurba_marseille","lat":43.29029,"lon":5.3865,"is_reserved":false,"is_disabled":false,"rental_uris":{"android":"levelo://app?vid=358f3d73-14a6-404c-ac01-3464ffc4a518","ios":"levelo://app?vid=358f3d73-14a6-404c-ac01-3464ffc4a518"},"vehicle_type_id":"4","last_reported":1744916874,"current_range_meters":19200,"station_id":"ce4bh4p2rcd13ifvqe0g","pricing_plan_id":"cebpf4jnsgd1na2vs0mg"},{"bike_id":"ecd9b5fe-4b17-4d30-a270-9ff21e0a9ad2","system_id":"levelo_inurba_marseille","lat":43.24164,"lon":5.3641,"is_reserved":false,"is_disabled":false,"rental_uris":{"android":"levelo://app?vid=ecd9b5fe-4b17-4d30-a270-9ff21e0a9ad2","ios":"levelo://app?vid=ecd9b5fe-4b17-4d30-a270-9ff21e0a9ad2"},"vehicle_type_id":"4","last_reported":1744916874,"current_range_meters":19200,"station_id":"cpo36qri1sfpv3e86is0","pricing_plan_id":"cebpf4jnsgd1na2vs0mg"},{"bike_id":"65c601bb-fcc3-4a62-865e-8e215b325adc","system_id":"levelo_inurba_marseille","lat":43.32058,"lon":5.41534,"is_reserved":false,"is_disabled":false,"rental_uris":{"android":"levelo://app?vid=65c601bb-fcc3-4a62-865e-8e215b325adc","ios":"levelo://app?vid=65c601bb-fcc3-4a62-865e-8e215b325adc"},"vehicle_type_id":"4","last_reported":1744916874,"current_range_meters":19600,"station_id":"ce4bhq92rcd13ifvqhkg","pricing_plan_id":"cebpf4jnsgd1na2vs0mg"},{"bike_id":"54eea919-f98e-4975-88d5-75e667da928e","system_id":"levelo_inurba_marseille","lat":43.307281,"lon":5.37125,"is_reserved":false,"is_disabled":false,"rental_uris":{"android":"levelo://app?vid=54eea919-f98e-4975-88d5-75e667da928e","ios":"levelo://app?vid=54eea919-f98e-4975-88d5-75e667da928e"},"vehicle_type_id":"4","last_reported":1744916874,"current_range_meters":19600,"station_id":"ce4bh012rcd13ifvqcv0","pricing_plan_id":"cebpf4jnsgd1na2vs0mg"},{"bike_id":"7a1dcd73-1e57-4768-a18f-dd6d6843b6b7","system_id":"levelo_inurba_marseille","lat":43.31161,"lon":5.3873,"is_reserved":false,"is_disabled":false,"rental_uris":{"android":"levelo://app?vid=7a1dcd73-1e57-4768-a18f-dd6d6843b6b7","ios":"levelo://app?vid=7a1dcd73-1e57-4768-a18f-dd6d6843b6b7"},"vehicle_type_id":"4","last_reported":1744916874,"current_range_meters":19600,"station_id":"ce4bgv12rcd13ifvqcp0","pricing_plan_id":"cebpf4jnsgd1na2vs0mg"},{"bike_id":"38fbabd6-ec08-469a-b31f-142408766010","system_id":"levelo_inurba_marseille","lat":43.29294,"lon":5.37437,"is_reserved":false,"is_disabled":false,"rental_uris":{"android":"levelo://app?vid=38fbabd6-ec08-469a-b31f-142408766010","ios":"levelo://app?vid=38fbabd6-ec08-469a-b31f-142408766010"},"vehicle_type_id":"4","last_reported":1744916874,"current_range_meters":19600,"station_id":"ce4bgi12rcd13ifvqb70","pricing_plan_id":"cebpf4jnsgd1na2vs0mg"},{"bike_id":"8ecf4e01-d2fb-40fe-8ca8-cc87934d5b6e","system_id":"levelo_inurba_marseille","lat":43.250073,"lon":5.38927,"is_reserved":false,"is_disabled":false,"rental_uris":{"android":"levelo://app?vid=8ecf4e01-d2fb-40fe-8ca8-cc87934d5b6e","ios":"levelo://app?vid=8ecf4e01-d2fb-40fe-8ca8-cc87934d5b6e"},"vehicle_type_id":"4","last_reported":1744916874,"current_range_meters":19600,"station_id":"ce4bhgp2rcd13ifvqfd0","pricing_plan_id":"cebpf4jnsgd1na2vs0mg"},{"bike_id":"fec01844-7dc4-4fa5-9f7f-86b4b222d43e","system_id":"levelo_inurba_marseille","lat":43.3112,"lon":5.37751,"is_reserved":false,"is_disabled":false,"rental_uris":{"android":"levelo://app?vid=fec01844-7dc4-4fa5-9f7f-86b4b222d43e","ios":"levelo://app?vid=fec01844-7dc4-4fa5-9f7f-86b4b222d43e"},"vehicle_type_id":"4","last_reported":1744916874,"current_range_meters":19600,"station_id":"ce4bgt92rcd13ifvqcg0","pricing_plan_id":"cebpf4jnsgd1na2vs0mg"},{"bike_id":"1344b4f9-8027-4a71-b2a2-c36cdaa38758","system_id":"levelo_inurba_marseille","lat":43.27367,"lon":5.36255,"is_reserved":false,"is_disabled":false,"rental_uris":{"android":"levelo://app?vid=1344b4f9-8027-4a71-b2a2-c36cdaa38758","ios":"levelo://app?vid=1344b4f9-8027-4a71-b2a2-c36cdaa38758"},"vehicle_type_id":"4","last_reported":1744916874,"current_range_meters":20000,"station_id":"ce4bhbh2rcd13ifvqeo0","pricing_plan_id":"cebpf4jnsgd1na2vs0mg"},{"bike_id":"cae77720-4e05-43c1-81a7-1ef3c41feaeb","system_id":"levelo_inurba_marseille","lat":43.32108,"lon":5.3678,"is_reserved":false,"is_disabled":false,"rental_uris":{"android":"levelo://app?vid=cae77720-4e05-43c1-81a7-1ef3c41feaeb","ios":"levelo://app?vid=cae77720-4e05-43c1-81a7-1ef3c41feaeb"},"vehicle_type_id":"4","last_reported":1744916874,"current_range_meters":20000,"station_id":"ce4bhrh2rcd13ifvqhug","pricing_plan_id":"cebpf4jnsgd1na2vs0mg"},{"bike_id":"07f30eed-ec4a-43b9-aff1-5f7711877c50","system_id":"levelo_inurba_marseille","lat":43.31066,"lon":5.38347,"is_reserved":false,"is_disabled":false,"rental_uris":{"android":"levelo://app?vid=07f30eed-ec4a-43b9-aff1-5f7711877c50","ios":"levelo://app?vid=07f30eed-ec4a-43b9-aff1-5f7711877c50"},"vehicle_type_id":"4","last_reported":1744916874,"current_range_meters":20000,"station_id":"ce4bgv92rcd13ifvqcr0","pricing_plan_id":"cebpf4jnsgd1na2vs0mg"},{"bike_id":"205ae080-b266-4684-b7f4-84c08b687ed0","system_id":"levelo_inurba_marseille","lat":43.290217,"lon":5.386435,"is_reserved":false,"is_disabled":false,"rental_uris":{"android":"levelo://app?vid=205ae080-b266-4684-b7f4-84c08b687ed0","ios":"levelo://app?vid=205ae080-b266-4684-b7f4-84c08b687ed0"},"vehicle_type_id":"4","last_reported":1744916874,"current_range_meters":20000,"station_id":"ce4bh4p2rcd13ifvqe0g","pricing_plan_id":"cebpf4jnsgd1na2vs0mg"},