{"last_updated":1691211939,"ttl":30,"version":"2.2","data":{"bikes":[{"bike_id":"3f9f44c5-19b8-4b87-b198-0c2a0309261b","system_id":"levelo_inurba_marseille","lat":43.313391,"lon":5.36706,"is_reserved":false,"is_disabled":false,"rental_uris":{"android":"levelo://app?vid=3f9f44c5-19b8-4b87-b198-0c2a0309261b","ios":"levelo://app?vid=3f9f44c5-19b8-4b87-b198-0c2a0309261b"},"vehicle_type_id":"4","last_reported":1691211939,"current_range_meters":30800,"station_id":"ce4bgr92rcd13ifvqc6g","pricing_plan_id":"free"},{"bike_id":"c2f0fb47-924f-4a1b-8818-0e8b6a9e1ac5","system_id":"levelo_inurba_marseille","lat":43.312239,"lon":5.368562,"is_reserved":false,"is_disabled":false,"rental_uris":{"android":"levelo://app?vid=c2f0fb47-924f-4a1b-8818-0e8b6a9e1ac5","ios":"levelo://app?vid=c2f0fb47-924f-4a1b-8818-0e8b6a9e1ac5"},"vehicle_type_id":"4","last_reported":1691211939,"current_range_meters":30000,"station_id":"ce4bgl92rcd13ifvqbq0","pricing_plan_id":"free"},{"bike_id":"1fd536f9-265c-4a20-b39a-fd00e40c64e6","system_id":"levelo_inurba_marseille","lat":43.309076,"lon":5.368465,"is_reserved":false,"is_disabled":false,"rental_uris":{"android":"levelo://app?vid=1fd536f9-265c-4a20-b39a-fd00e40c64e6","ios":"levelo://app?vid=1fd536f9-265c-4a20-b39a-fd00e40c64e6"},"vehicle_type_id":"4","last_reported":1691211939,"current_range_meters":30800,"station_id":"ce4bgn92rcd13ifvqbvg","pricing_plan_id":"free"},{"bike_id":"4daa72fc-35cb-4335-9361-897d22d62de4","system_id":"levelo_inurba_marseille","lat":43.309076,"lon":5.368465,"is_reserved":false,"is_disabled":false,"rental_uris":{"android":"levelo://app?vid=4daa72fc-35cb-4335-9361-897d22d62de4","ios":"levelo://app?vid=4daa72fc-35cb-4335-9361-897d22d62de4"},"vehicle_type_id":"4","last_reported":1691211939,"current_range_meters":16400,"station_id":"ce4bgn92rcd13ifvqbvg","pricing_plan_id":"free"},{"bike_id":"f9b0916e-d3c4-40db-a929-137d35e7cab3","system_id":"levelo_inurba_marseille","lat":43.309076,"lon":5.368465,"is_reserved":false,"is_disabled":false,"rental_uris":{"android":"levelo://app?vid=f9b0916e-d3c4-40db-a929-137d35e7cab3","ios":"levelo://app?vid=f9b0916e-d3c4-40db-a929-137d35e7cab3"},"vehicle_type_id":"4","last_reported":1691211939,"current_range_meters":31200,"station_id":"ce4bgn92rcd13ifvqbvg","pricing_plan_id":"free"},{"bike_id":"324823a4-6eda-470c-ac62-93597ac6af4c","system_id":"levelo_inurba_marseille","lat":43.314811,"lon":5.373104,"is_reserved":false,"is_disabled":false,"rental_uris":{"android":"levelo://app?vid=324823a4-6eda-470c-ac62-93597ac6af4c","ios":"levelo://app?vid=324823a4-6eda-470c-ac62-93597ac6af4c"},"vehicle_type_id":"4","last_reported":1691211939,"current_range_meters":28400,"station_id":"ce4bgt12rcd13ifvqcd0","pricing_plan_id":"free"},{"bike_id":"c1f33533-f14a-4915-8e48-9f95c7e54c6f","system_id":"levelo_inurba_marseille","lat":43.314811,"lon":5.373103,"is_reserved":false,"is_disabled":false,"rental_uris":{"android":"levelo://app?vid=c1f33533-f14a-4915-8e48-9f95c7e54c6f","ios":"levelo://app?vid=c1f33533-f14a-4915-8e48-9f95c7e54c6f"},"vehicle_type_id":"4","last_reported":1691211939,"current_range_meters":6800,"station_id":"ce4bgt12rcd13ifvqcd0","pricing_plan_id":"free"},{"bike_id":"3af87ad2-8b76-4d09-87c6-e90c8a768b95","system_id":"levelo_inurba_marseille","lat":43.314811,"lon":5.373103,"is_reserved":false,"is_disabled":false,"rental_uris":{"android":"levelo://app?vid=3af87ad2-8b76-4d09-87c6-e90c8a768b95","ios":"levelo://app?vid=3af87ad2-8b76-4d09-87c6-e90c8a768b95"},"vehicle_type_id":"4","last_reported":1691211939,"current_range_meters":30800,"station_id":"ce4bgt12rcd13ifvqcd0","pricing_plan_id":"free"},{"bike_id":"feaf43a5-6d82-4938-8e81-696b6e237efc","system_id":"levelo_inurba_marseille","lat":43.314811,"lon":5.373104,"is_reserved":false,"is_disabled":false,"rental_uris":{"android":"levelo://app?vid=feaf43a5-6d82-4938-8e81-696b6e237efc","ios":"levelo://app?vid=feaf43a5-6d82-4938-8e81-696b6e237efc"},"vehicle_type_id":"4","last_reported":1691211939,"current_range_meters":30800,"station_id":"ce4bgt12rcd13ifvqcd0","pricing_plan_id":"free"},{"bike_id":"56fdc340-d753-427d-a24c-fc3677aaa66b","system_id":"levelo_inurba_marseille","lat":43.314811,"lon":5.373103,"is_reserved":false,"is_disabled":false,"rental_uris":{"android":"levelo://app?vid=56fdc340-d753-427d-a24c-fc3677aaa66b","ios":"levelo://app?vid=56fdc340-d753-427d-a24c-fc3677aaa66b"},"vehicle_type_id":"4","last_reported":1691211939,"current_range_meters":27600,"station_id":"ce4bgt12rcd13ifvqcd0","pricing_plan_id":"free"},{"bike_id":"d212897f-5aa9-4585-b42c-48edb500a7fd","system_id":"levelo_inurba_marseille","lat":43.314811,"lon":5.373103,"is_reserved":false,"is_disabled":false,"rental_uris":{"android":"levelo://app?vid=d212897f-5aa9-4585-b42c-48edb500a7fd","ios":"levelo://app?vid=d212897f-5aa9-4585-b42c-48edb500a7fd"},"vehicle_type_id":"4","last_reported":1691211939,"current_range_meters":30800,"station_id":"ce4bgt12rcd13ifvqcd0","pricing_plan_id":"free"},{"bike_id":"45a1094c-c45d-4c9f-8273-d8705a5ebcbb","system_id":"levelo_inurba_marseille","lat":43.314811,"lon":5.373103,"is_reserved":false,"is_disabled":false,"rental_uris":{"android":"levelo://app?vid=45a1094c-c45d-4c9f-8273-d8705a5ebcbb","ios":"levelo://app?vid=45a1094c-c45d-4c9f-8273-d8705a5ebcbb"},"vehicle_type_id":"4","last_reported":1691211939,"current_range_meters":31200,"station_id":"ce4bgt12rcd13ifvqcd0","pricing_plan_id":"free"},{"bike_id":"29aae143-753c-4b05-ac5a-5a4a4e99bf43","system_id":"levelo_inurba_marseille","lat":43.314811,"lon":5.373104,"is_reserved":false,"is_disabled":false,"rental_uris":{"android":"levelo://app?vid=29aae143-753c-4b05-ac5a-5a4a4e99bf43","ios":"levelo://app?vid=29aae143-753c-4b05-ac5a-5a4a4e99bf43"},"vehicle_type_id":"4","last_reported":1691211939,"current_range_meters":30800,"station_id":"ce4bgt12rcd13ifvqcd0","pricing_plan_id":"free"},{"bike_id":"58f584a7-a89d-433f-a2f7-8ab65a6231fe","system_id":"levelo_inurba_marseille","lat":43.314811,"lon":5.373103,"is_reserved":false,"is_disabled":false,"rental_uris":{"android":"levelo://app?vid=58f584a7-a89d-433f-a2f7-8ab65a6231fe","ios":"levelo://app?vid=58f584a7-a89d-433f-a2f7-8ab65a6231fe"},"vehicle_type_id":"4","last_reported":1691211939,"current_range_meters":29200,"station_id":"ce4bgt12rcd13ifvqcd0","pricing_plan_id":"free"},{"bike_id":"cede92fa-c9f6-4aa3-926b-00de6cad2891","system_id":"levelo_inurba_marseille","lat":43.314811,"lon":5.373103,"is_reserved":false,"is_disabled":false,"rental_uris":{"android":"levelo://app?vid=cede92fa-c9f6-4aa3-926b-00de6cad2891","ios":"levelo://app?vid=cede92fa-c9f6-4aa3-926b-00de6cad2891"},"vehicle_type_id":"4","last_reported":1691211939,"current_range_meters":7200,"station_id":"ce4bgt12rcd13ifvqcd0","pricing_plan_id":"free"},{"bike_id":"1521de8a-e32d-4564-ab8f-4935933a745c","system_id":"levelo_inurba_marseille","lat":43.314811,"lon":5.373103,"is_reserved":false,"is_disabled":false,"rental_uris":{"android":"levelo://app?vid=1521de8a-e32d-4564-ab8f-4935933a745c","ios":"levelo://app?vid=1521de8a-e32d-4564-ab8f-4935933a745c"},"vehicle_type_id":"4","last_reported":1691211939,"current_range_meters":31600,"station_id":"ce4bgt12rcd13ifvqcd0","pricing_plan_id":"free"},{"bike_id":"2421a7f8-0864-430b-944a-b889acddd5a4","system_id":"levelo_inurba_marseille","lat":43.314811,"lon":5.373103,"is_reserved":false,"is_disabled":false,"rental_uris":{"android":"levelo://app?vid=2421a7f8-0864-430b-944a-b889acddd5a4","ios":"levelo://app?vid=2421a7f8-0864-430b-944a-b889acddd5a4"},"vehicle_type_id":"4","last_reported":1691211939,"current_range_meters":31200,"station_id":"ce4bgt12rcd13ifvqcd0","pricing_plan_id":"free"},{"bike_id":"c88636d5-b3bf-4624-81dc-1663d3051530","system_id":"levelo_inurba_marseille","lat":43.314811,"lon":5.373103,"is_reserved":false,"is_disabled":false,"rental_uris":{"android":"levelo://app?vid=c88636d5-b3bf-4624-81dc-1663d3051530","ios":"levelo://app?vid=c88636d5-b3bf-4624-81dc-1663d3051530"},"vehicle_type_id":"4","last_reported":1691211939,"current_range_meters":31200,"station_id":"ce4bgt12rcd13ifvqcd0","pricing_plan_id":"free"},{"bike_id":"84c2a162-559a-4aef-854b-45ee046c39c1","system_id":"levelo_inurba_marseille","lat":43.314811,"lon":5.373104,"is_reserved":false,"is_disabled":false,"rental_uris":{"android":"levelo://app?vid=84c2a162-559a-4aef-854b-45ee046c39c1","ios":"levelo://app?vid=84c2a162-559a-4aef-854b-45ee046c39c1"},"vehicle_type_id":"4","last_reported":1691211939,"current_range_meters":30400,"station_id":"ce4bgt12rcd13ifvqcd0","pricing_plan_id":"free"},{"bike_id":"76dcc736-bc34-42cd-b674-0df565540a86","system_id":"levelo_inurba_marseille","lat":43.31499,"lon":5.37313,"is_reserved":false,"is_disabled":false,"rental_uris":{"android":"levelo://app?vid=76dcc736-bc34-42cd-b674-0df565540a86","ios":"levelo://app?vid=76dcc736-bc34-42cd-b674-0df565540a86"},"vehicle_type_id":"4","last_reported":1691211939,"current_range_meters":30800,"station_id":"ce4bgt12rcd13ifvqcd0","pricing_plan_id":"free"},{"bike_id":"3ea8d4fb-45b9-4a57-9237-375fddd023fb","system_id":"levelo_inurba_marseille","lat":43.309039,"lon":5.371797,"is_reserved":false,"is_disabled":false,"rental_uris":{"android":"levelo://app?vid=3ea8d4fb-45b9-4a57-9237-375fddd023fb","ios":"levelo://app?vid=3ea8d4fb-45b9-4a57-9237-375fddd023fb"},"vehicle_type_id":"4","last_reported":1691211939,"current_range_meters":31200,"station_id":"ce4bguh2rcd13ifvqckg","pricing_plan_id":"free"},{"bike_id":"b5b51023-ebcd-4c57-abf8-9ade7569acec","system_id":"levelo_inurba_marseille","lat":43.309039,"lon":5.371797,"is_reserved":false,"is_disabled":false,"rental_uris":{"android":"levelo://app?vid=b5b51023-ebcd-4c57-abf8-9ade7569acec","ios":"levelo://app?vid=b5b51023-ebcd-4c57-abf8-9ade7569acec"},"vehicle_type_id":"4","last_reported":1691211939,"current_range_meters":27600,"station_id":"ce4bguh2rcd13ifvqckg","pricing_plan_id":"free"},{"bike_id":"7cfb81a3-fd7f-41d1-987d-c1037b7c6b4a","system_id":"levelo_inurba_marseille","lat":43.31419,"lon":5.37451,"is_reserved":false,"is_disabled":false,"rental_uris":{"android":"levelo://app?vid=7cfb81a3-fd7f-41d1-987d-c1037b7c6b4a","ios":"levelo://app?vid=7cfb81a3-fd7f-41d1-987d-c1037b7c6b4a"},"vehicle_type_id":"4","last_reported":1691211939,"current_range_meters":14400,"station_id":"","pricing_plan_id":"free"},{"bike_id":"155c7d1e-8bc1-43b9-9c2b-d5b0b8f9908c","system_id":"levelo_inurba_marseille","lat":43.305714,"lon":5.365633,"is_reserved":false,"is_disabled":false,"rental_uris":{"android":"levelo://app?vid=155c7d1e-8bc1-43b9-9c2b-d5b0b8f9908c","ios":"levelo://app?vid=155c7d1e-8bc1-43b9-9c2b-d5b0b8f9908c"},"vehicle_type_id":"4","last_reported":1691211939,"current_range_meters":31200,"station_id":"ce4bgs12rcd13ifvqcag","pricing_plan_id":"free"},{"bike_id":"7f788a49-3a12-4fec-8ac2-f588a0eaf393","system_id":"levelo_inurba_marseille","lat":43.30536,"lon":5.36695,"is_reserved":false,"is_disabled":false,"rental_uris":{"android":"levelo://app?vid=7f788a49-3a12-4fec-8ac2-f588a0eaf393","ios":"levelo://app?vid=7f788a49-3a12-4fec-8ac2-f588a0eaf393"},"vehicle_type_id":"4","last_reported":1691211939,"current_range_meters":1600,"station_id":"ce4bgrp2rcd13ifvqc9g","pricing_plan_id":"free"},{"bike_id":"a2e82a29-2a72-469d-858f-f74a75900bce","system_id":"levelo_inurba_marseille","lat":43.305714,"lon":5.365633,"is_reserved":false,"is_disabled":false,"rental_uris":{"android":"levelo://app?vid=a2e82a29-2a72-469d-858f-f74a75900bce","ios":"levelo://app?vid=a2e82a29-2a72-469d-858f-f74a75900bce"},"vehicle_type_id":"4","last_reported":1691211939,"current_range_meters":23600,"station_id":"ce4bgs12rcd13ifvqcag","pricing_plan_id":"free"},{"bike_id":"a3f8e265-d93f-4a72-b1f2-2b54a0361de7","system_id":"levelo_inurba_marseille","lat":43.305989,"lon":5.37225,"is_reserved":false,"is_disabled":false,"rental_uris":{"android":"levelo://app?vid=a3f8e265-d93f-4a72-b1f2-2b54a0361de7","ios":"levelo://app?vid=a3f8e265-d93f-4a72-b1f2-2b54a0361de7"},"vehicle_type_id":"4","last_reported":1691211939,"current_range_meters":29200,"station_id":"ce4bgqh2rcd13ifvqc4g","pricing_plan_id":"free"},{"bike_id":"d168a8ec-6ffc-47ac-9629-2240987bcf88","system_id":"levelo_inurba_marseille","lat":43.305989,"lon":5.37225,"is_reserved":false,"is_disabled":false,"rental_uris":{"android":"levelo://app?vid=d168a8ec-6ffc-47ac-9629-2240987bcf88","ios":"levelo://app?vid=d168a8ec-6ffc-47ac-9629-2240987bcf88"},"vehicle_type_id":"4","last_reported":1691211939,"current_range_meters":31200,"station_id":"ce4bgqh2rcd13ifvqc4g","pricing_plan_id":"free"},{"bike_id":"3f089fc2-9f38-469a-9aab-f6f9feabdfd4","system_id":"levelo_inurba_marseille","lat":43.305989,"lon":5.37225,"is_reserved":false,"is_disabled":false,"rental_uris":{"android":"levelo://app?vid=3f089fc2-9f38-469a-9aab-f6f9feabdfd4","ios":"levelo://app?vid=3f089fc2-9f38-469a-9aab-f6f9feabdfd4"},"vehicle_type_id":"4","last_reported":1691211939,"current_range_meters":31200,"station_id":"ce4bgqh2rcd13ifvqc4g","pricing_plan_id":"free"},{"bike_id":"3caa8973-5e65-4475-bcc5-969b36733a6a","system_id":"levelo_inurba_marseille","lat":43.305989,"lon":5.37225,"is_reserved":false,"is_disabled":false,"rental_uris":{"android":"levelo://app?vid=3caa8973-5e65-4475-bcc5-969b36733a6a","ios":"levelo://app?vid=3caa8973-5e65-4475-bcc5-969b36733a6a"},"vehicle_type_id":"4","last_reported":1691211939,"current_range_meters":31200,"station_id":"ce4bgqh2rcd13ifvqc4g","pricing_plan_id":"free"},{"bike_id":"f20ea888-8740-440b-bfeb-8eb2a7c1f652","system_id":"levelo_inurba_marseille","lat":43.305989,"lon":5.37225,"is_reserved":false,"is_disabled":false,"rental_uris":{"android":"levelo://app?vid=f20ea888-8740-440b-bfeb-8eb2a7c1f652","ios":"levelo://app?vid=f20ea888-8740-440b-bfeb-8eb2a7c1f652"},"vehicle_type_id":"4","last_reported":1691211939,"current_range_meters":30000,"station_id":"ce4bgqh2rcd13ifvqc4g","pricing_plan_id":"free"},{"bike_id":"53ee001c-c7b3-4d4c-93c4-ade2c777db79","system_id":"levelo_inurba_marseille","lat":43.311131,"lon":5.377651,"is_reserved":false,"is_disabled":false,"rental_uris":{"android":"levelo://app?vid=53ee001c-c7b3-4d4c-93c4-ade2c777db79","ios":"levelo://app?vid=53ee001c-c7b3-4d4c-93c4-ade2c777db79"},"vehicle_type_id":"4","last_reported":1691211939,"current_range_meters":17200,"station_id":"ce4bgt92rcd13ifvqcg0","pricing_plan_id":"free"},{"bike_id":"37a1ff06-ef27-4316-a188-90abfaf08048","system_id":"levelo_inurba_marseille","lat":43.30797,"lon":5.37648,"is_reserved":false,"is_disabled":false,"rental_uris":{"android":"levelo://app?vid=37a1ff06-ef27-4316-a188-90abfaf08048","ios":"levelo://app?vid=37a1ff06-ef27-4316-a188-90abfaf08048"},"vehicle_type_id":"4","last_reported":1691211939,"current_range_meters":25600,"station_id":"ce4bgv92rcd13ifvqcq0","pricing_plan_id":"free"},{"bike_id":"98204378-ee5f-4653-a841-5c0f80498805","system_id":"levelo_inurba_marseille","lat":43.307945,"lon":5.376487,"is_reserved":false,"is_disabled":false,"rental_uris":{"android":"levelo://app?vid=98204378-ee5f-4653-a841-5c0f80498805","ios":"levelo://app?vid=98204378-ee5f-4653-a841-5c0f80498805"},"vehicle_type_id":"4","last_reported":1691211939,"current_range_meters":11200,"station_id":"ce4bgv92rcd13ifvqcq0","pricing_plan_id":"free"},{"bike_id":"40168c04-6ab5-4212-a37e-b53ff283ee0d","system_id":"levelo_inurba_marseille","lat":43.3079,"lon":5.37655,"is_reserved":false,"is_disabled":false,"rental_uris":{"android":"levelo://app?vid=40168c04-6ab5-4212-a37e-b53ff283ee0d","ios":"levelo://app?vid=40168c04-6ab5-4212-a37e-b53ff283ee0d"},"vehicle_type_id":"4","last_reported":1691211939,"current_range_meters":24400,"station_id":"ce4bgv92rcd13ifvqcq0","pricing_plan_id":"free"},{"bike_id":"ee4043ab-c710-4033-9789-b9c939816ac8","system_id":"levelo_inurba_marseille","lat":43.30786,"lon":5.37655,"is_reserved":false,"is_disabled":false,"rental_uris":{"android":"levelo://app?vid=ee4043ab-c710-4033-9789-b9c939816ac8","ios":"levelo://app?vid=ee4043ab-c710-4033-9789-b9c939816ac8"},"vehicle_type_id":"4","last_reported":1691211939,"current_range_meters":17200,"station_id":"ce4bgv92rcd13ifvqcq0","pricing_plan_id":"free"},{"bike_id":"eb1de8ce-533c-40ce-a481-fffb69cb0aa5","system_id":"levelo_inurba_marseille","lat":43.30788,"lon":5.37657,"is_reserved":false,"is_disabled":false,"rental_uris":{"android":"levelo://app?vid=eb1de8ce-533c-40ce-a481-fffb69cb0aa5","ios":"levelo://app?vid=eb1de8ce-533c-40ce-a481-fffb69cb0aa5"},"vehicle_type_id":"4","last_reported":1691211939,"current_range_meters":27600,"station_id":"ce4bgv92rcd13ifvqcq0","pricing_plan_id":"free"},{"bike_id":"10eef9e4-d793-4371-8ef2-0a29259be0ca","system_id":"levelo_inurba_marseille","lat":43.30782,"lon":5.37652,"is_reserved":false,"is_disabled":false,"rental_uris":{"android":"levelo://app?vid=10eef9e4-d793-4371-8ef2-0a29259be0ca","ios":"levelo://app?vid=10eef9e4-d793-4371-8ef2-0a29259be0ca"},"vehicle_type_id":"4","last_reported":1691211939,"current_range_meters":0,"station_id":"ce4bgv92rcd13ifvqcq0","pricing_plan_id":"free"},{"bike_id":"6e7d2a81-eb04-467b-8744-5fac68edc62a","system_id":"levelo_inurba_marseille","lat":43.30781,"lon":5.37656,"is_reserved":false,"is_disabled":false,"rental_uris":{"android":"levelo://app?vid=6e7d2a81-eb04-467b-8744-5fac68edc62a","ios":"levelo://app?vid=6e7d2a81-eb04-467b-8744-5fac68edc62a"},"vehicle_type_id":"4","last_reported":1691211939,"current_range_meters":4000,"station_id":"ce4bgv92rcd13ifvqcq0","pricing_plan_id":"free"},{"bike_id":"b8caa492-4473-497b-83a8-f40b87c90e82","system_id":"levelo_inurba_marseille","lat":43.317075,"lon":5.377367,"is_reserved":false,"is_disabled":false,"rental_uris":{"android":"levelo://app?vid=b8caa492-4473-497b-83a8-f40b87c90e82","ios":"levelo://app?vid=b8caa492-4473-497b-83a8-f40b87c90e82"},"vehicle_type_id":"4","last_reported":1691211939,"current_range_meters":30000,"station_id":"ce4bgth2rcd13ifvqch0","pricing_plan_id":"free"},{"bike_id":"aa95fc61-c18a-4938-be16-49f4737de060","system_id":"levelo_inurba_marseille","lat":43.30312,"lon":5.36888,"is_reserved":false,"is_disabled":false,"rental_uris":{"android":"levelo://app?vid=aa95fc61-c18a-4938-be16-49f4737de060","ios":"levelo://app?vid=aa95fc61-c18a-4938-be16-49f4737de060"},"vehicle_type_id":"4","last_reported":1691211939,"current_range_meters":15200,"station_id":"ce4bgqh2rcd13ifvqc5g","pricing_plan_id":"free"},{"bike_id":"f6929507-7f8c-4b3c-8a7f-77333d26952a","system_id":"levelo_inurba_marseille","lat":43.301939,"lon":5.366286,"is_reserved":false,"is_disabled":false,"rental_uris":{"android":"levelo://app?vid=f6929507-7f8c-4b3c-8a7f-77333d26952a","ios":"levelo://app?vid=f6929507-7f8c-4b3c-8a7f-77333d26952a"},"vehicle_type_id":"4","last_reported":1691211939,"current_range_meters":28800,"station_id":"ce4bgrh2rcd13ifvqc8g","pricing_plan_id":"free"},{"bike_id":"6c89fb74-03c0-4a70-8c9d-b63dec2af527","system_id":"levelo_inurba_marseille","lat":43.301939,"lon":5.366286,"is_reserved":false,"is_disabled":false,"rental_uris":{"android":"levelo://app?vid=6c89fb74-03c0-4a70-8c9d-b63dec2af527","ios":"levelo://app?vid=6c89fb74-03c0-4a70-8c9d-b63dec2af527"},"vehicle_type_id":"4","last_reported":1691211939,"current_range_meters":31200,"station_id":"ce4bgrh2rcd13ifvqc8g","pricing_plan_id":"free"},{"bike_id":"b47f13d3-39f8-407d-af04-371769526b7e","system_id":"levelo_inurba_marseille","lat":43.301939,"lon":5.366286,"is_reserved":false,"is_disabled":false,"rental_uris":{"android":"levelo://app?vid=b47f13d3-39f8-407d-af04-371769526b7e","ios":"levelo://app?vid=b47f13d3-39f8-407d-af04-371769526b7e"},"vehicle_type_id":"4","last_reported":1691211939,"current_range_meters":0,"station_id":"ce4bgrh2rcd13ifvqc8g","pricing_plan_id":"free"},{"bike_id":"6be3a9ed-7609-472f-8b78-04793731e1a9","system_id":"levelo_inurba_marseille","lat":43.295748,"lon":5.37522,"is_reserved":false,"is_disabled":false,"rental_uris":{"android":"levelo://app?vid=6be3a9ed-7609-472f-8b78-04793731e1a9","ios":"levelo://app?vid=6be3a9ed-7609-472f-8b78-04793731e1a9"},"vehicle_type_id":"4","last_reported":1691211939,"current_range_meters":17200,"station_id":"ce4bgh92rcd13ifvqb50","pricing_plan_id":"free"},{"bike_id":"dc391821-5552-47d8-b1c7-6f35356f7ddc","system_id":"levelo_inurba_marseille","lat":43.304606,"lon":5.379026,"is_reserved":false,"is_disabled":false,"rental_uris":{"android":"levelo://app?vid=dc391821-5552-47d8-b1c7-6f35356f7ddc","ios":"levelo://app?vid=dc391821-5552-47d8-b1c7-6f35356f7ddc"},"vehicle_type_id":"4","last_reported":1691211939,"current_range_meters":30400,"station_id":"ce4bgup2rcd13ifvqcn0","pricing_plan_id":"free"},{"bike_id":"60672521-cc43-408d-92af-d67dc9f6feaa","system_id":"levelo_inurba_marseille","lat":43.304606,"lon":5.379026,"is_reserved":false,"is_disabled":false,"rental_uris":{"android":"levelo://app?vid=60672521-cc43-408d-92af-d67dc9f6feaa","ios":"levelo://app?vid=60672521-cc43-408d-92af-d67dc9f6feaa"},"vehicle_type_id":"4","last_reported":1691211939,"current_range_meters":3200,"station_id":"ce4bgup2rcd13ifvqcn0","pricing_plan_id":"free"},{"bike_id":"57cd1608-4a05-4ad7-95e5-197548ded004","system_id":"levelo_inurba_marseille","lat":43.304606,"lon":5.379026,"is_reserved":false,"is_disabled":false,"rental_uris":{"android":"levelo://app?vid=57cd1608-4a05-4ad7-95e5-197548ded004","ios":"levelo://app?vid=57cd1608-4a05-4ad7-95e5-197548ded004"},"vehicle_type_id":"4","last_reported":1691211939,"current_range_meters":27600,"station_id":"ce4bgup2rcd13ifvqcn0","pricing_plan_id":"free"},{"bike_id":"83cb1884-b329-4cf6-89ec-d66b1737e981","system_id":"levelo_inurba_marseille","lat":43.304606,"lon":5.379026,"is_reserved":false,"is_disabled":false,"rental_uris":{"android":"levelo://app?vid=83cb1884-b329-4cf6-89ec-d66b1737e981","ios":"levelo://app?vid=83cb1884-b329-4cf6-89ec-d66b1737e981"},"vehicle_type_id":"4","last_reported":1691211939,"current_range_meters":20400,"station_id":"ce4bgup2rcd13ifvqcn0","pricing_plan_id":"free"},{"bike_id":"ba7e618c-dae2-4a01-8b8e-3b8634ad0c9b","system_id":"levelo_inurba_marseille","lat":43.304606,"lon":5.379026,"is_reserved":false,"is_disabled":false,"rental_uris":{"android":"levelo://app?vid=ba7e618c-dae2-4a01-8b8e-3b8634ad0c9b","ios":"levelo://app?vid=ba7e618c-dae2-4a01-8b8e-3b8634ad0c9b"},"vehicle_type_id":"4","last_reported":1691211939,"current_range_meters":31200,"station_id":"ce4bgup2rcd13ifvqcn0","pricing_plan_id":"free"},{"bike_id":"79ea5429-2576-426f-a282-2b317a95fdc8","system_id":"levelo_inurba_marseille","lat":43.304606,"lon":5.379026,"is_reserved":false,"is_disabled":false,"rental_uris":{"android":"levelo://app?vid=79ea5429-2576-426f-a282-2b317a95fdc8","ios":"levelo://app?vid=79ea5429-2576-426f-a282-2b317a95fdc8"},"vehicle_type_id":"4","last_reported":1691211939,"current_range_meters":23200,"station_id":"ce4bgup2rcd13ifvqcn0","pricing_plan_id":"free"},{"bike_id":"1cfca094-90e4-4adc-984c-52001b3d4c4b","system_id":"levelo_inurba_marseille","lat":43.304606,"lon":5.379026,"is_reserved":false,"is_disabled":false,"rental_uris":{"android":"levelo://app?vid=1cfca094-90e4-4adc-984c-52001b3d4c4b","ios":"levelo://app?vid=1cfca094-90e4-4adc-984c-52001b3d4c4b"},"vehicle_type_id":"4","last_reported":1691211939,"current_range_meters":28800,"station_id":"ce4bgup2rcd13ifvqcn0","pricing_plan_id":"free"},{"bike_id":"b1245457-b0c9-467e-b42c-0d50560c6121","system_id":"levelo_inurba_marseille","lat":43.304606,"lon":5.379026,"is_reserved":false,"is_disabled":false,"rental_uris":{"android":"levelo://app?vid=b1245457-b0c9-467e-b42c-0d50560c6121","ios":"levelo://app?vid=b1245457-b0c9-467e-b42c-0d50560c6121"},"vehicle_type_id":"4","last_reported":1691211939,"current_range_meters":26400,"station_id":"ce4bgup2rcd13ifvqcn0","pricing_plan_id":"free"},{"bike_id":"42272e56-1640-4558-8c96-66e82e971759","system_id":"levelo_inurba_marseille","lat":43.30416,"lon":5.37885,"is_reserved":false,"is_disabled":false,"rental_uris":{"android":"levelo://app?vid=42272e56-1640-4558-8c96-66e82e971759","ios":"levelo://app?vid=42272e56-1640-4558-8c96-66e82e971759"},"vehicle_type_id":"4","last_reported":1691211939,"current_range_meters":11200,"station_id":"ce4bgup2rcd13ifvqcn0","pricing_plan_id":"free"},{"bike_id":"a9a829a3-8287-4a08-9d59-837699a3b007","system_id":"levelo_inurba_marseille","lat":43.3014,"lon":5.37413,"is_reserved":false,"is_disabled":false,"rental_uris":{"android":"levelo://app?vid=a9a829a3-8287-4a08-9d59-837699a3b007","ios":"levelo://app?vid=a9a829a3-8287-4a08-9d59-837699a3b007"},"vehicle_type_id":"4","last_reported":1691211939,"current_range_meters":31200,"station_id":"ce4bgs92rcd13ifvqcc0","pricing_plan_id":"free"},{"bike_id":"0adbaa79-b336-42e6-8811-9188de3e20af","system_id":"levelo_inurba_marseille","lat":43.30141,"lon":5.37426,"is_reserved":false,"is_disabled":false,"rental_uris":{"android":"levelo://app?vid=0adbaa79-b336-42e6-8811-9188de3e20af","ios":"levelo://app?vid=0adbaa79-b336-42e6-8811-9188de3e20af"},"vehicle_type_id":"4","last_reported":1691211939,"current_range_meters":20400,"station_id":"ce4bgs92rcd13ifvqcc0","pricing_plan_id":"free"},{"bike_id":"ed98e0d5-a7b5-4bae-8b75-6d2af3d6622c","system_id":"levelo_inurba_marseille","lat":43.30267,"lon":5.37716,"is_reserved":false,"is_disabled":false,"rental_uris":{"android":"levelo://app?vid=ed98e0d5-a7b5-4bae-8b75-6d2af3d6622c","ios":"levelo://app?vid=ed98e0d5-a7b5-4bae-8b75-6d2af3d6622c"},"vehicle_type_id":"4","last_reported":1691211939,"current_range_meters":30000,"station_id":"ce4bguh2rcd13ifvqcj0","pricing_plan_id":"free"},{"bike_id":"5b040ee0-b6d3-4a3f-888e-6218a6e96705","system_id":"levelo_inurba_marseille","lat":43.297794,"lon":5.370888,"is_reserved":false,"is_disabled":false,"rental_uris":{"android":"levelo://app?vid=5b040ee0-b6d3-4a3f-888e-6218a6e96705","ios":"levelo://app?vid=5b040ee0-b6d3-4a3f-888e-6218a6e96705"},"vehicle_type_id":"4","last_reported":1691211939,"current_range_meters":24800,"station_id":"ce4bgop2rcd13ifvqc1g","pricing_plan_id":"free"},{"bike_id":"056f7648-7aff-49dc-82ac-583dbd4bc7a9","system_id":"levelo_inurba_marseille","lat":43.30134,"lon":5.374291,"is_reserved":false,"is_disabled":false,"rental_uris":{"android":"levelo://app?vid=056f7648-7aff-49dc-82ac-583dbd4bc7a9","ios":"levelo://app?vid=056f7648-7aff-49dc-82ac-583dbd4bc7a9"},"vehicle_type_id":"4","last_reported":1691211939,"current_range_meters":14000,"station_id":"ce4bgs92rcd13ifvqcc0","pricing_plan_id":"free"},{"bike_id":"dae4bd09-c10b-48fc-8220-68ba526b6108","system_id":"levelo_inurba_marseille","lat":43.301263,"lon":5.374238,"is_reserved":false,"is_disabled":false,"rental_uris":{"android":"levelo://app?vid=dae4bd09-c10b-48fc-8220-68ba526b6108","ios":"levelo://app?vid=dae4bd09-c10b-48fc-8220-68ba526b6108"},"vehicle_type_id":"4","last_reported":1691211939,"current_range_meters":31200,"station_id":"ce4bgs92rcd13ifvqcc0","pricing_plan_id":"free"},{"bike_id":"ec6ed6b9-203a-4de4-b873-0449f8d8115f","system_id":"levelo_inurba_marseille","lat":43.31996,"lon":5.38153,"is_reserved":false,"is_disabled":false,"rental_uris":{"android":"levelo://app?vid=ec6ed6b9-203a-4de4-b873-0449f8d8115f","ios":"levelo://app?vid=ec6ed6b9-203a-4de4-b873-0449f8d8115f"},"vehicle_type_id":"4","last_reported":1691211939,"current_range_meters":23200,"station_id":"ce4bhr12rcd13ifvqhpg","pricing_plan_id":"free"},{"bike_id":"2ad57de6-82fc-448d-bdf0-5ead379e5a53","system_id":"levelo_inurba_marseille","lat":43.32005,"lon":5.38149,"is_reserved":false,"is_disabled":false,"rental_uris":{"android":"levelo://app?vid=2ad57de6-82fc-448d-bdf0-5ead379e5a53","ios":"levelo://app?vid=2ad57de6-82fc-448d-bdf0-5ead379e5a53"},"vehicle_type_id":"4","last_reported":1691211939,"current_range_meters":18400,"station_id":"ce4bhr12rcd13ifvqhpg","pricing_plan_id":"free"},{"bike_id":"d5f7f396-3296-41b5-bc26-a6ef0187ad90","system_id":"levelo_inurba_marseille","lat":43.31999,"lon":5.38156,"is_reserved":false,"is_disabled":false,"rental_uris":{"android":"levelo://app?vid=d5f7f396-3296-41b5-bc26-a6ef0187ad90","ios":"levelo://app?vid=d5f7f396-3296-41b5-bc26-a6ef0187ad90"},"vehicle_type_id":"4","last_reported":1691211939,"current_range_meters":22000,"station_id":"ce4bhr12rcd13ifvqhpg","pricing_plan_id":"free"},{"bike_id":"c7835526-41d7-4a51-8ca3-06bc11ee101e","system_id":"levelo_inurba_marseille","lat":43.313571,"lon":5.384829,"is_reserved":false,"is_disabled":false,"rental_uris":{"android":"levelo://app?vid=c7835526-41d7-4a51-8ca3-06bc11ee101e","ios":"levelo://app?vid=c7835526-41d7-4a51-8ca3-06bc11ee101e"},"vehicle_type_id":"4","last_reported":1691211939,"current_range_meters":31200,"station_id":"ce4bgt92rcd13ifvqcf0","pricing_plan_id":"free"},{"bike_id":"3d779778-f613-4b1a-93dd-9408c2e907a1","system_id":"levelo_inurba_marseille","lat":43.313571,"lon":5.384829,"is_reserved":false,"is_disabled":false,"rental_uris":{"android":"levelo://app?vid=3d779778-f613-4b1a-93dd-9408c2e907a1","ios":"levelo://app?vid=3d779778-f613-4b1a-93dd-9408c2e907a1"},"vehicle_type_id":"4","last_reported":1691211939,"current_range_meters":29200,"station_id":"ce4bgt92rcd13ifvqcf0","pricing_plan_id":"free"},{"bike_id":"35656145-5dff-49f2-b6ba-f78509c75276","system_id":"levelo_inurba_marseille","lat":43.313571,"lon":5.384829,"is_reserved":false,"is_disabled":false,"rental_uris":{"android":"levelo://app?vid=35656145-5dff-49f2-b6ba-f78509c75276","ios":"levelo://app?vid=35656145-5dff-49f2-b6ba-f78509c75276"},"vehicle_type_id":"4","last_reported":1691211939,"current_range_meters":31200,"station_id":"ce4bgt92rcd13ifvqcf0","pricing_plan_id":"free"},{"bike_id":"3cb7fd70-121e-4eb5-9a01-ecc8718aa1bb","system_id":"levelo_inurba_marseille","lat":43.29942,"lon":5.36543,"is_reserved":false,"is_disabled":false,"rental_uris":{"android":"levelo://app?vid=3cb7fd70-121e-4eb5-9a01-ecc8718aa1bb","ios":"levelo://app?vid=3cb7fd70-121e-4eb5-9a01-ecc8718aa1bb"},"vehicle_type_id":"4","last_reported":1691211939,"current_range_meters":28800,"station_id":"ce4bgm92rcd13ifvqbr0","pricing_plan_id":"free"},{"bike_id":"21afa1cd-235d-4726-9d94-99e4a80ce1a5","system_id":"levelo_inurba_marseille","lat":43.30537,"lon":5.38418,"is_reserved":false,"is_disabled":false,"rental_uris":{"android":"levelo://app?vid=21afa1cd-235d-4726-9d94-99e4a80ce1a5","ios":"levelo://app?vid=21afa1cd-235d-4726-9d94-99e4a80ce1a5"},"vehicle_type_id":"4","last_reported":1691211939,"current_range_meters":26800,"station_id":"ce4bgg92rcd13ifvqb30","pricing_plan_id":"free"},{"bike_id":"30537d43-af02-4a10-b928-7b9b8cf633d2","system_id":"levelo_inurba_marseille","lat":43.30539,"lon":5.38427,"is_reserved":false,"is_disabled":false,"rental_uris":{"android":"levelo://app?vid=30537d43-af02-4a10-b928-7b9b8cf633d2","ios":"levelo://app?vid=30537d43-af02-4a10-b928-7b9b8cf633d2"},"vehicle_type_id":"4","last_reported":1691211939,"current_range_meters":30800,"station_id":"ce4bgg92rcd13ifvqb30","pricing_plan_id":"free"},{"bike_id":"69cbfd69-d02d-4ead-ab0b-ea70ec032cd1","system_id":"levelo_inurba_marseille","lat":43.30536,"lon":5.38425,"is_reserved":false,"is_disabled":false,"rental_uris":{"android":"levelo://app?vid=69cbfd69-d02d-4ead-ab0b-ea70ec032cd1","ios":"levelo://app?vid=69cbfd69-d02d-4ead-ab0b-ea70ec032cd1"},"vehicle_type_id":"4","last_reported":1691211939,"current_range_meters":24400,"station_id":"ce4bgg92rcd13ifvqb30","pricing_plan_id":"free"},{"bike_id":"f8bbffbb-4aa6-40f8-a28a-7c5e5ecc3948","system_id":"levelo_inurba_marseille","lat":43.30534,"lon":5.38424,"is_reserved":false,"is_disabled":false,"rental_uris":{"android":"levelo://app?vid=f8bbffbb-4aa6-40f8-a28a-7c5e5ecc3948","ios":"levelo://app?vid=f8bbffbb-4aa6-40f8-a28a-7c5e5ecc3948"},"vehicle_type_id":"4","last_reported":1691211939,"current_range_meters":28800,"station_id":"ce4bgg92rcd13ifvqb30","pricing_plan_id":"free"},{"bike_id":"c9aa5f68-aa69-4167-9549-a4912b036a91","system_id":"levelo_inurba_marseille","lat":43.305364,"lon":5.384119,"is_reserved":false,"is_disabled":false,"rental_uris":{"android":"levelo://app?vid=c9aa5f68-aa69-4167-9549-a4912b036a91","ios":"levelo://app?vid=c9aa5f68-aa69-4167-9549-a4912b036a91"},"vehicle_type_id":"4","last_reported":1691211939,"current_range_meters":22400,"station_id":"ce4bgg92rcd13ifvqb30","pricing_plan_id":"free"},{"bike_id":"19eefe59-944f-40e2-944d-e700e10140f1","system_id":"levelo_inurba_marseille","lat":43.30536,"lon":5.38439,"is_reserved":false,"is_disabled":false,"rental_uris":{"android":"levelo://app?vid=19eefe59-944f-40e2-944d-e700e10140f1","ios":"levelo://app?vid=19eefe59-944f-40e2-944d-e700e10140f1"},"vehicle_type_id":"4","last_reported":1691211939,"current_range_meters":18800,"station_id":"ce4bgg92rcd13ifvqb30","pricing_plan_id":"free"},{"bike_id":"b297546a-1a61-4784-9110-2a44aec06219","system_id":"levelo_inurba_marseille","lat":43.31163,"lon":5.38712,"is_reserved":false,"is_disabled":false,"rental_uris":{"android":"levelo://app?vid=b297546a-1a61-4784-9110-2a44aec06219","ios":"levelo://app?vid=b297546a-1a61-4784-9110-2a44aec06219"},"vehicle_type_id":"4","last_reported":1691211939,"current_range_meters":31200,"station_id":"ce4bgv12rcd13ifvqcp0","pricing_plan_id":"free"},{"bike_id":"c0f39d38-6c03-49ed-94c4-35ca86a54bdb","system_id":"levelo_inurba_marseille","lat":43.31163,"lon":5.38715,"is_reserved":false,"is_disabled":false,"rental_uris":{"android":"levelo://app?vid=c0f39d38-6c03-49ed-94c4-35ca86a54bdb","ios":"levelo://app?vid=c0f39d38-6c03-49ed-94c4-35ca86a54bdb"},"vehicle_type_id":"4","last_reported":1691211939,"current_range_meters":28400,"station_id":"ce4bgv12rcd13ifvqcp0","pricing_plan_id":"free"},{"bike_id":"15a7e5e0-fddc-412a-a6b6-acbbf557e90d","system_id":"levelo_inurba_marseille","lat":43.311722,"lon":5.387247,"is_reserved":false,"is_disabled":false,"rental_uris":{"android":"levelo://app?vid=15a7e5e0-fddc-412a-a6b6-acbbf557e90d","ios":"levelo://app?vid=15a7e5e0-fddc-412a-a6b6-acbbf557e90d"},"vehicle_type_id":"4","last_reported":1691211939,"current_range_meters":30000,"station_id":"ce4bgv12rcd13ifvqcp0","pricing_plan_id":"free"},{"bike_id":"524d8772-aa1b-409e-ac89-8fe2cf931d65","system_id":"levelo_inurba_marseille","lat":43.31165,"lon":5.38718,"is_reserved":false,"is_disabled":false,"rental_uris":{"android":"levelo://app?vid=524d8772-aa1b-409e-ac89-8fe2cf931d65","ios":"levelo://app?vid=524d8772-aa1b-409e-ac89-8fe2cf931d65"},"vehicle_type_id":"4","last_reported":1691211939,"current_range_meters":16000,"station_id":"ce4bgv12rcd13ifvqcp0","pricing_plan_id":"free"},{"bike_id":"05371ed5-5845-44ac-961e-40723c84cebd","system_id":"levelo_inurba_marseille","lat":43.3116,"lon":5.38723,"is_reserved":false,"is_disabled":false,"rental_uris":{"android":"levelo://app?vid=05371ed5-5845-44ac-961e-40723c84cebd","ios":"levelo://app?vid=05371ed5-5845-44ac-961e-40723c84cebd"},"vehicle_type_id":"4","last_reported":1691211939,"current_range_meters":31200,"station_id":"ce4bgv12rcd13ifvqcp0","pricing_plan_id":"free"},{"bike_id":"ce3a1bc9-6198-4a0c-b541-7328d85fc61d","system_id":"levelo_inurba_marseille","lat":43.297794,"lon":5.370888,"is_reserved":false,"is_disabled":false,"rental_uris":{"android":"levelo://app?vid=ce3a1bc9-6198-4a0c-b541-7328d85fc61d","ios":"levelo://app?vid=ce3a1bc9-6198-4a0c-b541-7328d85fc61d"},"vehicle_type_id":"4","last_reported":1691211939,"current_range_meters":29600,"station_id":"ce4bgop2rcd13ifvqc1g","pricing_plan_id":"free"},{"bike_id":"211c53db-e61a-47a9-8f9e-3397bc45a0ad","system_id":"levelo_inurba_marseille","lat":43.322872,"lon":5.382756,"is_reserved":false,"is_disabled":false,"rental_uris":{"android":"levelo://app?vid=211c53db-e61a-47a9-8f9e-3397bc45a0ad","ios":"levelo://app?vid=211c53db-e61a-47a9-8f9e-3397bc45a0ad"},"vehicle_type_id":"4","last_reported":1691211939,"current_range_meters":0,"station_id":"ce4bhr12rcd13ifvqhqg","pricing_plan_id":"free"},{"bike_id":"3032db7f-3a54-42ed-bb2e-75c4658b6116","system_id":"levelo_inurba_marseille","lat":43.297774,"lon":5.370875,"is_reserved":false,"is_disabled":false,"rental_uris":{"android":"levelo://app?vid=3032db7f-3a54-42ed-bb2e-75c4658b6116","ios":"levelo://app?vid=3032db7f-3a54-42ed-bb2e-75c4658b6116"},"vehicle_type_id":"4","last_reported":1691211939,"current_range_meters":26000,"station_id":"ce4bgop2rcd13ifvqc1g","pricing_plan_id":"free"},{"bike_id":"1210a974-cfd1-4147-8585-3155ec45b2d4","system_id":"levelo_inurba_marseille","lat":43.32825,"lon":5.36691,"is_reserved":false,"is_disabled":false,"rental_uris":{"android":"levelo://app?vid=1210a974-cfd1-4147-8585-3155ec45b2d4","ios":"levelo://app?vid=1210a974-cfd1-4147-8585-3155ec45b2d4"},"vehicle_type_id":"4","last_reported":1691211939,"current_range_meters":18800,"station_id":"ce4bhs92rcd13ifvqi0g","pricing_plan_id":"free"},{"bike_id":"a2d165f3-2966-4d3d-8414-fa4f0f2e1e32","system_id":"levelo_inurba_marseille","lat":43.32825,"lon":5.36691,"is_reserved":false,"is_disabled":false,"rental_uris":{"android":"levelo://app?vid=a2d165f3-2966-4d3d-8414-fa4f0f2e1e32","ios":"levelo://app?vid=a2d165f3-2966-4d3d-8414-fa4f0f2e1e32"},"vehicle_type_id":"4","last_reported":1691211939,"current_range_meters":24800,"station_id":"ce4bhs92rcd13ifvqi0g","pricing_plan_id":"free"},{"bike_id":"79d478e1-3ee7-4283-a640-85273b88a58e","system_id":"levelo_inurba_marseille","lat":43.32828,"lon":5.36685,"is_reserved":false,"is_disabled":false,"rental_uris":{"android":"levelo://app?vid=79d478e1-3ee7-4283-a640-85273b88a58e","ios":"levelo://app?vid=79d478e1-3ee7-4283-a640-85273b88a58e"},"vehicle_type_id":"4","last_reported":1691211939,"current_range_meters":30000,"station_id":"ce4bhs92rcd13ifvqi0g","pricing_plan_id":"free"},{"bike_id":"8ae2a292-4b68-4114-8267-e4d284ceb76e","system_id":"levelo_inurba_marseille","lat":43.32831,"lon":5.36676,"is_reserved":false,"is_disabled":false,"rental_uris":{"android":"levelo://app?vid=8ae2a292-4b68-4114-8267-e4d284ceb76e","ios":"levelo://app?vid=8ae2a292-4b68-4114-8267-e4d284ceb76e"},"vehicle_type_id":"4","last_reported":1691211939,"current_range_meters":24400,"station_id":"ce4bhs92rcd13ifvqi0g","pricing_plan_id":"free"},{"bike_id":"ecb22f1f-ccb1-4911-af78-aedc06b9e2f0","system_id":"levelo_inurba_marseille","lat":43.32831,"lon":5.36674,"is_reserved":false,"is_disabled":false,"rental_uris":{"android":"levelo://app?vid=ecb22f1f-ccb1-4911-af78-aedc06b9e2f0","ios":"levelo://app?vid=ecb22f1f-ccb1-4911-af78-aedc06b9e2f0"},"vehicle_type_id":"4","last_reported":1691211939,"current_range_meters":4000,"station_id":"ce4bhs92rcd13ifvqi0g","pricing_plan_id":"free"},{"bike_id":"bfc37a9c-9b15-47da-9282-cebf1004209d","system_id":"levelo_inurba_marseille","lat":43.328371,"lon":5.366909,"is_reserved":false,"is_disabled":false,"rental_uris":{"android":"levelo://app?vid=bfc37a9c-9b15-47da-9282-cebf1004209d","ios":"levelo://app?vid=bfc37a9c-9b15-47da-9282-cebf1004209d"},"vehicle_type_id":"4","last_reported":1691211939,"current_range_meters":6400,"station_id":"ce4bhs92rcd13ifvqi0g","pricing_plan_id":"free"},{"bike_id":"47f1dfd4-9729-454f-9598-3d84e3a829a7","system_id":"levelo_inurba_marseille","lat":43.297163,"lon":5.365866,"is_reserved":false,"is_disabled":false,"rental_uris":{"android":"levelo://app?vid=47f1dfd4-9729-454f-9598-3d84e3a829a7","ios":"levelo://app?vid=47f1dfd4-9729-454f-9598-3d84e3a829a7"},"vehicle_type_id":"4","last_reported":1691211939,"current_range_meters":29200,"station_id":"ce4bgn12rcd13ifvqbt0","pricing_plan_id":"free"},{"bike_id":"925d80fe-dd88-4a52-a938-71d3f7293e55","system_id":"levelo_inurba_marseille","lat":43.328371,"lon":5.366909,"is_reserved":false,"is_disabled":false,"rental_uris":{"android":"levelo://app?vid=925d80fe-dd88-4a52-a938-71d3f7293e55","ios":"levelo://app?vid=925d80fe-dd88-4a52-a938-71d3f7293e55"},"vehicle_type_id":"4","last_reported":1691211939,"current_range_meters":16800,"station_id":"ce4bhs92rcd13ifvqi0g","pricing_plan_id":"free"},{"bike_id":"dd789220-e7b5-42c1-b9dc-dc4243148021","system_id":"levelo_inurba_marseille","lat":43.297163,"lon":5.365866,"is_reserved":false,"is_disabled":false,"rental_uris":{"android":"levelo://app?vid=dd789220-e7b5-42c1-b9dc-dc4243148021","ios":"levelo://app?vid=dd789220-e7b5-42c1-b9dc-dc4243148021"},"vehicle_type_id":"4","last_reported":1691211939,"current_range_meters":31200,"station_id":"ce4bgn12rcd13ifvqbt0","pricing_plan_id":"free"},{"bike_id":"bfcdc805-c177-4202-89f2-5e9744440523","system_id":"levelo_inurba_marseille","lat":43.328371,"lon":5.366909,"is_reserved":false,"is_disabled":false,"rental_uris":{"android":"levelo://app?vid=bfcdc805-c177-4202-89f2-5e9744440523","ios":"levelo://app?vid=bfcdc805-c177-4202-89f2-5e9744440523"},"vehicle_type_id":"4","last_reported":1691211939,"current_range_meters":4400,"station_id":"ce4bhs92rcd13ifvqi0g","pricing_plan_id":"free"},{"bike_id":"6bc7bf2a-353b-4254-a83d-420ff01c2f8a","system_id":"levelo_inurba_marseille","lat":43.299028,"lon":5.381509,"is_reserved":false,"is_disabled":false,"rental_uris":{"android":"levelo://app?vid=6bc7bf2a-353b-4254-a83d-420ff01c2f8a","ios":"levelo://app?vid=6bc7bf2a-353b-4254-a83d-420ff01c2f8a"},"vehicle_type_id":"4","last_reported":1691211939,"current_range_meters":22000,"station_id":"ce4bgj12rcd13ifvqbc0","pricing_plan_id":"free"},{"bike_id":"b9a14737-6d8c-4a3a-973e-5885fa6f7e23","system_id":"levelo_inurba_marseille","lat":43.299028,"lon":5.381509,"is_reserved":false,"is_disabled":false,"rental_uris":{"android":"levelo://app?vid=b9a14737-6d8c-4a3a-973e-5885fa6f7e23","ios":"levelo://app?vid=b9a14737-6d8c-4a3a-973e-5885fa6f7e23"},"vehicle_type_id":"4","last_reported":1691211939,"current_range_meters":20000,"station_id":"ce4bgj12rcd13ifvqbc0","pricing_plan_id":"free"},{"bike_id":"26d681ad-0015-4436-a085-ff26dfb7cea3","system_id":"levelo_inurba_marseille","lat":43.29709,"lon":5.37698,"is_reserved":false,"is_disabled":false,"rental_uris":{"android":"levelo://app?vid=26d681ad-0015-4436-a085-ff26dfb7cea3","ios":"levelo://app?vid=26d681ad-0015-4436-a085-ff26dfb7cea3"},"vehicle_type_id":"4","last_reported":1691211939,"current_range_meters":14800,"station_id":"ce4bgkh2rcd13ifvqbl0","pricing_plan_id":"free"},{"bike_id":"6d602fc6-a743-4d69-ae1a-aa6436ba711d","system_id":"levelo_inurba_marseille","lat":43.299028,"lon":5.381509,"is_reserved":false,"is_disabled":false,"rental_uris":{"android":"levelo://app?vid=6d602fc6-a743-4d69-ae1a-aa6436ba711d","ios":"levelo://app?vid=6d602fc6-a743-4d69-ae1a-aa6436ba711d"},"vehicle_type_id":"4","last_reported":1691211939,"current_range_meters":31200,"station_id":"ce4bgj12rcd13ifvqbc0","pricing_plan_id":"free"},{"bike_id":"e57fa417-aecc-4d3e-a938-e770bbbadb9c","system_id":"levelo_inurba_marseille","lat":43.299028,"lon":5.381509,"is_reserved":false,"is_disabled":false,"rental_uris":{"android":"levelo://app?vid=e57fa417-aecc-4d3e-a938-e770bbbadb9c","ios":"levelo://app?vid=e57fa417-aecc-4d3e-a938-e770bbbadb9c"},"vehicle_type_id":"4","last_reported":1691211939,"current_range_meters":30800,"station_id":"ce4bgj12rcd13ifvqbc0","pricing_plan_id":"free"},{"bike_id":"bfbf8d3d-1c66-480f-8c7d-64fb29375bb5","system_id":"levelo_inurba_marseille","lat":43.299028,"lon":5.381509,"is_reserved":false,"is_disabled":false,"rental_uris":{"android":"levelo://app?vid=bfbf8d3d-1c66-480f-8c7d-64fb29375bb5","ios":"levelo://app?vid=bfbf8d3d-1c66-480f-8c7d-64fb29375bb5"},"vehicle_type_id":"4","last_reported":1691211939,"current_range_meters":26000,"station_id":"ce4bgj12rcd13ifvqbc0","pricing_plan_id":"free"},{"bike_id":"27467724-1c32-4658-acc7-92691cac6a69","system_id":"levelo_inurba_marseille","lat":43.30956,"lon":5.39043,"is_reserved":false,"is_disabled":false,"rental_uris":{"android":"levelo://app?vid=27467724-1c32-4658-acc7-92691cac6a69","ios":"levelo://app?vid=27467724-1c32-4658-acc7-92691cac6a69"},"vehicle_type_id":"4","last_reported":1691211939,"current_range_meters":19600,"station_id":"ce4bgup2rcd13ifvqco0","pricing_plan_id":"free"},{"bike_id":"f0b1921d-8fc5-42f6-8214-26455e772ce5","system_id":"levelo_inurba_marseille","lat":43.30955,"lon":5.3906,"is_reserved":false,"is_disabled":false,"rental_uris":{"android":"levelo://app?vid=f0b1921d-8fc5-42f6-8214-26455e772ce5","ios":"levelo://app?vid=f0b1921d-8fc5-42f6-8214-26455e772ce5"},"vehicle_type_id":"4","last_reported":1691211939,"current_range_meters":24800,"station_id":"ce4bgup2rcd13ifvqco0","pricing_plan_id":"free"},{"bike_id":"a0163b85-18e5-4828-8d9c-5d727e145ddc","system_id":"levelo_inurba_marseille","lat":43.317557,"lon":5.390173,"is_reserved":false,"is_disabled":false,"rental_uris":{"android":"levelo://app?vid=a0163b85-18e5-4828-8d9c-5d727e145ddc","ios":"levelo://app?vid=a0163b85-18e5-4828-8d9c-5d727e145ddc"},"vehicle_type_id":"4","last_reported":1691211939,"current_range_meters":27600,"station_id":"ce4bhqp2rcd13ifvqhng","pricing_plan_id":"free"},{"bike_id":"c070a522-6c17-4333-a9ee-bbef4dc643ed","system_id":"levelo_inurba_marseille","lat":43.317557,"lon":5.390173,"is_reserved":false,"is_disabled":false,"rental_uris":{"android":"levelo://app?vid=c070a522-6c17-4333-a9ee-bbef4dc643ed","ios":"levelo://app?vid=c070a522-6c17-4333-a9ee-bbef4dc643ed"},"vehicle_type_id":"4","last_reported":1691211939,"current_range_meters":31200,"station_id":"ce4bhqp2rcd13ifvqhng","pricing_plan_id":"free"},{"bike_id":"4879b09e-5533-49cc-808c-be115b214b19","system_id":"levelo_inurba_marseille","lat":43.317557,"lon":5.390173,"is_reserved":false,"is_disabled":false,"rental_uris":{"android":"levelo://app?vid=4879b09e-5533-49cc-808c-be115b214b19","ios":"levelo://app?vid=4879b09e-5533-49cc-808c-be115b214b19"},"vehicle_type_id":"4","last_reported":1691211939,"current_range_meters":31200,"station_id":"ce4bhqp2rcd13ifvqhng","pricing_plan_id":"free"},{"bike_id":"50f2c09c-534d-43c1-a558-fb4cbe988a1f","system_id":"levelo_inurba_marseille","lat":43.317557,"lon":5.390173,"is_reserved":false,"is_disabled":false,"rental_uris":{"android":"levelo://app?vid=50f2c09c-534d-43c1-a558-fb4cbe988a1f","ios":"levelo://app?vid=50f2c09c-534d-43c1-a558-fb4cbe988a1f"},"vehicle_type_id":"4","last_reported":1691211939,"current_range_meters":13200,"station_id":"ce4bhqp2rcd13ifvqhng","pricing_plan_id":"free"},{"bike_id":"90569ba5-8bb9-4d2d-b876-dc35e42f9a0c","system_id":"levelo_inurba_marseille","lat":43.317557,"lon":5.390173,"is_reserved":false,"is_disabled":false,"rental_uris":{"android":"levelo://app?vid=90569ba5-8bb9-4d2d-b876-dc35e42f9a0c","ios":"levelo://app?vid=90569ba5-8bb9-4d2d-b876-dc35e42f9a0c"},"vehicle_type_id":"4","last_reported":1691211939,"current_range_meters":31200,"station_id":"ce4bhqp2rcd13ifvqhng","pricing_plan_id":"free"},{"bike_id":"fb5d1b63-b2f2-4d34-b700-b062bf6b4e69","system_id":"levelo_inurba_marseille","lat":43.317557,"lon":5.390173,"is_reserved":false,"is_disabled":false,"rental_uris":{"android":"levelo://app?vid=fb5d1b63-b2f2-4d34-b700-b062bf6b4e69","ios":"levelo://app?vid=fb5d1b63-b2f2-4d34-b700-b062bf6b4e69"},"vehicle_type_id":"4","last_reported":1691211939,"current_range_meters":31200,"station_id":"ce4bhqp2rcd13ifvqhng","pricing_plan_id":"free"},{"bike_id":"ffe83563-fe7b-4abd-90a1-b737e09347c0","system_id":"levelo_inurba_marseille","lat":43.317557,"lon":5.390173,"is_reserved":false,"is_disabled":false,"rental_uris":{"android":"levelo://app?vid=ffe83563-fe7b-4abd-90a1-b737e09347c0","ios":"levelo://app?vid=ffe83563-fe7b-4abd-90a1-b737e09347c0"},"vehicle_type_id":"4","last_reported":1691211939,"current_range_meters":28000,"station_id":"ce4bhqp2rcd13ifvqhng","pricing_plan_id":"free"},{"bike_id":"2f85dfd1-5d9a-4517-8def-c5ab4b399598","system_id":"levelo_inurba_marseille","lat":43.317557,"lon":5.390173,"is_reserved":false,"is_disabled":false,"rental_uris":{"android":"levelo://app?vid=2f85dfd1-5d9a-4517-8def-c5ab4b399598","ios":"levelo://app?vid=2f85dfd1-5d9a-4517-8def-c5ab4b399598"},"vehicle_type_id":"4","last_reported":1691211939,"current_range_meters":16000,"station_id":"ce4bhqp2rcd13ifvqhng","pricing_plan_id":"free"},{"bike_id":"18a85f18-d874-4a60-8aed-560fb98e5c68","system_id":"levelo_inurba_marseille","lat":43.317557,"lon":5.390173,"is_reserved":false,"is_disabled":false,"rental_uris":{"android":"levelo://app?vid=18a85f18-d874-4a60-8aed-560fb98e5c68","ios":"levelo://app?vid=18a85f18-d874-4a60-8aed-560fb98e5c68"},"vehicle_type_id":"4","last_reported":1691211939,"current_range_meters":28800,"station_id":"ce4bhqp2rcd13ifvqhng","pricing_plan_id":"free"},{"bike_id":"b2f3081d-803f-4500-a8ce-732227ecc1a7","system_id":"levelo_inurba_marseille","lat":43.317557,"lon":5.390173,"is_reserved":false,"is_disabled":false,"rental_uris":{"android":"levelo://app?vid=b2f3081d-803f-4500-a8ce-732227ecc1a7","ios":"levelo://app?vid=b2f3081d-803f-4500-a8ce-732227ecc1a7"},"vehicle_type_id":"4","last_reported":1691211939,"current_range_meters":24400,"station_id":"ce4bhqp2rcd13ifvqhng","pricing_plan_id":"free"},{"bike_id":"77a06464-b275-4e7c-b84c-ee13a40ed854","system_id":"levelo_inurba_marseille","lat":43.295748,"lon":5.37522,"is_reserved":false,"is_disabled":false,"rental_uris":{"android":"levelo://app?vid=77a06464-b275-4e7c-b84c-ee13a40ed854","ios":"levelo://app?vid=77a06464-b275-4e7c-b84c-ee13a40ed854"},"vehicle_type_id":"4","last_reported":1691211939,"current_range_meters":14800,"station_id":"ce4bgh92rcd13ifvqb50","pricing_plan_id":"free"},{"bike_id":"0a22e59f-24e0-416f-9a91-18fc2f7848e9","system_id":"levelo_inurba_marseille","lat":43.304278,"lon":5.388868,"is_reserved":false,"is_disabled":false,"rental_uris":{"android":"levelo://app?vid=0a22e59f-24e0-416f-9a91-18fc2f7848e9","ios":"levelo://app?vid=0a22e59f-24e0-416f-9a91-18fc2f7848e9"},"vehicle_type_id":"4","last_reported":1691211939,"current_range_meters":6000,"station_id":"ce4bgk12rcd13ifvqbi0","pricing_plan_id":"free"},{"bike_id":"ca01be96-7783-4888-9952-3431b87df3d2","system_id":"levelo_inurba_marseille","lat":43.295748,"lon":5.37522,"is_reserved":false,"is_disabled":false,"rental_uris":{"android":"levelo://app?vid=ca01be96-7783-4888-9952-3431b87df3d2","ios":"levelo://app?vid=ca01be96-7783-4888-9952-3431b87df3d2"},"vehicle_type_id":"4","last_reported":1691211939,"current_range_meters":31200,"station_id":"ce4bgh92rcd13ifvqb50","pricing_plan_id":"free"},{"bike_id":"4265e2a3-c358-459f-a83e-ee53a459c2ef","system_id":"levelo_inurba_marseille","lat":43.295748,"lon":5.37522,"is_reserved":false,"is_disabled":false,"rental_uris":{"android":"levelo://app?vid=4265e2a3-c358-459f-a83e-ee53a459c2ef","ios":"levelo://app?vid=4265e2a3-c358-459f-a83e-ee53a459c2ef"},"vehicle_type_id":"4","last_reported":1691211939,"current_range_meters":31200,"station_id":"ce4bgh92rcd13ifvqb50","pricing_plan_id":"free"},{"bike_id":"382eb1b1-2077-45d2-9e9a-a6c121f39b58","system_id":"levelo_inurba_marseille","lat":43.304278,"lon":5.388868,"is_reserved":false,"is_disabled":false,"rental_uris":{"android":"levelo://app?vid=382eb1b1-2077-45d2-9e9a-a6c121f39b58","ios":"levelo://app?vid=382eb1b1-2077-45d2-9e9a-a6c121f39b58"},"vehicle_type_id":"4","last_reported":1691211939,"current_range_meters":19200,"station_id":"ce4bgk12rcd13ifvqbi0","pricing_plan_id":"free"},{"bike_id":"68cd18e3-1d27-4e74-81f0-1e3719c42f46","system_id":"levelo_inurba_marseille","lat":43.295748,"lon":5.37522,"is_reserved":false,"is_disabled":false,"rental_uris":{"android":"levelo://app?vid=68cd18e3-1d27-4e74-81f0-1e3719c42f46","ios":"levelo://app?vid=68cd18e3-1d27-4e74-81f0-1e3719c42f46"},"vehicle_type_id":"4","last_reported":1691211939,"current_range_meters":31200,"station_id":"ce4bgh92rcd13ifvqb50","pricing_plan_id":"free"},{"bike_id":"2282a6a6-1c05-486b-a03d-98b71d7a2eb1","system_id":"levelo_inurba_marseille","lat":43.295748,"lon":5.37522,"is_reserved":false,"is_disabled":false,"rental_uris":{"android":"levelo://app?vid=2282a6a6-1c05-486b-a03d-98b71d7a2eb1","ios":"levelo://app?vid=2282a6a6-1c05-486b-a03d-98b71d7a2eb1"},"vehicle_type_id":"4","last_reported":1691211939,"current_range_meters":31200,"station_id":"ce4bgh92rcd13ifvqb50","pricing_plan_id":"free"},{"bike_id":"c13fb2e2-a48e-4b1c-9485-80a4e5af628f","system_id":"levelo_inurba_marseille","lat":43.295748,"lon":5.37522,"is_reserved":false,"is_disabled":false,"rental_uris":{"android":"levelo://app?vid=c13fb2e2-a48e-4b1c-9485-80a4e5af628f","ios":"levelo://app?vid=c13fb2e2-a48e-4b1c-9485-80a4e5af628f"},"vehicle_type_id":"4","last_reported":1691211939,"current_range_meters":31200,"station_id":"ce4bgh92rcd13ifvqb50","pricing_plan_id":"free"},{"bike_id":"8d93e603-2e32-4a6f-850f-a704100b239a","system_id":"levelo_inurba_marseille","lat":43.296263,"lon":5.377094,"is_reserved":false,"is_disabled":false,"rental_uris":{"android":"levelo://app?vid=8d93e603-2e32-4a6f-850f-a704100b239a","ios":"levelo://app?vid=8d93e603-2e32-4a6f-850f-a704100b239a"},"vehicle_type_id":"4","last_reported":1691211939,"current_range_meters":16000,"station_id":"ce4bgi92rcd13ifvqb90","pricing_plan_id":"free"},{"bike_id":"86c451f2-8ad5-4c7c-8386-1dcba5036193","system_id":"levelo_inurba_marseille","lat":43.2962,"lon":5.3771,"is_reserved":false,"is_disabled":false,"rental_uris":{"android":"levelo://app?vid=86c451f2-8ad5-4c7c-8386-1dcba5036193","ios":"levelo://app?vid=86c451f2-8ad5-4c7c-8386-1dcba5036193"},"vehicle_type_id":"4","last_reported":1691211939,"current_range_meters":0,"station_id":"ce4bgi92rcd13ifvqb90","pricing_plan_id":"free"},{"bike_id":"dec3fe5c-058a-4a6e-8466-6b55e0dbfc5f","system_id":"levelo_inurba_marseille","lat":43.295279,"lon":5.375048,"is_reserved":false,"is_disabled":false,"rental_uris":{"android":"levelo://app?vid=dec3fe5c-058a-4a6e-8466-6b55e0dbfc5f","ios":"levelo://app?vid=dec3fe5c-058a-4a6e-8466-6b55e0dbfc5f"},"vehicle_type_id":"4","last_reported":1691211939,"current_range_meters":24800,"station_id":"ce4bgkp2rcd13ifvqbmg","pricing_plan_id":"free"},{"bike_id":"1c78b035-e523-4d5a-8a08-875953784ea4","system_id":"levelo_inurba_marseille","lat":43.295279,"lon":5.375048,"is_reserved":false,"is_disabled":false,"rental_uris":{"android":"levelo://app?vid=1c78b035-e523-4d5a-8a08-875953784ea4","ios":"levelo://app?vid=1c78b035-e523-4d5a-8a08-875953784ea4"},"vehicle_type_id":"4","last_reported":1691211939,"current_range_meters":29200,"station_id":"ce4bgkp2rcd13ifvqbmg","pricing_plan_id":"free"},{"bike_id":"8df21ba9-fd5f-4141-a2ef-18a2b6712d0d","system_id":"levelo_inurba_marseille","lat":43.295279,"lon":5.375048,"is_reserved":false,"is_disabled":false,"rental_uris":{"android":"levelo://app?vid=8df21ba9-fd5f-4141-a2ef-18a2b6712d0d","ios":"levelo://app?vid=8df21ba9-fd5f-4141-a2ef-18a2b6712d0d"},"vehicle_type_id":"4","last_reported":1691211939,"current_range_meters":31600,"station_id":"ce4bgkp2rcd13ifvqbmg","pricing_plan_id":"free"},{"bike_id":"be006262-6f36-4654-b067-cbeafeaa3702","system_id":"levelo_inurba_marseille","lat":43.295279,"lon":5.375048,"is_reserved":false,"is_disabled":false,"rental_uris":{"android":"levelo://app?vid=be006262-6f36-4654-b067-cbeafeaa3702","ios":"levelo://app?vid=be006262-6f36-4654-b067-cbeafeaa3702"},"vehicle_type_id":"4","last_reported":1691211939,"current_range_meters":27600,"station_id":"ce4bgkp2rcd13ifvqbmg","pricing_plan_id":"free"},{"bike_id":"3923fb10-4f11-4557-9f3a-41e6a793088d","system_id":"levelo_inurba_marseille","lat":43.32358,"lon":5.38882,"is_reserved":false,"is_disabled":false,"rental_uris":{"android":"levelo://app?vid=3923fb10-4f11-4557-9f3a-41e6a793088d","ios":"levelo://app?vid=3923fb10-4f11-4557-9f3a-41e6a793088d"},"vehicle_type_id":"4","last_reported":1691211939,"current_range_meters":3200,"station_id":"ce4bhqp2rcd13ifvqhog","pricing_plan_id":"free"},{"bike_id":"3d2edb57-516f-41bc-985e-42a721904578","system_id":"levelo_inurba_marseille","lat":43.32367,"lon":5.388836,"is_reserved":false,"is_disabled":false,"rental_uris":{"android":"levelo://app?vid=3d2edb57-516f-41bc-985e-42a721904578","ios":"levelo://app?vid=3d2edb57-516f-41bc-985e-42a721904578"},"vehicle_type_id":"4","last_reported":1691211939,"current_range_meters":22800,"station_id":"ce4bhqp2rcd13ifvqhog","pricing_plan_id":"free"},{"bike_id":"ee373f4b-d04e-43ef-92b8-3105e264ba5d","system_id":"levelo_inurba_marseille","lat":43.3236,"lon":5.38882,"is_reserved":false,"is_disabled":false,"rental_uris":{"android":"levelo://app?vid=ee373f4b-d04e-43ef-92b8-3105e264ba5d","ios":"levelo://app?vid=ee373f4b-d04e-43ef-92b8-3105e264ba5d"},"vehicle_type_id":"4","last_reported":1691211939,"current_range_meters":23600,"station_id":"ce4bhqp2rcd13ifvqhog","pricing_plan_id":"free"},{"bike_id":"5f1c231d-5549-420b-a974-1b1406435a60","system_id":"levelo_inurba_marseille","lat":43.32367,"lon":5.388836,"is_reserved":false,"is_disabled":false,"rental_uris":{"android":"levelo://app?vid=5f1c231d-5549-420b-a974-1b1406435a60","ios":"levelo://app?vid=5f1c231d-5549-420b-a974-1b1406435a60"},"vehicle_type_id":"4","last_reported":1691211939,"current_range_meters":22800,"station_id":"ce4bhqp2rcd13ifvqhog","pricing_plan_id":"free"},{"bike_id":"fbc3a92c-f948-48e9-a3fc-f0e8af1a9259","system_id":"levelo_inurba_marseille","lat":43.32364,"lon":5.38882,"is_reserved":false,"is_disabled":false,"rental_uris":{"android":"levelo://app?vid=fbc3a92c-f948-48e9-a3fc-f0e8af1a9259","ios":"levelo://app?vid=fbc3a92c-f948-48e9-a3fc-f0e8af1a9259"},"vehicle_type_id":"4","last_reported":1691211939,"current_range_meters":31200,"station_id":"ce4bhqp2rcd13ifvqhog","pricing_plan_id":"free"},{"bike_id":"696ed9b6-9beb-423c-9d06-defcf66f30b9","system_id":"levelo_inurba_marseille","lat":43.32363,"lon":5.38883,"is_reserved":false,"is_disabled":false,"rental_uris":{"android":"levelo://app?vid=696ed9b6-9beb-423c-9d06-defcf66f30b9","ios":"levelo://app?vid=696ed9b6-9beb-423c-9d06-defcf66f30b9"},"vehicle_type_id":"4","last_reported":1691211939,"current_range_meters":12400,"station_id":"ce4bhqp2rcd13ifvqhog","pricing_plan_id":"free"},{"bike_id":"43e03639-4029-4e8d-ad26-7f8f17f1e9de","system_id":"levelo_inurba_marseille","lat":43.32367,"lon":5.388836,"is_reserved":false,"is_disabled":false,"rental_uris":{"android":"levelo://app?vid=43e03639-4029-4e8d-ad26-7f8f17f1e9de","ios":"levelo://app?vid=43e03639-4029-4e8d-ad26-7f8f17f1e9de"},"vehicle_type_id":"4","last_reported":1691211939,"current_range_meters":18000,"station_id":"ce4bhqp2rcd13ifvqhog","pricing_plan_id":"free"},{"bike_id":"34ef5601-8765-4b80-bdc1-e9818152ffab","system_id":"levelo_inurba_marseille","lat":43.32367,"lon":5.388836,"is_reserved":false,"is_disabled":false,"rental_uris":{"android":"levelo://app?vid=34ef5601-8765-4b80-bdc1-e9818152ffab","ios":"levelo://app?vid=34ef5601-8765-4b80-bdc1-e9818152ffab"},"vehicle_type_id":"4","last_reported":1691211939,"current_range_meters":26400,"station_id":"ce4bhqp2rcd13ifvqhog","pricing_plan_id":"free"},{"bike_id":"31c4ebe8-2a4f-41b7-966a-7ad502ff3d8a","system_id":"levelo_inurba_marseille","lat":43.32365,"lon":5.38884,"is_reserved":false,"is_disabled":false,"rental_uris":{"android":"levelo://app?vid=31c4ebe8-2a4f-41b7-966a-7ad502ff3d8a","ios":"levelo://app?vid=31c4ebe8-2a4f-41b7-966a-7ad502ff3d8a"},"vehicle_type_id":"4","last_reported":1691211939,"current_range_meters":21200,"station_id":"ce4bhqp2rcd13ifvqhog","pricing_plan_id":"free"},{"bike_id":"b47ca02a-40ba-4dc8-abeb-b1a2c4b62cd0","system_id":"levelo_inurba_marseille","lat":43.3236,"lon":5.38889,"is_reserved":false,"is_disabled":false,"rental_uris":{"android":"levelo://app?vid=b47ca02a-40ba-4dc8-abeb-b1a2c4b62cd0","ios":"levelo://app?vid=b47ca02a-40ba-4dc8-abeb-b1a2c4b62cd0"},"vehicle_type_id":"4","last_reported":1691211939,"current_range_meters":0,"station_id":"ce4bhqp2rcd13ifvqhog","pricing_plan_id":"free"},{"bike_id":"153806a9-c106-4acb-8efe-f81ba29b58d3","system_id":"levelo_inurba_marseille","lat":43.32367,"lon":5.388836,"is_reserved":false,"is_disabled":false,"rental_uris":{"android":"levelo://app?vid=153806a9-c106-4acb-8efe-f81ba29b58d3","ios":"levelo://app?vid=153806a9-c106-4acb-8efe-f81ba29b58d3"},"vehicle_type_id":"4","last_reported":1691211939,"current_range_meters":25200,"station_id":"ce4bhqp2rcd13ifvqhog","pricing_plan_id":"free"},{"bike_id":"6be534a9-96c6-4989-b3bb-e9dea76376c4","system_id":"levelo_inurba_marseille","lat":43.32367,"lon":5.388836,"is_reserved":false,"is_disabled":false,"rental_uris":{"android":"levelo://app?vid=6be534a9-96c6-4989-b3bb-e9dea76376c4","ios":"levelo://app?vid=6be534a9-96c6-4989-b3bb-e9dea76376c4"},"vehicle_type_id":"4","last_reported":1691211939,"current_range_meters":7200,"station_id":"ce4bhqp2rcd13ifvqhog","pricing_plan_id":"free"},{"bike_id":"677c3394-621d-4ee5-a0bb-975b701ef493","system_id":"levelo_inurba_marseille","lat":43.30309,"lon":5.39221,"is_reserved":false,"is_disabled":false,"rental_uris":{"android":"levelo://app?vid=677c3394-621d-4ee5-a0bb-975b701ef493","ios":"levelo://app?vid=677c3394-621d-4ee5-a0bb-975b701ef493"},"vehicle_type_id":"4","last_reported":1691211939,"current_range_meters":0,"station_id":"ce4bgkh2rcd13ifvqbk0","pricing_plan_id":"free"},{"bike_id":"531516fd-c0cd-45c4-b866-54db56b50288","system_id":"levelo_inurba_marseille","lat":43.30097,"lon":5.39069,"is_reserved":false,"is_disabled":false,"rental_uris":{"android":"levelo://app?vid=531516fd-c0cd-45c4-b866-54db56b50288","ios":"levelo://app?vid=531516fd-c0cd-45c4-b866-54db56b50288"},"vehicle_type_id":"4","last_reported":1691211939,"current_range_meters":25600,"station_id":"ce4bh192rcd13ifvqdb0","pricing_plan_id":"free"},{"bike_id":"0348fbb8-5f58-40f2-b926-f5284fa6d4e8","system_id":"levelo_inurba_marseille","lat":43.2921,"lon":5.36055,"is_reserved":false,"is_disabled":false,"rental_uris":{"android":"levelo://app?vid=0348fbb8-5f58-40f2-b926-f5284fa6d4e8","ios":"levelo://app?vid=0348fbb8-5f58-40f2-b926-f5284fa6d4e8"},"vehicle_type_id":"4","last_reported":1691211939,"current_range_meters":0,"station_id":"ce4bhbh2rcd13ifvqeqg","pricing_plan_id":"free"},{"bike_id":"9d3cf51b-cf81-4883-bc2d-1aa7942bfc79","system_id":"levelo_inurba_marseille","lat":43.29883,"lon":5.38906,"is_reserved":false,"is_disabled":false,"rental_uris":{"android":"levelo://app?vid=9d3cf51b-cf81-4883-bc2d-1aa7942bfc79","ios":"levelo://app?vid=9d3cf51b-cf81-4883-bc2d-1aa7942bfc79"},"vehicle_type_id":"4","last_reported":1691211939,"current_range_meters":27200,"station_id":"ce4bh392rcd13ifvqdl0","pricing_plan_id":"free"},{"bike_id":"12fa8514-0a68-41f7-bb46-e07e792351de","system_id":"levelo_inurba_marseille","lat":43.31331,"lon":5.39687,"is_reserved":false,"is_disabled":false,"rental_uris":{"android":"levelo://app?vid=12fa8514-0a68-41f7-bb46-e07e792351de","ios":"levelo://app?vid=12fa8514-0a68-41f7-bb46-e07e792351de"},"vehicle_type_id":"4","last_reported":1691211939,"current_range_meters":400,"station_id":"ce4bgvp2rcd13ifvqcu0","pricing_plan_id":"free"},{"bike_id":"48a4675c-3592-4e86-b588-5cd026951643","system_id":"levelo_inurba_marseille","lat":43.31326,"lon":5.39688,"is_reserved":false,"is_disabled":false,"rental_uris":{"android":"levelo://app?vid=48a4675c-3592-4e86-b588-5cd026951643","ios":"levelo://app?vid=48a4675c-3592-4e86-b588-5cd026951643"},"vehicle_type_id":"4","last_reported":1691211939,"current_range_meters":0,"station_id":"ce4bgvp2rcd13ifvqcu0","pricing_plan_id":"free"},{"bike_id":"0288d276-f1da-474e-8992-fc865d32c018","system_id":"levelo_inurba_marseille","lat":43.3133,"lon":5.39688,"is_reserved":false,"is_disabled":false,"rental_uris":{"android":"levelo://app?vid=0288d276-f1da-474e-8992-fc865d32c018","ios":"levelo://app?vid=0288d276-f1da-474e-8992-fc865d32c018"},"vehicle_type_id":"4","last_reported":1691211939,"current_range_meters":28000,"station_id":"ce4bgvp2rcd13ifvqcu0","pricing_plan_id":"free"},{"bike_id":"ebbf0889-294e-4a97-b816-80e14ee272d5","system_id":"levelo_inurba_marseille","lat":43.3133,"lon":5.39688,"is_reserved":false,"is_disabled":false,"rental_uris":{"android":"levelo://app?vid=ebbf0889-294e-4a97-b816-80e14ee272d5","ios":"levelo://app?vid=ebbf0889-294e-4a97-b816-80e14ee272d5"},"vehicle_type_id":"4","last_reported":1691211939,"current_range_meters":24800,"station_id":"ce4bgvp2rcd13ifvqcu0","pricing_plan_id":"free"},{"bike_id":"4a008422-29a4-458e-a2c7-038b8d570857","system_id":"levelo_inurba_marseille","lat":43.31331,"lon":5.39689,"is_reserved":false,"is_disabled":false,"rental_uris":{"android":"levelo://app?vid=4a008422-29a4-458e-a2c7-038b8d570857","ios":"levelo://app?vid=4a008422-29a4-458e-a2c7-038b8d570857"},"vehicle_type_id":"4","last_reported":1691211939,"current_range_meters":13600,"station_id":"ce4bgvp2rcd13ifvqcu0","pricing_plan_id":"free"},{"bike_id":"732d6916-7d23-4824-bd9d-f12772e1f638","system_id":"levelo_inurba_marseille","lat":43.31328,"lon":5.39691,"is_reserved":false,"is_disabled":false,"rental_uris":{"android":"levelo://app?vid=732d6916-7d23-4824-bd9d-f12772e1f638","ios":"levelo://app?vid=732d6916-7d23-4824-bd9d-f12772e1f638"},"vehicle_type_id":"4","last_reported":1691211939,"current_range_meters":27200,"station_id":"ce4bgvp2rcd13ifvqcu0","pricing_plan_id":"free"},{"bike_id":"901c0933-e476-4936-8c39-6917a5722138","system_id":"levelo_inurba_marseille","lat":43.31334,"lon":5.39691,"is_reserved":false,"is_disabled":false,"rental_uris":{"android":"levelo://app?vid=901c0933-e476-4936-8c39-6917a5722138","ios":"levelo://app?vid=901c0933-e476-4936-8c39-6917a5722138"},"vehicle_type_id":"4","last_reported":1691211939,"current_range_meters":22000,"station_id":"ce4bgvp2rcd13ifvqcu0","pricing_plan_id":"free"},{"bike_id":"75940d41-b8a2-41da-a9e6-9ebe0b8325a7","system_id":"levelo_inurba_marseille","lat":43.31332,"lon":5.39693,"is_reserved":false,"is_disabled":false,"rental_uris":{"android":"levelo://app?vid=75940d41-b8a2-41da-a9e6-9ebe0b8325a7","ios":"levelo://app?vid=75940d41-b8a2-41da-a9e6-9ebe0b8325a7"},"vehicle_type_id":"4","last_reported":1691211939,"current_range_meters":16400,"station_id":"ce4bgvp2rcd13ifvqcu0","pricing_plan_id":"free"},{"bike_id":"73ef68a3-c405-4709-8c09-348081e638bc","system_id":"levelo_inurba_marseille","lat":43.2919,"lon":5.35795,"is_reserved":false,"is_disabled":false,"rental_uris":{"android":"levelo://app?vid=73ef68a3-c405-4709-8c09-348081e638bc","ios":"levelo://app?vid=73ef68a3-c405-4709-8c09-348081e638bc"},"vehicle_type_id":"4","last_reported":1691211939,"current_range_meters":27200,"station_id":"ce4bhb12rcd13ifvqel0","pricing_plan_id":"free"},{"bike_id":"c259fa64-952d-495c-b966-f6381bf49a42","system_id":"levelo_inurba_marseille","lat":43.30884,"lon":5.39646,"is_reserved":false,"is_disabled":false,"rental_uris":{"android":"levelo://app?vid=c259fa64-952d-495c-b966-f6381bf49a42","ios":"levelo://app?vid=c259fa64-952d-495c-b966-f6381bf49a42"},"vehicle_type_id":"4","last_reported":1691211939,"current_range_meters":19200,"station_id":"ce4bh012rcd13ifvqcv0","pricing_plan_id":"free"},{"bike_id":"0c872fac-4908-4c2b-8165-2f366f0421b8","system_id":"levelo_inurba_marseille","lat":43.31335,"lon":5.39694,"is_reserved":false,"is_disabled":false,"rental_uris":{"android":"levelo://app?vid=0c872fac-4908-4c2b-8165-2f366f0421b8","ios":"levelo://app?vid=0c872fac-4908-4c2b-8165-2f366f0421b8"},"vehicle_type_id":"4","last_reported":1691211939,"current_range_meters":28000,"station_id":"ce4bgvp2rcd13ifvqcu0","pricing_plan_id":"free"},{"bike_id":"92399ced-c134-44e2-91d9-2eb55a1e34d1","system_id":"levelo_inurba_marseille","lat":43.30882,"lon":5.39647,"is_reserved":false,"is_disabled":false,"rental_uris":{"android":"levelo://app?vid=92399ced-c134-44e2-91d9-2eb55a1e34d1","ios":"levelo://app?vid=92399ced-c134-44e2-91d9-2eb55a1e34d1"},"vehicle_type_id":"4","last_reported":1691211939,"current_range_meters":20400,"station_id":"ce4bh012rcd13ifvqcv0","pricing_plan_id":"free"},{"bike_id":"152b437f-135a-41a9-8809-789f80214774","system_id":"levelo_inurba_marseille","lat":43.313291,"lon":5.396838,"is_reserved":false,"is_disabled":false,"rental_uris":{"android":"levelo://app?vid=152b437f-135a-41a9-8809-789f80214774","ios":"levelo://app?vid=152b437f-135a-41a9-8809-789f80214774"},"vehicle_type_id":"4","last_reported":1691211939,"current_range_meters":25200,"station_id":"ce4bgvp2rcd13ifvqcu0","pricing_plan_id":"free"},{"bike_id":"4e6846ae-36f1-4235-93d3-4da7c9b10477","system_id":"levelo_inurba_marseille","lat":43.31334,"lon":5.39697,"is_reserved":false,"is_disabled":false,"rental_uris":{"android":"levelo://app?vid=4e6846ae-36f1-4235-93d3-4da7c9b10477","ios":"levelo://app?vid=4e6846ae-36f1-4235-93d3-4da7c9b10477"},"vehicle_type_id":"4","last_reported":1691211939,"current_range_meters":24000,"station_id":"ce4bgvp2rcd13ifvqcu0","pricing_plan_id":"free"},{"bike_id":"a054dae8-4caf-405d-b27d-3ed2e75c9e72","system_id":"levelo_inurba_marseille","lat":43.3089,"lon":5.39652,"is_reserved":false,"is_disabled":false,"rental_uris":{"android":"levelo://app?vid=a054dae8-4caf-405d-b27d-3ed2e75c9e72","ios":"levelo://app?vid=a054dae8-4caf-405d-b27d-3ed2e75c9e72"},"vehicle_type_id":"4","last_reported":1691211939,"current_range_meters":2400,"station_id":"ce4bh012rcd13ifvqcv0","pricing_plan_id":"free"},{"bike_id":"8ce13b56-1737-47c1-99cb-f47c5df85884","system_id":"levelo_inurba_marseille","lat":43.31335,"lon":5.39698,"is_reserved":false,"is_disabled":false,"rental_uris":{"android":"levelo://app?vid=8ce13b56-1737-47c1-99cb-f47c5df85884","ios":"levelo://app?vid=8ce13b56-1737-47c1-99cb-f47c5df85884"},"vehicle_type_id":"4","last_reported":1691211939,"current_range_meters":20800,"station_id":"ce4bgvp2rcd13ifvqcu0","pricing_plan_id":"free"},{"bike_id":"d1ffca73-7d13-4241-8f74-14210fca76f7","system_id":"levelo_inurba_marseille","lat":43.313291,"lon":5.396838,"is_reserved":false,"is_disabled":false,"rental_uris":{"android":"levelo://app?vid=d1ffca73-7d13-4241-8f74-14210fca76f7","ios":"levelo://app?vid=d1ffca73-7d13-4241-8f74-14210fca76f7"},"vehicle_type_id":"4","last_reported":1691211939,"current_range_meters":0,"station_id":"ce4bgvp2rcd13ifvqcu0","pricing_plan_id":"free"},{"bike_id":"40a7725f-bc55-4693-9c45-86bc7b0e8476","system_id":"levelo_inurba_marseille","lat":43.31328,"lon":5.39699,"is_reserved":false,"is_disabled":false,"rental_uris":{"android":"levelo://app?vid=40a7725f-bc55-4693-9c45-86bc7b0e8476","ios":"levelo://app?vid=40a7725f-bc55-4693-9c45-86bc7b0e8476"},"vehicle_type_id":"4","last_reported":1691211939,"current_range_meters":26400,"station_id":"ce4bgvp2rcd13ifvqcu0","pricing_plan_id":"free"},{"bike_id":"40b0dbf0-87f6-4363-b8e9-d1cac15b6861","system_id":"levelo_inurba_marseille","lat":43.3133,"lon":5.39699,"is_reserved":false,"is_disabled":false,"rental_uris":{"android":"levelo://app?vid=40b0dbf0-87f6-4363-b8e9-d1cac15b6861","ios":"levelo://app?vid=40b0dbf0-87f6-4363-b8e9-d1cac15b6861"},"vehicle_type_id":"4","last_reported":1691211939,"current_range_meters":27200,"station_id":"ce4bgvp2rcd13ifvqcu0","pricing_plan_id":"free"},{"bike_id":"0b9e9f78-eb76-491c-9188-e2aef1e2e70f","system_id":"levelo_inurba_marseille","lat":43.30877,"lon":5.39651,"is_reserved":false,"is_disabled":false,"rental_uris":{"android":"levelo://app?vid=0b9e9f78-eb76-491c-9188-e2aef1e2e70f","ios":"levelo://app?vid=0b9e9f78-eb76-491c-9188-e2aef1e2e70f"},"vehicle_type_id":"4","last_reported":1691211939,"current_range_meters":19600,"station_id":"ce4bh012rcd13ifvqcv0","pricing_plan_id":"free"},{"bike_id":"4282928a-65ca-455f-9646-806d7e6ca5a3","system_id":"levelo_inurba_marseille","lat":43.31327,"lon":5.39701,"is_reserved":false,"is_disabled":false,"rental_uris":{"android":"levelo://app?vid=4282928a-65ca-455f-9646-806d7e6ca5a3","ios":"levelo://app?vid=4282928a-65ca-455f-9646-806d7e6ca5a3"},"vehicle_type_id":"4","last_reported":1691211939,"current_range_meters":24400,"station_id":"ce4bgvp2rcd13ifvqcu0","pricing_plan_id":"free"},{"bike_id":"ce9af7e8-c390-4052-bc70-643c83bd28f0","system_id":"levelo_inurba_marseille","lat":43.31329,"lon":5.39702,"is_reserved":false,"is_disabled":false,"rental_uris":{"android":"levelo://app?vid=ce9af7e8-c390-4052-bc70-643c83bd28f0","ios":"levelo://app?vid=ce9af7e8-c390-4052-bc70-643c83bd28f0"},"vehicle_type_id":"4","last_reported":1691211939,"current_range_meters":27200,"station_id":"ce4bgvp2rcd13ifvqcu0","pricing_plan_id":"free"},{"bike_id":"6761a8b1-91fb-4cd4-8397-cdcd34da0a44","system_id":"levelo_inurba_marseille","lat":43.31326,"lon":5.39703,"is_reserved":false,"is_disabled":false,"rental_uris":{"android":"levelo://app?vid=6761a8b1-91fb-4cd4-8397-cdcd34da0a44","ios":"levelo://app?vid=6761a8b1-91fb-4cd4-8397-cdcd34da0a44"},"vehicle_type_id":"4","last_reported":1691211939,"current_range_meters":16400,"station_id":"ce4bgvp2rcd13ifvqcu0","pricing_plan_id":"free"},{"bike_id":"6a78cfee-a0d7-4f90-b817-7d7948c89d9c","system_id":"levelo_inurba_marseille","lat":43.31329,"lon":5.39703,"is_reserved":false,"is_disabled":false,"rental_uris":{"android":"levelo://app?vid=6a78cfee-a0d7-4f90-b817-7d7948c89d9c","ios":"levelo://app?vid=6a78cfee-a0d7-4f90-b817-7d7948c89d9c"},"vehicle_type_id":"4","last_reported":1691211939,"current_range_meters":28000,"station_id":"ce4bgvp2rcd13ifvqcu0","pricing_plan_id":"free"},{"bike_id":"26f416d2-e8d2-47ec-97ea-e4695f95a598","system_id":"levelo_inurba_marseille","lat":43.29529,"lon":5.385581,"is_reserved":false,"is_disabled":false,"rental_uris":{"android":"levelo://app?vid=26f416d2-e8d2-47ec-97ea-e4695f95a598","ios":"levelo://app?vid=26f416d2-e8d2-47ec-97ea-e4695f95a598"},"vehicle_type_id":"4","last_reported":1691211939,"current_range_meters":28800,"station_id":"ce4bgih2rcd13ifvqba0","pricing_plan_id":"free"},{"bike_id":"a0ccfa2b-d167-42ae-8e74-a42eb12f353b","system_id":"levelo_inurba_marseille","lat":43.290631,"lon":5.359244,"is_reserved":false,"is_disabled":false,"rental_uris":{"android":"levelo://app?vid=a0ccfa2b-d167-42ae-8e74-a42eb12f353b","ios":"levelo://app?vid=a0ccfa2b-d167-42ae-8e74-a42eb12f353b"},"vehicle_type_id":"4","last_reported":1691211939,"current_range_meters":29200,"station_id":"ce4bha92rcd13ifvqeg0","pricing_plan_id":"free"},{"bike_id":"5f0d508b-dd34-46a4-8792-f26df5f1db5e","system_id":"levelo_inurba_marseille","lat":43.289184,"lon":5.366408,"is_reserved":false,"is_disabled":false,"rental_uris":{"android":"levelo://app?vid=5f0d508b-dd34-46a4-8792-f26df5f1db5e","ios":"levelo://app?vid=5f0d508b-dd34-46a4-8792-f26df5f1db5e"},"vehicle_type_id":"4","last_reported":1691211939,"current_range_meters":28800,"station_id":"ce4bhap2rcd13ifvqek0","pricing_plan_id":"free"},{"bike_id":"3509a0d9-fb55-45e7-9aa2-83858b8492cb","system_id":"levelo_inurba_marseille","lat":43.289468,"lon":5.363719,"is_reserved":false,"is_disabled":false,"rental_uris":{"android":"levelo://app?vid=3509a0d9-fb55-45e7-9aa2-83858b8492cb","ios":"levelo://app?vid=3509a0d9-fb55-45e7-9aa2-83858b8492cb"},"vehicle_type_id":"4","last_reported":1691211939,"current_range_meters":27200,"station_id":"ce4bhc92rcd13ifvqetg","pricing_plan_id":"free"},{"bike_id":"9b8c059e-cc51-45c5-9314-c78105ca0dd4","system_id":"levelo_inurba_marseille","lat":43.289468,"lon":5.363719,"is_reserved":false,"is_disabled":false,"rental_uris":{"android":"levelo://app?vid=9b8c059e-cc51-45c5-9314-c78105ca0dd4","ios":"levelo://app?vid=9b8c059e-cc51-45c5-9314-c78105ca0dd4"},"vehicle_type_id":"4","last_reported":1691211939,"current_range_meters":30000,"station_id":"ce4bhc92rcd13ifvqetg","pricing_plan_id":"free"},{"bike_id":"52feecfd-0330-446c-b077-6ca664126159","system_id":"levelo_inurba_marseille","lat":43.289468,"lon":5.363719,"is_reserved":false,"is_disabled":false,"rental_uris":{"android":"levelo://app?vid=52feecfd-0330-446c-b077-6ca664126159","ios":"levelo://app?vid=52feecfd-0330-446c-b077-6ca664126159"},"vehicle_type_id":"4","last_reported":1691211939,"current_range_meters":29600,"station_id":"ce4bhc92rcd13ifvqetg","pricing_plan_id":"free"},{"bike_id":"58d9daa4-9c4c-4dbc-a91c-3eee752552f5","system_id":"levelo_inurba_marseille","lat":43.30505,"lon":5.39759,"is_reserved":false,"is_disabled":false,"rental_uris":{"android":"levelo://app?vid=58d9daa4-9c4c-4dbc-a91c-3eee752552f5","ios":"levelo://app?vid=58d9daa4-9c4c-4dbc-a91c-3eee752552f5"},"vehicle_type_id":"4","last_reported":1691211939,"current_range_meters":19200,"station_id":"","pricing_plan_id":"free"},{"bike_id":"a86ea97e-ea32-42cc-81e3-598b0a6f4f26","system_id":"levelo_inurba_marseille","lat":43.290103,"lon":5.356114,"is_reserved":false,"is_disabled":false,"rental_uris":{"android":"levelo://app?vid=a86ea97e-ea32-42cc-81e3-598b0a6f4f26","ios":"levelo://app?vid=a86ea97e-ea32-42cc-81e3-598b0a6f4f26"},"vehicle_type_id":"4","last_reported":1691211939,"current_range_meters":29200,"station_id":"ce4bhb92rcd13ifvqen0","pricing_plan_id":"free"},{"bike_id":"4ec1e816-1bbf-4d7b-9fa3-79c1b35725a7","system_id":"levelo_inurba_marseille","lat":43.290104,"lon":5.356111,"is_reserved":false,"is_disabled":false,"rental_uris":{"android":"levelo://app?vid=4ec1e816-1bbf-4d7b-9fa3-79c1b35725a7","ios":"levelo://app?vid=4ec1e816-1bbf-4d7b-9fa3-79c1b35725a7"},"vehicle_type_id":"4","last_reported":1691211939,"current_range_meters":30400,"station_id":"ce4bhb92rcd13ifvqen0","pricing_plan_id":"free"},{"bike_id":"2f2d42a2-8de0-405f-9429-d3eae654394c","system_id":"levelo_inurba_marseille","lat":43.33043,"lon":5.38917,"is_reserved":false,"is_disabled":false,"rental_uris":{"android":"levelo://app?vid=2f2d42a2-8de0-405f-9429-d3eae654394c","ios":"levelo://app?vid=2f2d42a2-8de0-405f-9429-d3eae654394c"},"vehicle_type_id":"4","last_reported":1691211939,"current_range_meters":18400,"station_id":"ce4bhr92rcd13ifvqhrg","pricing_plan_id":"free"},{"bike_id":"e6c6e4e8-edee-449e-8936-76c8ef3752c4","system_id":"levelo_inurba_marseille","lat":43.33043,"lon":5.38918,"is_reserved":false,"is_disabled":false,"rental_uris":{"android":"levelo://app?vid=e6c6e4e8-edee-449e-8936-76c8ef3752c4","ios":"levelo://app?vid=e6c6e4e8-edee-449e-8936-76c8ef3752c4"},"vehicle_type_id":"4","last_reported":1691211939,"current_range_meters":21200,"station_id":"ce4bhr92rcd13ifvqhrg","pricing_plan_id":"free"},{"bike_id":"2dba05d3-f7a4-4dcc-9133-7e306f42ddbb","system_id":"levelo_inurba_marseille","lat":43.33043,"lon":5.38919,"is_reserved":false,"is_disabled":false,"rental_uris":{"android":"levelo://app?vid=2dba05d3-f7a4-4dcc-9133-7e306f42ddbb","ios":"levelo://app?vid=2dba05d3-f7a4-4dcc-9133-7e306f42ddbb"},"vehicle_type_id":"4","last_reported":1691211939,"current_range_meters":0,"station_id":"ce4bhr92rcd13ifvqhrg","pricing_plan_id":"free"},{"bike_id":"98f910d2-52f4-4465-977e-10142d8cca43","system_id":"levelo_inurba_marseille","lat":43.33042,"lon":5.38921,"is_reserved":false,"is_disabled":false,"rental_uris":{"android":"levelo://app?vid=98f910d2-52f4-4465-977e-10142d8cca43","ios":"levelo://app?vid=98f910d2-52f4-4465-977e-10142d8cca43"},"vehicle_type_id":"4","last_reported":1691211939,"current_range_meters":18400,"station_id":"ce4bhr92rcd13ifvqhrg","pricing_plan_id":"free"},{"bike_id":"f67edc25-bcc7-41fb-8431-1add679b0933","system_id":"levelo_inurba_marseille","lat":43.33047,"lon":5.38914,"is_reserved":false,"is_disabled":false,"rental_uris":{"android":"levelo://app?vid=f67edc25-bcc7-41fb-8431-1add679b0933","ios":"levelo://app?vid=f67edc25-bcc7-41fb-8431-1add679b0933"},"vehicle_type_id":"4","last_reported":1691211939,"current_range_meters":17600,"station_id":"ce4bhr92rcd13ifvqhrg","pricing_plan_id":"free"},{"bike_id":"8ace282d-a246-40c2-9516-a60b5d85bb41","system_id":"levelo_inurba_marseille","lat":43.33044,"lon":5.38919,"is_reserved":false,"is_disabled":false,"rental_uris":{"android":"levelo://app?vid=8ace282d-a246-40c2-9516-a60b5d85bb41","ios":"levelo://app?vid=8ace282d-a246-40c2-9516-a60b5d85bb41"},"vehicle_type_id":"4","last_reported":1691211939,"current_range_meters":21200,"station_id":"ce4bhr92rcd13ifvqhrg","pricing_plan_id":"free"},{"bike_id":"1dd3314a-c89e-4b6b-be21-3f1292ec480d","system_id":"levelo_inurba_marseille","lat":43.290103,"lon":5.356114,"is_reserved":false,"is_disabled":false,"rental_uris":{"android":"levelo://app?vid=1dd3314a-c89e-4b6b-be21-3f1292ec480d","ios":"levelo://app?vid=1dd3314a-c89e-4b6b-be21-3f1292ec480d"},"vehicle_type_id":"4","last_reported":1691211939,"current_range_meters":31200,"station_id":"ce4bhb92rcd13ifvqen0","pricing_plan_id":"free"},{"bike_id":"37fde894-3336-4087-bf88-b0989bbc514a","system_id":"levelo_inurba_marseille","lat":43.33048,"lon":5.38914,"is_reserved":false,"is_disabled":false,"rental_uris":{"android":"levelo://app?vid=37fde894-3336-4087-bf88-b0989bbc514a","ios":"levelo://app?vid=37fde894-3336-4087-bf88-b0989bbc514a"},"vehicle_type_id":"4","last_reported":1691211939,"current_range_meters":5200,"station_id":"ce4bhr92rcd13ifvqhrg","pricing_plan_id":"free"},{"bike_id":"c16feec1-751c-4e1b-bf24-3956b18a7335","system_id":"levelo_inurba_marseille","lat":43.33044,"lon":5.38921,"is_reserved":false,"is_disabled":false,"rental_uris":{"android":"levelo://app?vid=c16feec1-751c-4e1b-bf24-3956b18a7335","ios":"levelo://app?vid=c16feec1-751c-4e1b-bf24-3956b18a7335"},"vehicle_type_id":"4","last_reported":1691211939,"current_range_meters":3600,"station_id":"ce4bhr92rcd13ifvqhrg","pricing_plan_id":"free"},{"bike_id":"87a91d50-b0ca-4c64-94ae-7cf78dbb050f","system_id":"levelo_inurba_marseille","lat":43.33046,"lon":5.38918,"is_reserved":false,"is_disabled":false,"rental_uris":{"android":"levelo://app?vid=87a91d50-b0ca-4c64-94ae-7cf78dbb050f","ios":"levelo://app?vid=87a91d50-b0ca-4c64-94ae-7cf78dbb050f"},"vehicle_type_id":"4","last_reported":1691211939,"current_range_meters":14800,"station_id":"ce4bhr92rcd13ifvqhrg","pricing_plan_id":"free"},{"bike_id":"20baf9c0-8e85-4ffb-a39a-3eca99fbd699","system_id":"levelo_inurba_marseille","lat":43.33048,"lon":5.38915,"is_reserved":false,"is_disabled":false,"rental_uris":{"android":"levelo://app?vid=20baf9c0-8e85-4ffb-a39a-3eca99fbd699","ios":"levelo://app?vid=20baf9c0-8e85-4ffb-a39a-3eca99fbd699"},"vehicle_type_id":"4","last_reported":1691211939,"current_range_meters":0,"station_id":"ce4bhr92rcd13ifvqhrg","pricing_plan_id":"free"},{"bike_id":"cedbc9c4-3cd8-4974-be60-104359550a71","system_id":"levelo_inurba_marseille","lat":43.3305,"lon":5.38912,"is_reserved":false,"is_disabled":false,"rental_uris":{"android":"levelo://app?vid=cedbc9c4-3cd8-4974-be60-104359550a71","ios":"levelo://app?vid=cedbc9c4-3cd8-4974-be60-104359550a71"},"vehicle_type_id":"4","last_reported":1691211939,"current_range_meters":9600,"station_id":"ce4bhr92rcd13ifvqhrg","pricing_plan_id":"free"},{"bike_id":"00b2dcdc-2882-40a1-9132-89c3ec15cf18","system_id":"levelo_inurba_marseille","lat":43.33046,"lon":5.38919,"is_reserved":false,"is_disabled":false,"rental_uris":{"android":"levelo://app?vid=00b2dcdc-2882-40a1-9132-89c3ec15cf18","ios":"levelo://app?vid=00b2dcdc-2882-40a1-9132-89c3ec15cf18"},"vehicle_type_id":"4","last_reported":1691211939,"current_range_meters":16000,"station_id":"ce4bhr92rcd13ifvqhrg","pricing_plan_id":"free"},{"bike_id":"20cb5f5a-181a-4021-97b1-43635f1dcccc","system_id":"levelo_inurba_marseille","lat":43.33048,"lon":5.38918,"is_reserved":false,"is_disabled":false,"rental_uris":{"android":"levelo://app?vid=20cb5f5a-181a-4021-97b1-43635f1dcccc","ios":"levelo://app?vid=20cb5f5a-181a-4021-97b1-43635f1dcccc"},"vehicle_type_id":"4","last_reported":1691211939,"current_range_meters":6000,"station_id":"ce4bhr92rcd13ifvqhrg","pricing_plan_id":"free"},{"bike_id":"db7952dd-c6d8-42c2-918b-068ba9bccee2","system_id":"levelo_inurba_marseille","lat":43.3305,"lon":5.38915,"is_reserved":false,"is_disabled":false,"rental_uris":{"android":"levelo://app?vid=db7952dd-c6d8-42c2-918b-068ba9bccee2","ios":"levelo://app?vid=db7952dd-c6d8-42c2-918b-068ba9bccee2"},"vehicle_type_id":"4","last_reported":1691211939,"current_range_meters":6000,"station_id":"ce4bhr92rcd13ifvqhrg","pricing_plan_id":"free"},{"bike_id":"20cf3f6d-acf4-4653-bf24-baa04253f77a","system_id":"levelo_inurba_marseille","lat":43.33047,"lon":5.38921,"is_reserved":false,"is_disabled":false,"rental_uris":{"android":"levelo://app?vid=20cf3f6d-acf4-4653-bf24-baa04253f77a","ios":"levelo://app?vid=20cf3f6d-acf4-4653-bf24-baa04253f77a"},"vehicle_type_id":"4","last_reported":1691211939,"current_range_meters":16000,"station_id":"ce4bhr92rcd13ifvqhrg","pricing_plan_id":"free"},{"bike_id":"9ce62819-7d94-47c9-aff2-f56e39f0ba59","system_id":"levelo_inurba_marseille","lat":43.33041,"lon":5.3893,"is_reserved":false,"is_disabled":false,"rental_uris":{"android":"levelo://app?vid=9ce62819-7d94-47c9-aff2-f56e39f0ba59","ios":"levelo://app?vid=9ce62819-7d94-47c9-aff2-f56e39f0ba59"},"vehicle_type_id":"4","last_reported":1691211939,"current_range_meters":29200,"station_id":"ce4bhr92rcd13ifvqhrg","pricing_plan_id":"free"},{"bike_id":"9692718f-5e29-4ec7-a5d8-53f40d94ef49","system_id":"levelo_inurba_marseille","lat":43.33046,"lon":5.38924,"is_reserved":false,"is_disabled":false,"rental_uris":{"android":"levelo://app?vid=9692718f-5e29-4ec7-a5d8-53f40d94ef49","ios":"levelo://app?vid=9692718f-5e29-4ec7-a5d8-53f40d94ef49"},"vehicle_type_id":"4","last_reported":1691211939,"current_range_meters":22400,"station_id":"ce4bhr92rcd13ifvqhrg","pricing_plan_id":"free"},{"bike_id":"976f718a-bfdb-4480-a757-e5b9a5d1a5d6","system_id":"levelo_inurba_marseille","lat":43.33045,"lon":5.38926,"is_reserved":false,"is_disabled":false,"rental_uris":{"android":"levelo://app?vid=976f718a-bfdb-4480-a757-e5b9a5d1a5d6","ios":"levelo://app?vid=976f718a-bfdb-4480-a757-e5b9a5d1a5d6"},"vehicle_type_id":"4","last_reported":1691211939,"current_range_meters":26800,"station_id":"ce4bhr92rcd13ifvqhrg","pricing_plan_id":"free"},{"bike_id":"34fc0bae-b089-42d1-99d0-10d5b39f2b41","system_id":"levelo_inurba_marseille","lat":43.33049,"lon":5.38921,"is_reserved":false,"is_disabled":false,"rental_uris":{"android":"levelo://app?vid=34fc0bae-b089-42d1-99d0-10d5b39f2b41","ios":"levelo://app?vid=34fc0bae-b089-42d1-99d0-10d5b39f2b41"},"vehicle_type_id":"4","last_reported":1691211939,"current_range_meters":23200,"station_id":"ce4bhr92rcd13ifvqhrg","pricing_plan_id":"free"},{"bike_id":"38c1adea-6867-4940-9699-a628b1958570","system_id":"levelo_inurba_marseille","lat":43.33044,"lon":5.38938,"is_reserved":false,"is_disabled":false,"rental_uris":{"android":"levelo://app?vid=38c1adea-6867-4940-9699-a628b1958570","ios":"levelo://app?vid=38c1adea-6867-4940-9699-a628b1958570"},"vehicle_type_id":"4","last_reported":1691211939,"current_range_meters":30000,"station_id":"ce4bhr92rcd13ifvqhrg","pricing_plan_id":"free"},{"bike_id":"05bf2cc0-c80b-4d3b-9303-5cea93148e89","system_id":"levelo_inurba_marseille","lat":43.290995,"lon":5.381361,"is_reserved":false,"is_disabled":false,"rental_uris":{"android":"levelo://app?vid=05bf2cc0-c80b-4d3b-9303-5cea93148e89","ios":"levelo://app?vid=05bf2cc0-c80b-4d3b-9303-5cea93148e89"},"vehicle_type_id":"4","last_reported":1691211939,"current_range_meters":30400,"station_id":"ce4bh512rcd13ifvqe2g","pricing_plan_id":"free"},{"bike_id":"9edd0d85-be19-4c5c-8ce6-71a40992a140","system_id":"levelo_inurba_marseille","lat":43.297815,"lon":5.393548,"is_reserved":false,"is_disabled":false,"rental_uris":{"android":"levelo://app?vid=9edd0d85-be19-4c5c-8ce6-71a40992a140","ios":"levelo://app?vid=9edd0d85-be19-4c5c-8ce6-71a40992a140"},"vehicle_type_id":"4","last_reported":1691211939,"current_range_meters":22000,"station_id":"chh1huq6cuj3fo74tm60","pricing_plan_id":"free"},{"bike_id":"45366a1c-7416-4738-8e52-afced2217ea7","system_id":"levelo_inurba_marseille","lat":43.2901,"lon":5.381269,"is_reserved":false,"is_disabled":false,"rental_uris":{"android":"levelo://app?vid=45366a1c-7416-4738-8e52-afced2217ea7","ios":"levelo://app?vid=45366a1c-7416-4738-8e52-afced2217ea7"},"vehicle_type_id":"4","last_reported":1691211939,"current_range_meters":31200,"station_id":"ce4bh4p2rcd13ifvqe1g","pricing_plan_id":"free"},{"bike_id":"94c4efb6-d1d9-4cb4-a652-cd1ca20e32b4","system_id":"levelo_inurba_marseille","lat":43.28856,"lon":5.358371,"is_reserved":false,"is_disabled":false,"rental_uris":{"android":"levelo://app?vid=94c4efb6-d1d9-4cb4-a652-cd1ca20e32b4","ios":"levelo://app?vid=94c4efb6-d1d9-4cb4-a652-cd1ca20e32b4"},"vehicle_type_id":"4","last_reported":1691211939,"current_range_meters":26800,"station_id":"ce4bhb12rcd13ifvqem0","pricing_plan_id":"free"},{"bike_id":"a726a99f-f654-4ca3-a14d-29b0cb2c7782","system_id":"levelo_inurba_marseille","lat":43.28856,"lon":5.358371,"is_reserved":false,"is_disabled":false,"rental_uris":{"android":"levelo://app?vid=a726a99f-f654-4ca3-a14d-29b0cb2c7782","ios":"levelo://app?vid=a726a99f-f654-4ca3-a14d-29b0cb2c7782"},"vehicle_type_id":"4","last_reported":1691211939,"current_range_meters":31600,"station_id":"ce4bhb12rcd13ifvqem0","pricing_plan_id":"free"},{"bike_id":"0435966a-0f19-4cf1-b45e-61abebd911e3","system_id":"levelo_inurba_marseille","lat":43.28856,"lon":5.358371,"is_reserved":false,"is_disabled":false,"rental_uris":{"android":"levelo://app?vid=0435966a-0f19-4cf1-b45e-61abebd911e3","ios":"levelo://app?vid=0435966a-0f19-4cf1-b45e-61abebd911e3"},"vehicle_type_id":"4","last_reported":1691211939,"current_range_meters":30400,"station_id":"ce4bhb12rcd13ifvqem0","pricing_plan_id":"free"},{"bike_id":"97f05399-5316-45ea-93b9-a826bc6a957b","system_id":"levelo_inurba_marseille","lat":43.312609,"lon":5.401662,"is_reserved":false,"is_disabled":false,"rental_uris":{"android":"levelo://app?vid=97f05399-5316-45ea-93b9-a826bc6a957b","ios":"levelo://app?vid=97f05399-5316-45ea-93b9-a826bc6a957b"},"vehicle_type_id":"4","last_reported":1691211939,"current_range_meters":0,"station_id":"ce4bh092rcd13ifvqd30","pricing_plan_id":"free"},{"bike_id":"cb3430a5-5a38-4229-9da2-5a370bd5644f","system_id":"levelo_inurba_marseille","lat":43.309371,"lon":5.401449,"is_reserved":false,"is_disabled":false,"rental_uris":{"android":"levelo://app?vid=cb3430a5-5a38-4229-9da2-5a370bd5644f","ios":"levelo://app?vid=cb3430a5-5a38-4229-9da2-5a370bd5644f"},"vehicle_type_id":"4","last_reported":1691211939,"current_range_meters":19200,"station_id":"ce4bgvp2rcd13ifvqct0","pricing_plan_id":"free"},{"bike_id":"51a05a44-ab6c-48a1-9c26-af3af6db9327","system_id":"levelo_inurba_marseille","lat":43.31273,"lon":5.40171,"is_reserved":false,"is_disabled":false,"rental_uris":{"android":"levelo://app?vid=51a05a44-ab6c-48a1-9c26-af3af6db9327","ios":"levelo://app?vid=51a05a44-ab6c-48a1-9c26-af3af6db9327"},"vehicle_type_id":"4","last_reported":1691211939,"current_range_meters":4400,"station_id":"ce4bh092rcd13ifvqd30","pricing_plan_id":"free"},{"bike_id":"4efb2b8a-54bf-4f17-b460-176437215d5c","system_id":"levelo_inurba_marseille","lat":43.30938,"lon":5.40142,"is_reserved":false,"is_disabled":false,"rental_uris":{"android":"levelo://app?vid=4efb2b8a-54bf-4f17-b460-176437215d5c","ios":"levelo://app?vid=4efb2b8a-54bf-4f17-b460-176437215d5c"},"vehicle_type_id":"4","last_reported":1691211939,"current_range_meters":24000,"station_id":"ce4bgvp2rcd13ifvqct0","pricing_plan_id":"free"},{"bike_id":"bc5d07ee-6258-48a1-a129-19c85145bab1","system_id":"levelo_inurba_marseille","lat":43.30929,"lon":5.40141,"is_reserved":false,"is_disabled":false,"rental_uris":{"android":"levelo://app?vid=bc5d07ee-6258-48a1-a129-19c85145bab1","ios":"levelo://app?vid=bc5d07ee-6258-48a1-a129-19c85145bab1"},"vehicle_type_id":"4","last_reported":1691211939,"current_range_meters":0,"station_id":"ce4bgvp2rcd13ifvqct0","pricing_plan_id":"free"},{"bike_id":"16be1136-fdc6-4fd8-bc5a-b0aa18173a71","system_id":"levelo_inurba_marseille","lat":43.309371,"lon":5.401449,"is_reserved":false,"is_disabled":false,"rental_uris":{"android":"levelo://app?vid=16be1136-fdc6-4fd8-bc5a-b0aa18173a71","ios":"levelo://app?vid=16be1136-fdc6-4fd8-bc5a-b0aa18173a71"},"vehicle_type_id":"4","last_reported":1691211939,"current_range_meters":19200,"station_id":"ce4bgvp2rcd13ifvqct0","pricing_plan_id":"free"},{"bike_id":"e126f083-f70a-499d-a2c5-8d05d7ea65ec","system_id":"levelo_inurba_marseille","lat":43.30938,"lon":5.40151,"is_reserved":false,"is_disabled":false,"rental_uris":{"android":"levelo://app?vid=e126f083-f70a-499d-a2c5-8d05d7ea65ec","ios":"levelo://app?vid=e126f083-f70a-499d-a2c5-8d05d7ea65ec"},"vehicle_type_id":"4","last_reported":1691211939,"current_range_meters":0,"station_id":"ce4bgvp2rcd13ifvqct0","pricing_plan_id":"free"},{"bike_id":"cb6d834a-f274-4c69-b6f6-35b0a6e11ad9","system_id":"levelo_inurba_marseille","lat":43.301117,"lon":5.398795,"is_reserved":false,"is_disabled":false,"rental_uris":{"android":"levelo://app?vid=cb6d834a-f274-4c69-b6f6-35b0a6e11ad9","ios":"levelo://app?vid=cb6d834a-f274-4c69-b6f6-35b0a6e11ad9"},"vehicle_type_id":"4","last_reported":1691211939,"current_range_meters":21600,"station_id":"ce4bh0h2rcd13ifvqd40","pricing_plan_id":"free"},{"bike_id":"75199276-b705-4ad7-b6a9-49aeaa84628a","system_id":"levelo_inurba_marseille","lat":43.286591,"lon":5.363346,"is_reserved":false,"is_disabled":false,"rental_uris":{"android":"levelo://app?vid=75199276-b705-4ad7-b6a9-49aeaa84628a","ios":"levelo://app?vid=75199276-b705-4ad7-b6a9-49aeaa84628a"},"vehicle_type_id":"4","last_reported":1691211939,"current_range_meters":31200,"station_id":"ce4bhah2rcd13ifvqej0","pricing_plan_id":"free"},{"bike_id":"f76444da-e0cd-4036-bb42-69b5ce9247bf","system_id":"levelo_inurba_marseille","lat":43.286593,"lon":5.363346,"is_reserved":false,"is_disabled":false,"rental_uris":{"android":"levelo://app?vid=f76444da-e0cd-4036-bb42-69b5ce9247bf","ios":"levelo://app?vid=f76444da-e0cd-4036-bb42-69b5ce9247bf"},"vehicle_type_id":"4","last_reported":1691211939,"current_range_meters":30800,"station_id":"ce4bhah2rcd13ifvqej0","pricing_plan_id":"free"},{"bike_id":"2e1a4850-62c8-4de1-afb8-a871a4aef3dc","system_id":"levelo_inurba_marseille","lat":43.28662,"lon":5.36353,"is_reserved":false,"is_disabled":false,"rental_uris":{"android":"levelo://app?vid=2e1a4850-62c8-4de1-afb8-a871a4aef3dc","ios":"levelo://app?vid=2e1a4850-62c8-4de1-afb8-a871a4aef3dc"},"vehicle_type_id":"4","last_reported":1691211939,"current_range_meters":16000,"station_id":"ce4bhah2rcd13ifvqej0","pricing_plan_id":"free"},{"bike_id":"f6665943-2ff3-4357-af34-f02f3bb9ce6b","system_id":"levelo_inurba_marseille","lat":43.286593,"lon":5.363346,"is_reserved":false,"is_disabled":false,"rental_uris":{"android":"levelo://app?vid=f6665943-2ff3-4357-af34-f02f3bb9ce6b","ios":"levelo://app?vid=f6665943-2ff3-4357-af34-f02f3bb9ce6b"},"vehicle_type_id":"4","last_reported":1691211939,"current_range_meters":28800,"station_id":"ce4bhah2rcd13ifvqej0","pricing_plan_id":"free"},{"bike_id":"7d68efc2-9a29-417d-8ff0-2a2378eba68e","system_id":"levelo_inurba_marseille","lat":43.302759,"lon":5.400793,"is_reserved":false,"is_disabled":false,"rental_uris":{"android":"levelo://app?vid=7d68efc2-9a29-417d-8ff0-2a2378eba68e","ios":"levelo://app?vid=7d68efc2-9a29-417d-8ff0-2a2378eba68e"},"vehicle_type_id":"4","last_reported":1691211939,"current_range_meters":31200,"station_id":"ce4bgvh2rcd13ifvqcs0","pricing_plan_id":"free"},{"bike_id":"7b9e2d57-7c2f-4652-8ec0-ee4d147afe24","system_id":"levelo_inurba_marseille","lat":43.302548,"lon":5.400568,"is_reserved":false,"is_disabled":false,"rental_uris":{"android":"levelo://app?vid=7b9e2d57-7c2f-4652-8ec0-ee4d147afe24","ios":"levelo://app?vid=7b9e2d57-7c2f-4652-8ec0-ee4d147afe24"},"vehicle_type_id":"4","last_reported":1691211939,"current_range_meters":12000,"station_id":"","pricing_plan_id":"free"},{"bike_id":"bf71aa69-4061-495f-93b1-3728afd2f7e1","system_id":"levelo_inurba_marseille","lat":43.30251,"lon":5.40062,"is_reserved":false,"is_disabled":false,"rental_uris":{"android":"levelo://app?vid=bf71aa69-4061-495f-93b1-3728afd2f7e1","ios":"levelo://app?vid=bf71aa69-4061-495f-93b1-3728afd2f7e1"},"vehicle_type_id":"4","last_reported":1691211939,"current_range_meters":13600,"station_id":"ce4bgvh2rcd13ifvqcs0","pricing_plan_id":"free"},{"bike_id":"efd1ec74-2ae0-40a6-8657-4a317573016c","system_id":"levelo_inurba_marseille","lat":43.302759,"lon":5.400793,"is_reserved":false,"is_disabled":false,"rental_uris":{"android":"levelo://app?vid=efd1ec74-2ae0-40a6-8657-4a317573016c","ios":"levelo://app?vid=efd1ec74-2ae0-40a6-8657-4a317573016c"},"vehicle_type_id":"4","last_reported":1691211939,"current_range_meters":31200,"station_id":"ce4bgvh2rcd13ifvqcs0","pricing_plan_id":"free"},{"bike_id":"59d9766e-5d36-4bcd-a4f4-a9a457375cc4","system_id":"levelo_inurba_marseille","lat":43.302759,"lon":5.400793,"is_reserved":false,"is_disabled":false,"rental_uris":{"android":"levelo://app?vid=59d9766e-5d36-4bcd-a4f4-a9a457375cc4","ios":"levelo://app?vid=59d9766e-5d36-4bcd-a4f4-a9a457375cc4"},"vehicle_type_id":"4","last_reported":1691211939,"current_range_meters":31200,"station_id":"ce4bgvh2rcd13ifvqcs0","pricing_plan_id":"free"},{"bike_id":"0eec8b1c-8c3d-43c2-ade4-dab3902c07e9","system_id":"levelo_inurba_marseille","lat":43.286039,"lon":5.370679,"is_reserved":false,"is_disabled":false,"rental_uris":{"android":"levelo://app?vid=0eec8b1c-8c3d-43c2-ade4-dab3902c07e9","ios":"levelo://app?vid=0eec8b1c-8c3d-43c2-ade4-dab3902c07e9"},"vehicle_type_id":"4","last_reported":1691211939,"current_range_meters":22800,"station_id":"ce4bht12rcd13ifvqi60","pricing_plan_id":"free"},{"bike_id":"1ff56fe0-1501-4c41-9474-66cb2f3126bd","system_id":"levelo_inurba_marseille","lat":43.28615,"lon":5.37065,"is_reserved":false,"is_disabled":false,"rental_uris":{"android":"levelo://app?vid=1ff56fe0-1501-4c41-9474-66cb2f3126bd","ios":"levelo://app?vid=1ff56fe0-1501-4c41-9474-66cb2f3126bd"},"vehicle_type_id":"4","last_reported":1691211939,"current_range_meters":31200,"station_id":"","pricing_plan_id":"free"},{"bike_id":"2505ec1e-c8d9-40d9-9a56-b5650062f6ff","system_id":"levelo_inurba_marseille","lat":43.286039,"lon":5.370679,"is_reserved":false,"is_disabled":false,"rental_uris":{"android":"levelo://app?vid=2505ec1e-c8d9-40d9-9a56-b5650062f6ff","ios":"levelo://app?vid=2505ec1e-c8d9-40d9-9a56-b5650062f6ff"},"vehicle_type_id":"4","last_reported":1691211939,"current_range_meters":8800,"station_id":"ce4bht12rcd13ifvqi60","pricing_plan_id":"free"},{"bike_id":"f4e5f28d-483b-44cd-bd4c-c0b5581ecbcc","system_id":"levelo_inurba_marseille","lat":43.31647,"lon":5.40437,"is_reserved":false,"is_disabled":false,"rental_uris":{"android":"levelo://app?vid=f4e5f28d-483b-44cd-bd4c-c0b5581ecbcc","ios":"levelo://app?vid=f4e5f28d-483b-44cd-bd4c-c0b5581ecbcc"},"vehicle_type_id":"4","last_reported":1691211939,"current_range_meters":23200,"station_id":"ce4bh012rcd13ifvqd00","pricing_plan_id":"free"},{"bike_id":"16f78683-2c43-41a0-b35f-f06a6ba5d9c8","system_id":"levelo_inurba_marseille","lat":43.31651,"lon":5.40437,"is_reserved":false,"is_disabled":false,"rental_uris":{"android":"levelo://app?vid=16f78683-2c43-41a0-b35f-f06a6ba5d9c8","ios":"levelo://app?vid=16f78683-2c43-41a0-b35f-f06a6ba5d9c8"},"vehicle_type_id":"4","last_reported":1691211939,"current_range_meters":26400,"station_id":"ce4bh012rcd13ifvqd00","pricing_plan_id":"free"},{"bike_id":"63d188b4-2821-4b23-833a-e370ec07d215","system_id":"levelo_inurba_marseille","lat":43.31651,"lon":5.40437,"is_reserved":false,"is_disabled":false,"rental_uris":{"android":"levelo://app?vid=63d188b4-2821-4b23-833a-e370ec07d215","ios":"levelo://app?vid=63d188b4-2821-4b23-833a-e370ec07d215"},"vehicle_type_id":"4","last_reported":1691211939,"current_range_meters":27600,"station_id":"ce4bh012rcd13ifvqd00","pricing_plan_id":"free"},{"bike_id":"7e9b54df-1ab6-47db-a05a-b5751e872ad5","system_id":"levelo_inurba_marseille","lat":43.316517,"lon":5.404375,"is_reserved":false,"is_disabled":false,"rental_uris":{"android":"levelo://app?vid=7e9b54df-1ab6-47db-a05a-b5751e872ad5","ios":"levelo://app?vid=7e9b54df-1ab6-47db-a05a-b5751e872ad5"},"vehicle_type_id":"4","last_reported":1691211939,"current_range_meters":800,"station_id":"ce4bh012rcd13ifvqd00","pricing_plan_id":"free"},{"bike_id":"4f271817-a92f-4270-a683-00f0b4e4d97f","system_id":"levelo_inurba_marseille","lat":43.31644,"lon":5.4044,"is_reserved":false,"is_disabled":false,"rental_uris":{"android":"levelo://app?vid=4f271817-a92f-4270-a683-00f0b4e4d97f","ios":"levelo://app?vid=4f271817-a92f-4270-a683-00f0b4e4d97f"},"vehicle_type_id":"4","last_reported":1691211939,"current_range_meters":20000,"station_id":"ce4bh012rcd13ifvqd00","pricing_plan_id":"free"},{"bike_id":"242f0982-36bc-4db5-9451-679021c80f39","system_id":"levelo_inurba_marseille","lat":43.3165,"lon":5.4044,"is_reserved":false,"is_disabled":false,"rental_uris":{"android":"levelo://app?vid=242f0982-36bc-4db5-9451-679021c80f39","ios":"levelo://app?vid=242f0982-36bc-4db5-9451-679021c80f39"},"vehicle_type_id":"4","last_reported":1691211939,"current_range_meters":14000,"station_id":"ce4bh012rcd13ifvqd00","pricing_plan_id":"free"},{"bike_id":"9d6c3607-a255-4040-b7e0-8c391ebb1a9c","system_id":"levelo_inurba_marseille","lat":43.31642,"lon":5.40447,"is_reserved":false,"is_disabled":false,"rental_uris":{"android":"levelo://app?vid=9d6c3607-a255-4040-b7e0-8c391ebb1a9c","ios":"levelo://app?vid=9d6c3607-a255-4040-b7e0-8c391ebb1a9c"},"vehicle_type_id":"4","last_reported":1691211939,"current_range_meters":11600,"station_id":"ce4bh012rcd13ifvqd00","pricing_plan_id":"free"},