{"last_updated":1690736697,"ttl":30,"version":"2.2","data":{"bikes":[{"bike_id":"ef8bd94e-015f-4a3e-aac4-4378fd887050","system_id":"levelo_inurba_marseille","lat":43.313391,"lon":5.36706,"is_reserved":false,"is_disabled":false,"rental_uris":{"android":"levelo://app?vid=ef8bd94e-015f-4a3e-aac4-4378fd887050","ios":"levelo://app?vid=ef8bd94e-015f-4a3e-aac4-4378fd887050"},"vehicle_type_id":"4","last_reported":1690736698,"current_range_meters":15200,"station_id":"ce4bgr92rcd13ifvqc6g","pricing_plan_id":"free"},{"bike_id":"e526d4e2-849c-44ae-a0d7-5572a62df909","system_id":"levelo_inurba_marseille","lat":43.312239,"lon":5.368562,"is_reserved":false,"is_disabled":false,"rental_uris":{"android":"levelo://app?vid=e526d4e2-849c-44ae-a0d7-5572a62df909","ios":"levelo://app?vid=e526d4e2-849c-44ae-a0d7-5572a62df909"},"vehicle_type_id":"4","last_reported":1690736698,"current_range_meters":22400,"station_id":"ce4bgl92rcd13ifvqbq0","pricing_plan_id":"free"},{"bike_id":"5950250c-3483-415f-9aa7-650584037e91","system_id":"levelo_inurba_marseille","lat":43.31231,"lon":5.36861,"is_reserved":false,"is_disabled":false,"rental_uris":{"android":"levelo://app?vid=5950250c-3483-415f-9aa7-650584037e91","ios":"levelo://app?vid=5950250c-3483-415f-9aa7-650584037e91"},"vehicle_type_id":"4","last_reported":1690736698,"current_range_meters":24000,"station_id":"ce4bgl92rcd13ifvqbq0","pricing_plan_id":"free"},{"bike_id":"0182ccec-b733-45cc-a98a-8e335e45a5ba","system_id":"levelo_inurba_marseille","lat":43.309076,"lon":5.368465,"is_reserved":false,"is_disabled":false,"rental_uris":{"android":"levelo://app?vid=0182ccec-b733-45cc-a98a-8e335e45a5ba","ios":"levelo://app?vid=0182ccec-b733-45cc-a98a-8e335e45a5ba"},"vehicle_type_id":"4","last_reported":1690736698,"current_range_meters":26000,"station_id":"ce4bgn92rcd13ifvqbvg","pricing_plan_id":"free"},{"bike_id":"37201168-481f-4b35-858b-1264eee94a6b","system_id":"levelo_inurba_marseille","lat":43.30599,"lon":5.37169,"is_reserved":false,"is_disabled":false,"rental_uris":{"android":"levelo://app?vid=37201168-481f-4b35-858b-1264eee94a6b","ios":"levelo://app?vid=37201168-481f-4b35-858b-1264eee94a6b"},"vehicle_type_id":"4","last_reported":1690736698,"current_range_meters":18000,"station_id":"","pricing_plan_id":"free"},{"bike_id":"7751756d-98b4-47d0-abc4-30d663b5c565","system_id":"levelo_inurba_marseille","lat":43.30602,"lon":5.37218,"is_reserved":false,"is_disabled":false,"rental_uris":{"android":"levelo://app?vid=7751756d-98b4-47d0-abc4-30d663b5c565","ios":"levelo://app?vid=7751756d-98b4-47d0-abc4-30d663b5c565"},"vehicle_type_id":"4","last_reported":1690736698,"current_range_meters":8000,"station_id":"ce4bgqh2rcd13ifvqc4g","pricing_plan_id":"free"},{"bike_id":"f20ea888-8740-440b-bfeb-8eb2a7c1f652","system_id":"levelo_inurba_marseille","lat":43.30596,"lon":5.37225,"is_reserved":false,"is_disabled":false,"rental_uris":{"android":"levelo://app?vid=f20ea888-8740-440b-bfeb-8eb2a7c1f652","ios":"levelo://app?vid=f20ea888-8740-440b-bfeb-8eb2a7c1f652"},"vehicle_type_id":"4","last_reported":1690736698,"current_range_meters":24400,"station_id":"ce4bgqh2rcd13ifvqc4g","pricing_plan_id":"free"},{"bike_id":"0cc43b0b-df91-463a-ba10-d4fe87642872","system_id":"levelo_inurba_marseille","lat":43.311131,"lon":5.377651,"is_reserved":false,"is_disabled":false,"rental_uris":{"android":"levelo://app?vid=0cc43b0b-df91-463a-ba10-d4fe87642872","ios":"levelo://app?vid=0cc43b0b-df91-463a-ba10-d4fe87642872"},"vehicle_type_id":"4","last_reported":1690736698,"current_range_meters":10400,"station_id":"ce4bgt92rcd13ifvqcg0","pricing_plan_id":"free"},{"bike_id":"e0d817ea-326f-4598-87aa-2bdec2a3b683","system_id":"levelo_inurba_marseille","lat":43.317075,"lon":5.377367,"is_reserved":false,"is_disabled":false,"rental_uris":{"android":"levelo://app?vid=e0d817ea-326f-4598-87aa-2bdec2a3b683","ios":"levelo://app?vid=e0d817ea-326f-4598-87aa-2bdec2a3b683"},"vehicle_type_id":"4","last_reported":1690736698,"current_range_meters":0,"station_id":"ce4bgth2rcd13ifvqch0","pricing_plan_id":"free"},{"bike_id":"75337aad-cd87-4aa7-a814-ab1e20a937e7","system_id":"levelo_inurba_marseille","lat":43.317075,"lon":5.377367,"is_reserved":false,"is_disabled":false,"rental_uris":{"android":"levelo://app?vid=75337aad-cd87-4aa7-a814-ab1e20a937e7","ios":"levelo://app?vid=75337aad-cd87-4aa7-a814-ab1e20a937e7"},"vehicle_type_id":"4","last_reported":1690736698,"current_range_meters":22000,"station_id":"ce4bgth2rcd13ifvqch0","pricing_plan_id":"free"},{"bike_id":"faf2c4c4-a88f-4e4f-9fd7-3bc59f517c6e","system_id":"levelo_inurba_marseille","lat":43.30961,"lon":5.37944,"is_reserved":false,"is_disabled":false,"rental_uris":{"android":"levelo://app?vid=faf2c4c4-a88f-4e4f-9fd7-3bc59f517c6e","ios":"levelo://app?vid=faf2c4c4-a88f-4e4f-9fd7-3bc59f517c6e"},"vehicle_type_id":"4","last_reported":1690736698,"current_range_meters":28000,"station_id":"","pricing_plan_id":"free"},{"bike_id":"e91d19f9-8049-4221-8245-d840593643d8","system_id":"levelo_inurba_marseille","lat":43.303046,"lon":5.368981,"is_reserved":false,"is_disabled":false,"rental_uris":{"android":"levelo://app?vid=e91d19f9-8049-4221-8245-d840593643d8","ios":"levelo://app?vid=e91d19f9-8049-4221-8245-d840593643d8"},"vehicle_type_id":"4","last_reported":1690736698,"current_range_meters":0,"station_id":"ce4bgqh2rcd13ifvqc5g","pricing_plan_id":"free"},{"bike_id":"305aaba1-decd-44c1-8715-6f41da17c630","system_id":"levelo_inurba_marseille","lat":43.303046,"lon":5.368981,"is_reserved":false,"is_disabled":false,"rental_uris":{"android":"levelo://app?vid=305aaba1-decd-44c1-8715-6f41da17c630","ios":"levelo://app?vid=305aaba1-decd-44c1-8715-6f41da17c630"},"vehicle_type_id":"4","last_reported":1690736698,"current_range_meters":7600,"station_id":"ce4bgqh2rcd13ifvqc5g","pricing_plan_id":"free"},{"bike_id":"44280a8f-10b2-434d-a5d9-e57b0363b0e9","system_id":"levelo_inurba_marseille","lat":43.301939,"lon":5.366286,"is_reserved":false,"is_disabled":false,"rental_uris":{"android":"levelo://app?vid=44280a8f-10b2-434d-a5d9-e57b0363b0e9","ios":"levelo://app?vid=44280a8f-10b2-434d-a5d9-e57b0363b0e9"},"vehicle_type_id":"4","last_reported":1690736698,"current_range_meters":4000,"station_id":"ce4bgrh2rcd13ifvqc8g","pricing_plan_id":"free"},{"bike_id":"c0dfffdb-cfec-4119-815b-8c36e3086b5c","system_id":"levelo_inurba_marseille","lat":43.301939,"lon":5.366286,"is_reserved":false,"is_disabled":false,"rental_uris":{"android":"levelo://app?vid=c0dfffdb-cfec-4119-815b-8c36e3086b5c","ios":"levelo://app?vid=c0dfffdb-cfec-4119-815b-8c36e3086b5c"},"vehicle_type_id":"4","last_reported":1690736698,"current_range_meters":25200,"station_id":"ce4bgrh2rcd13ifvqc8g","pricing_plan_id":"free"},{"bike_id":"cfc39397-4cc1-41aa-bb6c-1a7cca0026c6","system_id":"levelo_inurba_marseille","lat":43.302171,"lon":5.374817,"is_reserved":false,"is_disabled":false,"rental_uris":{"android":"levelo://app?vid=cfc39397-4cc1-41aa-bb6c-1a7cca0026c6","ios":"levelo://app?vid=cfc39397-4cc1-41aa-bb6c-1a7cca0026c6"},"vehicle_type_id":"4","last_reported":1690736698,"current_range_meters":9600,"station_id":"ce4bgs92rcd13ifvqcc0","pricing_plan_id":"free"},{"bike_id":"170a6842-3cff-4a43-99f3-7ac1c10d44c7","system_id":"levelo_inurba_marseille","lat":43.30147,"lon":5.3742,"is_reserved":false,"is_disabled":false,"rental_uris":{"android":"levelo://app?vid=170a6842-3cff-4a43-99f3-7ac1c10d44c7","ios":"levelo://app?vid=170a6842-3cff-4a43-99f3-7ac1c10d44c7"},"vehicle_type_id":"4","last_reported":1690736698,"current_range_meters":4000,"station_id":"ce4bgs92rcd13ifvqcc0","pricing_plan_id":"free"},{"bike_id":"4f35c9e7-a8ce-4817-83d1-7dae8f34fee3","system_id":"levelo_inurba_marseille","lat":43.319935,"lon":5.381699,"is_reserved":false,"is_disabled":false,"rental_uris":{"android":"levelo://app?vid=4f35c9e7-a8ce-4817-83d1-7dae8f34fee3","ios":"levelo://app?vid=4f35c9e7-a8ce-4817-83d1-7dae8f34fee3"},"vehicle_type_id":"4","last_reported":1690736698,"current_range_meters":5200,"station_id":"ce4bhr12rcd13ifvqhpg","pricing_plan_id":"free"},{"bike_id":"fbffe220-0b78-4bb1-bfd4-29bdb8d1022d","system_id":"levelo_inurba_marseille","lat":43.299724,"lon":5.371829,"is_reserved":false,"is_disabled":false,"rental_uris":{"android":"levelo://app?vid=fbffe220-0b78-4bb1-bfd4-29bdb8d1022d","ios":"levelo://app?vid=fbffe220-0b78-4bb1-bfd4-29bdb8d1022d"},"vehicle_type_id":"4","last_reported":1690736698,"current_range_meters":16000,"station_id":"ce4bgr92rcd13ifvqc7g","pricing_plan_id":"free"},{"bike_id":"30537d43-af02-4a10-b928-7b9b8cf633d2","system_id":"levelo_inurba_marseille","lat":43.30539,"lon":5.38424,"is_reserved":false,"is_disabled":false,"rental_uris":{"android":"levelo://app?vid=30537d43-af02-4a10-b928-7b9b8cf633d2","ios":"levelo://app?vid=30537d43-af02-4a10-b928-7b9b8cf633d2"},"vehicle_type_id":"4","last_reported":1690736698,"current_range_meters":30400,"station_id":"ce4bgg92rcd13ifvqb30","pricing_plan_id":"free"},{"bike_id":"3b551b7d-674c-454a-92ac-ed6f9352d166","system_id":"levelo_inurba_marseille","lat":43.311722,"lon":5.387247,"is_reserved":false,"is_disabled":false,"rental_uris":{"android":"levelo://app?vid=3b551b7d-674c-454a-92ac-ed6f9352d166","ios":"levelo://app?vid=3b551b7d-674c-454a-92ac-ed6f9352d166"},"vehicle_type_id":"4","last_reported":1690736698,"current_range_meters":12000,"station_id":"ce4bgv12rcd13ifvqcp0","pricing_plan_id":"free"},{"bike_id":"31b59a2b-fc72-4204-ab59-4023c7994329","system_id":"levelo_inurba_marseille","lat":43.311722,"lon":5.387247,"is_reserved":false,"is_disabled":false,"rental_uris":{"android":"levelo://app?vid=31b59a2b-fc72-4204-ab59-4023c7994329","ios":"levelo://app?vid=31b59a2b-fc72-4204-ab59-4023c7994329"},"vehicle_type_id":"4","last_reported":1690736698,"current_range_meters":16800,"station_id":"ce4bgv12rcd13ifvqcp0","pricing_plan_id":"free"},{"bike_id":"4f7b72de-7353-4491-a1bb-fc50f25e3bb1","system_id":"levelo_inurba_marseille","lat":43.311722,"lon":5.387247,"is_reserved":false,"is_disabled":false,"rental_uris":{"android":"levelo://app?vid=4f7b72de-7353-4491-a1bb-fc50f25e3bb1","ios":"levelo://app?vid=4f7b72de-7353-4491-a1bb-fc50f25e3bb1"},"vehicle_type_id":"4","last_reported":1690736698,"current_range_meters":26400,"station_id":"ce4bgv12rcd13ifvqcp0","pricing_plan_id":"free"},{"bike_id":"77db8f79-a705-4a52-bc7f-79db912fbfc7","system_id":"levelo_inurba_marseille","lat":43.311722,"lon":5.387247,"is_reserved":false,"is_disabled":false,"rental_uris":{"android":"levelo://app?vid=77db8f79-a705-4a52-bc7f-79db912fbfc7","ios":"levelo://app?vid=77db8f79-a705-4a52-bc7f-79db912fbfc7"},"vehicle_type_id":"4","last_reported":1690736698,"current_range_meters":16400,"station_id":"ce4bgv12rcd13ifvqcp0","pricing_plan_id":"free"},{"bike_id":"fabd4f61-a1b9-4e79-a875-c396e44aab5c","system_id":"levelo_inurba_marseille","lat":43.311722,"lon":5.387247,"is_reserved":false,"is_disabled":false,"rental_uris":{"android":"levelo://app?vid=fabd4f61-a1b9-4e79-a875-c396e44aab5c","ios":"levelo://app?vid=fabd4f61-a1b9-4e79-a875-c396e44aab5c"},"vehicle_type_id":"4","last_reported":1690736698,"current_range_meters":28000,"station_id":"ce4bgv12rcd13ifvqcp0","pricing_plan_id":"free"},{"bike_id":"490a4039-415e-4102-b7f6-ea2674f2e93c","system_id":"levelo_inurba_marseille","lat":43.311722,"lon":5.387247,"is_reserved":false,"is_disabled":false,"rental_uris":{"android":"levelo://app?vid=490a4039-415e-4102-b7f6-ea2674f2e93c","ios":"levelo://app?vid=490a4039-415e-4102-b7f6-ea2674f2e93c"},"vehicle_type_id":"4","last_reported":1690736698,"current_range_meters":8800,"station_id":"ce4bgv12rcd13ifvqcp0","pricing_plan_id":"free"},{"bike_id":"a196dbb0-0ca2-44b0-8b03-b7d3a734d20c","system_id":"levelo_inurba_marseille","lat":43.322872,"lon":5.382756,"is_reserved":false,"is_disabled":false,"rental_uris":{"android":"levelo://app?vid=a196dbb0-0ca2-44b0-8b03-b7d3a734d20c","ios":"levelo://app?vid=a196dbb0-0ca2-44b0-8b03-b7d3a734d20c"},"vehicle_type_id":"4","last_reported":1690736698,"current_range_meters":23600,"station_id":"ce4bhr12rcd13ifvqhqg","pricing_plan_id":"free"},{"bike_id":"82f1e03d-e4c3-4aac-b6f0-c9fc3950fe62","system_id":"levelo_inurba_marseille","lat":43.322919,"lon":5.382674,"is_reserved":false,"is_disabled":false,"rental_uris":{"android":"levelo://app?vid=82f1e03d-e4c3-4aac-b6f0-c9fc3950fe62","ios":"levelo://app?vid=82f1e03d-e4c3-4aac-b6f0-c9fc3950fe62"},"vehicle_type_id":"4","last_reported":1690736698,"current_range_meters":20000,"station_id":"","pricing_plan_id":"free"},{"bike_id":"aff0017d-8d19-4b8c-8490-dfc322af04d7","system_id":"levelo_inurba_marseille","lat":43.32285,"lon":5.38278,"is_reserved":false,"is_disabled":false,"rental_uris":{"android":"levelo://app?vid=aff0017d-8d19-4b8c-8490-dfc322af04d7","ios":"levelo://app?vid=aff0017d-8d19-4b8c-8490-dfc322af04d7"},"vehicle_type_id":"4","last_reported":1690736698,"current_range_meters":31200,"station_id":"ce4bhr12rcd13ifvqhqg","pricing_plan_id":"free"},{"bike_id":"79bf6da4-5f08-488b-96b1-6e23f74ec5ec","system_id":"levelo_inurba_marseille","lat":43.322872,"lon":5.382756,"is_reserved":false,"is_disabled":false,"rental_uris":{"android":"levelo://app?vid=79bf6da4-5f08-488b-96b1-6e23f74ec5ec","ios":"levelo://app?vid=79bf6da4-5f08-488b-96b1-6e23f74ec5ec"},"vehicle_type_id":"4","last_reported":1690736698,"current_range_meters":31200,"station_id":"ce4bhr12rcd13ifvqhqg","pricing_plan_id":"free"},{"bike_id":"a87c3d89-8ecc-4c20-a387-7842b25267e1","system_id":"levelo_inurba_marseille","lat":43.32289,"lon":5.38281,"is_reserved":false,"is_disabled":false,"rental_uris":{"android":"levelo://app?vid=a87c3d89-8ecc-4c20-a387-7842b25267e1","ios":"levelo://app?vid=a87c3d89-8ecc-4c20-a387-7842b25267e1"},"vehicle_type_id":"4","last_reported":1690736698,"current_range_meters":28000,"station_id":"ce4bhr12rcd13ifvqhqg","pricing_plan_id":"free"},{"bike_id":"3f56ab11-c8db-4856-8929-e236d19fea1e","system_id":"levelo_inurba_marseille","lat":43.3283,"lon":5.36668,"is_reserved":false,"is_disabled":false,"rental_uris":{"android":"levelo://app?vid=3f56ab11-c8db-4856-8929-e236d19fea1e","ios":"levelo://app?vid=3f56ab11-c8db-4856-8929-e236d19fea1e"},"vehicle_type_id":"4","last_reported":1690736698,"current_range_meters":31200,"station_id":"ce4bhs92rcd13ifvqi0g","pricing_plan_id":"free"},{"bike_id":"dd789220-e7b5-42c1-b9dc-dc4243148021","system_id":"levelo_inurba_marseille","lat":43.297163,"lon":5.365866,"is_reserved":false,"is_disabled":false,"rental_uris":{"android":"levelo://app?vid=dd789220-e7b5-42c1-b9dc-dc4243148021","ios":"levelo://app?vid=dd789220-e7b5-42c1-b9dc-dc4243148021"},"vehicle_type_id":"4","last_reported":1690736698,"current_range_meters":31200,"station_id":"ce4bgn12rcd13ifvqbt0","pricing_plan_id":"free"},{"bike_id":"80b907a1-8a14-402e-84bf-328dad96260e","system_id":"levelo_inurba_marseille","lat":43.328371,"lon":5.366909,"is_reserved":false,"is_disabled":false,"rental_uris":{"android":"levelo://app?vid=80b907a1-8a14-402e-84bf-328dad96260e","ios":"levelo://app?vid=80b907a1-8a14-402e-84bf-328dad96260e"},"vehicle_type_id":"4","last_reported":1690736698,"current_range_meters":27200,"station_id":"ce4bhs92rcd13ifvqi0g","pricing_plan_id":"free"},{"bike_id":"81203748-9c3b-429e-88eb-1916e5e72969","system_id":"levelo_inurba_marseille","lat":43.29573,"lon":5.367355,"is_reserved":false,"is_disabled":false,"rental_uris":{"android":"levelo://app?vid=81203748-9c3b-429e-88eb-1916e5e72969","ios":"levelo://app?vid=81203748-9c3b-429e-88eb-1916e5e72969"},"vehicle_type_id":"4","last_reported":1690736698,"current_range_meters":4400,"station_id":"ce4bgph2rcd13ifvqc2g","pricing_plan_id":"free"},{"bike_id":"0f4bc51f-60e2-4246-9875-279e971f3f76","system_id":"levelo_inurba_marseille","lat":43.309589,"lon":5.390258,"is_reserved":false,"is_disabled":false,"rental_uris":{"android":"levelo://app?vid=0f4bc51f-60e2-4246-9875-279e971f3f76","ios":"levelo://app?vid=0f4bc51f-60e2-4246-9875-279e971f3f76"},"vehicle_type_id":"4","last_reported":1690736698,"current_range_meters":22400,"station_id":"ce4bgup2rcd13ifvqco0","pricing_plan_id":"free"},{"bike_id":"f0b1921d-8fc5-42f6-8214-26455e772ce5","system_id":"levelo_inurba_marseille","lat":43.309589,"lon":5.390258,"is_reserved":false,"is_disabled":false,"rental_uris":{"android":"levelo://app?vid=f0b1921d-8fc5-42f6-8214-26455e772ce5","ios":"levelo://app?vid=f0b1921d-8fc5-42f6-8214-26455e772ce5"},"vehicle_type_id":"4","last_reported":1690736698,"current_range_meters":28000,"station_id":"ce4bgup2rcd13ifvqco0","pricing_plan_id":"free"},{"bike_id":"74d2fe44-74f8-49ca-8744-75c400854afe","system_id":"levelo_inurba_marseille","lat":43.29806,"lon":5.38093,"is_reserved":false,"is_disabled":false,"rental_uris":{"android":"levelo://app?vid=74d2fe44-74f8-49ca-8744-75c400854afe","ios":"levelo://app?vid=74d2fe44-74f8-49ca-8744-75c400854afe"},"vehicle_type_id":"4","last_reported":1690736698,"current_range_meters":0,"station_id":"ce4bgip2rcd13ifvqbb0","pricing_plan_id":"free"},{"bike_id":"843980ef-255f-4483-909c-f882cdc843e4","system_id":"levelo_inurba_marseille","lat":43.309589,"lon":5.390258,"is_reserved":false,"is_disabled":false,"rental_uris":{"android":"levelo://app?vid=843980ef-255f-4483-909c-f882cdc843e4","ios":"levelo://app?vid=843980ef-255f-4483-909c-f882cdc843e4"},"vehicle_type_id":"4","last_reported":1690736698,"current_range_meters":20400,"station_id":"ce4bgup2rcd13ifvqco0","pricing_plan_id":"free"},{"bike_id":"09260d76-d6a2-42bd-8779-46bd30017c17","system_id":"levelo_inurba_marseille","lat":43.299717,"lon":5.384845,"is_reserved":false,"is_disabled":false,"rental_uris":{"android":"levelo://app?vid=09260d76-d6a2-42bd-8779-46bd30017c17","ios":"levelo://app?vid=09260d76-d6a2-42bd-8779-46bd30017c17"},"vehicle_type_id":"4","last_reported":1690736698,"current_range_meters":0,"station_id":"ce4bgj92rcd13ifvqbd0","pricing_plan_id":"free"},{"bike_id":"eeb263b1-85bf-45c1-9ae9-d4f39665097c","system_id":"levelo_inurba_marseille","lat":43.323718,"lon":5.388826,"is_reserved":false,"is_disabled":false,"rental_uris":{"android":"levelo://app?vid=eeb263b1-85bf-45c1-9ae9-d4f39665097c","ios":"levelo://app?vid=eeb263b1-85bf-45c1-9ae9-d4f39665097c"},"vehicle_type_id":"4","last_reported":1690736698,"current_range_meters":18800,"station_id":"ce4bhqp2rcd13ifvqhog","pricing_plan_id":"free"},{"bike_id":"d6268ade-21df-460f-aaea-6e4a09b78f23","system_id":"levelo_inurba_marseille","lat":43.32369,"lon":5.38886,"is_reserved":false,"is_disabled":false,"rental_uris":{"android":"levelo://app?vid=d6268ade-21df-460f-aaea-6e4a09b78f23","ios":"levelo://app?vid=d6268ade-21df-460f-aaea-6e4a09b78f23"},"vehicle_type_id":"4","last_reported":1690736698,"current_range_meters":3600,"station_id":"ce4bhqp2rcd13ifvqhog","pricing_plan_id":"free"},{"bike_id":"2da11330-b1ef-469c-83e0-8863df14ada1","system_id":"levelo_inurba_marseille","lat":43.295448,"lon":5.381614,"is_reserved":false,"is_disabled":false,"rental_uris":{"android":"levelo://app?vid=2da11330-b1ef-469c-83e0-8863df14ada1","ios":"levelo://app?vid=2da11330-b1ef-469c-83e0-8863df14ada1"},"vehicle_type_id":"4","last_reported":1690736698,"current_range_meters":24800,"station_id":"ce4bha12rcd13ifvqee0","pricing_plan_id":"free"},{"bike_id":"ce4d6003-13e3-403f-8802-dfbb72ccf5b9","system_id":"levelo_inurba_marseille","lat":43.293009,"lon":5.374584,"is_reserved":false,"is_disabled":false,"rental_uris":{"android":"levelo://app?vid=ce4d6003-13e3-403f-8802-dfbb72ccf5b9","ios":"levelo://app?vid=ce4d6003-13e3-403f-8802-dfbb72ccf5b9"},"vehicle_type_id":"4","last_reported":1690736698,"current_range_meters":29600,"station_id":"ce4bgi12rcd13ifvqb70","pricing_plan_id":"free"},{"bike_id":"ad94f1d7-dc01-46a6-a8d0-2ce3ff96e950","system_id":"levelo_inurba_marseille","lat":43.293009,"lon":5.374584,"is_reserved":false,"is_disabled":false,"rental_uris":{"android":"levelo://app?vid=ad94f1d7-dc01-46a6-a8d0-2ce3ff96e950","ios":"levelo://app?vid=ad94f1d7-dc01-46a6-a8d0-2ce3ff96e950"},"vehicle_type_id":"4","last_reported":1690736698,"current_range_meters":6800,"station_id":"ce4bgi12rcd13ifvqb70","pricing_plan_id":"free"},{"bike_id":"c0870698-47e8-433d-bc59-7f23ada898ad","system_id":"levelo_inurba_marseille","lat":43.293009,"lon":5.374584,"is_reserved":false,"is_disabled":false,"rental_uris":{"android":"levelo://app?vid=c0870698-47e8-433d-bc59-7f23ada898ad","ios":"levelo://app?vid=c0870698-47e8-433d-bc59-7f23ada898ad"},"vehicle_type_id":"4","last_reported":1690736698,"current_range_meters":2400,"station_id":"ce4bgi12rcd13ifvqb70","pricing_plan_id":"free"},{"bike_id":"c568a62b-b09e-4d4a-9be7-5e9581312015","system_id":"levelo_inurba_marseille","lat":43.30304,"lon":5.39215,"is_reserved":false,"is_disabled":false,"rental_uris":{"android":"levelo://app?vid=c568a62b-b09e-4d4a-9be7-5e9581312015","ios":"levelo://app?vid=c568a62b-b09e-4d4a-9be7-5e9581312015"},"vehicle_type_id":"4","last_reported":1690736698,"current_range_meters":10000,"station_id":"ce4bgkh2rcd13ifvqbk0","pricing_plan_id":"free"},{"bike_id":"ad0b6986-ce3c-4bfb-8b08-3d81bf7b0462","system_id":"levelo_inurba_marseille","lat":43.292311,"lon":5.360731,"is_reserved":false,"is_disabled":false,"rental_uris":{"android":"levelo://app?vid=ad0b6986-ce3c-4bfb-8b08-3d81bf7b0462","ios":"levelo://app?vid=ad0b6986-ce3c-4bfb-8b08-3d81bf7b0462"},"vehicle_type_id":"4","last_reported":1690736698,"current_range_meters":0,"station_id":"ce4bhbh2rcd13ifvqeqg","pricing_plan_id":"free"},{"bike_id":"889749f2-4da9-485f-83ed-f326502eebbc","system_id":"levelo_inurba_marseille","lat":43.300852,"lon":5.390859,"is_reserved":false,"is_disabled":false,"rental_uris":{"android":"levelo://app?vid=889749f2-4da9-485f-83ed-f326502eebbc","ios":"levelo://app?vid=889749f2-4da9-485f-83ed-f326502eebbc"},"vehicle_type_id":"4","last_reported":1690736698,"current_range_meters":9600,"station_id":"ce4bh192rcd13ifvqdb0","pricing_plan_id":"free"},{"bike_id":"8d9176c1-ce0a-41ed-b862-505b5b474bad","system_id":"levelo_inurba_marseille","lat":43.298764,"lon":5.388973,"is_reserved":false,"is_disabled":false,"rental_uris":{"android":"levelo://app?vid=8d9176c1-ce0a-41ed-b862-505b5b474bad","ios":"levelo://app?vid=8d9176c1-ce0a-41ed-b862-505b5b474bad"},"vehicle_type_id":"4","last_reported":1690736698,"current_range_meters":1600,"station_id":"ce4bh392rcd13ifvqdl0","pricing_plan_id":"free"},{"bike_id":"572380d7-6c24-45bc-9651-653ef16958a8","system_id":"levelo_inurba_marseille","lat":43.291671,"lon":5.371575,"is_reserved":false,"is_disabled":false,"rental_uris":{"android":"levelo://app?vid=572380d7-6c24-45bc-9651-653ef16958a8","ios":"levelo://app?vid=572380d7-6c24-45bc-9651-653ef16958a8"},"vehicle_type_id":"4","last_reported":1690736698,"current_range_meters":4400,"station_id":"ce4bha92rcd13ifvqeh0","pricing_plan_id":"free"},{"bike_id":"58854864-699e-4e56-826b-0416ca789e66","system_id":"levelo_inurba_marseille","lat":43.291671,"lon":5.371575,"is_reserved":false,"is_disabled":false,"rental_uris":{"android":"levelo://app?vid=58854864-699e-4e56-826b-0416ca789e66","ios":"levelo://app?vid=58854864-699e-4e56-826b-0416ca789e66"},"vehicle_type_id":"4","last_reported":1690736698,"current_range_meters":14800,"station_id":"ce4bha92rcd13ifvqeh0","pricing_plan_id":"free"},{"bike_id":"1770ff08-82f9-4c12-b45a-c4efb45e0371","system_id":"levelo_inurba_marseille","lat":43.292663,"lon":5.376389,"is_reserved":false,"is_disabled":false,"rental_uris":{"android":"levelo://app?vid=1770ff08-82f9-4c12-b45a-c4efb45e0371","ios":"levelo://app?vid=1770ff08-82f9-4c12-b45a-c4efb45e0371"},"vehicle_type_id":"4","last_reported":1690736698,"current_range_meters":12800,"station_id":"ce4bgi12rcd13ifvqb80","pricing_plan_id":"free"},{"bike_id":"b48b6b5d-ae4e-4d32-b0cc-31c7c729a2fa","system_id":"levelo_inurba_marseille","lat":43.291675,"lon":5.371583,"is_reserved":false,"is_disabled":false,"rental_uris":{"android":"levelo://app?vid=b48b6b5d-ae4e-4d32-b0cc-31c7c729a2fa","ios":"levelo://app?vid=b48b6b5d-ae4e-4d32-b0cc-31c7c729a2fa"},"vehicle_type_id":"4","last_reported":1690736698,"current_range_meters":1600,"station_id":"ce4bha92rcd13ifvqeh0","pricing_plan_id":"free"},{"bike_id":"73d9c13b-2a5c-4a9c-a30a-29a72456e9e9","system_id":"levelo_inurba_marseille","lat":43.313032,"lon":5.396656,"is_reserved":false,"is_disabled":false,"rental_uris":{"android":"levelo://app?vid=73d9c13b-2a5c-4a9c-a30a-29a72456e9e9","ios":"levelo://app?vid=73d9c13b-2a5c-4a9c-a30a-29a72456e9e9"},"vehicle_type_id":"4","last_reported":1690736698,"current_range_meters":3200,"station_id":"ce4bgvp2rcd13ifvqcu0","pricing_plan_id":"free"},{"bike_id":"6d8338a8-a24d-4bce-8b0f-1dc8f5d11dd2","system_id":"levelo_inurba_marseille","lat":43.29197,"lon":5.358,"is_reserved":false,"is_disabled":false,"rental_uris":{"android":"levelo://app?vid=6d8338a8-a24d-4bce-8b0f-1dc8f5d11dd2","ios":"levelo://app?vid=6d8338a8-a24d-4bce-8b0f-1dc8f5d11dd2"},"vehicle_type_id":"4","last_reported":1690736698,"current_range_meters":27200,"station_id":"ce4bhb12rcd13ifvqel0","pricing_plan_id":"free"},{"bike_id":"a573f92b-98d5-4872-b469-a18ef47daf16","system_id":"levelo_inurba_marseille","lat":43.29194,"lon":5.35806,"is_reserved":false,"is_disabled":false,"rental_uris":{"android":"levelo://app?vid=a573f92b-98d5-4872-b469-a18ef47daf16","ios":"levelo://app?vid=a573f92b-98d5-4872-b469-a18ef47daf16"},"vehicle_type_id":"4","last_reported":1690736698,"current_range_meters":1200,"station_id":"ce4bhb12rcd13ifvqel0","pricing_plan_id":"free"},{"bike_id":"4e102e5f-fb69-4f47-9fe2-c447f09ce623","system_id":"levelo_inurba_marseille","lat":43.29191,"lon":5.358,"is_reserved":false,"is_disabled":false,"rental_uris":{"android":"levelo://app?vid=4e102e5f-fb69-4f47-9fe2-c447f09ce623","ios":"levelo://app?vid=4e102e5f-fb69-4f47-9fe2-c447f09ce623"},"vehicle_type_id":"4","last_reported":1690736698,"current_range_meters":9200,"station_id":"ce4bhb12rcd13ifvqel0","pricing_plan_id":"free"},{"bike_id":"1664ffd4-9042-47c6-b0a6-39b882d728a8","system_id":"levelo_inurba_marseille","lat":43.2919,"lon":5.35801,"is_reserved":false,"is_disabled":false,"rental_uris":{"android":"levelo://app?vid=1664ffd4-9042-47c6-b0a6-39b882d728a8","ios":"levelo://app?vid=1664ffd4-9042-47c6-b0a6-39b882d728a8"},"vehicle_type_id":"4","last_reported":1690736698,"current_range_meters":22000,"station_id":"ce4bhb12rcd13ifvqel0","pricing_plan_id":"free"},{"bike_id":"a24ef51d-d623-42ec-903f-44e3c85c37b8","system_id":"levelo_inurba_marseille","lat":43.2919,"lon":5.358,"is_reserved":false,"is_disabled":false,"rental_uris":{"android":"levelo://app?vid=a24ef51d-d623-42ec-903f-44e3c85c37b8","ios":"levelo://app?vid=a24ef51d-d623-42ec-903f-44e3c85c37b8"},"vehicle_type_id":"4","last_reported":1690736698,"current_range_meters":2800,"station_id":"ce4bhb12rcd13ifvqel0","pricing_plan_id":"free"},{"bike_id":"bb225f77-baf1-4a6d-97fa-49cc45d2e037","system_id":"levelo_inurba_marseille","lat":43.31326,"lon":5.39694,"is_reserved":false,"is_disabled":false,"rental_uris":{"android":"levelo://app?vid=bb225f77-baf1-4a6d-97fa-49cc45d2e037","ios":"levelo://app?vid=bb225f77-baf1-4a6d-97fa-49cc45d2e037"},"vehicle_type_id":"4","last_reported":1690736698,"current_range_meters":4800,"station_id":"ce4bgvp2rcd13ifvqcu0","pricing_plan_id":"free"},{"bike_id":"6e2dd079-a994-467f-a7b1-04edbac978e6","system_id":"levelo_inurba_marseille","lat":43.30884,"lon":5.39661,"is_reserved":false,"is_disabled":false,"rental_uris":{"android":"levelo://app?vid=6e2dd079-a994-467f-a7b1-04edbac978e6","ios":"levelo://app?vid=6e2dd079-a994-467f-a7b1-04edbac978e6"},"vehicle_type_id":"4","last_reported":1690736698,"current_range_meters":0,"station_id":"ce4bh012rcd13ifvqcv0","pricing_plan_id":"free"},{"bike_id":"45319a14-7143-4469-80a3-4cf20ea3fc6d","system_id":"levelo_inurba_marseille","lat":43.31313,"lon":5.3971,"is_reserved":false,"is_disabled":false,"rental_uris":{"android":"levelo://app?vid=45319a14-7143-4469-80a3-4cf20ea3fc6d","ios":"levelo://app?vid=45319a14-7143-4469-80a3-4cf20ea3fc6d"},"vehicle_type_id":"4","last_reported":1690736698,"current_range_meters":7200,"station_id":"ce4bgvp2rcd13ifvqcu0","pricing_plan_id":"free"},{"bike_id":"95832975-08aa-4a1d-bd18-bbc2e60fbefc","system_id":"levelo_inurba_marseille","lat":43.290624,"lon":5.359245,"is_reserved":false,"is_disabled":false,"rental_uris":{"android":"levelo://app?vid=95832975-08aa-4a1d-bd18-bbc2e60fbefc","ios":"levelo://app?vid=95832975-08aa-4a1d-bd18-bbc2e60fbefc"},"vehicle_type_id":"4","last_reported":1690736698,"current_range_meters":18400,"station_id":"ce4bha92rcd13ifvqeg0","pricing_plan_id":"free"},{"bike_id":"c3d0d108-34db-43ea-b9b3-ef5fbe23df9e","system_id":"levelo_inurba_marseille","lat":43.294153,"lon":5.386305,"is_reserved":false,"is_disabled":false,"rental_uris":{"android":"levelo://app?vid=c3d0d108-34db-43ea-b9b3-ef5fbe23df9e","ios":"levelo://app?vid=c3d0d108-34db-43ea-b9b3-ef5fbe23df9e"},"vehicle_type_id":"4","last_reported":1690736698,"current_range_meters":10800,"station_id":"ce4bh2h2rcd13ifvqdh0","pricing_plan_id":"free"},{"bike_id":"8aa7f39b-1ac5-40fb-a470-f491b717bfd1","system_id":"levelo_inurba_marseille","lat":43.294153,"lon":5.386305,"is_reserved":false,"is_disabled":false,"rental_uris":{"android":"levelo://app?vid=8aa7f39b-1ac5-40fb-a470-f491b717bfd1","ios":"levelo://app?vid=8aa7f39b-1ac5-40fb-a470-f491b717bfd1"},"vehicle_type_id":"4","last_reported":1690736698,"current_range_meters":14800,"station_id":"ce4bh2h2rcd13ifvqdh0","pricing_plan_id":"free"},{"bike_id":"645bfb02-6a15-4e08-b29c-b796828413d6","system_id":"levelo_inurba_marseille","lat":43.29037,"lon":5.37566,"is_reserved":false,"is_disabled":false,"rental_uris":{"android":"levelo://app?vid=645bfb02-6a15-4e08-b29c-b796828413d6","ios":"levelo://app?vid=645bfb02-6a15-4e08-b29c-b796828413d6"},"vehicle_type_id":"4","last_reported":1690736698,"current_range_meters":11600,"station_id":"ce4bh692rcd13ifvqe90","pricing_plan_id":"free"},{"bike_id":"d45a459f-dd9e-44bd-a4af-ef68ee84163a","system_id":"levelo_inurba_marseille","lat":43.294162,"lon":5.386292,"is_reserved":false,"is_disabled":false,"rental_uris":{"android":"levelo://app?vid=d45a459f-dd9e-44bd-a4af-ef68ee84163a","ios":"levelo://app?vid=d45a459f-dd9e-44bd-a4af-ef68ee84163a"},"vehicle_type_id":"4","last_reported":1690736698,"current_range_meters":4400,"station_id":"ce4bh2h2rcd13ifvqdh0","pricing_plan_id":"free"},{"bike_id":"b34ca3b8-3e99-4eca-89a0-ac753c69f961","system_id":"levelo_inurba_marseille","lat":43.292644,"lon":5.384257,"is_reserved":false,"is_disabled":false,"rental_uris":{"android":"levelo://app?vid=b34ca3b8-3e99-4eca-89a0-ac753c69f961","ios":"levelo://app?vid=b34ca3b8-3e99-4eca-89a0-ac753c69f961"},"vehicle_type_id":"4","last_reported":1690736698,"current_range_meters":9600,"station_id":"ce4bh692rcd13ifvqea0","pricing_plan_id":"free"},{"bike_id":"6b99c386-240f-485b-aff5-324c68552eb3","system_id":"levelo_inurba_marseille","lat":43.292644,"lon":5.384257,"is_reserved":false,"is_disabled":false,"rental_uris":{"android":"levelo://app?vid=6b99c386-240f-485b-aff5-324c68552eb3","ios":"levelo://app?vid=6b99c386-240f-485b-aff5-324c68552eb3"},"vehicle_type_id":"4","last_reported":1690736698,"current_range_meters":16400,"station_id":"ce4bh692rcd13ifvqea0","pricing_plan_id":"free"},{"bike_id":"db3083ee-51ff-4e0f-b8fa-611378876237","system_id":"levelo_inurba_marseille","lat":43.304296,"lon":5.397513,"is_reserved":false,"is_disabled":false,"rental_uris":{"android":"levelo://app?vid=db3083ee-51ff-4e0f-b8fa-611378876237","ios":"levelo://app?vid=db3083ee-51ff-4e0f-b8fa-611378876237"},"vehicle_type_id":"4","last_reported":1690736698,"current_range_meters":0,"station_id":"ce4bh092rcd13ifvqd20","pricing_plan_id":"free"},{"bike_id":"4031e07c-3812-4dd4-9840-651d80dc70e1","system_id":"levelo_inurba_marseille","lat":43.33045,"lon":5.38916,"is_reserved":false,"is_disabled":false,"rental_uris":{"android":"levelo://app?vid=4031e07c-3812-4dd4-9840-651d80dc70e1","ios":"levelo://app?vid=4031e07c-3812-4dd4-9840-651d80dc70e1"},"vehicle_type_id":"4","last_reported":1690736698,"current_range_meters":30400,"station_id":"ce4bhr92rcd13ifvqhrg","pricing_plan_id":"free"},{"bike_id":"15826b93-93a4-4083-bb32-5201a2212194","system_id":"levelo_inurba_marseille","lat":43.33048,"lon":5.38915,"is_reserved":false,"is_disabled":false,"rental_uris":{"android":"levelo://app?vid=15826b93-93a4-4083-bb32-5201a2212194","ios":"levelo://app?vid=15826b93-93a4-4083-bb32-5201a2212194"},"vehicle_type_id":"4","last_reported":1690736698,"current_range_meters":30000,"station_id":"ce4bhr92rcd13ifvqhrg","pricing_plan_id":"free"},{"bike_id":"134ef223-0af9-48f2-bbd1-4d84dd8cb35c","system_id":"levelo_inurba_marseille","lat":43.29005,"lon":5.35609,"is_reserved":false,"is_disabled":false,"rental_uris":{"android":"levelo://app?vid=134ef223-0af9-48f2-bbd1-4d84dd8cb35c","ios":"levelo://app?vid=134ef223-0af9-48f2-bbd1-4d84dd8cb35c"},"vehicle_type_id":"4","last_reported":1690736698,"current_range_meters":31200,"station_id":"ce4bhb92rcd13ifvqen0","pricing_plan_id":"free"},{"bike_id":"d8afb2b5-0158-41e3-b407-30be3a55b763","system_id":"levelo_inurba_marseille","lat":43.33044,"lon":5.38928,"is_reserved":false,"is_disabled":false,"rental_uris":{"android":"levelo://app?vid=d8afb2b5-0158-41e3-b407-30be3a55b763","ios":"levelo://app?vid=d8afb2b5-0158-41e3-b407-30be3a55b763"},"vehicle_type_id":"4","last_reported":1690736698,"current_range_meters":23600,"station_id":"ce4bhr92rcd13ifvqhrg","pricing_plan_id":"free"},{"bike_id":"f4b8a937-478a-4113-a141-eec483a34759","system_id":"levelo_inurba_marseille","lat":43.29513,"lon":5.38943,"is_reserved":false,"is_disabled":false,"rental_uris":{"android":"levelo://app?vid=f4b8a937-478a-4113-a141-eec483a34759","ios":"levelo://app?vid=f4b8a937-478a-4113-a141-eec483a34759"},"vehicle_type_id":"4","last_reported":1690736698,"current_range_meters":8800,"station_id":"","pricing_plan_id":"free"},{"bike_id":"05bf2cc0-c80b-4d3b-9303-5cea93148e89","system_id":"levelo_inurba_marseille","lat":43.290995,"lon":5.381361,"is_reserved":false,"is_disabled":false,"rental_uris":{"android":"levelo://app?vid=05bf2cc0-c80b-4d3b-9303-5cea93148e89","ios":"levelo://app?vid=05bf2cc0-c80b-4d3b-9303-5cea93148e89"},"vehicle_type_id":"4","last_reported":1690736698,"current_range_meters":29200,"station_id":"ce4bh512rcd13ifvqe2g","pricing_plan_id":"free"},{"bike_id":"0338572a-618b-481d-846f-1602742a54f2","system_id":"levelo_inurba_marseille","lat":43.297815,"lon":5.393548,"is_reserved":false,"is_disabled":false,"rental_uris":{"android":"levelo://app?vid=0338572a-618b-481d-846f-1602742a54f2","ios":"levelo://app?vid=0338572a-618b-481d-846f-1602742a54f2"},"vehicle_type_id":"4","last_reported":1690736698,"current_range_meters":22400,"station_id":"chh1huq6cuj3fo74tm60","pricing_plan_id":"free"},{"bike_id":"52321991-bcd9-414f-b4ed-893da9c9ee0d","system_id":"levelo_inurba_marseille","lat":43.295169,"lon":5.390426,"is_reserved":false,"is_disabled":false,"rental_uris":{"android":"levelo://app?vid=52321991-bcd9-414f-b4ed-893da9c9ee0d","ios":"levelo://app?vid=52321991-bcd9-414f-b4ed-893da9c9ee0d"},"vehicle_type_id":"4","last_reported":1690736698,"current_range_meters":28800,"station_id":"ce4bh3p2rcd13ifvqdp0","pricing_plan_id":"free"},{"bike_id":"e22aee9b-df1a-46c0-951a-0431af6c03d2","system_id":"levelo_inurba_marseille","lat":43.28851,"lon":5.35862,"is_reserved":false,"is_disabled":false,"rental_uris":{"android":"levelo://app?vid=e22aee9b-df1a-46c0-951a-0431af6c03d2","ios":"levelo://app?vid=e22aee9b-df1a-46c0-951a-0431af6c03d2"},"vehicle_type_id":"4","last_reported":1690736698,"current_range_meters":11600,"station_id":"ce4bhb12rcd13ifvqem0","pricing_plan_id":"free"},{"bike_id":"b133c602-c380-4572-bbe1-27b833f74862","system_id":"levelo_inurba_marseille","lat":43.28851,"lon":5.35847,"is_reserved":false,"is_disabled":false,"rental_uris":{"android":"levelo://app?vid=b133c602-c380-4572-bbe1-27b833f74862","ios":"levelo://app?vid=b133c602-c380-4572-bbe1-27b833f74862"},"vehicle_type_id":"4","last_reported":1690736698,"current_range_meters":8000,"station_id":"ce4bhb12rcd13ifvqem0","pricing_plan_id":"free"},{"bike_id":"3ceb87f1-3ccf-402f-befd-b7ae8cd4b3d4","system_id":"levelo_inurba_marseille","lat":43.301117,"lon":5.398795,"is_reserved":false,"is_disabled":false,"rental_uris":{"android":"levelo://app?vid=3ceb87f1-3ccf-402f-befd-b7ae8cd4b3d4","ios":"levelo://app?vid=3ceb87f1-3ccf-402f-befd-b7ae8cd4b3d4"},"vehicle_type_id":"4","last_reported":1690736698,"current_range_meters":12400,"station_id":"ce4bh0h2rcd13ifvqd40","pricing_plan_id":"free"},{"bike_id":"e4f53878-5941-4386-889f-56c2d355dec6","system_id":"levelo_inurba_marseille","lat":43.30112,"lon":5.39833,"is_reserved":false,"is_disabled":false,"rental_uris":{"android":"levelo://app?vid=e4f53878-5941-4386-889f-56c2d355dec6","ios":"levelo://app?vid=e4f53878-5941-4386-889f-56c2d355dec6"},"vehicle_type_id":"4","last_reported":1690736698,"current_range_meters":22000,"station_id":"ce4bh0h2rcd13ifvqd40","pricing_plan_id":"free"},{"bike_id":"f37773f0-8338-4aeb-b857-925876dfa89e","system_id":"levelo_inurba_marseille","lat":43.301117,"lon":5.398795,"is_reserved":false,"is_disabled":false,"rental_uris":{"android":"levelo://app?vid=f37773f0-8338-4aeb-b857-925876dfa89e","ios":"levelo://app?vid=f37773f0-8338-4aeb-b857-925876dfa89e"},"vehicle_type_id":"4","last_reported":1690736698,"current_range_meters":11200,"station_id":"ce4bh0h2rcd13ifvqd40","pricing_plan_id":"free"},{"bike_id":"068338fe-cf2c-4f83-8268-71f926e60fce","system_id":"levelo_inurba_marseille","lat":43.301117,"lon":5.398795,"is_reserved":false,"is_disabled":false,"rental_uris":{"android":"levelo://app?vid=068338fe-cf2c-4f83-8268-71f926e60fce","ios":"levelo://app?vid=068338fe-cf2c-4f83-8268-71f926e60fce"},"vehicle_type_id":"4","last_reported":1690736698,"current_range_meters":4400,"station_id":"ce4bh0h2rcd13ifvqd40","pricing_plan_id":"free"},{"bike_id":"5eba81bb-3104-48e3-84c6-b8b53092af3f","system_id":"levelo_inurba_marseille","lat":43.286961,"lon":5.373785,"is_reserved":false,"is_disabled":false,"rental_uris":{"android":"levelo://app?vid=5eba81bb-3104-48e3-84c6-b8b53092af3f","ios":"levelo://app?vid=5eba81bb-3104-48e3-84c6-b8b53092af3f"},"vehicle_type_id":"4","last_reported":1690736698,"current_range_meters":18400,"station_id":"ce4bh3p2rcd13ifvqdq0","pricing_plan_id":"free"},{"bike_id":"75199276-b705-4ad7-b6a9-49aeaa84628a","system_id":"levelo_inurba_marseille","lat":43.286593,"lon":5.363346,"is_reserved":false,"is_disabled":false,"rental_uris":{"android":"levelo://app?vid=75199276-b705-4ad7-b6a9-49aeaa84628a","ios":"levelo://app?vid=75199276-b705-4ad7-b6a9-49aeaa84628a"},"vehicle_type_id":"4","last_reported":1690736698,"current_range_meters":31200,"station_id":"ce4bhah2rcd13ifvqej0","pricing_plan_id":"free"},{"bike_id":"1f38eaec-2b8a-4373-ad5b-ef0d68e43f4e","system_id":"levelo_inurba_marseille","lat":43.28692,"lon":5.37411,"is_reserved":false,"is_disabled":false,"rental_uris":{"android":"levelo://app?vid=1f38eaec-2b8a-4373-ad5b-ef0d68e43f4e","ios":"levelo://app?vid=1f38eaec-2b8a-4373-ad5b-ef0d68e43f4e"},"vehicle_type_id":"4","last_reported":1690736698,"current_range_meters":23200,"station_id":"ce4bh3p2rcd13ifvqdq0","pricing_plan_id":"free"},{"bike_id":"13d2bb90-56b7-4ea6-9dbf-9780cc891409","system_id":"levelo_inurba_marseille","lat":43.286961,"lon":5.373785,"is_reserved":false,"is_disabled":false,"rental_uris":{"android":"levelo://app?vid=13d2bb90-56b7-4ea6-9dbf-9780cc891409","ios":"levelo://app?vid=13d2bb90-56b7-4ea6-9dbf-9780cc891409"},"vehicle_type_id":"4","last_reported":1690736698,"current_range_meters":6000,"station_id":"ce4bh3p2rcd13ifvqdq0","pricing_plan_id":"free"},{"bike_id":"8791ec3b-877e-416c-ae8f-0cb8fe5933af","system_id":"levelo_inurba_marseille","lat":43.302759,"lon":5.400793,"is_reserved":false,"is_disabled":false,"rental_uris":{"android":"levelo://app?vid=8791ec3b-877e-416c-ae8f-0cb8fe5933af","ios":"levelo://app?vid=8791ec3b-877e-416c-ae8f-0cb8fe5933af"},"vehicle_type_id":"4","last_reported":1690736698,"current_range_meters":1600,"station_id":"ce4bgvh2rcd13ifvqcs0","pricing_plan_id":"free"},{"bike_id":"e699313f-c411-4ab6-b8c7-c4ebbd981eb4","system_id":"levelo_inurba_marseille","lat":43.302759,"lon":5.400793,"is_reserved":false,"is_disabled":false,"rental_uris":{"android":"levelo://app?vid=e699313f-c411-4ab6-b8c7-c4ebbd981eb4","ios":"levelo://app?vid=e699313f-c411-4ab6-b8c7-c4ebbd981eb4"},"vehicle_type_id":"4","last_reported":1690736698,"current_range_meters":28000,"station_id":"ce4bgvh2rcd13ifvqcs0","pricing_plan_id":"free"},{"bike_id":"e70a62fd-841d-47c9-b935-b7ecc90633bc","system_id":"levelo_inurba_marseille","lat":43.302759,"lon":5.400793,"is_reserved":false,"is_disabled":false,"rental_uris":{"android":"levelo://app?vid=e70a62fd-841d-47c9-b935-b7ecc90633bc","ios":"levelo://app?vid=e70a62fd-841d-47c9-b935-b7ecc90633bc"},"vehicle_type_id":"4","last_reported":1690736698,"current_range_meters":3600,"station_id":"ce4bgvh2rcd13ifvqcs0","pricing_plan_id":"free"},{"bike_id":"5a7a6c5d-c7eb-422c-8a07-fad184a38874","system_id":"levelo_inurba_marseille","lat":43.286039,"lon":5.370681,"is_reserved":false,"is_disabled":false,"rental_uris":{"android":"levelo://app?vid=5a7a6c5d-c7eb-422c-8a07-fad184a38874","ios":"levelo://app?vid=5a7a6c5d-c7eb-422c-8a07-fad184a38874"},"vehicle_type_id":"4","last_reported":1690736698,"current_range_meters":18400,"station_id":"ce4bht12rcd13ifvqi60","pricing_plan_id":"free"},{"bike_id":"dc218b31-6e10-4066-b60a-ee33a29fa95b","system_id":"levelo_inurba_marseille","lat":43.316523,"lon":5.404367,"is_reserved":false,"is_disabled":false,"rental_uris":{"android":"levelo://app?vid=dc218b31-6e10-4066-b60a-ee33a29fa95b","ios":"levelo://app?vid=dc218b31-6e10-4066-b60a-ee33a29fa95b"},"vehicle_type_id":"4","last_reported":1690736698,"current_range_meters":9600,"station_id":"ce4bh012rcd13ifvqd00","pricing_plan_id":"free"},{"bike_id":"023251d4-1386-48e2-80a6-0cfc06549ba5","system_id":"levelo_inurba_marseille","lat":43.316523,"lon":5.404367,"is_reserved":false,"is_disabled":false,"rental_uris":{"android":"levelo://app?vid=023251d4-1386-48e2-80a6-0cfc06549ba5","ios":"levelo://app?vid=023251d4-1386-48e2-80a6-0cfc06549ba5"},"vehicle_type_id":"4","last_reported":1690736698,"current_range_meters":18400,"station_id":"ce4bh012rcd13ifvqd00","pricing_plan_id":"free"},{"bike_id":"99c50597-4800-4e25-bd3e-243b23cee58b","system_id":"levelo_inurba_marseille","lat":43.29192,"lon":5.39313,"is_reserved":false,"is_disabled":false,"rental_uris":{"android":"levelo://app?vid=99c50597-4800-4e25-bd3e-243b23cee58b","ios":"levelo://app?vid=99c50597-4800-4e25-bd3e-243b23cee58b"},"vehicle_type_id":"4","last_reported":1690736698,"current_range_meters":0,"station_id":"ce4bh192rcd13ifvqdd0","pricing_plan_id":"free"},{"bike_id":"a2e2288e-9fe1-4c79-91d0-60fe0a82a9a1","system_id":"levelo_inurba_marseille","lat":43.292005,"lon":5.393289,"is_reserved":false,"is_disabled":false,"rental_uris":{"android":"levelo://app?vid=a2e2288e-9fe1-4c79-91d0-60fe0a82a9a1","ios":"levelo://app?vid=a2e2288e-9fe1-4c79-91d0-60fe0a82a9a1"},"vehicle_type_id":"4","last_reported":1690736698,"current_range_meters":26000,"station_id":"ce4bgl12rcd13ifvqbo0","pricing_plan_id":"free"},{"bike_id":"c6c9bc46-ec75-45b8-9df9-a93505d38d6c","system_id":"levelo_inurba_marseille","lat":43.291994,"lon":5.392907,"is_reserved":false,"is_disabled":false,"rental_uris":{"android":"levelo://app?vid=c6c9bc46-ec75-45b8-9df9-a93505d38d6c","ios":"levelo://app?vid=c6c9bc46-ec75-45b8-9df9-a93505d38d6c"},"vehicle_type_id":"4","last_reported":1690736698,"current_range_meters":13600,"station_id":"ce4bh192rcd13ifvqdd0","pricing_plan_id":"free"},{"bike_id":"70db7fdc-2923-41ce-970e-f4ba8a48334c","system_id":"levelo_inurba_marseille","lat":43.28622,"lon":5.35111,"is_reserved":false,"is_disabled":false,"rental_uris":{"android":"levelo://app?vid=70db7fdc-2923-41ce-970e-f4ba8a48334c","ios":"levelo://app?vid=70db7fdc-2923-41ce-970e-f4ba8a48334c"},"vehicle_type_id":"4","last_reported":1690736698,"current_range_meters":18800,"station_id":"ce4bhch2rcd13ifvqeug","pricing_plan_id":"free"},{"bike_id":"a3fdb558-526c-4cda-9d8a-176f1b8a43c4","system_id":"levelo_inurba_marseille","lat":43.28618,"lon":5.35109,"is_reserved":false,"is_disabled":false,"rental_uris":{"android":"levelo://app?vid=a3fdb558-526c-4cda-9d8a-176f1b8a43c4","ios":"levelo://app?vid=a3fdb558-526c-4cda-9d8a-176f1b8a43c4"},"vehicle_type_id":"4","last_reported":1690736698,"current_range_meters":23600,"station_id":"ce4bhch2rcd13ifvqeug","pricing_plan_id":"free"},{"bike_id":"8559d19b-f1ac-46b5-92e6-34605b1dc2e7","system_id":"levelo_inurba_marseille","lat":43.286184,"lon":5.351054,"is_reserved":false,"is_disabled":false,"rental_uris":{"android":"levelo://app?vid=8559d19b-f1ac-46b5-92e6-34605b1dc2e7","ios":"levelo://app?vid=8559d19b-f1ac-46b5-92e6-34605b1dc2e7"},"vehicle_type_id":"4","last_reported":1690736698,"current_range_meters":5200,"station_id":"ce4bhch2rcd13ifvqeug","pricing_plan_id":"free"},{"bike_id":"db8ad659-91dd-4333-bf3b-aa080dd7b7e4","system_id":"levelo_inurba_marseille","lat":43.285856,"lon":5.350771,"is_reserved":false,"is_disabled":false,"rental_uris":{"android":"levelo://app?vid=db8ad659-91dd-4333-bf3b-aa080dd7b7e4","ios":"levelo://app?vid=db8ad659-91dd-4333-bf3b-aa080dd7b7e4"},"vehicle_type_id":"4","last_reported":1690736698,"current_range_meters":16800,"station_id":"ce4bhch2rcd13ifvqeug","pricing_plan_id":"free"},{"bike_id":"6e2c2925-c13a-415d-b5cc-d16acfe996aa","system_id":"levelo_inurba_marseille","lat":43.285856,"lon":5.350771,"is_reserved":false,"is_disabled":false,"rental_uris":{"android":"levelo://app?vid=6e2c2925-c13a-415d-b5cc-d16acfe996aa","ios":"levelo://app?vid=6e2c2925-c13a-415d-b5cc-d16acfe996aa"},"vehicle_type_id":"4","last_reported":1690736698,"current_range_meters":2400,"station_id":"ce4bhch2rcd13ifvqeug","pricing_plan_id":"free"},{"bike_id":"3e2a5d47-cbef-4665-88b5-f5b578f067b2","system_id":"levelo_inurba_marseille","lat":43.28618,"lon":5.351,"is_reserved":false,"is_disabled":false,"rental_uris":{"android":"levelo://app?vid=3e2a5d47-cbef-4665-88b5-f5b578f067b2","ios":"levelo://app?vid=3e2a5d47-cbef-4665-88b5-f5b578f067b2"},"vehicle_type_id":"4","last_reported":1690736698,"current_range_meters":31200,"station_id":"ce4bhch2rcd13ifvqeug","pricing_plan_id":"free"},{"bike_id":"8b3de30a-816e-4297-9cba-9f2c5c99e809","system_id":"levelo_inurba_marseille","lat":43.28618,"lon":5.35097,"is_reserved":false,"is_disabled":false,"rental_uris":{"android":"levelo://app?vid=8b3de30a-816e-4297-9cba-9f2c5c99e809","ios":"levelo://app?vid=8b3de30a-816e-4297-9cba-9f2c5c99e809"},"vehicle_type_id":"4","last_reported":1690736698,"current_range_meters":30000,"station_id":"ce4bhch2rcd13ifvqeug","pricing_plan_id":"free"},{"bike_id":"3336b08a-2864-48c1-af8f-c8ccb80d8e5c","system_id":"levelo_inurba_marseille","lat":43.28615,"lon":5.35101,"is_reserved":false,"is_disabled":false,"rental_uris":{"android":"levelo://app?vid=3336b08a-2864-48c1-af8f-c8ccb80d8e5c","ios":"levelo://app?vid=3336b08a-2864-48c1-af8f-c8ccb80d8e5c"},"vehicle_type_id":"4","last_reported":1690736698,"current_range_meters":2800,"station_id":"ce4bhch2rcd13ifvqeug","pricing_plan_id":"free"},{"bike_id":"590ffa09-07f1-44b1-a93c-ea69e13c3b04","system_id":"levelo_inurba_marseille","lat":43.28614,"lon":5.35104,"is_reserved":false,"is_disabled":false,"rental_uris":{"android":"levelo://app?vid=590ffa09-07f1-44b1-a93c-ea69e13c3b04","ios":"levelo://app?vid=590ffa09-07f1-44b1-a93c-ea69e13c3b04"},"vehicle_type_id":"4","last_reported":1690736698,"current_range_meters":29600,"station_id":"ce4bhch2rcd13ifvqeug","pricing_plan_id":"free"},{"bike_id":"9b3da613-4510-4583-b5cb-271812ddf11c","system_id":"levelo_inurba_marseille","lat":43.28616,"lon":5.35095,"is_reserved":false,"is_disabled":false,"rental_uris":{"android":"levelo://app?vid=9b3da613-4510-4583-b5cb-271812ddf11c","ios":"levelo://app?vid=9b3da613-4510-4583-b5cb-271812ddf11c"},"vehicle_type_id":"4","last_reported":1690736698,"current_range_meters":19200,"station_id":"ce4bhch2rcd13ifvqeug","pricing_plan_id":"free"},{"bike_id":"5b112069-dd75-4a1c-a0d8-84fb8f414b25","system_id":"levelo_inurba_marseille","lat":43.28617,"lon":5.35091,"is_reserved":false,"is_disabled":false,"rental_uris":{"android":"levelo://app?vid=5b112069-dd75-4a1c-a0d8-84fb8f414b25","ios":"levelo://app?vid=5b112069-dd75-4a1c-a0d8-84fb8f414b25"},"vehicle_type_id":"4","last_reported":1690736698,"current_range_meters":24800,"station_id":"ce4bhch2rcd13ifvqeug","pricing_plan_id":"free"},{"bike_id":"c10efb94-bd61-475d-a7a0-de9bd9636ef6","system_id":"levelo_inurba_marseille","lat":43.28613,"lon":5.35099,"is_reserved":false,"is_disabled":false,"rental_uris":{"android":"levelo://app?vid=c10efb94-bd61-475d-a7a0-de9bd9636ef6","ios":"levelo://app?vid=c10efb94-bd61-475d-a7a0-de9bd9636ef6"},"vehicle_type_id":"4","last_reported":1690736698,"current_range_meters":18000,"station_id":"ce4bhch2rcd13ifvqeug","pricing_plan_id":"free"},{"bike_id":"f837b13e-c74d-4cce-a8fc-9e15c1070f07","system_id":"levelo_inurba_marseille","lat":43.28612,"lon":5.35102,"is_reserved":false,"is_disabled":false,"rental_uris":{"android":"levelo://app?vid=f837b13e-c74d-4cce-a8fc-9e15c1070f07","ios":"levelo://app?vid=f837b13e-c74d-4cce-a8fc-9e15c1070f07"},"vehicle_type_id":"4","last_reported":1690736698,"current_range_meters":22000,"station_id":"ce4bhch2rcd13ifvqeug","pricing_plan_id":"free"},{"bike_id":"565cb1ed-ff88-48af-8601-a45e6fbd7c5d","system_id":"levelo_inurba_marseille","lat":43.28611,"lon":5.35099,"is_reserved":false,"is_disabled":false,"rental_uris":{"android":"levelo://app?vid=565cb1ed-ff88-48af-8601-a45e6fbd7c5d","ios":"levelo://app?vid=565cb1ed-ff88-48af-8601-a45e6fbd7c5d"},"vehicle_type_id":"4","last_reported":1690736698,"current_range_meters":4800,"station_id":"ce4bhch2rcd13ifvqeug","pricing_plan_id":"free"},{"bike_id":"3c60e1a7-3260-4bb4-a396-7a0e944c6868","system_id":"levelo_inurba_marseille","lat":43.286047,"lon":5.351155,"is_reserved":false,"is_disabled":false,"rental_uris":{"android":"levelo://app?vid=3c60e1a7-3260-4bb4-a396-7a0e944c6868","ios":"levelo://app?vid=3c60e1a7-3260-4bb4-a396-7a0e944c6868"},"vehicle_type_id":"4","last_reported":1690736698,"current_range_meters":16000,"station_id":"ce4bhch2rcd13ifvqeug","pricing_plan_id":"free"},{"bike_id":"fce9f257-8477-4855-af13-6c9ad6c1a6ac","system_id":"levelo_inurba_marseille","lat":43.285983,"lon":5.351138,"is_reserved":false,"is_disabled":false,"rental_uris":{"android":"levelo://app?vid=fce9f257-8477-4855-af13-6c9ad6c1a6ac","ios":"levelo://app?vid=fce9f257-8477-4855-af13-6c9ad6c1a6ac"},"vehicle_type_id":"4","last_reported":1690736698,"current_range_meters":18400,"station_id":"ce4bhch2rcd13ifvqeug","pricing_plan_id":"free"},{"bike_id":"84b988b3-a9d7-4c06-824b-4e76a004ea8a","system_id":"levelo_inurba_marseille","lat":43.283998,"lon":5.375062,"is_reserved":false,"is_disabled":false,"rental_uris":{"android":"levelo://app?vid=84b988b3-a9d7-4c06-824b-4e76a004ea8a","ios":"levelo://app?vid=84b988b3-a9d7-4c06-824b-4e76a004ea8a"},"vehicle_type_id":"4","last_reported":1690736698,"current_range_meters":10800,"station_id":"ce4bh412rcd13ifvqds0","pricing_plan_id":"free"},{"bike_id":"d9e64e89-b46c-48e4-b3ef-bf33315bca12","system_id":"levelo_inurba_marseille","lat":43.283998,"lon":5.375062,"is_reserved":false,"is_disabled":false,"rental_uris":{"android":"levelo://app?vid=d9e64e89-b46c-48e4-b3ef-bf33315bca12","ios":"levelo://app?vid=d9e64e89-b46c-48e4-b3ef-bf33315bca12"},"vehicle_type_id":"4","last_reported":1690736698,"current_range_meters":24000,"station_id":"ce4bh412rcd13ifvqds0","pricing_plan_id":"free"},{"bike_id":"402db52e-32b3-4b49-be7a-3904dd40aa80","system_id":"levelo_inurba_marseille","lat":43.283998,"lon":5.375062,"is_reserved":false,"is_disabled":false,"rental_uris":{"android":"levelo://app?vid=402db52e-32b3-4b49-be7a-3904dd40aa80","ios":"levelo://app?vid=402db52e-32b3-4b49-be7a-3904dd40aa80"},"vehicle_type_id":"4","last_reported":1690736698,"current_range_meters":17600,"station_id":"ce4bh412rcd13ifvqds0","pricing_plan_id":"free"},{"bike_id":"914b2a4d-7554-4b09-bf6b-5d72d51fd92b","system_id":"levelo_inurba_marseille","lat":43.295713,"lon":5.399639,"is_reserved":false,"is_disabled":false,"rental_uris":{"android":"levelo://app?vid=914b2a4d-7554-4b09-bf6b-5d72d51fd92b","ios":"levelo://app?vid=914b2a4d-7554-4b09-bf6b-5d72d51fd92b"},"vehicle_type_id":"4","last_reported":1690736698,"current_range_meters":7200,"station_id":"ce4bh312rcd13ifvqdj0","pricing_plan_id":"free"},{"bike_id":"677e934d-ed18-492c-8920-06a358ac1da1","system_id":"levelo_inurba_marseille","lat":43.31888,"lon":5.40728,"is_reserved":false,"is_disabled":false,"rental_uris":{"android":"levelo://app?vid=677e934d-ed18-492c-8920-06a358ac1da1","ios":"levelo://app?vid=677e934d-ed18-492c-8920-06a358ac1da1"},"vehicle_type_id":"4","last_reported":1690736698,"current_range_meters":16000,"station_id":"ce4bhq12rcd13ifvqhig","pricing_plan_id":"free"},{"bike_id":"89483ede-3542-4ff6-b4b7-4d2d38117d81","system_id":"levelo_inurba_marseille","lat":43.319179,"lon":5.407725,"is_reserved":false,"is_disabled":false,"rental_uris":{"android":"levelo://app?vid=89483ede-3542-4ff6-b4b7-4d2d38117d81","ios":"levelo://app?vid=89483ede-3542-4ff6-b4b7-4d2d38117d81"},"vehicle_type_id":"4","last_reported":1690736698,"current_range_meters":15200,"station_id":"ce4bhq12rcd13ifvqhig","pricing_plan_id":"free"},{"bike_id":"1cd10330-8c82-4645-9e31-791aa547d0aa","system_id":"levelo_inurba_marseille","lat":43.3372,"lon":5.39181,"is_reserved":false,"is_disabled":false,"rental_uris":{"android":"levelo://app?vid=1cd10330-8c82-4645-9e31-791aa547d0aa","ios":"levelo://app?vid=1cd10330-8c82-4645-9e31-791aa547d0aa"},"vehicle_type_id":"4","last_reported":1690736698,"current_range_meters":25600,"station_id":"ce4bhr92rcd13ifvqhsg","pricing_plan_id":"free"},{"bike_id":"26bfcad4-2dc6-43bb-9f00-91622fd750a3","system_id":"levelo_inurba_marseille","lat":43.323464,"lon":5.406297,"is_reserved":false,"is_disabled":false,"rental_uris":{"android":"levelo://app?vid=26bfcad4-2dc6-43bb-9f00-91622fd750a3","ios":"levelo://app?vid=26bfcad4-2dc6-43bb-9f00-91622fd750a3"},"vehicle_type_id":"4","last_reported":1690736698,"current_range_meters":31200,"station_id":"ce4bhq92rcd13ifvqhjg","pricing_plan_id":"free"},{"bike_id":"c214d605-66d3-4e2d-8d08-d523874da159","system_id":"levelo_inurba_marseille","lat":43.33718,"lon":5.3919,"is_reserved":false,"is_disabled":false,"rental_uris":{"android":"levelo://app?vid=c214d605-66d3-4e2d-8d08-d523874da159","ios":"levelo://app?vid=c214d605-66d3-4e2d-8d08-d523874da159"},"vehicle_type_id":"4","last_reported":1690736698,"current_range_meters":20800,"station_id":"ce4bhr92rcd13ifvqhsg","pricing_plan_id":"free"},{"bike_id":"1c48fc14-d16f-474c-9687-3d62f3e3c8fe","system_id":"levelo_inurba_marseille","lat":43.323464,"lon":5.406297,"is_reserved":false,"is_disabled":false,"rental_uris":{"android":"levelo://app?vid=1c48fc14-d16f-474c-9687-3d62f3e3c8fe","ios":"levelo://app?vid=1c48fc14-d16f-474c-9687-3d62f3e3c8fe"},"vehicle_type_id":"4","last_reported":1690736698,"current_range_meters":18400,"station_id":"ce4bhq92rcd13ifvqhjg","pricing_plan_id":"free"},{"bike_id":"4a59383e-c24a-49eb-b341-b501111dd738","system_id":"levelo_inurba_marseille","lat":43.323464,"lon":5.406297,"is_reserved":false,"is_disabled":false,"rental_uris":{"android":"levelo://app?vid=4a59383e-c24a-49eb-b341-b501111dd738","ios":"levelo://app?vid=4a59383e-c24a-49eb-b341-b501111dd738"},"vehicle_type_id":"4","last_reported":1690736698,"current_range_meters":12400,"station_id":"ce4bhq92rcd13ifvqhjg","pricing_plan_id":"free"},{"bike_id":"e78794ab-1147-4e07-9747-4f03804e7014","system_id":"levelo_inurba_marseille","lat":43.33732,"lon":5.39185,"is_reserved":false,"is_disabled":false,"rental_uris":{"android":"levelo://app?vid=e78794ab-1147-4e07-9747-4f03804e7014","ios":"levelo://app?vid=e78794ab-1147-4e07-9747-4f03804e7014"},"vehicle_type_id":"4","last_reported":1690736698,"current_range_meters":24400,"station_id":"ce4bhr92rcd13ifvqhsg","pricing_plan_id":"free"},{"bike_id":"b2246e37-d71b-425c-8a49-dd54d9755225","system_id":"levelo_inurba_marseille","lat":43.284793,"lon":5.384119,"is_reserved":false,"is_disabled":false,"rental_uris":{"android":"levelo://app?vid=b2246e37-d71b-425c-8a49-dd54d9755225","ios":"levelo://app?vid=b2246e37-d71b-425c-8a49-dd54d9755225"},"vehicle_type_id":"4","last_reported":1690736698,"current_range_meters":20800,"station_id":"ce4bh512rcd13ifvqe3g","pricing_plan_id":"free"},{"bike_id":"fb4ac8fa-2933-4eaa-970f-f7a5ca6003a4","system_id":"levelo_inurba_marseille","lat":43.284793,"lon":5.384119,"is_reserved":false,"is_disabled":false,"rental_uris":{"android":"levelo://app?vid=fb4ac8fa-2933-4eaa-970f-f7a5ca6003a4","ios":"levelo://app?vid=fb4ac8fa-2933-4eaa-970f-f7a5ca6003a4"},"vehicle_type_id":"4","last_reported":1690736698,"current_range_meters":23200,"station_id":"ce4bh512rcd13ifvqe3g","pricing_plan_id":"free"},{"bike_id":"90a22f2f-4707-48cf-8a8a-d9291f4cc695","system_id":"levelo_inurba_marseille","lat":43.284756,"lon":5.384331,"is_reserved":false,"is_disabled":false,"rental_uris":{"android":"levelo://app?vid=90a22f2f-4707-48cf-8a8a-d9291f4cc695","ios":"levelo://app?vid=90a22f2f-4707-48cf-8a8a-d9291f4cc695"},"vehicle_type_id":"4","last_reported":1690736698,"current_range_meters":2400,"station_id":"ce4bh512rcd13ifvqe3g","pricing_plan_id":"free"},{"bike_id":"0b849a96-2446-4432-95f5-91021b0a9fa1","system_id":"levelo_inurba_marseille","lat":43.29797,"lon":5.40399,"is_reserved":false,"is_disabled":false,"rental_uris":{"android":"levelo://app?vid=0b849a96-2446-4432-95f5-91021b0a9fa1","ios":"levelo://app?vid=0b849a96-2446-4432-95f5-91021b0a9fa1"},"vehicle_type_id":"4","last_reported":1690736698,"current_range_meters":12400,"station_id":"","pricing_plan_id":"free"},{"bike_id":"12ea0aab-4c79-4fef-88da-a6f9efb11b3a","system_id":"levelo_inurba_marseille","lat":43.284793,"lon":5.384119,"is_reserved":false,"is_disabled":false,"rental_uris":{"android":"levelo://app?vid=12ea0aab-4c79-4fef-88da-a6f9efb11b3a","ios":"levelo://app?vid=12ea0aab-4c79-4fef-88da-a6f9efb11b3a"},"vehicle_type_id":"4","last_reported":1690736698,"current_range_meters":7600,"station_id":"ce4bh512rcd13ifvqe3g","pricing_plan_id":"free"},{"bike_id":"21d802e6-2295-4193-a36d-093b66a83e78","system_id":"levelo_inurba_marseille","lat":43.288497,"lon":5.393089,"is_reserved":false,"is_disabled":false,"rental_uris":{"android":"levelo://app?vid=21d802e6-2295-4193-a36d-093b66a83e78","ios":"levelo://app?vid=21d802e6-2295-4193-a36d-093b66a83e78"},"vehicle_type_id":"4","last_reported":1690736698,"current_range_meters":14400,"station_id":"ce4bh2p2rcd13ifvqdi0","pricing_plan_id":"free"},{"bike_id":"7aa6a68c-c846-4d16-aa9b-e644ae4fa65f","system_id":"levelo_inurba_marseille","lat":43.30085,"lon":5.390856,"is_reserved":false,"is_disabled":false,"rental_uris":{"android":"levelo://app?vid=7aa6a68c-c846-4d16-aa9b-e644ae4fa65f","ios":"levelo://app?vid=7aa6a68c-c846-4d16-aa9b-e644ae4fa65f"},"vehicle_type_id":"4","last_reported":1690736698,"current_range_meters":20400,"station_id":"ce4bh192rcd13ifvqdb0","pricing_plan_id":"free"},{"bike_id":"e7580945-26bb-46e1-8b7d-0cff46f02a67","system_id":"levelo_inurba_marseille","lat":43.28419,"lon":5.3499,"is_reserved":false,"is_disabled":false,"rental_uris":{"android":"levelo://app?vid=e7580945-26bb-46e1-8b7d-0cff46f02a67","ios":"levelo://app?vid=e7580945-26bb-46e1-8b7d-0cff46f02a67"},"vehicle_type_id":"4","last_reported":1690736698,"current_range_meters":31600,"station_id":"ce4bhbh2rcd13ifvqepg","pricing_plan_id":"free"},{"bike_id":"247dc56a-ce79-4662-9c30-36a64b093ee6","system_id":"levelo_inurba_marseille","lat":43.28419,"lon":5.34988,"is_reserved":false,"is_disabled":false,"rental_uris":{"android":"levelo://app?vid=247dc56a-ce79-4662-9c30-36a64b093ee6","ios":"levelo://app?vid=247dc56a-ce79-4662-9c30-36a64b093ee6"},"vehicle_type_id":"4","last_reported":1690736698,"current_range_meters":1600,"station_id":"ce4bhbh2rcd13ifvqepg","pricing_plan_id":"free"},{"bike_id":"d9ba62f6-d8f8-4ebb-b686-14e8f83f14c2","system_id":"levelo_inurba_marseille","lat":43.284194,"lon":5.349858,"is_reserved":false,"is_disabled":false,"rental_uris":{"android":"levelo://app?vid=d9ba62f6-d8f8-4ebb-b686-14e8f83f14c2","ios":"levelo://app?vid=d9ba62f6-d8f8-4ebb-b686-14e8f83f14c2"},"vehicle_type_id":"4","last_reported":1690736698,"current_range_meters":0,"station_id":"","pricing_plan_id":"free"},{"bike_id":"12f4f3c6-6183-4a66-b87d-0212667557d9","system_id":"levelo_inurba_marseille","lat":43.28419,"lon":5.34985,"is_reserved":false,"is_disabled":false,"rental_uris":{"android":"levelo://app?vid=12f4f3c6-6183-4a66-b87d-0212667557d9","ios":"levelo://app?vid=12f4f3c6-6183-4a66-b87d-0212667557d9"},"vehicle_type_id":"4","last_reported":1690736698,"current_range_meters":23600,"station_id":"ce4bhbh2rcd13ifvqepg","pricing_plan_id":"free"},{"bike_id":"f766232b-38ba-4942-8fec-310cf235314a","system_id":"levelo_inurba_marseille","lat":43.28418,"lon":5.34984,"is_reserved":false,"is_disabled":false,"rental_uris":{"android":"levelo://app?vid=f766232b-38ba-4942-8fec-310cf235314a","ios":"levelo://app?vid=f766232b-38ba-4942-8fec-310cf235314a"},"vehicle_type_id":"4","last_reported":1690736698,"current_range_meters":19200,"station_id":"ce4bhbh2rcd13ifvqepg","pricing_plan_id":"free"},{"bike_id":"d4341498-4e23-44c9-9189-fc35f1a9e3c6","system_id":"levelo_inurba_marseille","lat":43.2842,"lon":5.34975,"is_reserved":false,"is_disabled":false,"rental_uris":{"android":"levelo://app?vid=d4341498-4e23-44c9-9189-fc35f1a9e3c6","ios":"levelo://app?vid=d4341498-4e23-44c9-9189-fc35f1a9e3c6"},"vehicle_type_id":"4","last_reported":1690736698,"current_range_meters":24400,"station_id":"ce4bhbh2rcd13ifvqepg","pricing_plan_id":"free"},{"bike_id":"30d0ff74-2859-498f-b874-56d4054e256d","system_id":"levelo_inurba_marseille","lat":43.28416,"lon":5.34987,"is_reserved":false,"is_disabled":false,"rental_uris":{"android":"levelo://app?vid=30d0ff74-2859-498f-b874-56d4054e256d","ios":"levelo://app?vid=30d0ff74-2859-498f-b874-56d4054e256d"},"vehicle_type_id":"4","last_reported":1690736698,"current_range_meters":20800,"station_id":"ce4bhbh2rcd13ifvqepg","pricing_plan_id":"free"},{"bike_id":"2c0f3cdd-d8d6-4919-844a-2be066961245","system_id":"levelo_inurba_marseille","lat":43.28416,"lon":5.34985,"is_reserved":false,"is_disabled":false,"rental_uris":{"android":"levelo://app?vid=2c0f3cdd-d8d6-4919-844a-2be066961245","ios":"levelo://app?vid=2c0f3cdd-d8d6-4919-844a-2be066961245"},"vehicle_type_id":"4","last_reported":1690736698,"current_range_meters":22800,"station_id":"ce4bhbh2rcd13ifvqepg","pricing_plan_id":"free"},{"bike_id":"161caab7-0b16-4dae-826a-a1276616d6c9","system_id":"levelo_inurba_marseille","lat":43.2842,"lon":5.34972,"is_reserved":false,"is_disabled":false,"rental_uris":{"android":"levelo://app?vid=161caab7-0b16-4dae-826a-a1276616d6c9","ios":"levelo://app?vid=161caab7-0b16-4dae-826a-a1276616d6c9"},"vehicle_type_id":"4","last_reported":1690736698,"current_range_meters":23200,"station_id":"ce4bhbh2rcd13ifvqepg","pricing_plan_id":"free"},{"bike_id":"7644bdb0-494f-4c71-9bd7-af1d173c62e9","system_id":"levelo_inurba_marseille","lat":43.28419,"lon":5.34975,"is_reserved":false,"is_disabled":false,"rental_uris":{"android":"levelo://app?vid=7644bdb0-494f-4c71-9bd7-af1d173c62e9","ios":"levelo://app?vid=7644bdb0-494f-4c71-9bd7-af1d173c62e9"},"vehicle_type_id":"4","last_reported":1690736698,"current_range_meters":19200,"station_id":"ce4bhbh2rcd13ifvqepg","pricing_plan_id":"free"},{"bike_id":"2d73a4c8-3f42-447e-a7f4-9507e942b8dc","system_id":"levelo_inurba_marseille","lat":43.28419,"lon":5.34974,"is_reserved":false,"is_disabled":false,"rental_uris":{"android":"levelo://app?vid=2d73a4c8-3f42-447e-a7f4-9507e942b8dc","ios":"levelo://app?vid=2d73a4c8-3f42-447e-a7f4-9507e942b8dc"},"vehicle_type_id":"4","last_reported":1690736698,"current_range_meters":13600,"station_id":"ce4bhbh2rcd13ifvqepg","pricing_plan_id":"free"},{"bike_id":"2aff9119-8c83-467c-b99c-d68522a226b3","system_id":"levelo_inurba_marseille","lat":43.28416,"lon":5.34983,"is_reserved":false,"is_disabled":false,"rental_uris":{"android":"levelo://app?vid=2aff9119-8c83-467c-b99c-d68522a226b3","ios":"levelo://app?vid=2aff9119-8c83-467c-b99c-d68522a226b3"},"vehicle_type_id":"4","last_reported":1690736698,"current_range_meters":30000,"station_id":"ce4bhbh2rcd13ifvqepg","pricing_plan_id":"free"},{"bike_id":"389e87b5-d8d4-425d-bf6e-b1f805d5eee4","system_id":"levelo_inurba_marseille","lat":43.2842,"lon":5.3497,"is_reserved":false,"is_disabled":false,"rental_uris":{"android":"levelo://app?vid=389e87b5-d8d4-425d-bf6e-b1f805d5eee4","ios":"levelo://app?vid=389e87b5-d8d4-425d-bf6e-b1f805d5eee4"},"vehicle_type_id":"4","last_reported":1690736698,"current_range_meters":22800,"station_id":"ce4bhbh2rcd13ifvqepg","pricing_plan_id":"free"},{"bike_id":"bb7b44ff-4b6d-49de-9e33-da7046e8c7d4","system_id":"levelo_inurba_marseille","lat":43.28417,"lon":5.34979,"is_reserved":false,"is_disabled":false,"rental_uris":{"android":"levelo://app?vid=bb7b44ff-4b6d-49de-9e33-da7046e8c7d4","ios":"levelo://app?vid=bb7b44ff-4b6d-49de-9e33-da7046e8c7d4"},"vehicle_type_id":"4","last_reported":1690736698,"current_range_meters":31200,"station_id":"ce4bhbh2rcd13ifvqepg","pricing_plan_id":"free"},{"bike_id":"84b48735-950f-435c-8ed5-228fa98ae30c","system_id":"levelo_inurba_marseille","lat":43.28417,"lon":5.34979,"is_reserved":false,"is_disabled":false,"rental_uris":{"android":"levelo://app?vid=84b48735-950f-435c-8ed5-228fa98ae30c","ios":"levelo://app?vid=84b48735-950f-435c-8ed5-228fa98ae30c"},"vehicle_type_id":"4","last_reported":1690736698,"current_range_meters":29200,"station_id":"ce4bhbh2rcd13ifvqepg","pricing_plan_id":"free"},{"bike_id":"be2c53e4-b193-41bb-a8fc-0a19985541f8","system_id":"levelo_inurba_marseille","lat":43.28415,"lon":5.34985,"is_reserved":false,"is_disabled":false,"rental_uris":{"android":"levelo://app?vid=be2c53e4-b193-41bb-a8fc-0a19985541f8","ios":"levelo://app?vid=be2c53e4-b193-41bb-a8fc-0a19985541f8"},"vehicle_type_id":"4","last_reported":1690736698,"current_range_meters":21200,"station_id":"ce4bhbh2rcd13ifvqepg","pricing_plan_id":"free"},{"bike_id":"727920a0-fe1e-48ee-bbd2-739ab9ace9c1","system_id":"levelo_inurba_marseille","lat":43.28415,"lon":5.34984,"is_reserved":false,"is_disabled":false,"rental_uris":{"android":"levelo://app?vid=727920a0-fe1e-48ee-bbd2-739ab9ace9c1","ios":"levelo://app?vid=727920a0-fe1e-48ee-bbd2-739ab9ace9c1"},"vehicle_type_id":"4","last_reported":1690736698,"current_range_meters":31200,"station_id":"ce4bhbh2rcd13ifvqepg","pricing_plan_id":"free"},{"bike_id":"2246e638-4885-422e-8776-ad27fb10d9ff","system_id":"levelo_inurba_marseille","lat":43.28418,"lon":5.34971,"is_reserved":false,"is_disabled":false,"rental_uris":{"android":"levelo://app?vid=2246e638-4885-422e-8776-ad27fb10d9ff","ios":"levelo://app?vid=2246e638-4885-422e-8776-ad27fb10d9ff"},"vehicle_type_id":"4","last_reported":1690736698,"current_range_meters":18000,"station_id":"ce4bhbh2rcd13ifvqepg","pricing_plan_id":"free"},{"bike_id":"84273c73-45a6-4ae2-9009-0467f57b9bcf","system_id":"levelo_inurba_marseille","lat":43.284219,"lon":5.3497,"is_reserved":false,"is_disabled":false,"rental_uris":{"android":"levelo://app?vid=84273c73-45a6-4ae2-9009-0467f57b9bcf","ios":"levelo://app?vid=84273c73-45a6-4ae2-9009-0467f57b9bcf"},"vehicle_type_id":"4","last_reported":1690736698,"current_range_meters":27200,"station_id":"ce4bhbh2rcd13ifvqepg","pricing_plan_id":"free"},{"bike_id":"e88ca40e-e466-4651-bb8e-809cdfcd7d60","system_id":"levelo_inurba_marseille","lat":43.28413,"lon":5.34981,"is_reserved":false,"is_disabled":false,"rental_uris":{"android":"levelo://app?vid=e88ca40e-e466-4651-bb8e-809cdfcd7d60","ios":"levelo://app?vid=e88ca40e-e466-4651-bb8e-809cdfcd7d60"},"vehicle_type_id":"4","last_reported":1690736698,"current_range_meters":31600,"station_id":"ce4bhbh2rcd13ifvqepg","pricing_plan_id":"free"},{"bike_id":"916a81a7-45d9-4eff-865d-c0ebd8158f2f","system_id":"levelo_inurba_marseille","lat":43.2841,"lon":5.34988,"is_reserved":false,"is_disabled":false,"rental_uris":{"android":"levelo://app?vid=916a81a7-45d9-4eff-865d-c0ebd8158f2f","ios":"levelo://app?vid=916a81a7-45d9-4eff-865d-c0ebd8158f2f"},"vehicle_type_id":"4","last_reported":1690736698,"current_range_meters":16400,"station_id":"ce4bhbh2rcd13ifvqepg","pricing_plan_id":"free"},{"bike_id":"868829cd-fb59-41b2-878c-e62909b34248","system_id":"levelo_inurba_marseille","lat":43.28411,"lon":5.34973,"is_reserved":false,"is_disabled":false,"rental_uris":{"android":"levelo://app?vid=868829cd-fb59-41b2-878c-e62909b34248","ios":"levelo://app?vid=868829cd-fb59-41b2-878c-e62909b34248"},"vehicle_type_id":"4","last_reported":1690736698,"current_range_meters":31200,"station_id":"ce4bhbh2rcd13ifvqepg","pricing_plan_id":"free"},{"bike_id":"13088aeb-862a-4dd8-83d8-cd83f9f31462","system_id":"levelo_inurba_marseille","lat":43.28367,"lon":5.38635,"is_reserved":false,"is_disabled":false,"rental_uris":{"android":"levelo://app?vid=13088aeb-862a-4dd8-83d8-cd83f9f31462","ios":"levelo://app?vid=13088aeb-862a-4dd8-83d8-cd83f9f31462"},"vehicle_type_id":"4","last_reported":1690736698,"current_range_meters":4000,"station_id":"ce4bh492rcd13ifvqdvg","pricing_plan_id":"free"},{"bike_id":"310116e4-c066-4845-b90e-d028b7280339","system_id":"levelo_inurba_marseille","lat":43.282744,"lon":5.350533,"is_reserved":false,"is_disabled":false,"rental_uris":{"android":"levelo://app?vid=310116e4-c066-4845-b90e-d028b7280339","ios":"levelo://app?vid=310116e4-c066-4845-b90e-d028b7280339"},"vehicle_type_id":"4","last_reported":1690736698,"current_range_meters":31200,"station_id":"ce4bhbp2rcd13ifvqerg","pricing_plan_id":"free"},{"bike_id":"f5252625-47c9-49b6-99f4-b6cb7fac5211","system_id":"levelo_inurba_marseille","lat":43.283502,"lon":5.386471,"is_reserved":false,"is_disabled":false,"rental_uris":{"android":"levelo://app?vid=f5252625-47c9-49b6-99f4-b6cb7fac5211","ios":"levelo://app?vid=f5252625-47c9-49b6-99f4-b6cb7fac5211"},"vehicle_type_id":"4","last_reported":1690736698,"current_range_meters":4800,"station_id":"ce4bh492rcd13ifvqdvg","pricing_plan_id":"free"},{"bike_id":"a8c24d88-705a-4bf2-a8b4-3b0d309f6402","system_id":"levelo_inurba_marseille","lat":43.32497,"lon":5.40818,"is_reserved":false,"is_disabled":false,"rental_uris":{"android":"levelo://app?vid=a8c24d88-705a-4bf2-a8b4-3b0d309f6402","ios":"levelo://app?vid=a8c24d88-705a-4bf2-a8b4-3b0d309f6402"},"vehicle_type_id":"4","last_reported":1690736698,"current_range_meters":7600,"station_id":"","pricing_plan_id":"free"},{"bike_id":"e8f441a1-5f23-4c94-a3df-18f5ede921e4","system_id":"levelo_inurba_marseille","lat":43.28039,"lon":5.369297,"is_reserved":false,"is_disabled":false,"rental_uris":{"android":"levelo://app?vid=e8f441a1-5f23-4c94-a3df-18f5ede921e4","ios":"levelo://app?vid=e8f441a1-5f23-4c94-a3df-18f5ede921e4"},"vehicle_type_id":"4","last_reported":1690736698,"current_range_meters":22400,"station_id":"ce4bha12rcd13ifvqef0","pricing_plan_id":"free"},{"bike_id":"3b57322d-2be2-4d28-bc35-493a2fc831b4","system_id":"levelo_inurba_marseille","lat":43.296263,"lon":5.40601,"is_reserved":false,"is_disabled":false,"rental_uris":{"android":"levelo://app?vid=3b57322d-2be2-4d28-bc35-493a2fc831b4","ios":"levelo://app?vid=3b57322d-2be2-4d28-bc35-493a2fc831b4"},"vehicle_type_id":"4","last_reported":1690736698,"current_range_meters":18400,"station_id":"ce4bh0h2rcd13ifvqd60","pricing_plan_id":"free"},{"bike_id":"653c227a-275d-4dda-8305-c2c9b32ec6bb","system_id":"levelo_inurba_marseille","lat":43.296263,"lon":5.40601,"is_reserved":false,"is_disabled":false,"rental_uris":{"android":"levelo://app?vid=653c227a-275d-4dda-8305-c2c9b32ec6bb","ios":"levelo://app?vid=653c227a-275d-4dda-8305-c2c9b32ec6bb"},"vehicle_type_id":"4","last_reported":1690736698,"current_range_meters":8800,"station_id":"ce4bh0h2rcd13ifvqd60","pricing_plan_id":"free"},{"bike_id":"fc51dad5-c3e0-4df6-ba80-431a5ce4fc4a","system_id":"levelo_inurba_marseille","lat":43.296263,"lon":5.40601,"is_reserved":false,"is_disabled":false,"rental_uris":{"android":"levelo://app?vid=fc51dad5-c3e0-4df6-ba80-431a5ce4fc4a","ios":"levelo://app?vid=fc51dad5-c3e0-4df6-ba80-431a5ce4fc4a"},"vehicle_type_id":"4","last_reported":1690736698,"current_range_meters":6800,"station_id":"ce4bh0h2rcd13ifvqd60","pricing_plan_id":"free"},{"bike_id":"5fc62844-38f1-43ca-9b6d-b74675103304","system_id":"levelo_inurba_marseille","lat":43.32529,"lon":5.41,"is_reserved":false,"is_disabled":false,"rental_uris":{"android":"levelo://app?vid=5fc62844-38f1-43ca-9b6d-b74675103304","ios":"levelo://app?vid=5fc62844-38f1-43ca-9b6d-b74675103304"},"vehicle_type_id":"4","last_reported":1690736698,"current_range_meters":4800,"station_id":"","pricing_plan_id":"free"},{"bike_id":"c891facb-d1c6-41cc-ae92-6999f18259a7","system_id":"levelo_inurba_marseille","lat":43.304188,"lon":5.412904,"is_reserved":false,"is_disabled":false,"rental_uris":{"android":"levelo://app?vid=c891facb-d1c6-41cc-ae92-6999f18259a7","ios":"levelo://app?vid=c891facb-d1c6-41cc-ae92-6999f18259a7"},"vehicle_type_id":"4","last_reported":1690736698,"current_range_meters":20400,"station_id":"ce4bhop2rcd13ifvqh8g","pricing_plan_id":"free"},{"bike_id":"f19a235d-96c6-47c7-b8c1-c7c2a524feb2","system_id":"levelo_inurba_marseille","lat":43.30421,"lon":5.41278,"is_reserved":false,"is_disabled":false,"rental_uris":{"android":"levelo://app?vid=f19a235d-96c6-47c7-b8c1-c7c2a524feb2","ios":"levelo://app?vid=f19a235d-96c6-47c7-b8c1-c7c2a524feb2"},"vehicle_type_id":"4","last_reported":1690736698,"current_range_meters":14800,"station_id":"ce4bhop2rcd13ifvqh8g","pricing_plan_id":"free"},{"bike_id":"20da83d1-2254-4617-81d1-964ed61ccff4","system_id":"levelo_inurba_marseille","lat":43.30417,"lon":5.41284,"is_reserved":false,"is_disabled":false,"rental_uris":{"android":"levelo://app?vid=20da83d1-2254-4617-81d1-964ed61ccff4","ios":"levelo://app?vid=20da83d1-2254-4617-81d1-964ed61ccff4"},"vehicle_type_id":"4","last_reported":1690736698,"current_range_meters":22400,"station_id":"ce4bhop2rcd13ifvqh8g","pricing_plan_id":"free"},{"bike_id":"4ee69007-33b1-435a-8958-ca88268097c1","system_id":"levelo_inurba_marseille","lat":43.304188,"lon":5.412904,"is_reserved":false,"is_disabled":false,"rental_uris":{"android":"levelo://app?vid=4ee69007-33b1-435a-8958-ca88268097c1","ios":"levelo://app?vid=4ee69007-33b1-435a-8958-ca88268097c1"},"vehicle_type_id":"4","last_reported":1690736698,"current_range_meters":13600,"station_id":"ce4bhop2rcd13ifvqh8g","pricing_plan_id":"free"},{"bike_id":"51b64500-38d2-44f7-9c34-e23bab07d631","system_id":"levelo_inurba_marseille","lat":43.30414,"lon":5.41287,"is_reserved":false,"is_disabled":false,"rental_uris":{"android":"levelo://app?vid=51b64500-38d2-44f7-9c34-e23bab07d631","ios":"levelo://app?vid=51b64500-38d2-44f7-9c34-e23bab07d631"},"vehicle_type_id":"4","last_reported":1690736698,"current_range_meters":25200,"station_id":"ce4bhop2rcd13ifvqh8g","pricing_plan_id":"free"},{"bike_id":"8f775cc2-222d-42fc-826f-4e1a1c2a8857","system_id":"levelo_inurba_marseille","lat":43.30414,"lon":5.41289,"is_reserved":false,"is_disabled":false,"rental_uris":{"android":"levelo://app?vid=8f775cc2-222d-42fc-826f-4e1a1c2a8857","ios":"levelo://app?vid=8f775cc2-222d-42fc-826f-4e1a1c2a8857"},"vehicle_type_id":"4","last_reported":1690736698,"current_range_meters":26000,"station_id":"ce4bhop2rcd13ifvqh8g","pricing_plan_id":"free"},{"bike_id":"da74851f-183f-4ed8-bc32-44e1d656b516","system_id":"levelo_inurba_marseille","lat":43.32095,"lon":5.41512,"is_reserved":false,"is_disabled":false,"rental_uris":{"android":"levelo://app?vid=da74851f-183f-4ed8-bc32-44e1d656b516","ios":"levelo://app?vid=da74851f-183f-4ed8-bc32-44e1d656b516"},"vehicle_type_id":"4","last_reported":1690736698,"current_range_meters":18000,"station_id":"","pricing_plan_id":"free"},{"bike_id":"e9fbe7f4-c376-4a74-9a01-c2dfa71d30c2","system_id":"levelo_inurba_marseille","lat":43.3209,"lon":5.41514,"is_reserved":false,"is_disabled":false,"rental_uris":{"android":"levelo://app?vid=e9fbe7f4-c376-4a74-9a01-c2dfa71d30c2","ios":"levelo://app?vid=e9fbe7f4-c376-4a74-9a01-c2dfa71d30c2"},"vehicle_type_id":"4","last_reported":1690736698,"current_range_meters":14400,"station_id":"","pricing_plan_id":"free"},{"bike_id":"39bfc890-c530-4457-ac62-976f6049a2e0","system_id":"levelo_inurba_marseille","lat":43.299579,"lon":5.413255,"is_reserved":false,"is_disabled":false,"rental_uris":{"android":"levelo://app?vid=39bfc890-c530-4457-ac62-976f6049a2e0","ios":"levelo://app?vid=39bfc890-c530-4457-ac62-976f6049a2e0"},"vehicle_type_id":"4","last_reported":1690736698,"current_range_meters":28000,"station_id":"ce4bhp12rcd13ifvqh9g","pricing_plan_id":"free"},{"bike_id":"94f9bd9a-8376-4f9a-9803-375b36e777e7","system_id":"levelo_inurba_marseille","lat":43.299579,"lon":5.413255,"is_reserved":false,"is_disabled":false,"rental_uris":{"android":"levelo://app?vid=94f9bd9a-8376-4f9a-9803-375b36e777e7","ios":"levelo://app?vid=94f9bd9a-8376-4f9a-9803-375b36e777e7"},"vehicle_type_id":"4","last_reported":1690736698,"current_range_meters":31200,"station_id":"ce4bhp12rcd13ifvqh9g","pricing_plan_id":"free"},{"bike_id":"cdcd753a-4a9a-455e-a5ca-a773fea8741e","system_id":"levelo_inurba_marseille","lat":43.299577,"lon":5.413277,"is_reserved":false,"is_disabled":false,"rental_uris":{"android":"levelo://app?vid=cdcd753a-4a9a-455e-a5ca-a773fea8741e","ios":"levelo://app?vid=cdcd753a-4a9a-455e-a5ca-a773fea8741e"},"vehicle_type_id":"4","last_reported":1690736698,"current_range_meters":31200,"station_id":"ce4bhp12rcd13ifvqh9g","pricing_plan_id":"free"},{"bike_id":"fe0aeb37-703a-4806-b442-c17908df6970","system_id":"levelo_inurba_marseille","lat":43.320045,"lon":5.415048,"is_reserved":false,"is_disabled":false,"rental_uris":{"android":"levelo://app?vid=fe0aeb37-703a-4806-b442-c17908df6970","ios":"levelo://app?vid=fe0aeb37-703a-4806-b442-c17908df6970"},"vehicle_type_id":"4","last_reported":1690736698,"current_range_meters":12000,"station_id":"ce4bhq92rcd13ifvqhkg","pricing_plan_id":"free"},{"bike_id":"5c3747dc-84c8-4dbd-a8e4-3d5d5d848bfb","system_id":"levelo_inurba_marseille","lat":43.299577,"lon":5.413277,"is_reserved":false,"is_disabled":false,"rental_uris":{"android":"levelo://app?vid=5c3747dc-84c8-4dbd-a8e4-3d5d5d848bfb","ios":"levelo://app?vid=5c3747dc-84c8-4dbd-a8e4-3d5d5d848bfb"},"vehicle_type_id":"4","last_reported":1690736698,"current_range_meters":30000,"station_id":"ce4bhp12rcd13ifvqh9g","pricing_plan_id":"free"},{"bike_id":"5ff607b4-1e31-43de-8153-72643bc45cf1","system_id":"levelo_inurba_marseille","lat":43.27968,"lon":5.38721,"is_reserved":false,"is_disabled":false,"rental_uris":{"android":"levelo://app?vid=5ff607b4-1e31-43de-8153-72643bc45cf1","ios":"levelo://app?vid=5ff607b4-1e31-43de-8153-72643bc45cf1"},"vehicle_type_id":"4","last_reported":1690736698,"current_range_meters":14800,"station_id":"ce4bhg12rcd13ifvqf80","pricing_plan_id":"free"},{"bike_id":"099c8c2b-fed6-445e-bb82-c6284d248fe6","system_id":"levelo_inurba_marseille","lat":43.320045,"lon":5.415048,"is_reserved":false,"is_disabled":false,"rental_uris":{"android":"levelo://app?vid=099c8c2b-fed6-445e-bb82-c6284d248fe6","ios":"levelo://app?vid=099c8c2b-fed6-445e-bb82-c6284d248fe6"},"vehicle_type_id":"4","last_reported":1690736698,"current_range_meters":29600,"station_id":"ce4bhq92rcd13ifvqhkg","pricing_plan_id":"free"},{"bike_id":"833ae158-114c-49c8-81d6-27df91d301d1","system_id":"levelo_inurba_marseille","lat":43.279742,"lon":5.38744,"is_reserved":false,"is_disabled":false,"rental_uris":{"android":"levelo://app?vid=833ae158-114c-49c8-81d6-27df91d301d1","ios":"levelo://app?vid=833ae158-114c-49c8-81d6-27df91d301d1"},"vehicle_type_id":"4","last_reported":1690736698,"current_range_meters":16400,"station_id":"ce4bhg12rcd13ifvqf80","pricing_plan_id":"free"},{"bike_id":"c327718a-8fe6-4791-a349-aba0f8f94e82","system_id":"levelo_inurba_marseille","lat":43.279742,"lon":5.38744,"is_reserved":false,"is_disabled":false,"rental_uris":{"android":"levelo://app?vid=c327718a-8fe6-4791-a349-aba0f8f94e82","ios":"levelo://app?vid=c327718a-8fe6-4791-a349-aba0f8f94e82"},"vehicle_type_id":"4","last_reported":1690736698,"current_range_meters":28000,"station_id":"ce4bhg12rcd13ifvqf80","pricing_plan_id":"free"},{"bike_id":"177aff6e-0fc2-4c63-bc1d-0ebf83703e28","system_id":"levelo_inurba_marseille","lat":43.27623,"lon":5.36114,"is_reserved":false,"is_disabled":false,"rental_uris":{"android":"levelo://app?vid=177aff6e-0fc2-4c63-bc1d-0ebf83703e28","ios":"levelo://app?vid=177aff6e-0fc2-4c63-bc1d-0ebf83703e28"},"vehicle_type_id":"4","last_reported":1690736698,"current_range_meters":14000,"station_id":"ce4bgj92rcd13ifvqbe0","pricing_plan_id":"free"},{"bike_id":"a2adaaea-1386-437c-a0de-caf5d2e189dc","system_id":"levelo_inurba_marseille","lat":43.27618,"lon":5.361009,"is_reserved":false,"is_disabled":false,"rental_uris":{"android":"levelo://app?vid=a2adaaea-1386-437c-a0de-caf5d2e189dc","ios":"levelo://app?vid=a2adaaea-1386-437c-a0de-caf5d2e189dc"},"vehicle_type_id":"4","last_reported":1690736698,"current_range_meters":1600,"station_id":"ce4bgj92rcd13ifvqbe0","pricing_plan_id":"free"},{"bike_id":"5e686b62-5058-4686-9d73-2e6872d0bc54","system_id":"levelo_inurba_marseille","lat":43.27622,"lon":5.36104,"is_reserved":false,"is_disabled":false,"rental_uris":{"android":"levelo://app?vid=5e686b62-5058-4686-9d73-2e6872d0bc54","ios":"levelo://app?vid=5e686b62-5058-4686-9d73-2e6872d0bc54"},"vehicle_type_id":"4","last_reported":1690736698,"current_range_meters":23200,"station_id":"ce4bgj92rcd13ifvqbe0","pricing_plan_id":"free"},{"bike_id":"10bba429-0ba9-4376-8045-3f67fa9f656d","system_id":"levelo_inurba_marseille","lat":43.2762,"lon":5.36111,"is_reserved":false,"is_disabled":false,"rental_uris":{"android":"levelo://app?vid=10bba429-0ba9-4376-8045-3f67fa9f656d","ios":"levelo://app?vid=10bba429-0ba9-4376-8045-3f67fa9f656d"},"vehicle_type_id":"4","last_reported":1690736698,"current_range_meters":14800,"station_id":"ce4bgj92rcd13ifvqbe0","pricing_plan_id":"free"},{"bike_id":"d5d9571c-8834-4533-9044-170057dfd01a","system_id":"levelo_inurba_marseille","lat":43.27614,"lon":5.3611,"is_reserved":false,"is_disabled":false,"rental_uris":{"android":"levelo://app?vid=d5d9571c-8834-4533-9044-170057dfd01a","ios":"levelo://app?vid=d5d9571c-8834-4533-9044-170057dfd01a"},"vehicle_type_id":"4","last_reported":1690736698,"current_range_meters":11600,"station_id":"ce4bgj92rcd13ifvqbe0","pricing_plan_id":"free"},{"bike_id":"78db09e3-6e9e-4495-85aa-4b07c4e31fac","system_id":"levelo_inurba_marseille","lat":43.280784,"lon":5.396622,"is_reserved":false,"is_disabled":false,"rental_uris":{"android":"levelo://app?vid=78db09e3-6e9e-4495-85aa-4b07c4e31fac","ios":"levelo://app?vid=78db09e3-6e9e-4495-85aa-4b07c4e31fac"},"vehicle_type_id":"4","last_reported":1690736698,"current_range_meters":24400,"station_id":"ce4bho12rcd13ifvqh2g","pricing_plan_id":"free"},{"bike_id":"d18cd304-bddb-4587-aa41-5e3567b2431a","system_id":"levelo_inurba_marseille","lat":43.278401,"lon":5.392152,"is_reserved":false,"is_disabled":false,"rental_uris":{"android":"levelo://app?vid=d18cd304-bddb-4587-aa41-5e3567b2431a","ios":"levelo://app?vid=d18cd304-bddb-4587-aa41-5e3567b2431a"},"vehicle_type_id":"4","last_reported":1690736698,"current_range_meters":10800,"station_id":"ce4bhjp2rcd13ifvqga0","pricing_plan_id":"free"},{"bike_id":"5f91e56f-584e-4027-a7e4-488a82d81f9b","system_id":"levelo_inurba_marseille","lat":43.278399,"lon":5.392139,"is_reserved":false,"is_disabled":false,"rental_uris":{"android":"levelo://app?vid=5f91e56f-584e-4027-a7e4-488a82d81f9b","ios":"levelo://app?vid=5f91e56f-584e-4027-a7e4-488a82d81f9b"},"vehicle_type_id":"4","last_reported":1690736698,"current_range_meters":26800,"station_id":"ce4bhjp2rcd13ifvqga0","pricing_plan_id":"free"},{"bike_id":"d1a254c3-1d83-43cb-b0c9-1a029fd56d0d","system_id":"levelo_inurba_marseille","lat":43.275625,"lon":5.384392,"is_reserved":false,"is_disabled":false,"rental_uris":{"android":"levelo://app?vid=d1a254c3-1d83-43cb-b0c9-1a029fd56d0d","ios":"levelo://app?vid=d1a254c3-1d83-43cb-b0c9-1a029fd56d0d"},"vehicle_type_id":"4","last_reported":1690736698,"current_range_meters":13600,"station_id":"ce4bhh92rcd13ifvqfi0","pricing_plan_id":"free"},{"bike_id":"5000baa7-2a60-49f1-b849-5973b94e74ba","system_id":"levelo_inurba_marseille","lat":43.33612,"lon":5.410321,"is_reserved":false,"is_disabled":false,"rental_uris":{"android":"levelo://app?vid=5000baa7-2a60-49f1-b849-5973b94e74ba","ios":"levelo://app?vid=5000baa7-2a60-49f1-b849-5973b94e74ba"},"vehicle_type_id":"4","last_reported":1690736698,"current_range_meters":11200,"station_id":"ce4bhqh2rcd13ifvqhmg","pricing_plan_id":"free"},{"bike_id":"c5075a8d-2565-42d2-8ae0-e6a3c07377b5","system_id":"levelo_inurba_marseille","lat":43.336134,"lon":5.410341,"is_reserved":false,"is_disabled":false,"rental_uris":{"android":"levelo://app?vid=c5075a8d-2565-42d2-8ae0-e6a3c07377b5","ios":"levelo://app?vid=c5075a8d-2565-42d2-8ae0-e6a3c07377b5"},"vehicle_type_id":"4","last_reported":1690736698,"current_range_meters":6400,"station_id":"ce4bhqh2rcd13ifvqhmg","pricing_plan_id":"free"},{"bike_id":"7a2d7973-8084-441e-a750-703944129287","system_id":"levelo_inurba_marseille","lat":43.33607,"lon":5.4103,"is_reserved":false,"is_disabled":false,"rental_uris":{"android":"levelo://app?vid=7a2d7973-8084-441e-a750-703944129287","ios":"levelo://app?vid=7a2d7973-8084-441e-a750-703944129287"},"vehicle_type_id":"4","last_reported":1690736698,"current_range_meters":25200,"station_id":"ce4bhqh2rcd13ifvqhmg","pricing_plan_id":"free"},{"bike_id":"13facb60-3981-46fb-aef5-17e34a6cea54","system_id":"levelo_inurba_marseille","lat":43.33612,"lon":5.410321,"is_reserved":false,"is_disabled":false,"rental_uris":{"android":"levelo://app?vid=13facb60-3981-46fb-aef5-17e34a6cea54","ios":"levelo://app?vid=13facb60-3981-46fb-aef5-17e34a6cea54"},"vehicle_type_id":"4","last_reported":1690736698,"current_range_meters":28000,"station_id":"ce4bhqh2rcd13ifvqhmg","pricing_plan_id":"free"},{"bike_id":"5ded7c3e-4538-4211-8e7f-85d8322a2d9d","system_id":"levelo_inurba_marseille","lat":43.33612,"lon":5.410321,"is_reserved":false,"is_disabled":false,"rental_uris":{"android":"levelo://app?vid=5ded7c3e-4538-4211-8e7f-85d8322a2d9d","ios":"levelo://app?vid=5ded7c3e-4538-4211-8e7f-85d8322a2d9d"},"vehicle_type_id":"4","last_reported":1690736698,"current_range_meters":31200,"station_id":"ce4bhqh2rcd13ifvqhmg","pricing_plan_id":"free"},{"bike_id":"ac286951-d76c-47ab-b555-1f13bd76cd30","system_id":"levelo_inurba_marseille","lat":43.336134,"lon":5.410341,"is_reserved":false,"is_disabled":false,"rental_uris":{"android":"levelo://app?vid=ac286951-d76c-47ab-b555-1f13bd76cd30","ios":"levelo://app?vid=ac286951-d76c-47ab-b555-1f13bd76cd30"},"vehicle_type_id":"4","last_reported":1690736698,"current_range_meters":19200,"station_id":"ce4bhqh2rcd13ifvqhmg","pricing_plan_id":"free"},{"bike_id":"43c7ce50-e380-41dd-aa01-7de647946f39","system_id":"levelo_inurba_marseille","lat":43.31722,"lon":5.42392,"is_reserved":false,"is_disabled":false,"rental_uris":{"android":"levelo://app?vid=43c7ce50-e380-41dd-aa01-7de647946f39","ios":"levelo://app?vid=43c7ce50-e380-41dd-aa01-7de647946f39"},"vehicle_type_id":"4","last_reported":1690736698,"current_range_meters":13200,"station_id":"ce4bhp92rcd13ifvqhbg","pricing_plan_id":"free"},{"bike_id":"eb098a7d-a877-46db-b003-7cf445c6a5bb","system_id":"levelo_inurba_marseille","lat":43.317121,"lon":5.423936,"is_reserved":false,"is_disabled":false,"rental_uris":{"android":"levelo://app?vid=eb098a7d-a877-46db-b003-7cf445c6a5bb","ios":"levelo://app?vid=eb098a7d-a877-46db-b003-7cf445c6a5bb"},"vehicle_type_id":"4","last_reported":1690736698,"current_range_meters":31200,"station_id":"ce4bhp92rcd13ifvqhbg","pricing_plan_id":"free"},{"bike_id":"c643885f-2a05-4fa0-b91d-35ad6a474d95","system_id":"levelo_inurba_marseille","lat":43.317121,"lon":5.423936,"is_reserved":false,"is_disabled":false,"rental_uris":{"android":"levelo://app?vid=c643885f-2a05-4fa0-b91d-35ad6a474d95","ios":"levelo://app?vid=c643885f-2a05-4fa0-b91d-35ad6a474d95"},"vehicle_type_id":"4","last_reported":1690736698,"current_range_meters":6000,"station_id":"ce4bhp92rcd13ifvqhbg","pricing_plan_id":"free"},{"bike_id":"dd27cd58-e614-4dbe-a374-8e3d0be345cb","system_id":"levelo_inurba_marseille","lat":43.317121,"lon":5.423936,"is_reserved":false,"is_disabled":false,"rental_uris":{"android":"levelo://app?vid=dd27cd58-e614-4dbe-a374-8e3d0be345cb","ios":"levelo://app?vid=dd27cd58-e614-4dbe-a374-8e3d0be345cb"},"vehicle_type_id":"4","last_reported":1690736698,"current_range_meters":31200,"station_id":"ce4bhp92rcd13ifvqhbg","pricing_plan_id":"free"},{"bike_id":"62418d0c-39c7-423b-9533-ef4d0b347d01","system_id":"levelo_inurba_marseille","lat":43.317121,"lon":5.423936,"is_reserved":false,"is_disabled":false,"rental_uris":{"android":"levelo://app?vid=62418d0c-39c7-423b-9533-ef4d0b347d01","ios":"levelo://app?vid=62418d0c-39c7-423b-9533-ef4d0b347d01"},"vehicle_type_id":"4","last_reported":1690736698,"current_range_meters":31200,"station_id":"ce4bhp92rcd13ifvqhbg","pricing_plan_id":"free"},{"bike_id":"7d098a68-7d4b-41fa-bc1e-4dd1cfce6dd2","system_id":"levelo_inurba_marseille","lat":43.317121,"lon":5.423936,"is_reserved":false,"is_disabled":false,"rental_uris":{"android":"levelo://app?vid=7d098a68-7d4b-41fa-bc1e-4dd1cfce6dd2","ios":"levelo://app?vid=7d098a68-7d4b-41fa-bc1e-4dd1cfce6dd2"},"vehicle_type_id":"4","last_reported":1690736698,"current_range_meters":31200,"station_id":"ce4bhp92rcd13ifvqhbg","pricing_plan_id":"free"},{"bike_id":"d3e2a09c-f903-47b2-bf78-aa8a7ca501bb","system_id":"levelo_inurba_marseille","lat":43.317121,"lon":5.423936,"is_reserved":false,"is_disabled":false,"rental_uris":{"android":"levelo://app?vid=d3e2a09c-f903-47b2-bf78-aa8a7ca501bb","ios":"levelo://app?vid=d3e2a09c-f903-47b2-bf78-aa8a7ca501bb"},"vehicle_type_id":"4","last_reported":1690736698,"current_range_meters":31600,"station_id":"ce4bhp92rcd13ifvqhbg","pricing_plan_id":"free"},{"bike_id":"5ce721e4-ed1a-4860-89e6-4a736700eb75","system_id":"levelo_inurba_marseille","lat":43.310785,"lon":5.424305,"is_reserved":false,"is_disabled":false,"rental_uris":{"android":"levelo://app?vid=5ce721e4-ed1a-4860-89e6-4a736700eb75","ios":"levelo://app?vid=5ce721e4-ed1a-4860-89e6-4a736700eb75"},"vehicle_type_id":"4","last_reported":1690736698,"current_range_meters":31200,"station_id":"ce4bhp92rcd13ifvqhag","pricing_plan_id":"free"},{"bike_id":"fe5d6467-1b05-46a7-8949-cb3a94d13230","system_id":"levelo_inurba_marseille","lat":43.310785,"lon":5.424305,"is_reserved":false,"is_disabled":false,"rental_uris":{"android":"levelo://app?vid=fe5d6467-1b05-46a7-8949-cb3a94d13230","ios":"levelo://app?vid=fe5d6467-1b05-46a7-8949-cb3a94d13230"},"vehicle_type_id":"4","last_reported":1690736698,"current_range_meters":26400,"station_id":"ce4bhp92rcd13ifvqhag","pricing_plan_id":"free"},{"bike_id":"1416199d-8f6b-41b4-b9a6-5a983d00b057","system_id":"levelo_inurba_marseille","lat":43.310785,"lon":5.424305,"is_reserved":false,"is_disabled":false,"rental_uris":{"android":"levelo://app?vid=1416199d-8f6b-41b4-b9a6-5a983d00b057","ios":"levelo://app?vid=1416199d-8f6b-41b4-b9a6-5a983d00b057"},"vehicle_type_id":"4","last_reported":1690736698,"current_range_meters":26400,"station_id":"ce4bhp92rcd13ifvqhag","pricing_plan_id":"free"},{"bike_id":"e53aed83-c0f4-4e20-a148-fb34729ce561","system_id":"levelo_inurba_marseille","lat":43.27608,"lon":5.39479,"is_reserved":false,"is_disabled":false,"rental_uris":{"android":"levelo://app?vid=e53aed83-c0f4-4e20-a148-fb34729ce561","ios":"levelo://app?vid=e53aed83-c0f4-4e20-a148-fb34729ce561"},"vehicle_type_id":"4","last_reported":1690736698,"current_range_meters":23600,"station_id":"","pricing_plan_id":"free"},{"bike_id":"4eb1c21a-7c62-4a68-9ada-c2575cb8f9a3","system_id":"levelo_inurba_marseille","lat":43.341373,"lon":5.409101,"is_reserved":false,"is_disabled":false,"rental_uris":{"android":"levelo://app?vid=4eb1c21a-7c62-4a68-9ada-c2575cb8f9a3","ios":"levelo://app?vid=4eb1c21a-7c62-4a68-9ada-c2575cb8f9a3"},"vehicle_type_id":"4","last_reported":1690736698,"current_range_meters":26800,"station_id":"","pricing_plan_id":"free"},{"bike_id":"6d98a089-8961-42e4-a6fa-7de81c6742c8","system_id":"levelo_inurba_marseille","lat":43.34143,"lon":5.40905,"is_reserved":false,"is_disabled":false,"rental_uris":{"android":"levelo://app?vid=6d98a089-8961-42e4-a6fa-7de81c6742c8","ios":"levelo://app?vid=6d98a089-8961-42e4-a6fa-7de81c6742c8"},"vehicle_type_id":"4","last_reported":1690736698,"current_range_meters":22400,"station_id":"ce4bhqh2rcd13ifvqhlg","pricing_plan_id":"free"},{"bike_id":"d7a9aee2-ab15-4766-b9ef-2d9ae48e963b","system_id":"levelo_inurba_marseille","lat":43.34145,"lon":5.40907,"is_reserved":false,"is_disabled":false,"rental_uris":{"android":"levelo://app?vid=d7a9aee2-ab15-4766-b9ef-2d9ae48e963b","ios":"levelo://app?vid=d7a9aee2-ab15-4766-b9ef-2d9ae48e963b"},"vehicle_type_id":"4","last_reported":1690736698,"current_range_meters":28000,"station_id":"ce4bhqh2rcd13ifvqhlg","pricing_plan_id":"free"},{"bike_id":"3265e17a-a7b4-45bc-b414-8897ff8ee4bb","system_id":"levelo_inurba_marseille","lat":43.273267,"lon":5.390739,"is_reserved":false,"is_disabled":false,"rental_uris":{"android":"levelo://app?vid=3265e17a-a7b4-45bc-b414-8897ff8ee4bb","ios":"levelo://app?vid=3265e17a-a7b4-45bc-b414-8897ff8ee4bb"},"vehicle_type_id":"4","last_reported":1690736698,"current_range_meters":29600,"station_id":"","pricing_plan_id":"free"},{"bike_id":"0ed3a11c-92c3-46e9-9d4a-814c95af0e42","system_id":"levelo_inurba_marseille","lat":43.274189,"lon":5.394184,"is_reserved":false,"is_disabled":false,"rental_uris":{"android":"levelo://app?vid=0ed3a11c-92c3-46e9-9d4a-814c95af0e42","ios":"levelo://app?vid=0ed3a11c-92c3-46e9-9d4a-814c95af0e42"},"vehicle_type_id":"4","last_reported":1690736698,"current_range_meters":2000,"station_id":"","pricing_plan_id":"free"},{"bike_id":"4d0b9c6e-cae4-41a6-be89-e70e7a256cdc","system_id":"levelo_inurba_marseille","lat":43.304177,"lon":5.425337,"is_reserved":false,"is_disabled":false,"rental_uris":{"android":"levelo://app?vid=4d0b9c6e-cae4-41a6-be89-e70e7a256cdc","ios":"levelo://app?vid=4d0b9c6e-cae4-41a6-be89-e70e7a256cdc"},"vehicle_type_id":"4","last_reported":1690736698,"current_range_meters":13200,"station_id":"ce4bhoh2rcd13ifvqh6g","pricing_plan_id":"free"},{"bike_id":"6a96c98d-df37-4406-a845-78a7e389d3cb","system_id":"levelo_inurba_marseille","lat":43.295613,"lon":5.422869,"is_reserved":false,"is_disabled":false,"rental_uris":{"android":"levelo://app?vid=6a96c98d-df37-4406-a845-78a7e389d3cb","ios":"levelo://app?vid=6a96c98d-df37-4406-a845-78a7e389d3cb"},"vehicle_type_id":"4","last_reported":1690736698,"current_range_meters":27200,"station_id":"ce4bhph2rcd13ifvqhdg","pricing_plan_id":"free"},{"bike_id":"019545f2-4c73-47e8-95a8-790fd5a71bbc","system_id":"levelo_inurba_marseille","lat":43.295604,"lon":5.422917,"is_reserved":false,"is_disabled":false,"rental_uris":{"android":"levelo://app?vid=019545f2-4c73-47e8-95a8-790fd5a71bbc","ios":"levelo://app?vid=019545f2-4c73-47e8-95a8-790fd5a71bbc"},"vehicle_type_id":"4","last_reported":1690736698,"current_range_meters":26800,"station_id":"ce4bhph2rcd13ifvqhdg","pricing_plan_id":"free"},{"bike_id":"098f8732-c971-46e5-aff7-dd03b719432d","system_id":"levelo_inurba_marseille","lat":43.29555,"lon":5.42297,"is_reserved":false,"is_disabled":false,"rental_uris":{"android":"levelo://app?vid=098f8732-c971-46e5-aff7-dd03b719432d","ios":"levelo://app?vid=098f8732-c971-46e5-aff7-dd03b719432d"},"vehicle_type_id":"4","last_reported":1690736698,"current_range_meters":2400,"station_id":"ce4bhph2rcd13ifvqhdg","pricing_plan_id":"free"},{"bike_id":"56da9aba-5d68-4b2c-8674-1ed9e2c04e2b","system_id":"levelo_inurba_marseille","lat":43.278128,"lon":5.407195,"is_reserved":false,"is_disabled":false,"rental_uris":{"android":"levelo://app?vid=56da9aba-5d68-4b2c-8674-1ed9e2c04e2b","ios":"levelo://app?vid=56da9aba-5d68-4b2c-8674-1ed9e2c04e2b"},"vehicle_type_id":"4","last_reported":1690736698,"current_range_meters":21600,"station_id":"ce4bhnh2rcd13ifvqgtg","pricing_plan_id":"free"},{"bike_id":"a997dcf8-0c4f-4b9c-93e8-cd6dff6f4f1e","system_id":"levelo_inurba_marseille","lat":43.278128,"lon":5.407195,"is_reserved":false,"is_disabled":false,"rental_uris":{"android":"levelo://app?vid=a997dcf8-0c4f-4b9c-93e8-cd6dff6f4f1e","ios":"levelo://app?vid=a997dcf8-0c4f-4b9c-93e8-cd6dff6f4f1e"},"vehicle_type_id":"4","last_reported":1690736698,"current_range_meters":20000,"station_id":"ce4bhnh2rcd13ifvqgtg","pricing_plan_id":"free"},{"bike_id":"7ca67f7f-791a-445f-a1f4-8087aa031e76","system_id":"levelo_inurba_marseille","lat":43.278128,"lon":5.407195,"is_reserved":false,"is_disabled":false,"rental_uris":{"android":"levelo://app?vid=7ca67f7f-791a-445f-a1f4-8087aa031e76","ios":"levelo://app?vid=7ca67f7f-791a-445f-a1f4-8087aa031e76"},"vehicle_type_id":"4","last_reported":1690736698,"current_range_meters":7600,"station_id":"ce4bhnh2rcd13ifvqgtg","pricing_plan_id":"free"},{"bike_id":"2a4824d1-a270-4ab4-9ebe-485685185c9a","system_id":"levelo_inurba_marseille","lat":43.26954,"lon":5.38626,"is_reserved":false,"is_disabled":false,"rental_uris":{"android":"levelo://app?vid=2a4824d1-a270-4ab4-9ebe-485685185c9a","ios":"levelo://app?vid=2a4824d1-a270-4ab4-9ebe-485685185c9a"},"vehicle_type_id":"4","last_reported":1690736698,"current_range_meters":17200,"station_id":"ce4bhh92rcd13ifvqfh0","pricing_plan_id":"free"},{"bike_id":"989d6843-495e-43d8-836e-08ba1fb1bcb5","system_id":"levelo_inurba_marseille","lat":43.26681,"lon":5.382694,"is_reserved":false,"is_disabled":false,"rental_uris":{"android":"levelo://app?vid=989d6843-495e-43d8-836e-08ba1fb1bcb5","ios":"levelo://app?vid=989d6843-495e-43d8-836e-08ba1fb1bcb5"},"vehicle_type_id":"4","last_reported":1690736698,"current_range_meters":24800,"station_id":"ce4bhg92rcd13ifvqf90","pricing_plan_id":"free"},{"bike_id":"d0b31931-06d6-4016-8dfb-1827d1e1e4dd","system_id":"levelo_inurba_marseille","lat":43.26684,"lon":5.38266,"is_reserved":false,"is_disabled":false,"rental_uris":{"android":"levelo://app?vid=d0b31931-06d6-4016-8dfb-1827d1e1e4dd","ios":"levelo://app?vid=d0b31931-06d6-4016-8dfb-1827d1e1e4dd"},"vehicle_type_id":"4","last_reported":1690736698,"current_range_meters":26400,"station_id":"ce4bhg92rcd13ifvqf90","pricing_plan_id":"free"},{"bike_id":"6cc8f26d-7d01-411e-bc12-9f987f6fe499","system_id":"levelo_inurba_marseille","lat":43.26681,"lon":5.382694,"is_reserved":false,"is_disabled":false,"rental_uris":{"android":"levelo://app?vid=6cc8f26d-7d01-411e-bc12-9f987f6fe499","ios":"levelo://app?vid=6cc8f26d-7d01-411e-bc12-9f987f6fe499"},"vehicle_type_id":"4","last_reported":1690736698,"current_range_meters":19600,"station_id":"ce4bhg92rcd13ifvqf90","pricing_plan_id":"free"},{"bike_id":"1b147adc-8b63-4722-b2ed-7b10390d3246","system_id":"levelo_inurba_marseille","lat":43.26681,"lon":5.38269,"is_reserved":false,"is_disabled":false,"rental_uris":{"android":"levelo://app?vid=1b147adc-8b63-4722-b2ed-7b10390d3246","ios":"levelo://app?vid=1b147adc-8b63-4722-b2ed-7b10390d3246"},"vehicle_type_id":"4","last_reported":1690736698,"current_range_meters":14400,"station_id":"ce4bhg92rcd13ifvqf90","pricing_plan_id":"free"},{"bike_id":"a414f1b2-9ae6-4ee4-a181-adb631173701","system_id":"levelo_inurba_marseille","lat":43.26681,"lon":5.382694,"is_reserved":false,"is_disabled":false,"rental_uris":{"android":"levelo://app?vid=a414f1b2-9ae6-4ee4-a181-adb631173701","ios":"levelo://app?vid=a414f1b2-9ae6-4ee4-a181-adb631173701"},"vehicle_type_id":"4","last_reported":1690736698,"current_range_meters":14000,"station_id":"ce4bhg92rcd13ifvqf90","pricing_plan_id":"free"},{"bike_id":"302ef8e1-b833-40e5-bbdc-527626a285fe","system_id":"levelo_inurba_marseille","lat":43.267989,"lon":5.393442,"is_reserved":false,"is_disabled":false,"rental_uris":{"android":"levelo://app?vid=302ef8e1-b833-40e5-bbdc-527626a285fe","ios":"levelo://app?vid=302ef8e1-b833-40e5-bbdc-527626a285fe"},"vehicle_type_id":"4","last_reported":1690736698,"current_range_meters":23600,"station_id":"ce4bhh12rcd13ifvqfg0","pricing_plan_id":"free"},{"bike_id":"836af361-a768-4c4b-8e81-3525392bda53","system_id":"levelo_inurba_marseille","lat":43.267966,"lon":5.393976,"is_reserved":false,"is_disabled":false,"rental_uris":{"android":"levelo://app?vid=836af361-a768-4c4b-8e81-3525392bda53","ios":"levelo://app?vid=836af361-a768-4c4b-8e81-3525392bda53"},