{"last_updated":1742566140,"ttl":60,"version":"2.2","data":{"bikes":[{"bike_id":"6b72cef8-0fff-457e-8639-d71661c4be26","system_id":"levelo_inurba_marseille","lat":43.31083,"lon":5.42431,"is_reserved":false,"is_disabled":false,"rental_uris":{"android":"levelo://app?vid=6b72cef8-0fff-457e-8639-d71661c4be26","ios":"levelo://app?vid=6b72cef8-0fff-457e-8639-d71661c4be26"},"vehicle_type_id":"4","last_reported":1742566140,"current_range_meters":2800,"station_id":"ce4bhp92rcd13ifvqhag","pricing_plan_id":"cebpf4jnsgd1na2vs0mg"},{"bike_id":"58efc4e1-3c23-450a-9231-a38190fd8b58","system_id":"levelo_inurba_marseille","lat":43.29901,"lon":5.38971,"is_reserved":false,"is_disabled":false,"rental_uris":{"android":"levelo://app?vid=58efc4e1-3c23-450a-9231-a38190fd8b58","ios":"levelo://app?vid=58efc4e1-3c23-450a-9231-a38190fd8b58"},"vehicle_type_id":"4","last_reported":1742566140,"current_range_meters":2800,"station_id":"","pricing_plan_id":"cebpf4jnsgd1na2vs0mg"},{"bike_id":"299a48d6-705f-4cdd-a570-03e79479607a","system_id":"levelo_inurba_marseille","lat":43.30425,"lon":5.39759,"is_reserved":false,"is_disabled":false,"rental_uris":{"android":"levelo://app?vid=299a48d6-705f-4cdd-a570-03e79479607a","ios":"levelo://app?vid=299a48d6-705f-4cdd-a570-03e79479607a"},"vehicle_type_id":"4","last_reported":1742566140,"current_range_meters":3200,"station_id":"ce4bgup2rcd13ifvqco0","pricing_plan_id":"cebpf4jnsgd1na2vs0mg"},{"bike_id":"a8b8dae1-87ef-4f8a-a2c8-fe9fd9bf0f77","system_id":"levelo_inurba_marseille","lat":43.2367,"lon":5.37757,"is_reserved":false,"is_disabled":false,"rental_uris":{"android":"levelo://app?vid=a8b8dae1-87ef-4f8a-a2c8-fe9fd9bf0f77","ios":"levelo://app?vid=a8b8dae1-87ef-4f8a-a2c8-fe9fd9bf0f77"},"vehicle_type_id":"4","last_reported":1742566140,"current_range_meters":3200,"station_id":"","pricing_plan_id":"cebpf4jnsgd1na2vs0mg"},{"bike_id":"da760e5b-de5d-45d0-aaa4-5711aa8b90e3","system_id":"levelo_inurba_marseille","lat":43.293762,"lon":5.378453,"is_reserved":false,"is_disabled":false,"rental_uris":{"android":"levelo://app?vid=da760e5b-de5d-45d0-aaa4-5711aa8b90e3","ios":"levelo://app?vid=da760e5b-de5d-45d0-aaa4-5711aa8b90e3"},"vehicle_type_id":"4","last_reported":1742566140,"current_range_meters":3200,"station_id":"ce4bgjh2rcd13ifvqbf0","pricing_plan_id":"cebpf4jnsgd1na2vs0mg"},{"bike_id":"615c7780-5730-467a-99b6-84a25461180d","system_id":"levelo_inurba_marseille","lat":43.28355,"lon":5.41354,"is_reserved":false,"is_disabled":false,"rental_uris":{"android":"levelo://app?vid=615c7780-5730-467a-99b6-84a25461180d","ios":"levelo://app?vid=615c7780-5730-467a-99b6-84a25461180d"},"vehicle_type_id":"4","last_reported":1742566140,"current_range_meters":3200,"station_id":"ce4bhnh2rcd13ifvqgug","pricing_plan_id":"cebpf4jnsgd1na2vs0mg"},{"bike_id":"0df0dd2c-a433-4812-9da3-54da14e3596c","system_id":"levelo_inurba_marseille","lat":43.30539,"lon":5.36715,"is_reserved":false,"is_disabled":false,"rental_uris":{"android":"levelo://app?vid=0df0dd2c-a433-4812-9da3-54da14e3596c","ios":"levelo://app?vid=0df0dd2c-a433-4812-9da3-54da14e3596c"},"vehicle_type_id":"4","last_reported":1742566140,"current_range_meters":3200,"station_id":"ce4bgrp2rcd13ifvqc9g","pricing_plan_id":"cebpf4jnsgd1na2vs0mg"},{"bike_id":"bd1e1cd6-07bd-4fcb-ba65-26479a9897a3","system_id":"levelo_inurba_marseille","lat":43.25119,"lon":5.40321,"is_reserved":false,"is_disabled":false,"rental_uris":{"android":"levelo://app?vid=bd1e1cd6-07bd-4fcb-ba65-26479a9897a3","ios":"levelo://app?vid=bd1e1cd6-07bd-4fcb-ba65-26479a9897a3"},"vehicle_type_id":"4","last_reported":1742566140,"current_range_meters":3200,"station_id":"ce4bhlh2rcd13ifvqgig","pricing_plan_id":"cebpf4jnsgd1na2vs0mg"},{"bike_id":"b599efb9-e599-4a9e-8634-36c6c4d23491","system_id":"levelo_inurba_marseille","lat":43.27567,"lon":5.38418,"is_reserved":false,"is_disabled":false,"rental_uris":{"android":"levelo://app?vid=b599efb9-e599-4a9e-8634-36c6c4d23491","ios":"levelo://app?vid=b599efb9-e599-4a9e-8634-36c6c4d23491"},"vehicle_type_id":"4","last_reported":1742566140,"current_range_meters":3200,"station_id":"ce4bhh92rcd13ifvqfi0","pricing_plan_id":"cebpf4jnsgd1na2vs0mg"},{"bike_id":"542510f2-4172-4045-84a0-15028f098680","system_id":"levelo_inurba_marseille","lat":43.29778,"lon":5.37109,"is_reserved":false,"is_disabled":false,"rental_uris":{"android":"levelo://app?vid=542510f2-4172-4045-84a0-15028f098680","ios":"levelo://app?vid=542510f2-4172-4045-84a0-15028f098680"},"vehicle_type_id":"4","last_reported":1742566140,"current_range_meters":2800,"station_id":"ce4bgop2rcd13ifvqc1g","pricing_plan_id":"cebpf4jnsgd1na2vs0mg"},{"bike_id":"0c75caed-8fc7-4a71-8288-d1febda71732","system_id":"levelo_inurba_marseille","lat":43.2586,"lon":5.399,"is_reserved":false,"is_disabled":false,"rental_uris":{"android":"levelo://app?vid=0c75caed-8fc7-4a71-8288-d1febda71732","ios":"levelo://app?vid=0c75caed-8fc7-4a71-8288-d1febda71732"},"vehicle_type_id":"4","last_reported":1742566140,"current_range_meters":3200,"station_id":"ce4bhl92rcd13ifvqghg","pricing_plan_id":"cebpf4jnsgd1na2vs0mg"},{"bike_id":"251f78c4-4989-405a-a773-c23e66161563","system_id":"levelo_inurba_marseille","lat":43.29263,"lon":5.3845,"is_reserved":false,"is_disabled":false,"rental_uris":{"android":"levelo://app?vid=251f78c4-4989-405a-a773-c23e66161563","ios":"levelo://app?vid=251f78c4-4989-405a-a773-c23e66161563"},"vehicle_type_id":"4","last_reported":1742566140,"current_range_meters":2800,"station_id":"ce4bh692rcd13ifvqea0","pricing_plan_id":"cebpf4jnsgd1na2vs0mg"},{"bike_id":"0d87581c-e8a1-4ddc-bbdb-cc51556eba17","system_id":"levelo_inurba_marseille","lat":43.33595,"lon":5.41029,"is_reserved":false,"is_disabled":false,"rental_uris":{"android":"levelo://app?vid=0d87581c-e8a1-4ddc-bbdb-cc51556eba17","ios":"levelo://app?vid=0d87581c-e8a1-4ddc-bbdb-cc51556eba17"},"vehicle_type_id":"4","last_reported":1742566140,"current_range_meters":3600,"station_id":"ce4bhqh2rcd13ifvqhmg","pricing_plan_id":"cebpf4jnsgd1na2vs0mg"},{"bike_id":"8204b3c3-ec7f-4852-b4e7-7c4bf71dcb31","system_id":"levelo_inurba_marseille","lat":43.2902,"lon":5.38651,"is_reserved":false,"is_disabled":false,"rental_uris":{"android":"levelo://app?vid=8204b3c3-ec7f-4852-b4e7-7c4bf71dcb31","ios":"levelo://app?vid=8204b3c3-ec7f-4852-b4e7-7c4bf71dcb31"},"vehicle_type_id":"4","last_reported":1742566140,"current_range_meters":3600,"station_id":"ce4bh4p2rcd13ifvqe0g","pricing_plan_id":"cebpf4jnsgd1na2vs0mg"},{"bike_id":"df47777d-5eb1-43ae-aa28-90b7945b0fcc","system_id":"levelo_inurba_marseille","lat":43.29715,"lon":5.37723,"is_reserved":false,"is_disabled":false,"rental_uris":{"android":"levelo://app?vid=df47777d-5eb1-43ae-aa28-90b7945b0fcc","ios":"levelo://app?vid=df47777d-5eb1-43ae-aa28-90b7945b0fcc"},"vehicle_type_id":"4","last_reported":1742566140,"current_range_meters":3600,"station_id":"ce4bgkh2rcd13ifvqbl0","pricing_plan_id":"cebpf4jnsgd1na2vs0mg"},{"bike_id":"ae6f4620-49c3-47eb-8a42-d26e3a43d3bc","system_id":"levelo_inurba_marseille","lat":43.29271,"lon":5.36854,"is_reserved":false,"is_disabled":false,"rental_uris":{"android":"levelo://app?vid=ae6f4620-49c3-47eb-8a42-d26e3a43d3bc","ios":"levelo://app?vid=ae6f4620-49c3-47eb-8a42-d26e3a43d3bc"},"vehicle_type_id":"4","last_reported":1742566140,"current_range_meters":3600,"station_id":"ce4bhbp2rcd13ifvqesg","pricing_plan_id":"cebpf4jnsgd1na2vs0mg"},{"bike_id":"5fa43231-e63c-4e20-9b69-e53f24eed317","system_id":"levelo_inurba_marseille","lat":43.2464,"lon":5.38898,"is_reserved":false,"is_disabled":false,"rental_uris":{"android":"levelo://app?vid=5fa43231-e63c-4e20-9b69-e53f24eed317","ios":"levelo://app?vid=5fa43231-e63c-4e20-9b69-e53f24eed317"},"vehicle_type_id":"4","last_reported":1742566140,"current_range_meters":2000,"station_id":"ce4bhg12rcd13ifvqf60","pricing_plan_id":"cebpf4jnsgd1na2vs0mg"},{"bike_id":"66833db3-0764-4f8e-9f72-bc230cf28b94","system_id":"levelo_inurba_marseille","lat":43.28138,"lon":5.42651,"is_reserved":false,"is_disabled":true,"rental_uris":{"android":"levelo://app?vid=66833db3-0764-4f8e-9f72-bc230cf28b94","ios":"levelo://app?vid=66833db3-0764-4f8e-9f72-bc230cf28b94"},"vehicle_type_id":"4","last_reported":1742566140,"current_range_meters":4000,"station_id":"ce4bhnh2rcd13ifvqgug","pricing_plan_id":"cebpf4jnsgd1na2vs0mg"},{"bike_id":"8a81bae1-0571-411e-94c6-b14650765ec6","system_id":"levelo_inurba_marseille","lat":43.29005,"lon":5.35615,"is_reserved":false,"is_disabled":false,"rental_uris":{"android":"levelo://app?vid=8a81bae1-0571-411e-94c6-b14650765ec6","ios":"levelo://app?vid=8a81bae1-0571-411e-94c6-b14650765ec6"},"vehicle_type_id":"4","last_reported":1742566140,"current_range_meters":3600,"station_id":"ce4bhb92rcd13ifvqen0","pricing_plan_id":"cebpf4jnsgd1na2vs0mg"},{"bike_id":"6443415c-cfe1-4bd2-9beb-3c9a3713d865","system_id":"levelo_inurba_marseille","lat":43.33603,"lon":5.41023,"is_reserved":false,"is_disabled":false,"rental_uris":{"android":"levelo://app?vid=6443415c-cfe1-4bd2-9beb-3c9a3713d865","ios":"levelo://app?vid=6443415c-cfe1-4bd2-9beb-3c9a3713d865"},"vehicle_type_id":"4","last_reported":1742566140,"current_range_meters":4400,"station_id":"ce4bhqh2rcd13ifvqhmg","pricing_plan_id":"cebpf4jnsgd1na2vs0mg"},{"bike_id":"96ed452b-2ccb-47b7-a8f9-d4f42ae8042b","system_id":"levelo_inurba_marseille","lat":43.33027,"lon":5.39057,"is_reserved":false,"is_disabled":false,"rental_uris":{"android":"levelo://app?vid=96ed452b-2ccb-47b7-a8f9-d4f42ae8042b","ios":"levelo://app?vid=96ed452b-2ccb-47b7-a8f9-d4f42ae8042b"},"vehicle_type_id":"4","last_reported":1742566140,"current_range_meters":4400,"station_id":"ce4bhr92rcd13ifvqhrg","pricing_plan_id":"cebpf4jnsgd1na2vs0mg"},{"bike_id":"b7cb5254-714f-4321-b117-bbfbc89e7cd9","system_id":"levelo_inurba_marseille","lat":43.28698,"lon":5.39991,"is_reserved":false,"is_disabled":false,"rental_uris":{"android":"levelo://app?vid=b7cb5254-714f-4321-b117-bbfbc89e7cd9","ios":"levelo://app?vid=b7cb5254-714f-4321-b117-bbfbc89e7cd9"},"vehicle_type_id":"4","last_reported":1742566140,"current_range_meters":4400,"station_id":"ce4bho92rcd13ifvqh3g","pricing_plan_id":"cebpf4jnsgd1na2vs0mg"},{"bike_id":"4a29a711-e2e4-41ca-a83c-08f18b223276","system_id":"levelo_inurba_marseille","lat":43.23919,"lon":5.3671,"is_reserved":false,"is_disabled":false,"rental_uris":{"android":"levelo://app?vid=4a29a711-e2e4-41ca-a83c-08f18b223276","ios":"levelo://app?vid=4a29a711-e2e4-41ca-a83c-08f18b223276"},"vehicle_type_id":"4","last_reported":1742566140,"current_range_meters":4400,"station_id":"ce4bhi12rcd13ifvqfp0","pricing_plan_id":"cebpf4jnsgd1na2vs0mg"},{"bike_id":"5d28bce7-ab1a-4e8b-ae70-12e427a81793","system_id":"levelo_inurba_marseille","lat":43.24135,"lon":5.36469,"is_reserved":false,"is_disabled":false,"rental_uris":{"android":"levelo://app?vid=5d28bce7-ab1a-4e8b-ae70-12e427a81793","ios":"levelo://app?vid=5d28bce7-ab1a-4e8b-ae70-12e427a81793"},"vehicle_type_id":"4","last_reported":1742566140,"current_range_meters":4400,"station_id":"","pricing_plan_id":"cebpf4jnsgd1na2vs0mg"},{"bike_id":"c98b04d8-d56f-4c6d-ab03-430196439255","system_id":"levelo_inurba_marseille","lat":43.292713,"lon":5.368498,"is_reserved":false,"is_disabled":false,"rental_uris":{"android":"levelo://app?vid=c98b04d8-d56f-4c6d-ab03-430196439255","ios":"levelo://app?vid=c98b04d8-d56f-4c6d-ab03-430196439255"},"vehicle_type_id":"4","last_reported":1742566140,"current_range_meters":4400,"station_id":"ce4bhch2rcd13ifvqeug","pricing_plan_id":"cebpf4jnsgd1na2vs0mg"},{"bike_id":"86e49977-a614-485e-a043-4b7e36732a23","system_id":"levelo_inurba_marseille","lat":43.29447,"lon":5.38659,"is_reserved":false,"is_disabled":false,"rental_uris":{"android":"levelo://app?vid=86e49977-a614-485e-a043-4b7e36732a23","ios":"levelo://app?vid=86e49977-a614-485e-a043-4b7e36732a23"},"vehicle_type_id":"4","last_reported":1742566140,"current_range_meters":4800,"station_id":"ce4bh2h2rcd13ifvqdh0","pricing_plan_id":"cebpf4jnsgd1na2vs0mg"},{"bike_id":"1dba7d11-aa8b-424c-a49e-cca2ab6fa1b3","system_id":"levelo_inurba_marseille","lat":43.30609,"lon":5.36532,"is_reserved":false,"is_disabled":false,"rental_uris":{"android":"levelo://app?vid=1dba7d11-aa8b-424c-a49e-cca2ab6fa1b3","ios":"levelo://app?vid=1dba7d11-aa8b-424c-a49e-cca2ab6fa1b3"},"vehicle_type_id":"4","last_reported":1742566140,"current_range_meters":4800,"station_id":"","pricing_plan_id":"cebpf4jnsgd1na2vs0mg"},{"bike_id":"aebe2f4f-31c4-4dca-921d-bcef3bdf1b59","system_id":"levelo_inurba_marseille","lat":43.29798,"lon":5.38093,"is_reserved":false,"is_disabled":false,"rental_uris":{"android":"levelo://app?vid=aebe2f4f-31c4-4dca-921d-bcef3bdf1b59","ios":"levelo://app?vid=aebe2f4f-31c4-4dca-921d-bcef3bdf1b59"},"vehicle_type_id":"4","last_reported":1742566140,"current_range_meters":5600,"station_id":"ce4bgip2rcd13ifvqbb0","pricing_plan_id":"cebpf4jnsgd1na2vs0mg"},{"bike_id":"0d8f66dc-5e30-476f-81a8-1ca73af0ec7a","system_id":"levelo_inurba_marseille","lat":43.28709,"lon":5.39969,"is_reserved":false,"is_disabled":false,"rental_uris":{"android":"levelo://app?vid=0d8f66dc-5e30-476f-81a8-1ca73af0ec7a","ios":"levelo://app?vid=0d8f66dc-5e30-476f-81a8-1ca73af0ec7a"},"vehicle_type_id":"4","last_reported":1742566140,"current_range_meters":5600,"station_id":"ce4bho92rcd13ifvqh3g","pricing_plan_id":"cebpf4jnsgd1na2vs0mg"},{"bike_id":"5db7e32d-78c2-4ac8-92ff-d7bbb53bf2cf","system_id":"levelo_inurba_marseille","lat":43.29025,"lon":5.38644,"is_reserved":false,"is_disabled":false,"rental_uris":{"android":"levelo://app?vid=5db7e32d-78c2-4ac8-92ff-d7bbb53bf2cf","ios":"levelo://app?vid=5db7e32d-78c2-4ac8-92ff-d7bbb53bf2cf"},"vehicle_type_id":"4","last_reported":1742566140,"current_range_meters":5600,"station_id":"ce4bh4p2rcd13ifvqe0g","pricing_plan_id":"cebpf4jnsgd1na2vs0mg"},{"bike_id":"38fa863a-91a2-44eb-b718-19af02253b65","system_id":"levelo_inurba_marseille","lat":43.26955,"lon":5.4027,"is_reserved":false,"is_disabled":true,"rental_uris":{"android":"levelo://app?vid=38fa863a-91a2-44eb-b718-19af02253b65","ios":"levelo://app?vid=38fa863a-91a2-44eb-b718-19af02253b65"},"vehicle_type_id":"4","last_reported":1742566140,"current_range_meters":5600,"station_id":"cjm6bp8fraef2m0cb0m0","pricing_plan_id":"cebpf4jnsgd1na2vs0mg"},{"bike_id":"222168b0-03f5-4dcb-a0ce-192f88979f6e","system_id":"levelo_inurba_marseille","lat":43.30917,"lon":5.3717,"is_reserved":false,"is_disabled":false,"rental_uris":{"android":"levelo://app?vid=222168b0-03f5-4dcb-a0ce-192f88979f6e","ios":"levelo://app?vid=222168b0-03f5-4dcb-a0ce-192f88979f6e"},"vehicle_type_id":"4","last_reported":1742566140,"current_range_meters":5600,"station_id":"","pricing_plan_id":"cebpf4jnsgd1na2vs0mg"},{"bike_id":"e2d44c57-a27d-483b-ad06-7050d944e5ad","system_id":"levelo_inurba_marseille","lat":43.2695,"lon":5.38637,"is_reserved":false,"is_disabled":false,"rental_uris":{"android":"levelo://app?vid=e2d44c57-a27d-483b-ad06-7050d944e5ad","ios":"levelo://app?vid=e2d44c57-a27d-483b-ad06-7050d944e5ad"},"vehicle_type_id":"4","last_reported":1742566140,"current_range_meters":5600,"station_id":"ce4bhh92rcd13ifvqfh0","pricing_plan_id":"cebpf4jnsgd1na2vs0mg"},{"bike_id":"5c39c436-8b99-4f8c-9957-0fc388e52af5","system_id":"levelo_inurba_marseille","lat":43.24077,"lon":5.37759,"is_reserved":false,"is_disabled":false,"rental_uris":{"android":"levelo://app?vid=5c39c436-8b99-4f8c-9957-0fc388e52af5","ios":"levelo://app?vid=5c39c436-8b99-4f8c-9957-0fc388e52af5"},"vehicle_type_id":"4","last_reported":1742566140,"current_range_meters":6000,"station_id":"ce4bhnp2rcd13ifvqgvg","pricing_plan_id":"cebpf4jnsgd1na2vs0mg"},{"bike_id":"9b2a4ae1-45d2-42a7-b1d8-970226b193d0","system_id":"levelo_inurba_marseille","lat":43.24174,"lon":5.39702,"is_reserved":false,"is_disabled":false,"rental_uris":{"android":"levelo://app?vid=9b2a4ae1-45d2-42a7-b1d8-970226b193d0","ios":"levelo://app?vid=9b2a4ae1-45d2-42a7-b1d8-970226b193d0"},"vehicle_type_id":"4","last_reported":1742566140,"current_range_meters":6000,"station_id":"ce4bhn12rcd13ifvqgpg","pricing_plan_id":"cebpf4jnsgd1na2vs0mg"},{"bike_id":"a31b6ca5-f78a-40a0-a9e9-5202a2be7028","system_id":"levelo_inurba_marseille","lat":43.29313,"lon":5.3718,"is_reserved":false,"is_disabled":false,"rental_uris":{"android":"levelo://app?vid=a31b6ca5-f78a-40a0-a9e9-5202a2be7028","ios":"levelo://app?vid=a31b6ca5-f78a-40a0-a9e9-5202a2be7028"},"vehicle_type_id":"4","last_reported":1742566140,"current_range_meters":6000,"station_id":"ce4bgh92rcd13ifvqb40","pricing_plan_id":"cebpf4jnsgd1na2vs0mg"},{"bike_id":"a478dfd0-da78-4af4-a547-99090fdab649","system_id":"levelo_inurba_marseille","lat":43.26808,"lon":5.40274,"is_reserved":false,"is_disabled":false,"rental_uris":{"android":"levelo://app?vid=a478dfd0-da78-4af4-a547-99090fdab649","ios":"levelo://app?vid=a478dfd0-da78-4af4-a547-99090fdab649"},"vehicle_type_id":"4","last_reported":1742566140,"current_range_meters":6000,"station_id":"ce501612rcd8frsf0b60","pricing_plan_id":"cebpf4jnsgd1na2vs0mg"},{"bike_id":"d7645557-54c5-44ed-8c44-41e433a350da","system_id":"levelo_inurba_marseille","lat":43.29476,"lon":5.35569,"is_reserved":false,"is_disabled":false,"rental_uris":{"android":"levelo://app?vid=d7645557-54c5-44ed-8c44-41e433a350da","ios":"levelo://app?vid=d7645557-54c5-44ed-8c44-41e433a350da"},"vehicle_type_id":"4","last_reported":1742566140,"current_range_meters":6000,"station_id":"","pricing_plan_id":"cebpf4jnsgd1na2vs0mg"},{"bike_id":"61a64012-b827-4c78-adce-f143f8e3487a","system_id":"levelo_inurba_marseille","lat":43.28638,"lon":5.38589,"is_reserved":false,"is_disabled":false,"rental_uris":{"android":"levelo://app?vid=61a64012-b827-4c78-adce-f143f8e3487a","ios":"levelo://app?vid=61a64012-b827-4c78-adce-f143f8e3487a"},"vehicle_type_id":"4","last_reported":1742566140,"current_range_meters":6000,"station_id":"ce4bh3h2rcd13ifvqdo0","pricing_plan_id":"cebpf4jnsgd1na2vs0mg"},{"bike_id":"63e25349-5f30-48de-b4a8-310f738b85c1","system_id":"levelo_inurba_marseille","lat":43.26962,"lon":5.38625,"is_reserved":false,"is_disabled":false,"rental_uris":{"android":"levelo://app?vid=63e25349-5f30-48de-b4a8-310f738b85c1","ios":"levelo://app?vid=63e25349-5f30-48de-b4a8-310f738b85c1"},"vehicle_type_id":"4","last_reported":1742566140,"current_range_meters":6400,"station_id":"ce4bhh92rcd13ifvqfh0","pricing_plan_id":"cebpf4jnsgd1na2vs0mg"},{"bike_id":"1e1f26fd-329e-4e5a-8c8f-94e98e79acf2","system_id":"levelo_inurba_marseille","lat":43.33595,"lon":5.4096,"is_reserved":false,"is_disabled":false,"rental_uris":{"android":"levelo://app?vid=1e1f26fd-329e-4e5a-8c8f-94e98e79acf2","ios":"levelo://app?vid=1e1f26fd-329e-4e5a-8c8f-94e98e79acf2"},"vehicle_type_id":"4","last_reported":1742566140,"current_range_meters":6400,"station_id":"","pricing_plan_id":"cebpf4jnsgd1na2vs0mg"},{"bike_id":"55fa2a44-d431-4e50-89c2-85db5397281d","system_id":"levelo_inurba_marseille","lat":43.2979,"lon":5.3811,"is_reserved":false,"is_disabled":false,"rental_uris":{"android":"levelo://app?vid=55fa2a44-d431-4e50-89c2-85db5397281d","ios":"levelo://app?vid=55fa2a44-d431-4e50-89c2-85db5397281d"},"vehicle_type_id":"4","last_reported":1742566140,"current_range_meters":6400,"station_id":"ce4bgip2rcd13ifvqbb0","pricing_plan_id":"cebpf4jnsgd1na2vs0mg"},{"bike_id":"68631f2b-3dc3-494d-ab4f-d52d9934b696","system_id":"levelo_inurba_marseille","lat":43.294224,"lon":5.386221,"is_reserved":false,"is_disabled":false,"rental_uris":{"android":"levelo://app?vid=68631f2b-3dc3-494d-ab4f-d52d9934b696","ios":"levelo://app?vid=68631f2b-3dc3-494d-ab4f-d52d9934b696"},"vehicle_type_id":"4","last_reported":1742566140,"current_range_meters":4000,"station_id":"ce4bh2h2rcd13ifvqdh0","pricing_plan_id":"cebpf4jnsgd1na2vs0mg"},{"bike_id":"4da38abe-63fe-44a7-abd3-4bad6629a678","system_id":"levelo_inurba_marseille","lat":43.29673,"lon":5.37343,"is_reserved":false,"is_disabled":false,"rental_uris":{"android":"levelo://app?vid=4da38abe-63fe-44a7-abd3-4bad6629a678","ios":"levelo://app?vid=4da38abe-63fe-44a7-abd3-4bad6629a678"},"vehicle_type_id":"4","last_reported":1742566140,"current_range_meters":6400,"station_id":"ce4bgk12rcd13ifvqbj0","pricing_plan_id":"cebpf4jnsgd1na2vs0mg"},{"bike_id":"ee6af3b9-ca45-4d2f-9b3f-d7795e2825d5","system_id":"levelo_inurba_marseille","lat":43.29007,"lon":5.38154,"is_reserved":false,"is_disabled":false,"rental_uris":{"android":"levelo://app?vid=ee6af3b9-ca45-4d2f-9b3f-d7795e2825d5","ios":"levelo://app?vid=ee6af3b9-ca45-4d2f-9b3f-d7795e2825d5"},"vehicle_type_id":"4","last_reported":1742566140,"current_range_meters":6400,"station_id":"ce4bh4p2rcd13ifvqe1g","pricing_plan_id":"cebpf4jnsgd1na2vs0mg"},{"bike_id":"a1d4474e-dc54-4e96-8359-81b099ba1a93","system_id":"levelo_inurba_marseille","lat":43.23191,"lon":5.3999,"is_reserved":false,"is_disabled":false,"rental_uris":{"android":"levelo://app?vid=a1d4474e-dc54-4e96-8359-81b099ba1a93","ios":"levelo://app?vid=a1d4474e-dc54-4e96-8359-81b099ba1a93"},"vehicle_type_id":"4","last_reported":1742566140,"current_range_meters":6800,"station_id":"ce4bhn12rcd13ifvqgqg","pricing_plan_id":"cebpf4jnsgd1na2vs0mg"},{"bike_id":"b266faba-4e26-4c50-b078-a54d17773ddd","system_id":"levelo_inurba_marseille","lat":43.24549,"lon":5.39524,"is_reserved":false,"is_disabled":false,"rental_uris":{"android":"levelo://app?vid=b266faba-4e26-4c50-b078-a54d17773ddd","ios":"levelo://app?vid=b266faba-4e26-4c50-b078-a54d17773ddd"},"vehicle_type_id":"4","last_reported":1742566140,"current_range_meters":6800,"station_id":"ce4bhlp2rcd13ifvqgjg","pricing_plan_id":"cebpf4jnsgd1na2vs0mg"},{"bike_id":"a0deeb6c-62a7-4efb-834c-1bec837aaba6","system_id":"levelo_inurba_marseille","lat":43.33676,"lon":5.37886,"is_reserved":false,"is_disabled":false,"rental_uris":{"android":"levelo://app?vid=a0deeb6c-62a7-4efb-834c-1bec837aaba6","ios":"levelo://app?vid=a0deeb6c-62a7-4efb-834c-1bec837aaba6"},"vehicle_type_id":"4","last_reported":1742566140,"current_range_meters":6800,"station_id":"","pricing_plan_id":"cebpf4jnsgd1na2vs0mg"},{"bike_id":"ffbee1c9-ab8d-45ee-b606-c546ab78c5f2","system_id":"levelo_inurba_marseille","lat":43.29734,"lon":5.37793,"is_reserved":false,"is_disabled":false,"rental_uris":{"android":"levelo://app?vid=ffbee1c9-ab8d-45ee-b606-c546ab78c5f2","ios":"levelo://app?vid=ffbee1c9-ab8d-45ee-b606-c546ab78c5f2"},"vehicle_type_id":"4","last_reported":1742566140,"current_range_meters":6800,"station_id":"","pricing_plan_id":"cebpf4jnsgd1na2vs0mg"},{"bike_id":"b9e4bdd0-024c-4547-9a94-39d0c7923642","system_id":"levelo_inurba_marseille","lat":43.24169,"lon":5.3642,"is_reserved":false,"is_disabled":false,"rental_uris":{"android":"levelo://app?vid=b9e4bdd0-024c-4547-9a94-39d0c7923642","ios":"levelo://app?vid=b9e4bdd0-024c-4547-9a94-39d0c7923642"},"vehicle_type_id":"4","last_reported":1742566140,"current_range_meters":6800,"station_id":"cpo36qri1sfpv3e86is0","pricing_plan_id":"cebpf4jnsgd1na2vs0mg"},{"bike_id":"399b43de-a5c1-4bc6-9061-e12f52a9da37","system_id":"levelo_inurba_marseille","lat":43.26561,"lon":5.37292,"is_reserved":false,"is_disabled":false,"rental_uris":{"android":"levelo://app?vid=399b43de-a5c1-4bc6-9061-e12f52a9da37","ios":"levelo://app?vid=399b43de-a5c1-4bc6-9061-e12f52a9da37"},"vehicle_type_id":"4","last_reported":1742566140,"current_range_meters":6800,"station_id":"ce4bhg12rcd13ifvqf70","pricing_plan_id":"cebpf4jnsgd1na2vs0mg"},{"bike_id":"c5bb5dca-1dc9-450e-9a3d-9fa737cf345d","system_id":"levelo_inurba_marseille","lat":43.24643,"lon":5.389,"is_reserved":false,"is_disabled":false,"rental_uris":{"android":"levelo://app?vid=c5bb5dca-1dc9-450e-9a3d-9fa737cf345d","ios":"levelo://app?vid=c5bb5dca-1dc9-450e-9a3d-9fa737cf345d"},"vehicle_type_id":"4","last_reported":1742566140,"current_range_meters":6800,"station_id":"ce4bhg12rcd13ifvqf60","pricing_plan_id":"cebpf4jnsgd1na2vs0mg"},{"bike_id":"85dd3e30-ba4f-46a8-8bea-69d52899ec96","system_id":"levelo_inurba_marseille","lat":43.28978,"lon":5.37843,"is_reserved":false,"is_disabled":false,"rental_uris":{"android":"levelo://app?vid=85dd3e30-ba4f-46a8-8bea-69d52899ec96","ios":"levelo://app?vid=85dd3e30-ba4f-46a8-8bea-69d52899ec96"},"vehicle_type_id":"4","last_reported":1742566140,"current_range_meters":7200,"station_id":"ce4bh9p2rcd13ifvqed0","pricing_plan_id":"cebpf4jnsgd1na2vs0mg"},{"bike_id":"74ca8f8e-770f-4c39-9bcc-04d356dfc1fe","system_id":"levelo_inurba_marseille","lat":43.3249,"lon":5.36577,"is_reserved":false,"is_disabled":false,"rental_uris":{"android":"levelo://app?vid=74ca8f8e-770f-4c39-9bcc-04d356dfc1fe","ios":"levelo://app?vid=74ca8f8e-770f-4c39-9bcc-04d356dfc1fe"},"vehicle_type_id":"4","last_reported":1742566140,"current_range_meters":7200,"station_id":"ce4bhs12rcd13ifvqhvg","pricing_plan_id":"cebpf4jnsgd1na2vs0mg"},{"bike_id":"c5e10383-3159-4ef8-b4e3-7bdf322fb72c","system_id":"levelo_inurba_marseille","lat":43.27215,"lon":5.39184,"is_reserved":false,"is_disabled":false,"rental_uris":{"android":"levelo://app?vid=c5e10383-3159-4ef8-b4e3-7bdf322fb72c","ios":"levelo://app?vid=c5e10383-3159-4ef8-b4e3-7bdf322fb72c"},"vehicle_type_id":"4","last_reported":1742566140,"current_range_meters":6800,"station_id":"ce4bhhp2rcd13ifvqfm0","pricing_plan_id":"cebpf4jnsgd1na2vs0mg"},{"bike_id":"15de172c-7ef5-46d5-8915-d40cd1faffce","system_id":"levelo_inurba_marseille","lat":43.29749,"lon":5.37681,"is_reserved":false,"is_disabled":false,"rental_uris":{"android":"levelo://app?vid=15de172c-7ef5-46d5-8915-d40cd1faffce","ios":"levelo://app?vid=15de172c-7ef5-46d5-8915-d40cd1faffce"},"vehicle_type_id":"4","last_reported":1742566140,"current_range_meters":7200,"station_id":"ce4bgkh2rcd13ifvqbl0","pricing_plan_id":"cebpf4jnsgd1na2vs0mg"},{"bike_id":"424d8ecd-73ec-4070-a240-50510fe35e6e","system_id":"levelo_inurba_marseille","lat":43.27939,"lon":5.41045,"is_reserved":false,"is_disabled":false,"rental_uris":{"android":"levelo://app?vid=424d8ecd-73ec-4070-a240-50510fe35e6e","ios":"levelo://app?vid=424d8ecd-73ec-4070-a240-50510fe35e6e"},"vehicle_type_id":"4","last_reported":1742566140,"current_range_meters":7200,"station_id":"ce4bhnp2rcd13ifvqh0g","pricing_plan_id":"cebpf4jnsgd1na2vs0mg"},{"bike_id":"8dc1b302-61fd-4a33-93c6-dea89d53ae5e","system_id":"levelo_inurba_marseille","lat":43.29282,"lon":5.38448,"is_reserved":false,"is_disabled":false,"rental_uris":{"android":"levelo://app?vid=8dc1b302-61fd-4a33-93c6-dea89d53ae5e","ios":"levelo://app?vid=8dc1b302-61fd-4a33-93c6-dea89d53ae5e"},"vehicle_type_id":"4","last_reported":1742566140,"current_range_meters":7200,"station_id":"ce4bh692rcd13ifvqea0","pricing_plan_id":"cebpf4jnsgd1na2vs0mg"},{"bike_id":"8c9fa4ba-3022-472d-a524-2b34aef0abf8","system_id":"levelo_inurba_marseille","lat":43.29997,"lon":5.37183,"is_reserved":false,"is_disabled":true,"rental_uris":{"android":"levelo://app?vid=8c9fa4ba-3022-472d-a524-2b34aef0abf8","ios":"levelo://app?vid=8c9fa4ba-3022-472d-a524-2b34aef0abf8"},"vehicle_type_id":"4","last_reported":1742566140,"current_range_meters":8000,"station_id":"ce4bgr92rcd13ifvqc7g","pricing_plan_id":"cebpf4jnsgd1na2vs0mg"},{"bike_id":"298094ff-1b8f-403e-b315-5326030acb86","system_id":"levelo_inurba_marseille","lat":43.28158,"lon":5.42651,"is_reserved":false,"is_disabled":false,"rental_uris":{"android":"levelo://app?vid=298094ff-1b8f-403e-b315-5326030acb86","ios":"levelo://app?vid=298094ff-1b8f-403e-b315-5326030acb86"},"vehicle_type_id":"4","last_reported":1742566140,"current_range_meters":8000,"station_id":"ce4bhnh2rcd13ifvqgug","pricing_plan_id":"cebpf4jnsgd1na2vs0mg"},{"bike_id":"af0dd9ac-7466-4151-a052-abde29cf9b49","system_id":"levelo_inurba_marseille","lat":43.23195,"lon":5.35564,"is_reserved":false,"is_disabled":false,"rental_uris":{"android":"levelo://app?vid=af0dd9ac-7466-4151-a052-abde29cf9b49","ios":"levelo://app?vid=af0dd9ac-7466-4151-a052-abde29cf9b49"},"vehicle_type_id":"4","last_reported":1742566140,"current_range_meters":8000,"station_id":"ce4bhu92rcd13ifvqi70","pricing_plan_id":"cebpf4jnsgd1na2vs0mg"},{"bike_id":"ae7ccab0-edf1-4080-b2ad-63fedfc4ba94","system_id":"levelo_inurba_marseille","lat":43.29096,"lon":5.38137,"is_reserved":false,"is_disabled":false,"rental_uris":{"android":"levelo://app?vid=ae7ccab0-edf1-4080-b2ad-63fedfc4ba94","ios":"levelo://app?vid=ae7ccab0-edf1-4080-b2ad-63fedfc4ba94"},"vehicle_type_id":"4","last_reported":1742566140,"current_range_meters":8000,"station_id":"ce4bh512rcd13ifvqe2g","pricing_plan_id":"cebpf4jnsgd1na2vs0mg"},{"bike_id":"88a837d6-3963-47dc-9ba3-f0a03f29e488","system_id":"levelo_inurba_marseille","lat":43.29042,"lon":5.37565,"is_reserved":false,"is_disabled":false,"rental_uris":{"android":"levelo://app?vid=88a837d6-3963-47dc-9ba3-f0a03f29e488","ios":"levelo://app?vid=88a837d6-3963-47dc-9ba3-f0a03f29e488"},"vehicle_type_id":"4","last_reported":1742566140,"current_range_meters":8000,"station_id":"ce4bh692rcd13ifvqe90","pricing_plan_id":"cebpf4jnsgd1na2vs0mg"},{"bike_id":"93b5e82d-dfcd-43aa-9016-b65939dc0e40","system_id":"levelo_inurba_marseille","lat":43.26943,"lon":5.38634,"is_reserved":false,"is_disabled":false,"rental_uris":{"android":"levelo://app?vid=93b5e82d-dfcd-43aa-9016-b65939dc0e40","ios":"levelo://app?vid=93b5e82d-dfcd-43aa-9016-b65939dc0e40"},"vehicle_type_id":"4","last_reported":1742566140,"current_range_meters":8000,"station_id":"ce4bhh92rcd13ifvqfh0","pricing_plan_id":"cebpf4jnsgd1na2vs0mg"},{"bike_id":"1650c152-e083-415c-b118-5516ca869cbf","system_id":"levelo_inurba_marseille","lat":43.2695,"lon":5.38638,"is_reserved":false,"is_disabled":false,"rental_uris":{"android":"levelo://app?vid=1650c152-e083-415c-b118-5516ca869cbf","ios":"levelo://app?vid=1650c152-e083-415c-b118-5516ca869cbf"},"vehicle_type_id":"4","last_reported":1742566140,"current_range_meters":8000,"station_id":"ce4bhh92rcd13ifvqfh0","pricing_plan_id":"cebpf4jnsgd1na2vs0mg"},{"bike_id":"3b2de7cb-9144-440a-87b6-b68a439ef438","system_id":"levelo_inurba_marseille","lat":43.26223,"lon":5.40448,"is_reserved":false,"is_disabled":false,"rental_uris":{"android":"levelo://app?vid=3b2de7cb-9144-440a-87b6-b68a439ef438","ios":"levelo://app?vid=3b2de7cb-9144-440a-87b6-b68a439ef438"},"vehicle_type_id":"4","last_reported":1742566140,"current_range_meters":8000,"station_id":"ce4bhmh2rcd13ifvqgmg","pricing_plan_id":"cebpf4jnsgd1na2vs0mg"},{"bike_id":"d15c630a-acc1-4278-b4d1-feb375d3df70","system_id":"levelo_inurba_marseille","lat":43.30464,"lon":5.37917,"is_reserved":false,"is_disabled":false,"rental_uris":{"android":"levelo://app?vid=d15c630a-acc1-4278-b4d1-feb375d3df70","ios":"levelo://app?vid=d15c630a-acc1-4278-b4d1-feb375d3df70"},"vehicle_type_id":"4","last_reported":1742566140,"current_range_meters":8000,"station_id":"ce4bgup2rcd13ifvqcn0","pricing_plan_id":"cebpf4jnsgd1na2vs0mg"},{"bike_id":"1d8daad7-9bb4-40dd-adfc-e589f483368c","system_id":"levelo_inurba_marseille","lat":43.25818,"lon":5.39443,"is_reserved":false,"is_disabled":false,"rental_uris":{"android":"levelo://app?vid=1d8daad7-9bb4-40dd-adfc-e589f483368c","ios":"levelo://app?vid=1d8daad7-9bb4-40dd-adfc-e589f483368c"},"vehicle_type_id":"4","last_reported":1742566140,"current_range_meters":8400,"station_id":"ce4bhip2rcd13ifvqft0","pricing_plan_id":"cebpf4jnsgd1na2vs0mg"},{"bike_id":"62bf2f5c-9819-4816-afad-4a268d7a76b8","system_id":"levelo_inurba_marseille","lat":43.2416,"lon":5.36423,"is_reserved":false,"is_disabled":false,"rental_uris":{"android":"levelo://app?vid=62bf2f5c-9819-4816-afad-4a268d7a76b8","ios":"levelo://app?vid=62bf2f5c-9819-4816-afad-4a268d7a76b8"},"vehicle_type_id":"4","last_reported":1742566140,"current_range_meters":8400,"station_id":"cpo36qri1sfpv3e86is0","pricing_plan_id":"cebpf4jnsgd1na2vs0mg"},{"bike_id":"e5c14285-2e1d-41d9-bab9-ae38b8ffec63","system_id":"levelo_inurba_marseille","lat":43.33592,"lon":5.40978,"is_reserved":false,"is_disabled":false,"rental_uris":{"android":"levelo://app?vid=e5c14285-2e1d-41d9-bab9-ae38b8ffec63","ios":"levelo://app?vid=e5c14285-2e1d-41d9-bab9-ae38b8ffec63"},"vehicle_type_id":"4","last_reported":1742566140,"current_range_meters":8400,"station_id":"","pricing_plan_id":"cebpf4jnsgd1na2vs0mg"},{"bike_id":"be38586b-e5dc-4232-ab17-bdf14f9705ea","system_id":"levelo_inurba_marseille","lat":43.28149,"lon":5.4264,"is_reserved":false,"is_disabled":false,"rental_uris":{"android":"levelo://app?vid=be38586b-e5dc-4232-ab17-bdf14f9705ea","ios":"levelo://app?vid=be38586b-e5dc-4232-ab17-bdf14f9705ea"},"vehicle_type_id":"4","last_reported":1742566140,"current_range_meters":8400,"station_id":"ce4bhnh2rcd13ifvqgug","pricing_plan_id":"cebpf4jnsgd1na2vs0mg"},{"bike_id":"8c5afa24-d4d7-43ca-aee6-50493a1cd92e","system_id":"levelo_inurba_marseille","lat":43.25116,"lon":5.40318,"is_reserved":false,"is_disabled":false,"rental_uris":{"android":"levelo://app?vid=8c5afa24-d4d7-43ca-aee6-50493a1cd92e","ios":"levelo://app?vid=8c5afa24-d4d7-43ca-aee6-50493a1cd92e"},"vehicle_type_id":"4","last_reported":1742566140,"current_range_meters":8400,"station_id":"ce4bhlh2rcd13ifvqgig","pricing_plan_id":"cebpf4jnsgd1na2vs0mg"},{"bike_id":"d6449a8a-8cb9-436e-8467-42213de18c90","system_id":"levelo_inurba_marseille","lat":43.25578,"lon":5.38251,"is_reserved":false,"is_disabled":false,"rental_uris":{"android":"levelo://app?vid=d6449a8a-8cb9-436e-8467-42213de18c90","ios":"levelo://app?vid=d6449a8a-8cb9-436e-8467-42213de18c90"},"vehicle_type_id":"4","last_reported":1742566140,"current_range_meters":8400,"station_id":"ce4bhih2rcd13ifvqfs0","pricing_plan_id":"cebpf4jnsgd1na2vs0mg"},{"bike_id":"037dbfe4-6d41-4ed0-a07d-0521a0c84e5d","system_id":"levelo_inurba_marseille","lat":43.26217,"lon":5.37452,"is_reserved":false,"is_disabled":false,"rental_uris":{"android":"levelo://app?vid=037dbfe4-6d41-4ed0-a07d-0521a0c84e5d","ios":"levelo://app?vid=037dbfe4-6d41-4ed0-a07d-0521a0c84e5d"},"vehicle_type_id":"4","last_reported":1742566140,"current_range_meters":8400,"station_id":"ce4bhgp2rcd13ifvqfc0","pricing_plan_id":"cebpf4jnsgd1na2vs0mg"},{"bike_id":"7132fe37-532d-4931-a1c6-ff1b7197fea6","system_id":"levelo_inurba_marseille","lat":43.31277,"lon":5.40176,"is_reserved":false,"is_disabled":false,"rental_uris":{"android":"levelo://app?vid=7132fe37-532d-4931-a1c6-ff1b7197fea6","ios":"levelo://app?vid=7132fe37-532d-4931-a1c6-ff1b7197fea6"},"vehicle_type_id":"4","last_reported":1742566140,"current_range_meters":8000,"station_id":"ce4bh092rcd13ifvqd30","pricing_plan_id":"cebpf4jnsgd1na2vs0mg"},{"bike_id":"fa6bf643-7f3f-4368-af0e-a810dda90f64","system_id":"levelo_inurba_marseille","lat":43.30471,"lon":5.37917,"is_reserved":false,"is_disabled":false,"rental_uris":{"android":"levelo://app?vid=fa6bf643-7f3f-4368-af0e-a810dda90f64","ios":"levelo://app?vid=fa6bf643-7f3f-4368-af0e-a810dda90f64"},"vehicle_type_id":"4","last_reported":1742566140,"current_range_meters":8400,"station_id":"ce4bgup2rcd13ifvqcn0","pricing_plan_id":"cebpf4jnsgd1na2vs0mg"},{"bike_id":"5166928c-0f2a-4f74-957f-c0960206af59","system_id":"levelo_inurba_marseille","lat":43.26946,"lon":5.38634,"is_reserved":false,"is_disabled":false,"rental_uris":{"android":"levelo://app?vid=5166928c-0f2a-4f74-957f-c0960206af59","ios":"levelo://app?vid=5166928c-0f2a-4f74-957f-c0960206af59"},"vehicle_type_id":"4","last_reported":1742566140,"current_range_meters":8400,"station_id":"ce4bhh92rcd13ifvqfh0","pricing_plan_id":"cebpf4jnsgd1na2vs0mg"},{"bike_id":"2d86cf0c-8220-4a0c-a77e-5b4210ae7f59","system_id":"levelo_inurba_marseille","lat":43.30477,"lon":5.37116,"is_reserved":false,"is_disabled":false,"rental_uris":{"android":"levelo://app?vid=2d86cf0c-8220-4a0c-a77e-5b4210ae7f59","ios":"levelo://app?vid=2d86cf0c-8220-4a0c-a77e-5b4210ae7f59"},"vehicle_type_id":"4","last_reported":1742566140,"current_range_meters":8400,"station_id":"","pricing_plan_id":"cebpf4jnsgd1na2vs0mg"},{"bike_id":"1c3b5361-695c-4ccc-94f9-aca7f37b6d45","system_id":"levelo_inurba_marseille","lat":43.23191,"lon":5.35556,"is_reserved":false,"is_disabled":false,"rental_uris":{"android":"levelo://app?vid=1c3b5361-695c-4ccc-94f9-aca7f37b6d45","ios":"levelo://app?vid=1c3b5361-695c-4ccc-94f9-aca7f37b6d45"},"vehicle_type_id":"4","last_reported":1742566140,"current_range_meters":8800,"station_id":"ce4bhu92rcd13ifvqi70","pricing_plan_id":"cebpf4jnsgd1na2vs0mg"},{"bike_id":"3ca2b3ac-85d1-47c0-947c-209c4761986e","system_id":"levelo_inurba_marseille","lat":43.33601,"lon":5.41033,"is_reserved":false,"is_disabled":false,"rental_uris":{"android":"levelo://app?vid=3ca2b3ac-85d1-47c0-947c-209c4761986e","ios":"levelo://app?vid=3ca2b3ac-85d1-47c0-947c-209c4761986e"},"vehicle_type_id":"4","last_reported":1742566140,"current_range_meters":8800,"station_id":"ce4bhqh2rcd13ifvqhmg","pricing_plan_id":"cebpf4jnsgd1na2vs0mg"},{"bike_id":"502eb119-ee82-471e-b396-89a832cd315a","system_id":"levelo_inurba_marseille","lat":43.32484,"lon":5.36569,"is_reserved":false,"is_disabled":false,"rental_uris":{"android":"levelo://app?vid=502eb119-ee82-471e-b396-89a832cd315a","ios":"levelo://app?vid=502eb119-ee82-471e-b396-89a832cd315a"},"vehicle_type_id":"4","last_reported":1742566140,"current_range_meters":8800,"station_id":"ce4bhs12rcd13ifvqhvg","pricing_plan_id":"cebpf4jnsgd1na2vs0mg"},{"bike_id":"2678929a-312d-4089-b116-1e816de7db90","system_id":"levelo_inurba_marseille","lat":43.3212,"lon":5.36789,"is_reserved":false,"is_disabled":false,"rental_uris":{"android":"levelo://app?vid=2678929a-312d-4089-b116-1e816de7db90","ios":"levelo://app?vid=2678929a-312d-4089-b116-1e816de7db90"},"vehicle_type_id":"4","last_reported":1742566140,"current_range_meters":8800,"station_id":"ce4bhrh2rcd13ifvqhug","pricing_plan_id":"cebpf4jnsgd1na2vs0mg"},{"bike_id":"3c62e9a0-1c83-4436-99ae-82be99992c09","system_id":"levelo_inurba_marseille","lat":43.28935,"lon":5.36654,"is_reserved":false,"is_disabled":false,"rental_uris":{"android":"levelo://app?vid=3c62e9a0-1c83-4436-99ae-82be99992c09","ios":"levelo://app?vid=3c62e9a0-1c83-4436-99ae-82be99992c09"},"vehicle_type_id":"4","last_reported":1742566140,"current_range_meters":8400,"station_id":"ce4bhap2rcd13ifvqek0","pricing_plan_id":"cebpf4jnsgd1na2vs0mg"},{"bike_id":"824ae0a9-219f-438b-a770-efa974c53599","system_id":"levelo_inurba_marseille","lat":43.30784,"lon":5.37652,"is_reserved":false,"is_disabled":false,"rental_uris":{"android":"levelo://app?vid=824ae0a9-219f-438b-a770-efa974c53599","ios":"levelo://app?vid=824ae0a9-219f-438b-a770-efa974c53599"},"vehicle_type_id":"4","last_reported":1742566140,"current_range_meters":8800,"station_id":"ce4bgv92rcd13ifvqcq0","pricing_plan_id":"cebpf4jnsgd1na2vs0mg"},{"bike_id":"802bbfc6-7af5-461e-8c70-2c8e733c57d2","system_id":"levelo_inurba_marseille","lat":43.28567,"lon":5.39503,"is_reserved":false,"is_disabled":false,"rental_uris":{"android":"levelo://app?vid=802bbfc6-7af5-461e-8c70-2c8e733c57d2","ios":"levelo://app?vid=802bbfc6-7af5-461e-8c70-2c8e733c57d2"},"vehicle_type_id":"4","last_reported":1742566140,"current_range_meters":8800,"station_id":"ce4bh292rcd13ifvqdg0","pricing_plan_id":"cebpf4jnsgd1na2vs0mg"},{"bike_id":"de7aaa02-3b60-49f4-a682-49c15491ee51","system_id":"levelo_inurba_marseille","lat":43.29775,"lon":5.38081,"is_reserved":false,"is_disabled":false,"rental_uris":{"android":"levelo://app?vid=de7aaa02-3b60-49f4-a682-49c15491ee51","ios":"levelo://app?vid=de7aaa02-3b60-49f4-a682-49c15491ee51"},"vehicle_type_id":"4","last_reported":1742566140,"current_range_meters":8400,"station_id":"ce4bgip2rcd13ifvqbb0","pricing_plan_id":"cebpf4jnsgd1na2vs0mg"},{"bike_id":"5d860e28-9a5f-40d7-8892-2e56a6ebdb2a","system_id":"levelo_inurba_marseille","lat":43.31493,"lon":5.37306,"is_reserved":false,"is_disabled":false,"rental_uris":{"android":"levelo://app?vid=5d860e28-9a5f-40d7-8892-2e56a6ebdb2a","ios":"levelo://app?vid=5d860e28-9a5f-40d7-8892-2e56a6ebdb2a"},"vehicle_type_id":"4","last_reported":1742566140,"current_range_meters":9200,"station_id":"ce4bgt12rcd13ifvqcd0","pricing_plan_id":"cebpf4jnsgd1na2vs0mg"},{"bike_id":"8589b4c9-e9a8-4c1c-9cfc-e90441eb126f","system_id":"levelo_inurba_marseille","lat":43.32047,"lon":5.41561,"is_reserved":false,"is_disabled":false,"rental_uris":{"android":"levelo://app?vid=8589b4c9-e9a8-4c1c-9cfc-e90441eb126f","ios":"levelo://app?vid=8589b4c9-e9a8-4c1c-9cfc-e90441eb126f"},"vehicle_type_id":"4","last_reported":1742566140,"current_range_meters":8800,"station_id":"ce4bhq92rcd13ifvqhkg","pricing_plan_id":"cebpf4jnsgd1na2vs0mg"},{"bike_id":"16e5b431-0396-4711-b5e8-b9b447d955e6","system_id":"levelo_inurba_marseille","lat":43.27056,"lon":5.40286,"is_reserved":false,"is_disabled":false,"rental_uris":{"android":"levelo://app?vid=16e5b431-0396-4711-b5e8-b9b447d955e6","ios":"levelo://app?vid=16e5b431-0396-4711-b5e8-b9b447d955e6"},"vehicle_type_id":"4","last_reported":1742566140,"current_range_meters":9200,"station_id":"ce4bhk92rcd13ifvqgc0","pricing_plan_id":"cebpf4jnsgd1na2vs0mg"},{"bike_id":"c7f0b1a9-d1cb-4001-8f4e-99b174944710","system_id":"levelo_inurba_marseille","lat":43.26574,"lon":5.38986,"is_reserved":false,"is_disabled":false,"rental_uris":{"android":"levelo://app?vid=c7f0b1a9-d1cb-4001-8f4e-99b174944710","ios":"levelo://app?vid=c7f0b1a9-d1cb-4001-8f4e-99b174944710"},"vehicle_type_id":"4","last_reported":1742566140,"current_range_meters":9200,"station_id":"ce4bhe12rcd13ifvqf30","pricing_plan_id":"cebpf4jnsgd1na2vs0mg"},{"bike_id":"a67c54b6-5ce9-4632-8070-5ca7d5b7fc9e","system_id":"levelo_inurba_marseille","lat":43.23061,"lon":5.35479,"is_reserved":false,"is_disabled":false,"rental_uris":{"android":"levelo://app?vid=a67c54b6-5ce9-4632-8070-5ca7d5b7fc9e","ios":"levelo://app?vid=a67c54b6-5ce9-4632-8070-5ca7d5b7fc9e"},"vehicle_type_id":"4","last_reported":1742566140,"current_range_meters":9200,"station_id":"cpo3342slgdg3j2ifvpg","pricing_plan_id":"cebpf4jnsgd1na2vs0mg"},{"bike_id":"f589539d-d63d-45fb-bd41-4fe66d427517","system_id":"levelo_inurba_marseille","lat":43.31076,"lon":5.38369,"is_reserved":false,"is_disabled":false,"rental_uris":{"android":"levelo://app?vid=f589539d-d63d-45fb-bd41-4fe66d427517","ios":"levelo://app?vid=f589539d-d63d-45fb-bd41-4fe66d427517"},"vehicle_type_id":"4","last_reported":1742566140,"current_range_meters":9200,"station_id":"ce4bgv92rcd13ifvqcr0","pricing_plan_id":"cebpf4jnsgd1na2vs0mg"},{"bike_id":"dbc150b5-7f63-4e9e-bc09-f1f56a4c6451","system_id":"levelo_inurba_marseille","lat":43.30146,"lon":5.3809,"is_reserved":false,"is_disabled":false,"rental_uris":{"android":"levelo://app?vid=dbc150b5-7f63-4e9e-bc09-f1f56a4c6451","ios":"levelo://app?vid=dbc150b5-7f63-4e9e-bc09-f1f56a4c6451"},"vehicle_type_id":"4","last_reported":1742566140,"current_range_meters":9200,"station_id":"ce4bgjp2rcd13ifvqbh0","pricing_plan_id":"cebpf4jnsgd1na2vs0mg"},{"bike_id":"dc8b2e9e-0613-4c45-973e-bdf9f41dd0a0","system_id":"levelo_inurba_marseille","lat":43.26206,"lon":5.37925,"is_reserved":false,"is_disabled":false,"rental_uris":{"android":"levelo://app?vid=dc8b2e9e-0613-4c45-973e-bdf9f41dd0a0","ios":"levelo://app?vid=dc8b2e9e-0613-4c45-973e-bdf9f41dd0a0"},"vehicle_type_id":"4","last_reported":1742566140,"current_range_meters":9200,"station_id":"ce4bhjp2rcd13ifvqg90","pricing_plan_id":"cebpf4jnsgd1na2vs0mg"},{"bike_id":"ed8b45ee-cf5e-4434-b1e4-681baa596d82","system_id":"levelo_inurba_marseille","lat":43.27316,"lon":5.39079,"is_reserved":false,"is_disabled":false,"rental_uris":{"android":"levelo://app?vid=ed8b45ee-cf5e-4434-b1e4-681baa596d82","ios":"levelo://app?vid=ed8b45ee-cf5e-4434-b1e4-681baa596d82"},"vehicle_type_id":"4","last_reported":1742566140,"current_range_meters":9200,"station_id":"ce4bhgp2rcd13ifvqfe0","pricing_plan_id":"cebpf4jnsgd1na2vs0mg"},{"bike_id":"3f7a1a84-ad9f-44ba-90b6-a3cf84293948","system_id":"levelo_inurba_marseille","lat":43.26931,"lon":5.38925,"is_reserved":false,"is_disabled":false,"rental_uris":{"android":"levelo://app?vid=3f7a1a84-ad9f-44ba-90b6-a3cf84293948","ios":"levelo://app?vid=3f7a1a84-ad9f-44ba-90b6-a3cf84293948"},"vehicle_type_id":"4","last_reported":1742566140,"current_range_meters":9600,"station_id":"ce4bhhh2rcd13ifvqfl0","pricing_plan_id":"cebpf4jnsgd1na2vs0mg"},{"bike_id":"019f9a07-79ef-4e83-b033-32955beed218","system_id":"levelo_inurba_marseille","lat":43.30839,"lon":5.37925,"is_reserved":false,"is_disabled":false,"rental_uris":{"android":"levelo://app?vid=019f9a07-79ef-4e83-b033-32955beed218","ios":"levelo://app?vid=019f9a07-79ef-4e83-b033-32955beed218"},"vehicle_type_id":"4","last_reported":1742566140,"current_range_meters":8000,"station_id":"","pricing_plan_id":"cebpf4jnsgd1na2vs0mg"},{"bike_id":"acd83a82-4624-4f24-8f56-7735b60f9537","system_id":"levelo_inurba_marseille","lat":43.33021,"lon":5.3904,"is_reserved":false,"is_disabled":false,"rental_uris":{"android":"levelo://app?vid=acd83a82-4624-4f24-8f56-7735b60f9537","ios":"levelo://app?vid=acd83a82-4624-4f24-8f56-7735b60f9537"},"vehicle_type_id":"4","last_reported":1742566140,"current_range_meters":9200,"station_id":"ce4bhr92rcd13ifvqhrg","pricing_plan_id":"cebpf4jnsgd1na2vs0mg"},{"bike_id":"9fcb3f14-f368-4f79-aa70-01b27150c36b","system_id":"levelo_inurba_marseille","lat":43.30634,"lon":5.37242,"is_reserved":false,"is_disabled":false,"rental_uris":{"android":"levelo://app?vid=9fcb3f14-f368-4f79-aa70-01b27150c36b","ios":"levelo://app?vid=9fcb3f14-f368-4f79-aa70-01b27150c36b"},"vehicle_type_id":"4","last_reported":1742566140,"current_range_meters":9600,"station_id":"ce4bgqh2rcd13ifvqc4g","pricing_plan_id":"cebpf4jnsgd1na2vs0mg"},{"bike_id":"fd63a192-a2ae-4c1d-aa3f-4b573664d6e9","system_id":"levelo_inurba_marseille","lat":43.31311,"lon":5.36754,"is_reserved":false,"is_disabled":false,"rental_uris":{"android":"levelo://app?vid=fd63a192-a2ae-4c1d-aa3f-4b573664d6e9","ios":"levelo://app?vid=fd63a192-a2ae-4c1d-aa3f-4b573664d6e9"},"vehicle_type_id":"4","last_reported":1742566140,"current_range_meters":9600,"station_id":"ce4bgr92rcd13ifvqc6g","pricing_plan_id":"cebpf4jnsgd1na2vs0mg"},{"bike_id":"bf5d7bdb-65a8-4310-b955-6a76e2cbd7fe","system_id":"levelo_inurba_marseille","lat":43.3374,"lon":5.39176,"is_reserved":false,"is_disabled":false,"rental_uris":{"android":"levelo://app?vid=bf5d7bdb-65a8-4310-b955-6a76e2cbd7fe","ios":"levelo://app?vid=bf5d7bdb-65a8-4310-b955-6a76e2cbd7fe"},"vehicle_type_id":"4","last_reported":1742566140,"current_range_meters":9600,"station_id":"ce4bhr92rcd13ifvqhsg","pricing_plan_id":"cebpf4jnsgd1na2vs0mg"},{"bike_id":"849ed778-563c-4385-b3a0-222c5dbfd0d6","system_id":"levelo_inurba_marseille","lat":43.25939,"lon":5.40897,"is_reserved":false,"is_disabled":false,"rental_uris":{"android":"levelo://app?vid=849ed778-563c-4385-b3a0-222c5dbfd0d6","ios":"levelo://app?vid=849ed778-563c-4385-b3a0-222c5dbfd0d6"},"vehicle_type_id":"4","last_reported":1742566140,"current_range_meters":9600,"station_id":"ce4bhm92rcd13ifvqglg","pricing_plan_id":"cebpf4jnsgd1na2vs0mg"},{"bike_id":"b455f7c8-a93c-4839-8d3a-6ed05f2edb8b","system_id":"levelo_inurba_marseille","lat":43.25869,"lon":5.39903,"is_reserved":false,"is_disabled":false,"rental_uris":{"android":"levelo://app?vid=b455f7c8-a93c-4839-8d3a-6ed05f2edb8b","ios":"levelo://app?vid=b455f7c8-a93c-4839-8d3a-6ed05f2edb8b"},"vehicle_type_id":"4","last_reported":1742566140,"current_range_meters":9200,"station_id":"ce4bhl92rcd13ifvqghg","pricing_plan_id":"cebpf4jnsgd1na2vs0mg"},{"bike_id":"3a260712-d654-4076-bb8e-2d2c938680e2","system_id":"levelo_inurba_marseille","lat":43.33619,"lon":5.40981,"is_reserved":false,"is_disabled":false,"rental_uris":{"android":"levelo://app?vid=3a260712-d654-4076-bb8e-2d2c938680e2","ios":"levelo://app?vid=3a260712-d654-4076-bb8e-2d2c938680e2"},"vehicle_type_id":"4","last_reported":1742566140,"current_range_meters":9600,"station_id":"ce4bhqh2rcd13ifvqhmg","pricing_plan_id":"cebpf4jnsgd1na2vs0mg"},{"bike_id":"823d2d12-d9ed-432b-b6d3-84f520737d92","system_id":"levelo_inurba_marseille","lat":43.28853,"lon":5.35861,"is_reserved":false,"is_disabled":false,"rental_uris":{"android":"levelo://app?vid=823d2d12-d9ed-432b-b6d3-84f520737d92","ios":"levelo://app?vid=823d2d12-d9ed-432b-b6d3-84f520737d92"},"vehicle_type_id":"4","last_reported":1742566140,"current_range_meters":9600,"station_id":"ce4bhb12rcd13ifvqem0","pricing_plan_id":"cebpf4jnsgd1na2vs0mg"},{"bike_id":"16292ea6-7c2e-42d0-a1fe-b4023b834968","system_id":"levelo_inurba_marseille","lat":43.31477,"lon":5.37312,"is_reserved":false,"is_disabled":false,"rental_uris":{"android":"levelo://app?vid=16292ea6-7c2e-42d0-a1fe-b4023b834968","ios":"levelo://app?vid=16292ea6-7c2e-42d0-a1fe-b4023b834968"},"vehicle_type_id":"4","last_reported":1742566140,"current_range_meters":9600,"station_id":"ce4bgt12rcd13ifvqcd0","pricing_plan_id":"cebpf4jnsgd1na2vs0mg"},{"bike_id":"c331ab74-4c15-45e6-b8ae-7ad16d317099","system_id":"levelo_inurba_marseille","lat":43.29273,"lon":5.38455,"is_reserved":false,"is_disabled":false,"rental_uris":{"android":"levelo://app?vid=c331ab74-4c15-45e6-b8ae-7ad16d317099","ios":"levelo://app?vid=c331ab74-4c15-45e6-b8ae-7ad16d317099"},"vehicle_type_id":"4","last_reported":1742566140,"current_range_meters":9600,"station_id":"ce4bh692rcd13ifvqea0","pricing_plan_id":"cebpf4jnsgd1na2vs0mg"},{"bike_id":"899ab87e-4ea4-40e5-9304-e09f83aad3d0","system_id":"levelo_inurba_marseille","lat":43.23962,"lon":5.36662,"is_reserved":false,"is_disabled":false,"rental_uris":{"android":"levelo://app?vid=899ab87e-4ea4-40e5-9304-e09f83aad3d0","ios":"levelo://app?vid=899ab87e-4ea4-40e5-9304-e09f83aad3d0"},"vehicle_type_id":"4","last_reported":1742566140,"current_range_meters":10000,"station_id":"ce4bhi12rcd13ifvqfp0","pricing_plan_id":"cebpf4jnsgd1na2vs0mg"},{"bike_id":"188abe0d-844d-4369-bba3-32ac4249fe25","system_id":"levelo_inurba_marseille","lat":43.25958,"lon":5.40909,"is_reserved":false,"is_disabled":false,"rental_uris":{"android":"levelo://app?vid=188abe0d-844d-4369-bba3-32ac4249fe25","ios":"levelo://app?vid=188abe0d-844d-4369-bba3-32ac4249fe25"},"vehicle_type_id":"4","last_reported":1742566140,"current_range_meters":10000,"station_id":"ce4bhm92rcd13ifvqglg","pricing_plan_id":"cebpf4jnsgd1na2vs0mg"},{"bike_id":"1323d2cd-c4e0-4783-b4f1-4daaeb41faef","system_id":"levelo_inurba_marseille","lat":43.23962,"lon":5.36622,"is_reserved":false,"is_disabled":false,"rental_uris":{"android":"levelo://app?vid=1323d2cd-c4e0-4783-b4f1-4daaeb41faef","ios":"levelo://app?vid=1323d2cd-c4e0-4783-b4f1-4daaeb41faef"},"vehicle_type_id":"4","last_reported":1742566140,"current_range_meters":10000,"station_id":"ce4bhi12rcd13ifvqfp0","pricing_plan_id":"cebpf4jnsgd1na2vs0mg"},{"bike_id":"20e2be53-78ac-4b24-8dad-96b43d72add2","system_id":"levelo_inurba_marseille","lat":43.31079,"lon":5.38359,"is_reserved":false,"is_disabled":false,"rental_uris":{"android":"levelo://app?vid=20e2be53-78ac-4b24-8dad-96b43d72add2","ios":"levelo://app?vid=20e2be53-78ac-4b24-8dad-96b43d72add2"},"vehicle_type_id":"4","last_reported":1742566140,"current_range_meters":10000,"station_id":"ce4bgv92rcd13ifvqcr0","pricing_plan_id":"cebpf4jnsgd1na2vs0mg"},{"bike_id":"cfa103ca-d756-4b81-b845-bf6aeb4e2e1c","system_id":"levelo_inurba_marseille","lat":43.29799,"lon":5.38083,"is_reserved":false,"is_disabled":false,"rental_uris":{"android":"levelo://app?vid=cfa103ca-d756-4b81-b845-bf6aeb4e2e1c","ios":"levelo://app?vid=cfa103ca-d756-4b81-b845-bf6aeb4e2e1c"},"vehicle_type_id":"4","last_reported":1742566140,"current_range_meters":10000,"station_id":"ce4bgip2rcd13ifvqbb0","pricing_plan_id":"cebpf4jnsgd1na2vs0mg"},{"bike_id":"986bc6b3-2404-4a9e-af36-9765f879b692","system_id":"levelo_inurba_marseille","lat":43.30204,"lon":5.3949,"is_reserved":false,"is_disabled":false,"rental_uris":{"android":"levelo://app?vid=986bc6b3-2404-4a9e-af36-9765f879b692","ios":"levelo://app?vid=986bc6b3-2404-4a9e-af36-9765f879b692"},"vehicle_type_id":"4","last_reported":1742566140,"current_range_meters":10000,"station_id":"ce4bh0p2rcd13ifvqd70","pricing_plan_id":"cebpf4jnsgd1na2vs0mg"},{"bike_id":"975632a0-28ed-4821-be90-bad3f93aba6c","system_id":"levelo_inurba_marseille","lat":43.2717,"lon":5.40996,"is_reserved":false,"is_disabled":false,"rental_uris":{"android":"levelo://app?vid=975632a0-28ed-4821-be90-bad3f93aba6c","ios":"levelo://app?vid=975632a0-28ed-4821-be90-bad3f93aba6c"},"vehicle_type_id":"4","last_reported":1742566140,"current_range_meters":10000,"station_id":"ce4bhl12rcd13ifvqgf0","pricing_plan_id":"cebpf4jnsgd1na2vs0mg"},{"bike_id":"e6d737ec-f186-4ff7-a6bd-2e9968f2f8f1","system_id":"levelo_inurba_marseille","lat":43.27917,"lon":5.39584,"is_reserved":false,"is_disabled":false,"rental_uris":{"android":"levelo://app?vid=e6d737ec-f186-4ff7-a6bd-2e9968f2f8f1","ios":"levelo://app?vid=e6d737ec-f186-4ff7-a6bd-2e9968f2f8f1"},"vehicle_type_id":"4","last_reported":1742566140,"current_range_meters":10000,"station_id":"ce4bhf92rcd13ifvqf40","pricing_plan_id":"cebpf4jnsgd1na2vs0mg"},{"bike_id":"a8dd6ded-68f5-4292-bb28-ab3783c62080","system_id":"levelo_inurba_marseille","lat":43.28612,"lon":5.35135,"is_reserved":false,"is_disabled":false,"rental_uris":{"android":"levelo://app?vid=a8dd6ded-68f5-4292-bb28-ab3783c62080","ios":"levelo://app?vid=a8dd6ded-68f5-4292-bb28-ab3783c62080"},"vehicle_type_id":"4","last_reported":1742566140,"current_range_meters":10000,"station_id":"ce4bhch2rcd13ifvqeug","pricing_plan_id":"cebpf4jnsgd1na2vs0mg"},{"bike_id":"8e1ea91b-3b47-48df-a13b-01bcfef49f30","system_id":"levelo_inurba_marseille","lat":43.29932,"lon":5.36543,"is_reserved":false,"is_disabled":false,"rental_uris":{"android":"levelo://app?vid=8e1ea91b-3b47-48df-a13b-01bcfef49f30","ios":"levelo://app?vid=8e1ea91b-3b47-48df-a13b-01bcfef49f30"},"vehicle_type_id":"4","last_reported":1742566140,"current_range_meters":10000,"station_id":"ce4bgm92rcd13ifvqbr0","pricing_plan_id":"cebpf4jnsgd1na2vs0mg"},{"bike_id":"a8bfae9a-b555-4ed5-9307-3b5b980d65c4","system_id":"levelo_inurba_marseille","lat":43.30916,"lon":5.36848,"is_reserved":false,"is_disabled":false,"rental_uris":{"android":"levelo://app?vid=a8bfae9a-b555-4ed5-9307-3b5b980d65c4","ios":"levelo://app?vid=a8bfae9a-b555-4ed5-9307-3b5b980d65c4"},"vehicle_type_id":"4","last_reported":1742566140,"current_range_meters":10800,"station_id":"ce4bgn92rcd13ifvqbvg","pricing_plan_id":"cebpf4jnsgd1na2vs0mg"},{"bike_id":"76b77f12-5f85-44c9-bf23-3be9b4fba728","system_id":"levelo_inurba_marseille","lat":43.31173,"lon":5.38711,"is_reserved":false,"is_disabled":false,"rental_uris":{"android":"levelo://app?vid=76b77f12-5f85-44c9-bf23-3be9b4fba728","ios":"levelo://app?vid=76b77f12-5f85-44c9-bf23-3be9b4fba728"},"vehicle_type_id":"4","last_reported":1742566140,"current_range_meters":10800,"station_id":"ce4bgv12rcd13ifvqcp0","pricing_plan_id":"cebpf4jnsgd1na2vs0mg"},{"bike_id":"cff5c5d7-b2c2-4661-bcba-b7a09aa5def1","system_id":"levelo_inurba_marseille","lat":43.30327,"lon":5.36891,"is_reserved":false,"is_disabled":false,"rental_uris":{"android":"levelo://app?vid=cff5c5d7-b2c2-4661-bcba-b7a09aa5def1","ios":"levelo://app?vid=cff5c5d7-b2c2-4661-bcba-b7a09aa5def1"},"vehicle_type_id":"4","last_reported":1742566140,"current_range_meters":10800,"station_id":"ce4bgqh2rcd13ifvqc5g","pricing_plan_id":"cebpf4jnsgd1na2vs0mg"},{"bike_id":"9aa931eb-0a50-47c7-8e0a-bc1f151f2169","system_id":"levelo_inurba_marseille","lat":43.2841,"lon":5.37504,"is_reserved":false,"is_disabled":false,"rental_uris":{"android":"levelo://app?vid=9aa931eb-0a50-47c7-8e0a-bc1f151f2169","ios":"levelo://app?vid=9aa931eb-0a50-47c7-8e0a-bc1f151f2169"},"vehicle_type_id":"4","last_reported":1742566140,"current_range_meters":10800,"station_id":"ce4bh412rcd13ifvqds0","pricing_plan_id":"cebpf4jnsgd1na2vs0mg"},{"bike_id":"0394990d-7df2-440e-b885-889d65e65ea5","system_id":"levelo_inurba_marseille","lat":43.30209,"lon":5.39472,"is_reserved":false,"is_disabled":false,"rental_uris":{"android":"levelo://app?vid=0394990d-7df2-440e-b885-889d65e65ea5","ios":"levelo://app?vid=0394990d-7df2-440e-b885-889d65e65ea5"},"vehicle_type_id":"4","last_reported":1742566140,"current_range_meters":10800,"station_id":"ce4bh0p2rcd13ifvqd70","pricing_plan_id":"cebpf4jnsgd1na2vs0mg"},{"bike_id":"1f4b5356-d265-454a-aa48-2f7dec9d4d2a","system_id":"levelo_inurba_marseille","lat":43.33743,"lon":5.392,"is_reserved":false,"is_disabled":false,"rental_uris":{"android":"levelo://app?vid=1f4b5356-d265-454a-aa48-2f7dec9d4d2a","ios":"levelo://app?vid=1f4b5356-d265-454a-aa48-2f7dec9d4d2a"},"vehicle_type_id":"4","last_reported":1742566140,"current_range_meters":10800,"station_id":"ce4bhr92rcd13ifvqhsg","pricing_plan_id":"cebpf4jnsgd1na2vs0mg"},{"bike_id":"e62dac40-44c1-4bd0-960d-9e1c5df60e4a","system_id":"levelo_inurba_marseille","lat":43.30321,"lon":5.36917,"is_reserved":false,"is_disabled":false,"rental_uris":{"android":"levelo://app?vid=e62dac40-44c1-4bd0-960d-9e1c5df60e4a","ios":"levelo://app?vid=e62dac40-44c1-4bd0-960d-9e1c5df60e4a"},"vehicle_type_id":"4","last_reported":1742566140,"current_range_meters":10800,"station_id":"ce4bgqh2rcd13ifvqc5g","pricing_plan_id":"cebpf4jnsgd1na2vs0mg"},{"bike_id":"a06df953-ee24-4eee-acd9-cfb685fc1c62","system_id":"levelo_inurba_marseille","lat":43.314219,"lon":5.374486,"is_reserved":false,"is_disabled":false,"rental_uris":{"android":"levelo://app?vid=a06df953-ee24-4eee-acd9-cfb685fc1c62","ios":"levelo://app?vid=a06df953-ee24-4eee-acd9-cfb685fc1c62"},"vehicle_type_id":"4","last_reported":1742566140,"current_range_meters":11200,"station_id":"","pricing_plan_id":"cebpf4jnsgd1na2vs0mg"},{"bike_id":"52c16ac5-3447-4053-956c-78fc8bf0dc7c","system_id":"levelo_inurba_marseille","lat":43.32315,"lon":5.3665,"is_reserved":false,"is_disabled":false,"rental_uris":{"android":"levelo://app?vid=52c16ac5-3447-4053-956c-78fc8bf0dc7c","ios":"levelo://app?vid=52c16ac5-3447-4053-956c-78fc8bf0dc7c"},"vehicle_type_id":"4","last_reported":1742566140,"current_range_meters":11200,"station_id":"ce4bhsh2rcd13ifvqi2g","pricing_plan_id":"cebpf4jnsgd1na2vs0mg"},{"bike_id":"9f1c3e5c-869d-4869-b7c6-0c926f2da6bf","system_id":"levelo_inurba_marseille","lat":43.28381,"lon":5.39803,"is_reserved":false,"is_disabled":false,"rental_uris":{"android":"levelo://app?vid=9f1c3e5c-869d-4869-b7c6-0c926f2da6bf","ios":"levelo://app?vid=9f1c3e5c-869d-4869-b7c6-0c926f2da6bf"},"vehicle_type_id":"4","last_reported":1742566140,"current_range_meters":11200,"station_id":"","pricing_plan_id":"cebpf4jnsgd1na2vs0mg"},{"bike_id":"4267841d-5d94-44c6-8617-f314080e9a83","system_id":"levelo_inurba_marseille","lat":43.32487,"lon":5.36578,"is_reserved":false,"is_disabled":false,"rental_uris":{"android":"levelo://app?vid=4267841d-5d94-44c6-8617-f314080e9a83","ios":"levelo://app?vid=4267841d-5d94-44c6-8617-f314080e9a83"},"vehicle_type_id":"4","last_reported":1742566140,"current_range_meters":11200,"station_id":"ce4bhs12rcd13ifvqhvg","pricing_plan_id":"cebpf4jnsgd1na2vs0mg"},{"bike_id":"e4ffe364-c082-4f26-9dc5-084cf80598c9","system_id":"levelo_inurba_marseille","lat":43.30149,"lon":5.38082,"is_reserved":false,"is_disabled":false,"rental_uris":{"android":"levelo://app?vid=e4ffe364-c082-4f26-9dc5-084cf80598c9","ios":"levelo://app?vid=e4ffe364-c082-4f26-9dc5-084cf80598c9"},"vehicle_type_id":"4","last_reported":1742566140,"current_range_meters":11200,"station_id":"ce4bgjp2rcd13ifvqbh0","pricing_plan_id":"cebpf4jnsgd1na2vs0mg"},{"bike_id":"4eed87ec-6ba8-4423-bb2a-902257d20a6d","system_id":"levelo_inurba_marseille","lat":43.2316,"lon":5.43704,"is_reserved":false,"is_disabled":false,"rental_uris":{"android":"levelo://app?vid=4eed87ec-6ba8-4423-bb2a-902257d20a6d","ios":"levelo://app?vid=4eed87ec-6ba8-4423-bb2a-902257d20a6d"},"vehicle_type_id":"4","last_reported":1742566140,"current_range_meters":11600,"station_id":"ce4bhmp2rcd13ifvqgog","pricing_plan_id":"cebpf4jnsgd1na2vs0mg"},{"bike_id":"9c91fcb8-89c2-447f-a6bf-b1e4f431b217","system_id":"levelo_inurba_marseille","lat":43.29265,"lon":5.3845,"is_reserved":false,"is_disabled":false,"rental_uris":{"android":"levelo://app?vid=9c91fcb8-89c2-447f-a6bf-b1e4f431b217","ios":"levelo://app?vid=9c91fcb8-89c2-447f-a6bf-b1e4f431b217"},"vehicle_type_id":"4","last_reported":1742566140,"current_range_meters":11600,"station_id":"ce4bh692rcd13ifvqea0","pricing_plan_id":"cebpf4jnsgd1na2vs0mg"},{"bike_id":"86ba3482-a270-4470-a749-a3b0c0e4e405","system_id":"levelo_inurba_marseille","lat":43.3013,"lon":5.3986,"is_reserved":false,"is_disabled":false,"rental_uris":{"android":"levelo://app?vid=86ba3482-a270-4470-a749-a3b0c0e4e405","ios":"levelo://app?vid=86ba3482-a270-4470-a749-a3b0c0e4e405"},"vehicle_type_id":"4","last_reported":1742566140,"current_range_meters":11600,"station_id":"ce4bh0h2rcd13ifvqd40","pricing_plan_id":"cebpf4jnsgd1na2vs0mg"},{"bike_id":"6dbc4210-5b74-4ba8-8019-c2ae59912284","system_id":"levelo_inurba_marseille","lat":43.28485,"lon":5.38436,"is_reserved":false,"is_disabled":false,"rental_uris":{"android":"levelo://app?vid=6dbc4210-5b74-4ba8-8019-c2ae59912284","ios":"levelo://app?vid=6dbc4210-5b74-4ba8-8019-c2ae59912284"},"vehicle_type_id":"4","last_reported":1742566140,"current_range_meters":11600,"station_id":"ce4bh512rcd13ifvqe3g","pricing_plan_id":"cebpf4jnsgd1na2vs0mg"},{"bike_id":"ae65e52b-ed3f-4327-9cbf-08ac58833251","system_id":"levelo_inurba_marseille","lat":43.27815,"lon":5.40715,"is_reserved":false,"is_disabled":false,"rental_uris":{"android":"levelo://app?vid=ae65e52b-ed3f-4327-9cbf-08ac58833251","ios":"levelo://app?vid=ae65e52b-ed3f-4327-9cbf-08ac58833251"},"vehicle_type_id":"4","last_reported":1742566140,"current_range_meters":11600,"station_id":"ce4bhnh2rcd13ifvqgtg","pricing_plan_id":"cebpf4jnsgd1na2vs0mg"},{"bike_id":"fbbb3028-b15b-4750-98dc-ac90972ecc9b","system_id":"levelo_inurba_marseille","lat":43.32114,"lon":5.36799,"is_reserved":false,"is_disabled":false,"rental_uris":{"android":"levelo://app?vid=fbbb3028-b15b-4750-98dc-ac90972ecc9b","ios":"levelo://app?vid=fbbb3028-b15b-4750-98dc-ac90972ecc9b"},"vehicle_type_id":"4","last_reported":1742566140,"current_range_meters":11600,"station_id":"ce4bhrh2rcd13ifvqhug","pricing_plan_id":"cebpf4jnsgd1na2vs0mg"},{"bike_id":"cb4ca1c4-223f-4889-bddb-def864e7b505","system_id":"levelo_inurba_marseille","lat":43.28272,"lon":5.35077,"is_reserved":false,"is_disabled":false,"rental_uris":{"android":"levelo://app?vid=cb4ca1c4-223f-4889-bddb-def864e7b505","ios":"levelo://app?vid=cb4ca1c4-223f-4889-bddb-def864e7b505"},"vehicle_type_id":"4","last_reported":1742566140,"current_range_meters":12000,"station_id":"ce4bhbp2rcd13ifvqerg","pricing_plan_id":"cebpf4jnsgd1na2vs0mg"},{"bike_id":"77b78d13-0b93-4d4f-95b0-e5ae27fefaf2","system_id":"levelo_inurba_marseille","lat":43.29193,"lon":5.39328,"is_reserved":false,"is_disabled":false,"rental_uris":{"android":"levelo://app?vid=77b78d13-0b93-4d4f-95b0-e5ae27fefaf2","ios":"levelo://app?vid=77b78d13-0b93-4d4f-95b0-e5ae27fefaf2"},"vehicle_type_id":"4","last_reported":1742566140,"current_range_meters":12000,"station_id":"ce4bh192rcd13ifvqdd0","pricing_plan_id":"cebpf4jnsgd1na2vs0mg"},{"bike_id":"1f2450bd-5d37-4d98-a50b-ea6795b7b300","system_id":"levelo_inurba_marseille","lat":43.309,"lon":5.37187,"is_reserved":false,"is_disabled":false,"rental_uris":{"android":"levelo://app?vid=1f2450bd-5d37-4d98-a50b-ea6795b7b300","ios":"levelo://app?vid=1f2450bd-5d37-4d98-a50b-ea6795b7b300"},"vehicle_type_id":"4","last_reported":1742566140,"current_range_meters":12000,"station_id":"ce4bguh2rcd13ifvqckg","pricing_plan_id":"cebpf4jnsgd1na2vs0mg"},{"bike_id":"32c22226-b738-479f-8e45-1761f4a78a15","system_id":"levelo_inurba_marseille","lat":43.31891,"lon":5.40735,"is_reserved":false,"is_disabled":false,"rental_uris":{"android":"levelo://app?vid=32c22226-b738-479f-8e45-1761f4a78a15","ios":"levelo://app?vid=32c22226-b738-479f-8e45-1761f4a78a15"},"vehicle_type_id":"4","last_reported":1742566140,"current_range_meters":12000,"station_id":"ce4bhq12rcd13ifvqhig","pricing_plan_id":"cebpf4jnsgd1na2vs0mg"},{"bike_id":"8db6ca61-377c-480a-9ecc-23593808c951","system_id":"levelo_inurba_marseille","lat":43.29029,"lon":5.38637,"is_reserved":false,"is_disabled":false,"rental_uris":{"android":"levelo://app?vid=8db6ca61-377c-480a-9ecc-23593808c951","ios":"levelo://app?vid=8db6ca61-377c-480a-9ecc-23593808c951"},"vehicle_type_id":"4","last_reported":1742566140,"current_range_meters":12000,"station_id":"ce4bh4p2rcd13ifvqe0g","pricing_plan_id":"cebpf4jnsgd1na2vs0mg"},{"bike_id":"503469c9-1849-402d-92b5-4bab98276e41","system_id":"levelo_inurba_marseille","lat":43.31326,"lon":5.39698,"is_reserved":false,"is_disabled":false,"rental_uris":{"android":"levelo://app?vid=503469c9-1849-402d-92b5-4bab98276e41","ios":"levelo://app?vid=503469c9-1849-402d-92b5-4bab98276e41"},"vehicle_type_id":"4","last_reported":1742566140,"current_range_meters":11600,"station_id":"ce4bgvp2rcd13ifvqcu0","pricing_plan_id":"cebpf4jnsgd1na2vs0mg"},{"bike_id":"396119df-3989-40a7-85e7-6f76621181aa","system_id":"levelo_inurba_marseille","lat":43.28963,"lon":5.37845,"is_reserved":false,"is_disabled":false,"rental_uris":{"android":"levelo://app?vid=396119df-3989-40a7-85e7-6f76621181aa","ios":"levelo://app?vid=396119df-3989-40a7-85e7-6f76621181aa"},"vehicle_type_id":"4","last_reported":1742566140,"current_range_meters":12000,"station_id":"ce4bh9p2rcd13ifvqed0","pricing_plan_id":"cebpf4jnsgd1na2vs0mg"},{"bike_id":"39c4d2b2-ef08-43ff-b792-233037b5b5d2","system_id":"levelo_inurba_marseille","lat":43.28974,"lon":5.37841,"is_reserved":false,"is_disabled":false,"rental_uris":{"android":"levelo://app?vid=39c4d2b2-ef08-43ff-b792-233037b5b5d2","ios":"levelo://app?vid=39c4d2b2-ef08-43ff-b792-233037b5b5d2"},"vehicle_type_id":"4","last_reported":1742566140,"current_range_meters":11600,"station_id":"ce4bh9p2rcd13ifvqed0","pricing_plan_id":"cebpf4jnsgd1na2vs0mg"},{"bike_id":"98f0b84f-5391-4d84-aadb-0f0ef7e5c4b5","system_id":"levelo_inurba_marseille","lat":43.29227,"lon":5.36064,"is_reserved":false,"is_disabled":false,"rental_uris":{"android":"levelo://app?vid=98f0b84f-5391-4d84-aadb-0f0ef7e5c4b5","ios":"levelo://app?vid=98f0b84f-5391-4d84-aadb-0f0ef7e5c4b5"},"vehicle_type_id":"4","last_reported":1742566140,"current_range_meters":12000,"station_id":"ce4bhbh2rcd13ifvqeqg","pricing_plan_id":"cebpf4jnsgd1na2vs0mg"},{"bike_id":"e7699b1b-ac6f-4559-a18b-5f6fea4d178d","system_id":"levelo_inurba_marseille","lat":43.28479,"lon":5.38421,"is_reserved":false,"is_disabled":false,"rental_uris":{"android":"levelo://app?vid=e7699b1b-ac6f-4559-a18b-5f6fea4d178d","ios":"levelo://app?vid=e7699b1b-ac6f-4559-a18b-5f6fea4d178d"},"vehicle_type_id":"4","last_reported":1742566140,"current_range_meters":12000,"station_id":"ce4bh512rcd13ifvqe3g","pricing_plan_id":"cebpf4jnsgd1na2vs0mg"},{"bike_id":"a7aba8f8-11d9-40c6-b43d-fa49f0314d60","system_id":"levelo_inurba_marseille","lat":43.31121,"lon":5.37775,"is_reserved":false,"is_disabled":false,"rental_uris":{"android":"levelo://app?vid=a7aba8f8-11d9-40c6-b43d-fa49f0314d60","ios":"levelo://app?vid=a7aba8f8-11d9-40c6-b43d-fa49f0314d60"},"vehicle_type_id":"4","last_reported":1742566140,"current_range_meters":12000,"station_id":"ce4bgt92rcd13ifvqcg0","pricing_plan_id":"cebpf4jnsgd1na2vs0mg"},{"bike_id":"257266cf-683b-4c8a-a350-70a5c3f41572","system_id":"levelo_inurba_marseille","lat":43.31171,"lon":5.3871,"is_reserved":false,"is_disabled":false,"rental_uris":{"android":"levelo://app?vid=257266cf-683b-4c8a-a350-70a5c3f41572","ios":"levelo://app?vid=257266cf-683b-4c8a-a350-70a5c3f41572"},"vehicle_type_id":"4","last_reported":1742566140,"current_range_meters":12400,"station_id":"ce4bgv12rcd13ifvqcp0","pricing_plan_id":"cebpf4jnsgd1na2vs0mg"},{"bike_id":"dc537980-6042-493d-8080-0667efb1d6ad","system_id":"levelo_inurba_marseille","lat":43.24563,"lon":5.39517,"is_reserved":false,"is_disabled":false,"rental_uris":{"android":"levelo://app?vid=dc537980-6042-493d-8080-0667efb1d6ad","ios":"levelo://app?vid=dc537980-6042-493d-8080-0667efb1d6ad"},"vehicle_type_id":"4","last_reported":1742566140,"current_range_meters":12400,"station_id":"ce4bhlp2rcd13ifvqgjg","pricing_plan_id":"cebpf4jnsgd1na2vs0mg"},{"bike_id":"f7b19721-c68b-4280-b653-43eff6dbb1fd","system_id":"levelo_inurba_marseille","lat":43.32102,"lon":5.36796,"is_reserved":false,"is_disabled":false,"rental_uris":{"android":"levelo://app?vid=f7b19721-c68b-4280-b653-43eff6dbb1fd","ios":"levelo://app?vid=f7b19721-c68b-4280-b653-43eff6dbb1fd"},"vehicle_type_id":"4","last_reported":1742566140,"current_range_meters":12400,"station_id":"ce4bhrh2rcd13ifvqhug","pricing_plan_id":"cebpf4jnsgd1na2vs0mg"},{"bike_id":"652766c9-7587-422b-957e-cd2724f41ba5","system_id":"levelo_inurba_marseille","lat":43.27818,"lon":5.40725,"is_reserved":false,"is_disabled":false,"rental_uris":{"android":"levelo://app?vid=652766c9-7587-422b-957e-cd2724f41ba5","ios":"levelo://app?vid=652766c9-7587-422b-957e-cd2724f41ba5"},"vehicle_type_id":"4","last_reported":1742566140,"current_range_meters":12400,"station_id":"ce4bhnh2rcd13ifvqgtg","pricing_plan_id":"cebpf4jnsgd1na2vs0mg"},{"bike_id":"2c697632-c194-4125-ac85-a44bc0a89950","system_id":"levelo_inurba_marseille","lat":43.30442,"lon":5.39748,"is_reserved":false,"is_disabled":false,"rental_uris":{"android":"levelo://app?vid=2c697632-c194-4125-ac85-a44bc0a89950","ios":"levelo://app?vid=2c697632-c194-4125-ac85-a44bc0a89950"},"vehicle_type_id":"4","last_reported":1742566140,"current_range_meters":12000,"station_id":"ce4bh092rcd13ifvqd20","pricing_plan_id":"cebpf4jnsgd1na2vs0mg"},{"bike_id":"0dfb7246-4940-47d8-abaa-e2bf352d8448","system_id":"levelo_inurba_marseille","lat":43.287044,"lon":5.39983,"is_reserved":false,"is_disabled":false,"rental_uris":{"android":"levelo://app?vid=0dfb7246-4940-47d8-abaa-e2bf352d8448","ios":"levelo://app?vid=0dfb7246-4940-47d8-abaa-e2bf352d8448"},"vehicle_type_id":"4","last_reported":1742566140,"current_range_meters":12400,"station_id":"ce4bho92rcd13ifvqh3g","pricing_plan_id":"cebpf4jnsgd1na2vs0mg"},{"bike_id":"fa1db1f7-ceb1-4903-aad0-87628ff90fd3","system_id":"levelo_inurba_marseille","lat":43.31364,"lon":5.38491,"is_reserved":false,"is_disabled":false,"rental_uris":{"android":"levelo://app?vid=fa1db1f7-ceb1-4903-aad0-87628ff90fd3","ios":"levelo://app?vid=fa1db1f7-ceb1-4903-aad0-87628ff90fd3"},"vehicle_type_id":"4","last_reported":1742566140,"current_range_meters":12000,"station_id":"ce4bgt92rcd13ifvqcf0","pricing_plan_id":"cebpf4jnsgd1na2vs0mg"},{"bike_id":"29c299a3-8deb-46e4-8cd6-c7a928ea34d7","system_id":"levelo_inurba_marseille","lat":43.26572,"lon":5.37288,"is_reserved":false,"is_disabled":false,"rental_uris":{"android":"levelo://app?vid=29c299a3-8deb-46e4-8cd6-c7a928ea34d7","ios":"levelo://app?vid=29c299a3-8deb-46e4-8cd6-c7a928ea34d7"},"vehicle_type_id":"4","last_reported":1742566140,"current_range_meters":12800,"station_id":"ce4bhg12rcd13ifvqf70","pricing_plan_id":"cebpf4jnsgd1na2vs0mg"},{"bike_id":"f857e3ee-7b86-4ccd-8116-6a58a1cacb60","system_id":"levelo_inurba_marseille","lat":43.33083,"lon":5.40824,"is_reserved":false,"is_disabled":false,"rental_uris":{"android":"levelo://app?vid=f857e3ee-7b86-4ccd-8116-6a58a1cacb60","ios":"levelo://app?vid=f857e3ee-7b86-4ccd-8116-6a58a1cacb60"},"vehicle_type_id":"4","last_reported":1742566140,"current_range_meters":12800,"station_id":"","pricing_plan_id":"cebpf4jnsgd1na2vs0mg"},{"bike_id":"0053c563-136a-48c8-882d-d51352fae521","system_id":"levelo_inurba_marseille","lat":43.28951,"lon":5.36409,"is_reserved":false,"is_disabled":false,"rental_uris":{"android":"levelo://app?vid=0053c563-136a-48c8-882d-d51352fae521","ios":"levelo://app?vid=0053c563-136a-48c8-882d-d51352fae521"},"vehicle_type_id":"4","last_reported":1742566140,"current_range_meters":12800,"station_id":"ce4bhc92rcd13ifvqetg","pricing_plan_id":"cebpf4jnsgd1na2vs0mg"},{"bike_id":"b5fcb98a-c8d5-4f1a-a9b4-b3362af2a9c7","system_id":"levelo_inurba_marseille","lat":43.237687,"lon":5.364027,"is_reserved":false,"is_disabled":false,"rental_uris":{"android":"levelo://app?vid=b5fcb98a-c8d5-4f1a-a9b4-b3362af2a9c7","ios":"levelo://app?vid=b5fcb98a-c8d5-4f1a-a9b4-b3362af2a9c7"},"vehicle_type_id":"4","last_reported":1742566140,"current_range_meters":12800,"station_id":"cpo3342slgdg3j2ifvpg","pricing_plan_id":"cebpf4jnsgd1na2vs0mg"},{"bike_id":"1036e65b-b636-41b1-83e4-98d49e389bc5","system_id":"levelo_inurba_marseille","lat":43.25019,"lon":5.38944,"is_reserved":false,"is_disabled":false,"rental_uris":{"android":"levelo://app?vid=1036e65b-b636-41b1-83e4-98d49e389bc5","ios":"levelo://app?vid=1036e65b-b636-41b1-83e4-98d49e389bc5"},"vehicle_type_id":"4","last_reported":1742566140,"current_range_meters":12800,"station_id":"ce4bhgp2rcd13ifvqfd0","pricing_plan_id":"cebpf4jnsgd1na2vs0mg"},{"bike_id":"d9a0eb23-fac3-4c0f-8e5f-b5513e285d48","system_id":"levelo_inurba_marseille","lat":43.30251,"lon":5.40075,"is_reserved":false,"is_disabled":false,"rental_uris":{"android":"levelo://app?vid=d9a0eb23-fac3-4c0f-8e5f-b5513e285d48","ios":"levelo://app?vid=d9a0eb23-fac3-4c0f-8e5f-b5513e285d48"},"vehicle_type_id":"4","last_reported":1742566140,"current_range_meters":12800,"station_id":"ce4bgvh2rcd13ifvqcs0","pricing_plan_id":"cebpf4jnsgd1na2vs0mg"},{"bike_id":"0172c2ec-ddee-4012-8477-4ccb24228323","system_id":"levelo_inurba_marseille","lat":43.283997,"lon":5.349967,"is_reserved":false,"is_disabled":false,"rental_uris":{"android":"levelo://app?vid=0172c2ec-ddee-4012-8477-4ccb24228323","ios":"levelo://app?vid=0172c2ec-ddee-4012-8477-4ccb24228323"},"vehicle_type_id":"4","last_reported":1742566140,"current_range_meters":12800,"station_id":"ce4bgup2rcd13ifvqcn0","pricing_plan_id":"cebpf4jnsgd1na2vs0mg"},{"bike_id":"b00a3a3b-b083-4d3d-8746-d8c2a9d4dd18","system_id":"levelo_inurba_marseille","lat":43.2572,"lon":5.42174,"is_reserved":false,"is_disabled":false,"rental_uris":{"android":"levelo://app?vid=b00a3a3b-b083-4d3d-8746-d8c2a9d4dd18","ios":"levelo://app?vid=b00a3a3b-b083-4d3d-8746-d8c2a9d4dd18"},"vehicle_type_id":"4","last_reported":1742566140,"current_range_meters":12800,"station_id":"","pricing_plan_id":"cebpf4jnsgd1na2vs0mg"},{"bike_id":"347a7480-8467-4416-83be-36b0866a1449","system_id":"levelo_inurba_marseille","lat":43.23155,"lon":5.43708,"is_reserved":false,"is_disabled":false,"rental_uris":{"android":"levelo://app?vid=347a7480-8467-4416-83be-36b0866a1449","ios":"levelo://app?vid=347a7480-8467-4416-83be-36b0866a1449"},"vehicle_type_id":"4","last_reported":1742566140,"current_range_meters":12800,"station_id":"ce4bhmp2rcd13ifvqgog","pricing_plan_id":"cebpf4jnsgd1na2vs0mg"},{"bike_id":"d5008c42-98f6-4ef7-bc26-398f502db47d","system_id":"levelo_inurba_marseille","lat":43.28701,"lon":5.39978,"is_reserved":false,"is_disabled":false,"rental_uris":{"android":"levelo://app?vid=d5008c42-98f6-4ef7-bc26-398f502db47d","ios":"levelo://app?vid=d5008c42-98f6-4ef7-bc26-398f502db47d"},"vehicle_type_id":"4","last_reported":1742566140,"current_range_meters":13600,"station_id":"ce4bho92rcd13ifvqh3g","pricing_plan_id":"cebpf4jnsgd1na2vs0mg"},{"bike_id":"ff0b86f7-1349-4aed-8f97-17f96801d957","system_id":"levelo_inurba_marseille","lat":43.28443,"lon":5.3921,"is_reserved":false,"is_disabled":false,"rental_uris":{"android":"levelo://app?vid=ff0b86f7-1349-4aed-8f97-17f96801d957","ios":"levelo://app?vid=ff0b86f7-1349-4aed-8f97-17f96801d957"},"vehicle_type_id":"4","last_reported":1742566140,"current_range_meters":13600,"station_id":"ce4bhoh2rcd13ifvqh5g","pricing_plan_id":"cebpf4jnsgd1na2vs0mg"},{"bike_id":"ded6f5ad-6252-4ce9-8aea-b9c3424b3a3b","system_id":"levelo_inurba_marseille","lat":43.30462,"lon":5.37914,"is_reserved":false,"is_disabled":false,"rental_uris":{"android":"levelo://app?vid=ded6f5ad-6252-4ce9-8aea-b9c3424b3a3b","ios":"levelo://app?vid=ded6f5ad-6252-4ce9-8aea-b9c3424b3a3b"},"vehicle_type_id":"4","last_reported":1742566140,"current_range_meters":13600,"station_id":"ce4bgup2rcd13ifvqcn0","pricing_plan_id":"cebpf4jnsgd1na2vs0mg"},{"bike_id":"295b2b96-8a22-4b6f-a45b-df5a7ed58969","system_id":"levelo_inurba_marseille","lat":43.3372,"lon":5.39179,"is_reserved":false,"is_disabled":false,"rental_uris":{"android":"levelo://app?vid=295b2b96-8a22-4b6f-a45b-df5a7ed58969","ios":"levelo://app?vid=295b2b96-8a22-4b6f-a45b-df5a7ed58969"},"vehicle_type_id":"4","last_reported":1742566140,"current_range_meters":14000,"station_id":"ce4bhr92rcd13ifvqhsg","pricing_plan_id":"cebpf4jnsgd1na2vs0mg"},{"bike_id":"34a557fb-b522-46a4-9803-2e4252655cf6","system_id":"levelo_inurba_marseille","lat":43.298413,"lon":5.384303,"is_reserved":false,"is_disabled":false,"rental_uris":{"android":"levelo://app?vid=34a557fb-b522-46a4-9803-2e4252655cf6","ios":"levelo://app?vid=34a557fb-b522-46a4-9803-2e4252655cf6"},"vehicle_type_id":"4","last_reported":1742566140,"current_range_meters":13600,"station_id":"ce4bgi92rcd13ifvqb90","pricing_plan_id":"cebpf4jnsgd1na2vs0mg"},{"bike_id":"5e8992ca-1906-4cb3-b532-3dc89631b747","system_id":"levelo_inurba_marseille","lat":43.29023,"lon":5.38151,"is_reserved":false,"is_disabled":false,"rental_uris":{"android":"levelo://app?vid=5e8992ca-1906-4cb3-b532-3dc89631b747","ios":"levelo://app?vid=5e8992ca-1906-4cb3-b532-3dc89631b747"},"vehicle_type_id":"4","last_reported":1742566140,"current_range_meters":14000,"station_id":"ce4bh4p2rcd13ifvqe1g","pricing_plan_id":"cebpf4jnsgd1na2vs0mg"},{"bike_id":"cbe564c6-9b52-4358-914c-efbfe2d69e1a","system_id":"levelo_inurba_marseille","lat":43.29784,"lon":5.38106,"is_reserved":false,"is_disabled":false,"rental_uris":{"android":"levelo://app?vid=cbe564c6-9b52-4358-914c-efbfe2d69e1a","ios":"levelo://app?vid=cbe564c6-9b52-4358-914c-efbfe2d69e1a"},"vehicle_type_id":"4","last_reported":1742566140,"current_range_meters":14000,"station_id":"ce4bgip2rcd13ifvqbb0","pricing_plan_id":"cebpf4jnsgd1na2vs0mg"},{"bike_id":"dded0734-989b-42c6-8f2f-01b2a1195538","system_id":"levelo_inurba_marseille","lat":43.309488,"lon":5.3799,"is_reserved":false,"is_disabled":false,"rental_uris":{"android":"levelo://app?vid=dded0734-989b-42c6-8f2f-01b2a1195538","ios":"levelo://app?vid=dded0734-989b-42c6-8f2f-01b2a1195538"},"vehicle_type_id":"4","last_reported":1742566140,"current_range_meters":14000,"station_id":"ce4bgt12rcd13ifvqce0","pricing_plan_id":"cebpf4jnsgd1na2vs0mg"},{"bike_id":"c343f1d1-84eb-4bea-8819-071cf36a5335","system_id":"levelo_inurba_marseille","lat":43.30205,"lon":5.39474,"is_reserved":false,"is_disabled":false,"rental_uris":{"android":"levelo://app?vid=c343f1d1-84eb-4bea-8819-071cf36a5335","ios":"levelo://app?vid=c343f1d1-84eb-4bea-8819-071cf36a5335"},"vehicle_type_id":"4","last_reported":1742566140,"current_range_meters":14400,"station_id":"ce4bh0p2rcd13ifvqd70","pricing_plan_id":"cebpf4jnsgd1na2vs0mg"},{"bike_id":"dd59c932-86fe-46a5-a755-39ee2b122a6c","system_id":"levelo_inurba_marseille","lat":43.2707,"lon":5.42288,"is_reserved":false,"is_disabled":false,"rental_uris":{"android":"levelo://app?vid=dd59c932-86fe-46a5-a755-39ee2b122a6c","ios":"levelo://app?vid=dd59c932-86fe-46a5-a755-39ee2b122a6c"},"vehicle_type_id":"4","last_reported":1742566140,"current_range_meters":14400,"station_id":"ce4bhk92rcd13ifvqgb0","pricing_plan_id":"cebpf4jnsgd1na2vs0mg"},{"bike_id":"be9edee4-b36a-4d2a-8c7a-9f82c6a6eae4","system_id":"levelo_inurba_marseille","lat":43.29536,"lon":5.38549,"is_reserved":false,"is_disabled":false,"rental_uris":{"android":"levelo://app?vid=be9edee4-b36a-4d2a-8c7a-9f82c6a6eae4","ios":"levelo://app?vid=be9edee4-b36a-4d2a-8c7a-9f82c6a6eae4"},"vehicle_type_id":"4","last_reported":1742566140,"current_range_meters":14800,"station_id":"ce4bgih2rcd13ifvqba0","pricing_plan_id":"cebpf4jnsgd1na2vs0mg"},{"bike_id":"c11838ce-0028-4ed4-817e-9cbefc3d5939","system_id":"levelo_inurba_marseille","lat":43.29267,"lon":5.38439,"is_reserved":false,"is_disabled":false,"rental_uris":{"android":"levelo://app?vid=c11838ce-0028-4ed4-817e-9cbefc3d5939","ios":"levelo://app?vid=c11838ce-0028-4ed4-817e-9cbefc3d5939"},"vehicle_type_id":"4","last_reported":1742566140,"current_range_meters":14400,"station_id":"ce4bh692rcd13ifvqea0","pricing_plan_id":"cebpf4jnsgd1na2vs0mg"},{"bike_id":"117d4c22-bd21-4ac9-a6f6-92d4a2784a08","system_id":"levelo_inurba_marseille","lat":43.29875,"lon":5.38916,"is_reserved":false,"is_disabled":false,"rental_uris":{"android":"levelo://app?vid=117d4c22-bd21-4ac9-a6f6-92d4a2784a08","ios":"levelo://app?vid=117d4c22-bd21-4ac9-a6f6-92d4a2784a08"},"vehicle_type_id":"4","last_reported":1742566140,"current_range_meters":14800,"station_id":"ce4bh392rcd13ifvqdl0","pricing_plan_id":"cebpf4jnsgd1na2vs0mg"},{"bike_id":"40cdcadd-f798-49fd-a416-0ce08cf21966","system_id":"levelo_inurba_marseille","lat":43.28691,"lon":5.38666,"is_reserved":false,"is_disabled":false,"rental_uris":{"android":"levelo://app?vid=40cdcadd-f798-49fd-a416-0ce08cf21966","ios":"levelo://app?vid=40cdcadd-f798-49fd-a416-0ce08cf21966"},"vehicle_type_id":"4","last_reported":1742566140,"current_range_meters":14400,"station_id":"ce4bh492rcd13ifvqdug","pricing_plan_id":"cebpf4jnsgd1na2vs0mg"},{"bike_id":"9683555e-fe04-4de7-b706-7a9b0019a6a7","system_id":"levelo_inurba_marseille","lat":43.33753,"lon":5.37495,"is_reserved":false,"is_disabled":true,"rental_uris":{"android":"levelo://app?vid=9683555e-fe04-4de7-b706-7a9b0019a6a7","ios":"levelo://app?vid=9683555e-fe04-4de7-b706-7a9b0019a6a7"},"vehicle_type_id":"4","last_reported":1742566140,"current_range_meters":14800,"station_id":"ce4bh2h2rcd13ifvqdh0","pricing_plan_id":"cebpf4jnsgd1na2vs0mg"},{"bike_id":"085d6e90-ff31-4453-a174-79277c92962a","system_id":"levelo_inurba_marseille","lat":43.31385,"lon":5.38505,"is_reserved":false,"is_disabled":false,"rental_uris":{"android":"levelo://app?vid=085d6e90-ff31-4453-a174-79277c92962a","ios":"levelo://app?vid=085d6e90-ff31-4453-a174-79277c92962a"},"vehicle_type_id":"4","last_reported":1742566140,"current_range_meters":14800,"station_id":"ce4bgt92rcd13ifvqcf0","pricing_plan_id":"cebpf4jnsgd1na2vs0mg"},{"bike_id":"38044645-ece5-4bcd-8d4d-db0d7b3b13cd","system_id":"levelo_inurba_marseille","lat":43.24554,"lon":5.3952,"is_reserved":false,"is_disabled":false,"rental_uris":{"android":"levelo://app?vid=38044645-ece5-4bcd-8d4d-db0d7b3b13cd","ios":"levelo://app?vid=38044645-ece5-4bcd-8d4d-db0d7b3b13cd"},"vehicle_type_id":"4","last_reported":1742566140,"current_range_meters":14800,"station_id":"ce4bhlp2rcd13ifvqgjg","pricing_plan_id":"cebpf4jnsgd1na2vs0mg"},{"bike_id":"3a2bacef-0ae8-4cee-9bf7-b31d57be74b3","system_id":"levelo_inurba_marseille","lat":43.3129,"lon":5.40164,"is_reserved":false,"is_disabled":false,"rental_uris":{"android":"levelo://app?vid=3a2bacef-0ae8-4cee-9bf7-b31d57be74b3","ios":"levelo://app?vid=3a2bacef-0ae8-4cee-9bf7-b31d57be74b3"},"vehicle_type_id":"4","last_reported":1742566140,"current_range_meters":11200,"station_id":"ce4bh092rcd13ifvqd30","pricing_plan_id":"cebpf4jnsgd1na2vs0mg"},{"bike_id":"1cc4909e-c609-4abe-82e5-094dd8af1115","system_id":"levelo_inurba_marseille","lat":43.31824,"lon":5.37463,"is_reserved":false,"is_disabled":false,"rental_uris":{"android":"levelo://app?vid=1cc4909e-c609-4abe-82e5-094dd8af1115","ios":"levelo://app?vid=1cc4909e-c609-4abe-82e5-094dd8af1115"},"vehicle_type_id":"4","last_reported":1742566140,"current_range_meters":15200,"station_id":"","pricing_plan_id":"cebpf4jnsgd1na2vs0mg"},{"bike_id":"8554844d-ad1f-4179-94b2-8ae283e549a0","system_id":"levelo_inurba_marseille","lat":43.30532,"lon":5.36519,"is_reserved":false,"is_disabled":false,"rental_uris":{"android":"levelo://app?vid=8554844d-ad1f-4179-94b2-8ae283e549a0","ios":"levelo://app?vid=8554844d-ad1f-4179-94b2-8ae283e549a0"},"vehicle_type_id":"4","last_reported":1742566140,"current_range_meters":15200,"station_id":"ce4bgs12rcd13ifvqcag","pricing_plan_id":"cebpf4jnsgd1na2vs0mg"},{"bike_id":"1941e1fe-aa74-4007-afde-fda9d78d046e","system_id":"levelo_inurba_marseille","lat":43.29256,"lon":5.37608,"is_reserved":false,"is_disabled":false,"rental_uris":{"android":"levelo://app?vid=1941e1fe-aa74-4007-afde-fda9d78d046e","ios":"levelo://app?vid=1941e1fe-aa74-4007-afde-fda9d78d046e"},"vehicle_type_id":"4","last_reported":1742566140,"current_range_meters":16000,"station_id":"ce4bgi12rcd13ifvqb80","pricing_plan_id":"cebpf4jnsgd1na2vs0mg"},{"bike_id":"f6b3689e-aa2a-40fe-b683-1353b2e46738","system_id":"levelo_inurba_marseille","lat":43.29074,"lon":5.38177,"is_reserved":false,"is_disabled":false,"rental_uris":{"android":"levelo://app?vid=f6b3689e-aa2a-40fe-b683-1353b2e46738","ios":"levelo://app?vid=f6b3689e-aa2a-40fe-b683-1353b2e46738"},"vehicle_type_id":"4","last_reported":1742566140,"current_range_meters":16000,"station_id":"ce4bh512rcd13ifvqe2g","pricing_plan_id":"cebpf4jnsgd1na2vs0mg"},{"bike_id":"d9b208c8-d944-4b3e-89c8-04e602d6b978","system_id":"levelo_inurba_marseille","lat":43.30133,"lon":5.39848,"is_reserved":false,"is_disabled":false,"rental_uris":{"android":"levelo://app?vid=d9b208c8-d944-4b3e-89c8-04e602d6b978","ios":"levelo://app?vid=d9b208c8-d944-4b3e-89c8-04e602d6b978"},"vehicle_type_id":"4","last_reported":1742566140,"current_range_meters":16000,"station_id":"ce4bh0h2rcd13ifvqd40","pricing_plan_id":"cebpf4jnsgd1na2vs0mg"},{"bike_id":"3548c702-9909-439c-95e7-4224d6f2daf0","system_id":"levelo_inurba_marseille","lat":43.26952,"lon":5.38631,"is_reserved":false,"is_disabled":false,"rental_uris":{"android":"levelo://app?vid=3548c702-9909-439c-95e7-4224d6f2daf0","ios":"levelo://app?vid=3548c702-9909-439c-95e7-4224d6f2daf0"},"vehicle_type_id":"4","last_reported":1742566140,"current_range_meters":12800,"station_id":"ce4bhh92rcd13ifvqfh0","pricing_plan_id":"cebpf4jnsgd1na2vs0mg"},{"bike_id":"f93b26fe-ff92-4dd7-a779-012c4b0b2bc5","system_id":"levelo_inurba_marseille","lat":43.337444,"lon":5.374475,"is_reserved":false,"is_disabled":false,"rental_uris":{"android":"levelo://app?vid=f93b26fe-ff92-4dd7-a779-012c4b0b2bc5","ios":"levelo://app?vid=f93b26fe-ff92-4dd7-a779-012c4b0b2bc5"},"vehicle_type_id":"4","last_reported":1742566140,"current_range_meters":16000,"station_id":"ce4bgv92rcd13ifvqcq0","pricing_plan_id":"cebpf4jnsgd1na2vs0mg"},{"bike_id":"f1c1254d-d9d6-4485-8910-4ae2a7c84bc0","system_id":"levelo_inurba_marseille","lat":43.23188,"lon":5.39983,"is_reserved":false,"is_disabled":false,"rental_uris":{"android":"levelo://app?vid=f1c1254d-d9d6-4485-8910-4ae2a7c84bc0","ios":"levelo://app?vid=f1c1254d-d9d6-4485-8910-4ae2a7c84bc0"},"vehicle_type_id":"4","last_reported":1742566140,"current_range_meters":16000,"station_id":"ce4bhn12rcd13ifvqgqg","pricing_plan_id":"cebpf4jnsgd1na2vs0mg"},{"bike_id":"99e758db-b164-4fc6-93ee-72fe65c8b8d6","system_id":"levelo_inurba_marseille","lat":43.30141,"lon":5.37423,"is_reserved":false,"is_disabled":false,"rental_uris":{"android":"levelo://app?vid=99e758db-b164-4fc6-93ee-72fe65c8b8d6","ios":"levelo://app?vid=99e758db-b164-4fc6-93ee-72fe65c8b8d6"},"vehicle_type_id":"4","last_reported":1742566140,"current_range_meters":16400,"station_id":"ce4bgs92rcd13ifvqcc0","pricing_plan_id":"cebpf4jnsgd1na2vs0mg"},{"bike_id":"750f347e-373f-4c98-8af1-4dfba1eb89e2","system_id":"levelo_inurba_marseille","lat":43.25827,"lon":5.39428,"is_reserved":false,"is_disabled":false,"rental_uris":{"android":"levelo://app?vid=750f347e-373f-4c98-8af1-4dfba1eb89e2","ios":"levelo://app?vid=750f347e-373f-4c98-8af1-4dfba1eb89e2"},"vehicle_type_id":"4","last_reported":1742566140,"current_range_meters":16400,"station_id":"ce4bhip2rcd13ifvqft0","pricing_plan_id":"cebpf4jnsgd1na2vs0mg"},{"bike_id":"5a402c11-ded0-4c6a-8b04-b2c4e8e67161","system_id":"levelo_inurba_marseille","lat":43.30196,"lon":5.36632,"is_reserved":false,"is_disabled":false,"rental_uris":{"android":"levelo://app?vid=5a402c11-ded0-4c6a-8b04-b2c4e8e67161","ios":"levelo://app?vid=5a402c11-ded0-4c6a-8b04-b2c4e8e67161"},"vehicle_type_id":"4","last_reported":1742566140,"current_range_meters":16400,"station_id":"ce4bgrh2rcd13ifvqc8g","pricing_plan_id":"cebpf4jnsgd1na2vs0mg"},{"bike_id":"eaf0555d-ac7e-4a21-8c46-bdf2f0c06aff","system_id":"levelo_inurba_marseille","lat":43.25086,"lon":5.39525,"is_reserved":false,"is_disabled":false,"rental_uris":{"android":"levelo://app?vid=eaf0555d-ac7e-4a21-8c46-bdf2f0c06aff","ios":"levelo://app?vid=eaf0555d-ac7e-4a21-8c46-bdf2f0c06aff"},"vehicle_type_id":"4","last_reported":1742566140,"current_range_meters":16400,"station_id":"ce4bhm12rcd13ifvqgkg","pricing_plan_id":"cebpf4jnsgd1na2vs0mg"},{"bike_id":"875d0aa8-829d-413f-b4bf-51baf22e4bb9","system_id":"levelo_inurba_marseille","lat":43.30277,"lon":5.37707,"is_reserved":false,"is_disabled":false,"rental_uris":{"android":"levelo://app?vid=875d0aa8-829d-413f-b4bf-51baf22e4bb9","ios":"levelo://app?vid=875d0aa8-829d-413f-b4bf-51baf22e4bb9"},"vehicle_type_id":"4","last_reported":1742566140,"current_range_meters":16400,"station_id":"ce4bguh2rcd13ifvqcj0","pricing_plan_id":"cebpf4jnsgd1na2vs0mg"},{"bike_id":"72503a27-a949-4a46-b139-c44d4f416a58","system_id":"levelo_inurba_marseille","lat":43.23192,"lon":5.35564,"is_reserved":false,"is_disabled":false,"rental_uris":{"android":"levelo://app?vid=72503a27-a949-4a46-b139-c44d4f416a58","ios":"levelo://app?vid=72503a27-a949-4a46-b139-c44d4f416a58"},"vehicle_type_id":"4","last_reported":1742566140,"current_range_meters":16400,"station_id":"ce4bhu92rcd13ifvqi70","pricing_plan_id":"cebpf4jnsgd1na2vs0mg"},{"bike_id":"2b711feb-e170-4304-a8c5-1761a9518072","system_id":"levelo_inurba_marseille","lat":43.30147,"lon":5.39845,"is_reserved":false,"is_disabled":false,"rental_uris":{"android":"levelo://app?vid=2b711feb-e170-4304-a8c5-1761a9518072","ios":"levelo://app?vid=2b711feb-e170-4304-a8c5-1761a9518072"},"vehicle_type_id":"4","last_reported":1742566140,"current_range_meters":16400,"station_id":"ce4bh0h2rcd13ifvqd40","pricing_plan_id":"cebpf4jnsgd1na2vs0mg"},{"bike_id":"a3d8d03e-df38-4104-bd02-16ce2c828faf","system_id":"levelo_inurba_marseille","lat":43.28377,"lon":5.38625,"is_reserved":false,"is_disabled":false,"rental_uris":{"android":"levelo://app?vid=a3d8d03e-df38-4104-bd02-16ce2c828faf","ios":"levelo://app?vid=a3d8d03e-df38-4104-bd02-16ce2c828faf"},"vehicle_type_id":"4","last_reported":1742566140,"current_range_meters":16400,"station_id":"ce4bh492rcd13ifvqdvg","pricing_plan_id":"cebpf4jnsgd1na2vs0mg"},{"bike_id":"605cf234-f225-408c-83a8-89a9c941a273","system_id":"levelo_inurba_marseille","lat":43.30126,"lon":5.39854,"is_reserved":false,"is_disabled":false,"rental_uris":{"android":"levelo://app?vid=605cf234-f225-408c-83a8-89a9c941a273","ios":"levelo://app?vid=605cf234-f225-408c-83a8-89a9c941a273"},"vehicle_type_id":"4","last_reported":1742566140,"current_range_meters":16400,"station_id":"ce4bh0h2rcd13ifvqd40","pricing_plan_id":"cebpf4jnsgd1na2vs0mg"},{"bike_id":"222b38a9-0973-4daf-90b2-84c093b5d1fc","system_id":"levelo_inurba_marseille","lat":43.30953,"lon":5.39032,"is_reserved":false,"is_disabled":false,"rental_uris":{"android":"levelo://app?vid=222b38a9-0973-4daf-90b2-84c093b5d1fc","ios":"levelo://app?vid=222b38a9-0973-4daf-90b2-84c093b5d1fc"},"vehicle_type_id":"4","last_reported":1742566140,"current_range_meters":16000,"station_id":"ce4bgup2rcd13ifvqco0","pricing_plan_id":"cebpf4jnsgd1na2vs0mg"},{"bike_id":"9c6aca2f-ebf6-4e17-8d0c-cc9578f6b84d","system_id":"levelo_inurba_marseille","lat":43.3248,"lon":5.36599,"is_reserved":false,"is_disabled":false,"rental_uris":{"android":"levelo://app?vid=9c6aca2f-ebf6-4e17-8d0c-cc9578f6b84d","ios":"levelo://app?vid=9c6aca2f-ebf6-4e17-8d0c-cc9578f6b84d"},"vehicle_type_id":"4","last_reported":1742566140,"current_range_meters":16400,"station_id":"ce4bhs12rcd13ifvqhvg","pricing_plan_id":"cebpf4jnsgd1na2vs0mg"},{"bike_id":"0b49bdf5-e1e6-4881-ad0b-23dfc5b30bed","system_id":"levelo_inurba_marseille","lat":43.30807,"lon":5.37658,"is_reserved":false,"is_disabled":false,"rental_uris":{"android":"levelo://app?vid=0b49bdf5-e1e6-4881-ad0b-23dfc5b30bed","ios":"levelo://app?vid=0b49bdf5-e1e6-4881-ad0b-23dfc5b30bed"},"vehicle_type_id":"4","last_reported":1742566140,"current_range_meters":16400,"station_id":"ce4bgv92rcd13ifvqcq0","pricing_plan_id":"cebpf4jnsgd1na2vs0mg"},{"bike_id":"7c15e8bf-5e69-4317-a1d2-3f0ca9960d9e","system_id":"levelo_inurba_marseille","lat":43.31499,"lon":5.37267,"is_reserved":false,"is_disabled":false,"rental_uris":{"android":"levelo://app?vid=7c15e8bf-5e69-4317-a1d2-3f0ca9960d9e","ios":"levelo://app?vid=7c15e8bf-5e69-4317-a1d2-3f0ca9960d9e"},"vehicle_type_id":"4","last_reported":1742566140,"current_range_meters":16400,"station_id":"ce4bgt12rcd13ifvqcd0","pricing_plan_id":"cebpf4jnsgd1na2vs0mg"},{"bike_id":"906028a4-61e4-48d4-a5f0-a0c08a3ac24f","system_id":"levelo_inurba_marseille","lat":43.29263,"lon":5.4091,"is_reserved":false,"is_disabled":false,"rental_uris":{"android":"levelo://app?vid=906028a4-61e4-48d4-a5f0-a0c08a3ac24f","ios":"levelo://app?vid=906028a4-61e4-48d4-a5f0-a0c08a3ac24f"},"vehicle_type_id":"4","last_reported":1742566140,"current_range_meters":16400,"station_id":"ce4bh192rcd13ifvqdc0","pricing_plan_id":"cebpf4jnsgd1na2vs0mg"},{"bike_id":"5466676a-5a0d-424e-bb85-606dd2b50d50","system_id":"levelo_inurba_marseille","lat":43.30877,"lon":5.39647,"is_reserved":false,"is_disabled":false,"rental_uris":{"android":"levelo://app?vid=5466676a-5a0d-424e-bb85-606dd2b50d50","ios":"levelo://app?vid=5466676a-5a0d-424e-bb85-606dd2b50d50"},"vehicle_type_id":"4","last_reported":1742566140,"current_range_meters":16800,"station_id":"ce4bh012rcd13ifvqcv0","pricing_plan_id":"cebpf4jnsgd1na2vs0mg"},{"bike_id":"954f5495-0fc8-4d91-864b-004937cf3b65","system_id":"levelo_inurba_marseille","lat":43.28637,"lon":5.35098,"is_reserved":false,"is_disabled":false,"rental_uris":{"android":"levelo://app?vid=954f5495-0fc8-4d91-864b-004937cf3b65","ios":"levelo://app?vid=954f5495-0fc8-4d91-864b-004937cf3b65"},"vehicle_type_id":"4","last_reported":1742566140,"current_range_meters":16800,"station_id":"ce4bhch2rcd13ifvqeug","pricing_plan_id":"cebpf4jnsgd1na2vs0mg"},{"bike_id":"016a7113-4cb2-4a86-8fcf-39d5e01c446e","system_id":"levelo_inurba_marseille","lat":43.3021,"lon":5.39472,"is_reserved":false,"is_disabled":false,"rental_uris":{"android":"levelo://app?vid=016a7113-4cb2-4a86-8fcf-39d5e01c446e","ios":"levelo://app?vid=016a7113-4cb2-4a86-8fcf-39d5e01c446e"},"vehicle_type_id":"4","last_reported":1742566140,"current_range_meters":16800,"station_id":"ce4bh0p2rcd13ifvqd70","pricing_plan_id":"cebpf4jnsgd1na2vs0mg"},{"bike_id":"fbb498fe-0420-4fc0-a001-6f20ac1d59dd","system_id":"levelo_inurba_marseille","lat":43.33611,"lon":5.40995,"is_reserved":false,"is_disabled":true,"rental_uris":{"android":"levelo://app?vid=fbb498fe-0420-4fc0-a001-6f20ac1d59dd","ios":"levelo://app?vid=fbb498fe-0420-4fc0-a001-6f20ac1d59dd"},"vehicle_type_id":"4","last_reported":1742566140,"current_range_meters":17200,"station_id":"ce4bhqh2rcd13ifvqhmg","pricing_plan_id":"cebpf4jnsgd1na2vs0mg"},{"bike_id":"8ee54ba7-bb00-416a-8098-e67ac50f69a7","system_id":"levelo_inurba_marseille","lat":43.25935,"lon":5.40906,"is_reserved":false,"is_disabled":false,"rental_uris":{"android":"levelo://app?vid=8ee54ba7-bb00-416a-8098-e67ac50f69a7","ios":"levelo://app?vid=8ee54ba7-bb00-416a-8098-e67ac50f69a7"},"vehicle_type_id":"4","last_reported":1742566140,"current_range_meters":16800,"station_id":"ce4bhm92rcd13ifvqglg","pricing_plan_id":"cebpf4jnsgd1na2vs0mg"},{"bike_id":"96f516c2-264e-43cc-a054-ee59b4eb1ccc","system_id":"levelo_inurba_marseille","lat":43.3025,"lon":5.40068,"is_reserved":false,"is_disabled":false,"rental_uris":{"android":"levelo://app?vid=96f516c2-264e-43cc-a054-ee59b4eb1ccc","ios":"levelo://app?vid=96f516c2-264e-43cc-a054-ee59b4eb1ccc"},"vehicle_type_id":"4","last_reported":1742566140,"current_range_meters":16800,"station_id":"ce4bgvh2rcd13ifvqcs0","pricing_plan_id":"cebpf4jnsgd1na2vs0mg"},{"bike_id":"8e28b27d-d3dd-4fab-8e7d-3ab3a210e968","system_id":"levelo_inurba_marseille","lat":43.27427,"lon":5.39415,"is_reserved":false,"is_disabled":false,"rental_uris":{"android":"levelo://app?vid=8e28b27d-d3dd-4fab-8e7d-3ab3a210e968","ios":"levelo://app?vid=8e28b27d-d3dd-4fab-8e7d-3ab3a210e968"},"vehicle_type_id":"4","last_reported":1742566140,"current_range_meters":16800,"station_id":"ce4bhdp2rcd13ifvqf20","pricing_plan_id":"cebpf4jnsgd1na2vs0mg"},{"bike_id":"514035ca-4058-4010-81fa-5f74f554ce83","system_id":"levelo_inurba_marseille","lat":43.29973,"lon":5.38503,"is_reserved":false,"is_disabled":false,"rental_uris":{"android":"levelo://app?vid=514035ca-4058-4010-81fa-5f74f554ce83","ios":"levelo://app?vid=514035ca-4058-4010-81fa-5f74f554ce83"},"vehicle_type_id":"4","last_reported":1742566140,"current_range_meters":16800,"station_id":"ce4bgj92rcd13ifvqbd0","pricing_plan_id":"cebpf4jnsgd1na2vs0mg"},{"bike_id":"7d9bf2d2-5153-499c-a1fb-dcb365a9e566","system_id":"levelo_inurba_marseille","lat":43.24186,"lon":5.39725,"is_reserved":false,"is_disabled":false,"rental_uris":{"android":"levelo://app?vid=7d9bf2d2-5153-499c-a1fb-dcb365a9e566","ios":"levelo://app?vid=7d9bf2d2-5153-499c-a1fb-dcb365a9e566"},"vehicle_type_id":"4","last_reported":1742566140,"current_range_meters":16800,"station_id":"ce4bhn12rcd13ifvqgpg","pricing_plan_id":"cebpf4jnsgd1na2vs0mg"},{"bike_id":"b4b2a2a4-db9f-4cf3-bbe3-0d0eeb6fd499","system_id":"levelo_inurba_marseille","lat":43.3198,"lon":5.38116,"is_reserved":false,"is_disabled":false,"rental_uris":{"android":"levelo://app?vid=b4b2a2a4-db9f-4cf3-bbe3-0d0eeb6fd499","ios":"levelo://app?vid=b4b2a2a4-db9f-4cf3-bbe3-0d0eeb6fd499"},"vehicle_type_id":"4","last_reported":1742566140,"current_range_meters":16800,"station_id":"ce4bhr12rcd13ifvqhpg","pricing_plan_id":"cebpf4jnsgd1na2vs0mg"},{"bike_id":"5d3539ed-c5b6-435a-a05d-e66f0f540b12","system_id":"levelo_inurba_marseille","lat":43.29271,"lon":5.36856,"is_reserved":false,"is_disabled":false,"rental_uris":{"android":"levelo://app?vid=5d3539ed-c5b6-435a-a05d-e66f0f540b12","ios":"levelo://app?vid=5d3539ed-c5b6-435a-a05d-e66f0f540b12"},"vehicle_type_id":"4","last_reported":1742566140,"current_range_meters":16800,"station_id":"ce4bhbp2rcd13ifvqesg","pricing_plan_id":"cebpf4jnsgd1na2vs0mg"},{"bike_id":"b5dfa879-c1d5-4a9c-a077-2c481b7f8cfa","system_id":"levelo_inurba_marseille","lat":43.30865,"lon":5.37789,"is_reserved":false,"is_disabled":false,"rental_uris":{"android":"levelo://app?vid=b5dfa879-c1d5-4a9c-a077-2c481b7f8cfa","ios":"levelo://app?vid=b5dfa879-c1d5-4a9c-a077-2c481b7f8cfa"},"vehicle_type_id":"4","last_reported":1742566140,"current_range_meters":16800,"station_id":"","pricing_plan_id":"cebpf4jnsgd1na2vs0mg"},{"bike_id":"6d6b3ef7-1560-4be7-9fb6-04c64153a825","system_id":"levelo_inurba_marseille","lat":43.2857,"lon":5.39485,"is_reserved":false,"is_disabled":false,"rental_uris":{"android":"levelo://app?vid=6d6b3ef7-1560-4be7-9fb6-04c64153a825","ios":"levelo://app?vid=6d6b3ef7-1560-4be7-9fb6-04c64153a825"},"vehicle_type_id":"4","last_reported":1742566140,"current_range_meters":16800,"station_id":"ce4bh292rcd13ifvqdg0","pricing_plan_id":"cebpf4jnsgd1na2vs0mg"},{"bike_id":"a490f70e-3087-422b-974e-2c896f9f495c","system_id":"levelo_inurba_marseille","lat":43.33725,"lon":5.39183,"is_reserved":false,"is_disabled":false,"rental_uris":{"android":"levelo://app?vid=a490f70e-3087-422b-974e-2c896f9f495c","ios":"levelo://app?vid=a490f70e-3087-422b-974e-2c896f9f495c"},"vehicle_type_id":"4","last_reported":1742566140,"current_range_meters":16800,"station_id":"ce4bhr92rcd13ifvqhsg","pricing_plan_id":"cebpf4jnsgd1na2vs0mg"},{"bike_id":"1d051785-f31b-4db2-bd9a-b1f97811e834","system_id":"levelo_inurba_marseille","lat":43.26561,"lon":5.37291,"is_reserved":false,"is_disabled":false,"rental_uris":{"android":"levelo://app?vid=1d051785-f31b-4db2-bd9a-b1f97811e834","ios":"levelo://app?vid=1d051785-f31b-4db2-bd9a-b1f97811e834"},"vehicle_type_id":"4","last_reported":1742566140,"current_range_meters":17200,"station_id":"ce4bhg12rcd13ifvqf70","pricing_plan_id":"cebpf4jnsgd1na2vs0mg"},{"bike_id":"6f24a2a1-f7a4-4d3a-a74a-b9319d5a0a43","system_id":"levelo_inurba_marseille","lat":43.29424,"lon":5.38611,"is_reserved":false,"is_disabled":false,"rental_uris":{"android":"levelo://app?vid=6f24a2a1-f7a4-4d3a-a74a-b9319d5a0a43","ios":"levelo://app?vid=6f24a2a1-f7a4-4d3a-a74a-b9319d5a0a43"},"vehicle_type_id":"4","last_reported":1742566140,"current_range_meters":17200,"station_id":"ce4bh692rcd13ifvqea0","pricing_plan_id":"cebpf4jnsgd1na2vs0mg"},{"bike_id":"18357f9f-b46c-4211-83c7-bd04d5b7a5d6","system_id":"levelo_inurba_marseille","lat":43.27496,"lon":5.42452,"is_reserved":false,"is_disabled":false,"rental_uris":{"android":"levelo://app?vid=18357f9f-b46c-4211-83c7-bd04d5b7a5d6","ios":"levelo://app?vid=18357f9f-b46c-4211-83c7-bd04d5b7a5d6"},"vehicle_type_id":"4","last_reported":1742566140,"current_range_meters":16800,"station_id":"ce4bhn92rcd13ifvqgrg","pricing_plan_id":"cebpf4jnsgd1na2vs0mg"},{"bike_id":"ac59200f-39b8-4efb-ad50-2f29afc70352","system_id":"levelo_inurba_marseille","lat":43.29073,"lon":5.37163,"is_reserved":false,"is_disabled":true,"rental_uris":{"android":"levelo://app?vid=ac59200f-39b8-4efb-ad50-2f29afc70352","ios":"levelo://app?vid=ac59200f-39b8-4efb-ad50-2f29afc70352"},