{"last_updated":1680009343,"ttl":30,"version":"2.2","data":{"bikes":[{"bike_id":"739a83fe-feea-4cea-89f2-ec82a7547df3","system_id":"levelo_inurba_marseille","lat":43.312239,"lon":5.368562,"is_reserved":false,"is_disabled":false,"rental_uris":{"android":"levelo://app?vid=739a83fe-feea-4cea-89f2-ec82a7547df3","ios":"levelo://app?vid=739a83fe-feea-4cea-89f2-ec82a7547df3"},"vehicle_type_id":"4","last_reported":1680009344,"current_range_meters":18800,"station_id":"ce4bgl92rcd13ifvqbq0","pricing_plan_id":"free"},{"bike_id":"63bf864d-23aa-4073-94c4-fb8d2fd8c193","system_id":"levelo_inurba_marseille","lat":43.312239,"lon":5.368562,"is_reserved":false,"is_disabled":false,"rental_uris":{"android":"levelo://app?vid=63bf864d-23aa-4073-94c4-fb8d2fd8c193","ios":"levelo://app?vid=63bf864d-23aa-4073-94c4-fb8d2fd8c193"},"vehicle_type_id":"4","last_reported":1680009344,"current_range_meters":21200,"station_id":"ce4bgl92rcd13ifvqbq0","pricing_plan_id":"free"},{"bike_id":"1ffabe38-8bc6-426c-ac2d-99737141e3f6","system_id":"levelo_inurba_marseille","lat":43.314888,"lon":5.373129,"is_reserved":false,"is_disabled":false,"rental_uris":{"android":"levelo://app?vid=1ffabe38-8bc6-426c-ac2d-99737141e3f6","ios":"levelo://app?vid=1ffabe38-8bc6-426c-ac2d-99737141e3f6"},"vehicle_type_id":"4","last_reported":1680009344,"current_range_meters":0,"station_id":"ce4bgt12rcd13ifvqcd0","pricing_plan_id":"free"},{"bike_id":"b8e8f5ec-57ce-479c-9426-b1e0a79e6df0","system_id":"levelo_inurba_marseille","lat":43.301939,"lon":5.366286,"is_reserved":false,"is_disabled":false,"rental_uris":{"android":"levelo://app?vid=b8e8f5ec-57ce-479c-9426-b1e0a79e6df0","ios":"levelo://app?vid=b8e8f5ec-57ce-479c-9426-b1e0a79e6df0"},"vehicle_type_id":"4","last_reported":1680009344,"current_range_meters":0,"station_id":"ce4bgrh2rcd13ifvqc8g","pricing_plan_id":"free"},{"bike_id":"6a961c9c-f912-47bf-bfd1-0fa37f5ae43f","system_id":"levelo_inurba_marseille","lat":43.308012,"lon":5.381511,"is_reserved":false,"is_disabled":false,"rental_uris":{"android":"levelo://app?vid=6a961c9c-f912-47bf-bfd1-0fa37f5ae43f","ios":"levelo://app?vid=6a961c9c-f912-47bf-bfd1-0fa37f5ae43f"},"vehicle_type_id":"4","last_reported":1680009344,"current_range_meters":0,"station_id":"ce4bgt12rcd13ifvqce0","pricing_plan_id":"free"},{"bike_id":"16cdd1f3-5755-452a-97b8-d280fa215d30","system_id":"levelo_inurba_marseille","lat":43.30143,"lon":5.37413,"is_reserved":false,"is_disabled":false,"rental_uris":{"android":"levelo://app?vid=16cdd1f3-5755-452a-97b8-d280fa215d30","ios":"levelo://app?vid=16cdd1f3-5755-452a-97b8-d280fa215d30"},"vehicle_type_id":"4","last_reported":1680009344,"current_range_meters":2000,"station_id":"ce4bgs92rcd13ifvqcc0","pricing_plan_id":"free"},{"bike_id":"b9a8caef-8cbe-43ee-a596-592d78c77a05","system_id":"levelo_inurba_marseille","lat":43.313571,"lon":5.384829,"is_reserved":false,"is_disabled":false,"rental_uris":{"android":"levelo://app?vid=b9a8caef-8cbe-43ee-a596-592d78c77a05","ios":"levelo://app?vid=b9a8caef-8cbe-43ee-a596-592d78c77a05"},"vehicle_type_id":"4","last_reported":1680009344,"current_range_meters":0,"station_id":"ce4bgt92rcd13ifvqcf0","pricing_plan_id":"free"},{"bike_id":"8f8f8b1f-0c8c-49c0-a843-e5d59fe8e2bb","system_id":"levelo_inurba_marseille","lat":43.31361,"lon":5.38502,"is_reserved":false,"is_disabled":false,"rental_uris":{"android":"levelo://app?vid=8f8f8b1f-0c8c-49c0-a843-e5d59fe8e2bb","ios":"levelo://app?vid=8f8f8b1f-0c8c-49c0-a843-e5d59fe8e2bb"},"vehicle_type_id":"4","last_reported":1680009344,"current_range_meters":4800,"station_id":"ce4bgt92rcd13ifvqcf0","pricing_plan_id":"free"},{"bike_id":"2ab7a7ed-80fa-4a8c-aa45-7abb4d61ca5a","system_id":"levelo_inurba_marseille","lat":43.299094,"lon":5.365415,"is_reserved":false,"is_disabled":false,"rental_uris":{"android":"levelo://app?vid=2ab7a7ed-80fa-4a8c-aa45-7abb4d61ca5a","ios":"levelo://app?vid=2ab7a7ed-80fa-4a8c-aa45-7abb4d61ca5a"},"vehicle_type_id":"4","last_reported":1680009344,"current_range_meters":0,"station_id":"ce4bgm92rcd13ifvqbr0","pricing_plan_id":"free"},{"bike_id":"d1d3fbc9-941a-494f-a681-bcb58354a5ea","system_id":"levelo_inurba_marseille","lat":43.313897,"lon":5.385733,"is_reserved":false,"is_disabled":false,"rental_uris":{"android":"levelo://app?vid=d1d3fbc9-941a-494f-a681-bcb58354a5ea","ios":"levelo://app?vid=d1d3fbc9-941a-494f-a681-bcb58354a5ea"},"vehicle_type_id":"4","last_reported":1680009344,"current_range_meters":31600,"station_id":"ce4bgt92rcd13ifvqcf0","pricing_plan_id":"free"},{"bike_id":"aa5d7d55-aeec-4bf8-8616-0772ecab3c59","system_id":"levelo_inurba_marseille","lat":43.31381,"lon":5.38584,"is_reserved":false,"is_disabled":false,"rental_uris":{"android":"levelo://app?vid=aa5d7d55-aeec-4bf8-8616-0772ecab3c59","ios":"levelo://app?vid=aa5d7d55-aeec-4bf8-8616-0772ecab3c59"},"vehicle_type_id":"4","last_reported":1680009344,"current_range_meters":14800,"station_id":"ce4bgt92rcd13ifvqcf0","pricing_plan_id":"free"},{"bike_id":"641135a0-7c14-48b1-8601-a29943ad4de5","system_id":"levelo_inurba_marseille","lat":43.30162,"lon":5.3798,"is_reserved":false,"is_disabled":false,"rental_uris":{"android":"levelo://app?vid=641135a0-7c14-48b1-8601-a29943ad4de5","ios":"levelo://app?vid=641135a0-7c14-48b1-8601-a29943ad4de5"},"vehicle_type_id":"4","last_reported":1680009344,"current_range_meters":0,"station_id":"","pricing_plan_id":"free"},{"bike_id":"acabe481-87dc-4111-904f-faea08a4ad9a","system_id":"levelo_inurba_marseille","lat":43.298433,"lon":5.362774,"is_reserved":false,"is_disabled":false,"rental_uris":{"android":"levelo://app?vid=acabe481-87dc-4111-904f-faea08a4ad9a","ios":"levelo://app?vid=acabe481-87dc-4111-904f-faea08a4ad9a"},"vehicle_type_id":"4","last_reported":1680009344,"current_range_meters":0,"station_id":"ce4bgpp2rcd13ifvqc3g","pricing_plan_id":"free"},{"bike_id":"8032feff-b1cf-4224-b6a4-3ab1b87e1d78","system_id":"levelo_inurba_marseille","lat":43.298433,"lon":5.362774,"is_reserved":false,"is_disabled":false,"rental_uris":{"android":"levelo://app?vid=8032feff-b1cf-4224-b6a4-3ab1b87e1d78","ios":"levelo://app?vid=8032feff-b1cf-4224-b6a4-3ab1b87e1d78"},"vehicle_type_id":"4","last_reported":1680009344,"current_range_meters":0,"station_id":"ce4bgpp2rcd13ifvqc3g","pricing_plan_id":"free"},{"bike_id":"25fd4c28-b355-4650-8c9c-3abac656b3ee","system_id":"levelo_inurba_marseille","lat":43.305364,"lon":5.384119,"is_reserved":false,"is_disabled":false,"rental_uris":{"android":"levelo://app?vid=25fd4c28-b355-4650-8c9c-3abac656b3ee","ios":"levelo://app?vid=25fd4c28-b355-4650-8c9c-3abac656b3ee"},"vehicle_type_id":"4","last_reported":1680009344,"current_range_meters":0,"station_id":"ce4bgg92rcd13ifvqb30","pricing_plan_id":"free"},{"bike_id":"4eedca23-a9cc-4d93-bc30-5e80bce80c6d","system_id":"levelo_inurba_marseille","lat":43.29918,"lon":5.37456,"is_reserved":false,"is_disabled":false,"rental_uris":{"android":"levelo://app?vid=4eedca23-a9cc-4d93-bc30-5e80bce80c6d","ios":"levelo://app?vid=4eedca23-a9cc-4d93-bc30-5e80bce80c6d"},"vehicle_type_id":"4","last_reported":1680009344,"current_range_meters":17600,"station_id":"ce4bgjh2rcd13ifvqbg0","pricing_plan_id":"free"},{"bike_id":"8e46ac94-f45d-4fae-a40d-323eb4e09adc","system_id":"levelo_inurba_marseille","lat":43.32822,"lon":5.36684,"is_reserved":false,"is_disabled":false,"rental_uris":{"android":"levelo://app?vid=8e46ac94-f45d-4fae-a40d-323eb4e09adc","ios":"levelo://app?vid=8e46ac94-f45d-4fae-a40d-323eb4e09adc"},"vehicle_type_id":"4","last_reported":1680009344,"current_range_meters":0,"station_id":"ce4bhs92rcd13ifvqi0g","pricing_plan_id":"free"},{"bike_id":"0bc6da43-9c29-46ef-b8b2-6cb60f0c075d","system_id":"levelo_inurba_marseille","lat":43.32835,"lon":5.366978,"is_reserved":false,"is_disabled":false,"rental_uris":{"android":"levelo://app?vid=0bc6da43-9c29-46ef-b8b2-6cb60f0c075d","ios":"levelo://app?vid=0bc6da43-9c29-46ef-b8b2-6cb60f0c075d"},"vehicle_type_id":"4","last_reported":1680009344,"current_range_meters":3600,"station_id":"ce4bhs92rcd13ifvqi0g","pricing_plan_id":"free"},{"bike_id":"ecce4341-cc5c-49f3-b63a-39a41d26050b","system_id":"levelo_inurba_marseille","lat":43.32849,"lon":5.36675,"is_reserved":false,"is_disabled":false,"rental_uris":{"android":"levelo://app?vid=ecce4341-cc5c-49f3-b63a-39a41d26050b","ios":"levelo://app?vid=ecce4341-cc5c-49f3-b63a-39a41d26050b"},"vehicle_type_id":"4","last_reported":1680009344,"current_range_meters":23200,"station_id":"ce4bhs92rcd13ifvqi0g","pricing_plan_id":"free"},{"bike_id":"4d424ea6-2d21-43f0-bdeb-219dd9f222bf","system_id":"levelo_inurba_marseille","lat":43.29573,"lon":5.367355,"is_reserved":false,"is_disabled":false,"rental_uris":{"android":"levelo://app?vid=4d424ea6-2d21-43f0-bdeb-219dd9f222bf","ios":"levelo://app?vid=4d424ea6-2d21-43f0-bdeb-219dd9f222bf"},"vehicle_type_id":"4","last_reported":1680009344,"current_range_meters":13200,"station_id":"ce4bgph2rcd13ifvqc2g","pricing_plan_id":"free"},{"bike_id":"b849d0ad-4172-4b7b-802a-3c66f1153ac0","system_id":"levelo_inurba_marseille","lat":43.296131,"lon":5.370791,"is_reserved":false,"is_disabled":false,"rental_uris":{"android":"levelo://app?vid=b849d0ad-4172-4b7b-802a-3c66f1153ac0","ios":"levelo://app?vid=b849d0ad-4172-4b7b-802a-3c66f1153ac0"},"vehicle_type_id":"4","last_reported":1680009344,"current_range_meters":11600,"station_id":"ce4bgnh2rcd13ifvqc0g","pricing_plan_id":"free"},{"bike_id":"0a6f9038-e349-42d5-aee4-2ba333388edc","system_id":"levelo_inurba_marseille","lat":43.2958,"lon":5.36751,"is_reserved":false,"is_disabled":false,"rental_uris":{"android":"levelo://app?vid=0a6f9038-e349-42d5-aee4-2ba333388edc","ios":"levelo://app?vid=0a6f9038-e349-42d5-aee4-2ba333388edc"},"vehicle_type_id":"4","last_reported":1680009344,"current_range_meters":0,"station_id":"ce4bgph2rcd13ifvqc2g","pricing_plan_id":"free"},{"bike_id":"eb56c5c9-7825-4699-8111-31f0ea8120cf","system_id":"levelo_inurba_marseille","lat":43.29573,"lon":5.367355,"is_reserved":false,"is_disabled":false,"rental_uris":{"android":"levelo://app?vid=eb56c5c9-7825-4699-8111-31f0ea8120cf","ios":"levelo://app?vid=eb56c5c9-7825-4699-8111-31f0ea8120cf"},"vehicle_type_id":"4","last_reported":1680009344,"current_range_meters":3600,"station_id":"ce4bgph2rcd13ifvqc2g","pricing_plan_id":"free"},{"bike_id":"371615e0-432e-4f3d-b719-afb1262a0510","system_id":"levelo_inurba_marseille","lat":43.309589,"lon":5.390258,"is_reserved":false,"is_disabled":false,"rental_uris":{"android":"levelo://app?vid=371615e0-432e-4f3d-b719-afb1262a0510","ios":"levelo://app?vid=371615e0-432e-4f3d-b719-afb1262a0510"},"vehicle_type_id":"4","last_reported":1680009344,"current_range_meters":11600,"station_id":"ce4bgup2rcd13ifvqco0","pricing_plan_id":"free"},{"bike_id":"eafb5207-cd6e-42e1-9af1-987f8d6a2fd4","system_id":"levelo_inurba_marseille","lat":43.309589,"lon":5.390258,"is_reserved":false,"is_disabled":false,"rental_uris":{"android":"levelo://app?vid=eafb5207-cd6e-42e1-9af1-987f8d6a2fd4","ios":"levelo://app?vid=eafb5207-cd6e-42e1-9af1-987f8d6a2fd4"},"vehicle_type_id":"4","last_reported":1680009344,"current_range_meters":6000,"station_id":"ce4bgup2rcd13ifvqco0","pricing_plan_id":"free"},{"bike_id":"23ddd88b-51a5-4cd8-b357-0b0ee0ee5fbe","system_id":"levelo_inurba_marseille","lat":43.309589,"lon":5.390258,"is_reserved":false,"is_disabled":false,"rental_uris":{"android":"levelo://app?vid=23ddd88b-51a5-4cd8-b357-0b0ee0ee5fbe","ios":"levelo://app?vid=23ddd88b-51a5-4cd8-b357-0b0ee0ee5fbe"},"vehicle_type_id":"4","last_reported":1680009344,"current_range_meters":30400,"station_id":"ce4bgup2rcd13ifvqco0","pricing_plan_id":"free"},{"bike_id":"2a893205-fa93-4da4-ab1c-5bcb33ab28fc","system_id":"levelo_inurba_marseille","lat":43.317557,"lon":5.390072,"is_reserved":false,"is_disabled":false,"rental_uris":{"android":"levelo://app?vid=2a893205-fa93-4da4-ab1c-5bcb33ab28fc","ios":"levelo://app?vid=2a893205-fa93-4da4-ab1c-5bcb33ab28fc"},"vehicle_type_id":"4","last_reported":1680009344,"current_range_meters":16400,"station_id":"","pricing_plan_id":"free"},{"bike_id":"ef8b451d-155f-4aec-be9d-a7604e8a58d4","system_id":"levelo_inurba_marseille","lat":43.29796,"lon":5.38085,"is_reserved":false,"is_disabled":false,"rental_uris":{"android":"levelo://app?vid=ef8b451d-155f-4aec-be9d-a7604e8a58d4","ios":"levelo://app?vid=ef8b451d-155f-4aec-be9d-a7604e8a58d4"},"vehicle_type_id":"4","last_reported":1680009344,"current_range_meters":0,"station_id":"ce4bgip2rcd13ifvqbb0","pricing_plan_id":"free"},{"bike_id":"038ea848-e5ca-4a1d-834a-3e525b7227cf","system_id":"levelo_inurba_marseille","lat":43.295778,"lon":5.375121,"is_reserved":false,"is_disabled":false,"rental_uris":{"android":"levelo://app?vid=038ea848-e5ca-4a1d-834a-3e525b7227cf","ios":"levelo://app?vid=038ea848-e5ca-4a1d-834a-3e525b7227cf"},"vehicle_type_id":"4","last_reported":1680009344,"current_range_meters":16400,"station_id":"","pricing_plan_id":"free"},{"bike_id":"6c55ef48-de4d-423e-8c96-dbecb2f0e8f3","system_id":"levelo_inurba_marseille","lat":43.296594,"lon":5.378935,"is_reserved":false,"is_disabled":false,"rental_uris":{"android":"levelo://app?vid=6c55ef48-de4d-423e-8c96-dbecb2f0e8f3","ios":"levelo://app?vid=6c55ef48-de4d-423e-8c96-dbecb2f0e8f3"},"vehicle_type_id":"4","last_reported":1680009344,"current_range_meters":0,"station_id":"","pricing_plan_id":"free"},{"bike_id":"960decfb-f66c-46b2-8146-39e7c1655ef0","system_id":"levelo_inurba_marseille","lat":43.270721,"lon":5.422764,"is_reserved":false,"is_disabled":false,"rental_uris":{"android":"levelo://app?vid=960decfb-f66c-46b2-8146-39e7c1655ef0","ios":"levelo://app?vid=960decfb-f66c-46b2-8146-39e7c1655ef0"},"vehicle_type_id":"4","last_reported":1680009344,"current_range_meters":400,"station_id":"ce4bhk92rcd13ifvqgb0","pricing_plan_id":"free"},{"bike_id":"002f8e45-0d13-4a75-8f49-8b6b79eb74ce","system_id":"levelo_inurba_marseille","lat":43.293009,"lon":5.374584,"is_reserved":false,"is_disabled":false,"rental_uris":{"android":"levelo://app?vid=002f8e45-0d13-4a75-8f49-8b6b79eb74ce","ios":"levelo://app?vid=002f8e45-0d13-4a75-8f49-8b6b79eb74ce"},"vehicle_type_id":"4","last_reported":1680009344,"current_range_meters":400,"station_id":"ce4bgi12rcd13ifvqb70","pricing_plan_id":"free"},{"bike_id":"8a3bd368-679d-4fd4-a234-5f0365623184","system_id":"levelo_inurba_marseille","lat":43.29231,"lon":5.360709,"is_reserved":false,"is_disabled":false,"rental_uris":{"android":"levelo://app?vid=8a3bd368-679d-4fd4-a234-5f0365623184","ios":"levelo://app?vid=8a3bd368-679d-4fd4-a234-5f0365623184"},"vehicle_type_id":"4","last_reported":1680009344,"current_range_meters":11200,"station_id":"ce4bhbh2rcd13ifvqeqg","pricing_plan_id":"free"},{"bike_id":"15c6c040-98b4-4d13-a026-310dd54ecd9f","system_id":"levelo_inurba_marseille","lat":43.292311,"lon":5.360731,"is_reserved":false,"is_disabled":false,"rental_uris":{"android":"levelo://app?vid=15c6c040-98b4-4d13-a026-310dd54ecd9f","ios":"levelo://app?vid=15c6c040-98b4-4d13-a026-310dd54ecd9f"},"vehicle_type_id":"4","last_reported":1680009344,"current_range_meters":0,"station_id":"ce4bhbh2rcd13ifvqeqg","pricing_plan_id":"free"},{"bike_id":"cfdc2eae-764e-43ee-858d-5fc2e6d6827f","system_id":"levelo_inurba_marseille","lat":43.29228,"lon":5.36064,"is_reserved":false,"is_disabled":false,"rental_uris":{"android":"levelo://app?vid=cfdc2eae-764e-43ee-858d-5fc2e6d6827f","ios":"levelo://app?vid=cfdc2eae-764e-43ee-858d-5fc2e6d6827f"},"vehicle_type_id":"4","last_reported":1680009344,"current_range_meters":13600,"station_id":"","pricing_plan_id":"free"},{"bike_id":"ec12cb52-2949-447b-b7e2-efe39dac122c","system_id":"levelo_inurba_marseille","lat":43.292311,"lon":5.360731,"is_reserved":false,"is_disabled":false,"rental_uris":{"android":"levelo://app?vid=ec12cb52-2949-447b-b7e2-efe39dac122c","ios":"levelo://app?vid=ec12cb52-2949-447b-b7e2-efe39dac122c"},"vehicle_type_id":"4","last_reported":1680009344,"current_range_meters":0,"station_id":"ce4bhbh2rcd13ifvqeqg","pricing_plan_id":"free"},{"bike_id":"53433b9d-3738-4865-9c63-02c935fbf571","system_id":"levelo_inurba_marseille","lat":43.298764,"lon":5.388973,"is_reserved":false,"is_disabled":false,"rental_uris":{"android":"levelo://app?vid=53433b9d-3738-4865-9c63-02c935fbf571","ios":"levelo://app?vid=53433b9d-3738-4865-9c63-02c935fbf571"},"vehicle_type_id":"4","last_reported":1680009344,"current_range_meters":10800,"station_id":"ce4bh392rcd13ifvqdl0","pricing_plan_id":"free"},{"bike_id":"0441c4d1-d3e9-4068-8a52-c5562117a96e","system_id":"levelo_inurba_marseille","lat":43.29874,"lon":5.38901,"is_reserved":false,"is_disabled":false,"rental_uris":{"android":"levelo://app?vid=0441c4d1-d3e9-4068-8a52-c5562117a96e","ios":"levelo://app?vid=0441c4d1-d3e9-4068-8a52-c5562117a96e"},"vehicle_type_id":"4","last_reported":1680009344,"current_range_meters":0,"station_id":"","pricing_plan_id":"free"},{"bike_id":"5b7cba7c-6e43-4af0-af24-8bbf4b36f8c8","system_id":"levelo_inurba_marseille","lat":43.3133,"lon":5.3969,"is_reserved":false,"is_disabled":false,"rental_uris":{"android":"levelo://app?vid=5b7cba7c-6e43-4af0-af24-8bbf4b36f8c8","ios":"levelo://app?vid=5b7cba7c-6e43-4af0-af24-8bbf4b36f8c8"},"vehicle_type_id":"4","last_reported":1680009344,"current_range_meters":13600,"station_id":"ce4bgvp2rcd13ifvqcu0","pricing_plan_id":"free"},{"bike_id":"806506e5-35fd-410c-b344-f5007dfc2e4e","system_id":"levelo_inurba_marseille","lat":43.31331,"lon":5.39691,"is_reserved":false,"is_disabled":false,"rental_uris":{"android":"levelo://app?vid=806506e5-35fd-410c-b344-f5007dfc2e4e","ios":"levelo://app?vid=806506e5-35fd-410c-b344-f5007dfc2e4e"},"vehicle_type_id":"4","last_reported":1680009344,"current_range_meters":3200,"station_id":"ce4bgvp2rcd13ifvqcu0","pricing_plan_id":"free"},{"bike_id":"2dac443b-703f-4cb8-8316-5de1e6262909","system_id":"levelo_inurba_marseille","lat":43.313291,"lon":5.396838,"is_reserved":false,"is_disabled":false,"rental_uris":{"android":"levelo://app?vid=2dac443b-703f-4cb8-8316-5de1e6262909","ios":"levelo://app?vid=2dac443b-703f-4cb8-8316-5de1e6262909"},"vehicle_type_id":"4","last_reported":1680009344,"current_range_meters":8000,"station_id":"ce4bgvp2rcd13ifvqcu0","pricing_plan_id":"free"},{"bike_id":"313e2ff5-6eac-48b6-9e8a-ac8b885a3776","system_id":"levelo_inurba_marseille","lat":43.290779,"lon":5.371482,"is_reserved":false,"is_disabled":false,"rental_uris":{"android":"levelo://app?vid=313e2ff5-6eac-48b6-9e8a-ac8b885a3776","ios":"levelo://app?vid=313e2ff5-6eac-48b6-9e8a-ac8b885a3776"},"vehicle_type_id":"4","last_reported":1680009344,"current_range_meters":1200,"station_id":"ce4bh5p2rcd13ifvqe4g","pricing_plan_id":"free"},{"bike_id":"4d612669-df4e-45c7-9c16-c1184cbcf31b","system_id":"levelo_inurba_marseille","lat":43.322579,"lon":5.394458,"is_reserved":false,"is_disabled":false,"rental_uris":{"android":"levelo://app?vid=4d612669-df4e-45c7-9c16-c1184cbcf31b","ios":"levelo://app?vid=4d612669-df4e-45c7-9c16-c1184cbcf31b"},"vehicle_type_id":"4","last_reported":1680009344,"current_range_meters":0,"station_id":"","pricing_plan_id":"free"},{"bike_id":"0b92fdbf-c024-4106-8da1-2710e737c25e","system_id":"levelo_inurba_marseille","lat":43.29065,"lon":5.3716,"is_reserved":false,"is_disabled":false,"rental_uris":{"android":"levelo://app?vid=0b92fdbf-c024-4106-8da1-2710e737c25e","ios":"levelo://app?vid=0b92fdbf-c024-4106-8da1-2710e737c25e"},"vehicle_type_id":"4","last_reported":1680009344,"current_range_meters":2000,"station_id":"ce4bh5p2rcd13ifvqe4g","pricing_plan_id":"free"},{"bike_id":"3d8818c2-d001-4de4-89ec-8bf67214445e","system_id":"levelo_inurba_marseille","lat":43.290327,"lon":5.375711,"is_reserved":false,"is_disabled":false,"rental_uris":{"android":"levelo://app?vid=3d8818c2-d001-4de4-89ec-8bf67214445e","ios":"levelo://app?vid=3d8818c2-d001-4de4-89ec-8bf67214445e"},"vehicle_type_id":"4","last_reported":1680009344,"current_range_meters":800,"station_id":"ce4bh692rcd13ifvqe90","pricing_plan_id":"free"},{"bike_id":"1bbdc9cf-dfee-4f32-ab67-0fa6c5e87738","system_id":"levelo_inurba_marseille","lat":43.290327,"lon":5.375711,"is_reserved":false,"is_disabled":false,"rental_uris":{"android":"levelo://app?vid=1bbdc9cf-dfee-4f32-ab67-0fa6c5e87738","ios":"levelo://app?vid=1bbdc9cf-dfee-4f32-ab67-0fa6c5e87738"},"vehicle_type_id":"4","last_reported":1680009344,"current_range_meters":7200,"station_id":"ce4bh692rcd13ifvqe90","pricing_plan_id":"free"},{"bike_id":"c2b5636d-23d4-486c-b021-99e3ccb6a24c","system_id":"levelo_inurba_marseille","lat":43.294153,"lon":5.386305,"is_reserved":false,"is_disabled":false,"rental_uris":{"android":"levelo://app?vid=c2b5636d-23d4-486c-b021-99e3ccb6a24c","ios":"levelo://app?vid=c2b5636d-23d4-486c-b021-99e3ccb6a24c"},"vehicle_type_id":"4","last_reported":1680009344,"current_range_meters":5200,"station_id":"ce4bh2h2rcd13ifvqdh0","pricing_plan_id":"free"},{"bike_id":"42e75141-3043-49e1-a53c-972b0f9b3f84","system_id":"levelo_inurba_marseille","lat":43.289404,"lon":5.366367,"is_reserved":false,"is_disabled":false,"rental_uris":{"android":"levelo://app?vid=42e75141-3043-49e1-a53c-972b0f9b3f84","ios":"levelo://app?vid=42e75141-3043-49e1-a53c-972b0f9b3f84"},"vehicle_type_id":"4","last_reported":1680009344,"current_range_meters":8400,"station_id":"ce4bhap2rcd13ifvqek0","pricing_plan_id":"free"},{"bike_id":"322ded7d-55a8-4414-a96a-b0c6c733cf35","system_id":"levelo_inurba_marseille","lat":43.289184,"lon":5.366408,"is_reserved":false,"is_disabled":false,"rental_uris":{"android":"levelo://app?vid=322ded7d-55a8-4414-a96a-b0c6c733cf35","ios":"levelo://app?vid=322ded7d-55a8-4414-a96a-b0c6c733cf35"},"vehicle_type_id":"4","last_reported":1680009344,"current_range_meters":30800,"station_id":"ce4bhap2rcd13ifvqek0","pricing_plan_id":"free"},{"bike_id":"c0bec32b-d480-451c-b580-d6e963a508dc","system_id":"levelo_inurba_marseille","lat":43.289468,"lon":5.363719,"is_reserved":false,"is_disabled":false,"rental_uris":{"android":"levelo://app?vid=c0bec32b-d480-451c-b580-d6e963a508dc","ios":"levelo://app?vid=c0bec32b-d480-451c-b580-d6e963a508dc"},"vehicle_type_id":"4","last_reported":1680009344,"current_range_meters":0,"station_id":"ce4bhc92rcd13ifvqetg","pricing_plan_id":"free"},{"bike_id":"83346186-43b5-4ee3-aa3e-21ac7be0a41d","system_id":"levelo_inurba_marseille","lat":43.33038,"lon":5.38918,"is_reserved":false,"is_disabled":false,"rental_uris":{"android":"levelo://app?vid=83346186-43b5-4ee3-aa3e-21ac7be0a41d","ios":"levelo://app?vid=83346186-43b5-4ee3-aa3e-21ac7be0a41d"},"vehicle_type_id":"4","last_reported":1680009344,"current_range_meters":31600,"station_id":"ce4bhr92rcd13ifvqhrg","pricing_plan_id":"free"},{"bike_id":"ea93e6fa-f38e-4f58-8ccc-b869cde8fe38","system_id":"levelo_inurba_marseille","lat":43.290062,"lon":5.356144,"is_reserved":false,"is_disabled":false,"rental_uris":{"android":"levelo://app?vid=ea93e6fa-f38e-4f58-8ccc-b869cde8fe38","ios":"levelo://app?vid=ea93e6fa-f38e-4f58-8ccc-b869cde8fe38"},"vehicle_type_id":"4","last_reported":1680009344,"current_range_meters":5200,"station_id":"ce4bhb92rcd13ifvqen0","pricing_plan_id":"free"},{"bike_id":"bc1582e5-8413-47fe-a526-4ad35aa99197","system_id":"levelo_inurba_marseille","lat":43.330442,"lon":5.389148,"is_reserved":false,"is_disabled":false,"rental_uris":{"android":"levelo://app?vid=bc1582e5-8413-47fe-a526-4ad35aa99197","ios":"levelo://app?vid=bc1582e5-8413-47fe-a526-4ad35aa99197"},"vehicle_type_id":"4","last_reported":1680009344,"current_range_meters":30800,"station_id":"ce4bhr92rcd13ifvqhrg","pricing_plan_id":"free"},{"bike_id":"fcd56b57-9eb0-474e-a02b-52e75bf7ef9a","system_id":"levelo_inurba_marseille","lat":43.290995,"lon":5.381361,"is_reserved":false,"is_disabled":false,"rental_uris":{"android":"levelo://app?vid=fcd56b57-9eb0-474e-a02b-52e75bf7ef9a","ios":"levelo://app?vid=fcd56b57-9eb0-474e-a02b-52e75bf7ef9a"},"vehicle_type_id":"4","last_reported":1680009344,"current_range_meters":11200,"station_id":"ce4bh512rcd13ifvqe2g","pricing_plan_id":"free"},{"bike_id":"8e596b97-a2e0-4309-be36-0bed027d78c0","system_id":"levelo_inurba_marseille","lat":43.289743,"lon":5.378304,"is_reserved":false,"is_disabled":false,"rental_uris":{"android":"levelo://app?vid=8e596b97-a2e0-4309-be36-0bed027d78c0","ios":"levelo://app?vid=8e596b97-a2e0-4309-be36-0bed027d78c0"},"vehicle_type_id":"4","last_reported":1680009344,"current_range_meters":20400,"station_id":"ce4bh9p2rcd13ifvqed0","pricing_plan_id":"free"},{"bike_id":"c177a032-d8c8-4a13-8ef6-b415c20002c8","system_id":"levelo_inurba_marseille","lat":43.2952,"lon":5.39069,"is_reserved":false,"is_disabled":false,"rental_uris":{"android":"levelo://app?vid=c177a032-d8c8-4a13-8ef6-b415c20002c8","ios":"levelo://app?vid=c177a032-d8c8-4a13-8ef6-b415c20002c8"},"vehicle_type_id":"4","last_reported":1680009344,"current_range_meters":7600,"station_id":"","pricing_plan_id":"free"},{"bike_id":"059020e5-f196-4f54-98d4-932901c32840","system_id":"levelo_inurba_marseille","lat":43.309314,"lon":5.400459,"is_reserved":false,"is_disabled":false,"rental_uris":{"android":"levelo://app?vid=059020e5-f196-4f54-98d4-932901c32840","ios":"levelo://app?vid=059020e5-f196-4f54-98d4-932901c32840"},"vehicle_type_id":"4","last_reported":1680009344,"current_range_meters":6800,"station_id":"","pricing_plan_id":"free"},{"bike_id":"de9c1b26-e648-4f95-bd4a-bffd10e041d2","system_id":"levelo_inurba_marseille","lat":43.288582,"lon":5.358435,"is_reserved":false,"is_disabled":false,"rental_uris":{"android":"levelo://app?vid=de9c1b26-e648-4f95-bd4a-bffd10e041d2","ios":"levelo://app?vid=de9c1b26-e648-4f95-bd4a-bffd10e041d2"},"vehicle_type_id":"4","last_reported":1680009344,"current_range_meters":21200,"station_id":"ce4bhb12rcd13ifvqem0","pricing_plan_id":"free"},{"bike_id":"f24524d1-a331-4bc9-8526-279b277dcbc7","system_id":"levelo_inurba_marseille","lat":43.28857,"lon":5.3584,"is_reserved":false,"is_disabled":false,"rental_uris":{"android":"levelo://app?vid=f24524d1-a331-4bc9-8526-279b277dcbc7","ios":"levelo://app?vid=f24524d1-a331-4bc9-8526-279b277dcbc7"},"vehicle_type_id":"4","last_reported":1680009344,"current_range_meters":0,"station_id":"ce4bhb12rcd13ifvqem0","pricing_plan_id":"free"},{"bike_id":"d4fb257a-a43a-4ecb-966a-94bd03079421","system_id":"levelo_inurba_marseille","lat":43.28846,"lon":5.35851,"is_reserved":false,"is_disabled":false,"rental_uris":{"android":"levelo://app?vid=d4fb257a-a43a-4ecb-966a-94bd03079421","ios":"levelo://app?vid=d4fb257a-a43a-4ecb-966a-94bd03079421"},"vehicle_type_id":"4","last_reported":1680009344,"current_range_meters":2800,"station_id":"","pricing_plan_id":"free"},{"bike_id":"2b64d755-523a-4188-8dd2-79340c38f8ef","system_id":"levelo_inurba_marseille","lat":43.30642,"lon":5.401,"is_reserved":false,"is_disabled":false,"rental_uris":{"android":"levelo://app?vid=2b64d755-523a-4188-8dd2-79340c38f8ef","ios":"levelo://app?vid=2b64d755-523a-4188-8dd2-79340c38f8ef"},"vehicle_type_id":"4","last_reported":1680009344,"current_range_meters":2400,"station_id":"ce4bh112rcd13ifvqda0","pricing_plan_id":"free"},{"bike_id":"4bcdfa15-fd72-4e7c-b39c-08e59893cb08","system_id":"levelo_inurba_marseille","lat":43.30642,"lon":5.401031,"is_reserved":false,"is_disabled":false,"rental_uris":{"android":"levelo://app?vid=4bcdfa15-fd72-4e7c-b39c-08e59893cb08","ios":"levelo://app?vid=4bcdfa15-fd72-4e7c-b39c-08e59893cb08"},"vehicle_type_id":"4","last_reported":1680009344,"current_range_meters":0,"station_id":"ce4bh112rcd13ifvqda0","pricing_plan_id":"free"},{"bike_id":"cd8082d5-7b45-416b-b236-e9742a1eed48","system_id":"levelo_inurba_marseille","lat":43.33787,"lon":5.37457,"is_reserved":false,"is_disabled":false,"rental_uris":{"android":"levelo://app?vid=cd8082d5-7b45-416b-b236-e9742a1eed48","ios":"levelo://app?vid=cd8082d5-7b45-416b-b236-e9742a1eed48"},"vehicle_type_id":"4","last_reported":1680009344,"current_range_meters":22400,"station_id":"","pricing_plan_id":"free"},{"bike_id":"6cde4025-87ee-4299-8168-84177ac68217","system_id":"levelo_inurba_marseille","lat":43.301117,"lon":5.398795,"is_reserved":false,"is_disabled":false,"rental_uris":{"android":"levelo://app?vid=6cde4025-87ee-4299-8168-84177ac68217","ios":"levelo://app?vid=6cde4025-87ee-4299-8168-84177ac68217"},"vehicle_type_id":"4","last_reported":1680009344,"current_range_meters":0,"station_id":"ce4bh0h2rcd13ifvqd40","pricing_plan_id":"free"},{"bike_id":"ff72a9e8-36ab-4a1d-8454-679e4743fc6c","system_id":"levelo_inurba_marseille","lat":43.30447,"lon":5.40099,"is_reserved":false,"is_disabled":false,"rental_uris":{"android":"levelo://app?vid=ff72a9e8-36ab-4a1d-8454-679e4743fc6c","ios":"levelo://app?vid=ff72a9e8-36ab-4a1d-8454-679e4743fc6c"},"vehicle_type_id":"4","last_reported":1680009344,"current_range_meters":12400,"station_id":"","pricing_plan_id":"free"},{"bike_id":"c8a976cb-68d3-4224-9fdd-35ed7959be84","system_id":"levelo_inurba_marseille","lat":43.298683,"lon":5.397286,"is_reserved":false,"is_disabled":false,"rental_uris":{"android":"levelo://app?vid=c8a976cb-68d3-4224-9fdd-35ed7959be84","ios":"levelo://app?vid=c8a976cb-68d3-4224-9fdd-35ed7959be84"},"vehicle_type_id":"4","last_reported":1680009344,"current_range_meters":17600,"station_id":"","pricing_plan_id":"free"},{"bike_id":"27917ea0-ec5f-4a8c-a5b0-fdc3c10c0d4e","system_id":"levelo_inurba_marseille","lat":43.286593,"lon":5.363346,"is_reserved":false,"is_disabled":false,"rental_uris":{"android":"levelo://app?vid=27917ea0-ec5f-4a8c-a5b0-fdc3c10c0d4e","ios":"levelo://app?vid=27917ea0-ec5f-4a8c-a5b0-fdc3c10c0d4e"},"vehicle_type_id":"4","last_reported":1680009344,"current_range_meters":13600,"station_id":"ce4bhah2rcd13ifvqej0","pricing_plan_id":"free"},{"bike_id":"19410536-6072-48a2-8091-75b778da2279","system_id":"levelo_inurba_marseille","lat":43.298444,"lon":5.397189,"is_reserved":false,"is_disabled":false,"rental_uris":{"android":"levelo://app?vid=19410536-6072-48a2-8091-75b778da2279","ios":"levelo://app?vid=19410536-6072-48a2-8091-75b778da2279"},"vehicle_type_id":"4","last_reported":1680009344,"current_range_meters":0,"station_id":"ce4bh0h2rcd13ifvqd50","pricing_plan_id":"free"},{"bike_id":"51d76b83-3bdb-4e73-94eb-7cdb228a7456","system_id":"levelo_inurba_marseille","lat":43.29524,"lon":5.39392,"is_reserved":false,"is_disabled":false,"rental_uris":{"android":"levelo://app?vid=51d76b83-3bdb-4e73-94eb-7cdb228a7456","ios":"levelo://app?vid=51d76b83-3bdb-4e73-94eb-7cdb228a7456"},"vehicle_type_id":"4","last_reported":1680009344,"current_range_meters":5600,"station_id":"ce4bh292rcd13ifvqdf0","pricing_plan_id":"free"},{"bike_id":"40a8bd8c-d722-4b22-9cb1-a73bcf27be37","system_id":"levelo_inurba_marseille","lat":43.29024,"lon":5.38633,"is_reserved":false,"is_disabled":false,"rental_uris":{"android":"levelo://app?vid=40a8bd8c-d722-4b22-9cb1-a73bcf27be37","ios":"levelo://app?vid=40a8bd8c-d722-4b22-9cb1-a73bcf27be37"},"vehicle_type_id":"4","last_reported":1680009344,"current_range_meters":19200,"station_id":"ce4bh4p2rcd13ifvqe0g","pricing_plan_id":"free"},{"bike_id":"534eb9bb-3bec-442a-a494-7e4c5fe36084","system_id":"levelo_inurba_marseille","lat":43.30245,"lon":5.40069,"is_reserved":false,"is_disabled":false,"rental_uris":{"android":"levelo://app?vid=534eb9bb-3bec-442a-a494-7e4c5fe36084","ios":"levelo://app?vid=534eb9bb-3bec-442a-a494-7e4c5fe36084"},"vehicle_type_id":"4","last_reported":1680009344,"current_range_meters":0,"station_id":"","pricing_plan_id":"free"},{"bike_id":"93c04016-46c9-49d9-b089-198de50fa764","system_id":"levelo_inurba_marseille","lat":43.31646,"lon":5.40437,"is_reserved":false,"is_disabled":false,"rental_uris":{"android":"levelo://app?vid=93c04016-46c9-49d9-b089-198de50fa764","ios":"levelo://app?vid=93c04016-46c9-49d9-b089-198de50fa764"},"vehicle_type_id":"4","last_reported":1680009344,"current_range_meters":800,"station_id":"ce4bh012rcd13ifvqd00","pricing_plan_id":"free"},{"bike_id":"0fe18fb3-c207-4bf6-8b71-c1a0079fd628","system_id":"levelo_inurba_marseille","lat":43.284534,"lon":5.358662,"is_reserved":false,"is_disabled":false,"rental_uris":{"android":"levelo://app?vid=0fe18fb3-c207-4bf6-8b71-c1a0079fd628","ios":"levelo://app?vid=0fe18fb3-c207-4bf6-8b71-c1a0079fd628"},"vehicle_type_id":"4","last_reported":1680009344,"current_range_meters":21200,"station_id":"ce4bhah2rcd13ifvqei0","pricing_plan_id":"free"},{"bike_id":"0d0908a5-5c98-4634-8714-38d43f9f7a43","system_id":"levelo_inurba_marseille","lat":43.295631,"lon":5.399688,"is_reserved":false,"is_disabled":false,"rental_uris":{"android":"levelo://app?vid=0d0908a5-5c98-4634-8714-38d43f9f7a43","ios":"levelo://app?vid=0d0908a5-5c98-4634-8714-38d43f9f7a43"},"vehicle_type_id":"4","last_reported":1680009344,"current_range_meters":8800,"station_id":"","pricing_plan_id":"free"},{"bike_id":"088ec117-1aa2-4a27-83de-6d1332d7b16a","system_id":"levelo_inurba_marseille","lat":43.295713,"lon":5.399639,"is_reserved":false,"is_disabled":false,"rental_uris":{"android":"levelo://app?vid=088ec117-1aa2-4a27-83de-6d1332d7b16a","ios":"levelo://app?vid=088ec117-1aa2-4a27-83de-6d1332d7b16a"},"vehicle_type_id":"4","last_reported":1680009344,"current_range_meters":800,"station_id":"ce4bh312rcd13ifvqdj0","pricing_plan_id":"free"},{"bike_id":"cfbc3603-7843-4588-a195-c6468d21d84c","system_id":"levelo_inurba_marseille","lat":43.337168,"lon":5.391825,"is_reserved":false,"is_disabled":false,"rental_uris":{"android":"levelo://app?vid=cfbc3603-7843-4588-a195-c6468d21d84c","ios":"levelo://app?vid=cfbc3603-7843-4588-a195-c6468d21d84c"},"vehicle_type_id":"4","last_reported":1680009344,"current_range_meters":31600,"station_id":"ce4bhr92rcd13ifvqhsg","pricing_plan_id":"free"},{"bike_id":"c0bd5d46-4635-47ba-8116-1b6aa58c8ac1","system_id":"levelo_inurba_marseille","lat":43.337168,"lon":5.391825,"is_reserved":false,"is_disabled":false,"rental_uris":{"android":"levelo://app?vid=c0bd5d46-4635-47ba-8116-1b6aa58c8ac1","ios":"levelo://app?vid=c0bd5d46-4635-47ba-8116-1b6aa58c8ac1"},"vehicle_type_id":"4","last_reported":1680009344,"current_range_meters":31600,"station_id":"ce4bhr92rcd13ifvqhsg","pricing_plan_id":"free"},{"bike_id":"074c40a6-cf13-4b35-92a5-2976bc67d2f0","system_id":"levelo_inurba_marseille","lat":43.323464,"lon":5.406297,"is_reserved":false,"is_disabled":false,"rental_uris":{"android":"levelo://app?vid=074c40a6-cf13-4b35-92a5-2976bc67d2f0","ios":"levelo://app?vid=074c40a6-cf13-4b35-92a5-2976bc67d2f0"},"vehicle_type_id":"4","last_reported":1680009344,"current_range_meters":0,"station_id":"ce4bhq92rcd13ifvqhjg","pricing_plan_id":"free"},{"bike_id":"96212ffd-2cf2-40cb-bf70-16fc93603f01","system_id":"levelo_inurba_marseille","lat":43.323464,"lon":5.406297,"is_reserved":false,"is_disabled":false,"rental_uris":{"android":"levelo://app?vid=96212ffd-2cf2-40cb-bf70-16fc93603f01","ios":"levelo://app?vid=96212ffd-2cf2-40cb-bf70-16fc93603f01"},"vehicle_type_id":"4","last_reported":1680009344,"current_range_meters":16800,"station_id":"ce4bhq92rcd13ifvqhjg","pricing_plan_id":"free"},{"bike_id":"cf06b522-69c4-4f16-92f6-56bb9933b8e8","system_id":"levelo_inurba_marseille","lat":43.284793,"lon":5.384119,"is_reserved":false,"is_disabled":false,"rental_uris":{"android":"levelo://app?vid=cf06b522-69c4-4f16-92f6-56bb9933b8e8","ios":"levelo://app?vid=cf06b522-69c4-4f16-92f6-56bb9933b8e8"},"vehicle_type_id":"4","last_reported":1680009344,"current_range_meters":30800,"station_id":"ce4bh512rcd13ifvqe3g","pricing_plan_id":"free"},{"bike_id":"9db0692a-f385-4e0c-8655-e2c3b817bed2","system_id":"levelo_inurba_marseille","lat":43.288501,"lon":5.393087,"is_reserved":false,"is_disabled":false,"rental_uris":{"android":"levelo://app?vid=9db0692a-f385-4e0c-8655-e2c3b817bed2","ios":"levelo://app?vid=9db0692a-f385-4e0c-8655-e2c3b817bed2"},"vehicle_type_id":"4","last_reported":1680009344,"current_range_meters":15600,"station_id":"ce4bh2p2rcd13ifvqdi0","pricing_plan_id":"free"},{"bike_id":"5b17128c-9c5f-4ab2-bd2b-33b0769f1469","system_id":"levelo_inurba_marseille","lat":43.2835,"lon":5.38093,"is_reserved":false,"is_disabled":false,"rental_uris":{"android":"levelo://app?vid=5b17128c-9c5f-4ab2-bd2b-33b0769f1469","ios":"levelo://app?vid=5b17128c-9c5f-4ab2-bd2b-33b0769f1469"},"vehicle_type_id":"4","last_reported":1680009344,"current_range_meters":23200,"station_id":"","pricing_plan_id":"free"},{"bike_id":"a1125be4-a25e-4706-b000-80ba6d501abf","system_id":"levelo_inurba_marseille","lat":43.28352,"lon":5.381133,"is_reserved":false,"is_disabled":false,"rental_uris":{"android":"levelo://app?vid=a1125be4-a25e-4706-b000-80ba6d501abf","ios":"levelo://app?vid=a1125be4-a25e-4706-b000-80ba6d501abf"},"vehicle_type_id":"4","last_reported":1680009344,"current_range_meters":6000,"station_id":"","pricing_plan_id":"free"},{"bike_id":"e8cabebe-6712-4012-9d16-a4a3fab391e4","system_id":"levelo_inurba_marseille","lat":43.2835,"lon":5.38109,"is_reserved":false,"is_disabled":false,"rental_uris":{"android":"levelo://app?vid=e8cabebe-6712-4012-9d16-a4a3fab391e4","ios":"levelo://app?vid=e8cabebe-6712-4012-9d16-a4a3fab391e4"},"vehicle_type_id":"4","last_reported":1680009344,"current_range_meters":1600,"station_id":"","pricing_plan_id":"free"},{"bike_id":"c457436c-d26c-4a8e-8306-cb57ce8ed144","system_id":"levelo_inurba_marseille","lat":43.28346,"lon":5.38099,"is_reserved":false,"is_disabled":false,"rental_uris":{"android":"levelo://app?vid=c457436c-d26c-4a8e-8306-cb57ce8ed144","ios":"levelo://app?vid=c457436c-d26c-4a8e-8306-cb57ce8ed144"},"vehicle_type_id":"4","last_reported":1680009344,"current_range_meters":7200,"station_id":"","pricing_plan_id":"free"},{"bike_id":"c18f148d-396f-4a68-9896-bdd814f3bda4","system_id":"levelo_inurba_marseille","lat":43.284219,"lon":5.3497,"is_reserved":false,"is_disabled":false,"rental_uris":{"android":"levelo://app?vid=c18f148d-396f-4a68-9896-bdd814f3bda4","ios":"levelo://app?vid=c18f148d-396f-4a68-9896-bdd814f3bda4"},"vehicle_type_id":"4","last_reported":1680009344,"current_range_meters":2400,"station_id":"ce4bhbh2rcd13ifvqepg","pricing_plan_id":"free"},{"bike_id":"fba4225f-df7b-4a24-80b2-d22a18292c7e","system_id":"levelo_inurba_marseille","lat":43.284219,"lon":5.3497,"is_reserved":false,"is_disabled":false,"rental_uris":{"android":"levelo://app?vid=fba4225f-df7b-4a24-80b2-d22a18292c7e","ios":"levelo://app?vid=fba4225f-df7b-4a24-80b2-d22a18292c7e"},"vehicle_type_id":"4","last_reported":1680009344,"current_range_meters":3600,"station_id":"ce4bhbh2rcd13ifvqepg","pricing_plan_id":"free"},{"bike_id":"691c106b-e563-4ebf-bd7c-f82fe2f00cd5","system_id":"levelo_inurba_marseille","lat":43.284219,"lon":5.3497,"is_reserved":false,"is_disabled":false,"rental_uris":{"android":"levelo://app?vid=691c106b-e563-4ebf-bd7c-f82fe2f00cd5","ios":"levelo://app?vid=691c106b-e563-4ebf-bd7c-f82fe2f00cd5"},"vehicle_type_id":"4","last_reported":1680009344,"current_range_meters":20400,"station_id":"ce4bhbh2rcd13ifvqepg","pricing_plan_id":"free"},{"bike_id":"d3fd66a7-b25f-4f65-83f5-ae5c1da27ba0","system_id":"levelo_inurba_marseille","lat":43.284217,"lon":5.349697,"is_reserved":false,"is_disabled":false,"rental_uris":{"android":"levelo://app?vid=d3fd66a7-b25f-4f65-83f5-ae5c1da27ba0","ios":"levelo://app?vid=d3fd66a7-b25f-4f65-83f5-ae5c1da27ba0"},"vehicle_type_id":"4","last_reported":1680009344,"current_range_meters":5200,"station_id":"ce4bhbh2rcd13ifvqepg","pricing_plan_id":"free"},{"bike_id":"744ab643-5f45-4e40-bc5a-fde2dc90887d","system_id":"levelo_inurba_marseille","lat":43.284219,"lon":5.3497,"is_reserved":false,"is_disabled":false,"rental_uris":{"android":"levelo://app?vid=744ab643-5f45-4e40-bc5a-fde2dc90887d","ios":"levelo://app?vid=744ab643-5f45-4e40-bc5a-fde2dc90887d"},"vehicle_type_id":"4","last_reported":1680009344,"current_range_meters":16000,"station_id":"ce4bhbh2rcd13ifvqepg","pricing_plan_id":"free"},{"bike_id":"d8d6fb2d-f37d-4d3d-ad60-fc73db1c8024","system_id":"levelo_inurba_marseille","lat":43.28416,"lon":5.34977,"is_reserved":false,"is_disabled":false,"rental_uris":{"android":"levelo://app?vid=d8d6fb2d-f37d-4d3d-ad60-fc73db1c8024","ios":"levelo://app?vid=d8d6fb2d-f37d-4d3d-ad60-fc73db1c8024"},"vehicle_type_id":"4","last_reported":1680009344,"current_range_meters":2800,"station_id":"ce4bhbh2rcd13ifvqepg","pricing_plan_id":"free"},{"bike_id":"d8a963e7-68ec-4613-a155-0cdc59be05f0","system_id":"levelo_inurba_marseille","lat":43.284217,"lon":5.349697,"is_reserved":false,"is_disabled":false,"rental_uris":{"android":"levelo://app?vid=d8a963e7-68ec-4613-a155-0cdc59be05f0","ios":"levelo://app?vid=d8a963e7-68ec-4613-a155-0cdc59be05f0"},"vehicle_type_id":"4","last_reported":1680009344,"current_range_meters":17200,"station_id":"ce4bhbh2rcd13ifvqepg","pricing_plan_id":"free"},{"bike_id":"81e8f32e-c8ca-41aa-8382-98654be573e1","system_id":"levelo_inurba_marseille","lat":43.28414,"lon":5.34981,"is_reserved":false,"is_disabled":false,"rental_uris":{"android":"levelo://app?vid=81e8f32e-c8ca-41aa-8382-98654be573e1","ios":"levelo://app?vid=81e8f32e-c8ca-41aa-8382-98654be573e1"},"vehicle_type_id":"4","last_reported":1680009344,"current_range_meters":400,"station_id":"ce4bhbh2rcd13ifvqepg","pricing_plan_id":"free"},{"bike_id":"5835f9e1-df78-46fa-88d6-9d97c9c3251e","system_id":"levelo_inurba_marseille","lat":43.289363,"lon":5.396322,"is_reserved":false,"is_disabled":false,"rental_uris":{"android":"levelo://app?vid=5835f9e1-df78-46fa-88d6-9d97c9c3251e","ios":"levelo://app?vid=5835f9e1-df78-46fa-88d6-9d97c9c3251e"},"vehicle_type_id":"4","last_reported":1680009344,"current_range_meters":20400,"station_id":"ce4bh3h2rcd13ifvqdn0","pricing_plan_id":"free"},{"bike_id":"83372378-c22e-4e59-8245-25fea493ccfc","system_id":"levelo_inurba_marseille","lat":43.292724,"lon":5.401131,"is_reserved":false,"is_disabled":false,"rental_uris":{"android":"levelo://app?vid=83372378-c22e-4e59-8245-25fea493ccfc","ios":"levelo://app?vid=83372378-c22e-4e59-8245-25fea493ccfc"},"vehicle_type_id":"4","last_reported":1680009344,"current_range_meters":0,"station_id":"ce4bh312rcd13ifvqdk0","pricing_plan_id":"free"},{"bike_id":"703e7b63-7db4-474a-8ce1-f1bf9818838a","system_id":"levelo_inurba_marseille","lat":43.28274,"lon":5.35062,"is_reserved":false,"is_disabled":false,"rental_uris":{"android":"levelo://app?vid=703e7b63-7db4-474a-8ce1-f1bf9818838a","ios":"levelo://app?vid=703e7b63-7db4-474a-8ce1-f1bf9818838a"},"vehicle_type_id":"4","last_reported":1680009344,"current_range_meters":5600,"station_id":"ce4bhbp2rcd13ifvqerg","pricing_plan_id":"free"},{"bike_id":"36d51f9b-6834-4ab7-a881-671388488fe4","system_id":"levelo_inurba_marseille","lat":43.28271,"lon":5.35066,"is_reserved":false,"is_disabled":false,"rental_uris":{"android":"levelo://app?vid=36d51f9b-6834-4ab7-a881-671388488fe4","ios":"levelo://app?vid=36d51f9b-6834-4ab7-a881-671388488fe4"},"vehicle_type_id":"4","last_reported":1680009344,"current_range_meters":2400,"station_id":"ce4bhbp2rcd13ifvqerg","pricing_plan_id":"free"},{"bike_id":"a540565d-7026-4013-b9f0-c206deda3413","system_id":"levelo_inurba_marseille","lat":43.2827,"lon":5.35063,"is_reserved":false,"is_disabled":false,"rental_uris":{"android":"levelo://app?vid=a540565d-7026-4013-b9f0-c206deda3413","ios":"levelo://app?vid=a540565d-7026-4013-b9f0-c206deda3413"},"vehicle_type_id":"4","last_reported":1680009344,"current_range_meters":25200,"station_id":"ce4bhbp2rcd13ifvqerg","pricing_plan_id":"free"},{"bike_id":"5052c0c2-8ade-42f6-bc56-6ccb02d01554","system_id":"levelo_inurba_marseille","lat":43.282744,"lon":5.350533,"is_reserved":false,"is_disabled":false,"rental_uris":{"android":"levelo://app?vid=5052c0c2-8ade-42f6-bc56-6ccb02d01554","ios":"levelo://app?vid=5052c0c2-8ade-42f6-bc56-6ccb02d01554"},"vehicle_type_id":"4","last_reported":1680009344,"current_range_meters":6000,"station_id":"ce4bhbp2rcd13ifvqerg","pricing_plan_id":"free"},{"bike_id":"46404dff-e5dd-426a-ac8a-f99599d3eecc","system_id":"levelo_inurba_marseille","lat":43.282642,"lon":5.350588,"is_reserved":false,"is_disabled":false,"rental_uris":{"android":"levelo://app?vid=46404dff-e5dd-426a-ac8a-f99599d3eecc","ios":"levelo://app?vid=46404dff-e5dd-426a-ac8a-f99599d3eecc"},"vehicle_type_id":"4","last_reported":1680009344,"current_range_meters":2400,"station_id":"","pricing_plan_id":"free"},{"bike_id":"f0687815-d69a-445e-9601-8746250c7858","system_id":"levelo_inurba_marseille","lat":43.281044,"lon":5.378308,"is_reserved":false,"is_disabled":false,"rental_uris":{"android":"levelo://app?vid=f0687815-d69a-445e-9601-8746250c7858","ios":"levelo://app?vid=f0687815-d69a-445e-9601-8746250c7858"},"vehicle_type_id":"4","last_reported":1680009344,"current_range_meters":31600,"station_id":"ce4bha12rcd13ifvqee0","pricing_plan_id":"free"},{"bike_id":"dc8177fb-bb3a-4ed4-ab6b-c9b42c2d61e7","system_id":"levelo_inurba_marseille","lat":43.281044,"lon":5.378308,"is_reserved":false,"is_disabled":false,"rental_uris":{"android":"levelo://app?vid=dc8177fb-bb3a-4ed4-ab6b-c9b42c2d61e7","ios":"levelo://app?vid=dc8177fb-bb3a-4ed4-ab6b-c9b42c2d61e7"},"vehicle_type_id":"4","last_reported":1680009344,"current_range_meters":31600,"station_id":"ce4bha12rcd13ifvqee0","pricing_plan_id":"free"},{"bike_id":"bac1bc65-829a-4ec0-a2e2-eee8a6851bb3","system_id":"levelo_inurba_marseille","lat":43.281044,"lon":5.378308,"is_reserved":false,"is_disabled":false,"rental_uris":{"android":"levelo://app?vid=bac1bc65-829a-4ec0-a2e2-eee8a6851bb3","ios":"levelo://app?vid=bac1bc65-829a-4ec0-a2e2-eee8a6851bb3"},"vehicle_type_id":"4","last_reported":1680009344,"current_range_meters":31600,"station_id":"ce4bha12rcd13ifvqee0","pricing_plan_id":"free"},{"bike_id":"9f50934c-7580-4e27-8a01-67405011de42","system_id":"levelo_inurba_marseille","lat":43.281044,"lon":5.378308,"is_reserved":false,"is_disabled":false,"rental_uris":{"android":"levelo://app?vid=9f50934c-7580-4e27-8a01-67405011de42","ios":"levelo://app?vid=9f50934c-7580-4e27-8a01-67405011de42"},"vehicle_type_id":"4","last_reported":1680009344,"current_range_meters":31600,"station_id":"ce4bha12rcd13ifvqee0","pricing_plan_id":"free"},{"bike_id":"05d816a2-86e2-4d5b-85df-ed69370e72d9","system_id":"levelo_inurba_marseille","lat":43.281044,"lon":5.378308,"is_reserved":false,"is_disabled":false,"rental_uris":{"android":"levelo://app?vid=05d816a2-86e2-4d5b-85df-ed69370e72d9","ios":"levelo://app?vid=05d816a2-86e2-4d5b-85df-ed69370e72d9"},"vehicle_type_id":"4","last_reported":1680009344,"current_range_meters":14000,"station_id":"ce4bha12rcd13ifvqee0","pricing_plan_id":"free"},{"bike_id":"d930f5cf-4463-4d15-8363-3c46b1054b9a","system_id":"levelo_inurba_marseille","lat":43.281044,"lon":5.378308,"is_reserved":false,"is_disabled":false,"rental_uris":{"android":"levelo://app?vid=d930f5cf-4463-4d15-8363-3c46b1054b9a","ios":"levelo://app?vid=d930f5cf-4463-4d15-8363-3c46b1054b9a"},"vehicle_type_id":"4","last_reported":1680009344,"current_range_meters":31600,"station_id":"ce4bha12rcd13ifvqee0","pricing_plan_id":"free"},{"bike_id":"ea2eb343-e84b-47fd-93ce-9943256fda2c","system_id":"levelo_inurba_marseille","lat":43.281044,"lon":5.378308,"is_reserved":false,"is_disabled":false,"rental_uris":{"android":"levelo://app?vid=ea2eb343-e84b-47fd-93ce-9943256fda2c","ios":"levelo://app?vid=ea2eb343-e84b-47fd-93ce-9943256fda2c"},"vehicle_type_id":"4","last_reported":1680009344,"current_range_meters":31600,"station_id":"ce4bha12rcd13ifvqee0","pricing_plan_id":"free"},{"bike_id":"665a7075-a3dd-4a33-b093-b3da46504993","system_id":"levelo_inurba_marseille","lat":43.281044,"lon":5.378308,"is_reserved":false,"is_disabled":false,"rental_uris":{"android":"levelo://app?vid=665a7075-a3dd-4a33-b093-b3da46504993","ios":"levelo://app?vid=665a7075-a3dd-4a33-b093-b3da46504993"},"vehicle_type_id":"4","last_reported":1680009344,"current_range_meters":12400,"station_id":"ce4bha12rcd13ifvqee0","pricing_plan_id":"free"},{"bike_id":"c2127b23-d078-4c7a-a0f0-aa0b81c7f8e6","system_id":"levelo_inurba_marseille","lat":43.281044,"lon":5.378308,"is_reserved":false,"is_disabled":false,"rental_uris":{"android":"levelo://app?vid=c2127b23-d078-4c7a-a0f0-aa0b81c7f8e6","ios":"levelo://app?vid=c2127b23-d078-4c7a-a0f0-aa0b81c7f8e6"},"vehicle_type_id":"4","last_reported":1680009344,"current_range_meters":15200,"station_id":"ce4bha12rcd13ifvqee0","pricing_plan_id":"free"},{"bike_id":"7d7f8772-0f65-4e37-be24-158b88af5dd1","system_id":"levelo_inurba_marseille","lat":43.281044,"lon":5.378308,"is_reserved":false,"is_disabled":false,"rental_uris":{"android":"levelo://app?vid=7d7f8772-0f65-4e37-be24-158b88af5dd1","ios":"levelo://app?vid=7d7f8772-0f65-4e37-be24-158b88af5dd1"},"vehicle_type_id":"4","last_reported":1680009344,"current_range_meters":30400,"station_id":"ce4bha12rcd13ifvqee0","pricing_plan_id":"free"},{"bike_id":"5bbc5345-6b78-42ce-94ee-8c001ba70383","system_id":"levelo_inurba_marseille","lat":43.280765,"lon":5.378571,"is_reserved":false,"is_disabled":false,"rental_uris":{"android":"levelo://app?vid=5bbc5345-6b78-42ce-94ee-8c001ba70383","ios":"levelo://app?vid=5bbc5345-6b78-42ce-94ee-8c001ba70383"},"vehicle_type_id":"4","last_reported":1680009344,"current_range_meters":6000,"station_id":"ce4bha12rcd13ifvqee0","pricing_plan_id":"free"},{"bike_id":"ef2103b3-13bb-454c-9a26-3d86c67f3f7c","system_id":"levelo_inurba_marseille","lat":43.284462,"lon":5.392121,"is_reserved":false,"is_disabled":false,"rental_uris":{"android":"levelo://app?vid=ef2103b3-13bb-454c-9a26-3d86c67f3f7c","ios":"levelo://app?vid=ef2103b3-13bb-454c-9a26-3d86c67f3f7c"},"vehicle_type_id":"4","last_reported":1680009344,"current_range_meters":8400,"station_id":"ce4bhoh2rcd13ifvqh5g","pricing_plan_id":"free"},{"bike_id":"c25dd2f8-9f28-44da-9e31-678ef0925c20","system_id":"levelo_inurba_marseille","lat":43.27903,"lon":5.38017,"is_reserved":false,"is_disabled":false,"rental_uris":{"android":"levelo://app?vid=c25dd2f8-9f28-44da-9e31-678ef0925c20","ios":"levelo://app?vid=c25dd2f8-9f28-44da-9e31-678ef0925c20"},"vehicle_type_id":"4","last_reported":1680009344,"current_range_meters":5200,"station_id":"","pricing_plan_id":"free"},{"bike_id":"a41ad876-3ead-431c-ab5e-2833219827cb","system_id":"levelo_inurba_marseille","lat":43.28717,"lon":5.4,"is_reserved":false,"is_disabled":false,"rental_uris":{"android":"levelo://app?vid=a41ad876-3ead-431c-ab5e-2833219827cb","ios":"levelo://app?vid=a41ad876-3ead-431c-ab5e-2833219827cb"},"vehicle_type_id":"4","last_reported":1680009344,"current_range_meters":3600,"station_id":"ce4bho92rcd13ifvqh3g","pricing_plan_id":"free"},{"bike_id":"4be9fbf2-8b3c-448c-b167-35b874372a4c","system_id":"levelo_inurba_marseille","lat":43.320045,"lon":5.415048,"is_reserved":false,"is_disabled":false,"rental_uris":{"android":"levelo://app?vid=4be9fbf2-8b3c-448c-b167-35b874372a4c","ios":"levelo://app?vid=4be9fbf2-8b3c-448c-b167-35b874372a4c"},"vehicle_type_id":"4","last_reported":1680009344,"current_range_meters":6400,"station_id":"ce4bhq92rcd13ifvqhkg","pricing_plan_id":"free"},{"bike_id":"60405b14-c38a-4a2a-bba4-9642668bd1c9","system_id":"levelo_inurba_marseille","lat":43.29955,"lon":5.41316,"is_reserved":false,"is_disabled":false,"rental_uris":{"android":"levelo://app?vid=60405b14-c38a-4a2a-bba4-9642668bd1c9","ios":"levelo://app?vid=60405b14-c38a-4a2a-bba4-9642668bd1c9"},"vehicle_type_id":"4","last_reported":1680009344,"current_range_meters":28400,"station_id":"ce4bhp12rcd13ifvqh9g","pricing_plan_id":"free"},{"bike_id":"8d287b73-9b39-40ee-b6a8-388b011c3e8b","system_id":"levelo_inurba_marseille","lat":43.29962,"lon":5.41322,"is_reserved":false,"is_disabled":false,"rental_uris":{"android":"levelo://app?vid=8d287b73-9b39-40ee-b6a8-388b011c3e8b","ios":"levelo://app?vid=8d287b73-9b39-40ee-b6a8-388b011c3e8b"},"vehicle_type_id":"4","last_reported":1680009344,"current_range_meters":10800,"station_id":"ce4bhp12rcd13ifvqh9g","pricing_plan_id":"free"},{"bike_id":"4b84e397-1fb2-45a6-8fb6-ebef6d1bc516","system_id":"levelo_inurba_marseille","lat":43.279742,"lon":5.38744,"is_reserved":false,"is_disabled":false,"rental_uris":{"android":"levelo://app?vid=4b84e397-1fb2-45a6-8fb6-ebef6d1bc516","ios":"levelo://app?vid=4b84e397-1fb2-45a6-8fb6-ebef6d1bc516"},"vehicle_type_id":"4","last_reported":1680009344,"current_range_meters":31600,"station_id":"ce4bhg12rcd13ifvqf80","pricing_plan_id":"free"},{"bike_id":"35899650-a72d-4288-ac96-e4ba79251769","system_id":"levelo_inurba_marseille","lat":43.279742,"lon":5.38744,"is_reserved":false,"is_disabled":false,"rental_uris":{"android":"levelo://app?vid=35899650-a72d-4288-ac96-e4ba79251769","ios":"levelo://app?vid=35899650-a72d-4288-ac96-e4ba79251769"},"vehicle_type_id":"4","last_reported":1680009344,"current_range_meters":30800,"station_id":"ce4bhg12rcd13ifvqf80","pricing_plan_id":"free"},{"bike_id":"86f8fe0e-0fdc-4845-a4cc-84765b50d551","system_id":"levelo_inurba_marseille","lat":43.279742,"lon":5.38744,"is_reserved":false,"is_disabled":false,"rental_uris":{"android":"levelo://app?vid=86f8fe0e-0fdc-4845-a4cc-84765b50d551","ios":"levelo://app?vid=86f8fe0e-0fdc-4845-a4cc-84765b50d551"},"vehicle_type_id":"4","last_reported":1680009344,"current_range_meters":27200,"station_id":"ce4bhg12rcd13ifvqf80","pricing_plan_id":"free"},{"bike_id":"1f4d6172-20ad-4e43-a289-09dcb4bb83b0","system_id":"levelo_inurba_marseille","lat":43.279742,"lon":5.38744,"is_reserved":false,"is_disabled":false,"rental_uris":{"android":"levelo://app?vid=1f4d6172-20ad-4e43-a289-09dcb4bb83b0","ios":"levelo://app?vid=1f4d6172-20ad-4e43-a289-09dcb4bb83b0"},"vehicle_type_id":"4","last_reported":1680009344,"current_range_meters":12800,"station_id":"ce4bhg12rcd13ifvqf80","pricing_plan_id":"free"},{"bike_id":"85bf8ba0-7708-4c85-8665-7475369b657a","system_id":"levelo_inurba_marseille","lat":43.27618,"lon":5.361009,"is_reserved":false,"is_disabled":false,"rental_uris":{"android":"levelo://app?vid=85bf8ba0-7708-4c85-8665-7475369b657a","ios":"levelo://app?vid=85bf8ba0-7708-4c85-8665-7475369b657a"},"vehicle_type_id":"4","last_reported":1680009344,"current_range_meters":0,"station_id":"ce4bgj92rcd13ifvqbe0","pricing_plan_id":"free"},{"bike_id":"7f3e3941-c9db-4dff-b0b5-683ba1bbb72a","system_id":"levelo_inurba_marseille","lat":43.32535,"lon":5.4143,"is_reserved":false,"is_disabled":false,"rental_uris":{"android":"levelo://app?vid=7f3e3941-c9db-4dff-b0b5-683ba1bbb72a","ios":"levelo://app?vid=7f3e3941-c9db-4dff-b0b5-683ba1bbb72a"},"vehicle_type_id":"4","last_reported":1680009344,"current_range_meters":400,"station_id":"ce4bhq12rcd13ifvqhhg","pricing_plan_id":"free"},{"bike_id":"e75a122b-8628-43c8-b983-9a38402d021e","system_id":"levelo_inurba_marseille","lat":43.29255,"lon":5.40908,"is_reserved":false,"is_disabled":false,"rental_uris":{"android":"levelo://app?vid=e75a122b-8628-43c8-b983-9a38402d021e","ios":"levelo://app?vid=e75a122b-8628-43c8-b983-9a38402d021e"},"vehicle_type_id":"4","last_reported":1680009344,"current_range_meters":25200,"station_id":"ce4bh192rcd13ifvqdc0","pricing_plan_id":"free"},{"bike_id":"6b176859-e393-4713-bdb5-b639925a0bd0","system_id":"levelo_inurba_marseille","lat":43.292543,"lon":5.409107,"is_reserved":false,"is_disabled":false,"rental_uris":{"android":"levelo://app?vid=6b176859-e393-4713-bdb5-b639925a0bd0","ios":"levelo://app?vid=6b176859-e393-4713-bdb5-b639925a0bd0"},"vehicle_type_id":"4","last_reported":1680009344,"current_range_meters":10000,"station_id":"ce4bh192rcd13ifvqdc0","pricing_plan_id":"free"},{"bike_id":"8ed8d2cc-4168-41ff-a851-f08d42588be7","system_id":"levelo_inurba_marseille","lat":43.276179,"lon":5.361009,"is_reserved":false,"is_disabled":false,"rental_uris":{"android":"levelo://app?vid=8ed8d2cc-4168-41ff-a851-f08d42588be7","ios":"levelo://app?vid=8ed8d2cc-4168-41ff-a851-f08d42588be7"},"vehicle_type_id":"4","last_reported":1680009344,"current_range_meters":21600,"station_id":"ce4bgj92rcd13ifvqbe0","pricing_plan_id":"free"},{"bike_id":"3d49197a-22ca-4928-8388-3fd77e067219","system_id":"levelo_inurba_marseille","lat":43.276179,"lon":5.361009,"is_reserved":false,"is_disabled":false,"rental_uris":{"android":"levelo://app?vid=3d49197a-22ca-4928-8388-3fd77e067219","ios":"levelo://app?vid=3d49197a-22ca-4928-8388-3fd77e067219"},"vehicle_type_id":"4","last_reported":1680009344,"current_range_meters":21600,"station_id":"ce4bgj92rcd13ifvqbe0","pricing_plan_id":"free"},{"bike_id":"e9adcbb8-d699-417b-b0aa-723d921a7f4e","system_id":"levelo_inurba_marseille","lat":43.332575,"lon":5.411058,"is_reserved":false,"is_disabled":false,"rental_uris":{"android":"levelo://app?vid=e9adcbb8-d699-417b-b0aa-723d921a7f4e","ios":"levelo://app?vid=e9adcbb8-d699-417b-b0aa-723d921a7f4e"},"vehicle_type_id":"4","last_reported":1680009344,"current_range_meters":0,"station_id":"","pricing_plan_id":"free"},{"bike_id":"c35d2ed4-2689-44d3-a77a-2d7479f66bb0","system_id":"levelo_inurba_marseille","lat":43.273613,"lon":5.362705,"is_reserved":false,"is_disabled":false,"rental_uris":{"android":"levelo://app?vid=c35d2ed4-2689-44d3-a77a-2d7479f66bb0","ios":"levelo://app?vid=c35d2ed4-2689-44d3-a77a-2d7479f66bb0"},"vehicle_type_id":"4","last_reported":1680009344,"current_range_meters":21200,"station_id":"ce4bhbh2rcd13ifvqeo0","pricing_plan_id":"free"},{"bike_id":"332b94dc-5fae-4c68-9b19-817bfc428623","system_id":"levelo_inurba_marseille","lat":43.273613,"lon":5.362705,"is_reserved":false,"is_disabled":false,"rental_uris":{"android":"levelo://app?vid=332b94dc-5fae-4c68-9b19-817bfc428623","ios":"levelo://app?vid=332b94dc-5fae-4c68-9b19-817bfc428623"},"vehicle_type_id":"4","last_reported":1680009344,"current_range_meters":31600,"station_id":"ce4bhbh2rcd13ifvqeo0","pricing_plan_id":"free"},{"bike_id":"e288450e-15b1-486f-b01c-169f2854d913","system_id":"levelo_inurba_marseille","lat":43.273613,"lon":5.362705,"is_reserved":false,"is_disabled":false,"rental_uris":{"android":"levelo://app?vid=e288450e-15b1-486f-b01c-169f2854d913","ios":"levelo://app?vid=e288450e-15b1-486f-b01c-169f2854d913"},"vehicle_type_id":"4","last_reported":1680009344,"current_range_meters":8800,"station_id":"ce4bhbh2rcd13ifvqeo0","pricing_plan_id":"free"},{"bike_id":"f37d15f8-ee05-490d-87f5-f74cae612b4d","system_id":"levelo_inurba_marseille","lat":43.273613,"lon":5.362705,"is_reserved":false,"is_disabled":false,"rental_uris":{"android":"levelo://app?vid=f37d15f8-ee05-490d-87f5-f74cae612b4d","ios":"levelo://app?vid=f37d15f8-ee05-490d-87f5-f74cae612b4d"},"vehicle_type_id":"4","last_reported":1680009344,"current_range_meters":31600,"station_id":"ce4bhbh2rcd13ifvqeo0","pricing_plan_id":"free"},{"bike_id":"24007495-c4a7-4090-9376-b0eeecfbd692","system_id":"levelo_inurba_marseille","lat":43.273613,"lon":5.362705,"is_reserved":false,"is_disabled":false,"rental_uris":{"android":"levelo://app?vid=24007495-c4a7-4090-9376-b0eeecfbd692","ios":"levelo://app?vid=24007495-c4a7-4090-9376-b0eeecfbd692"},"vehicle_type_id":"4","last_reported":1680009344,"current_range_meters":30800,"station_id":"ce4bhbh2rcd13ifvqeo0","pricing_plan_id":"free"},{"bike_id":"987d861f-40ea-4adc-a8d3-e6d5368c8e3d","system_id":"levelo_inurba_marseille","lat":43.273613,"lon":5.362705,"is_reserved":false,"is_disabled":false,"rental_uris":{"android":"levelo://app?vid=987d861f-40ea-4adc-a8d3-e6d5368c8e3d","ios":"levelo://app?vid=987d861f-40ea-4adc-a8d3-e6d5368c8e3d"},"vehicle_type_id":"4","last_reported":1680009344,"current_range_meters":5600,"station_id":"ce4bhbh2rcd13ifvqeo0","pricing_plan_id":"free"},{"bike_id":"242fee70-80df-445a-ba2f-1d474dffbcc3","system_id":"levelo_inurba_marseille","lat":43.273613,"lon":5.362705,"is_reserved":false,"is_disabled":false,"rental_uris":{"android":"levelo://app?vid=242fee70-80df-445a-ba2f-1d474dffbcc3","ios":"levelo://app?vid=242fee70-80df-445a-ba2f-1d474dffbcc3"},"vehicle_type_id":"4","last_reported":1680009344,"current_range_meters":21200,"station_id":"ce4bhbh2rcd13ifvqeo0","pricing_plan_id":"free"},{"bike_id":"09027a99-f556-4464-874d-7eb2a87729f8","system_id":"levelo_inurba_marseille","lat":43.33604,"lon":5.41035,"is_reserved":false,"is_disabled":false,"rental_uris":{"android":"levelo://app?vid=09027a99-f556-4464-874d-7eb2a87729f8","ios":"levelo://app?vid=09027a99-f556-4464-874d-7eb2a87729f8"},"vehicle_type_id":"4","last_reported":1680009344,"current_range_meters":0,"station_id":"ce4bhqh2rcd13ifvqhmg","pricing_plan_id":"free"},{"bike_id":"1013bdf4-8be7-406b-ae70-d3e83407b2d2","system_id":"levelo_inurba_marseille","lat":43.276668,"lon":5.388661,"is_reserved":false,"is_disabled":false,"rental_uris":{"android":"levelo://app?vid=1013bdf4-8be7-406b-ae70-d3e83407b2d2","ios":"levelo://app?vid=1013bdf4-8be7-406b-ae70-d3e83407b2d2"},"vehicle_type_id":"4","last_reported":1680009344,"current_range_meters":0,"station_id":"","pricing_plan_id":"free"},{"bike_id":"d5c06af7-c011-4aa9-9160-72a2a5a82a6c","system_id":"levelo_inurba_marseille","lat":43.276771,"lon":5.388799,"is_reserved":false,"is_disabled":false,"rental_uris":{"android":"levelo://app?vid=d5c06af7-c011-4aa9-9160-72a2a5a82a6c","ios":"levelo://app?vid=d5c06af7-c011-4aa9-9160-72a2a5a82a6c"},"vehicle_type_id":"4","last_reported":1680009344,"current_range_meters":0,"station_id":"ce4bhi12rcd13ifvqfo0","pricing_plan_id":"free"},{"bike_id":"7ddb94b6-146d-4af8-81ff-e0b08310b5c2","system_id":"levelo_inurba_marseille","lat":43.27664,"lon":5.38881,"is_reserved":false,"is_disabled":false,"rental_uris":{"android":"levelo://app?vid=7ddb94b6-146d-4af8-81ff-e0b08310b5c2","ios":"levelo://app?vid=7ddb94b6-146d-4af8-81ff-e0b08310b5c2"},"vehicle_type_id":"4","last_reported":1680009344,"current_range_meters":0,"station_id":"ce4bhi12rcd13ifvqfo0","pricing_plan_id":"free"},{"bike_id":"39ee5bd0-01b8-4367-9f10-d80e1ef001de","system_id":"levelo_inurba_marseille","lat":43.317121,"lon":5.423936,"is_reserved":false,"is_disabled":false,"rental_uris":{"android":"levelo://app?vid=39ee5bd0-01b8-4367-9f10-d80e1ef001de","ios":"levelo://app?vid=39ee5bd0-01b8-4367-9f10-d80e1ef001de"},"vehicle_type_id":"4","last_reported":1680009344,"current_range_meters":8400,"station_id":"ce4bhp92rcd13ifvqhbg","pricing_plan_id":"free"},{"bike_id":"dbcc3378-908d-4b56-a39b-7c48b43f0344","system_id":"levelo_inurba_marseille","lat":43.31078,"lon":5.42429,"is_reserved":false,"is_disabled":false,"rental_uris":{"android":"levelo://app?vid=dbcc3378-908d-4b56-a39b-7c48b43f0344","ios":"levelo://app?vid=dbcc3378-908d-4b56-a39b-7c48b43f0344"},"vehicle_type_id":"4","last_reported":1680009344,"current_range_meters":0,"station_id":"","pricing_plan_id":"free"},{"bike_id":"9c66cab9-7224-4cc9-a114-62528204fcf2","system_id":"levelo_inurba_marseille","lat":43.31085,"lon":5.42434,"is_reserved":false,"is_disabled":false,"rental_uris":{"android":"levelo://app?vid=9c66cab9-7224-4cc9-a114-62528204fcf2","ios":"levelo://app?vid=9c66cab9-7224-4cc9-a114-62528204fcf2"},"vehicle_type_id":"4","last_reported":1680009344,"current_range_meters":25200,"station_id":"ce4bhp92rcd13ifvqhag","pricing_plan_id":"free"},{"bike_id":"2bcbec03-7280-4671-9054-ea8815e66531","system_id":"levelo_inurba_marseille","lat":43.310805,"lon":5.424355,"is_reserved":false,"is_disabled":false,"rental_uris":{"android":"levelo://app?vid=2bcbec03-7280-4671-9054-ea8815e66531","ios":"levelo://app?vid=2bcbec03-7280-4671-9054-ea8815e66531"},"vehicle_type_id":"4","last_reported":1680009344,"current_range_meters":0,"station_id":"","pricing_plan_id":"free"},{"bike_id":"f893f892-fb8d-40e7-8122-2697cffa37d6","system_id":"levelo_inurba_marseille","lat":43.26958,"lon":5.36641,"is_reserved":false,"is_disabled":false,"rental_uris":{"android":"levelo://app?vid=f893f892-fb8d-40e7-8122-2697cffa37d6","ios":"levelo://app?vid=f893f892-fb8d-40e7-8122-2697cffa37d6"},"vehicle_type_id":"4","last_reported":1680009344,"current_range_meters":7200,"station_id":"","pricing_plan_id":"free"},{"bike_id":"cb046ae5-3fae-4ac1-89be-dcbcd745d886","system_id":"levelo_inurba_marseille","lat":43.274346,"lon":5.394057,"is_reserved":false,"is_disabled":false,"rental_uris":{"android":"levelo://app?vid=cb046ae5-3fae-4ac1-89be-dcbcd745d886","ios":"levelo://app?vid=cb046ae5-3fae-4ac1-89be-dcbcd745d886"},"vehicle_type_id":"4","last_reported":1680009344,"current_range_meters":27200,"station_id":"","pricing_plan_id":"free"},{"bike_id":"4a341aad-6781-412d-beab-80895b19a3b1","system_id":"levelo_inurba_marseille","lat":43.274103,"lon":5.394016,"is_reserved":false,"is_disabled":false,"rental_uris":{"android":"levelo://app?vid=4a341aad-6781-412d-beab-80895b19a3b1","ios":"levelo://app?vid=4a341aad-6781-412d-beab-80895b19a3b1"},"vehicle_type_id":"4","last_reported":1680009344,"current_range_meters":31600,"station_id":"ce4bhdp2rcd13ifvqf20","pricing_plan_id":"free"},{"bike_id":"5a7ee759-3e13-4aba-a442-8b145cfea41f","system_id":"levelo_inurba_marseille","lat":43.273125,"lon":5.390731,"is_reserved":false,"is_disabled":false,"rental_uris":{"android":"levelo://app?vid=5a7ee759-3e13-4aba-a442-8b145cfea41f","ios":"levelo://app?vid=5a7ee759-3e13-4aba-a442-8b145cfea41f"},"vehicle_type_id":"4","last_reported":1680009344,"current_range_meters":31600,"station_id":"ce4bhgp2rcd13ifvqfe0","pricing_plan_id":"free"},{"bike_id":"f9abaf03-a8a2-4e08-9345-2b767bf2b516","system_id":"levelo_inurba_marseille","lat":43.27313,"lon":5.390794,"is_reserved":false,"is_disabled":false,"rental_uris":{"android":"levelo://app?vid=f9abaf03-a8a2-4e08-9345-2b767bf2b516","ios":"levelo://app?vid=f9abaf03-a8a2-4e08-9345-2b767bf2b516"},"vehicle_type_id":"4","last_reported":1680009344,"current_range_meters":31600,"station_id":"ce4bhgp2rcd13ifvqfe0","pricing_plan_id":"free"},{"bike_id":"54a920ce-c2f0-4b7c-a9b4-8067eeaf044e","system_id":"levelo_inurba_marseille","lat":43.27311,"lon":5.390754,"is_reserved":false,"is_disabled":false,"rental_uris":{"android":"levelo://app?vid=54a920ce-c2f0-4b7c-a9b4-8067eeaf044e","ios":"levelo://app?vid=54a920ce-c2f0-4b7c-a9b4-8067eeaf044e"},"vehicle_type_id":"4","last_reported":1680009344,"current_range_meters":31600,"station_id":"ce4bhgp2rcd13ifvqfe0","pricing_plan_id":"free"},{"bike_id":"52c4d242-6c25-4d68-877c-541d95cb0d77","system_id":"levelo_inurba_marseille","lat":43.274103,"lon":5.394016,"is_reserved":false,"is_disabled":false,"rental_uris":{"android":"levelo://app?vid=52c4d242-6c25-4d68-877c-541d95cb0d77","ios":"levelo://app?vid=52c4d242-6c25-4d68-877c-541d95cb0d77"},"vehicle_type_id":"4","last_reported":1680009344,"current_range_meters":31600,"station_id":"ce4bhdp2rcd13ifvqf20","pricing_plan_id":"free"},{"bike_id":"b57e09fc-79c1-4a95-b6c0-1f22d72831c2","system_id":"levelo_inurba_marseille","lat":43.274103,"lon":5.394016,"is_reserved":false,"is_disabled":false,"rental_uris":{"android":"levelo://app?vid=b57e09fc-79c1-4a95-b6c0-1f22d72831c2","ios":"levelo://app?vid=b57e09fc-79c1-4a95-b6c0-1f22d72831c2"},"vehicle_type_id":"4","last_reported":1680009344,"current_range_meters":31600,"station_id":"ce4bhdp2rcd13ifvqf20","pricing_plan_id":"free"},{"bike_id":"6fa2b2ac-9754-477d-92ab-bcb4d5dc87a7","system_id":"levelo_inurba_marseille","lat":43.274103,"lon":5.394016,"is_reserved":false,"is_disabled":false,"rental_uris":{"android":"levelo://app?vid=6fa2b2ac-9754-477d-92ab-bcb4d5dc87a7","ios":"levelo://app?vid=6fa2b2ac-9754-477d-92ab-bcb4d5dc87a7"},"vehicle_type_id":"4","last_reported":1680009344,"current_range_meters":31600,"station_id":"ce4bhdp2rcd13ifvqf20","pricing_plan_id":"free"},{"bike_id":"d5a526e4-47ba-4c42-becd-ac493356a70a","system_id":"levelo_inurba_marseille","lat":43.274221,"lon":5.394267,"is_reserved":false,"is_disabled":false,"rental_uris":{"android":"levelo://app?vid=d5a526e4-47ba-4c42-becd-ac493356a70a","ios":"levelo://app?vid=d5a526e4-47ba-4c42-becd-ac493356a70a"},"vehicle_type_id":"4","last_reported":1680009344,"current_range_meters":31600,"station_id":"","pricing_plan_id":"free"},{"bike_id":"cdcfda68-6f35-45d8-a3d3-1888ec51a142","system_id":"levelo_inurba_marseille","lat":43.274103,"lon":5.394016,"is_reserved":false,"is_disabled":false,"rental_uris":{"android":"levelo://app?vid=cdcfda68-6f35-45d8-a3d3-1888ec51a142","ios":"levelo://app?vid=cdcfda68-6f35-45d8-a3d3-1888ec51a142"},"vehicle_type_id":"4","last_reported":1680009344,"current_range_meters":31600,"station_id":"ce4bhdp2rcd13ifvqf20","pricing_plan_id":"free"},{"bike_id":"53cbd493-ab5d-4177-817a-b53f893bdfe8","system_id":"levelo_inurba_marseille","lat":43.274212,"lon":5.394278,"is_reserved":false,"is_disabled":false,"rental_uris":{"android":"levelo://app?vid=53cbd493-ab5d-4177-817a-b53f893bdfe8","ios":"levelo://app?vid=53cbd493-ab5d-4177-817a-b53f893bdfe8"},"vehicle_type_id":"4","last_reported":1680009344,"current_range_meters":0,"station_id":"","pricing_plan_id":"free"},{"bike_id":"3f9221ec-37ec-4797-9bda-ef7636a8e161","system_id":"levelo_inurba_marseille","lat":43.295523,"lon":5.422926,"is_reserved":false,"is_disabled":false,"rental_uris":{"android":"levelo://app?vid=3f9221ec-37ec-4797-9bda-ef7636a8e161","ios":"levelo://app?vid=3f9221ec-37ec-4797-9bda-ef7636a8e161"},"vehicle_type_id":"4","last_reported":1680009344,"current_range_meters":19600,"station_id":"ce4bhph2rcd13ifvqhdg","pricing_plan_id":"free"},{"bike_id":"54ff36dd-48c3-4b1d-b138-5ab36e44dc13","system_id":"levelo_inurba_marseille","lat":43.27209,"lon":5.39186,"is_reserved":false,"is_disabled":false,"rental_uris":{"android":"levelo://app?vid=54ff36dd-48c3-4b1d-b138-5ab36e44dc13","ios":"levelo://app?vid=54ff36dd-48c3-4b1d-b138-5ab36e44dc13"},"vehicle_type_id":"4","last_reported":1680009344,"current_range_meters":31600,"station_id":"","pricing_plan_id":"free"},{"bike_id":"9eede8d5-02cf-495c-9c64-cb9c44c55f00","system_id":"levelo_inurba_marseille","lat":43.272116,"lon":5.391763,"is_reserved":false,"is_disabled":false,"rental_uris":{"android":"levelo://app?vid=9eede8d5-02cf-495c-9c64-cb9c44c55f00","ios":"levelo://app?vid=9eede8d5-02cf-495c-9c64-cb9c44c55f00"},"vehicle_type_id":"4","last_reported":1680009344,"current_range_meters":29200,"station_id":"ce4bhhp2rcd13ifvqfm0","pricing_plan_id":"free"},{"bike_id":"79a15d1f-514d-4dda-a1d2-01916113ed3d","system_id":"levelo_inurba_marseille","lat":43.26681,"lon":5.382694,"is_reserved":false,"is_disabled":false,"rental_uris":{"android":"levelo://app?vid=79a15d1f-514d-4dda-a1d2-01916113ed3d","ios":"levelo://app?vid=79a15d1f-514d-4dda-a1d2-01916113ed3d"},"vehicle_type_id":"4","last_reported":1680009344,"current_range_meters":19200,"station_id":"ce4bhg92rcd13ifvqf90","pricing_plan_id":"free"},{"bike_id":"82439469-7e85-4ff7-9b1e-96305d76c365","system_id":"levelo_inurba_marseille","lat":43.265714,"lon":5.372891,"is_reserved":false,"is_disabled":false,"rental_uris":{"android":"levelo://app?vid=82439469-7e85-4ff7-9b1e-96305d76c365","ios":"levelo://app?vid=82439469-7e85-4ff7-9b1e-96305d76c365"},"vehicle_type_id":"4","last_reported":1680009344,"current_range_meters":18400,"station_id":"ce4bhg12rcd13ifvqf70","pricing_plan_id":"free"},{"bike_id":"6a322d40-867d-44f1-b583-21884ca26196","system_id":"levelo_inurba_marseille","lat":43.26554,"lon":5.37284,"is_reserved":false,"is_disabled":false,"rental_uris":{"android":"levelo://app?vid=6a322d40-867d-44f1-b583-21884ca26196","ios":"levelo://app?vid=6a322d40-867d-44f1-b583-21884ca26196"},"vehicle_type_id":"4","last_reported":1680009344,"current_range_meters":14000,"station_id":"ce4bhg12rcd13ifvqf70","pricing_plan_id":"free"},{"bike_id":"ef6f16da-3f87-430a-b666-97ff39b81395","system_id":"levelo_inurba_marseille","lat":43.27994,"lon":5.41654,"is_reserved":false,"is_disabled":false,"rental_uris":{"android":"levelo://app?vid=ef6f16da-3f87-430a-b666-97ff39b81395","ios":"levelo://app?vid=ef6f16da-3f87-430a-b666-97ff39b81395"},"vehicle_type_id":"4","last_reported":1680009344,"current_range_meters":0,"station_id":"ce4bho12rcd13ifvqh1g","pricing_plan_id":"free"},{"bike_id":"bcecb825-b437-492f-838c-db4b1904f8b5","system_id":"levelo_inurba_marseille","lat":43.267966,"lon":5.393976,"is_reserved":false,"is_disabled":false,"rental_uris":{"android":"levelo://app?vid=bcecb825-b437-492f-838c-db4b1904f8b5","ios":"levelo://app?vid=bcecb825-b437-492f-838c-db4b1904f8b5"},"vehicle_type_id":"4","last_reported":1680009344,"current_range_meters":27600,"station_id":"ce4bhh12rcd13ifvqfg0","pricing_plan_id":"free"},{"bike_id":"af188a95-a2f6-467b-9137-c75c434c7c1b","system_id":"levelo_inurba_marseille","lat":43.267966,"lon":5.393976,"is_reserved":false,"is_disabled":false,"rental_uris":{"android":"levelo://app?vid=af188a95-a2f6-467b-9137-c75c434c7c1b","ios":"levelo://app?vid=af188a95-a2f6-467b-9137-c75c434c7c1b"},"vehicle_type_id":"4","last_reported":1680009344,"current_range_meters":13200,"station_id":"ce4bhh12rcd13ifvqfg0","pricing_plan_id":"free"},{"bike_id":"9ae7a9d0-099e-4f44-8dca-468ea9ae2776","system_id":"levelo_inurba_marseille","lat":43.267966,"lon":5.393976,"is_reserved":false,"is_disabled":false,"rental_uris":{"android":"levelo://app?vid=9ae7a9d0-099e-4f44-8dca-468ea9ae2776","ios":"levelo://app?vid=9ae7a9d0-099e-4f44-8dca-468ea9ae2776"},"vehicle_type_id":"4","last_reported":1680009344,"current_range_meters":31600,"station_id":"ce4bhh12rcd13ifvqfg0","pricing_plan_id":"free"},{"bike_id":"c79e10c0-ba7a-4415-b38b-4e4861691cef","system_id":"levelo_inurba_marseille","lat":43.267966,"lon":5.393976,"is_reserved":false,"is_disabled":false,"rental_uris":{"android":"levelo://app?vid=c79e10c0-ba7a-4415-b38b-4e4861691cef","ios":"levelo://app?vid=c79e10c0-ba7a-4415-b38b-4e4861691cef"},"vehicle_type_id":"4","last_reported":1680009344,"current_range_meters":20000,"station_id":"ce4bhh12rcd13ifvqfg0","pricing_plan_id":"free"},{"bike_id":"ecb07e00-35a0-4759-9a34-ae59a00b5ccd","system_id":"levelo_inurba_marseille","lat":43.267966,"lon":5.393976,"is_reserved":false,"is_disabled":false,"rental_uris":{"android":"levelo://app?vid=ecb07e00-35a0-4759-9a34-ae59a00b5ccd","ios":"levelo://app?vid=ecb07e00-35a0-4759-9a34-ae59a00b5ccd"},"vehicle_type_id":"4","last_reported":1680009344,"current_range_meters":16800,"station_id":"ce4bhh12rcd13ifvqfg0","pricing_plan_id":"free"},{"bike_id":"b9f22546-0539-4454-af85-ef74c0097839","system_id":"levelo_inurba_marseille","lat":43.267966,"lon":5.393976,"is_reserved":false,"is_disabled":false,"rental_uris":{"android":"levelo://app?vid=b9f22546-0539-4454-af85-ef74c0097839","ios":"levelo://app?vid=b9f22546-0539-4454-af85-ef74c0097839"},"vehicle_type_id":"4","last_reported":1680009344,"current_range_meters":28400,"station_id":"ce4bhh12rcd13ifvqfg0","pricing_plan_id":"free"},{"bike_id":"aed7f533-4e96-4ffa-91bf-e915635ae0db","system_id":"levelo_inurba_marseille","lat":43.267966,"lon":5.393976,"is_reserved":false,"is_disabled":false,"rental_uris":{"android":"levelo://app?vid=aed7f533-4e96-4ffa-91bf-e915635ae0db","ios":"levelo://app?vid=aed7f533-4e96-4ffa-91bf-e915635ae0db"},"vehicle_type_id":"4","last_reported":1680009344,"current_range_meters":27200,"station_id":"ce4bhh12rcd13ifvqfg0","pricing_plan_id":"free"},{"bike_id":"441e4f7c-4494-45fe-9ab5-5e6127e4674d","system_id":"levelo_inurba_marseille","lat":43.267966,"lon":5.393976,"is_reserved":false,"is_disabled":false,"rental_uris":{"android":"levelo://app?vid=441e4f7c-4494-45fe-9ab5-5e6127e4674d","ios":"levelo://app?vid=441e4f7c-4494-45fe-9ab5-5e6127e4674d"},"vehicle_type_id":"4","last_reported":1680009344,"current_range_meters":29200,"station_id":"ce4bhh12rcd13ifvqfg0","pricing_plan_id":"free"},{"bike_id":"0ab7901c-34b6-43b8-a4af-b848d12a955f","system_id":"levelo_inurba_marseille","lat":43.267966,"lon":5.393976,"is_reserved":false,"is_disabled":false,"rental_uris":{"android":"levelo://app?vid=0ab7901c-34b6-43b8-a4af-b848d12a955f","ios":"levelo://app?vid=0ab7901c-34b6-43b8-a4af-b848d12a955f"},"vehicle_type_id":"4","last_reported":1680009344,"current_range_meters":24800,"station_id":"ce4bhh12rcd13ifvqfg0","pricing_plan_id":"free"},{"bike_id":"e7f49eb8-0f85-4990-87db-5f15a77d09ef","system_id":"levelo_inurba_marseille","lat":43.267966,"lon":5.393976,"is_reserved":false,"is_disabled":false,"rental_uris":{"android":"levelo://app?vid=e7f49eb8-0f85-4990-87db-5f15a77d09ef","ios":"levelo://app?vid=e7f49eb8-0f85-4990-87db-5f15a77d09ef"},"vehicle_type_id":"4","last_reported":1680009344,"current_range_meters":31600,"station_id":"ce4bhh12rcd13ifvqfg0","pricing_plan_id":"free"},{"bike_id":"05196de0-6ccd-47f3-ab74-4c3c8ff17332","system_id":"levelo_inurba_marseille","lat":43.267966,"lon":5.393976,"is_reserved":false,"is_disabled":false,"rental_uris":{"android":"levelo://app?vid=05196de0-6ccd-47f3-ab74-4c3c8ff17332","ios":"levelo://app?vid=05196de0-6ccd-47f3-ab74-4c3c8ff17332"},"vehicle_type_id":"4","last_reported":1680009344,"current_range_meters":30800,"station_id":"ce4bhh12rcd13ifvqfg0","pricing_plan_id":"free"},{"bike_id":"536fb4f5-f2f0-4b21-a932-196ee128fdb3","system_id":"levelo_inurba_marseille","lat":43.267966,"lon":5.393976,"is_reserved":false,"is_disabled":false,"rental_uris":{"android":"levelo://app?vid=536fb4f5-f2f0-4b21-a932-196ee128fdb3","ios":"levelo://app?vid=536fb4f5-f2f0-4b21-a932-196ee128fdb3"},"vehicle_type_id":"4","last_reported":1680009344,"current_range_meters":24000,"station_id":"ce4bhh12rcd13ifvqfg0","pricing_plan_id":"free"},{"bike_id":"f680bb45-80aa-4ad4-83c9-236a5cb1aa65","system_id":"levelo_inurba_marseille","lat":43.267966,"lon":5.393976,"is_reserved":false,"is_disabled":false,"rental_uris":{"android":"levelo://app?vid=f680bb45-80aa-4ad4-83c9-236a5cb1aa65","ios":"levelo://app?vid=f680bb45-80aa-4ad4-83c9-236a5cb1aa65"},"vehicle_type_id":"4","last_reported":1680009344,"current_range_meters":28800,"station_id":"ce4bhh12rcd13ifvqfg0","pricing_plan_id":"free"},{"bike_id":"4faaed10-4507-4e02-bfde-62a243051263","system_id":"levelo_inurba_marseille","lat":43.267966,"lon":5.393976,"is_reserved":false,"is_disabled":false,"rental_uris":{"android":"levelo://app?vid=4faaed10-4507-4e02-bfde-62a243051263","ios":"levelo://app?vid=4faaed10-4507-4e02-bfde-62a243051263"},"vehicle_type_id":"4","last_reported":1680009344,"current_range_meters":29200,"station_id":"ce4bhh12rcd13ifvqfg0","pricing_plan_id":"free"},{"bike_id":"fc06fbb5-7d5e-4079-a615-932684e3d455","system_id":"levelo_inurba_marseille","lat":43.267966,"lon":5.393976,"is_reserved":false,"is_disabled":false,"rental_uris":{"android":"levelo://app?vid=fc06fbb5-7d5e-4079-a615-932684e3d455","ios":"levelo://app?vid=fc06fbb5-7d5e-4079-a615-932684e3d455"},"vehicle_type_id":"4","last_reported":1680009344,"current_range_meters":23200,"station_id":"ce4bhh12rcd13ifvqfg0","pricing_plan_id":"free"},{"bike_id":"afca5ac1-f8f1-48e0-9281-93834d35b351","system_id":"levelo_inurba_marseille","lat":43.26389,"lon":5.37803,"is_reserved":false,"is_disabled":false,"rental_uris":{"android":"levelo://app?vid=afca5ac1-f8f1-48e0-9281-93834d35b351","ios":"levelo://app?vid=afca5ac1-f8f1-48e0-9281-93834d35b351"},"vehicle_type_id":"4","last_reported":1680009344,"current_range_meters":800,"station_id":"","pricing_plan_id":"free"},{"bike_id":"2aaaedbf-03d6-45b5-867c-19003f375d39","system_id":"levelo_inurba_marseille","lat":43.265571,"lon":5.390032,"is_reserved":false,"is_disabled":false,"rental_uris":{"android":"levelo://app?vid=2aaaedbf-03d6-45b5-867c-19003f375d39","ios":"levelo://app?vid=2aaaedbf-03d6-45b5-867c-19003f375d39"},"vehicle_type_id":"4","last_reported":1680009344,"current_range_meters":28800,"station_id":"ce4bhe12rcd13ifvqf30","pricing_plan_id":"free"},{"bike_id":"71ff37a7-6cf5-4dcf-a476-2b6b99ed6da8","system_id":"levelo_inurba_marseille","lat":43.26566,"lon":5.39004,"is_reserved":false,"is_disabled":false,"rental_uris":{"android":"levelo://app?vid=71ff37a7-6cf5-4dcf-a476-2b6b99ed6da8","ios":"levelo://app?vid=71ff37a7-6cf5-4dcf-a476-2b6b99ed6da8"},"vehicle_type_id":"4","last_reported":1680009344,"current_range_meters":2400,"station_id":"ce4bhe12rcd13ifvqf30","pricing_plan_id":"free"},{"bike_id":"6a88b89d-784e-4c81-bf5f-d31877d789ce","system_id":"levelo_inurba_marseille","lat":43.273707,"lon":5.41002,"is_reserved":false,"is_disabled":false,"rental_uris":{"android":"levelo://app?vid=6a88b89d-784e-4c81-bf5f-d31877d789ce","ios":"levelo://app?vid=6a88b89d-784e-4c81-bf5f-d31877d789ce"},"vehicle_type_id":"4","last_reported":1680009344,"current_range_meters":7200,"station_id":"","pricing_plan_id":"free"},{"bike_id":"2b5a7634-974b-419b-9faa-d78ede0dad76","system_id":"levelo_inurba_marseille","lat":43.26939,"lon":5.40224,"is_reserved":false,"is_disabled":false,"rental_uris":{"android":"levelo://app?vid=2b5a7634-974b-419b-9faa-d78ede0dad76","ios":"levelo://app?vid=2b5a7634-974b-419b-9faa-d78ede0dad76"},"vehicle_type_id":"4","last_reported":1680009344,"current_range_meters":0,"station_id":"","pricing_plan_id":"free"},{"bike_id":"54d1d814-ded6-4d65-adc0-6ebd1325a2b4","system_id":"levelo_inurba_marseille","lat":43.331864,"lon":5.431794,"is_reserved":false,"is_disabled":false,"rental_uris":{"android":"levelo://app?vid=54d1d814-ded6-4d65-adc0-6ebd1325a2b4","ios":"levelo://app?vid=54d1d814-ded6-4d65-adc0-6ebd1325a2b4"},"vehicle_type_id":"4","last_reported":1680009344,"current_range_meters":1600,"station_id":"","pricing_plan_id":"free"},{"bike_id":"de4e3d5e-4594-4a0c-a9f4-e3930888d044","system_id":"levelo_inurba_marseille","lat":43.26185,"lon":5.37442,"is_reserved":false,"is_disabled":false,"rental_uris":{"android":"levelo://app?vid=de4e3d5e-4594-4a0c-a9f4-e3930888d044","ios":"levelo://app?vid=de4e3d5e-4594-4a0c-a9f4-e3930888d044"},"vehicle_type_id":"4","last_reported":1680009344,"current_range_meters":9200,"station_id":"ce4bhgp2rcd13ifvqfc0","pricing_plan_id":"free"},{"bike_id":"fa293fad-65fb-40d5-bc7c-34a63076b041","system_id":"levelo_inurba_marseille","lat":43.29895,"lon":5.43673,"is_reserved":false,"is_disabled":false,"rental_uris":{"android":"levelo://app?vid=fa293fad-65fb-40d5-bc7c-34a63076b041","ios":"levelo://app?vid=fa293fad-65fb-40d5-bc7c-34a63076b041"},"vehicle_type_id":"4","last_reported":1680009344,"current_range_meters":27200,"station_id":"","pricing_plan_id":"free"},{"bike_id":"87b05b80-af1a-41fd-84a7-5df445d6e56f","system_id":"levelo_inurba_marseille","lat":43.260359,"lon":5.375455,"is_reserved":false,"is_disabled":false,"rental_uris":{"android":"levelo://app?vid=87b05b80-af1a-41fd-84a7-5df445d6e56f","ios":"levelo://app?vid=87b05b80-af1a-41fd-84a7-5df445d6e56f"},"vehicle_type_id":"4","last_reported":1680009344,"current_range_meters":0,"station_id":"ce4bhgh2rcd13ifvqfa0","pricing_plan_id":"free"},{"bike_id":"488c2c69-642d-402f-b167-2076d699376d","system_id":"levelo_inurba_marseille","lat":43.260312,"lon":5.375551,"is_reserved":false,"is_disabled":false,"rental_uris":{"android":"levelo://app?vid=488c2c69-642d-402f-b167-2076d699376d","ios":"levelo://app?vid=488c2c69-642d-402f-b167-2076d699376d"},"vehicle_type_id":"4","last_reported":1680009344,"current_range_meters":25200,"station_id":"ce4bhgh2rcd13ifvqfa0","pricing_plan_id":"free"},{"bike_id":"47d211fa-757b-44c9-a636-2f9d2c62bba8","system_id":"levelo_inurba_marseille","lat":43.26029,"lon":5.37545,"is_reserved":false,"is_disabled":false,"rental_uris":{"android":"levelo://app?vid=47d211fa-757b-44c9-a636-2f9d2c62bba8","ios":"levelo://app?vid=47d211fa-757b-44c9-a636-2f9d2c62bba8"},"vehicle_type_id":"4","last_reported":1680009344,"current_range_meters":5200,"station_id":"ce4bhgh2rcd13ifvqfa0","pricing_plan_id":"free"},{"bike_id":"533bd326-98d9-4075-b5a3-de3fac8562bc","system_id":"levelo_inurba_marseille","lat":43.2607,"lon":5.393983,"is_reserved":false,"is_disabled":false,"rental_uris":{"android":"levelo://app?vid=533bd326-98d9-4075-b5a3-de3fac8562bc","ios":"levelo://app?vid=533bd326-98d9-4075-b5a3-de3fac8562bc"},"vehicle_type_id":"4","last_reported":1680009344,"current_range_meters":31600,"station_id":"ce4bhh92rcd13ifvqfj0","pricing_plan_id":"free"},{"bike_id":"d7d9eb0c-224b-4e2d-98f6-a614e4b163d4","system_id":"levelo_inurba_marseille","lat":43.25576,"lon":5.38229,"is_reserved":false,"is_disabled":false,"rental_uris":{"android":"levelo://app?vid=d7d9eb0c-224b-4e2d-98f6-a614e4b163d4","ios":"levelo://app?vid=d7d9eb0c-224b-4e2d-98f6-a614e4b163d4"},"vehicle_type_id":"4","last_reported":1680009344,"current_range_meters":1200,"station_id":"","pricing_plan_id":"free"},{"bike_id":"2043f004-c08d-4dc9-ab10-145a9e240bb1","system_id":"levelo_inurba_marseille","lat":43.254947,"lon":5.376454,"is_reserved":false,"is_disabled":false,"rental_uris":{"android":"levelo://app?vid=2043f004-c08d-4dc9-ab10-145a9e240bb1","ios":"levelo://app?vid=2043f004-c08d-4dc9-ab10-145a9e240bb1"},"vehicle_type_id":"4","last_reported":1680009344,"current_range_meters":3200,"station_id":"ce4bhh12rcd13ifvqff0","pricing_plan_id":"free"},{"bike_id":"6a10a85c-0130-47c0-9669-a7aff150f06d","system_id":"levelo_inurba_marseille","lat":43.270721,"lon":5.422764,"is_reserved":false,"is_disabled":false,"rental_uris":{"android":"levelo://app?vid=6a10a85c-0130-47c0-9669-a7aff150f06d","ios":"levelo://app?vid=6a10a85c-0130-47c0-9669-a7aff150f06d"},"vehicle_type_id":"4","last_reported":1680009344,"current_range_meters":20400,"station_id":"ce4bhk92rcd13ifvqgb0","pricing_plan_id":"free"},{"bike_id":"8d5b58d9-2a5a-4f77-818b-489849038a22","system_id":"levelo_inurba_marseille","lat":43.270721,"lon":5.422764,"is_reserved":false,"is_disabled":false,"rental_uris":{"android":"levelo://app?vid=8d5b58d9-2a5a-4f77-818b-489849038a22","ios":"levelo://app?vid=8d5b58d9-2a5a-4f77-818b-489849038a22"},"vehicle_type_id":"4","last_reported":1680009344,"current_range_meters":22400,"station_id":"ce4bhk92rcd13ifvqgb0","pricing_plan_id":"free"},{"bike_id":"3e134bd8-ea16-4f09-8e00-480f1bc27df8","system_id":"levelo_inurba_marseille","lat":43.270721,"lon":5.422764,"is_reserved":false,"is_disabled":false,"rental_uris":{"android":"levelo://app?vid=3e134bd8-ea16-4f09-8e00-480f1bc27df8","ios":"levelo://app?vid=3e134bd8-ea16-4f09-8e00-480f1bc27df8"},"vehicle_type_id":"4","last_reported":1680009344,"current_range_meters":4400,"station_id":"ce4bhk92rcd13ifvqgb0","pricing_plan_id":"free"},{"bike_id":"dcd02f08-6eed-4b36-80ec-766444b36c13","system_id":"levelo_inurba_marseille","lat":43.270721,"lon":5.422764,"is_reserved":false,"is_disabled":false,"rental_uris":{"android":"levelo://app?vid=dcd02f08-6eed-4b36-80ec-766444b36c13","ios":"levelo://app?vid=dcd02f08-6eed-4b36-80ec-766444b36c13"},"vehicle_type_id":"4","last_reported":1680009344,"current_range_meters":15600,"station_id":"ce4bhk92rcd13ifvqgb0","pricing_plan_id":"free"},{"bike_id":"c31445e0-5f08-4af9-aecc-bab8f1446552","system_id":"levelo_inurba_marseille","lat":43.258658,"lon":5.398935,"is_reserved":false,"is_disabled":false,"rental_uris":{"android":"levelo://app?vid=c31445e0-5f08-4af9-aecc-bab8f1446552","ios":"levelo://app?vid=c31445e0-5f08-4af9-aecc-bab8f1446552"},"vehicle_type_id":"4","last_reported":1680009344,"current_range_meters":26800,"station_id":"ce4bhl92rcd13ifvqghg","pricing_plan_id":"free"},{"bike_id":"71ba1782-1404-488b-8756-214d39f36668","system_id":"levelo_inurba_marseille","lat":43.258658,"lon":5.398935,"is_reserved":false,"is_disabled":false,"rental_uris":{"android":"levelo://app?vid=71ba1782-1404-488b-8756-214d39f36668","ios":"levelo://app?vid=71ba1782-1404-488b-8756-214d39f36668"},"vehicle_type_id":"4","last_reported":1680009344,"current_range_meters":30400,"station_id":"ce4bhl92rcd13ifvqghg","pricing_plan_id":"free"},{"bike_id":"7797021d-1a07-4b07-9909-72d835205d69","system_id":"levelo_inurba_marseille","lat":43.250009,"lon":5.389195,"is_reserved":false,"is_disabled":false,"rental_uris":{"android":"levelo://app?vid=7797021d-1a07-4b07-9909-72d835205d69","ios":"levelo://app?vid=7797021d-1a07-4b07-9909-72d835205d69"},"vehicle_type_id":"4","last_reported":1680009344,"current_range_meters":6000,"station_id":"ce4bhgp2rcd13ifvqfd0","pricing_plan_id":"free"},{"bike_id":"67cb7042-99be-4dc2-9c0e-670fd06a6bf0","system_id":"levelo_inurba_marseille","lat":43.2479,"lon":5.374457,"is_reserved":false,"is_disabled":false,"rental_uris":{"android":"levelo://app?vid=67cb7042-99be-4dc2-9c0e-670fd06a6bf0","ios":"levelo://app?vid=67cb7042-99be-4dc2-9c0e-670fd06a6bf0"},"vehicle_type_id":"4","last_reported":1680009344,"current_range_meters":18400,"station_id":"ce4bhgh2rcd13ifvqfb0","pricing_plan_id":"free"},{"bike_id":"e6aa572b-03b4-443e-8464-b1dc7a3a668c","system_id":"levelo_inurba_marseille","lat":43.25102,"lon":5.403214,"is_reserved":false,"is_disabled":false,"rental_uris":{"android":"levelo://app?vid=e6aa572b-03b4-443e-8464-b1dc7a3a668c","ios":"levelo://app?vid=e6aa572b-03b4-443e-8464-b1dc7a3a668c"},"vehicle_type_id":"4","last_reported":1680009344,"current_range_meters":25200,"station_id":"ce4bhlh2rcd13ifvqgig","pricing_plan_id":"free"},{"bike_id":"feb61260-2851-4fa6-81b6-694cca1e0d08","system_id":"levelo_inurba_marseille","lat":43.25102,"lon":5.403214,"is_reserved":false,"is_disabled":false,"rental_uris":{"android":"levelo://app?vid=feb61260-2851-4fa6-81b6-694cca1e0d08","ios":"levelo://app?vid=feb61260-2851-4fa6-81b6-694cca1e0d08"},"vehicle_type_id":"4","last_reported":1680009344,"current_range_meters":4000,"station_id":"ce4bhlh2rcd13ifvqgig","pricing_plan_id":"free"},{"bike_id":"f32ee747-56ec-410e-860c-6a7ef6bd9137","system_id":"levelo_inurba_marseille","lat":43.25102,"lon":5.403214,"is_reserved":false,"is_disabled":false,"rental_uris":{"android":"levelo://app?vid=f32ee747-56ec-410e-860c-6a7ef6bd9137","ios":"levelo://app?vid=f32ee747-56ec-410e-860c-6a7ef6bd9137"},"vehicle_type_id":"4","last_reported":1680009344,"current_range_meters":14400,"station_id":"ce4bhlh2rcd13ifvqgig","pricing_plan_id":"free"},{"bike_id":"80175ff1-e76b-4577-91ed-e789b5b1b42a","system_id":"levelo_inurba_marseille","lat":43.25102,"lon":5.403214,"is_reserved":false,"is_disabled":false,"rental_uris":{"android":"levelo://app?vid=80175ff1-e76b-4577-91ed-e789b5b1b42a","ios":"levelo://app?vid=80175ff1-e76b-4577-91ed-e789b5b1b42a"},"vehicle_type_id":"4","last_reported":1680009344,"current_range_meters":2000,"station_id":"ce4bhlh2rcd13ifvqgig","pricing_plan_id":"free"},{"bike_id":"96bc3bc4-d81f-4916-9092-cadecc01bcd0","system_id":"levelo_inurba_marseille","lat":43.25102,"lon":5.403214,"is_reserved":false,"is_disabled":false,"rental_uris":{"android":"levelo://app?vid=96bc3bc4-d81f-4916-9092-cadecc01bcd0","ios":"levelo://app?vid=96bc3bc4-d81f-4916-9092-cadecc01bcd0"},"vehicle_type_id":"4","last_reported":1680009344,"current_range_meters":7200,"station_id":"ce4bhlh2rcd13ifvqgig","pricing_plan_id":"free"},{"bike_id":"b42080cf-6297-469a-bb37-2addab4570e2","system_id":"levelo_inurba_marseille","lat":43.25102,"lon":5.403214,"is_reserved":false,"is_disabled":false,"rental_uris":{"android":"levelo://app?vid=b42080cf-6297-469a-bb37-2addab4570e2","ios":"levelo://app?vid=b42080cf-6297-469a-bb37-2addab4570e2"},"vehicle_type_id":"4","last_reported":1680009344,"current_range_meters":5600,"station_id":"ce4bhlh2rcd13ifvqgig","pricing_plan_id":"free"},{"bike_id":"585a9207-5d05-413e-9647-c7be83fb4876","system_id":"levelo_inurba_marseille","lat":43.25102,"lon":5.403214,"is_reserved":false,"is_disabled":false,"rental_uris":{"android":"levelo://app?vid=585a9207-5d05-413e-9647-c7be83fb4876","ios":"levelo://app?vid=585a9207-5d05-413e-9647-c7be83fb4876"},"vehicle_type_id":"4","last_reported":1680009344,"current_range_meters":800,"station_id":"ce4bhlh2rcd13ifvqgig","pricing_plan_id":"free"},{"bike_id":"3f532d57-2aab-4a78-b68a-8f019ee73f79","system_id":"levelo_inurba_marseille","lat":43.245581,"lon":5.395069,"is_reserved":false,"is_disabled":false,"rental_uris":{"android":"levelo://app?vid=3f532d57-2aab-4a78-b68a-8f019ee73f79","ios":"levelo://app?vid=3f532d57-2aab-4a78-b68a-8f019ee73f79"},"vehicle_type_id":"4","last_reported":1680009344,"current_range_meters":30800,"station_id":"ce4bhlp2rcd13ifvqgjg","pricing_plan_id":"free"},{"bike_id":"2451057c-acac-40a3-bbe8-6d96c6f7518c","system_id":"levelo_inurba_marseille","lat":43.245581,"lon":5.395069,"is_reserved":false,"is_disabled":false,"rental_uris":{"android":"levelo://app?vid=2451057c-acac-40a3-bbe8-6d96c6f7518c","ios":"levelo://app?vid=2451057c-acac-40a3-bbe8-6d96c6f7518c"},"vehicle_type_id":"4","last_reported":1680009344,"current_range_meters":17200,"station_id":"ce4bhlp2rcd13ifvqgjg","pricing_plan_id":"free"},{"bike_id":"fbec3828-cbd0-49fa-935c-81cf478cc93f","system_id":"levelo_inurba_marseille","lat":43.28552,"lon":5.459573,"is_reserved":false,"is_disabled":false,"rental_uris":{"android":"levelo://app?vid=fbec3828-cbd0-49fa-935c-81cf478cc93f","ios":"levelo://app?vid=fbec3828-cbd0-49fa-935c-81cf478cc93f"},"vehicle_type_id":"4","last_reported":1680009344,"current_range_meters":16800,"station_id":"","pricing_plan_id":"free"},{"bike_id":"9bb0d294-a3f1-4013-81f8-ef3097b12b03","system_id":"levelo_inurba_marseille","lat":43.239588,"lon":5.366238,"is_reserved":false,"is_disabled":false,"rental_uris":{"android":"levelo://app?vid=9bb0d294-a3f1-4013-81f8-ef3097b12b03","ios":"levelo://app?vid=9bb0d294-a3f1-4013-81f8-ef3097b12b03"},"vehicle_type_id":"4","last_reported":1680009344,"current_range_meters":10800,"station_id":"ce4bhi12rcd13ifvqfp0","pricing_plan_id":"free"},{"bike_id":"d88da16e-766e-40ae-ae02-38c186cc78aa","system_id":"levelo_inurba_marseille","lat":43.239588,"lon":5.366238,"is_reserved":false,"is_disabled":false,"rental_uris":{"android":"levelo://app?vid=d88da16e-766e-40ae-ae02-38c186cc78aa","ios":"levelo://app?vid=d88da16e-766e-40ae-ae02-38c186cc78aa"},"vehicle_type_id":"4","last_reported":1680009344,"current_range_meters":31200,"station_id":"ce4bhi12rcd13ifvqfp0","pricing_plan_id":"free"},{"bike_id":"68e89134-f92f-4487-ad9a-130b098f0ec1","system_id":"levelo_inurba_marseille","lat":43.24419,"lon":5.40346,"is_reserved":false,"is_disabled":false,"rental_uris":{"android":"levelo://app?vid=68e89134-f92f-4487-ad9a-130b098f0ec1","ios":"levelo://app?vid=68e89134-f92f-4487-ad9a-130b098f0ec1"},"vehicle_type_id":"4","last_reported":1680009344,"current_range_meters":0,"station_id":"","pricing_plan_id":"free"},{"bike_id":"97cad36f-ad92-499a-8efc-024a2c853b21","system_id":"levelo_inurba_marseille","lat":43.24418,"lon":5.40351,"is_reserved":false,"is_disabled":false,"rental_uris":{"android":"levelo://app?vid=97cad36f-ad92-499a-8efc-024a2c853b21","ios":"levelo://app?vid=97cad36f-ad92-499a-8efc-024a2c853b21"},"vehicle_type_id":"4","last_reported":1680009344,"current_range_meters":10800,"station_id":"","pricing_plan_id":"free"},{"bike_id":"bc126bff-078a-434d-b04b-b1ee3cef5a29","system_id":"levelo_inurba_marseille","lat":43.2438,"lon":5.403024,"is_reserved":false,"is_disabled":false,"rental_uris":{"android":"levelo://app?vid=bc126bff-078a-434d-b04b-b1ee3cef5a29","ios":"levelo://app?vid=bc126bff-078a-434d-b04b-b1ee3cef5a29"},"vehicle_type_id":"4","last_reported":1680009344,"current_range_meters":3200,"station_id":"","pricing_plan_id":"free"},{"bike_id":"b572cbca-da9a-44ee-b9ea-c149a2ca9b6e","system_id":"levelo_inurba_marseille","lat":43.241782,"lon":5.397261,"is_reserved":false,"is_disabled":false,"rental_uris":{"android":"levelo://app?vid=b572cbca-da9a-44ee-b9ea-c149a2ca9b6e","ios":"levelo://app?vid=b572cbca-da9a-44ee-b9ea-c149a2ca9b6e"},"vehicle_type_id":"4","last_reported":1680009344,"current_range_meters":800,"station_id":"ce4bhn12rcd13ifvqgpg","pricing_plan_id":"free"},{"bike_id":"afa32105-5409-41a9-b0fe-d2fac594821b","system_id":"levelo_inurba_marseille","lat":43.28811,"lon":5.46635,"is_reserved":false,"is_disabled":false,"rental_uris":{"android":"levelo://app?vid=afa32105-5409-41a9-b0fe-d2fac594821b","ios":"levelo://app?vid=afa32105-5409-41a9-b0fe-d2fac594821b"},"vehicle_type_id":"4","last_reported":1680009344,"current_range_meters":400,"station_id":"","pricing_plan_id":"free"},{"bike_id":"aeee6149-0814-4519-baa3-114d00cd9f82","system_id":"levelo_inurba_marseille","lat":43.231919,"lon":5.355532,"is_reserved":false,"is_disabled":false,"rental_uris":{"android":"levelo://app?vid=aeee6149-0814-4519-baa3-114d00cd9f82","ios":"levelo://app?vid=aeee6149-0814-4519-baa3-114d00cd9f82"},"vehicle_type_id":"4","last_reported":1680009344,"current_range_meters":2000,"station_id":"ce4bhu92rcd13ifvqi70","pricing_plan_id":"free"},{"bike_id":"d7689e5f-5364-4d2e-95a3-65f9373b50df","system_id":"levelo_inurba_marseille","lat":43.231919,"lon":5.355532,"is_reserved":false,"is_disabled":false,"rental_uris":{"android":"levelo://app?vid=d7689e5f-5364-4d2e-95a3-65f9373b50df","ios":"levelo://app?vid=d7689e5f-5364-4d2e-95a3-65f9373b50df"},"vehicle_type_id":"4","last_reported":1680009344,"current_range_meters":19200,"station_id":"ce4bhu92rcd13ifvqi70","pricing_plan_id":"free"},{"bike_id":"f7efc41f-884d-46c3-b783-351b93cd09e8","system_id":"levelo_inurba_marseille","lat":43.23195,"lon":5.35545,"is_reserved":false,"is_disabled":false,"rental_uris":{"android":"levelo://app?vid=f7efc41f-884d-46c3-b783-351b93cd09e8","ios":"levelo://app?vid=f7efc41f-884d-46c3-b783-351b93cd09e8"},"vehicle_type_id":"4","last_reported":1680009344,"current_range_meters":5600,"station_id":"ce4bhu92rcd13ifvqi70","pricing_plan_id":"free"},{"bike_id":"6d4cbd21-34a5-4259-a8c9-3b700fd8e73a","system_id":"levelo_inurba_marseille","lat":43.23193,"lon":5.35543,"is_reserved":false,"is_disabled":false,"rental_uris":{"android":"levelo://app?vid=6d4cbd21-34a5-4259-a8c9-3b700fd8e73a","ios":"levelo://app?vid=6d4cbd21-34a5-4259-a8c9-3b700fd8e73a"},"vehicle_type_id":"4","last_reported":1680009344,"current_range_meters":4000,"station_id":"ce4bhu92rcd13ifvqi70","pricing_plan_id":"free"},{"bike_id":"eba12d81-c0d7-4ae6-bbb9-fa221825e389","system_id":"levelo_inurba_marseille","lat":43.284621,"lon":5.486919,"is_reserved":false,"is_disabled":false,"rental_uris":{"android":"levelo://app?vid=eba12d81-c0d7-4ae6-bbb9-fa221825e389","ios":"levelo://app?vid=eba12d81-c0d7-4ae6-bbb9-fa221825e389"},"vehicle_type_id":"4","last_reported":1680009344,"current_range_meters":0,"station_id":"","pricing_plan_id":"free"}]}}