{"last_updated":1746860946,"ttl":60,"version":"2.2","data":{"bikes":[{"bike_id":"1e3c7f59-fcfc-433c-8689-9dfe9bf305d6","system_id":"levelo_inurba_marseille","lat":43.29519,"lon":5.40568,"is_reserved":false,"is_disabled":false,"rental_uris":{"android":"levelo://app?vid=1e3c7f59-fcfc-433c-8689-9dfe9bf305d6","ios":"levelo://app?vid=1e3c7f59-fcfc-433c-8689-9dfe9bf305d6"},"vehicle_type_id":"4","last_reported":1746860946,"current_range_meters":2800,"station_id":"","pricing_plan_id":"cebpf4jnsgd1na2vs0mg"},{"bike_id":"6e3610db-fdf0-40f8-9ef2-37e7547c1ad0","system_id":"levelo_inurba_marseille","lat":43.27507,"lon":5.42473,"is_reserved":false,"is_disabled":false,"rental_uris":{"android":"levelo://app?vid=6e3610db-fdf0-40f8-9ef2-37e7547c1ad0","ios":"levelo://app?vid=6e3610db-fdf0-40f8-9ef2-37e7547c1ad0"},"vehicle_type_id":"4","last_reported":1746860946,"current_range_meters":2800,"station_id":"ce4bhn92rcd13ifvqgrg","pricing_plan_id":"cebpf4jnsgd1na2vs0mg"},{"bike_id":"8a0eb219-0825-4873-8042-7ddafae48f5b","system_id":"levelo_inurba_marseille","lat":43.2586,"lon":5.39914,"is_reserved":false,"is_disabled":false,"rental_uris":{"android":"levelo://app?vid=8a0eb219-0825-4873-8042-7ddafae48f5b","ios":"levelo://app?vid=8a0eb219-0825-4873-8042-7ddafae48f5b"},"vehicle_type_id":"4","last_reported":1746860946,"current_range_meters":3200,"station_id":"ce4bhl92rcd13ifvqghg","pricing_plan_id":"cebpf4jnsgd1na2vs0mg"},{"bike_id":"bb570aa2-d8ec-4880-a70d-1b2493384d48","system_id":"levelo_inurba_marseille","lat":43.24386,"lon":5.37062,"is_reserved":false,"is_disabled":false,"rental_uris":{"android":"levelo://app?vid=bb570aa2-d8ec-4880-a70d-1b2493384d48","ios":"levelo://app?vid=bb570aa2-d8ec-4880-a70d-1b2493384d48"},"vehicle_type_id":"4","last_reported":1746860946,"current_range_meters":3200,"station_id":"ce4bhhh2rcd13ifvqfk0","pricing_plan_id":"cebpf4jnsgd1na2vs0mg"},{"bike_id":"928bed07-e827-40ef-897c-7ba52991ba55","system_id":"levelo_inurba_marseille","lat":43.28675,"lon":5.36358,"is_reserved":false,"is_disabled":false,"rental_uris":{"android":"levelo://app?vid=928bed07-e827-40ef-897c-7ba52991ba55","ios":"levelo://app?vid=928bed07-e827-40ef-897c-7ba52991ba55"},"vehicle_type_id":"4","last_reported":1746860946,"current_range_meters":3200,"station_id":"ce4bhah2rcd13ifvqej0","pricing_plan_id":"cebpf4jnsgd1na2vs0mg"},{"bike_id":"51f6f0a0-c583-4863-8aa8-b01fe2bf21ad","system_id":"levelo_inurba_marseille","lat":43.30577,"lon":5.36753,"is_reserved":false,"is_disabled":true,"rental_uris":{"android":"levelo://app?vid=51f6f0a0-c583-4863-8aa8-b01fe2bf21ad","ios":"levelo://app?vid=51f6f0a0-c583-4863-8aa8-b01fe2bf21ad"},"vehicle_type_id":"4","last_reported":1746860946,"current_range_meters":3200,"station_id":"ce4bgrp2rcd13ifvqc9g","pricing_plan_id":"cebpf4jnsgd1na2vs0mg"},{"bike_id":"f38a8814-7414-4a6b-8ba0-0273d2e9620d","system_id":"levelo_inurba_marseille","lat":43.26557,"lon":5.37284,"is_reserved":false,"is_disabled":false,"rental_uris":{"android":"levelo://app?vid=f38a8814-7414-4a6b-8ba0-0273d2e9620d","ios":"levelo://app?vid=f38a8814-7414-4a6b-8ba0-0273d2e9620d"},"vehicle_type_id":"4","last_reported":1746860946,"current_range_meters":4000,"station_id":"ce4bhg12rcd13ifvqf70","pricing_plan_id":"cebpf4jnsgd1na2vs0mg"},{"bike_id":"6af985b2-9ee0-4c28-a9d8-b238a0c7330e","system_id":"levelo_inurba_marseille","lat":43.25123,"lon":5.40323,"is_reserved":false,"is_disabled":false,"rental_uris":{"android":"levelo://app?vid=6af985b2-9ee0-4c28-a9d8-b238a0c7330e","ios":"levelo://app?vid=6af985b2-9ee0-4c28-a9d8-b238a0c7330e"},"vehicle_type_id":"4","last_reported":1746860946,"current_range_meters":4000,"station_id":"ce4bhlh2rcd13ifvqgig","pricing_plan_id":"cebpf4jnsgd1na2vs0mg"},{"bike_id":"078071de-0978-4f13-bd6e-a3e0bc30f4a2","system_id":"levelo_inurba_marseille","lat":43.24993,"lon":5.38925,"is_reserved":false,"is_disabled":false,"rental_uris":{"android":"levelo://app?vid=078071de-0978-4f13-bd6e-a3e0bc30f4a2","ios":"levelo://app?vid=078071de-0978-4f13-bd6e-a3e0bc30f4a2"},"vehicle_type_id":"4","last_reported":1746860946,"current_range_meters":4400,"station_id":"ce4bhgp2rcd13ifvqfd0","pricing_plan_id":"cebpf4jnsgd1na2vs0mg"},{"bike_id":"44e4350f-f3d0-452c-917d-6f1bc146ae5d","system_id":"levelo_inurba_marseille","lat":43.290474,"lon":5.359262,"is_reserved":false,"is_disabled":false,"rental_uris":{"android":"levelo://app?vid=44e4350f-f3d0-452c-917d-6f1bc146ae5d","ios":"levelo://app?vid=44e4350f-f3d0-452c-917d-6f1bc146ae5d"},"vehicle_type_id":"4","last_reported":1746860946,"current_range_meters":4400,"station_id":"ce4bha92rcd13ifvqeg0","pricing_plan_id":"cebpf4jnsgd1na2vs0mg"},{"bike_id":"adcaac78-b78b-4a42-969d-a1d233dd14b7","system_id":"levelo_inurba_marseille","lat":43.3048,"lon":5.37913,"is_reserved":false,"is_disabled":false,"rental_uris":{"android":"levelo://app?vid=adcaac78-b78b-4a42-969d-a1d233dd14b7","ios":"levelo://app?vid=adcaac78-b78b-4a42-969d-a1d233dd14b7"},"vehicle_type_id":"4","last_reported":1746860946,"current_range_meters":4800,"station_id":"ce4bgup2rcd13ifvqcn0","pricing_plan_id":"cebpf4jnsgd1na2vs0mg"},{"bike_id":"f76d0e06-a922-41bb-9df5-d0a5c7d3f9fc","system_id":"levelo_inurba_marseille","lat":43.28908,"lon":5.38457,"is_reserved":false,"is_disabled":true,"rental_uris":{"android":"levelo://app?vid=f76d0e06-a922-41bb-9df5-d0a5c7d3f9fc","ios":"levelo://app?vid=f76d0e06-a922-41bb-9df5-d0a5c7d3f9fc"},"vehicle_type_id":"4","last_reported":1746860946,"current_range_meters":5600,"station_id":"ce4bh612rcd13ifvqe6g","pricing_plan_id":"cebpf4jnsgd1na2vs0mg"},{"bike_id":"283c096d-9775-40df-9ef5-3ff56b9146cb","system_id":"levelo_inurba_marseille","lat":43.22948,"lon":5.35381,"is_reserved":false,"is_disabled":true,"rental_uris":{"android":"levelo://app?vid=283c096d-9775-40df-9ef5-3ff56b9146cb","ios":"levelo://app?vid=283c096d-9775-40df-9ef5-3ff56b9146cb"},"vehicle_type_id":"4","last_reported":1746860946,"current_range_meters":5600,"station_id":"cpo3532slgdg3j2ikp40","pricing_plan_id":"cebpf4jnsgd1na2vs0mg"},{"bike_id":"ba32ee3a-6a49-437c-90fb-7756461a61f4","system_id":"levelo_inurba_marseille","lat":43.241673,"lon":5.364103,"is_reserved":false,"is_disabled":false,"rental_uris":{"android":"levelo://app?vid=ba32ee3a-6a49-437c-90fb-7756461a61f4","ios":"levelo://app?vid=ba32ee3a-6a49-437c-90fb-7756461a61f4"},"vehicle_type_id":"4","last_reported":1746860946,"current_range_meters":6000,"station_id":"cpo36qri1sfpv3e86is0","pricing_plan_id":"cebpf4jnsgd1na2vs0mg"},{"bike_id":"33d77f94-822a-4b96-be68-071337f0e7ad","system_id":"levelo_inurba_marseille","lat":43.3062,"lon":5.37223,"is_reserved":false,"is_disabled":false,"rental_uris":{"android":"levelo://app?vid=33d77f94-822a-4b96-be68-071337f0e7ad","ios":"levelo://app?vid=33d77f94-822a-4b96-be68-071337f0e7ad"},"vehicle_type_id":"4","last_reported":1746860946,"current_range_meters":6000,"station_id":"ce4bgqh2rcd13ifvqc4g","pricing_plan_id":"cebpf4jnsgd1na2vs0mg"},{"bike_id":"3c5bbe12-c5c9-4176-86e5-ac816b3f53d3","system_id":"levelo_inurba_marseille","lat":43.2922,"lon":5.360555,"is_reserved":false,"is_disabled":false,"rental_uris":{"android":"levelo://app?vid=3c5bbe12-c5c9-4176-86e5-ac816b3f53d3","ios":"levelo://app?vid=3c5bbe12-c5c9-4176-86e5-ac816b3f53d3"},"vehicle_type_id":"4","last_reported":1746860946,"current_range_meters":6400,"station_id":"ce4bhbh2rcd13ifvqeqg","pricing_plan_id":"cebpf4jnsgd1na2vs0mg"},{"bike_id":"18c8fa99-b086-4e1d-a1b0-301f523c38e6","system_id":"levelo_inurba_marseille","lat":43.30487,"lon":5.37909,"is_reserved":false,"is_disabled":false,"rental_uris":{"android":"levelo://app?vid=18c8fa99-b086-4e1d-a1b0-301f523c38e6","ios":"levelo://app?vid=18c8fa99-b086-4e1d-a1b0-301f523c38e6"},"vehicle_type_id":"4","last_reported":1746860946,"current_range_meters":6400,"station_id":"ce4bgup2rcd13ifvqcn0","pricing_plan_id":"cebpf4jnsgd1na2vs0mg"},{"bike_id":"caf9033d-5f00-49c3-b1ee-1328b62008dc","system_id":"levelo_inurba_marseille","lat":43.33589,"lon":5.428236,"is_reserved":false,"is_disabled":false,"rental_uris":{"android":"levelo://app?vid=caf9033d-5f00-49c3-b1ee-1328b62008dc","ios":"levelo://app?vid=caf9033d-5f00-49c3-b1ee-1328b62008dc"},"vehicle_type_id":"4","last_reported":1746860946,"current_range_meters":6400,"station_id":"","pricing_plan_id":"cebpf4jnsgd1na2vs0mg"},{"bike_id":"6c0bdbfd-6b23-41da-944b-ac98633dca52","system_id":"levelo_inurba_marseille","lat":43.251172,"lon":5.403353,"is_reserved":false,"is_disabled":false,"rental_uris":{"android":"levelo://app?vid=6c0bdbfd-6b23-41da-944b-ac98633dca52","ios":"levelo://app?vid=6c0bdbfd-6b23-41da-944b-ac98633dca52"},"vehicle_type_id":"4","last_reported":1746860946,"current_range_meters":6800,"station_id":"ce4bhlh2rcd13ifvqgig","pricing_plan_id":"cebpf4jnsgd1na2vs0mg"},{"bike_id":"b82963c6-7115-421c-ac2c-c76730ff375e","system_id":"levelo_inurba_marseille","lat":43.237625,"lon":5.361829,"is_reserved":false,"is_disabled":false,"rental_uris":{"android":"levelo://app?vid=b82963c6-7115-421c-ac2c-c76730ff375e","ios":"levelo://app?vid=b82963c6-7115-421c-ac2c-c76730ff375e"},"vehicle_type_id":"4","last_reported":1746860946,"current_range_meters":6800,"station_id":"","pricing_plan_id":"cebpf4jnsgd1na2vs0mg"},{"bike_id":"41b1a32b-2cab-4ffc-b477-33d19a4dd033","system_id":"levelo_inurba_marseille","lat":43.245537,"lon":5.395331,"is_reserved":false,"is_disabled":false,"rental_uris":{"android":"levelo://app?vid=41b1a32b-2cab-4ffc-b477-33d19a4dd033","ios":"levelo://app?vid=41b1a32b-2cab-4ffc-b477-33d19a4dd033"},"vehicle_type_id":"4","last_reported":1746860946,"current_range_meters":7200,"station_id":"ce4bhlp2rcd13ifvqgjg","pricing_plan_id":"cebpf4jnsgd1na2vs0mg"},{"bike_id":"dd1b1ff0-ba6c-4744-a9f2-7be34f5a933e","system_id":"levelo_inurba_marseille","lat":43.27969,"lon":5.41079,"is_reserved":false,"is_disabled":false,"rental_uris":{"android":"levelo://app?vid=dd1b1ff0-ba6c-4744-a9f2-7be34f5a933e","ios":"levelo://app?vid=dd1b1ff0-ba6c-4744-a9f2-7be34f5a933e"},"vehicle_type_id":"4","last_reported":1746860946,"current_range_meters":8000,"station_id":"ce4bhnp2rcd13ifvqh0g","pricing_plan_id":"cebpf4jnsgd1na2vs0mg"},{"bike_id":"a5035683-e922-4659-b77f-9b07031bc84e","system_id":"levelo_inurba_marseille","lat":43.21765,"lon":5.34611,"is_reserved":false,"is_disabled":true,"rental_uris":{"android":"levelo://app?vid=a5035683-e922-4659-b77f-9b07031bc84e","ios":"levelo://app?vid=a5035683-e922-4659-b77f-9b07031bc84e"},"vehicle_type_id":"4","last_reported":1746860946,"current_range_meters":8000,"station_id":"st_cvj6r9ubvosntc0bgbag","pricing_plan_id":"cebpf4jnsgd1na2vs0mg"},{"bike_id":"a69bf4b4-8717-4a1f-8e67-26cd7acf32eb","system_id":"levelo_inurba_marseille","lat":43.241811,"lon":5.397293,"is_reserved":false,"is_disabled":false,"rental_uris":{"android":"levelo://app?vid=a69bf4b4-8717-4a1f-8e67-26cd7acf32eb","ios":"levelo://app?vid=a69bf4b4-8717-4a1f-8e67-26cd7acf32eb"},"vehicle_type_id":"4","last_reported":1746860946,"current_range_meters":8000,"station_id":"ce4bhn12rcd13ifvqgpg","pricing_plan_id":"cebpf4jnsgd1na2vs0mg"},{"bike_id":"ce972654-4647-4640-9be3-f6d267f881ec","system_id":"levelo_inurba_marseille","lat":43.27621,"lon":5.36109,"is_reserved":false,"is_disabled":false,"rental_uris":{"android":"levelo://app?vid=ce972654-4647-4640-9be3-f6d267f881ec","ios":"levelo://app?vid=ce972654-4647-4640-9be3-f6d267f881ec"},"vehicle_type_id":"4","last_reported":1746860946,"current_range_meters":8000,"station_id":"ce4bgj92rcd13ifvqbe0","pricing_plan_id":"cebpf4jnsgd1na2vs0mg"},{"bike_id":"b0c54ead-2c9a-4d45-904a-5e1b9abf7338","system_id":"levelo_inurba_marseille","lat":43.27933,"lon":5.44062,"is_reserved":false,"is_disabled":false,"rental_uris":{"android":"levelo://app?vid=b0c54ead-2c9a-4d45-904a-5e1b9abf7338","ios":"levelo://app?vid=b0c54ead-2c9a-4d45-904a-5e1b9abf7338"},"vehicle_type_id":"4","last_reported":1746860946,"current_range_meters":8000,"station_id":"","pricing_plan_id":"cebpf4jnsgd1na2vs0mg"},{"bike_id":"791cf852-cc2a-4381-a46c-d7afe4ceb6de","system_id":"levelo_inurba_marseille","lat":43.290079,"lon":5.356097,"is_reserved":false,"is_disabled":true,"rental_uris":{"android":"levelo://app?vid=791cf852-cc2a-4381-a46c-d7afe4ceb6de","ios":"levelo://app?vid=791cf852-cc2a-4381-a46c-d7afe4ceb6de"},"vehicle_type_id":"4","last_reported":1746860946,"current_range_meters":8000,"station_id":"","pricing_plan_id":"cebpf4jnsgd1na2vs0mg"},{"bike_id":"3ee8e499-f845-4c6b-aa75-107b3891d613","system_id":"levelo_inurba_marseille","lat":43.280343,"lon":5.369453,"is_reserved":false,"is_disabled":false,"rental_uris":{"android":"levelo://app?vid=3ee8e499-f845-4c6b-aa75-107b3891d613","ios":"levelo://app?vid=3ee8e499-f845-4c6b-aa75-107b3891d613"},"vehicle_type_id":"4","last_reported":1746860946,"current_range_meters":8400,"station_id":"ce4bha12rcd13ifvqef0","pricing_plan_id":"cebpf4jnsgd1na2vs0mg"},{"bike_id":"f8bd5ba1-0844-4c6d-9b78-f958f1313745","system_id":"levelo_inurba_marseille","lat":43.29349,"lon":5.42833,"is_reserved":false,"is_disabled":false,"rental_uris":{"android":"levelo://app?vid=f8bd5ba1-0844-4c6d-9b78-f958f1313745","ios":"levelo://app?vid=f8bd5ba1-0844-4c6d-9b78-f958f1313745"},"vehicle_type_id":"4","last_reported":1746860946,"current_range_meters":8400,"station_id":"","pricing_plan_id":"cebpf4jnsgd1na2vs0mg"},{"bike_id":"3c7670ff-3628-42b4-8ea8-664d4fa357dd","system_id":"levelo_inurba_marseille","lat":43.279941,"lon":5.416859,"is_reserved":false,"is_disabled":false,"rental_uris":{"android":"levelo://app?vid=3c7670ff-3628-42b4-8ea8-664d4fa357dd","ios":"levelo://app?vid=3c7670ff-3628-42b4-8ea8-664d4fa357dd"},"vehicle_type_id":"4","last_reported":1746860946,"current_range_meters":8400,"station_id":"ce4bho12rcd13ifvqh1g","pricing_plan_id":"cebpf4jnsgd1na2vs0mg"},{"bike_id":"750853c3-5c7a-41ac-b4b9-21d83e878f6f","system_id":"levelo_inurba_marseille","lat":43.276994,"lon":5.419686,"is_reserved":false,"is_disabled":false,"rental_uris":{"android":"levelo://app?vid=750853c3-5c7a-41ac-b4b9-21d83e878f6f","ios":"levelo://app?vid=750853c3-5c7a-41ac-b4b9-21d83e878f6f"},"vehicle_type_id":"4","last_reported":1746860946,"current_range_meters":8800,"station_id":"","pricing_plan_id":"cebpf4jnsgd1na2vs0mg"},{"bike_id":"bdca530c-bd0d-472f-a06b-e690e9f2d295","system_id":"levelo_inurba_marseille","lat":43.308064,"lon":5.381669,"is_reserved":false,"is_disabled":false,"rental_uris":{"android":"levelo://app?vid=bdca530c-bd0d-472f-a06b-e690e9f2d295","ios":"levelo://app?vid=bdca530c-bd0d-472f-a06b-e690e9f2d295"},"vehicle_type_id":"4","last_reported":1746860946,"current_range_meters":8800,"station_id":"ce4bgt12rcd13ifvqce0","pricing_plan_id":"cebpf4jnsgd1na2vs0mg"},{"bike_id":"33237278-7e94-4901-802a-ce6e5185ead3","system_id":"levelo_inurba_marseille","lat":43.21753,"lon":5.34602,"is_reserved":false,"is_disabled":false,"rental_uris":{"android":"levelo://app?vid=33237278-7e94-4901-802a-ce6e5185ead3","ios":"levelo://app?vid=33237278-7e94-4901-802a-ce6e5185ead3"},"vehicle_type_id":"4","last_reported":1746860946,"current_range_meters":8800,"station_id":"st_cvj6r9ubvosntc0bgbag","pricing_plan_id":"cebpf4jnsgd1na2vs0mg"},{"bike_id":"88e65bbf-8be6-4c3d-aa2e-445c3d526d08","system_id":"levelo_inurba_marseille","lat":43.271902,"lon":5.40995,"is_reserved":false,"is_disabled":true,"rental_uris":{"android":"levelo://app?vid=88e65bbf-8be6-4c3d-aa2e-445c3d526d08","ios":"levelo://app?vid=88e65bbf-8be6-4c3d-aa2e-445c3d526d08"},"vehicle_type_id":"4","last_reported":1746860946,"current_range_meters":8800,"station_id":"ce4bhl12rcd13ifvqgf0","pricing_plan_id":"cebpf4jnsgd1na2vs0mg"},{"bike_id":"57b02817-d5d1-4e90-98c4-332be8aa4272","system_id":"levelo_inurba_marseille","lat":43.27807,"lon":5.40714,"is_reserved":false,"is_disabled":false,"rental_uris":{"android":"levelo://app?vid=57b02817-d5d1-4e90-98c4-332be8aa4272","ios":"levelo://app?vid=57b02817-d5d1-4e90-98c4-332be8aa4272"},"vehicle_type_id":"4","last_reported":1746860946,"current_range_meters":9200,"station_id":"ce4bhnh2rcd13ifvqgtg","pricing_plan_id":"cebpf4jnsgd1na2vs0mg"},{"bike_id":"22dfbe01-9157-43ce-a9ac-7077e5980f60","system_id":"levelo_inurba_marseille","lat":43.234675,"lon":5.360464,"is_reserved":false,"is_disabled":false,"rental_uris":{"android":"levelo://app?vid=22dfbe01-9157-43ce-a9ac-7077e5980f60","ios":"levelo://app?vid=22dfbe01-9157-43ce-a9ac-7077e5980f60"},"vehicle_type_id":"4","last_reported":1746860946,"current_range_meters":9200,"station_id":"","pricing_plan_id":"cebpf4jnsgd1na2vs0mg"},{"bike_id":"1771c0e2-1fe6-49ff-8a23-2166fe76f883","system_id":"levelo_inurba_marseille","lat":43.231783,"lon":5.399831,"is_reserved":false,"is_disabled":false,"rental_uris":{"android":"levelo://app?vid=1771c0e2-1fe6-49ff-8a23-2166fe76f883","ios":"levelo://app?vid=1771c0e2-1fe6-49ff-8a23-2166fe76f883"},"vehicle_type_id":"4","last_reported":1746860946,"current_range_meters":9600,"station_id":"ce4bhn12rcd13ifvqgqg","pricing_plan_id":"cebpf4jnsgd1na2vs0mg"},{"bike_id":"42091268-e1c5-49fa-92ef-af1096d6f585","system_id":"levelo_inurba_marseille","lat":43.30932,"lon":5.40147,"is_reserved":false,"is_disabled":false,"rental_uris":{"android":"levelo://app?vid=42091268-e1c5-49fa-92ef-af1096d6f585","ios":"levelo://app?vid=42091268-e1c5-49fa-92ef-af1096d6f585"},"vehicle_type_id":"4","last_reported":1746860946,"current_range_meters":9600,"station_id":"ce4bgvp2rcd13ifvqct0","pricing_plan_id":"cebpf4jnsgd1na2vs0mg"},{"bike_id":"02b78847-8c19-4c59-93ac-0179dd6fb8a4","system_id":"levelo_inurba_marseille","lat":43.28689,"lon":5.36338,"is_reserved":false,"is_disabled":false,"rental_uris":{"android":"levelo://app?vid=02b78847-8c19-4c59-93ac-0179dd6fb8a4","ios":"levelo://app?vid=02b78847-8c19-4c59-93ac-0179dd6fb8a4"},"vehicle_type_id":"4","last_reported":1746860946,"current_range_meters":9600,"station_id":"ce4bhah2rcd13ifvqej0","pricing_plan_id":"cebpf4jnsgd1na2vs0mg"},{"bike_id":"c23795ea-7683-4dec-afd8-7fe5848041e3","system_id":"levelo_inurba_marseille","lat":43.24154,"lon":5.39735,"is_reserved":false,"is_disabled":false,"rental_uris":{"android":"levelo://app?vid=c23795ea-7683-4dec-afd8-7fe5848041e3","ios":"levelo://app?vid=c23795ea-7683-4dec-afd8-7fe5848041e3"},"vehicle_type_id":"4","last_reported":1746860946,"current_range_meters":9600,"station_id":"ce4bhn12rcd13ifvqgpg","pricing_plan_id":"cebpf4jnsgd1na2vs0mg"},{"bike_id":"2d9cf84f-80e6-4273-bdb7-a817d129565a","system_id":"levelo_inurba_marseille","lat":43.28071,"lon":5.39653,"is_reserved":false,"is_disabled":false,"rental_uris":{"android":"levelo://app?vid=2d9cf84f-80e6-4273-bdb7-a817d129565a","ios":"levelo://app?vid=2d9cf84f-80e6-4273-bdb7-a817d129565a"},"vehicle_type_id":"4","last_reported":1746860946,"current_range_meters":10000,"station_id":"ce4bho12rcd13ifvqh2g","pricing_plan_id":"cebpf4jnsgd1na2vs0mg"},{"bike_id":"5124c704-e9a8-480c-a3ee-1f8bdc49197d","system_id":"levelo_inurba_marseille","lat":43.2962,"lon":5.37175,"is_reserved":false,"is_disabled":false,"rental_uris":{"android":"levelo://app?vid=5124c704-e9a8-480c-a3ee-1f8bdc49197d","ios":"levelo://app?vid=5124c704-e9a8-480c-a3ee-1f8bdc49197d"},"vehicle_type_id":"4","last_reported":1746860946,"current_range_meters":10000,"station_id":"ce4bgnh2rcd13ifvqc0g","pricing_plan_id":"cebpf4jnsgd1na2vs0mg"},{"bike_id":"0eae1664-e62c-4400-8041-d7f3bc1da788","system_id":"levelo_inurba_marseille","lat":43.28742,"lon":5.35916,"is_reserved":false,"is_disabled":false,"rental_uris":{"android":"levelo://app?vid=0eae1664-e62c-4400-8041-d7f3bc1da788","ios":"levelo://app?vid=0eae1664-e62c-4400-8041-d7f3bc1da788"},"vehicle_type_id":"4","last_reported":1746860946,"current_range_meters":10000,"station_id":"","pricing_plan_id":"cebpf4jnsgd1na2vs0mg"},{"bike_id":"86b478b2-1cf2-4e07-8a5c-76710e912a41","system_id":"levelo_inurba_marseille","lat":43.291238,"lon":5.366913,"is_reserved":false,"is_disabled":false,"rental_uris":{"android":"levelo://app?vid=86b478b2-1cf2-4e07-8a5c-76710e912a41","ios":"levelo://app?vid=86b478b2-1cf2-4e07-8a5c-76710e912a41"},"vehicle_type_id":"4","last_reported":1746860946,"current_range_meters":10800,"station_id":"","pricing_plan_id":"cebpf4jnsgd1na2vs0mg"},{"bike_id":"044478cb-8194-4092-b984-4fc9c042ef68","system_id":"levelo_inurba_marseille","lat":43.28764,"lon":5.46496,"is_reserved":false,"is_disabled":false,"rental_uris":{"android":"levelo://app?vid=044478cb-8194-4092-b984-4fc9c042ef68","ios":"levelo://app?vid=044478cb-8194-4092-b984-4fc9c042ef68"},"vehicle_type_id":"4","last_reported":1746860946,"current_range_meters":10800,"station_id":"","pricing_plan_id":"cebpf4jnsgd1na2vs0mg"},{"bike_id":"82b94955-9433-46f9-b88d-a98abe631988","system_id":"levelo_inurba_marseille","lat":43.29045,"lon":5.40006,"is_reserved":false,"is_disabled":false,"rental_uris":{"android":"levelo://app?vid=82b94955-9433-46f9-b88d-a98abe631988","ios":"levelo://app?vid=82b94955-9433-46f9-b88d-a98abe631988"},"vehicle_type_id":"4","last_reported":1746860946,"current_range_meters":10800,"station_id":"ce4bh392rcd13ifvqdm0","pricing_plan_id":"cebpf4jnsgd1na2vs0mg"},{"bike_id":"597beefa-8311-4d68-b0f3-88cd0a14dd08","system_id":"levelo_inurba_marseille","lat":43.275517,"lon":5.395543,"is_reserved":false,"is_disabled":false,"rental_uris":{"android":"levelo://app?vid=597beefa-8311-4d68-b0f3-88cd0a14dd08","ios":"levelo://app?vid=597beefa-8311-4d68-b0f3-88cd0a14dd08"},"vehicle_type_id":"4","last_reported":1746860946,"current_range_meters":10800,"station_id":"","pricing_plan_id":"cebpf4jnsgd1na2vs0mg"},{"bike_id":"cfb33b76-ff38-465f-96b4-8908aeb6f4a0","system_id":"levelo_inurba_marseille","lat":43.27371,"lon":5.36251,"is_reserved":false,"is_disabled":false,"rental_uris":{"android":"levelo://app?vid=cfb33b76-ff38-465f-96b4-8908aeb6f4a0","ios":"levelo://app?vid=cfb33b76-ff38-465f-96b4-8908aeb6f4a0"},"vehicle_type_id":"4","last_reported":1746860946,"current_range_meters":11200,"station_id":"ce4bhbh2rcd13ifvqeo0","pricing_plan_id":"cebpf4jnsgd1na2vs0mg"},{"bike_id":"2bcd659a-611c-43e2-89ef-f7e699246180","system_id":"levelo_inurba_marseille","lat":43.3023,"lon":5.400205,"is_reserved":false,"is_disabled":false,"rental_uris":{"android":"levelo://app?vid=2bcd659a-611c-43e2-89ef-f7e699246180","ios":"levelo://app?vid=2bcd659a-611c-43e2-89ef-f7e699246180"},"vehicle_type_id":"4","last_reported":1746860946,"current_range_meters":11200,"station_id":"ce4bgvh2rcd13ifvqcs0","pricing_plan_id":"cebpf4jnsgd1na2vs0mg"},{"bike_id":"dabc5299-686c-437f-b1fe-4c4dcec4a3bc","system_id":"levelo_inurba_marseille","lat":43.24074,"lon":5.37739,"is_reserved":false,"is_disabled":false,"rental_uris":{"android":"levelo://app?vid=dabc5299-686c-437f-b1fe-4c4dcec4a3bc","ios":"levelo://app?vid=dabc5299-686c-437f-b1fe-4c4dcec4a3bc"},"vehicle_type_id":"4","last_reported":1746860946,"current_range_meters":11200,"station_id":"ce4bhnp2rcd13ifvqgvg","pricing_plan_id":"cebpf4jnsgd1na2vs0mg"},{"bike_id":"9319b99d-2325-4f39-8ac2-f7bd744620e2","system_id":"levelo_inurba_marseille","lat":43.27614,"lon":5.36097,"is_reserved":false,"is_disabled":false,"rental_uris":{"android":"levelo://app?vid=9319b99d-2325-4f39-8ac2-f7bd744620e2","ios":"levelo://app?vid=9319b99d-2325-4f39-8ac2-f7bd744620e2"},"vehicle_type_id":"4","last_reported":1746860946,"current_range_meters":11200,"station_id":"ce4bgj92rcd13ifvqbe0","pricing_plan_id":"cebpf4jnsgd1na2vs0mg"},{"bike_id":"5a2b9265-1c21-4240-ae2e-6b025866f1b4","system_id":"levelo_inurba_marseille","lat":43.30929,"lon":5.40143,"is_reserved":false,"is_disabled":false,"rental_uris":{"android":"levelo://app?vid=5a2b9265-1c21-4240-ae2e-6b025866f1b4","ios":"levelo://app?vid=5a2b9265-1c21-4240-ae2e-6b025866f1b4"},"vehicle_type_id":"4","last_reported":1746860946,"current_range_meters":11200,"station_id":"ce4bgvp2rcd13ifvqct0","pricing_plan_id":"cebpf4jnsgd1na2vs0mg"},{"bike_id":"29b99ee3-82b0-4cb0-a9d6-8993ba8fcb2f","system_id":"levelo_inurba_marseille","lat":43.24663,"lon":5.38916,"is_reserved":false,"is_disabled":false,"rental_uris":{"android":"levelo://app?vid=29b99ee3-82b0-4cb0-a9d6-8993ba8fcb2f","ios":"levelo://app?vid=29b99ee3-82b0-4cb0-a9d6-8993ba8fcb2f"},"vehicle_type_id":"4","last_reported":1746860946,"current_range_meters":11600,"station_id":"ce4bhg12rcd13ifvqf60","pricing_plan_id":"cebpf4jnsgd1na2vs0mg"},{"bike_id":"4216c909-d3d3-4238-b974-4470cde89ca7","system_id":"levelo_inurba_marseille","lat":43.29851,"lon":5.36282,"is_reserved":false,"is_disabled":false,"rental_uris":{"android":"levelo://app?vid=4216c909-d3d3-4238-b974-4470cde89ca7","ios":"levelo://app?vid=4216c909-d3d3-4238-b974-4470cde89ca7"},"vehicle_type_id":"4","last_reported":1746860946,"current_range_meters":11600,"station_id":"ce4bgpp2rcd13ifvqc3g","pricing_plan_id":"cebpf4jnsgd1na2vs0mg"},{"bike_id":"425a71c2-3497-48ea-abb4-541b2f2a7c98","system_id":"levelo_inurba_marseille","lat":43.24652,"lon":5.38126,"is_reserved":false,"is_disabled":false,"rental_uris":{"android":"levelo://app?vid=425a71c2-3497-48ea-abb4-541b2f2a7c98","ios":"levelo://app?vid=425a71c2-3497-48ea-abb4-541b2f2a7c98"},"vehicle_type_id":"4","last_reported":1746860946,"current_range_meters":11600,"station_id":"ce4bhih2rcd13ifvqfr0","pricing_plan_id":"cebpf4jnsgd1na2vs0mg"},{"bike_id":"09e1dc14-26ac-446e-add0-27edb09cfb56","system_id":"levelo_inurba_marseille","lat":43.29277,"lon":5.36848,"is_reserved":false,"is_disabled":true,"rental_uris":{"android":"levelo://app?vid=09e1dc14-26ac-446e-add0-27edb09cfb56","ios":"levelo://app?vid=09e1dc14-26ac-446e-add0-27edb09cfb56"},"vehicle_type_id":"4","last_reported":1746860946,"current_range_meters":11600,"station_id":"","pricing_plan_id":"cebpf4jnsgd1na2vs0mg"},{"bike_id":"35a8516b-240a-4df8-a3a1-35d4da354b60","system_id":"levelo_inurba_marseille","lat":43.2396,"lon":5.36639,"is_reserved":false,"is_disabled":false,"rental_uris":{"android":"levelo://app?vid=35a8516b-240a-4df8-a3a1-35d4da354b60","ios":"levelo://app?vid=35a8516b-240a-4df8-a3a1-35d4da354b60"},"vehicle_type_id":"4","last_reported":1746860946,"current_range_meters":12000,"station_id":"ce4bhi12rcd13ifvqfp0","pricing_plan_id":"cebpf4jnsgd1na2vs0mg"},{"bike_id":"3ace9874-0c23-4b76-b792-28d9c2015bc4","system_id":"levelo_inurba_marseille","lat":43.27999,"lon":5.41662,"is_reserved":false,"is_disabled":false,"rental_uris":{"android":"levelo://app?vid=3ace9874-0c23-4b76-b792-28d9c2015bc4","ios":"levelo://app?vid=3ace9874-0c23-4b76-b792-28d9c2015bc4"},"vehicle_type_id":"4","last_reported":1746860946,"current_range_meters":12000,"station_id":"ce4bho12rcd13ifvqh1g","pricing_plan_id":"cebpf4jnsgd1na2vs0mg"},{"bike_id":"f1c7a456-d705-477a-b1e6-88d53834d2f1","system_id":"levelo_inurba_marseille","lat":43.31713,"lon":5.43664,"is_reserved":false,"is_disabled":true,"rental_uris":{"android":"levelo://app?vid=f1c7a456-d705-477a-b1e6-88d53834d2f1","ios":"levelo://app?vid=f1c7a456-d705-477a-b1e6-88d53834d2f1"},"vehicle_type_id":"4","last_reported":1746860946,"current_range_meters":12400,"station_id":"ce4bhp92rcd13ifvqhcg","pricing_plan_id":"cebpf4jnsgd1na2vs0mg"},{"bike_id":"29bb0e90-8495-48c2-b147-6fc8b2d38f4f","system_id":"levelo_inurba_marseille","lat":43.27056,"lon":5.4026,"is_reserved":false,"is_disabled":false,"rental_uris":{"android":"levelo://app?vid=29bb0e90-8495-48c2-b147-6fc8b2d38f4f","ios":"levelo://app?vid=29bb0e90-8495-48c2-b147-6fc8b2d38f4f"},"vehicle_type_id":"4","last_reported":1746860946,"current_range_meters":12400,"station_id":"ce4bhk92rcd13ifvqgc0","pricing_plan_id":"cebpf4jnsgd1na2vs0mg"},{"bike_id":"df56ef2d-718a-45a6-8a7e-282a60e1aaaf","system_id":"levelo_inurba_marseille","lat":43.317222,"lon":5.423962,"is_reserved":false,"is_disabled":true,"rental_uris":{"android":"levelo://app?vid=df56ef2d-718a-45a6-8a7e-282a60e1aaaf","ios":"levelo://app?vid=df56ef2d-718a-45a6-8a7e-282a60e1aaaf"},"vehicle_type_id":"4","last_reported":1746860946,"current_range_meters":12400,"station_id":"ce4bhp92rcd13ifvqhbg","pricing_plan_id":"cebpf4jnsgd1na2vs0mg"},{"bike_id":"6a592c79-90d3-4c3a-8d32-667e71e7b710","system_id":"levelo_inurba_marseille","lat":43.31716,"lon":5.40459,"is_reserved":false,"is_disabled":false,"rental_uris":{"android":"levelo://app?vid=6a592c79-90d3-4c3a-8d32-667e71e7b710","ios":"levelo://app?vid=6a592c79-90d3-4c3a-8d32-667e71e7b710"},"vehicle_type_id":"4","last_reported":1746860946,"current_range_meters":12800,"station_id":"ce4bh012rcd13ifvqd00","pricing_plan_id":"cebpf4jnsgd1na2vs0mg"},{"bike_id":"4dac548a-0e49-4a36-a3d2-5091efe06cbf","system_id":"levelo_inurba_marseille","lat":43.27812,"lon":5.40716,"is_reserved":false,"is_disabled":false,"rental_uris":{"android":"levelo://app?vid=4dac548a-0e49-4a36-a3d2-5091efe06cbf","ios":"levelo://app?vid=4dac548a-0e49-4a36-a3d2-5091efe06cbf"},"vehicle_type_id":"4","last_reported":1746860946,"current_range_meters":12800,"station_id":"ce4bhnh2rcd13ifvqgtg","pricing_plan_id":"cebpf4jnsgd1na2vs0mg"},{"bike_id":"d58e2bca-9cc6-4497-82e6-997f2f8b2940","system_id":"levelo_inurba_marseille","lat":43.24654,"lon":5.38171,"is_reserved":false,"is_disabled":false,"rental_uris":{"android":"levelo://app?vid=d58e2bca-9cc6-4497-82e6-997f2f8b2940","ios":"levelo://app?vid=d58e2bca-9cc6-4497-82e6-997f2f8b2940"},"vehicle_type_id":"4","last_reported":1746860946,"current_range_meters":13600,"station_id":"ce4bhih2rcd13ifvqfr0","pricing_plan_id":"cebpf4jnsgd1na2vs0mg"},{"bike_id":"522db3a7-6626-4a22-8d3f-01560b98f4d5","system_id":"levelo_inurba_marseille","lat":43.279175,"lon":5.395797,"is_reserved":false,"is_disabled":true,"rental_uris":{"android":"levelo://app?vid=522db3a7-6626-4a22-8d3f-01560b98f4d5","ios":"levelo://app?vid=522db3a7-6626-4a22-8d3f-01560b98f4d5"},"vehicle_type_id":"4","last_reported":1746860946,"current_range_meters":13600,"station_id":"ce4bhf92rcd13ifvqf40","pricing_plan_id":"cebpf4jnsgd1na2vs0mg"},{"bike_id":"575346d1-8dea-4228-8b9c-4d5ea0a89925","system_id":"levelo_inurba_marseille","lat":43.251104,"lon":5.403251,"is_reserved":false,"is_disabled":false,"rental_uris":{"android":"levelo://app?vid=575346d1-8dea-4228-8b9c-4d5ea0a89925","ios":"levelo://app?vid=575346d1-8dea-4228-8b9c-4d5ea0a89925"},"vehicle_type_id":"4","last_reported":1746860946,"current_range_meters":13600,"station_id":"ce4bhlh2rcd13ifvqgig","pricing_plan_id":"cebpf4jnsgd1na2vs0mg"},{"bike_id":"9cbbf09b-7641-4c50-a8f7-ec995e116e3f","system_id":"levelo_inurba_marseille","lat":43.28671,"lon":5.3635,"is_reserved":false,"is_disabled":false,"rental_uris":{"android":"levelo://app?vid=9cbbf09b-7641-4c50-a8f7-ec995e116e3f","ios":"levelo://app?vid=9cbbf09b-7641-4c50-a8f7-ec995e116e3f"},"vehicle_type_id":"4","last_reported":1746860946,"current_range_meters":13600,"station_id":"","pricing_plan_id":"cebpf4jnsgd1na2vs0mg"},{"bike_id":"cb015b5a-ad0d-4480-b72e-fc276309ba58","system_id":"levelo_inurba_marseille","lat":43.30303,"lon":5.39213,"is_reserved":false,"is_disabled":false,"rental_uris":{"android":"levelo://app?vid=cb015b5a-ad0d-4480-b72e-fc276309ba58","ios":"levelo://app?vid=cb015b5a-ad0d-4480-b72e-fc276309ba58"},"vehicle_type_id":"4","last_reported":1746860946,"current_range_meters":14000,"station_id":"ce4bgkh2rcd13ifvqbk0","pricing_plan_id":"cebpf4jnsgd1na2vs0mg"},{"bike_id":"9a919805-a5a4-497f-a929-c9e08814771d","system_id":"levelo_inurba_marseille","lat":43.28,"lon":5.416578,"is_reserved":false,"is_disabled":false,"rental_uris":{"android":"levelo://app?vid=9a919805-a5a4-497f-a929-c9e08814771d","ios":"levelo://app?vid=9a919805-a5a4-497f-a929-c9e08814771d"},"vehicle_type_id":"4","last_reported":1746860946,"current_range_meters":14000,"station_id":"ce4bho12rcd13ifvqh1g","pricing_plan_id":"cebpf4jnsgd1na2vs0mg"},{"bike_id":"bb9dd4d9-ef7c-411c-9ce2-6f0d8890189a","system_id":"levelo_inurba_marseille","lat":43.24174,"lon":5.36399,"is_reserved":false,"is_disabled":false,"rental_uris":{"android":"levelo://app?vid=bb9dd4d9-ef7c-411c-9ce2-6f0d8890189a","ios":"levelo://app?vid=bb9dd4d9-ef7c-411c-9ce2-6f0d8890189a"},"vehicle_type_id":"4","last_reported":1746860946,"current_range_meters":14400,"station_id":"cpo36qri1sfpv3e86is0","pricing_plan_id":"cebpf4jnsgd1na2vs0mg"},{"bike_id":"91d56315-0b0a-4e91-b3ed-945444ac9257","system_id":"levelo_inurba_marseille","lat":43.25114,"lon":5.40317,"is_reserved":false,"is_disabled":false,"rental_uris":{"android":"levelo://app?vid=91d56315-0b0a-4e91-b3ed-945444ac9257","ios":"levelo://app?vid=91d56315-0b0a-4e91-b3ed-945444ac9257"},"vehicle_type_id":"4","last_reported":1746860946,"current_range_meters":14400,"station_id":"ce4bhlh2rcd13ifvqgig","pricing_plan_id":"cebpf4jnsgd1na2vs0mg"},{"bike_id":"db8e9453-3d9e-43c6-9459-be7e83be27dd","system_id":"levelo_inurba_marseille","lat":43.2586,"lon":5.39908,"is_reserved":false,"is_disabled":false,"rental_uris":{"android":"levelo://app?vid=db8e9453-3d9e-43c6-9459-be7e83be27dd","ios":"levelo://app?vid=db8e9453-3d9e-43c6-9459-be7e83be27dd"},"vehicle_type_id":"4","last_reported":1746860946,"current_range_meters":14400,"station_id":"ce4bhl92rcd13ifvqghg","pricing_plan_id":"cebpf4jnsgd1na2vs0mg"},{"bike_id":"cb6e829e-08a2-4265-8b55-6bb7beaff204","system_id":"levelo_inurba_marseille","lat":43.22949,"lon":5.35393,"is_reserved":false,"is_disabled":false,"rental_uris":{"android":"levelo://app?vid=cb6e829e-08a2-4265-8b55-6bb7beaff204","ios":"levelo://app?vid=cb6e829e-08a2-4265-8b55-6bb7beaff204"},"vehicle_type_id":"4","last_reported":1746860946,"current_range_meters":14800,"station_id":"cpo3532slgdg3j2ikp40","pricing_plan_id":"cebpf4jnsgd1na2vs0mg"},{"bike_id":"fce5a7b2-229f-4f98-8dcd-14ee60e9526a","system_id":"levelo_inurba_marseille","lat":43.27914,"lon":5.39568,"is_reserved":false,"is_disabled":false,"rental_uris":{"android":"levelo://app?vid=fce5a7b2-229f-4f98-8dcd-14ee60e9526a","ios":"levelo://app?vid=fce5a7b2-229f-4f98-8dcd-14ee60e9526a"},"vehicle_type_id":"4","last_reported":1746860946,"current_range_meters":14800,"station_id":"ce4bhf92rcd13ifvqf40","pricing_plan_id":"cebpf4jnsgd1na2vs0mg"},{"bike_id":"c5bf6457-7a00-4d62-9165-cd5ce63d9661","system_id":"levelo_inurba_marseille","lat":43.243873,"lon":5.370706,"is_reserved":false,"is_disabled":false,"rental_uris":{"android":"levelo://app?vid=c5bf6457-7a00-4d62-9165-cd5ce63d9661","ios":"levelo://app?vid=c5bf6457-7a00-4d62-9165-cd5ce63d9661"},"vehicle_type_id":"4","last_reported":1746860946,"current_range_meters":14800,"station_id":"ce4bhhh2rcd13ifvqfk0","pricing_plan_id":"cebpf4jnsgd1na2vs0mg"},{"bike_id":"79cb0f51-44ad-4e47-a077-3b67f2063870","system_id":"levelo_inurba_marseille","lat":43.32341,"lon":5.40587,"is_reserved":false,"is_disabled":false,"rental_uris":{"android":"levelo://app?vid=79cb0f51-44ad-4e47-a077-3b67f2063870","ios":"levelo://app?vid=79cb0f51-44ad-4e47-a077-3b67f2063870"},"vehicle_type_id":"4","last_reported":1746860946,"current_range_meters":14800,"station_id":"ce4bhq92rcd13ifvqhjg","pricing_plan_id":"cebpf4jnsgd1na2vs0mg"},{"bike_id":"e14f934e-4c60-420a-9561-87cab2dc4b74","system_id":"levelo_inurba_marseille","lat":43.24385,"lon":5.37064,"is_reserved":false,"is_disabled":false,"rental_uris":{"android":"levelo://app?vid=e14f934e-4c60-420a-9561-87cab2dc4b74","ios":"levelo://app?vid=e14f934e-4c60-420a-9561-87cab2dc4b74"},"vehicle_type_id":"4","last_reported":1746860946,"current_range_meters":15200,"station_id":"ce4bhhh2rcd13ifvqfk0","pricing_plan_id":"cebpf4jnsgd1na2vs0mg"},{"bike_id":"7ecc12d3-6f37-4307-a7ab-aee9bdf517f5","system_id":"levelo_inurba_marseille","lat":43.26687,"lon":5.38262,"is_reserved":false,"is_disabled":false,"rental_uris":{"android":"levelo://app?vid=7ecc12d3-6f37-4307-a7ab-aee9bdf517f5","ios":"levelo://app?vid=7ecc12d3-6f37-4307-a7ab-aee9bdf517f5"},"vehicle_type_id":"4","last_reported":1746860946,"current_range_meters":15200,"station_id":"ce4bhg92rcd13ifvqf90","pricing_plan_id":"cebpf4jnsgd1na2vs0mg"},{"bike_id":"8dfe763f-2b56-4348-b766-788076babf15","system_id":"levelo_inurba_marseille","lat":43.307815,"lon":5.376537,"is_reserved":false,"is_disabled":false,"rental_uris":{"android":"levelo://app?vid=8dfe763f-2b56-4348-b766-788076babf15","ios":"levelo://app?vid=8dfe763f-2b56-4348-b766-788076babf15"},"vehicle_type_id":"4","last_reported":1746860946,"current_range_meters":16000,"station_id":"ce4bgv92rcd13ifvqcq0","pricing_plan_id":"cebpf4jnsgd1na2vs0mg"},{"bike_id":"fc2577e7-1497-425b-9d4f-ab8d7dc843c6","system_id":"levelo_inurba_marseille","lat":43.33771,"lon":5.37485,"is_reserved":false,"is_disabled":false,"rental_uris":{"android":"levelo://app?vid=fc2577e7-1497-425b-9d4f-ab8d7dc843c6","ios":"levelo://app?vid=fc2577e7-1497-425b-9d4f-ab8d7dc843c6"},"vehicle_type_id":"4","last_reported":1746860946,"current_range_meters":16000,"station_id":"","pricing_plan_id":"cebpf4jnsgd1na2vs0mg"},{"bike_id":"988217a7-40cc-4175-99a8-3abc98dd942c","system_id":"levelo_inurba_marseille","lat":43.240736,"lon":5.377653,"is_reserved":false,"is_disabled":false,"rental_uris":{"android":"levelo://app?vid=988217a7-40cc-4175-99a8-3abc98dd942c","ios":"levelo://app?vid=988217a7-40cc-4175-99a8-3abc98dd942c"},"vehicle_type_id":"4","last_reported":1746860946,"current_range_meters":16000,"station_id":"ce4bhnp2rcd13ifvqgvg","pricing_plan_id":"cebpf4jnsgd1na2vs0mg"},{"bike_id":"5bee1775-528f-49e6-9c3e-19f7744c053e","system_id":"levelo_inurba_marseille","lat":43.28027,"lon":5.4165,"is_reserved":false,"is_disabled":false,"rental_uris":{"android":"levelo://app?vid=5bee1775-528f-49e6-9c3e-19f7744c053e","ios":"levelo://app?vid=5bee1775-528f-49e6-9c3e-19f7744c053e"},"vehicle_type_id":"4","last_reported":1746860946,"current_range_meters":16000,"station_id":"ce4bho12rcd13ifvqh1g","pricing_plan_id":"cebpf4jnsgd1na2vs0mg"},{"bike_id":"8b922ca6-4c4c-4cce-b120-dfd10f864eda","system_id":"levelo_inurba_marseille","lat":43.29612,"lon":5.38096,"is_reserved":false,"is_disabled":true,"rental_uris":{"android":"levelo://app?vid=8b922ca6-4c4c-4cce-b120-dfd10f864eda","ios":"levelo://app?vid=8b922ca6-4c4c-4cce-b120-dfd10f864eda"},"vehicle_type_id":"4","last_reported":1746860946,"current_range_meters":16000,"station_id":"ce4bgl12rcd13ifvqbo0","pricing_plan_id":"cebpf4jnsgd1na2vs0mg"},{"bike_id":"545e5687-b7df-4883-81be-75a8925d5f91","system_id":"levelo_inurba_marseille","lat":43.337444,"lon":5.374475,"is_reserved":false,"is_disabled":true,"rental_uris":{"android":"levelo://app?vid=545e5687-b7df-4883-81be-75a8925d5f91","ios":"levelo://app?vid=545e5687-b7df-4883-81be-75a8925d5f91"},"vehicle_type_id":"4","last_reported":1746860946,"current_range_meters":16000,"station_id":"","pricing_plan_id":"cebpf4jnsgd1na2vs0mg"},{"bike_id":"94cd8564-a06e-4cc5-88d9-996fbf8639fe","system_id":"levelo_inurba_marseille","lat":43.21799,"lon":5.34597,"is_reserved":false,"is_disabled":true,"rental_uris":{"android":"levelo://app?vid=94cd8564-a06e-4cc5-88d9-996fbf8639fe","ios":"levelo://app?vid=94cd8564-a06e-4cc5-88d9-996fbf8639fe"},"vehicle_type_id":"4","last_reported":1746860946,"current_range_meters":16400,"station_id":"","pricing_plan_id":"cebpf4jnsgd1na2vs0mg"},{"bike_id":"459c4fac-690f-4f69-a07d-156041e2e21d","system_id":"levelo_inurba_marseille","lat":43.30947,"lon":5.3903,"is_reserved":false,"is_disabled":false,"rental_uris":{"android":"levelo://app?vid=459c4fac-690f-4f69-a07d-156041e2e21d","ios":"levelo://app?vid=459c4fac-690f-4f69-a07d-156041e2e21d"},"vehicle_type_id":"4","last_reported":1746860946,"current_range_meters":16400,"station_id":"ce4bgup2rcd13ifvqco0","pricing_plan_id":"cebpf4jnsgd1na2vs0mg"},{"bike_id":"cec7d146-8d87-4b77-a28a-f53c44af1641","system_id":"levelo_inurba_marseille","lat":43.24385,"lon":5.3706,"is_reserved":false,"is_disabled":false,"rental_uris":{"android":"levelo://app?vid=cec7d146-8d87-4b77-a28a-f53c44af1641","ios":"levelo://app?vid=cec7d146-8d87-4b77-a28a-f53c44af1641"},"vehicle_type_id":"4","last_reported":1746860946,"current_range_meters":16000,"station_id":"ce4bhhh2rcd13ifvqfk0","pricing_plan_id":"cebpf4jnsgd1na2vs0mg"},{"bike_id":"b742c9ed-8050-442a-b686-817d52f716f2","system_id":"levelo_inurba_marseille","lat":43.25715,"lon":5.41098,"is_reserved":false,"is_disabled":false,"rental_uris":{"android":"levelo://app?vid=b742c9ed-8050-442a-b686-817d52f716f2","ios":"levelo://app?vid=b742c9ed-8050-442a-b686-817d52f716f2"},"vehicle_type_id":"4","last_reported":1746860946,"current_range_meters":16400,"station_id":"ce4bhkp2rcd13ifvqgd0","pricing_plan_id":"cebpf4jnsgd1na2vs0mg"},{"bike_id":"66d39f5f-1aac-423b-9ea7-bf9c1b0e5079","system_id":"levelo_inurba_marseille","lat":43.27501,"lon":5.41122,"is_reserved":false,"is_disabled":false,"rental_uris":{"android":"levelo://app?vid=66d39f5f-1aac-423b-9ea7-bf9c1b0e5079","ios":"levelo://app?vid=66d39f5f-1aac-423b-9ea7-bf9c1b0e5079"},"vehicle_type_id":"4","last_reported":1746860946,"current_range_meters":16400,"station_id":"","pricing_plan_id":"cebpf4jnsgd1na2vs0mg"},{"bike_id":"714280ab-ccaa-4c03-a374-315fef93cd48","system_id":"levelo_inurba_marseille","lat":43.2318,"lon":5.3999,"is_reserved":false,"is_disabled":false,"rental_uris":{"android":"levelo://app?vid=714280ab-ccaa-4c03-a374-315fef93cd48","ios":"levelo://app?vid=714280ab-ccaa-4c03-a374-315fef93cd48"},"vehicle_type_id":"4","last_reported":1746860946,"current_range_meters":16800,"station_id":"ce4bhn12rcd13ifvqgqg","pricing_plan_id":"cebpf4jnsgd1na2vs0mg"},{"bike_id":"32b96bd4-7617-4aa8-a6cf-1b9e247a6ce6","system_id":"levelo_inurba_marseille","lat":43.310739,"lon":5.424382,"is_reserved":false,"is_disabled":false,"rental_uris":{"android":"levelo://app?vid=32b96bd4-7617-4aa8-a6cf-1b9e247a6ce6","ios":"levelo://app?vid=32b96bd4-7617-4aa8-a6cf-1b9e247a6ce6"},"vehicle_type_id":"4","last_reported":1746860946,"current_range_meters":16800,"station_id":"ce4bhp92rcd13ifvqhag","pricing_plan_id":"cebpf4jnsgd1na2vs0mg"},{"bike_id":"25bd9db4-b151-496c-ba5d-8dcff47fadbf","system_id":"levelo_inurba_marseille","lat":43.319763,"lon":5.370865,"is_reserved":false,"is_disabled":false,"rental_uris":{"android":"levelo://app?vid=25bd9db4-b151-496c-ba5d-8dcff47fadbf","ios":"levelo://app?vid=25bd9db4-b151-496c-ba5d-8dcff47fadbf"},"vehicle_type_id":"4","last_reported":1746860946,"current_range_meters":16800,"station_id":"","pricing_plan_id":"cebpf4jnsgd1na2vs0mg"},{"bike_id":"796ef36e-55a7-4cb9-844d-596a7e2f3fa6","system_id":"levelo_inurba_marseille","lat":43.2838,"lon":5.364728,"is_reserved":false,"is_disabled":false,"rental_uris":{"android":"levelo://app?vid=796ef36e-55a7-4cb9-844d-596a7e2f3fa6","ios":"levelo://app?vid=796ef36e-55a7-4cb9-844d-596a7e2f3fa6"},"vehicle_type_id":"4","last_reported":1746860946,"current_range_meters":16800,"station_id":"","pricing_plan_id":"cebpf4jnsgd1na2vs0mg"},{"bike_id":"8af4b88d-091f-4883-a950-3e14de86d879","system_id":"levelo_inurba_marseille","lat":43.316949,"lon":5.404623,"is_reserved":false,"is_disabled":false,"rental_uris":{"android":"levelo://app?vid=8af4b88d-091f-4883-a950-3e14de86d879","ios":"levelo://app?vid=8af4b88d-091f-4883-a950-3e14de86d879"},"vehicle_type_id":"4","last_reported":1746860946,"current_range_meters":16800,"station_id":"ce4bh012rcd13ifvqd00","pricing_plan_id":"cebpf4jnsgd1na2vs0mg"},{"bike_id":"611984cb-882a-46b7-8fab-e6350303c611","system_id":"levelo_inurba_marseille","lat":43.24166,"lon":5.36376,"is_reserved":false,"is_disabled":false,"rental_uris":{"android":"levelo://app?vid=611984cb-882a-46b7-8fab-e6350303c611","ios":"levelo://app?vid=611984cb-882a-46b7-8fab-e6350303c611"},"vehicle_type_id":"4","last_reported":1746860946,"current_range_meters":17200,"station_id":"cpo36qri1sfpv3e86is0","pricing_plan_id":"cebpf4jnsgd1na2vs0mg"},{"bike_id":"b31243a4-b8c1-4a29-afbc-1393d51cc60d","system_id":"levelo_inurba_marseille","lat":43.24385,"lon":5.37062,"is_reserved":false,"is_disabled":false,"rental_uris":{"android":"levelo://app?vid=b31243a4-b8c1-4a29-afbc-1393d51cc60d","ios":"levelo://app?vid=b31243a4-b8c1-4a29-afbc-1393d51cc60d"},"vehicle_type_id":"4","last_reported":1746860946,"current_range_meters":16800,"station_id":"ce4bhhh2rcd13ifvqfk0","pricing_plan_id":"cebpf4jnsgd1na2vs0mg"},{"bike_id":"6add2d36-61c6-46c1-a56e-696306c1bd19","system_id":"levelo_inurba_marseille","lat":43.233697,"lon":5.360637,"is_reserved":false,"is_disabled":false,"rental_uris":{"android":"levelo://app?vid=6add2d36-61c6-46c1-a56e-696306c1bd19","ios":"levelo://app?vid=6add2d36-61c6-46c1-a56e-696306c1bd19"},"vehicle_type_id":"4","last_reported":1746860946,"current_range_meters":17200,"station_id":"","pricing_plan_id":"cebpf4jnsgd1na2vs0mg"},{"bike_id":"a1121b36-b5cd-4dda-96ef-13a3dfaa55e1","system_id":"levelo_inurba_marseille","lat":43.301401,"lon":5.387791,"is_reserved":false,"is_disabled":false,"rental_uris":{"android":"levelo://app?vid=a1121b36-b5cd-4dda-96ef-13a3dfaa55e1","ios":"levelo://app?vid=a1121b36-b5cd-4dda-96ef-13a3dfaa55e1"},"vehicle_type_id":"4","last_reported":1746860946,"current_range_meters":17600,"station_id":"","pricing_plan_id":"cebpf4jnsgd1na2vs0mg"},{"bike_id":"50f5e02d-7e3d-4bd6-8a5e-360e84f51370","system_id":"levelo_inurba_marseille","lat":43.25188,"lon":5.40323,"is_reserved":false,"is_disabled":false,"rental_uris":{"android":"levelo://app?vid=50f5e02d-7e3d-4bd6-8a5e-360e84f51370","ios":"levelo://app?vid=50f5e02d-7e3d-4bd6-8a5e-360e84f51370"},"vehicle_type_id":"4","last_reported":1746860946,"current_range_meters":17600,"station_id":"","pricing_plan_id":"cebpf4jnsgd1na2vs0mg"},{"bike_id":"f34a79fb-9a2a-4d46-9bae-b3621d640434","system_id":"levelo_inurba_marseille","lat":43.31072,"lon":5.4242,"is_reserved":false,"is_disabled":true,"rental_uris":{"android":"levelo://app?vid=f34a79fb-9a2a-4d46-9bae-b3621d640434","ios":"levelo://app?vid=f34a79fb-9a2a-4d46-9bae-b3621d640434"},"vehicle_type_id":"4","last_reported":1746860946,"current_range_meters":17600,"station_id":"ce4bhp92rcd13ifvqhag","pricing_plan_id":"cebpf4jnsgd1na2vs0mg"},{"bike_id":"e5f9e08b-c7e4-484f-8cb5-f829be2d4c56","system_id":"levelo_inurba_marseille","lat":43.29745,"lon":5.3837,"is_reserved":false,"is_disabled":false,"rental_uris":{"android":"levelo://app?vid=e5f9e08b-c7e4-484f-8cb5-f829be2d4c56","ios":"levelo://app?vid=e5f9e08b-c7e4-484f-8cb5-f829be2d4c56"},"vehicle_type_id":"4","last_reported":1746860946,"current_range_meters":17600,"station_id":"","pricing_plan_id":"cebpf4jnsgd1na2vs0mg"},{"bike_id":"cbace10f-e7cd-4138-a932-111e7b295b77","system_id":"levelo_inurba_marseille","lat":43.30147,"lon":5.38081,"is_reserved":false,"is_disabled":false,"rental_uris":{"android":"levelo://app?vid=cbace10f-e7cd-4138-a932-111e7b295b77","ios":"levelo://app?vid=cbace10f-e7cd-4138-a932-111e7b295b77"},"vehicle_type_id":"4","last_reported":1746860946,"current_range_meters":17600,"station_id":"ce4bgjp2rcd13ifvqbh0","pricing_plan_id":"cebpf4jnsgd1na2vs0mg"},{"bike_id":"11bac9a6-0e04-4c68-9615-f13539342864","system_id":"levelo_inurba_marseille","lat":43.211905,"lon":5.35086,"is_reserved":false,"is_disabled":false,"rental_uris":{"android":"levelo://app?vid=11bac9a6-0e04-4c68-9615-f13539342864","ios":"levelo://app?vid=11bac9a6-0e04-4c68-9615-f13539342864"},"vehicle_type_id":"4","last_reported":1746860946,"current_range_meters":18000,"station_id":"st_cvj6sg6p6f1abm77japg","pricing_plan_id":"cebpf4jnsgd1na2vs0mg"},{"bike_id":"ccde6e37-d501-4b81-96c4-6d98d63e7bc3","system_id":"levelo_inurba_marseille","lat":43.30147,"lon":5.38078,"is_reserved":false,"is_disabled":false,"rental_uris":{"android":"levelo://app?vid=ccde6e37-d501-4b81-96c4-6d98d63e7bc3","ios":"levelo://app?vid=ccde6e37-d501-4b81-96c4-6d98d63e7bc3"},"vehicle_type_id":"4","last_reported":1746860946,"current_range_meters":18000,"station_id":"ce4bgjp2rcd13ifvqbh0","pricing_plan_id":"cebpf4jnsgd1na2vs0mg"},{"bike_id":"0fb6b147-e9a8-4345-a220-93d47a47a517","system_id":"levelo_inurba_marseille","lat":43.229368,"lon":5.353998,"is_reserved":false,"is_disabled":false,"rental_uris":{"android":"levelo://app?vid=0fb6b147-e9a8-4345-a220-93d47a47a517","ios":"levelo://app?vid=0fb6b147-e9a8-4345-a220-93d47a47a517"},"vehicle_type_id":"4","last_reported":1746860946,"current_range_meters":18000,"station_id":"cpo3532slgdg3j2ikp40","pricing_plan_id":"cebpf4jnsgd1na2vs0mg"},{"bike_id":"7b0b7ba7-66fa-4536-8d2a-ed7181614079","system_id":"levelo_inurba_marseille","lat":43.303758,"lon":5.42495,"is_reserved":false,"is_disabled":false,"rental_uris":{"android":"levelo://app?vid=7b0b7ba7-66fa-4536-8d2a-ed7181614079","ios":"levelo://app?vid=7b0b7ba7-66fa-4536-8d2a-ed7181614079"},"vehicle_type_id":"4","last_reported":1746860946,"current_range_meters":18000,"station_id":"ce4bhoh2rcd13ifvqh6g","pricing_plan_id":"cebpf4jnsgd1na2vs0mg"},{"bike_id":"f44042ec-2f55-46a8-ac37-47677a64d341","system_id":"levelo_inurba_marseille","lat":43.30022,"lon":5.38467,"is_reserved":false,"is_disabled":false,"rental_uris":{"android":"levelo://app?vid=f44042ec-2f55-46a8-ac37-47677a64d341","ios":"levelo://app?vid=f44042ec-2f55-46a8-ac37-47677a64d341"},"vehicle_type_id":"4","last_reported":1746860946,"current_range_meters":18800,"station_id":"","pricing_plan_id":"cebpf4jnsgd1na2vs0mg"},{"bike_id":"81230072-1366-4a6c-a593-e76d887facbc","system_id":"levelo_inurba_marseille","lat":43.22928,"lon":5.35375,"is_reserved":false,"is_disabled":false,"rental_uris":{"android":"levelo://app?vid=81230072-1366-4a6c-a593-e76d887facbc","ios":"levelo://app?vid=81230072-1366-4a6c-a593-e76d887facbc"},"vehicle_type_id":"4","last_reported":1746860946,"current_range_meters":18800,"station_id":"cpo3532slgdg3j2ikp40","pricing_plan_id":"cebpf4jnsgd1na2vs0mg"},{"bike_id":"eeae9a2f-bc9a-4394-bca2-cff4e58e46b3","system_id":"levelo_inurba_marseille","lat":43.29604,"lon":5.38088,"is_reserved":false,"is_disabled":true,"rental_uris":{"android":"levelo://app?vid=eeae9a2f-bc9a-4394-bca2-cff4e58e46b3","ios":"levelo://app?vid=eeae9a2f-bc9a-4394-bca2-cff4e58e46b3"},"vehicle_type_id":"4","last_reported":1746860946,"current_range_meters":18800,"station_id":"ce4bgl12rcd13ifvqbo0","pricing_plan_id":"cebpf4jnsgd1na2vs0mg"},{"bike_id":"bb1c07e6-4866-4bad-a06f-306ce6882d9f","system_id":"levelo_inurba_marseille","lat":43.307873,"lon":5.376497,"is_reserved":false,"is_disabled":false,"rental_uris":{"android":"levelo://app?vid=bb1c07e6-4866-4bad-a06f-306ce6882d9f","ios":"levelo://app?vid=bb1c07e6-4866-4bad-a06f-306ce6882d9f"},"vehicle_type_id":"4","last_reported":1746860946,"current_range_meters":19200,"station_id":"ce4bgv92rcd13ifvqcq0","pricing_plan_id":"cebpf4jnsgd1na2vs0mg"},{"bike_id":"82a9d037-2afd-4dc3-af75-de469a031f70","system_id":"levelo_inurba_marseille","lat":43.24384,"lon":5.37066,"is_reserved":false,"is_disabled":false,"rental_uris":{"android":"levelo://app?vid=82a9d037-2afd-4dc3-af75-de469a031f70","ios":"levelo://app?vid=82a9d037-2afd-4dc3-af75-de469a031f70"},"vehicle_type_id":"4","last_reported":1746860946,"current_range_meters":19200,"station_id":"ce4bhhh2rcd13ifvqfk0","pricing_plan_id":"cebpf4jnsgd1na2vs0mg"},{"bike_id":"f0c1a107-9442-4216-902f-1e51cc714f9f","system_id":"levelo_inurba_marseille","lat":43.25123,"lon":5.40325,"is_reserved":false,"is_disabled":false,"rental_uris":{"android":"levelo://app?vid=f0c1a107-9442-4216-902f-1e51cc714f9f","ios":"levelo://app?vid=f0c1a107-9442-4216-902f-1e51cc714f9f"},"vehicle_type_id":"4","last_reported":1746860946,"current_range_meters":20000,"station_id":"ce4bhlh2rcd13ifvqgig","pricing_plan_id":"cebpf4jnsgd1na2vs0mg"},{"bike_id":"5d3c2dcf-f5b4-447b-a1c0-575a964ec8c5","system_id":"levelo_inurba_marseille","lat":43.23156,"lon":5.43703,"is_reserved":false,"is_disabled":false,"rental_uris":{"android":"levelo://app?vid=5d3c2dcf-f5b4-447b-a1c0-575a964ec8c5","ios":"levelo://app?vid=5d3c2dcf-f5b4-447b-a1c0-575a964ec8c5"},"vehicle_type_id":"4","last_reported":1746860946,"current_range_meters":20000,"station_id":"ce4bhmp2rcd13ifvqgog","pricing_plan_id":"cebpf4jnsgd1na2vs0mg"},{"bike_id":"fdc83f31-3c68-47e3-81c2-8e2befc46029","system_id":"levelo_inurba_marseille","lat":43.28273,"lon":5.35069,"is_reserved":false,"is_disabled":false,"rental_uris":{"android":"levelo://app?vid=fdc83f31-3c68-47e3-81c2-8e2befc46029","ios":"levelo://app?vid=fdc83f31-3c68-47e3-81c2-8e2befc46029"},"vehicle_type_id":"4","last_reported":1746860946,"current_range_meters":20400,"station_id":"ce4bhbp2rcd13ifvqerg","pricing_plan_id":"cebpf4jnsgd1na2vs0mg"},{"bike_id":"24ef580c-edb6-4f11-9d94-100ebb23751f","system_id":"levelo_inurba_marseille","lat":43.27948,"lon":5.41044,"is_reserved":false,"is_disabled":false,"rental_uris":{"android":"levelo://app?vid=24ef580c-edb6-4f11-9d94-100ebb23751f","ios":"levelo://app?vid=24ef580c-edb6-4f11-9d94-100ebb23751f"},"vehicle_type_id":"4","last_reported":1746860946,"current_range_meters":20400,"station_id":"ce4bhnp2rcd13ifvqh0g","pricing_plan_id":"cebpf4jnsgd1na2vs0mg"},{"bike_id":"f52c819d-ca4b-4640-b458-b877db1bf990","system_id":"levelo_inurba_marseille","lat":43.29882,"lon":5.40956,"is_reserved":false,"is_disabled":false,"rental_uris":{"android":"levelo://app?vid=f52c819d-ca4b-4640-b458-b877db1bf990","ios":"levelo://app?vid=f52c819d-ca4b-4640-b458-b877db1bf990"},"vehicle_type_id":"4","last_reported":1746860946,"current_range_meters":20800,"station_id":"","pricing_plan_id":"cebpf4jnsgd1na2vs0mg"},{"bike_id":"a1fd51ca-b321-49a1-823c-2b1617c9714f","system_id":"levelo_inurba_marseille","lat":43.26222,"lon":5.40456,"is_reserved":false,"is_disabled":false,"rental_uris":{"android":"levelo://app?vid=a1fd51ca-b321-49a1-823c-2b1617c9714f","ios":"levelo://app?vid=a1fd51ca-b321-49a1-823c-2b1617c9714f"},"vehicle_type_id":"4","last_reported":1746860946,"current_range_meters":20800,"station_id":"ce4bhmh2rcd13ifvqgmg","pricing_plan_id":"cebpf4jnsgd1na2vs0mg"},{"bike_id":"73ded412-1ade-4c78-acbe-a9afd038932d","system_id":"levelo_inurba_marseille","lat":43.241671,"lon":5.363955,"is_reserved":false,"is_disabled":false,"rental_uris":{"android":"levelo://app?vid=73ded412-1ade-4c78-acbe-a9afd038932d","ios":"levelo://app?vid=73ded412-1ade-4c78-acbe-a9afd038932d"},"vehicle_type_id":"4","last_reported":1746860946,"current_range_meters":20800,"station_id":"cpo36qri1sfpv3e86is0","pricing_plan_id":"cebpf4jnsgd1na2vs0mg"},{"bike_id":"8739a945-c04c-4fe3-9291-0e5954d52ff6","system_id":"levelo_inurba_marseille","lat":43.32263,"lon":5.38305,"is_reserved":false,"is_disabled":false,"rental_uris":{"android":"levelo://app?vid=8739a945-c04c-4fe3-9291-0e5954d52ff6","ios":"levelo://app?vid=8739a945-c04c-4fe3-9291-0e5954d52ff6"},"vehicle_type_id":"4","last_reported":1746860946,"current_range_meters":20800,"station_id":"ce4bhr12rcd13ifvqhqg","pricing_plan_id":"cebpf4jnsgd1na2vs0mg"},{"bike_id":"e1b5311f-cf22-4cc5-b4f8-5ad6b6de273b","system_id":"levelo_inurba_marseille","lat":43.32092,"lon":5.3676,"is_reserved":false,"is_disabled":false,"rental_uris":{"android":"levelo://app?vid=e1b5311f-cf22-4cc5-b4f8-5ad6b6de273b","ios":"levelo://app?vid=e1b5311f-cf22-4cc5-b4f8-5ad6b6de273b"},"vehicle_type_id":"4","last_reported":1746860946,"current_range_meters":20800,"station_id":"ce4bhrh2rcd13ifvqhug","pricing_plan_id":"cebpf4jnsgd1na2vs0mg"},{"bike_id":"acc9e613-f3ab-462c-94c6-a13f35416d65","system_id":"levelo_inurba_marseille","lat":43.28727,"lon":5.36068,"is_reserved":false,"is_disabled":false,"rental_uris":{"android":"levelo://app?vid=acc9e613-f3ab-462c-94c6-a13f35416d65","ios":"levelo://app?vid=acc9e613-f3ab-462c-94c6-a13f35416d65"},"vehicle_type_id":"4","last_reported":1746860946,"current_range_meters":21600,"station_id":"cki0cbj6b192h4jlfktg","pricing_plan_id":"cebpf4jnsgd1na2vs0mg"},{"bike_id":"9e2034f7-dd3c-4393-8655-af4ee8d48531","system_id":"levelo_inurba_marseille","lat":43.29522,"lon":5.37492,"is_reserved":false,"is_disabled":false,"rental_uris":{"android":"levelo://app?vid=9e2034f7-dd3c-4393-8655-af4ee8d48531","ios":"levelo://app?vid=9e2034f7-dd3c-4393-8655-af4ee8d48531"},"vehicle_type_id":"4","last_reported":1746860946,"current_range_meters":21600,"station_id":"ce4bgkp2rcd13ifvqbmg","pricing_plan_id":"cebpf4jnsgd1na2vs0mg"},{"bike_id":"7822a744-c870-4733-a37d-ab615121b09c","system_id":"levelo_inurba_marseille","lat":43.21192,"lon":5.35079,"is_reserved":false,"is_disabled":false,"rental_uris":{"android":"levelo://app?vid=7822a744-c870-4733-a37d-ab615121b09c","ios":"levelo://app?vid=7822a744-c870-4733-a37d-ab615121b09c"},"vehicle_type_id":"4","last_reported":1746860946,"current_range_meters":21600,"station_id":"st_cvj6sg6p6f1abm77japg","pricing_plan_id":"cebpf4jnsgd1na2vs0mg"},{"bike_id":"068c3fbb-cb91-47d6-8154-7e3f9e171a38","system_id":"levelo_inurba_marseille","lat":43.27315,"lon":5.39069,"is_reserved":false,"is_disabled":false,"rental_uris":{"android":"levelo://app?vid=068c3fbb-cb91-47d6-8154-7e3f9e171a38","ios":"levelo://app?vid=068c3fbb-cb91-47d6-8154-7e3f9e171a38"},"vehicle_type_id":"4","last_reported":1746860946,"current_range_meters":20800,"station_id":"ce4bhgp2rcd13ifvqfe0","pricing_plan_id":"cebpf4jnsgd1na2vs0mg"},{"bike_id":"b7d8a19c-54ae-4a72-be7f-81d6df62a87b","system_id":"levelo_inurba_marseille","lat":43.24387,"lon":5.37068,"is_reserved":false,"is_disabled":false,"rental_uris":{"android":"levelo://app?vid=b7d8a19c-54ae-4a72-be7f-81d6df62a87b","ios":"levelo://app?vid=b7d8a19c-54ae-4a72-be7f-81d6df62a87b"},"vehicle_type_id":"4","last_reported":1746860946,"current_range_meters":21600,"station_id":"ce4bhhh2rcd13ifvqfk0","pricing_plan_id":"cebpf4jnsgd1na2vs0mg"},{"bike_id":"192f546b-0f69-44a6-adcd-940430f531f9","system_id":"levelo_inurba_marseille","lat":43.32278,"lon":5.38273,"is_reserved":false,"is_disabled":false,"rental_uris":{"android":"levelo://app?vid=192f546b-0f69-44a6-adcd-940430f531f9","ios":"levelo://app?vid=192f546b-0f69-44a6-adcd-940430f531f9"},"vehicle_type_id":"4","last_reported":1746860946,"current_range_meters":20800,"station_id":"ce4bhr12rcd13ifvqhqg","pricing_plan_id":"cebpf4jnsgd1na2vs0mg"},{"bike_id":"8f486e03-b334-41cb-bc13-aba70b2a5bb8","system_id":"levelo_inurba_marseille","lat":43.31883,"lon":5.40736,"is_reserved":false,"is_disabled":false,"rental_uris":{"android":"levelo://app?vid=8f486e03-b334-41cb-bc13-aba70b2a5bb8","ios":"levelo://app?vid=8f486e03-b334-41cb-bc13-aba70b2a5bb8"},"vehicle_type_id":"4","last_reported":1746860946,"current_range_meters":21600,"station_id":"ce4bhq12rcd13ifvqhig","pricing_plan_id":"cebpf4jnsgd1na2vs0mg"},{"bike_id":"48ed43fb-4ad0-4001-acee-f6ea4523cfc5","system_id":"levelo_inurba_marseille","lat":43.28619,"lon":5.47687,"is_reserved":false,"is_disabled":false,"rental_uris":{"android":"levelo://app?vid=48ed43fb-4ad0-4001-acee-f6ea4523cfc5","ios":"levelo://app?vid=48ed43fb-4ad0-4001-acee-f6ea4523cfc5"},"vehicle_type_id":"4","last_reported":1746860946,"current_range_meters":22000,"station_id":"","pricing_plan_id":"cebpf4jnsgd1na2vs0mg"},{"bike_id":"1bb0aa07-d575-432d-8f8b-5b1462f21c09","system_id":"levelo_inurba_marseille","lat":43.21183,"lon":5.35078,"is_reserved":false,"is_disabled":false,"rental_uris":{"android":"levelo://app?vid=1bb0aa07-d575-432d-8f8b-5b1462f21c09","ios":"levelo://app?vid=1bb0aa07-d575-432d-8f8b-5b1462f21c09"},"vehicle_type_id":"4","last_reported":1746860946,"current_range_meters":22000,"station_id":"st_cvj6sg6p6f1abm77japg","pricing_plan_id":"cebpf4jnsgd1na2vs0mg"},{"bike_id":"e28ffa90-553e-4cee-9342-287202d2d30b","system_id":"levelo_inurba_marseille","lat":43.21195,"lon":5.35078,"is_reserved":false,"is_disabled":false,"rental_uris":{"android":"levelo://app?vid=e28ffa90-553e-4cee-9342-287202d2d30b","ios":"levelo://app?vid=e28ffa90-553e-4cee-9342-287202d2d30b"},"vehicle_type_id":"4","last_reported":1746860946,"current_range_meters":22000,"station_id":"st_cvj6sg6p6f1abm77japg","pricing_plan_id":"cebpf4jnsgd1na2vs0mg"},{"bike_id":"c11f40f8-d4e2-4484-ad32-dee96c4d6e16","system_id":"levelo_inurba_marseille","lat":43.30369,"lon":5.42471,"is_reserved":false,"is_disabled":false,"rental_uris":{"android":"levelo://app?vid=c11f40f8-d4e2-4484-ad32-dee96c4d6e16","ios":"levelo://app?vid=c11f40f8-d4e2-4484-ad32-dee96c4d6e16"},"vehicle_type_id":"4","last_reported":1746860946,"current_range_meters":22400,"station_id":"ce4bhoh2rcd13ifvqh6g","pricing_plan_id":"cebpf4jnsgd1na2vs0mg"},{"bike_id":"612e447e-8642-4d08-9eed-865a2c20ffe1","system_id":"levelo_inurba_marseille","lat":43.257076,"lon":5.411158,"is_reserved":false,"is_disabled":false,"rental_uris":{"android":"levelo://app?vid=612e447e-8642-4d08-9eed-865a2c20ffe1","ios":"levelo://app?vid=612e447e-8642-4d08-9eed-865a2c20ffe1"},"vehicle_type_id":"4","last_reported":1746860946,"current_range_meters":22400,"station_id":"ce4bhkp2rcd13ifvqgd0","pricing_plan_id":"cebpf4jnsgd1na2vs0mg"},{"bike_id":"e0455d18-2803-4267-ad75-873503d2c977","system_id":"levelo_inurba_marseille","lat":43.27819,"lon":5.37451,"is_reserved":false,"is_disabled":false,"rental_uris":{"android":"levelo://app?vid=e0455d18-2803-4267-ad75-873503d2c977","ios":"levelo://app?vid=e0455d18-2803-4267-ad75-873503d2c977"},"vehicle_type_id":"4","last_reported":1746860946,"current_range_meters":22800,"station_id":"","pricing_plan_id":"cebpf4jnsgd1na2vs0mg"},{"bike_id":"830ca2f3-14a2-40d4-b14d-f14634d8ac66","system_id":"levelo_inurba_marseille","lat":43.31733,"lon":5.43698,"is_reserved":false,"is_disabled":true,"rental_uris":{"android":"levelo://app?vid=830ca2f3-14a2-40d4-b14d-f14634d8ac66","ios":"levelo://app?vid=830ca2f3-14a2-40d4-b14d-f14634d8ac66"},"vehicle_type_id":"4","last_reported":1746860946,"current_range_meters":22800,"station_id":"ce4bhp92rcd13ifvqhcg","pricing_plan_id":"cebpf4jnsgd1na2vs0mg"},{"bike_id":"c3e0e7e2-fe2d-4d68-9bff-449dec0d06cb","system_id":"levelo_inurba_marseille","lat":43.26777,"lon":5.39415,"is_reserved":false,"is_disabled":false,"rental_uris":{"android":"levelo://app?vid=c3e0e7e2-fe2d-4d68-9bff-449dec0d06cb","ios":"levelo://app?vid=c3e0e7e2-fe2d-4d68-9bff-449dec0d06cb"},"vehicle_type_id":"4","last_reported":1746860946,"current_range_meters":22800,"station_id":"ce4bhh12rcd13ifvqfg0","pricing_plan_id":"cebpf4jnsgd1na2vs0mg"},{"bike_id":"764091e0-80ad-4ecb-9c44-2d22e833efb4","system_id":"levelo_inurba_marseille","lat":43.25002,"lon":5.38923,"is_reserved":false,"is_disabled":false,"rental_uris":{"android":"levelo://app?vid=764091e0-80ad-4ecb-9c44-2d22e833efb4","ios":"levelo://app?vid=764091e0-80ad-4ecb-9c44-2d22e833efb4"},"vehicle_type_id":"4","last_reported":1746860946,"current_range_meters":22800,"station_id":"ce4bhgp2rcd13ifvqfd0","pricing_plan_id":"cebpf4jnsgd1na2vs0mg"},{"bike_id":"e26005ab-6c21-4c09-9eea-86ba07a41d85","system_id":"levelo_inurba_marseille","lat":43.24673,"lon":5.38146,"is_reserved":false,"is_disabled":true,"rental_uris":{"android":"levelo://app?vid=e26005ab-6c21-4c09-9eea-86ba07a41d85","ios":"levelo://app?vid=e26005ab-6c21-4c09-9eea-86ba07a41d85"},"vehicle_type_id":"4","last_reported":1746860946,"current_range_meters":22800,"station_id":"ce4bhih2rcd13ifvqfr0","pricing_plan_id":"cebpf4jnsgd1na2vs0mg"},{"bike_id":"ce808109-3a33-42b9-94bd-9d2185c0cbf5","system_id":"levelo_inurba_marseille","lat":43.284174,"lon":5.375168,"is_reserved":false,"is_disabled":false,"rental_uris":{"android":"levelo://app?vid=ce808109-3a33-42b9-94bd-9d2185c0cbf5","ios":"levelo://app?vid=ce808109-3a33-42b9-94bd-9d2185c0cbf5"},"vehicle_type_id":"4","last_reported":1746860946,"current_range_meters":23200,"station_id":"ce4bh412rcd13ifvqds0","pricing_plan_id":"cebpf4jnsgd1na2vs0mg"},{"bike_id":"7e943ec4-57c9-43ff-8a40-d11914616430","system_id":"levelo_inurba_marseille","lat":43.29973,"lon":5.3717,"is_reserved":false,"is_disabled":false,"rental_uris":{"android":"levelo://app?vid=7e943ec4-57c9-43ff-8a40-d11914616430","ios":"levelo://app?vid=7e943ec4-57c9-43ff-8a40-d11914616430"},"vehicle_type_id":"4","last_reported":1746860946,"current_range_meters":22800,"station_id":"ce4bgr92rcd13ifvqc7g","pricing_plan_id":"cebpf4jnsgd1na2vs0mg"},{"bike_id":"628c9361-3d68-4678-b48b-1aeec419f7df","system_id":"levelo_inurba_marseille","lat":43.31358,"lon":5.38504,"is_reserved":false,"is_disabled":false,"rental_uris":{"android":"levelo://app?vid=628c9361-3d68-4678-b48b-1aeec419f7df","ios":"levelo://app?vid=628c9361-3d68-4678-b48b-1aeec419f7df"},"vehicle_type_id":"4","last_reported":1746860946,"current_range_meters":23200,"station_id":"ce4bgt92rcd13ifvqcf0","pricing_plan_id":"cebpf4jnsgd1na2vs0mg"},{"bike_id":"7fc85542-413b-47cb-90f3-fc9a0d501d7e","system_id":"levelo_inurba_marseille","lat":43.24669,"lon":5.38163,"is_reserved":false,"is_disabled":false,"rental_uris":{"android":"levelo://app?vid=7fc85542-413b-47cb-90f3-fc9a0d501d7e","ios":"levelo://app?vid=7fc85542-413b-47cb-90f3-fc9a0d501d7e"},"vehicle_type_id":"4","last_reported":1746860946,"current_range_meters":23200,"station_id":"ce4bhih2rcd13ifvqfr0","pricing_plan_id":"cebpf4jnsgd1na2vs0mg"},{"bike_id":"4847d81f-d50e-4609-8983-6082c307ddc0","system_id":"levelo_inurba_marseille","lat":43.3175,"lon":5.43694,"is_reserved":false,"is_disabled":false,"rental_uris":{"android":"levelo://app?vid=4847d81f-d50e-4609-8983-6082c307ddc0","ios":"levelo://app?vid=4847d81f-d50e-4609-8983-6082c307ddc0"},"vehicle_type_id":"4","last_reported":1746860946,"current_range_meters":23200,"station_id":"ce4bhp92rcd13ifvqhcg","pricing_plan_id":"cebpf4jnsgd1na2vs0mg"},{"bike_id":"0d0ec6fc-6a7f-4a83-8d5c-f94ba6389d47","system_id":"levelo_inurba_marseille","lat":43.30468,"lon":5.37902,"is_reserved":false,"is_disabled":false,"rental_uris":{"android":"levelo://app?vid=0d0ec6fc-6a7f-4a83-8d5c-f94ba6389d47","ios":"levelo://app?vid=0d0ec6fc-6a7f-4a83-8d5c-f94ba6389d47"},"vehicle_type_id":"4","last_reported":1746860946,"current_range_meters":23200,"station_id":"ce4bgup2rcd13ifvqcn0","pricing_plan_id":"cebpf4jnsgd1na2vs0mg"},{"bike_id":"9ebc020a-b028-432b-848a-ac06c91be639","system_id":"levelo_inurba_marseille","lat":43.295177,"lon":5.394058,"is_reserved":false,"is_disabled":false,"rental_uris":{"android":"levelo://app?vid=9ebc020a-b028-432b-848a-ac06c91be639","ios":"levelo://app?vid=9ebc020a-b028-432b-848a-ac06c91be639"},"vehicle_type_id":"4","last_reported":1746860946,"current_range_meters":22800,"station_id":"","pricing_plan_id":"cebpf4jnsgd1na2vs0mg"},{"bike_id":"fafc54e7-80d4-4bec-ab8a-c43ff95a1fa5","system_id":"levelo_inurba_marseille","lat":43.31552,"lon":5.37204,"is_reserved":false,"is_disabled":false,"rental_uris":{"android":"levelo://app?vid=fafc54e7-80d4-4bec-ab8a-c43ff95a1fa5","ios":"levelo://app?vid=fafc54e7-80d4-4bec-ab8a-c43ff95a1fa5"},"vehicle_type_id":"4","last_reported":1746860946,"current_range_meters":23200,"station_id":"ce4bgt12rcd13ifvqcd0","pricing_plan_id":"cebpf4jnsgd1na2vs0mg"},{"bike_id":"c952863a-4d62-4585-94df-55bf94f4bcf3","system_id":"levelo_inurba_marseille","lat":43.24387,"lon":5.37062,"is_reserved":false,"is_disabled":false,"rental_uris":{"android":"levelo://app?vid=c952863a-4d62-4585-94df-55bf94f4bcf3","ios":"levelo://app?vid=c952863a-4d62-4585-94df-55bf94f4bcf3"},"vehicle_type_id":"4","last_reported":1746860946,"current_range_meters":23200,"station_id":"ce4bhhh2rcd13ifvqfk0","pricing_plan_id":"cebpf4jnsgd1na2vs0mg"},{"bike_id":"02bac07a-9186-49eb-a666-f70d86d99978","system_id":"levelo_inurba_marseille","lat":43.21223,"lon":5.35053,"is_reserved":false,"is_disabled":false,"rental_uris":{"android":"levelo://app?vid=02bac07a-9186-49eb-a666-f70d86d99978","ios":"levelo://app?vid=02bac07a-9186-49eb-a666-f70d86d99978"},"vehicle_type_id":"4","last_reported":1746860946,"current_range_meters":23200,"station_id":"","pricing_plan_id":"cebpf4jnsgd1na2vs0mg"},{"bike_id":"da1c5ec3-22aa-41b9-908c-4d323560536d","system_id":"levelo_inurba_marseille","lat":43.310533,"lon":5.383551,"is_reserved":false,"is_disabled":false,"rental_uris":{"android":"levelo://app?vid=da1c5ec3-22aa-41b9-908c-4d323560536d","ios":"levelo://app?vid=da1c5ec3-22aa-41b9-908c-4d323560536d"},"vehicle_type_id":"4","last_reported":1746860946,"current_range_meters":23200,"station_id":"ce4bgv92rcd13ifvqcr0","pricing_plan_id":"cebpf4jnsgd1na2vs0mg"},{"bike_id":"66114e87-3102-4b6e-b735-c1b9abde13c5","system_id":"levelo_inurba_marseille","lat":43.309318,"lon":5.401508,"is_reserved":false,"is_disabled":false,"rental_uris":{"android":"levelo://app?vid=66114e87-3102-4b6e-b735-c1b9abde13c5","ios":"levelo://app?vid=66114e87-3102-4b6e-b735-c1b9abde13c5"},"vehicle_type_id":"4","last_reported":1746860946,"current_range_meters":23200,"station_id":"ce4bgvp2rcd13ifvqct0","pricing_plan_id":"cebpf4jnsgd1na2vs0mg"},{"bike_id":"5ee6c3e3-5c35-4884-80c1-71cd7d0fa4fd","system_id":"levelo_inurba_marseille","lat":43.33049,"lon":5.40672,"is_reserved":false,"is_disabled":false,"rental_uris":{"android":"levelo://app?vid=5ee6c3e3-5c35-4884-80c1-71cd7d0fa4fd","ios":"levelo://app?vid=5ee6c3e3-5c35-4884-80c1-71cd7d0fa4fd"},"vehicle_type_id":"4","last_reported":1746860946,"current_range_meters":23200,"station_id":"","pricing_plan_id":"cebpf4jnsgd1na2vs0mg"},{"bike_id":"1eee94a5-e10d-4f9f-8262-b514c57aa896","system_id":"levelo_inurba_marseille","lat":43.28061,"lon":5.39643,"is_reserved":false,"is_disabled":false,"rental_uris":{"android":"levelo://app?vid=1eee94a5-e10d-4f9f-8262-b514c57aa896","ios":"levelo://app?vid=1eee94a5-e10d-4f9f-8262-b514c57aa896"},"vehicle_type_id":"4","last_reported":1746860946,"current_range_meters":24000,"station_id":"ce4bho12rcd13ifvqh2g","pricing_plan_id":"cebpf4jnsgd1na2vs0mg"},{"bike_id":"351ef218-24e5-4670-825d-fc1ac5cd3c19","system_id":"levelo_inurba_marseille","lat":43.314852,"lon":5.372896,"is_reserved":false,"is_disabled":false,"rental_uris":{"android":"levelo://app?vid=351ef218-24e5-4670-825d-fc1ac5cd3c19","ios":"levelo://app?vid=351ef218-24e5-4670-825d-fc1ac5cd3c19"},"vehicle_type_id":"4","last_reported":1746860946,"current_range_meters":24000,"station_id":"ce4bgt12rcd13ifvqcd0","pricing_plan_id":"cebpf4jnsgd1na2vs0mg"},{"bike_id":"08ffed77-17d5-4eb1-b19a-93b43b78dbe9","system_id":"levelo_inurba_marseille","lat":43.29193,"lon":5.35802,"is_reserved":false,"is_disabled":false,"rental_uris":{"android":"levelo://app?vid=08ffed77-17d5-4eb1-b19a-93b43b78dbe9","ios":"levelo://app?vid=08ffed77-17d5-4eb1-b19a-93b43b78dbe9"},"vehicle_type_id":"4","last_reported":1746860946,"current_range_meters":23200,"station_id":"ce4bhb12rcd13ifvqel0","pricing_plan_id":"cebpf4jnsgd1na2vs0mg"},{"bike_id":"30f161e5-1563-4277-b384-7c3a05224630","system_id":"levelo_inurba_marseille","lat":43.30773,"lon":5.37649,"is_reserved":false,"is_disabled":false,"rental_uris":{"android":"levelo://app?vid=30f161e5-1563-4277-b384-7c3a05224630","ios":"levelo://app?vid=30f161e5-1563-4277-b384-7c3a05224630"},"vehicle_type_id":"4","last_reported":1746860946,"current_range_meters":24000,"station_id":"ce4bgv92rcd13ifvqcq0","pricing_plan_id":"cebpf4jnsgd1na2vs0mg"},{"bike_id":"6b714480-f4e6-4b67-bb0d-0849078a64ab","system_id":"levelo_inurba_marseille","lat":43.24144,"lon":5.36407,"is_reserved":false,"is_disabled":false,"rental_uris":{"android":"levelo://app?vid=6b714480-f4e6-4b67-bb0d-0849078a64ab","ios":"levelo://app?vid=6b714480-f4e6-4b67-bb0d-0849078a64ab"},"vehicle_type_id":"4","last_reported":1746860946,"current_range_meters":23200,"station_id":"cpo36qri1sfpv3e86is0","pricing_plan_id":"cebpf4jnsgd1na2vs0mg"},{"bike_id":"64825704-f5d4-4e9b-b21e-9f17db46d501","system_id":"levelo_inurba_marseille","lat":43.28276,"lon":5.35066,"is_reserved":false,"is_disabled":false,"rental_uris":{"android":"levelo://app?vid=64825704-f5d4-4e9b-b21e-9f17db46d501","ios":"levelo://app?vid=64825704-f5d4-4e9b-b21e-9f17db46d501"},"vehicle_type_id":"4","last_reported":1746860946,"current_range_meters":24400,"station_id":"ce4bhbp2rcd13ifvqerg","pricing_plan_id":"cebpf4jnsgd1na2vs0mg"},{"bike_id":"76641dd9-c233-4b12-9f62-bc33d48bec5c","system_id":"levelo_inurba_marseille","lat":43.30796,"lon":5.37639,"is_reserved":false,"is_disabled":false,"rental_uris":{"android":"levelo://app?vid=76641dd9-c233-4b12-9f62-bc33d48bec5c","ios":"levelo://app?vid=76641dd9-c233-4b12-9f62-bc33d48bec5c"},"vehicle_type_id":"4","last_reported":1746860946,"current_range_meters":24400,"station_id":"ce4bgv92rcd13ifvqcq0","pricing_plan_id":"cebpf4jnsgd1na2vs0mg"},{"bike_id":"fc0fdb77-39cd-4f79-9912-e211899d9f13","system_id":"levelo_inurba_marseille","lat":43.23965,"lon":5.36631,"is_reserved":false,"is_disabled":false,"rental_uris":{"android":"levelo://app?vid=fc0fdb77-39cd-4f79-9912-e211899d9f13","ios":"levelo://app?vid=fc0fdb77-39cd-4f79-9912-e211899d9f13"},"vehicle_type_id":"4","last_reported":1746860946,"current_range_meters":24400,"station_id":"ce4bhi12rcd13ifvqfp0","pricing_plan_id":"cebpf4jnsgd1na2vs0mg"},{"bike_id":"648fb792-696b-48d4-8bf9-ef3e06c468d1","system_id":"levelo_inurba_marseille","lat":43.270667,"lon":5.422816,"is_reserved":false,"is_disabled":false,"rental_uris":{"android":"levelo://app?vid=648fb792-696b-48d4-8bf9-ef3e06c468d1","ios":"levelo://app?vid=648fb792-696b-48d4-8bf9-ef3e06c468d1"},"vehicle_type_id":"4","last_reported":1746860946,"current_range_meters":24400,"station_id":"ce4bhk92rcd13ifvqgb0","pricing_plan_id":"cebpf4jnsgd1na2vs0mg"},{"bike_id":"0813c0dc-da81-42eb-81e6-ca2b80bdae4b","system_id":"levelo_inurba_marseille","lat":43.25126,"lon":5.40293,"is_reserved":false,"is_disabled":false,"rental_uris":{"android":"levelo://app?vid=0813c0dc-da81-42eb-81e6-ca2b80bdae4b","ios":"levelo://app?vid=0813c0dc-da81-42eb-81e6-ca2b80bdae4b"},"vehicle_type_id":"4","last_reported":1746860946,"current_range_meters":24800,"station_id":"ce4bhlh2rcd13ifvqgig","pricing_plan_id":"cebpf4jnsgd1na2vs0mg"},{"bike_id":"dfc0af20-7a08-4167-843b-e9a0f9c0b51b","system_id":"levelo_inurba_marseille","lat":43.309293,"lon":5.401476,"is_reserved":false,"is_disabled":false,"rental_uris":{"android":"levelo://app?vid=dfc0af20-7a08-4167-843b-e9a0f9c0b51b","ios":"levelo://app?vid=dfc0af20-7a08-4167-843b-e9a0f9c0b51b"},"vehicle_type_id":"4","last_reported":1746860946,"current_range_meters":24800,"station_id":"ce4bgvp2rcd13ifvqct0","pricing_plan_id":"cebpf4jnsgd1na2vs0mg"},{"bike_id":"35ba52e9-c7ae-413b-8d83-e2df1c82d628","system_id":"levelo_inurba_marseille","lat":43.29299,"lon":5.37454,"is_reserved":false,"is_disabled":false,"rental_uris":{"android":"levelo://app?vid=35ba52e9-c7ae-413b-8d83-e2df1c82d628","ios":"levelo://app?vid=35ba52e9-c7ae-413b-8d83-e2df1c82d628"},"vehicle_type_id":"4","last_reported":1746860946,"current_range_meters":24400,"station_id":"ce4bgi12rcd13ifvqb70","pricing_plan_id":"cebpf4jnsgd1na2vs0mg"},{"bike_id":"f7b17b6c-c8fc-4cba-b0db-8cb329d922d1","system_id":"levelo_inurba_marseille","lat":43.245444,"lon":5.395259,"is_reserved":false,"is_disabled":false,"rental_uris":{"android":"levelo://app?vid=f7b17b6c-c8fc-4cba-b0db-8cb329d922d1","ios":"levelo://app?vid=f7b17b6c-c8fc-4cba-b0db-8cb329d922d1"},"vehicle_type_id":"4","last_reported":1746860946,"current_range_meters":24800,"station_id":"ce4bhlp2rcd13ifvqgjg","pricing_plan_id":"cebpf4jnsgd1na2vs0mg"},{"bike_id":"103ca153-8fd5-4fda-b3f8-42e094f0ccca","system_id":"levelo_inurba_marseille","lat":43.21194,"lon":5.35074,"is_reserved":false,"is_disabled":true,"rental_uris":{"android":"levelo://app?vid=103ca153-8fd5-4fda-b3f8-42e094f0ccca","ios":"levelo://app?vid=103ca153-8fd5-4fda-b3f8-42e094f0ccca"},"vehicle_type_id":"4","last_reported":1746860946,"current_range_meters":24800,"station_id":"st_cvj6sg6p6f1abm77japg","pricing_plan_id":"cebpf4jnsgd1na2vs0mg"},{"bike_id":"40b29dc7-38e1-4f66-85b2-7a146d1d8e20","system_id":"levelo_inurba_marseille","lat":43.306413,"lon":5.400726,"is_reserved":false,"is_disabled":false,"rental_uris":{"android":"levelo://app?vid=40b29dc7-38e1-4f66-85b2-7a146d1d8e20","ios":"levelo://app?vid=40b29dc7-38e1-4f66-85b2-7a146d1d8e20"},"vehicle_type_id":"4","last_reported":1746860946,"current_range_meters":24800,"station_id":"ce4bh112rcd13ifvqda0","pricing_plan_id":"cebpf4jnsgd1na2vs0mg"},{"bike_id":"df4bc757-407a-4fe5-9334-397b50cce95d","system_id":"levelo_inurba_marseille","lat":43.31987,"lon":5.38152,"is_reserved":false,"is_disabled":false,"rental_uris":{"android":"levelo://app?vid=df4bc757-407a-4fe5-9334-397b50cce95d","ios":"levelo://app?vid=df4bc757-407a-4fe5-9334-397b50cce95d"},"vehicle_type_id":"4","last_reported":1746860946,"current_range_meters":24800,"station_id":"ce4bhr12rcd13ifvqhpg","pricing_plan_id":"cebpf4jnsgd1na2vs0mg"},{"bike_id":"5c255a92-12e7-40dc-8e68-3872ef25e50b","system_id":"levelo_inurba_marseille","lat":43.27635,"lon":5.36113,"is_reserved":false,"is_disabled":false,"rental_uris":{"android":"levelo://app?vid=5c255a92-12e7-40dc-8e68-3872ef25e50b","ios":"levelo://app?vid=5c255a92-12e7-40dc-8e68-3872ef25e50b"},"vehicle_type_id":"4","last_reported":1746860946,"current_range_meters":24800,"station_id":"ce4bgj92rcd13ifvqbe0","pricing_plan_id":"cebpf4jnsgd1na2vs0mg"},{"bike_id":"313b14bb-532c-4ca8-a7a8-8588d2d40b5b","system_id":"levelo_inurba_marseille","lat":43.256397,"lon":5.385856,"is_reserved":false,"is_disabled":false,"rental_uris":{"android":"levelo://app?vid=313b14bb-532c-4ca8-a7a8-8588d2d40b5b","ios":"levelo://app?vid=313b14bb-532c-4ca8-a7a8-8588d2d40b5b"},"vehicle_type_id":"4","last_reported":1746860946,"current_range_meters":25200,"station_id":"","pricing_plan_id":"cebpf4jnsgd1na2vs0mg"},{"bike_id":"a8d95478-bbd7-4008-a3b6-8463c0d21171","system_id":"levelo_inurba_marseille","lat":43.303774,"lon":5.4249,"is_reserved":false,"is_disabled":false,"rental_uris":{"android":"levelo://app?vid=a8d95478-bbd7-4008-a3b6-8463c0d21171","ios":"levelo://app?vid=a8d95478-bbd7-4008-a3b6-8463c0d21171"},"vehicle_type_id":"4","last_reported":1746860946,"current_range_meters":25200,"station_id":"ce4bhoh2rcd13ifvqh6g","pricing_plan_id":"cebpf4jnsgd1na2vs0mg"},{"bike_id":"a45ee51e-44d8-438b-9671-f759bb105218","system_id":"levelo_inurba_marseille","lat":43.28216,"lon":5.36826,"is_reserved":false,"is_disabled":false,"rental_uris":{"android":"levelo://app?vid=a45ee51e-44d8-438b-9671-f759bb105218","ios":"levelo://app?vid=a45ee51e-44d8-438b-9671-f759bb105218"},"vehicle_type_id":"4","last_reported":1746860946,"current_range_meters":25200,"station_id":"","pricing_plan_id":"cebpf4jnsgd1na2vs0mg"},{"bike_id":"8fda7305-5141-4f84-92bd-428484e39574","system_id":"levelo_inurba_marseille","lat":43.243983,"lon":5.37058,"is_reserved":false,"is_disabled":false,"rental_uris":{"android":"levelo://app?vid=8fda7305-5141-4f84-92bd-428484e39574","ios":"levelo://app?vid=8fda7305-5141-4f84-92bd-428484e39574"},"vehicle_type_id":"4","last_reported":1746860946,"current_range_meters":25200,"station_id":"ce4bhhh2rcd13ifvqfk0","pricing_plan_id":"cebpf4jnsgd1na2vs0mg"},{"bike_id":"e8d87c3a-8e63-4494-879e-6d10d56c9c58","system_id":"levelo_inurba_marseille","lat":43.306468,"lon":5.400771,"is_reserved":false,"is_disabled":false,"rental_uris":{"android":"levelo://app?vid=e8d87c3a-8e63-4494-879e-6d10d56c9c58","ios":"levelo://app?vid=e8d87c3a-8e63-4494-879e-6d10d56c9c58"},"vehicle_type_id":"4","last_reported":1746860946,"current_range_meters":25600,"station_id":"ce4bh112rcd13ifvqda0","pricing_plan_id":"cebpf4jnsgd1na2vs0mg"},{"bike_id":"ed269f08-24c0-40fa-95b0-29c6d4701fde","system_id":"levelo_inurba_marseille","lat":43.2708,"lon":5.42272,"is_reserved":false,"is_disabled":false,"rental_uris":{"android":"levelo://app?vid=ed269f08-24c0-40fa-95b0-29c6d4701fde","ios":"levelo://app?vid=ed269f08-24c0-40fa-95b0-29c6d4701fde"},"vehicle_type_id":"4","last_reported":1746860946,"current_range_meters":25600,"station_id":"ce4bhk92rcd13ifvqgb0","pricing_plan_id":"cebpf4jnsgd1na2vs0mg"},{"bike_id":"8a5e136b-da8d-41d0-b337-a63cf7ff62e3","system_id":"levelo_inurba_marseille","lat":43.2706,"lon":5.40264,"is_reserved":false,"is_disabled":false,"rental_uris":{"android":"levelo://app?vid=8a5e136b-da8d-41d0-b337-a63cf7ff62e3","ios":"levelo://app?vid=8a5e136b-da8d-41d0-b337-a63cf7ff62e3"},"vehicle_type_id":"4","last_reported":1746860946,"current_range_meters":25600,"station_id":"ce4bhk92rcd13ifvqgc0","pricing_plan_id":"cebpf4jnsgd1na2vs0mg"},{"bike_id":"25d5fb39-c033-45fa-86d9-8d5306ba3326","system_id":"levelo_inurba_marseille","lat":43.31259,"lon":5.4019,"is_reserved":false,"is_disabled":false,"rental_uris":{"android":"levelo://app?vid=25d5fb39-c033-45fa-86d9-8d5306ba3326","ios":"levelo://app?vid=25d5fb39-c033-45fa-86d9-8d5306ba3326"},"vehicle_type_id":"4","last_reported":1746860946,"current_range_meters":26000,"station_id":"ce4bh092rcd13ifvqd30","pricing_plan_id":"cebpf4jnsgd1na2vs0mg"},{"bike_id":"ab90e9a9-2105-46d9-ad7c-f0b4aa67724b","system_id":"levelo_inurba_marseille","lat":43.23604,"lon":5.40335,"is_reserved":false,"is_disabled":false,"rental_uris":{"android":"levelo://app?vid=ab90e9a9-2105-46d9-ad7c-f0b4aa67724b","ios":"levelo://app?vid=ab90e9a9-2105-46d9-ad7c-f0b4aa67724b"},"vehicle_type_id":"4","last_reported":1746860946,"current_range_meters":26000,"station_id":"","pricing_plan_id":"cebpf4jnsgd1na2vs0mg"},{"bike_id":"259da1a6-5dc3-4e2e-9dd8-09fbbd8e4f6c","system_id":"levelo_inurba_marseille","lat":43.28728,"lon":5.36077,"is_reserved":false,"is_disabled":false,"rental_uris":{"android":"levelo://app?vid=259da1a6-5dc3-4e2e-9dd8-09fbbd8e4f6c","ios":"levelo://app?vid=259da1a6-5dc3-4e2e-9dd8-09fbbd8e4f6c"},"vehicle_type_id":"4","last_reported":1746860946,"current_range_meters":26000,"station_id":"cki0cbj6b192h4jlfktg","pricing_plan_id":"cebpf4jnsgd1na2vs0mg"},{"bike_id":"68ad7e24-2dce-4d73-b037-12418412c991","system_id":"levelo_inurba_marseille","lat":43.310707,"lon":5.383469,"is_reserved":false,"is_disabled":false,"rental_uris":{"android":"levelo://app?vid=68ad7e24-2dce-4d73-b037-12418412c991","ios":"levelo://app?vid=68ad7e24-2dce-4d73-b037-12418412c991"},"vehicle_type_id":"4","last_reported":1746860946,"current_range_meters":26800,"station_id":"ce4bgv92rcd13ifvqcr0","pricing_plan_id":"cebpf4jnsgd1na2vs0mg"},{"bike_id":"6a91840e-f1f6-4255-ad62-4074a6831037","system_id":"levelo_inurba_marseille","lat":43.25602,"lon":5.40526,"is_reserved":false,"is_disabled":true,"rental_uris":{"android":"levelo://app?vid=6a91840e-f1f6-4255-ad62-4074a6831037","ios":"levelo://app?vid=6a91840e-f1f6-4255-ad62-4074a6831037"},"vehicle_type_id":"4","last_reported":1746860946,"current_range_meters":26800,"station_id":"","pricing_plan_id":"cebpf4jnsgd1na2vs0mg"},{"bike_id":"a3b61f46-4db3-4fcb-a0eb-07d50216ac7e","system_id":"levelo_inurba_marseille","lat":43.23965,"lon":5.36631,"is_reserved":false,"is_disabled":false,"rental_uris":{"android":"levelo://app?vid=a3b61f46-4db3-4fcb-a0eb-07d50216ac7e","ios":"levelo://app?vid=a3b61f46-4db3-4fcb-a0eb-07d50216ac7e"},"vehicle_type_id":"4","last_reported":1746860946,"current_range_meters":26000,"station_id":"ce4bhi12rcd13ifvqfp0","pricing_plan_id":"cebpf4jnsgd1na2vs0mg"},{"bike_id":"ff8ceca6-3dc7-42be-b344-87c1bff339e9","system_id":"levelo_inurba_marseille","lat":43.30938,"lon":5.40137,"is_reserved":false,"is_disabled":false,"rental_uris":{"android":"levelo://app?vid=ff8ceca6-3dc7-42be-b344-87c1bff339e9","ios":"levelo://app?vid=ff8ceca6-3dc7-42be-b344-87c1bff339e9"},"vehicle_type_id":"4","last_reported":1746860946,"current_range_meters":26800,"station_id":"ce4bgvp2rcd13ifvqct0","pricing_plan_id":"cebpf4jnsgd1na2vs0mg"},{"bike_id":"5013b049-5182-4d34-b6d0-b1000aea3248","system_id":"levelo_inurba_marseille","lat":43.30931,"lon":5.40145,"is_reserved":false,"is_disabled":false,"rental_uris":{"android":"levelo://app?vid=5013b049-5182-4d34-b6d0-b1000aea3248","ios":"levelo://app?vid=5013b049-5182-4d34-b6d0-b1000aea3248"},"vehicle_type_id":"4","last_reported":1746860946,"current_range_meters":26800,"station_id":"ce4bgvp2rcd13ifvqct0","pricing_plan_id":"cebpf4jnsgd1na2vs0mg"},{"bike_id":"c2c543dc-0c90-4c40-a845-301b22538b43","system_id":"levelo_inurba_marseille","lat":43.2512,"lon":5.40319,"is_reserved":false,"is_disabled":false,"rental_uris":{"android":"levelo://app?vid=c2c543dc-0c90-4c40-a845-301b22538b43","ios":"levelo://app?vid=c2c543dc-0c90-4c40-a845-301b22538b43"},"vehicle_type_id":"4","last_reported":1746860946,"current_range_meters":26800,"station_id":"ce4bhlh2rcd13ifvqgig","pricing_plan_id":"cebpf4jnsgd1na2vs0mg"},{"bike_id":"9ee94416-a859-4e35-a4ba-39831e5ddf82","system_id":"levelo_inurba_marseille","lat":43.30544,"lon":5.38445,"is_reserved":false,"is_disabled":true,"rental_uris":{"android":"levelo://app?vid=9ee94416-a859-4e35-a4ba-39831e5ddf82","ios":"levelo://app?vid=9ee94416-a859-4e35-a4ba-39831e5ddf82"},"vehicle_type_id":"4","last_reported":1746860946,"current_range_meters":26800,"station_id":"ce4bgg92rcd13ifvqb30","pricing_plan_id":"cebpf4jnsgd1na2vs0mg"},{"bike_id":"99a4b54a-e727-4a7a-9376-47e230828836","system_id":"levelo_inurba_marseille","lat":43.313622,"lon":5.385044,"is_reserved":false,"is_disabled":false,"rental_uris":{"android":"levelo://app?vid=99a4b54a-e727-4a7a-9376-47e230828836","ios":"levelo://app?vid=99a4b54a-e727-4a7a-9376-47e230828836"},"vehicle_type_id":"4","last_reported":1746860946,"current_range_meters":27200,"station_id":"ce4bgt92rcd13ifvqcf0","pricing_plan_id":"cebpf4jnsgd1na2vs0mg"},{"bike_id":"e37894a5-6840-4cba-ac27-dd35520bb230","system_id":"levelo_inurba_marseille","lat":43.3107,"lon":5.38355,"is_reserved":false,"is_disabled":false,"rental_uris":{"android":"levelo://app?vid=e37894a5-6840-4cba-ac27-dd35520bb230","ios":"levelo://app?vid=e37894a5-6840-4cba-ac27-dd35520bb230"},"vehicle_type_id":"4","last_reported":1746860946,"current_range_meters":27200,"station_id":"ce4bgv92rcd13ifvqcr0","pricing_plan_id":"cebpf4jnsgd1na2vs0mg"},{"bike_id":"44c66f1b-95f5-476c-be0d-9482ec862b16","system_id":"levelo_inurba_marseille","lat":43.29782,"lon":5.39373,"is_reserved":false,"is_disabled":false,"rental_uris":{"android":"levelo://app?vid=44c66f1b-95f5-476c-be0d-9482ec862b16","ios":"levelo://app?vid=44c66f1b-95f5-476c-be0d-9482ec862b16"},"vehicle_type_id":"4","last_reported":1746860946,"current_range_meters":27200,"station_id":"chh1huq6cuj3fo74tm60","pricing_plan_id":"cebpf4jnsgd1na2vs0mg"},{"bike_id":"871fd0f8-61c8-4140-956f-9baf8b56cf2f","system_id":"levelo_inurba_marseille","lat":43.29527,"lon":5.37497,"is_reserved":false,"is_disabled":false,"rental_uris":{"android":"levelo://app?vid=871fd0f8-61c8-4140-956f-9baf8b56cf2f","ios":"levelo://app?vid=871fd0f8-61c8-4140-956f-9baf8b56cf2f"},"vehicle_type_id":"4","last_reported":1746860946,"current_range_meters":27200,"station_id":"ce4bgkp2rcd13ifvqbmg","pricing_plan_id":"cebpf4jnsgd1na2vs0mg"},{"bike_id":"f90bbcc1-5cc4-4a91-8956-4d0dfca0f1ff","system_id":"levelo_inurba_marseille","lat":43.28375,"lon":5.38642,"is_reserved":false,"is_disabled":false,"rental_uris":{"android":"levelo://app?vid=f90bbcc1-5cc4-4a91-8956-4d0dfca0f1ff","ios":"levelo://app?vid=f90bbcc1-5cc4-4a91-8956-4d0dfca0f1ff"},"vehicle_type_id":"4","last_reported":1746860946,"current_range_meters":27200,"station_id":"ce4bh492rcd13ifvqdvg","pricing_plan_id":"cebpf4jnsgd1na2vs0mg"},{"bike_id":"498b64a5-e341-422d-b7d0-c22c98c12ed0","system_id":"levelo_inurba_marseille","lat":43.251089,"lon":5.403314,"is_reserved":false,"is_disabled":false,"rental_uris":{"android":"levelo://app?vid=498b64a5-e341-422d-b7d0-c22c98c12ed0","ios":"levelo://app?vid=498b64a5-e341-422d-b7d0-c22c98c12ed0"},"vehicle_type_id":"4","last_reported":1746860946,"current_range_meters":27200,"station_id":"ce4bhlh2rcd13ifvqgig","pricing_plan_id":"cebpf4jnsgd1na2vs0mg"},{"bike_id":"8a994c6c-5c1d-43e8-83c2-e1e206db17fe","system_id":"levelo_inurba_marseille","lat":43.32063,"lon":5.41545,"is_reserved":false,"is_disabled":false,"rental_uris":{"android":"levelo://app?vid=8a994c6c-5c1d-43e8-83c2-e1e206db17fe","ios":"levelo://app?vid=8a994c6c-5c1d-43e8-83c2-e1e206db17fe"},"vehicle_type_id":"4","last_reported":1746860946,"current_range_meters":27200,"station_id":"ce4bhq92rcd13ifvqhkg","pricing_plan_id":"cebpf4jnsgd1na2vs0mg"},{"bike_id":"2cc4d42e-5cf9-434f-b48f-4483d04e77d3","system_id":"levelo_inurba_marseille","lat":43.2957,"lon":5.37528,"is_reserved":false,"is_disabled":false,"rental_uris":{"android":"levelo://app?vid=2cc4d42e-5cf9-434f-b48f-4483d04e77d3","ios":"levelo://app?vid=2cc4d42e-5cf9-434f-b48f-4483d04e77d3"},"vehicle_type_id":"4","last_reported":1746860946,"current_range_meters":27200,"station_id":"ce4bgh92rcd13ifvqb50","pricing_plan_id":"cebpf4jnsgd1na2vs0mg"},{"bike_id":"eee0772a-a787-464c-b9ae-2f26380f81ea","system_id":"levelo_inurba_marseille","lat":43.23193,"lon":5.35555,"is_reserved":false,"is_disabled":false,"rental_uris":{"android":"levelo://app?vid=eee0772a-a787-464c-b9ae-2f26380f81ea","ios":"levelo://app?vid=eee0772a-a787-464c-b9ae-2f26380f81ea"},"vehicle_type_id":"4","last_reported":1746860946,"current_range_meters":27600,"station_id":"","pricing_plan_id":"cebpf4jnsgd1na2vs0mg"},{"bike_id":"c045782f-3f40-4387-a043-afeb51e6812c","system_id":"levelo_inurba_marseille","lat":43.2967,"lon":5.3734,"is_reserved":false,"is_disabled":false,"rental_uris":{"android":"levelo://app?vid=c045782f-3f40-4387-a043-afeb51e6812c","ios":"levelo://app?vid=c045782f-3f40-4387-a043-afeb51e6812c"},"vehicle_type_id":"4","last_reported":1746860946,"current_range_meters":27600,"station_id":"ce4bgk12rcd13ifvqbj0","pricing_plan_id":"cebpf4jnsgd1na2vs0mg"},{"bike_id":"de3525d5-e61b-454f-85f9-acba6aa1f9c3","system_id":"levelo_inurba_marseille","lat":43.309319,"lon":5.401436,"is_reserved":false,"is_disabled":false,"rental_uris":{"android":"levelo://app?vid=de3525d5-e61b-454f-85f9-acba6aa1f9c3","ios":"levelo://app?vid=de3525d5-e61b-454f-85f9-acba6aa1f9c3"},"vehicle_type_id":"4","last_reported":1746860946,"current_range_meters":27600,"station_id":"ce4bgvp2rcd13ifvqct0","pricing_plan_id":"cebpf4jnsgd1na2vs0mg"},{"bike_id":"7882874d-26fd-4ca1-bdd3-927516a28f50","system_id":"levelo_inurba_marseille","lat":43.28269,"lon":5.35095,"is_reserved":false,"is_disabled":false,"rental_uris":{"android":"levelo://app?vid=7882874d-26fd-4ca1-bdd3-927516a28f50","ios":"levelo://app?vid=7882874d-26fd-4ca1-bdd3-927516a28f50"},"vehicle_type_id":"4","last_reported":1746860946,"current_range_meters":27600,"station_id":"ce4bhbp2rcd13ifvqerg","pricing_plan_id":"cebpf4jnsgd1na2vs0mg"},{"bike_id":"25b2fadc-45a6-48d6-a6f3-991342f4287c","system_id":"levelo_inurba_marseille","lat":43.24188,"lon":5.36394,"is_reserved":false,"is_disabled":false,"rental_uris":{"android":"levelo://app?vid=25b2fadc-45a6-48d6-a6f3-991342f4287c","ios":"levelo://app?vid=25b2fadc-45a6-48d6-a6f3-991342f4287c"},"vehicle_type_id":"4","last_reported":1746860946,"current_range_meters":27600,"station_id":"cpo36qri1sfpv3e86is0","pricing_plan_id":"cebpf4jnsgd1na2vs0mg"},{"bike_id":"1a34e1e5-7198-41f9-a296-9d70a047744e","system_id":"levelo_inurba_marseille","lat":43.32278,"lon":5.38262,"is_reserved":false,"is_disabled":false,"rental_uris":{"android":"levelo://app?vid=1a34e1e5-7198-41f9-a296-9d70a047744e","ios":"levelo://app?vid=1a34e1e5-7198-41f9-a296-9d70a047744e"},"vehicle_type_id":"4","last_reported":1746860946,"current_range_meters":27600,"station_id":"ce4bhr12rcd13ifvqhqg","pricing_plan_id":"cebpf4jnsgd1na2vs0mg"},{"bike_id":"02769d03-bc00-41f1-a2f5-7e7556d9e2e6","system_id":"levelo_inurba_marseille","lat":43.26199,"lon":5.40477,"is_reserved":false,"is_disabled":false,"rental_uris":{"android":"levelo://app?vid=02769d03-bc00-41f1-a2f5-7e7556d9e2e6","ios":"levelo://app?vid=02769d03-bc00-41f1-a2f5-7e7556d9e2e6"},"vehicle_type_id":"4","last_reported":1746860946,"current_range_meters":27600,"station_id":"ce4bhmh2rcd13ifvqgmg","pricing_plan_id":"cebpf4jnsgd1na2vs0mg"},{"bike_id":"623fec64-2c56-427b-be06-24f332f3b209","system_id":"levelo_inurba_marseille","lat":43.291622,"lon":5.371509,"is_reserved":false,"is_disabled":true,"rental_uris":{"android":"levelo://app?vid=623fec64-2c56-427b-be06-24f332f3b209","ios":"levelo://app?vid=623fec64-2c56-427b-be06-24f332f3b209"},"vehicle_type_id":"4","last_reported":1746860946,"current_range_meters":27600,"station_id":"","pricing_plan_id":"cebpf4jnsgd1na2vs0mg"},{"bike_id":"03029308-fc83-4704-bb3d-c3a3bbd3b6ee","system_id":"levelo_inurba_marseille","lat":43.286,"lon":5.37059,"is_reserved":false,"is_disabled":false,"rental_uris":{"android":"levelo://app?vid=03029308-fc83-4704-bb3d-c3a3bbd3b6ee","ios":"levelo://app?vid=03029308-fc83-4704-bb3d-c3a3bbd3b6ee"},"vehicle_type_id":"4","last_reported":1746860946,"current_range_meters":27600,"station_id":"ce4bht12rcd13ifvqi60","pricing_plan_id":"cebpf4jnsgd1na2vs0mg"},{"bike_id":"d06c5086-a8ea-4946-a4b7-125cf57caa50","system_id":"levelo_inurba_marseille","lat":43.30941,"lon":5.40171,"is_reserved":false,"is_disabled":false,"rental_uris":{"android":"levelo://app?vid=d06c5086-a8ea-4946-a4b7-125cf57caa50","ios":"levelo://app?vid=d06c5086-a8ea-4946-a4b7-125cf57caa50"},"vehicle_type_id":"4","last_reported":1746860946,"current_range_meters":27600,"station_id":"ce4bgvp2rcd13ifvqct0","pricing_plan_id":"cebpf4jnsgd1na2vs0mg"},{"bike_id":"2dc01dfc-83a9-422c-8f9e-5061aef9e8c4","system_id":"levelo_inurba_marseille","lat":43.29197,"lon":5.35804,"is_reserved":false,"is_disabled":false,"rental_uris":{"android":"levelo://app?vid=2dc01dfc-83a9-422c-8f9e-5061aef9e8c4","ios":"levelo://app?vid=2dc01dfc-83a9-422c-8f9e-5061aef9e8c4"},"vehicle_type_id":"4","last_reported":1746860946,"current_range_meters":27600,"station_id":"ce4bhb12rcd13ifvqel0","pricing_plan_id":"cebpf4jnsgd1na2vs0mg"},{"bike_id":"c791530f-7eca-4123-ae98-b4f7b7d59c51","system_id":"levelo_inurba_marseille","lat":43.29851,"lon":5.36292,"is_reserved":false,"is_disabled":false,"rental_uris":{"android":"levelo://app?vid=c791530f-7eca-4123-ae98-b4f7b7d59c51","ios":"levelo://app?vid=c791530f-7eca-4123-ae98-b4f7b7d59c51"},"vehicle_type_id":"4","last_reported":1746860946,"current_range_meters":27600,"station_id":"ce4bgpp2rcd13ifvqc3g","pricing_plan_id":"cebpf4jnsgd1na2vs0mg"},{"bike_id":"d1f8b19b-8073-4362-9b76-31fd157203ea","system_id":"levelo_inurba_marseille","lat":43.23961,"lon":5.36639,"is_reserved":false,"is_disabled":false,"rental_uris":{"android":"levelo://app?vid=d1f8b19b-8073-4362-9b76-31fd157203ea","ios":"levelo://app?vid=d1f8b19b-8073-4362-9b76-31fd157203ea"},"vehicle_type_id":"4","last_reported":1746860946,"current_range_meters":28000,"station_id":"ce4bhi12rcd13ifvqfp0","pricing_plan_id":"cebpf4jnsgd1na2vs0mg"},{"bike_id":"00014e7c-56fa-474c-b085-529ca09dc3d1","system_id":"levelo_inurba_marseille","lat":43.24169,"lon":5.36394,"is_reserved":false,"is_disabled":false,"rental_uris":{"android":"levelo://app?vid=00014e7c-56fa-474c-b085-529ca09dc3d1","ios":"levelo://app?vid=00014e7c-56fa-474c-b085-529ca09dc3d1"},"vehicle_type_id":"4","last_reported":1746860946,"current_range_meters":28000,"station_id":"cpo36qri1sfpv3e86is0","pricing_plan_id":"cebpf4jnsgd1na2vs0mg"},{"bike_id":"88f2e176-c824-4481-9246-e62d7fd3b168","system_id":"levelo_inurba_marseille","lat":43.30116,"lon":5.3911,"is_reserved":false,"is_disabled":false,"rental_uris":{"android":"levelo://app?vid=88f2e176-c824-4481-9246-e62d7fd3b168","ios":"levelo://app?vid=88f2e176-c824-4481-9246-e62d7fd3b168"},"vehicle_type_id":"4","last_reported":1746860946,"current_range_meters":28000,"station_id":"ce4bh192rcd13ifvqdb0","pricing_plan_id":"cebpf4jnsgd1na2vs0mg"},{"bike_id":"aef45c4b-c401-4959-abe7-d37122e8183b","system_id":"levelo_inurba_marseille","lat":43.2592,"lon":5.40892,"is_reserved":false,"is_disabled":false,"rental_uris":{"android":"levelo://app?vid=aef45c4b-c401-4959-abe7-d37122e8183b","ios":"levelo://app?vid=aef45c4b-c401-4959-abe7-d37122e8183b"},"vehicle_type_id":"4","last_reported":1746860946,"current_range_meters":28000,"station_id":"ce4bhm92rcd13ifvqglg","pricing_plan_id":"cebpf4jnsgd1na2vs0mg"},{"bike_id":"3989815b-d006-4e74-a095-d8329d14283c","system_id":"levelo_inurba_marseille","lat":43.24179,"lon":5.39714,"is_reserved":false,"is_disabled":false,"rental_uris":{"android":"levelo://app?vid=3989815b-d006-4e74-a095-d8329d14283c","ios":"levelo://app?vid=3989815b-d006-4e74-a095-d8329d14283c"},"vehicle_type_id":"4","last_reported":1746860946,"current_range_meters":28400,"station_id":"ce4bhn12rcd13ifvqgpg","pricing_plan_id":"cebpf4jnsgd1na2vs0mg"},{"bike_id":"21e0c072-2d43-47ea-94c5-df3a60385f27","system_id":"levelo_inurba_marseille","lat":43.30816,"lon":5.38157,"is_reserved":false,"is_disabled":false,"rental_uris":{"android":"levelo://app?vid=21e0c072-2d43-47ea-94c5-df3a60385f27","ios":"levelo://app?vid=21e0c072-2d43-47ea-94c5-df3a60385f27"},"vehicle_type_id":"4","last_reported":1746860946,"current_range_meters":28400,"station_id":"ce4bgt12rcd13ifvqce0","pricing_plan_id":"cebpf4jnsgd1na2vs0mg"},{"bike_id":"ddd6d318-36a1-49f0-b5fa-5829b3cf626a","system_id":"levelo_inurba_marseille","lat":43.313506,"lon":5.384959,"is_reserved":false,"is_disabled":false,"rental_uris":{"android":"levelo://app?vid=ddd6d318-36a1-49f0-b5fa-5829b3cf626a","ios":"levelo://app?vid=ddd6d318-36a1-49f0-b5fa-5829b3cf626a"},"vehicle_type_id":"4","last_reported":1746860946,"current_range_meters":28400,"station_id":"ce4bgt92rcd13ifvqcf0","pricing_plan_id":"cebpf4jnsgd1na2vs0mg"},{"bike_id":"22743473-9420-4b9e-b81b-e18bbc6a7b92","system_id":"levelo_inurba_marseille","lat":43.24166,"lon":5.36398,"is_reserved":false,"is_disabled":false,"rental_uris":{"android":"levelo://app?vid=22743473-9420-4b9e-b81b-e18bbc6a7b92","ios":"levelo://app?vid=22743473-9420-4b9e-b81b-e18bbc6a7b92"},"vehicle_type_id":"4","last_reported":1746860946,"current_range_meters":28400,"station_id":"cpo36qri1sfpv3e86is0","pricing_plan_id":"cebpf4jnsgd1na2vs0mg"},{"bike_id":"e817003c-852b-4e51-89dd-533f1b02e7cf","system_id":"levelo_inurba_marseille","lat":43.29216,"lon":5.35823,"is_reserved":false,"is_disabled":false,"rental_uris":{"android":"levelo://app?vid=e817003c-852b-4e51-89dd-533f1b02e7cf","ios":"levelo://app?vid=e817003c-852b-4e51-89dd-533f1b02e7cf"},"vehicle_type_id":"4","last_reported":1746860946,"current_range_meters":28400,"station_id":"ce4bhb12rcd13ifvqel0","pricing_plan_id":"cebpf4jnsgd1na2vs0mg"},{"bike_id":"3c0f8b37-01b2-4211-a579-bba83663d25f","system_id":"levelo_inurba_marseille","lat":43.26966,"lon":5.38633,"is_reserved":false,"is_disabled":false,"rental_uris":{"android":"levelo://app?vid=3c0f8b37-01b2-4211-a579-bba83663d25f","ios":"levelo://app?vid=3c0f8b37-01b2-4211-a579-bba83663d25f"},"vehicle_type_id":"4","last_reported":1746860946,"current_range_meters":28400,"station_id":"ce4bhh92rcd13ifvqfh0","pricing_plan_id":"cebpf4jnsgd1na2vs0mg"},{"bike_id":"ed64e06b-1196-40d8-bf9d-1eff6cabf608","system_id":"levelo_inurba_marseille","lat":43.31706,"lon":5.4047,"is_reserved":false,"is_disabled":false,"rental_uris":{"android":"levelo://app?vid=ed64e06b-1196-40d8-bf9d-1eff6cabf608","ios":"levelo://app?vid=ed64e06b-1196-40d8-bf9d-1eff6cabf608"},"vehicle_type_id":"4","last_reported":1746860946,"current_range_meters":28400,"station_id":"ce4bh012rcd13ifvqd00","pricing_plan_id":"cebpf4jnsgd1na2vs0mg"},{"bike_id":"d9def4fd-684d-41a7-a185-a6f704a8402d","system_id":"levelo_inurba_marseille","lat":43.23204,"lon":5.35551,"is_reserved":false,"is_disabled":false,"rental_uris":{"android":"levelo://app?vid=d9def4fd-684d-41a7-a185-a6f704a8402d","ios":"levelo://app?vid=d9def4fd-684d-41a7-a185-a6f704a8402d"},"vehicle_type_id":"4","last_reported":1746860946,"current_range_meters":28400,"station_id":"ce4bhu92rcd13ifvqi70","pricing_plan_id":"cebpf4jnsgd1na2vs0mg"},{"bike_id":"6eb9d62e-594b-41dd-8490-571b0e4a41b3","system_id":"levelo_inurba_marseille","lat":43.311718,"lon":5.396082,"is_reserved":false,"is_disabled":false,"rental_uris":{"android":"levelo://app?vid=6eb9d62e-594b-41dd-8490-571b0e4a41b3","ios":"levelo://app?vid=6eb9d62e-594b-41dd-8490-571b0e4a41b3"},"vehicle_type_id":"4","last_reported":1746860946,"current_range_meters":28000,"station_id":"ce4bgvp2rcd13ifvqcu0","pricing_plan_id":"cebpf4jnsgd1na2vs0mg"},{"bike_id":"182ee2d6-b614-447d-b142-5ab06186a8be","system_id":"levelo_inurba_marseille","lat":43.27672,"lon":5.38898,"is_reserved":false,"is_disabled":false,"rental_uris":{"android":"levelo://app?vid=182ee2d6-b614-447d-b142-5ab06186a8be","ios":"levelo://app?vid=182ee2d6-b614-447d-b142-5ab06186a8be"},"vehicle_type_id":"4","last_reported":1746860946,"current_range_meters":28000,"station_id":"ce4bhi12rcd13ifvqfo0","pricing_plan_id":"cebpf4jnsgd1na2vs0mg"},{"bike_id":"0d43a784-3b89-4a2e-a3aa-305a6d06d0cc","system_id":"levelo_inurba_marseille","lat":43.302756,"lon":5.372856,"is_reserved":false,"is_disabled":false,"rental_uris":{"android":"levelo://app?vid=0d43a784-3b89-4a2e-a3aa-305a6d06d0cc","ios":"levelo://app?vid=0d43a784-3b89-4a2e-a3aa-305a6d06d0cc"},"vehicle_type_id":"4","last_reported":1746860946,"current_range_meters":28400,"station_id":"","pricing_plan_id":"cebpf4jnsgd1na2vs0mg"},{"bike_id":"48a86383-834a-483e-a673-a50d65427256","system_id":"levelo_inurba_marseille","lat":43.30731,"lon":5.42446,"is_reserved":false,"is_disabled":false,"rental_uris":{"android":"levelo://app?vid=48a86383-834a-483e-a673-a50d65427256","ios":"levelo://app?vid=48a86383-834a-483e-a673-a50d65427256"},"vehicle_type_id":"4","last_reported":1746860946,"current_range_meters":28400,"station_id":"st_cvj6ca6bvosntc0bfgr0","pricing_plan_id":"cebpf4jnsgd1na2vs0mg"},