{"last_updated":1729634920,"ttl":60,"version":"2.2","data":{"bikes":[{"bike_id":"11ccf416-c1d9-4262-8dd3-89177c85c473","system_id":"levelo_inurba_marseille","lat":43.30254,"lon":5.40066,"is_reserved":false,"is_disabled":false,"rental_uris":{"android":"levelo://app?vid=11ccf416-c1d9-4262-8dd3-89177c85c473","ios":"levelo://app?vid=11ccf416-c1d9-4262-8dd3-89177c85c473"},"vehicle_type_id":"4","last_reported":1729634920,"current_range_meters":36000,"station_id":"ce4bgvh2rcd13ifvqcs0","pricing_plan_id":"cebpf4jnsgd1na2vs0mg"},{"bike_id":"79329ba9-5b1a-4233-89ba-629a52267df1","system_id":"levelo_inurba_marseille","lat":43.27377,"lon":5.36255,"is_reserved":false,"is_disabled":false,"rental_uris":{"android":"levelo://app?vid=79329ba9-5b1a-4233-89ba-629a52267df1","ios":"levelo://app?vid=79329ba9-5b1a-4233-89ba-629a52267df1"},"vehicle_type_id":"4","last_reported":1729634920,"current_range_meters":30000,"station_id":"ce4bhbh2rcd13ifvqeo0","pricing_plan_id":"cebpf4jnsgd1na2vs0mg"},{"bike_id":"50f1ec05-4d59-4332-8aca-ecfd573a5bf5","system_id":"levelo_inurba_marseille","lat":43.27063,"lon":5.42272,"is_reserved":false,"is_disabled":false,"rental_uris":{"android":"levelo://app?vid=50f1ec05-4d59-4332-8aca-ecfd573a5bf5","ios":"levelo://app?vid=50f1ec05-4d59-4332-8aca-ecfd573a5bf5"},"vehicle_type_id":"4","last_reported":1729634920,"current_range_meters":39200,"station_id":"ce4bhk92rcd13ifvqgb0","pricing_plan_id":"cebpf4jnsgd1na2vs0mg"},{"bike_id":"d8f7888c-e2a4-40c5-b07f-cb32aefbc1bb","system_id":"levelo_inurba_marseille","lat":43.27375,"lon":5.36256,"is_reserved":false,"is_disabled":false,"rental_uris":{"android":"levelo://app?vid=d8f7888c-e2a4-40c5-b07f-cb32aefbc1bb","ios":"levelo://app?vid=d8f7888c-e2a4-40c5-b07f-cb32aefbc1bb"},"vehicle_type_id":"4","last_reported":1729634920,"current_range_meters":12400,"station_id":"ce4bhbh2rcd13ifvqeo0","pricing_plan_id":"cebpf4jnsgd1na2vs0mg"},{"bike_id":"b9fd2410-6db2-44ee-a0ef-6d36a233eea6","system_id":"levelo_inurba_marseille","lat":43.31215,"lon":5.36862,"is_reserved":false,"is_disabled":false,"rental_uris":{"android":"levelo://app?vid=b9fd2410-6db2-44ee-a0ef-6d36a233eea6","ios":"levelo://app?vid=b9fd2410-6db2-44ee-a0ef-6d36a233eea6"},"vehicle_type_id":"4","last_reported":1729634920,"current_range_meters":38000,"station_id":"ce4bgl92rcd13ifvqbq0","pricing_plan_id":"cebpf4jnsgd1na2vs0mg"},{"bike_id":"b149ce4e-51e1-44d1-a677-e09dc3311ba7","system_id":"levelo_inurba_marseille","lat":43.24386,"lon":5.37052,"is_reserved":false,"is_disabled":false,"rental_uris":{"android":"levelo://app?vid=b149ce4e-51e1-44d1-a677-e09dc3311ba7","ios":"levelo://app?vid=b149ce4e-51e1-44d1-a677-e09dc3311ba7"},"vehicle_type_id":"4","last_reported":1729634920,"current_range_meters":39200,"station_id":"ce4bhhh2rcd13ifvqfk0","pricing_plan_id":"cebpf4jnsgd1na2vs0mg"},{"bike_id":"b4cc9679-1889-4d52-9d59-6fc564d9e1c9","system_id":"levelo_inurba_marseille","lat":43.24382,"lon":5.37054,"is_reserved":false,"is_disabled":false,"rental_uris":{"android":"levelo://app?vid=b4cc9679-1889-4d52-9d59-6fc564d9e1c9","ios":"levelo://app?vid=b4cc9679-1889-4d52-9d59-6fc564d9e1c9"},"vehicle_type_id":"4","last_reported":1729634920,"current_range_meters":31200,"station_id":"ce4bhhh2rcd13ifvqfk0","pricing_plan_id":"cebpf4jnsgd1na2vs0mg"},{"bike_id":"29e33d02-f85a-4d17-be65-24241968e69c","system_id":"levelo_inurba_marseille","lat":43.23962,"lon":5.36629,"is_reserved":false,"is_disabled":false,"rental_uris":{"android":"levelo://app?vid=29e33d02-f85a-4d17-be65-24241968e69c","ios":"levelo://app?vid=29e33d02-f85a-4d17-be65-24241968e69c"},"vehicle_type_id":"4","last_reported":1729634920,"current_range_meters":38800,"station_id":"ce4bhi12rcd13ifvqfp0","pricing_plan_id":"cebpf4jnsgd1na2vs0mg"},{"bike_id":"53a20cad-98c4-47bb-8701-182952eb82a6","system_id":"levelo_inurba_marseille","lat":43.28419,"lon":5.34979,"is_reserved":false,"is_disabled":false,"rental_uris":{"android":"levelo://app?vid=53a20cad-98c4-47bb-8701-182952eb82a6","ios":"levelo://app?vid=53a20cad-98c4-47bb-8701-182952eb82a6"},"vehicle_type_id":"4","last_reported":1729634920,"current_range_meters":9600,"station_id":"ce4bhbh2rcd13ifvqepg","pricing_plan_id":"cebpf4jnsgd1na2vs0mg"},{"bike_id":"f959c94a-3644-4ed9-b7ed-65e914e837b3","system_id":"levelo_inurba_marseille","lat":43.31329,"lon":5.39699,"is_reserved":false,"is_disabled":false,"rental_uris":{"android":"levelo://app?vid=f959c94a-3644-4ed9-b7ed-65e914e837b3","ios":"levelo://app?vid=f959c94a-3644-4ed9-b7ed-65e914e837b3"},"vehicle_type_id":"4","last_reported":1729634920,"current_range_meters":39200,"station_id":"ce4bgvp2rcd13ifvqcu0","pricing_plan_id":"cebpf4jnsgd1na2vs0mg"},{"bike_id":"07ad74c8-33dd-400f-8d29-606d70e37998","system_id":"levelo_inurba_marseille","lat":43.29769,"lon":5.37096,"is_reserved":false,"is_disabled":false,"rental_uris":{"android":"levelo://app?vid=07ad74c8-33dd-400f-8d29-606d70e37998","ios":"levelo://app?vid=07ad74c8-33dd-400f-8d29-606d70e37998"},"vehicle_type_id":"4","last_reported":1729634920,"current_range_meters":38400,"station_id":"ce4bgop2rcd13ifvqc1g","pricing_plan_id":"cebpf4jnsgd1na2vs0mg"},{"bike_id":"6429c5ab-58df-44e3-81a8-3cef3c5f2436","system_id":"levelo_inurba_marseille","lat":43.317087,"lon":5.377372,"is_reserved":false,"is_disabled":false,"rental_uris":{"android":"levelo://app?vid=6429c5ab-58df-44e3-81a8-3cef3c5f2436","ios":"levelo://app?vid=6429c5ab-58df-44e3-81a8-3cef3c5f2436"},"vehicle_type_id":"4","last_reported":1729634920,"current_range_meters":38800,"station_id":"ce4bgth2rcd13ifvqch0","pricing_plan_id":"cebpf4jnsgd1na2vs0mg"},{"bike_id":"36457585-76d5-4b59-841a-76c5eee5d7f6","system_id":"levelo_inurba_marseille","lat":43.28082,"lon":5.39657,"is_reserved":false,"is_disabled":false,"rental_uris":{"android":"levelo://app?vid=36457585-76d5-4b59-841a-76c5eee5d7f6","ios":"levelo://app?vid=36457585-76d5-4b59-841a-76c5eee5d7f6"},"vehicle_type_id":"4","last_reported":1729634920,"current_range_meters":14400,"station_id":"ce4bho12rcd13ifvqh2g","pricing_plan_id":"cebpf4jnsgd1na2vs0mg"},{"bike_id":"50b4ba7b-9eea-4eae-b77d-fc743f7bac97","system_id":"levelo_inurba_marseille","lat":43.29029,"lon":5.38645,"is_reserved":false,"is_disabled":false,"rental_uris":{"android":"levelo://app?vid=50b4ba7b-9eea-4eae-b77d-fc743f7bac97","ios":"levelo://app?vid=50b4ba7b-9eea-4eae-b77d-fc743f7bac97"},"vehicle_type_id":"4","last_reported":1729634920,"current_range_meters":7200,"station_id":"ce4bh4p2rcd13ifvqe0g","pricing_plan_id":"cebpf4jnsgd1na2vs0mg"},{"bike_id":"02b1a1b0-58be-4c7a-9d6c-10343c353689","system_id":"levelo_inurba_marseille","lat":43.29433,"lon":5.39757,"is_reserved":false,"is_disabled":false,"rental_uris":{"android":"levelo://app?vid=02b1a1b0-58be-4c7a-9d6c-10343c353689","ios":"levelo://app?vid=02b1a1b0-58be-4c7a-9d6c-10343c353689"},"vehicle_type_id":"4","last_reported":1729634920,"current_range_meters":39200,"station_id":"ce4bh3h2rcd13ifvqdo0","pricing_plan_id":"cebpf4jnsgd1na2vs0mg"},{"bike_id":"bf3cdac8-1828-4c5b-88c1-7d178598dc6a","system_id":"levelo_inurba_marseille","lat":43.30031,"lon":5.37284,"is_reserved":false,"is_disabled":false,"rental_uris":{"android":"levelo://app?vid=bf3cdac8-1828-4c5b-88c1-7d178598dc6a","ios":"levelo://app?vid=bf3cdac8-1828-4c5b-88c1-7d178598dc6a"},"vehicle_type_id":"4","last_reported":1729634920,"current_range_meters":16400,"station_id":"","pricing_plan_id":"cebpf4jnsgd1na2vs0mg"},{"bike_id":"60b8bae4-0b0d-4e98-88fd-f5c5969866c8","system_id":"levelo_inurba_marseille","lat":43.28428,"lon":5.39187,"is_reserved":false,"is_disabled":false,"rental_uris":{"android":"levelo://app?vid=60b8bae4-0b0d-4e98-88fd-f5c5969866c8","ios":"levelo://app?vid=60b8bae4-0b0d-4e98-88fd-f5c5969866c8"},"vehicle_type_id":"4","last_reported":1729634920,"current_range_meters":22800,"station_id":"ce4bhoh2rcd13ifvqh5g","pricing_plan_id":"cebpf4jnsgd1na2vs0mg"},{"bike_id":"1e3e89d6-0a53-422f-b996-3177693fee43","system_id":"levelo_inurba_marseille","lat":43.28361,"lon":5.38619,"is_reserved":false,"is_disabled":false,"rental_uris":{"android":"levelo://app?vid=1e3e89d6-0a53-422f-b996-3177693fee43","ios":"levelo://app?vid=1e3e89d6-0a53-422f-b996-3177693fee43"},"vehicle_type_id":"4","last_reported":1729634920,"current_range_meters":12400,"station_id":"ce4bh492rcd13ifvqdvg","pricing_plan_id":"cebpf4jnsgd1na2vs0mg"},{"bike_id":"5c449356-4ac4-4d08-a405-c433fbe21a80","system_id":"levelo_inurba_marseille","lat":43.33737,"lon":5.37458,"is_reserved":false,"is_disabled":false,"rental_uris":{"android":"levelo://app?vid=5c449356-4ac4-4d08-a405-c433fbe21a80","ios":"levelo://app?vid=5c449356-4ac4-4d08-a405-c433fbe21a80"},"vehicle_type_id":"4","last_reported":1729634920,"current_range_meters":32400,"station_id":"","pricing_plan_id":"cebpf4jnsgd1na2vs0mg"},{"bike_id":"e6e98820-3e9f-4a9a-b7f0-c0ad6c9649c3","system_id":"levelo_inurba_marseille","lat":43.30907,"lon":5.36839,"is_reserved":false,"is_disabled":false,"rental_uris":{"android":"levelo://app?vid=e6e98820-3e9f-4a9a-b7f0-c0ad6c9649c3","ios":"levelo://app?vid=e6e98820-3e9f-4a9a-b7f0-c0ad6c9649c3"},"vehicle_type_id":"4","last_reported":1729634920,"current_range_meters":38400,"station_id":"ce4bgn92rcd13ifvqbvg","pricing_plan_id":"cebpf4jnsgd1na2vs0mg"},{"bike_id":"309dad60-bb72-4d2d-b50c-28e8483b55b4","system_id":"levelo_inurba_marseille","lat":43.29552,"lon":5.42293,"is_reserved":false,"is_disabled":false,"rental_uris":{"android":"levelo://app?vid=309dad60-bb72-4d2d-b50c-28e8483b55b4","ios":"levelo://app?vid=309dad60-bb72-4d2d-b50c-28e8483b55b4"},"vehicle_type_id":"4","last_reported":1729634920,"current_range_meters":33200,"station_id":"ce4bhph2rcd13ifvqhdg","pricing_plan_id":"cebpf4jnsgd1na2vs0mg"},{"bike_id":"0029ee21-649e-4d16-a642-8d64d97589e4","system_id":"levelo_inurba_marseille","lat":43.24071,"lon":5.37759,"is_reserved":false,"is_disabled":false,"rental_uris":{"android":"levelo://app?vid=0029ee21-649e-4d16-a642-8d64d97589e4","ios":"levelo://app?vid=0029ee21-649e-4d16-a642-8d64d97589e4"},"vehicle_type_id":"4","last_reported":1729634920,"current_range_meters":18800,"station_id":"ce4bhnp2rcd13ifvqgvg","pricing_plan_id":"cebpf4jnsgd1na2vs0mg"},{"bike_id":"80f01561-4f78-4d59-98de-f130f22341eb","system_id":"levelo_inurba_marseille","lat":43.28154,"lon":5.42641,"is_reserved":false,"is_disabled":false,"rental_uris":{"android":"levelo://app?vid=80f01561-4f78-4d59-98de-f130f22341eb","ios":"levelo://app?vid=80f01561-4f78-4d59-98de-f130f22341eb"},"vehicle_type_id":"4","last_reported":1729634920,"current_range_meters":6400,"station_id":"ce4bhnh2rcd13ifvqgug","pricing_plan_id":"cebpf4jnsgd1na2vs0mg"},{"bike_id":"0c6b11eb-50a7-4dc0-bff2-d8026011ec1d","system_id":"levelo_inurba_marseille","lat":43.24392,"lon":5.37057,"is_reserved":false,"is_disabled":false,"rental_uris":{"android":"levelo://app?vid=0c6b11eb-50a7-4dc0-bff2-d8026011ec1d","ios":"levelo://app?vid=0c6b11eb-50a7-4dc0-bff2-d8026011ec1d"},"vehicle_type_id":"4","last_reported":1729634920,"current_range_meters":39200,"station_id":"ce4bhhh2rcd13ifvqfk0","pricing_plan_id":"cebpf4jnsgd1na2vs0mg"},{"bike_id":"6f432666-0940-48b7-84ff-00e0f5e25b8b","system_id":"levelo_inurba_marseille","lat":43.279045,"lon":5.395682,"is_reserved":false,"is_disabled":false,"rental_uris":{"android":"levelo://app?vid=6f432666-0940-48b7-84ff-00e0f5e25b8b","ios":"levelo://app?vid=6f432666-0940-48b7-84ff-00e0f5e25b8b"},"vehicle_type_id":"4","last_reported":1729634920,"current_range_meters":38800,"station_id":"ce4bhf92rcd13ifvqf40","pricing_plan_id":"cebpf4jnsgd1na2vs0mg"},{"bike_id":"fd91bb08-b205-4b6a-9da1-b7df06e65a8a","system_id":"levelo_inurba_marseille","lat":43.31069,"lon":5.38351,"is_reserved":false,"is_disabled":false,"rental_uris":{"android":"levelo://app?vid=fd91bb08-b205-4b6a-9da1-b7df06e65a8a","ios":"levelo://app?vid=fd91bb08-b205-4b6a-9da1-b7df06e65a8a"},"vehicle_type_id":"4","last_reported":1729634920,"current_range_meters":38400,"station_id":"ce4bgv92rcd13ifvqcr0","pricing_plan_id":"cebpf4jnsgd1na2vs0mg"},{"bike_id":"762fd4a9-14c8-433e-adfb-a3dfa394164f","system_id":"levelo_inurba_marseille","lat":43.3053,"lon":5.36659,"is_reserved":false,"is_disabled":false,"rental_uris":{"android":"levelo://app?vid=762fd4a9-14c8-433e-adfb-a3dfa394164f","ios":"levelo://app?vid=762fd4a9-14c8-433e-adfb-a3dfa394164f"},"vehicle_type_id":"4","last_reported":1729634920,"current_range_meters":14400,"station_id":"","pricing_plan_id":"cebpf4jnsgd1na2vs0mg"},{"bike_id":"4882a116-5452-4f97-bdbd-13df4cccb9d6","system_id":"levelo_inurba_marseille","lat":43.306,"lon":5.37238,"is_reserved":false,"is_disabled":false,"rental_uris":{"android":"levelo://app?vid=4882a116-5452-4f97-bdbd-13df4cccb9d6","ios":"levelo://app?vid=4882a116-5452-4f97-bdbd-13df4cccb9d6"},"vehicle_type_id":"4","last_reported":1729634920,"current_range_meters":33200,"station_id":"ce4bgqh2rcd13ifvqc4g","pricing_plan_id":"cebpf4jnsgd1na2vs0mg"},{"bike_id":"15bcbd62-a207-40a4-95bb-9c92b4f24e54","system_id":"levelo_inurba_marseille","lat":43.30882,"lon":5.37181,"is_reserved":false,"is_disabled":false,"rental_uris":{"android":"levelo://app?vid=15bcbd62-a207-40a4-95bb-9c92b4f24e54","ios":"levelo://app?vid=15bcbd62-a207-40a4-95bb-9c92b4f24e54"},"vehicle_type_id":"4","last_reported":1729634920,"current_range_meters":14800,"station_id":"ce4bguh2rcd13ifvqckg","pricing_plan_id":"cebpf4jnsgd1na2vs0mg"},{"bike_id":"1124aa99-a4cf-4abb-81d2-6a98e5a17338","system_id":"levelo_inurba_marseille","lat":43.27832,"lon":5.39204,"is_reserved":false,"is_disabled":false,"rental_uris":{"android":"levelo://app?vid=1124aa99-a4cf-4abb-81d2-6a98e5a17338","ios":"levelo://app?vid=1124aa99-a4cf-4abb-81d2-6a98e5a17338"},"vehicle_type_id":"4","last_reported":1729634920,"current_range_meters":30000,"station_id":"ce4bhjp2rcd13ifvqga0","pricing_plan_id":"cebpf4jnsgd1na2vs0mg"},{"bike_id":"57633249-3b48-4b3f-9fc9-74faaaf52100","system_id":"levelo_inurba_marseille","lat":43.28406,"lon":5.37534,"is_reserved":false,"is_disabled":false,"rental_uris":{"android":"levelo://app?vid=57633249-3b48-4b3f-9fc9-74faaaf52100","ios":"levelo://app?vid=57633249-3b48-4b3f-9fc9-74faaaf52100"},"vehicle_type_id":"4","last_reported":1729634920,"current_range_meters":39200,"station_id":"ce4bh412rcd13ifvqds0","pricing_plan_id":"cebpf4jnsgd1na2vs0mg"},{"bike_id":"48d69a90-daf6-4f0d-9018-d74cf19cf37d","system_id":"levelo_inurba_marseille","lat":43.23188,"lon":5.35549,"is_reserved":false,"is_disabled":false,"rental_uris":{"android":"levelo://app?vid=48d69a90-daf6-4f0d-9018-d74cf19cf37d","ios":"levelo://app?vid=48d69a90-daf6-4f0d-9018-d74cf19cf37d"},"vehicle_type_id":"4","last_reported":1729634920,"current_range_meters":8800,"station_id":"ce4bhu92rcd13ifvqi70","pricing_plan_id":"cebpf4jnsgd1na2vs0mg"},{"bike_id":"f42b21e7-cbd4-432b-a865-7ed8d92ab2c5","system_id":"levelo_inurba_marseille","lat":43.30981,"lon":5.40056,"is_reserved":false,"is_disabled":false,"rental_uris":{"android":"levelo://app?vid=f42b21e7-cbd4-432b-a865-7ed8d92ab2c5","ios":"levelo://app?vid=f42b21e7-cbd4-432b-a865-7ed8d92ab2c5"},"vehicle_type_id":"4","last_reported":1729634920,"current_range_meters":38800,"station_id":"","pricing_plan_id":"cebpf4jnsgd1na2vs0mg"},{"bike_id":"ebeea3a0-5e71-4305-b861-0686ff11b7c4","system_id":"levelo_inurba_marseille","lat":43.2979,"lon":5.37095,"is_reserved":false,"is_disabled":false,"rental_uris":{"android":"levelo://app?vid=ebeea3a0-5e71-4305-b861-0686ff11b7c4","ios":"levelo://app?vid=ebeea3a0-5e71-4305-b861-0686ff11b7c4"},"vehicle_type_id":"4","last_reported":1729634920,"current_range_meters":32400,"station_id":"ce4bgop2rcd13ifvqc1g","pricing_plan_id":"cebpf4jnsgd1na2vs0mg"},{"bike_id":"0cbcace8-8e1b-4e6e-a772-b3a166cc34ce","system_id":"levelo_inurba_marseille","lat":43.23195,"lon":5.35551,"is_reserved":false,"is_disabled":false,"rental_uris":{"android":"levelo://app?vid=0cbcace8-8e1b-4e6e-a772-b3a166cc34ce","ios":"levelo://app?vid=0cbcace8-8e1b-4e6e-a772-b3a166cc34ce"},"vehicle_type_id":"4","last_reported":1729634920,"current_range_meters":17600,"station_id":"ce4bhu92rcd13ifvqi70","pricing_plan_id":"cebpf4jnsgd1na2vs0mg"},{"bike_id":"94d30471-f54b-4aca-96dd-695f3b79bd29","system_id":"levelo_inurba_marseille","lat":43.31164,"lon":5.38722,"is_reserved":false,"is_disabled":false,"rental_uris":{"android":"levelo://app?vid=94d30471-f54b-4aca-96dd-695f3b79bd29","ios":"levelo://app?vid=94d30471-f54b-4aca-96dd-695f3b79bd29"},"vehicle_type_id":"4","last_reported":1729634920,"current_range_meters":36400,"station_id":"ce4bgv12rcd13ifvqcp0","pricing_plan_id":"cebpf4jnsgd1na2vs0mg"},{"bike_id":"21f4647e-8fb6-4d14-8542-47118f3360a1","system_id":"levelo_inurba_marseille","lat":43.2586,"lon":5.39898,"is_reserved":false,"is_disabled":false,"rental_uris":{"android":"levelo://app?vid=21f4647e-8fb6-4d14-8542-47118f3360a1","ios":"levelo://app?vid=21f4647e-8fb6-4d14-8542-47118f3360a1"},"vehicle_type_id":"4","last_reported":1729634920,"current_range_meters":30800,"station_id":"ce4bhl92rcd13ifvqghg","pricing_plan_id":"cebpf4jnsgd1na2vs0mg"},{"bike_id":"bde5a3e1-2b27-4680-add5-25f6634f00df","system_id":"levelo_inurba_marseille","lat":43.27991,"lon":5.41655,"is_reserved":false,"is_disabled":false,"rental_uris":{"android":"levelo://app?vid=bde5a3e1-2b27-4680-add5-25f6634f00df","ios":"levelo://app?vid=bde5a3e1-2b27-4680-add5-25f6634f00df"},"vehicle_type_id":"4","last_reported":1729634920,"current_range_meters":8400,"station_id":"ce4bho12rcd13ifvqh1g","pricing_plan_id":"cebpf4jnsgd1na2vs0mg"},{"bike_id":"f0220362-e7c7-423a-a587-85c77fbcabb6","system_id":"levelo_inurba_marseille","lat":43.27071,"lon":5.42277,"is_reserved":false,"is_disabled":false,"rental_uris":{"android":"levelo://app?vid=f0220362-e7c7-423a-a587-85c77fbcabb6","ios":"levelo://app?vid=f0220362-e7c7-423a-a587-85c77fbcabb6"},"vehicle_type_id":"4","last_reported":1729634920,"current_range_meters":37600,"station_id":"ce4bhk92rcd13ifvqgb0","pricing_plan_id":"cebpf4jnsgd1na2vs0mg"},{"bike_id":"22675db0-28b2-4ef9-a53f-b0764f3ea9dc","system_id":"levelo_inurba_marseille","lat":43.3199,"lon":5.38147,"is_reserved":false,"is_disabled":false,"rental_uris":{"android":"levelo://app?vid=22675db0-28b2-4ef9-a53f-b0764f3ea9dc","ios":"levelo://app?vid=22675db0-28b2-4ef9-a53f-b0764f3ea9dc"},"vehicle_type_id":"4","last_reported":1729634920,"current_range_meters":31200,"station_id":"ce4bhr12rcd13ifvqhpg","pricing_plan_id":"cebpf4jnsgd1na2vs0mg"},{"bike_id":"84b75230-54cb-42e2-918f-7036fd12f3c2","system_id":"levelo_inurba_marseille","lat":43.28435,"lon":5.39186,"is_reserved":false,"is_disabled":false,"rental_uris":{"android":"levelo://app?vid=84b75230-54cb-42e2-918f-7036fd12f3c2","ios":"levelo://app?vid=84b75230-54cb-42e2-918f-7036fd12f3c2"},"vehicle_type_id":"4","last_reported":1729634920,"current_range_meters":36400,"station_id":"ce4bhoh2rcd13ifvqh5g","pricing_plan_id":"cebpf4jnsgd1na2vs0mg"},{"bike_id":"d08ac600-b85a-4a44-84b0-ee33725e24f7","system_id":"levelo_inurba_marseille","lat":43.32367,"lon":5.38882,"is_reserved":false,"is_disabled":false,"rental_uris":{"android":"levelo://app?vid=d08ac600-b85a-4a44-84b0-ee33725e24f7","ios":"levelo://app?vid=d08ac600-b85a-4a44-84b0-ee33725e24f7"},"vehicle_type_id":"4","last_reported":1729634920,"current_range_meters":33200,"station_id":"ce4bhqp2rcd13ifvqhog","pricing_plan_id":"cebpf4jnsgd1na2vs0mg"},{"bike_id":"6a3d026e-f423-4e19-905c-b73e2bbde2ea","system_id":"levelo_inurba_marseille","lat":43.27182,"lon":5.40984,"is_reserved":false,"is_disabled":false,"rental_uris":{"android":"levelo://app?vid=6a3d026e-f423-4e19-905c-b73e2bbde2ea","ios":"levelo://app?vid=6a3d026e-f423-4e19-905c-b73e2bbde2ea"},"vehicle_type_id":"4","last_reported":1729634920,"current_range_meters":37600,"station_id":"ce4bhl12rcd13ifvqgf0","pricing_plan_id":"cebpf4jnsgd1na2vs0mg"},{"bike_id":"48626366-6c4d-4e93-86eb-59d9c4e5dfba","system_id":"levelo_inurba_marseille","lat":43.28933,"lon":5.39626,"is_reserved":false,"is_disabled":false,"rental_uris":{"android":"levelo://app?vid=48626366-6c4d-4e93-86eb-59d9c4e5dfba","ios":"levelo://app?vid=48626366-6c4d-4e93-86eb-59d9c4e5dfba"},"vehicle_type_id":"4","last_reported":1729634920,"current_range_meters":24800,"station_id":"ce4bh3h2rcd13ifvqdn0","pricing_plan_id":"cebpf4jnsgd1na2vs0mg"},{"bike_id":"1f92305f-3ae4-4b19-945f-1102feb6f1dd","system_id":"levelo_inurba_marseille","lat":43.30879,"lon":5.3963,"is_reserved":false,"is_disabled":false,"rental_uris":{"android":"levelo://app?vid=1f92305f-3ae4-4b19-945f-1102feb6f1dd","ios":"levelo://app?vid=1f92305f-3ae4-4b19-945f-1102feb6f1dd"},"vehicle_type_id":"4","last_reported":1729634920,"current_range_meters":32400,"station_id":"ce4bh012rcd13ifvqcv0","pricing_plan_id":"cebpf4jnsgd1na2vs0mg"},{"bike_id":"3e874096-f707-4e4f-918f-d88b9ad69dbe","system_id":"levelo_inurba_marseille","lat":43.30878,"lon":5.3964,"is_reserved":false,"is_disabled":false,"rental_uris":{"android":"levelo://app?vid=3e874096-f707-4e4f-918f-d88b9ad69dbe","ios":"levelo://app?vid=3e874096-f707-4e4f-918f-d88b9ad69dbe"},"vehicle_type_id":"4","last_reported":1729634920,"current_range_meters":26000,"station_id":"ce4bh012rcd13ifvqcv0","pricing_plan_id":"cebpf4jnsgd1na2vs0mg"},{"bike_id":"7baa1c5f-c288-4d45-b2f5-55d5e42fd91a","system_id":"levelo_inurba_marseille","lat":43.30139,"lon":5.37424,"is_reserved":false,"is_disabled":false,"rental_uris":{"android":"levelo://app?vid=7baa1c5f-c288-4d45-b2f5-55d5e42fd91a","ios":"levelo://app?vid=7baa1c5f-c288-4d45-b2f5-55d5e42fd91a"},"vehicle_type_id":"4","last_reported":1729634920,"current_range_meters":38000,"station_id":"ce4bgs92rcd13ifvqcc0","pricing_plan_id":"cebpf4jnsgd1na2vs0mg"},{"bike_id":"a4757616-c902-495a-993c-e6522db7f0c2","system_id":"levelo_inurba_marseille","lat":43.26557,"lon":5.3728,"is_reserved":false,"is_disabled":false,"rental_uris":{"android":"levelo://app?vid=a4757616-c902-495a-993c-e6522db7f0c2","ios":"levelo://app?vid=a4757616-c902-495a-993c-e6522db7f0c2"},"vehicle_type_id":"4","last_reported":1729634920,"current_range_meters":32000,"station_id":"ce4bhg12rcd13ifvqf70","pricing_plan_id":"cebpf4jnsgd1na2vs0mg"},{"bike_id":"38486ab0-efb0-4b05-bf58-d9ae2deab94d","system_id":"levelo_inurba_marseille","lat":43.25579,"lon":5.38243,"is_reserved":false,"is_disabled":false,"rental_uris":{"android":"levelo://app?vid=38486ab0-efb0-4b05-bf58-d9ae2deab94d","ios":"levelo://app?vid=38486ab0-efb0-4b05-bf58-d9ae2deab94d"},"vehicle_type_id":"4","last_reported":1729634920,"current_range_meters":38000,"station_id":"ce4bhih2rcd13ifvqfs0","pricing_plan_id":"cebpf4jnsgd1na2vs0mg"},{"bike_id":"bd7520bc-f08d-466c-9170-ab51ca67bdb0","system_id":"levelo_inurba_marseille","lat":43.31688,"lon":5.40466,"is_reserved":false,"is_disabled":false,"rental_uris":{"android":"levelo://app?vid=bd7520bc-f08d-466c-9170-ab51ca67bdb0","ios":"levelo://app?vid=bd7520bc-f08d-466c-9170-ab51ca67bdb0"},"vehicle_type_id":"4","last_reported":1729634920,"current_range_meters":10000,"station_id":"ce4bh012rcd13ifvqd00","pricing_plan_id":"cebpf4jnsgd1na2vs0mg"},{"bike_id":"89728f51-7b51-4f13-acea-3ab0d67e58d7","system_id":"levelo_inurba_marseille","lat":43.28568,"lon":5.39492,"is_reserved":false,"is_disabled":false,"rental_uris":{"android":"levelo://app?vid=89728f51-7b51-4f13-acea-3ab0d67e58d7","ios":"levelo://app?vid=89728f51-7b51-4f13-acea-3ab0d67e58d7"},"vehicle_type_id":"4","last_reported":1729634920,"current_range_meters":15200,"station_id":"ce4bh292rcd13ifvqdg0","pricing_plan_id":"cebpf4jnsgd1na2vs0mg"},{"bike_id":"20e7c36a-90bd-4572-8543-6491ffe2f43e","system_id":"levelo_inurba_marseille","lat":43.24083,"lon":5.37741,"is_reserved":false,"is_disabled":false,"rental_uris":{"android":"levelo://app?vid=20e7c36a-90bd-4572-8543-6491ffe2f43e","ios":"levelo://app?vid=20e7c36a-90bd-4572-8543-6491ffe2f43e"},"vehicle_type_id":"4","last_reported":1729634920,"current_range_meters":38000,"station_id":"ce4bhnp2rcd13ifvqgvg","pricing_plan_id":"cebpf4jnsgd1na2vs0mg"},{"bike_id":"9b87b773-e061-40be-b290-ce236cd5d49c","system_id":"levelo_inurba_marseille","lat":43.28404,"lon":5.37524,"is_reserved":false,"is_disabled":false,"rental_uris":{"android":"levelo://app?vid=9b87b773-e061-40be-b290-ce236cd5d49c","ios":"levelo://app?vid=9b87b773-e061-40be-b290-ce236cd5d49c"},"vehicle_type_id":"4","last_reported":1729634920,"current_range_meters":18800,"station_id":"ce4bh412rcd13ifvqds0","pricing_plan_id":"cebpf4jnsgd1na2vs0mg"},{"bike_id":"f4f4cedb-ee30-4d0e-addd-0835963f6da5","system_id":"levelo_inurba_marseille","lat":43.29472,"lon":5.44393,"is_reserved":false,"is_disabled":false,"rental_uris":{"android":"levelo://app?vid=f4f4cedb-ee30-4d0e-addd-0835963f6da5","ios":"levelo://app?vid=f4f4cedb-ee30-4d0e-addd-0835963f6da5"},"vehicle_type_id":"4","last_reported":1729634920,"current_range_meters":5600,"station_id":"","pricing_plan_id":"cebpf4jnsgd1na2vs0mg"},{"bike_id":"ec5b3ce7-15ab-4985-98f5-e42469ac7b7c","system_id":"levelo_inurba_marseille","lat":43.27836,"lon":5.39216,"is_reserved":false,"is_disabled":false,"rental_uris":{"android":"levelo://app?vid=ec5b3ce7-15ab-4985-98f5-e42469ac7b7c","ios":"levelo://app?vid=ec5b3ce7-15ab-4985-98f5-e42469ac7b7c"},"vehicle_type_id":"4","last_reported":1729634920,"current_range_meters":19200,"station_id":"ce4bhjp2rcd13ifvqga0","pricing_plan_id":"cebpf4jnsgd1na2vs0mg"},{"bike_id":"1e139366-703f-4668-bcf8-167aa5dae43a","system_id":"levelo_inurba_marseille","lat":43.287,"lon":5.39978,"is_reserved":false,"is_disabled":false,"rental_uris":{"android":"levelo://app?vid=1e139366-703f-4668-bcf8-167aa5dae43a","ios":"levelo://app?vid=1e139366-703f-4668-bcf8-167aa5dae43a"},"vehicle_type_id":"4","last_reported":1729634920,"current_range_meters":33200,"station_id":"ce4bho92rcd13ifvqh3g","pricing_plan_id":"cebpf4jnsgd1na2vs0mg"},{"bike_id":"cdb20d8b-1e09-4429-a929-bb3e312a0da6","system_id":"levelo_inurba_marseille","lat":43.32933,"lon":5.365549,"is_reserved":false,"is_disabled":false,"rental_uris":{"android":"levelo://app?vid=cdb20d8b-1e09-4429-a929-bb3e312a0da6","ios":"levelo://app?vid=cdb20d8b-1e09-4429-a929-bb3e312a0da6"},"vehicle_type_id":"4","last_reported":1729634920,"current_range_meters":24800,"station_id":"","pricing_plan_id":"cebpf4jnsgd1na2vs0mg"},{"bike_id":"744a3036-377a-4be3-af71-6f5c833e31f2","system_id":"levelo_inurba_marseille","lat":43.30638,"lon":5.4008,"is_reserved":false,"is_disabled":false,"rental_uris":{"android":"levelo://app?vid=744a3036-377a-4be3-af71-6f5c833e31f2","ios":"levelo://app?vid=744a3036-377a-4be3-af71-6f5c833e31f2"},"vehicle_type_id":"4","last_reported":1729634920,"current_range_meters":40000,"station_id":"ce4bh112rcd13ifvqda0","pricing_plan_id":"cebpf4jnsgd1na2vs0mg"},{"bike_id":"dde0b55c-91a3-4acc-a947-d16f29f29d7f","system_id":"levelo_inurba_marseille","lat":43.28344,"lon":5.38093,"is_reserved":false,"is_disabled":false,"rental_uris":{"android":"levelo://app?vid=dde0b55c-91a3-4acc-a947-d16f29f29d7f","ios":"levelo://app?vid=dde0b55c-91a3-4acc-a947-d16f29f29d7f"},"vehicle_type_id":"4","last_reported":1729634920,"current_range_meters":38800,"station_id":"ce4bh412rcd13ifvqdr0","pricing_plan_id":"cebpf4jnsgd1na2vs0mg"},{"bike_id":"f7a109c2-5515-4876-a841-90b86554125e","system_id":"levelo_inurba_marseille","lat":43.30884,"lon":5.3718,"is_reserved":false,"is_disabled":false,"rental_uris":{"android":"levelo://app?vid=f7a109c2-5515-4876-a841-90b86554125e","ios":"levelo://app?vid=f7a109c2-5515-4876-a841-90b86554125e"},"vehicle_type_id":"4","last_reported":1729634920,"current_range_meters":30800,"station_id":"ce4bguh2rcd13ifvqckg","pricing_plan_id":"cebpf4jnsgd1na2vs0mg"},{"bike_id":"b8a46660-d0a7-4703-acd3-9cea556d4b68","system_id":"levelo_inurba_marseille","lat":43.30797,"lon":5.38163,"is_reserved":false,"is_disabled":false,"rental_uris":{"android":"levelo://app?vid=b8a46660-d0a7-4703-acd3-9cea556d4b68","ios":"levelo://app?vid=b8a46660-d0a7-4703-acd3-9cea556d4b68"},"vehicle_type_id":"4","last_reported":1729634920,"current_range_meters":39200,"station_id":"ce4bgt12rcd13ifvqce0","pricing_plan_id":"cebpf4jnsgd1na2vs0mg"},{"bike_id":"81db9c70-bce4-4764-86a6-8d25b1c25e6d","system_id":"levelo_inurba_marseille","lat":43.24646,"lon":5.38889,"is_reserved":false,"is_disabled":false,"rental_uris":{"android":"levelo://app?vid=81db9c70-bce4-4764-86a6-8d25b1c25e6d","ios":"levelo://app?vid=81db9c70-bce4-4764-86a6-8d25b1c25e6d"},"vehicle_type_id":"4","last_reported":1729634920,"current_range_meters":38800,"station_id":"ce4bhg12rcd13ifvqf60","pricing_plan_id":"cebpf4jnsgd1na2vs0mg"},{"bike_id":"36f29174-278d-4a36-8d64-2c490ae15868","system_id":"levelo_inurba_marseille","lat":43.27497,"lon":5.42459,"is_reserved":false,"is_disabled":false,"rental_uris":{"android":"levelo://app?vid=36f29174-278d-4a36-8d64-2c490ae15868","ios":"levelo://app?vid=36f29174-278d-4a36-8d64-2c490ae15868"},"vehicle_type_id":"4","last_reported":1729634920,"current_range_meters":34000,"station_id":"ce4bhn92rcd13ifvqgrg","pricing_plan_id":"cebpf4jnsgd1na2vs0mg"},{"bike_id":"15ad1c6b-81da-489e-bfbb-be871f7ab8dd","system_id":"levelo_inurba_marseille","lat":43.287,"lon":5.37372,"is_reserved":false,"is_disabled":false,"rental_uris":{"android":"levelo://app?vid=15ad1c6b-81da-489e-bfbb-be871f7ab8dd","ios":"levelo://app?vid=15ad1c6b-81da-489e-bfbb-be871f7ab8dd"},"vehicle_type_id":"4","last_reported":1729634920,"current_range_meters":35600,"station_id":"ce4bh3p2rcd13ifvqdq0","pricing_plan_id":"cebpf4jnsgd1na2vs0mg"},{"bike_id":"58bd31dc-894d-49ad-8ea8-599306c1b2f3","system_id":"levelo_inurba_marseille","lat":43.31165,"lon":5.38716,"is_reserved":false,"is_disabled":false,"rental_uris":{"android":"levelo://app?vid=58bd31dc-894d-49ad-8ea8-599306c1b2f3","ios":"levelo://app?vid=58bd31dc-894d-49ad-8ea8-599306c1b2f3"},"vehicle_type_id":"4","last_reported":1729634920,"current_range_meters":11200,"station_id":"ce4bgv12rcd13ifvqcp0","pricing_plan_id":"cebpf4jnsgd1na2vs0mg"},{"bike_id":"bc79c6a9-7639-4dd9-a1c0-719ceb101c5d","system_id":"levelo_inurba_marseille","lat":43.28699,"lon":5.39977,"is_reserved":false,"is_disabled":false,"rental_uris":{"android":"levelo://app?vid=bc79c6a9-7639-4dd9-a1c0-719ceb101c5d","ios":"levelo://app?vid=bc79c6a9-7639-4dd9-a1c0-719ceb101c5d"},"vehicle_type_id":"4","last_reported":1729634920,"current_range_meters":10000,"station_id":"ce4bho92rcd13ifvqh3g","pricing_plan_id":"cebpf4jnsgd1na2vs0mg"},{"bike_id":"a6bdef88-770e-4f37-8f5f-221f0cf85086","system_id":"levelo_inurba_marseille","lat":43.31529,"lon":5.38032,"is_reserved":false,"is_disabled":false,"rental_uris":{"android":"levelo://app?vid=a6bdef88-770e-4f37-8f5f-221f0cf85086","ios":"levelo://app?vid=a6bdef88-770e-4f37-8f5f-221f0cf85086"},"vehicle_type_id":"4","last_reported":1729634920,"current_range_meters":32000,"station_id":"ce4bhsp2rcd13ifvqi50","pricing_plan_id":"cebpf4jnsgd1na2vs0mg"},{"bike_id":"f9ff8621-7700-4553-abac-ad15b1938a2c","system_id":"levelo_inurba_marseille","lat":43.31168,"lon":5.3871,"is_reserved":false,"is_disabled":false,"rental_uris":{"android":"levelo://app?vid=f9ff8621-7700-4553-abac-ad15b1938a2c","ios":"levelo://app?vid=f9ff8621-7700-4553-abac-ad15b1938a2c"},"vehicle_type_id":"4","last_reported":1729634920,"current_range_meters":38800,"station_id":"ce4bgv12rcd13ifvqcp0","pricing_plan_id":"cebpf4jnsgd1na2vs0mg"},{"bike_id":"c2ce141d-6e76-44dc-931b-253d09157587","system_id":"levelo_inurba_marseille","lat":43.24997,"lon":5.38924,"is_reserved":false,"is_disabled":false,"rental_uris":{"android":"levelo://app?vid=c2ce141d-6e76-44dc-931b-253d09157587","ios":"levelo://app?vid=c2ce141d-6e76-44dc-931b-253d09157587"},"vehicle_type_id":"4","last_reported":1729634920,"current_range_meters":38800,"station_id":"ce4bhgp2rcd13ifvqfd0","pricing_plan_id":"cebpf4jnsgd1na2vs0mg"},{"bike_id":"11256fd2-b537-43fb-8f2f-2312433c9979","system_id":"levelo_inurba_marseille","lat":43.28102,"lon":5.37832,"is_reserved":false,"is_disabled":false,"rental_uris":{"android":"levelo://app?vid=11256fd2-b537-43fb-8f2f-2312433c9979","ios":"levelo://app?vid=11256fd2-b537-43fb-8f2f-2312433c9979"},"vehicle_type_id":"4","last_reported":1729634920,"current_range_meters":8000,"station_id":"ce4bha12rcd13ifvqee0","pricing_plan_id":"cebpf4jnsgd1na2vs0mg"},{"bike_id":"2310fa0e-1fe6-4a5a-9ff8-0351c79fb1f7","system_id":"levelo_inurba_marseille","lat":43.24806,"lon":5.37454,"is_reserved":false,"is_disabled":false,"rental_uris":{"android":"levelo://app?vid=2310fa0e-1fe6-4a5a-9ff8-0351c79fb1f7","ios":"levelo://app?vid=2310fa0e-1fe6-4a5a-9ff8-0351c79fb1f7"},"vehicle_type_id":"4","last_reported":1729634920,"current_range_meters":32400,"station_id":"ce4bhgh2rcd13ifvqfb0","pricing_plan_id":"cebpf4jnsgd1na2vs0mg"},{"bike_id":"408223fe-0604-4879-9b68-36acb12c66f7","system_id":"levelo_inurba_marseille","lat":43.28406,"lon":5.37512,"is_reserved":false,"is_disabled":false,"rental_uris":{"android":"levelo://app?vid=408223fe-0604-4879-9b68-36acb12c66f7","ios":"levelo://app?vid=408223fe-0604-4879-9b68-36acb12c66f7"},"vehicle_type_id":"4","last_reported":1729634920,"current_range_meters":38800,"station_id":"ce4bh412rcd13ifvqds0","pricing_plan_id":"cebpf4jnsgd1na2vs0mg"},{"bike_id":"8cc9b489-a2de-4b20-aa93-f1879e7ab37b","system_id":"levelo_inurba_marseille","lat":43.30628,"lon":5.4008,"is_reserved":false,"is_disabled":false,"rental_uris":{"android":"levelo://app?vid=8cc9b489-a2de-4b20-aa93-f1879e7ab37b","ios":"levelo://app?vid=8cc9b489-a2de-4b20-aa93-f1879e7ab37b"},"vehicle_type_id":"4","last_reported":1729634920,"current_range_meters":37600,"station_id":"ce4bh112rcd13ifvqda0","pricing_plan_id":"cebpf4jnsgd1na2vs0mg"},{"bike_id":"c3f635f2-4d56-4679-8853-cc8b0d5f8737","system_id":"levelo_inurba_marseille","lat":43.2827,"lon":5.35059,"is_reserved":false,"is_disabled":false,"rental_uris":{"android":"levelo://app?vid=c3f635f2-4d56-4679-8853-cc8b0d5f8737","ios":"levelo://app?vid=c3f635f2-4d56-4679-8853-cc8b0d5f8737"},"vehicle_type_id":"4","last_reported":1729634920,"current_range_meters":35200,"station_id":"ce4bhbp2rcd13ifvqerg","pricing_plan_id":"cebpf4jnsgd1na2vs0mg"},{"bike_id":"758c8815-d6d1-4eb0-87f2-4abe41c5d6cf","system_id":"levelo_inurba_marseille","lat":43.29554,"lon":5.42286,"is_reserved":false,"is_disabled":false,"rental_uris":{"android":"levelo://app?vid=758c8815-d6d1-4eb0-87f2-4abe41c5d6cf","ios":"levelo://app?vid=758c8815-d6d1-4eb0-87f2-4abe41c5d6cf"},"vehicle_type_id":"4","last_reported":1729634920,"current_range_meters":27200,"station_id":"ce4bhph2rcd13ifvqhdg","pricing_plan_id":"cebpf4jnsgd1na2vs0mg"},{"bike_id":"2d0c375c-230c-4b91-bd7f-037b1664cdfd","system_id":"levelo_inurba_marseille","lat":43.28712,"lon":5.37931,"is_reserved":false,"is_disabled":false,"rental_uris":{"android":"levelo://app?vid=2d0c375c-230c-4b91-bd7f-037b1664cdfd","ios":"levelo://app?vid=2d0c375c-230c-4b91-bd7f-037b1664cdfd"},"vehicle_type_id":"4","last_reported":1729634920,"current_range_meters":5600,"station_id":"ce4bh9p2rcd13ifvqec0","pricing_plan_id":"cebpf4jnsgd1na2vs0mg"},{"bike_id":"864575c1-85b8-4008-92ba-391073d4ed51","system_id":"levelo_inurba_marseille","lat":43.23189,"lon":5.35542,"is_reserved":false,"is_disabled":false,"rental_uris":{"android":"levelo://app?vid=864575c1-85b8-4008-92ba-391073d4ed51","ios":"levelo://app?vid=864575c1-85b8-4008-92ba-391073d4ed51"},"vehicle_type_id":"4","last_reported":1729634920,"current_range_meters":22800,"station_id":"ce4bhu92rcd13ifvqi70","pricing_plan_id":"cebpf4jnsgd1na2vs0mg"},{"bike_id":"3ee567ef-7396-40a8-92fe-6d8af1dbc375","system_id":"levelo_inurba_marseille","lat":43.28461,"lon":5.35884,"is_reserved":false,"is_disabled":false,"rental_uris":{"android":"levelo://app?vid=3ee567ef-7396-40a8-92fe-6d8af1dbc375","ios":"levelo://app?vid=3ee567ef-7396-40a8-92fe-6d8af1dbc375"},"vehicle_type_id":"4","last_reported":1729634920,"current_range_meters":3600,"station_id":"ce4bhah2rcd13ifvqei0","pricing_plan_id":"cebpf4jnsgd1na2vs0mg"},{"bike_id":"41f75c63-5a1e-4adb-bcc3-29aa8accf432","system_id":"levelo_inurba_marseille","lat":43.27495,"lon":5.42452,"is_reserved":false,"is_disabled":false,"rental_uris":{"android":"levelo://app?vid=41f75c63-5a1e-4adb-bcc3-29aa8accf432","ios":"levelo://app?vid=41f75c63-5a1e-4adb-bcc3-29aa8accf432"},"vehicle_type_id":"4","last_reported":1729634920,"current_range_meters":36000,"station_id":"ce4bhn92rcd13ifvqgrg","pricing_plan_id":"cebpf4jnsgd1na2vs0mg"},{"bike_id":"2b6b36f0-918c-4869-bfa8-cd3d9c833656","system_id":"levelo_inurba_marseille","lat":43.24613,"lon":5.41954,"is_reserved":false,"is_disabled":false,"rental_uris":{"android":"levelo://app?vid=2b6b36f0-918c-4869-bfa8-cd3d9c833656","ios":"levelo://app?vid=2b6b36f0-918c-4869-bfa8-cd3d9c833656"},"vehicle_type_id":"4","last_reported":1729634920,"current_range_meters":29600,"station_id":"","pricing_plan_id":"cebpf4jnsgd1na2vs0mg"},{"bike_id":"f50406a4-c43e-4a8e-8d40-d2fe94382454","system_id":"levelo_inurba_marseille","lat":43.279959,"lon":5.400062,"is_reserved":false,"is_disabled":false,"rental_uris":{"android":"levelo://app?vid=f50406a4-c43e-4a8e-8d40-d2fe94382454","ios":"levelo://app?vid=f50406a4-c43e-4a8e-8d40-d2fe94382454"},"vehicle_type_id":"4","last_reported":1729634920,"current_range_meters":39200,"station_id":"ce4bho92rcd13ifvqh4g","pricing_plan_id":"cebpf4jnsgd1na2vs0mg"},{"bike_id":"5b58dcfb-5507-4a17-8cb8-8f66d7e06861","system_id":"levelo_inurba_marseille","lat":43.23178,"lon":5.39985,"is_reserved":false,"is_disabled":false,"rental_uris":{"android":"levelo://app?vid=5b58dcfb-5507-4a17-8cb8-8f66d7e06861","ios":"levelo://app?vid=5b58dcfb-5507-4a17-8cb8-8f66d7e06861"},"vehicle_type_id":"4","last_reported":1729634920,"current_range_meters":21600,"station_id":"ce4bhn12rcd13ifvqgqg","pricing_plan_id":"cebpf4jnsgd1na2vs0mg"},{"bike_id":"3f801300-20d2-4fe6-8c20-fcbcbb04cec6","system_id":"levelo_inurba_marseille","lat":43.262042,"lon":5.374451,"is_reserved":false,"is_disabled":false,"rental_uris":{"android":"levelo://app?vid=3f801300-20d2-4fe6-8c20-fcbcbb04cec6","ios":"levelo://app?vid=3f801300-20d2-4fe6-8c20-fcbcbb04cec6"},"vehicle_type_id":"4","last_reported":1729634920,"current_range_meters":2800,"station_id":"ce4bhgp2rcd13ifvqfc0","pricing_plan_id":"cebpf4jnsgd1na2vs0mg"},{"bike_id":"3fe96bb3-d27a-492d-825f-9bc77dafe8c4","system_id":"levelo_inurba_marseille","lat":43.28081,"lon":5.39664,"is_reserved":false,"is_disabled":false,"rental_uris":{"android":"levelo://app?vid=3fe96bb3-d27a-492d-825f-9bc77dafe8c4","ios":"levelo://app?vid=3fe96bb3-d27a-492d-825f-9bc77dafe8c4"},"vehicle_type_id":"4","last_reported":1729634920,"current_range_meters":30400,"station_id":"ce4bho12rcd13ifvqh2g","pricing_plan_id":"cebpf4jnsgd1na2vs0mg"},{"bike_id":"e64f917e-39a9-4324-8dd2-09ac776b9a36","system_id":"levelo_inurba_marseille","lat":43.27839,"lon":5.39209,"is_reserved":false,"is_disabled":false,"rental_uris":{"android":"levelo://app?vid=e64f917e-39a9-4324-8dd2-09ac776b9a36","ios":"levelo://app?vid=e64f917e-39a9-4324-8dd2-09ac776b9a36"},"vehicle_type_id":"4","last_reported":1729634920,"current_range_meters":36800,"station_id":"ce4bhjp2rcd13ifvqga0","pricing_plan_id":"cebpf4jnsgd1na2vs0mg"},{"bike_id":"79a1e020-318b-42a1-a8c0-a424b1daf69e","system_id":"levelo_inurba_marseille","lat":43.296,"lon":5.36142,"is_reserved":false,"is_disabled":false,"rental_uris":{"android":"levelo://app?vid=79a1e020-318b-42a1-a8c0-a424b1daf69e","ios":"levelo://app?vid=79a1e020-318b-42a1-a8c0-a424b1daf69e"},"vehicle_type_id":"4","last_reported":1729634920,"current_range_meters":4000,"station_id":"","pricing_plan_id":"cebpf4jnsgd1na2vs0mg"},{"bike_id":"135cebe9-ffee-4a96-8e19-ff8188d72ddd","system_id":"levelo_inurba_marseille","lat":43.24391,"lon":5.37062,"is_reserved":false,"is_disabled":false,"rental_uris":{"android":"levelo://app?vid=135cebe9-ffee-4a96-8e19-ff8188d72ddd","ios":"levelo://app?vid=135cebe9-ffee-4a96-8e19-ff8188d72ddd"},"vehicle_type_id":"4","last_reported":1729634920,"current_range_meters":38800,"station_id":"ce4bhhh2rcd13ifvqfk0","pricing_plan_id":"cebpf4jnsgd1na2vs0mg"},{"bike_id":"92c65a0a-3722-4ab2-ac56-bdc29d4596f3","system_id":"levelo_inurba_marseille","lat":43.31067,"lon":5.38361,"is_reserved":false,"is_disabled":false,"rental_uris":{"android":"levelo://app?vid=92c65a0a-3722-4ab2-ac56-bdc29d4596f3","ios":"levelo://app?vid=92c65a0a-3722-4ab2-ac56-bdc29d4596f3"},"vehicle_type_id":"4","last_reported":1729634920,"current_range_meters":22000,"station_id":"ce4bgv92rcd13ifvqcr0","pricing_plan_id":"cebpf4jnsgd1na2vs0mg"},{"bike_id":"bae7080d-0211-4bcc-81d0-4fc71eec8beb","system_id":"levelo_inurba_marseille","lat":43.30133,"lon":5.38786,"is_reserved":false,"is_disabled":false,"rental_uris":{"android":"levelo://app?vid=bae7080d-0211-4bcc-81d0-4fc71eec8beb","ios":"levelo://app?vid=bae7080d-0211-4bcc-81d0-4fc71eec8beb"},"vehicle_type_id":"4","last_reported":1729634920,"current_range_meters":11200,"station_id":"ce4bghh2rcd13ifvqb60","pricing_plan_id":"cebpf4jnsgd1na2vs0mg"},{"bike_id":"e20eacab-28c4-4862-9c97-caa408edf48c","system_id":"levelo_inurba_marseille","lat":43.23182,"lon":5.39992,"is_reserved":false,"is_disabled":false,"rental_uris":{"android":"levelo://app?vid=e20eacab-28c4-4862-9c97-caa408edf48c","ios":"levelo://app?vid=e20eacab-28c4-4862-9c97-caa408edf48c"},"vehicle_type_id":"4","last_reported":1729634920,"current_range_meters":26000,"station_id":"ce4bhn12rcd13ifvqgqg","pricing_plan_id":"cebpf4jnsgd1na2vs0mg"},{"bike_id":"26dd2d29-ae2b-42db-8ac6-529a5fde5f78","system_id":"levelo_inurba_marseille","lat":43.30592,"lon":5.37205,"is_reserved":false,"is_disabled":false,"rental_uris":{"android":"levelo://app?vid=26dd2d29-ae2b-42db-8ac6-529a5fde5f78","ios":"levelo://app?vid=26dd2d29-ae2b-42db-8ac6-529a5fde5f78"},"vehicle_type_id":"4","last_reported":1729634920,"current_range_meters":36400,"station_id":"ce4bgqh2rcd13ifvqc4g","pricing_plan_id":"cebpf4jnsgd1na2vs0mg"},{"bike_id":"1cb83924-fa4e-469e-a9f1-5e7168b2f7d6","system_id":"levelo_inurba_marseille","lat":43.23199,"lon":5.35551,"is_reserved":false,"is_disabled":false,"rental_uris":{"android":"levelo://app?vid=1cb83924-fa4e-469e-a9f1-5e7168b2f7d6","ios":"levelo://app?vid=1cb83924-fa4e-469e-a9f1-5e7168b2f7d6"},"vehicle_type_id":"4","last_reported":1729634920,"current_range_meters":8000,"station_id":"ce4bhu92rcd13ifvqi70","pricing_plan_id":"cebpf4jnsgd1na2vs0mg"},{"bike_id":"d9118632-c9a0-41b3-ad39-341e2e25d6e7","system_id":"levelo_inurba_marseille","lat":43.3023,"lon":5.40039,"is_reserved":false,"is_disabled":false,"rental_uris":{"android":"levelo://app?vid=d9118632-c9a0-41b3-ad39-341e2e25d6e7","ios":"levelo://app?vid=d9118632-c9a0-41b3-ad39-341e2e25d6e7"},"vehicle_type_id":"4","last_reported":1729634920,"current_range_meters":35600,"station_id":"ce4bgvh2rcd13ifvqcs0","pricing_plan_id":"cebpf4jnsgd1na2vs0mg"},{"bike_id":"14cfd534-16e4-42fd-9ce8-3a01bdefbe4c","system_id":"levelo_inurba_marseille","lat":43.30638,"lon":5.4009,"is_reserved":false,"is_disabled":false,"rental_uris":{"android":"levelo://app?vid=14cfd534-16e4-42fd-9ce8-3a01bdefbe4c","ios":"levelo://app?vid=14cfd534-16e4-42fd-9ce8-3a01bdefbe4c"},"vehicle_type_id":"4","last_reported":1729634920,"current_range_meters":33200,"station_id":"ce4bh112rcd13ifvqda0","pricing_plan_id":"cebpf4jnsgd1na2vs0mg"},{"bike_id":"028d7481-b96e-4a90-a323-e8589b013233","system_id":"levelo_inurba_marseille","lat":43.27974,"lon":5.38729,"is_reserved":false,"is_disabled":false,"rental_uris":{"android":"levelo://app?vid=028d7481-b96e-4a90-a323-e8589b013233","ios":"levelo://app?vid=028d7481-b96e-4a90-a323-e8589b013233"},"vehicle_type_id":"4","last_reported":1729634920,"current_range_meters":16000,"station_id":"ce4bhg12rcd13ifvqf80","pricing_plan_id":"cebpf4jnsgd1na2vs0mg"},{"bike_id":"24422d45-7a1b-4c1d-a839-96bb4e231956","system_id":"levelo_inurba_marseille","lat":43.30881,"lon":5.39654,"is_reserved":false,"is_disabled":false,"rental_uris":{"android":"levelo://app?vid=24422d45-7a1b-4c1d-a839-96bb4e231956","ios":"levelo://app?vid=24422d45-7a1b-4c1d-a839-96bb4e231956"},"vehicle_type_id":"4","last_reported":1729634920,"current_range_meters":32800,"station_id":"ce4bh012rcd13ifvqcv0","pricing_plan_id":"cebpf4jnsgd1na2vs0mg"},{"bike_id":"46db9711-f6dd-4786-803b-84501bae3cf3","system_id":"levelo_inurba_marseille","lat":43.30639,"lon":5.4007,"is_reserved":false,"is_disabled":false,"rental_uris":{"android":"levelo://app?vid=46db9711-f6dd-4786-803b-84501bae3cf3","ios":"levelo://app?vid=46db9711-f6dd-4786-803b-84501bae3cf3"},"vehicle_type_id":"4","last_reported":1729634920,"current_range_meters":11600,"station_id":"ce4bh112rcd13ifvqda0","pricing_plan_id":"cebpf4jnsgd1na2vs0mg"},{"bike_id":"54fe60dd-2a40-4a45-b210-2a0973cbe7cb","system_id":"levelo_inurba_marseille","lat":43.265654,"lon":5.390344,"is_reserved":false,"is_disabled":false,"rental_uris":{"android":"levelo://app?vid=54fe60dd-2a40-4a45-b210-2a0973cbe7cb","ios":"levelo://app?vid=54fe60dd-2a40-4a45-b210-2a0973cbe7cb"},"vehicle_type_id":"4","last_reported":1729634920,"current_range_meters":38800,"station_id":"ce4bhe12rcd13ifvqf30","pricing_plan_id":"cebpf4jnsgd1na2vs0mg"},{"bike_id":"2f4a11a8-e8b7-4a65-bdb7-ba3b1a7225dc","system_id":"levelo_inurba_marseille","lat":43.28696,"lon":5.3998,"is_reserved":false,"is_disabled":false,"rental_uris":{"android":"levelo://app?vid=2f4a11a8-e8b7-4a65-bdb7-ba3b1a7225dc","ios":"levelo://app?vid=2f4a11a8-e8b7-4a65-bdb7-ba3b1a7225dc"},"vehicle_type_id":"4","last_reported":1729634920,"current_range_meters":6000,"station_id":"ce4bho92rcd13ifvqh3g","pricing_plan_id":"cebpf4jnsgd1na2vs0mg"},{"bike_id":"303058a0-13bc-44e6-b6c1-852a80be8e65","system_id":"levelo_inurba_marseille","lat":43.31874,"lon":5.40731,"is_reserved":false,"is_disabled":false,"rental_uris":{"android":"levelo://app?vid=303058a0-13bc-44e6-b6c1-852a80be8e65","ios":"levelo://app?vid=303058a0-13bc-44e6-b6c1-852a80be8e65"},"vehicle_type_id":"4","last_reported":1729634920,"current_range_meters":24000,"station_id":"ce4bhq12rcd13ifvqhig","pricing_plan_id":"cebpf4jnsgd1na2vs0mg"},{"bike_id":"34be8e3a-eefe-496b-810d-162ce65754e0","system_id":"levelo_inurba_marseille","lat":43.23194,"lon":5.35557,"is_reserved":false,"is_disabled":false,"rental_uris":{"android":"levelo://app?vid=34be8e3a-eefe-496b-810d-162ce65754e0","ios":"levelo://app?vid=34be8e3a-eefe-496b-810d-162ce65754e0"},"vehicle_type_id":"4","last_reported":1729634920,"current_range_meters":39200,"station_id":"ce4bhu92rcd13ifvqi70","pricing_plan_id":"cebpf4jnsgd1na2vs0mg"},{"bike_id":"6f41eea1-82b9-4f57-9729-6d5b1a182422","system_id":"levelo_inurba_marseille","lat":43.31366,"lon":5.385,"is_reserved":false,"is_disabled":false,"rental_uris":{"android":"levelo://app?vid=6f41eea1-82b9-4f57-9729-6d5b1a182422","ios":"levelo://app?vid=6f41eea1-82b9-4f57-9729-6d5b1a182422"},"vehicle_type_id":"4","last_reported":1729634920,"current_range_meters":18800,"station_id":"ce4bgt92rcd13ifvqcf0","pricing_plan_id":"cebpf4jnsgd1na2vs0mg"},{"bike_id":"90defe12-9ad0-4ed8-9049-013b77458a1d","system_id":"levelo_inurba_marseille","lat":43.29628,"lon":5.40594,"is_reserved":false,"is_disabled":false,"rental_uris":{"android":"levelo://app?vid=90defe12-9ad0-4ed8-9049-013b77458a1d","ios":"levelo://app?vid=90defe12-9ad0-4ed8-9049-013b77458a1d"},"vehicle_type_id":"4","last_reported":1729634920,"current_range_meters":23200,"station_id":"ce4bh0h2rcd13ifvqd60","pricing_plan_id":"cebpf4jnsgd1na2vs0mg"},{"bike_id":"8e40ff46-40ee-4202-a615-be27d36b4e1d","system_id":"levelo_inurba_marseille","lat":43.33722,"lon":5.39178,"is_reserved":false,"is_disabled":false,"rental_uris":{"android":"levelo://app?vid=8e40ff46-40ee-4202-a615-be27d36b4e1d","ios":"levelo://app?vid=8e40ff46-40ee-4202-a615-be27d36b4e1d"},"vehicle_type_id":"4","last_reported":1729634920,"current_range_meters":39200,"station_id":"ce4bhr92rcd13ifvqhsg","pricing_plan_id":"cebpf4jnsgd1na2vs0mg"},{"bike_id":"1cc0d4f8-3038-420c-9265-92004ed5a552","system_id":"levelo_inurba_marseille","lat":43.27917,"lon":5.39584,"is_reserved":false,"is_disabled":false,"rental_uris":{"android":"levelo://app?vid=1cc0d4f8-3038-420c-9265-92004ed5a552","ios":"levelo://app?vid=1cc0d4f8-3038-420c-9265-92004ed5a552"},"vehicle_type_id":"4","last_reported":1729634920,"current_range_meters":38800,"station_id":"ce4bhf92rcd13ifvqf40","pricing_plan_id":"cebpf4jnsgd1na2vs0mg"},{"bike_id":"cc2bf40a-c3a9-4fb3-8f4c-0570e51bda77","system_id":"levelo_inurba_marseille","lat":43.28427,"lon":5.37515,"is_reserved":false,"is_disabled":false,"rental_uris":{"android":"levelo://app?vid=cc2bf40a-c3a9-4fb3-8f4c-0570e51bda77","ios":"levelo://app?vid=cc2bf40a-c3a9-4fb3-8f4c-0570e51bda77"},"vehicle_type_id":"4","last_reported":1729634920,"current_range_meters":10800,"station_id":"ce4bh412rcd13ifvqds0","pricing_plan_id":"cebpf4jnsgd1na2vs0mg"},{"bike_id":"a8fd90e1-0f06-42a3-906b-c91cb727d214","system_id":"levelo_inurba_marseille","lat":43.2682,"lon":5.41107,"is_reserved":false,"is_disabled":false,"rental_uris":{"android":"levelo://app?vid=a8fd90e1-0f06-42a3-906b-c91cb727d214","ios":"levelo://app?vid=a8fd90e1-0f06-42a3-906b-c91cb727d214"},"vehicle_type_id":"4","last_reported":1729634920,"current_range_meters":11600,"station_id":"","pricing_plan_id":"cebpf4jnsgd1na2vs0mg"},{"bike_id":"1e4f408a-7823-4f21-aceb-d6709974f1c5","system_id":"levelo_inurba_marseille","lat":43.23189,"lon":5.35544,"is_reserved":false,"is_disabled":false,"rental_uris":{"android":"levelo://app?vid=1e4f408a-7823-4f21-aceb-d6709974f1c5","ios":"levelo://app?vid=1e4f408a-7823-4f21-aceb-d6709974f1c5"},"vehicle_type_id":"4","last_reported":1729634920,"current_range_meters":24800,"station_id":"ce4bhu92rcd13ifvqi70","pricing_plan_id":"cebpf4jnsgd1na2vs0mg"},{"bike_id":"a0749339-d409-4445-aa58-75b4673a0721","system_id":"levelo_inurba_marseille","lat":43.25575,"lon":5.38223,"is_reserved":false,"is_disabled":false,"rental_uris":{"android":"levelo://app?vid=a0749339-d409-4445-aa58-75b4673a0721","ios":"levelo://app?vid=a0749339-d409-4445-aa58-75b4673a0721"},"vehicle_type_id":"4","last_reported":1729634920,"current_range_meters":26000,"station_id":"ce4bhih2rcd13ifvqfs0","pricing_plan_id":"cebpf4jnsgd1na2vs0mg"},{"bike_id":"38023bf1-d7c3-4d9a-b34f-25f997f6c03e","system_id":"levelo_inurba_marseille","lat":43.29293,"lon":5.37458,"is_reserved":false,"is_disabled":false,"rental_uris":{"android":"levelo://app?vid=38023bf1-d7c3-4d9a-b34f-25f997f6c03e","ios":"levelo://app?vid=38023bf1-d7c3-4d9a-b34f-25f997f6c03e"},"vehicle_type_id":"4","last_reported":1729634920,"current_range_meters":38000,"station_id":"ce4bgi12rcd13ifvqb70","pricing_plan_id":"cebpf4jnsgd1na2vs0mg"},{"bike_id":"fffc7f22-100f-4747-acb5-5146d2359cf5","system_id":"levelo_inurba_marseille","lat":43.30236,"lon":5.40022,"is_reserved":false,"is_disabled":false,"rental_uris":{"android":"levelo://app?vid=fffc7f22-100f-4747-acb5-5146d2359cf5","ios":"levelo://app?vid=fffc7f22-100f-4747-acb5-5146d2359cf5"},"vehicle_type_id":"4","last_reported":1729634920,"current_range_meters":38000,"station_id":"ce4bgvh2rcd13ifvqcs0","pricing_plan_id":"cebpf4jnsgd1na2vs0mg"},{"bike_id":"2385c890-da0c-4bca-88cc-969d8e158487","system_id":"levelo_inurba_marseille","lat":43.26802,"lon":5.40259,"is_reserved":false,"is_disabled":false,"rental_uris":{"android":"levelo://app?vid=2385c890-da0c-4bca-88cc-969d8e158487","ios":"levelo://app?vid=2385c890-da0c-4bca-88cc-969d8e158487"},"vehicle_type_id":"4","last_reported":1729634920,"current_range_meters":12400,"station_id":"ce501612rcd8frsf0b60","pricing_plan_id":"cebpf4jnsgd1na2vs0mg"},{"bike_id":"29665abb-bb05-4470-bec8-a92af688bd5f","system_id":"levelo_inurba_marseille","lat":43.29553,"lon":5.42282,"is_reserved":false,"is_disabled":false,"rental_uris":{"android":"levelo://app?vid=29665abb-bb05-4470-bec8-a92af688bd5f","ios":"levelo://app?vid=29665abb-bb05-4470-bec8-a92af688bd5f"},"vehicle_type_id":"4","last_reported":1729634920,"current_range_meters":32000,"station_id":"ce4bhph2rcd13ifvqhdg","pricing_plan_id":"cebpf4jnsgd1na2vs0mg"},{"bike_id":"711bba5a-c905-4a77-a023-110968479e7a","system_id":"levelo_inurba_marseille","lat":43.286987,"lon":5.373696,"is_reserved":false,"is_disabled":false,"rental_uris":{"android":"levelo://app?vid=711bba5a-c905-4a77-a023-110968479e7a","ios":"levelo://app?vid=711bba5a-c905-4a77-a023-110968479e7a"},"vehicle_type_id":"4","last_reported":1729634920,"current_range_meters":22000,"station_id":"ce4bh3p2rcd13ifvqdq0","pricing_plan_id":"cebpf4jnsgd1na2vs0mg"},{"bike_id":"c3945b60-e38d-4106-8f18-92c7f436cc4f","system_id":"levelo_inurba_marseille","lat":43.33757,"lon":5.37448,"is_reserved":false,"is_disabled":false,"rental_uris":{"android":"levelo://app?vid=c3945b60-e38d-4106-8f18-92c7f436cc4f","ios":"levelo://app?vid=c3945b60-e38d-4106-8f18-92c7f436cc4f"},"vehicle_type_id":"4","last_reported":1729634920,"current_range_meters":30000,"station_id":"","pricing_plan_id":"cebpf4jnsgd1na2vs0mg"},{"bike_id":"c49db93e-e77c-4992-a6ab-70c099f4d8fc","system_id":"levelo_inurba_marseille","lat":43.309107,"lon":5.401444,"is_reserved":false,"is_disabled":false,"rental_uris":{"android":"levelo://app?vid=c49db93e-e77c-4992-a6ab-70c099f4d8fc","ios":"levelo://app?vid=c49db93e-e77c-4992-a6ab-70c099f4d8fc"},"vehicle_type_id":"4","last_reported":1729634920,"current_range_meters":6800,"station_id":"ce4bh0p2rcd13ifvqd70","pricing_plan_id":"cebpf4jnsgd1na2vs0mg"},{"bike_id":"38c7d2f0-6a74-4bb5-8e4f-a06f32ddcf78","system_id":"levelo_inurba_marseille","lat":43.27376,"lon":5.36257,"is_reserved":false,"is_disabled":false,"rental_uris":{"android":"levelo://app?vid=38c7d2f0-6a74-4bb5-8e4f-a06f32ddcf78","ios":"levelo://app?vid=38c7d2f0-6a74-4bb5-8e4f-a06f32ddcf78"},"vehicle_type_id":"4","last_reported":1729634920,"current_range_meters":3600,"station_id":"ce4bhbh2rcd13ifvqeo0","pricing_plan_id":"cebpf4jnsgd1na2vs0mg"},{"bike_id":"054f98d4-2683-4ee1-9d6b-9b0b8ce093a8","system_id":"levelo_inurba_marseille","lat":43.24534,"lon":5.39519,"is_reserved":false,"is_disabled":false,"rental_uris":{"android":"levelo://app?vid=054f98d4-2683-4ee1-9d6b-9b0b8ce093a8","ios":"levelo://app?vid=054f98d4-2683-4ee1-9d6b-9b0b8ce093a8"},"vehicle_type_id":"4","last_reported":1729634920,"current_range_meters":38800,"station_id":"ce4bhlp2rcd13ifvqgjg","pricing_plan_id":"cebpf4jnsgd1na2vs0mg"},{"bike_id":"4945172e-8034-4b20-913b-2f61370aa75f","system_id":"levelo_inurba_marseille","lat":43.29569,"lon":5.39968,"is_reserved":false,"is_disabled":false,"rental_uris":{"android":"levelo://app?vid=4945172e-8034-4b20-913b-2f61370aa75f","ios":"levelo://app?vid=4945172e-8034-4b20-913b-2f61370aa75f"},"vehicle_type_id":"4","last_reported":1729634920,"current_range_meters":38000,"station_id":"ce4bh312rcd13ifvqdj0","pricing_plan_id":"cebpf4jnsgd1na2vs0mg"},{"bike_id":"5304e6d2-a025-4504-9ff2-0054277e008d","system_id":"levelo_inurba_marseille","lat":43.27366,"lon":5.36253,"is_reserved":false,"is_disabled":false,"rental_uris":{"android":"levelo://app?vid=5304e6d2-a025-4504-9ff2-0054277e008d","ios":"levelo://app?vid=5304e6d2-a025-4504-9ff2-0054277e008d"},"vehicle_type_id":"4","last_reported":1729634920,"current_range_meters":36000,"station_id":"ce4bhbh2rcd13ifvqeo0","pricing_plan_id":"cebpf4jnsgd1na2vs0mg"},{"bike_id":"34d855a5-1402-4b60-b905-811afaefba61","system_id":"levelo_inurba_marseille","lat":43.29823,"lon":5.36238,"is_reserved":false,"is_disabled":false,"rental_uris":{"android":"levelo://app?vid=34d855a5-1402-4b60-b905-811afaefba61","ios":"levelo://app?vid=34d855a5-1402-4b60-b905-811afaefba61"},"vehicle_type_id":"4","last_reported":1729634920,"current_range_meters":36800,"station_id":"ce4bgpp2rcd13ifvqc3g","pricing_plan_id":"cebpf4jnsgd1na2vs0mg"},{"bike_id":"1135af4d-b7d7-4190-b0cb-6113c69ae2ea","system_id":"levelo_inurba_marseille","lat":43.27374,"lon":5.36248,"is_reserved":false,"is_disabled":false,"rental_uris":{"android":"levelo://app?vid=1135af4d-b7d7-4190-b0cb-6113c69ae2ea","ios":"levelo://app?vid=1135af4d-b7d7-4190-b0cb-6113c69ae2ea"},"vehicle_type_id":"4","last_reported":1729634920,"current_range_meters":39200,"station_id":"ce4bhbh2rcd13ifvqeo0","pricing_plan_id":"cebpf4jnsgd1na2vs0mg"},{"bike_id":"3af337b1-4096-493c-9221-0107a2ba6d39","system_id":"levelo_inurba_marseille","lat":43.31164,"lon":5.3872,"is_reserved":false,"is_disabled":false,"rental_uris":{"android":"levelo://app?vid=3af337b1-4096-493c-9221-0107a2ba6d39","ios":"levelo://app?vid=3af337b1-4096-493c-9221-0107a2ba6d39"},"vehicle_type_id":"4","last_reported":1729634920,"current_range_meters":31200,"station_id":"ce4bgv12rcd13ifvqcp0","pricing_plan_id":"cebpf4jnsgd1na2vs0mg"},{"bike_id":"6b1ecc0c-056f-4212-8517-100734512bbc","system_id":"levelo_inurba_marseille","lat":43.29968,"lon":5.37169,"is_reserved":false,"is_disabled":false,"rental_uris":{"android":"levelo://app?vid=6b1ecc0c-056f-4212-8517-100734512bbc","ios":"levelo://app?vid=6b1ecc0c-056f-4212-8517-100734512bbc"},"vehicle_type_id":"4","last_reported":1729634920,"current_range_meters":38800,"station_id":"ce4bgr92rcd13ifvqc7g","pricing_plan_id":"cebpf4jnsgd1na2vs0mg"},{"bike_id":"81d97d25-6b95-4a79-9a7f-f6f9ad475c13","system_id":"levelo_inurba_marseille","lat":43.28454,"lon":5.35885,"is_reserved":false,"is_disabled":false,"rental_uris":{"android":"levelo://app?vid=81d97d25-6b95-4a79-9a7f-f6f9ad475c13","ios":"levelo://app?vid=81d97d25-6b95-4a79-9a7f-f6f9ad475c13"},"vehicle_type_id":"4","last_reported":1729634920,"current_range_meters":38000,"station_id":"ce4bhah2rcd13ifvqei0","pricing_plan_id":"cebpf4jnsgd1na2vs0mg"},{"bike_id":"06133ffa-30bf-4295-8e86-a7666d88ed19","system_id":"levelo_inurba_marseille","lat":43.30121,"lon":5.39857,"is_reserved":false,"is_disabled":false,"rental_uris":{"android":"levelo://app?vid=06133ffa-30bf-4295-8e86-a7666d88ed19","ios":"levelo://app?vid=06133ffa-30bf-4295-8e86-a7666d88ed19"},"vehicle_type_id":"4","last_reported":1729634920,"current_range_meters":38400,"station_id":"ce4bh0h2rcd13ifvqd40","pricing_plan_id":"cebpf4jnsgd1na2vs0mg"},{"bike_id":"8f34dca2-e523-475a-85e5-be2164d16e3c","system_id":"levelo_inurba_marseille","lat":43.28107,"lon":5.37832,"is_reserved":false,"is_disabled":false,"rental_uris":{"android":"levelo://app?vid=8f34dca2-e523-475a-85e5-be2164d16e3c","ios":"levelo://app?vid=8f34dca2-e523-475a-85e5-be2164d16e3c"},"vehicle_type_id":"4","last_reported":1729634920,"current_range_meters":38800,"station_id":"ce4bha12rcd13ifvqee0","pricing_plan_id":"cebpf4jnsgd1na2vs0mg"},{"bike_id":"f15c7b2e-2f5a-4c38-8166-9501d32f99b8","system_id":"levelo_inurba_marseille","lat":43.27605,"lon":5.36113,"is_reserved":false,"is_disabled":false,"rental_uris":{"android":"levelo://app?vid=f15c7b2e-2f5a-4c38-8166-9501d32f99b8","ios":"levelo://app?vid=f15c7b2e-2f5a-4c38-8166-9501d32f99b8"},"vehicle_type_id":"4","last_reported":1729634920,"current_range_meters":19600,"station_id":"ce4bgj92rcd13ifvqbe0","pricing_plan_id":"cebpf4jnsgd1na2vs0mg"},{"bike_id":"78118cc0-b013-4f91-a854-b7081797eb11","system_id":"levelo_inurba_marseille","lat":43.29633,"lon":5.40594,"is_reserved":false,"is_disabled":false,"rental_uris":{"android":"levelo://app?vid=78118cc0-b013-4f91-a854-b7081797eb11","ios":"levelo://app?vid=78118cc0-b013-4f91-a854-b7081797eb11"},"vehicle_type_id":"4","last_reported":1729634920,"current_range_meters":16000,"station_id":"ce4bh0h2rcd13ifvqd60","pricing_plan_id":"cebpf4jnsgd1na2vs0mg"},{"bike_id":"78dd845c-fc34-4928-9892-3ff12866b800","system_id":"levelo_inurba_marseille","lat":43.31724,"lon":5.40459,"is_reserved":false,"is_disabled":false,"rental_uris":{"android":"levelo://app?vid=78dd845c-fc34-4928-9892-3ff12866b800","ios":"levelo://app?vid=78dd845c-fc34-4928-9892-3ff12866b800"},"vehicle_type_id":"4","last_reported":1729634920,"current_range_meters":29600,"station_id":"ce4bh012rcd13ifvqd00","pricing_plan_id":"cebpf4jnsgd1na2vs0mg"},{"bike_id":"ff191f8d-80e9-4263-a7da-f7c1877b0429","system_id":"levelo_inurba_marseille","lat":43.2904,"lon":5.39945,"is_reserved":false,"is_disabled":false,"rental_uris":{"android":"levelo://app?vid=ff191f8d-80e9-4263-a7da-f7c1877b0429","ios":"levelo://app?vid=ff191f8d-80e9-4263-a7da-f7c1877b0429"},"vehicle_type_id":"4","last_reported":1729634920,"current_range_meters":33200,"station_id":"ce4bh392rcd13ifvqdm0","pricing_plan_id":"cebpf4jnsgd1na2vs0mg"},{"bike_id":"8f597326-b58b-49c5-9c76-b746910bf8ca","system_id":"levelo_inurba_marseille","lat":43.28634,"lon":5.40431,"is_reserved":false,"is_disabled":false,"rental_uris":{"android":"levelo://app?vid=8f597326-b58b-49c5-9c76-b746910bf8ca","ios":"levelo://app?vid=8f597326-b58b-49c5-9c76-b746910bf8ca"},"vehicle_type_id":"4","last_reported":1729634920,"current_range_meters":6400,"station_id":"","pricing_plan_id":"cebpf4jnsgd1na2vs0mg"},{"bike_id":"4a7abcc4-a1fa-417b-8ffa-a28e55985c43","system_id":"levelo_inurba_marseille","lat":43.24073,"lon":5.37752,"is_reserved":false,"is_disabled":false,"rental_uris":{"android":"levelo://app?vid=4a7abcc4-a1fa-417b-8ffa-a28e55985c43","ios":"levelo://app?vid=4a7abcc4-a1fa-417b-8ffa-a28e55985c43"},"vehicle_type_id":"4","last_reported":1729634920,"current_range_meters":38800,"station_id":"ce4bhnp2rcd13ifvqgvg","pricing_plan_id":"cebpf4jnsgd1na2vs0mg"},{"bike_id":"cdba8dd9-10d6-4358-97ce-fe5c3999d55d","system_id":"levelo_inurba_marseille","lat":43.3035,"lon":5.41872,"is_reserved":false,"is_disabled":false,"rental_uris":{"android":"levelo://app?vid=cdba8dd9-10d6-4358-97ce-fe5c3999d55d","ios":"levelo://app?vid=cdba8dd9-10d6-4358-97ce-fe5c3999d55d"},"vehicle_type_id":"4","last_reported":1729634920,"current_range_meters":39200,"station_id":"ce4bhop2rcd13ifvqh7g","pricing_plan_id":"cebpf4jnsgd1na2vs0mg"},{"bike_id":"fd57e210-0cdc-4006-846d-96114f8f6035","system_id":"levelo_inurba_marseille","lat":43.26564,"lon":5.38995,"is_reserved":false,"is_disabled":false,"rental_uris":{"android":"levelo://app?vid=fd57e210-0cdc-4006-846d-96114f8f6035","ios":"levelo://app?vid=fd57e210-0cdc-4006-846d-96114f8f6035"},"vehicle_type_id":"4","last_reported":1729634920,"current_range_meters":16800,"station_id":"ce4bhe12rcd13ifvqf30","pricing_plan_id":"cebpf4jnsgd1na2vs0mg"},{"bike_id":"70b63f5a-0b57-488d-a520-164feb1eb8de","system_id":"levelo_inurba_marseille","lat":43.29794,"lon":5.40404,"is_reserved":false,"is_disabled":false,"rental_uris":{"android":"levelo://app?vid=70b63f5a-0b57-488d-a520-164feb1eb8de","ios":"levelo://app?vid=70b63f5a-0b57-488d-a520-164feb1eb8de"},"vehicle_type_id":"4","last_reported":1729634920,"current_range_meters":39200,"station_id":"ce4bh112rcd13ifvqd90","pricing_plan_id":"cebpf4jnsgd1na2vs0mg"},{"bike_id":"af39c80e-bebc-45d4-b1ab-aa2ef6cf1545","system_id":"levelo_inurba_marseille","lat":43.30876,"lon":5.39634,"is_reserved":false,"is_disabled":false,"rental_uris":{"android":"levelo://app?vid=af39c80e-bebc-45d4-b1ab-aa2ef6cf1545","ios":"levelo://app?vid=af39c80e-bebc-45d4-b1ab-aa2ef6cf1545"},"vehicle_type_id":"4","last_reported":1729634920,"current_range_meters":24800,"station_id":"ce4bh012rcd13ifvqcv0","pricing_plan_id":"cebpf4jnsgd1na2vs0mg"},{"bike_id":"0c8f5239-515f-446b-bbb1-16b6bc17d341","system_id":"levelo_inurba_marseille","lat":43.29799,"lon":5.40402,"is_reserved":false,"is_disabled":false,"rental_uris":{"android":"levelo://app?vid=0c8f5239-515f-446b-bbb1-16b6bc17d341","ios":"levelo://app?vid=0c8f5239-515f-446b-bbb1-16b6bc17d341"},"vehicle_type_id":"4","last_reported":1729634920,"current_range_meters":39200,"station_id":"ce4bh112rcd13ifvqd90","pricing_plan_id":"cebpf4jnsgd1na2vs0mg"},{"bike_id":"31048178-3d90-4915-a347-3344f65390b5","system_id":"levelo_inurba_marseille","lat":43.31327,"lon":5.39694,"is_reserved":false,"is_disabled":false,"rental_uris":{"android":"levelo://app?vid=31048178-3d90-4915-a347-3344f65390b5","ios":"levelo://app?vid=31048178-3d90-4915-a347-3344f65390b5"},"vehicle_type_id":"4","last_reported":1729634920,"current_range_meters":12400,"station_id":"ce4bgvp2rcd13ifvqcu0","pricing_plan_id":"cebpf4jnsgd1na2vs0mg"},{"bike_id":"f8c9153a-d6b1-44f0-8fca-47821217ff1c","system_id":"levelo_inurba_marseille","lat":43.26568,"lon":5.39009,"is_reserved":false,"is_disabled":false,"rental_uris":{"android":"levelo://app?vid=f8c9153a-d6b1-44f0-8fca-47821217ff1c","ios":"levelo://app?vid=f8c9153a-d6b1-44f0-8fca-47821217ff1c"},"vehicle_type_id":"4","last_reported":1729634920,"current_range_meters":30400,"station_id":"ce4bhe12rcd13ifvqf30","pricing_plan_id":"cebpf4jnsgd1na2vs0mg"},{"bike_id":"6f3c99f6-25c2-4dd4-ba80-ca7e8e0ba65e","system_id":"levelo_inurba_marseille","lat":43.28155,"lon":5.42645,"is_reserved":false,"is_disabled":false,"rental_uris":{"android":"levelo://app?vid=6f3c99f6-25c2-4dd4-ba80-ca7e8e0ba65e","ios":"levelo://app?vid=6f3c99f6-25c2-4dd4-ba80-ca7e8e0ba65e"},"vehicle_type_id":"4","last_reported":1729634920,"current_range_meters":9600,"station_id":"ce4bhnh2rcd13ifvqgug","pricing_plan_id":"cebpf4jnsgd1na2vs0mg"},{"bike_id":"ad760254-cc3c-4e2c-9420-2ef8e0d6528d","system_id":"levelo_inurba_marseille","lat":43.32654,"lon":5.40993,"is_reserved":false,"is_disabled":false,"rental_uris":{"android":"levelo://app?vid=ad760254-cc3c-4e2c-9420-2ef8e0d6528d","ios":"levelo://app?vid=ad760254-cc3c-4e2c-9420-2ef8e0d6528d"},"vehicle_type_id":"4","last_reported":1729634920,"current_range_meters":16800,"station_id":"ce4bhpp2rcd13ifvqhgg","pricing_plan_id":"cebpf4jnsgd1na2vs0mg"},{"bike_id":"7eea69e6-b0fb-4418-96c3-c79bee569fa9","system_id":"levelo_inurba_marseille","lat":43.304016,"lon":5.387305,"is_reserved":false,"is_disabled":false,"rental_uris":{"android":"levelo://app?vid=7eea69e6-b0fb-4418-96c3-c79bee569fa9","ios":"levelo://app?vid=7eea69e6-b0fb-4418-96c3-c79bee569fa9"},"vehicle_type_id":"4","last_reported":1729634920,"current_range_meters":17200,"station_id":"ce4bgk12rcd13ifvqbi0","pricing_plan_id":"cebpf4jnsgd1na2vs0mg"},{"bike_id":"01678755-0ad9-4bb7-8723-5a8d7c4420fc","system_id":"levelo_inurba_marseille","lat":43.28048,"lon":5.40981,"is_reserved":false,"is_disabled":false,"rental_uris":{"android":"levelo://app?vid=01678755-0ad9-4bb7-8723-5a8d7c4420fc","ios":"levelo://app?vid=01678755-0ad9-4bb7-8723-5a8d7c4420fc"},"vehicle_type_id":"4","last_reported":1729634920,"current_range_meters":18800,"station_id":"","pricing_plan_id":"cebpf4jnsgd1na2vs0mg"},{"bike_id":"4a17de49-0eb0-4f62-b4f3-5313bdc17ba8","system_id":"levelo_inurba_marseille","lat":43.30632,"lon":5.40076,"is_reserved":false,"is_disabled":false,"rental_uris":{"android":"levelo://app?vid=4a17de49-0eb0-4f62-b4f3-5313bdc17ba8","ios":"levelo://app?vid=4a17de49-0eb0-4f62-b4f3-5313bdc17ba8"},"vehicle_type_id":"4","last_reported":1729634920,"current_range_meters":29600,"station_id":"ce4bh112rcd13ifvqda0","pricing_plan_id":"cebpf4jnsgd1na2vs0mg"},{"bike_id":"3dee495a-7a37-40c3-9d5a-0edc49499f73","system_id":"levelo_inurba_marseille","lat":43.27905,"lon":5.38001,"is_reserved":false,"is_disabled":false,"rental_uris":{"android":"levelo://app?vid=3dee495a-7a37-40c3-9d5a-0edc49499f73","ios":"levelo://app?vid=3dee495a-7a37-40c3-9d5a-0edc49499f73"},"vehicle_type_id":"4","last_reported":1729634920,"current_range_meters":28400,"station_id":"ce4bhf92rcd13ifvqf50","pricing_plan_id":"cebpf4jnsgd1na2vs0mg"},{"bike_id":"0d66885d-85c4-4297-beb3-a0057b8663cf","system_id":"levelo_inurba_marseille","lat":43.2439,"lon":5.3706,"is_reserved":false,"is_disabled":false,"rental_uris":{"android":"levelo://app?vid=0d66885d-85c4-4297-beb3-a0057b8663cf","ios":"levelo://app?vid=0d66885d-85c4-4297-beb3-a0057b8663cf"},"vehicle_type_id":"4","last_reported":1729634920,"current_range_meters":32000,"station_id":"ce4bhhh2rcd13ifvqfk0","pricing_plan_id":"cebpf4jnsgd1na2vs0mg"},{"bike_id":"e68074ff-f5e2-424b-ac9b-aa2b95174368","system_id":"levelo_inurba_marseille","lat":43.28163,"lon":5.42648,"is_reserved":false,"is_disabled":false,"rental_uris":{"android":"levelo://app?vid=e68074ff-f5e2-424b-ac9b-aa2b95174368","ios":"levelo://app?vid=e68074ff-f5e2-424b-ac9b-aa2b95174368"},"vehicle_type_id":"4","last_reported":1729634920,"current_range_meters":28800,"station_id":"ce4bhnh2rcd13ifvqgug","pricing_plan_id":"cebpf4jnsgd1na2vs0mg"},{"bike_id":"735a2476-fda6-486b-84ef-88a4c55ff9ea","system_id":"levelo_inurba_marseille","lat":43.28665,"lon":5.36355,"is_reserved":false,"is_disabled":false,"rental_uris":{"android":"levelo://app?vid=735a2476-fda6-486b-84ef-88a4c55ff9ea","ios":"levelo://app?vid=735a2476-fda6-486b-84ef-88a4c55ff9ea"},"vehicle_type_id":"4","last_reported":1729634920,"current_range_meters":19200,"station_id":"ce4bhah2rcd13ifvqej0","pricing_plan_id":"cebpf4jnsgd1na2vs0mg"},{"bike_id":"815dd284-1bd2-4bb9-992a-b2116e2485bc","system_id":"levelo_inurba_marseille","lat":43.32888,"lon":5.36419,"is_reserved":false,"is_disabled":false,"rental_uris":{"android":"levelo://app?vid=815dd284-1bd2-4bb9-992a-b2116e2485bc","ios":"levelo://app?vid=815dd284-1bd2-4bb9-992a-b2116e2485bc"},"vehicle_type_id":"4","last_reported":1729634920,"current_range_meters":32000,"station_id":"","pricing_plan_id":"cebpf4jnsgd1na2vs0mg"},{"bike_id":"9ff64a80-fbeb-434b-b02d-660129a509df","system_id":"levelo_inurba_marseille","lat":43.284135,"lon":5.375196,"is_reserved":false,"is_disabled":false,"rental_uris":{"android":"levelo://app?vid=9ff64a80-fbeb-434b-b02d-660129a509df","ios":"levelo://app?vid=9ff64a80-fbeb-434b-b02d-660129a509df"},"vehicle_type_id":"4","last_reported":1729634920,"current_range_meters":22400,"station_id":"ce4bh412rcd13ifvqds0","pricing_plan_id":"cebpf4jnsgd1na2vs0mg"},{"bike_id":"85fcb096-91bf-49f7-88c6-520950e6dac7","system_id":"levelo_inurba_marseille","lat":43.26942,"lon":5.40246,"is_reserved":false,"is_disabled":false,"rental_uris":{"android":"levelo://app?vid=85fcb096-91bf-49f7-88c6-520950e6dac7","ios":"levelo://app?vid=85fcb096-91bf-49f7-88c6-520950e6dac7"},"vehicle_type_id":"4","last_reported":1729634920,"current_range_meters":17200,"station_id":"cjm6bp8fraef2m0cb0m0","pricing_plan_id":"cebpf4jnsgd1na2vs0mg"},{"bike_id":"70f5c988-d736-45a0-9b49-4ca642435bb6","system_id":"levelo_inurba_marseille","lat":43.24165,"lon":5.36397,"is_reserved":false,"is_disabled":false,"rental_uris":{"android":"levelo://app?vid=70f5c988-d736-45a0-9b49-4ca642435bb6","ios":"levelo://app?vid=70f5c988-d736-45a0-9b49-4ca642435bb6"},"vehicle_type_id":"4","last_reported":1729634920,"current_range_meters":16400,"station_id":"cpo36qri1sfpv3e86is0","pricing_plan_id":"cebpf4jnsgd1na2vs0mg"},{"bike_id":"a0545925-3b6d-4434-845b-340010e89217","system_id":"levelo_inurba_marseille","lat":43.3302,"lon":5.39042,"is_reserved":false,"is_disabled":false,"rental_uris":{"android":"levelo://app?vid=a0545925-3b6d-4434-845b-340010e89217","ios":"levelo://app?vid=a0545925-3b6d-4434-845b-340010e89217"},"vehicle_type_id":"4","last_reported":1729634920,"current_range_meters":32000,"station_id":"ce4bhr92rcd13ifvqhrg","pricing_plan_id":"cebpf4jnsgd1na2vs0mg"},{"bike_id":"e73e05a1-baf5-4094-a2cc-7a8ffddce3cf","system_id":"levelo_inurba_marseille","lat":43.28982,"lon":5.3782,"is_reserved":false,"is_disabled":false,"rental_uris":{"android":"levelo://app?vid=e73e05a1-baf5-4094-a2cc-7a8ffddce3cf","ios":"levelo://app?vid=e73e05a1-baf5-4094-a2cc-7a8ffddce3cf"},"vehicle_type_id":"4","last_reported":1729634920,"current_range_meters":24400,"station_id":"ce4bh9p2rcd13ifvqed0","pricing_plan_id":"cebpf4jnsgd1na2vs0mg"},{"bike_id":"336ef542-48c3-42b7-a62f-e3614fdd507a","system_id":"levelo_inurba_marseille","lat":43.29232,"lon":5.40919,"is_reserved":false,"is_disabled":false,"rental_uris":{"android":"levelo://app?vid=336ef542-48c3-42b7-a62f-e3614fdd507a","ios":"levelo://app?vid=336ef542-48c3-42b7-a62f-e3614fdd507a"},"vehicle_type_id":"4","last_reported":1729634920,"current_range_meters":11600,"station_id":"ce4bh192rcd13ifvqdc0","pricing_plan_id":"cebpf4jnsgd1na2vs0mg"},{"bike_id":"ce26414e-cf4f-4228-969f-0f32a95f8de8","system_id":"levelo_inurba_marseille","lat":43.28033,"lon":5.34968,"is_reserved":false,"is_disabled":false,"rental_uris":{"android":"levelo://app?vid=ce26414e-cf4f-4228-969f-0f32a95f8de8","ios":"levelo://app?vid=ce26414e-cf4f-4228-969f-0f32a95f8de8"},"vehicle_type_id":"4","last_reported":1729634920,"current_range_meters":24800,"station_id":"","pricing_plan_id":"cebpf4jnsgd1na2vs0mg"},{"bike_id":"fb75c1a8-45fb-423e-b89b-b2d7ce0691d7","system_id":"levelo_inurba_marseille","lat":43.24546,"lon":5.39531,"is_reserved":false,"is_disabled":false,"rental_uris":{"android":"levelo://app?vid=fb75c1a8-45fb-423e-b89b-b2d7ce0691d7","ios":"levelo://app?vid=fb75c1a8-45fb-423e-b89b-b2d7ce0691d7"},"vehicle_type_id":"4","last_reported":1729634920,"current_range_meters":38800,"station_id":"ce4bhlp2rcd13ifvqgjg","pricing_plan_id":"cebpf4jnsgd1na2vs0mg"},{"bike_id":"1f5225ff-712e-43f5-8f26-d843b481d55d","system_id":"levelo_inurba_marseille","lat":43.26804,"lon":5.40269,"is_reserved":false,"is_disabled":false,"rental_uris":{"android":"levelo://app?vid=1f5225ff-712e-43f5-8f26-d843b481d55d","ios":"levelo://app?vid=1f5225ff-712e-43f5-8f26-d843b481d55d"},"vehicle_type_id":"4","last_reported":1729634920,"current_range_meters":37600,"station_id":"ce501612rcd8frsf0b60","pricing_plan_id":"cebpf4jnsgd1na2vs0mg"},{"bike_id":"a51006fb-4b95-4d82-bb68-9982e6d06ee1","system_id":"levelo_inurba_marseille","lat":43.29977,"lon":5.37186,"is_reserved":false,"is_disabled":false,"rental_uris":{"android":"levelo://app?vid=a51006fb-4b95-4d82-bb68-9982e6d06ee1","ios":"levelo://app?vid=a51006fb-4b95-4d82-bb68-9982e6d06ee1"},"vehicle_type_id":"4","last_reported":1729634920,"current_range_meters":38400,"station_id":"ce4bgr92rcd13ifvqc7g","pricing_plan_id":"cebpf4jnsgd1na2vs0mg"},{"bike_id":"50e58960-f82b-418a-b205-78b23cc6fe8b","system_id":"levelo_inurba_marseille","lat":43.31166,"lon":5.3871,"is_reserved":false,"is_disabled":false,"rental_uris":{"android":"levelo://app?vid=50e58960-f82b-418a-b205-78b23cc6fe8b","ios":"levelo://app?vid=50e58960-f82b-418a-b205-78b23cc6fe8b"},"vehicle_type_id":"4","last_reported":1729634920,"current_range_meters":24400,"station_id":"ce4bgv12rcd13ifvqcp0","pricing_plan_id":"cebpf4jnsgd1na2vs0mg"},{"bike_id":"eef83462-dd52-4fd3-a7c3-003ddd40fa75","system_id":"levelo_inurba_marseille","lat":43.25726,"lon":5.41107,"is_reserved":false,"is_disabled":false,"rental_uris":{"android":"levelo://app?vid=eef83462-dd52-4fd3-a7c3-003ddd40fa75","ios":"levelo://app?vid=eef83462-dd52-4fd3-a7c3-003ddd40fa75"},"vehicle_type_id":"4","last_reported":1729634920,"current_range_meters":9600,"station_id":"ce4bhkp2rcd13ifvqgd0","pricing_plan_id":"cebpf4jnsgd1na2vs0mg"},{"bike_id":"4b2bc1ee-4607-4555-af37-f3cf02d8c80d","system_id":"levelo_inurba_marseille","lat":43.30951,"lon":5.39053,"is_reserved":false,"is_disabled":false,"rental_uris":{"android":"levelo://app?vid=4b2bc1ee-4607-4555-af37-f3cf02d8c80d","ios":"levelo://app?vid=4b2bc1ee-4607-4555-af37-f3cf02d8c80d"},"vehicle_type_id":"4","last_reported":1729634920,"current_range_meters":30000,"station_id":"ce4bgup2rcd13ifvqco0","pricing_plan_id":"cebpf4jnsgd1na2vs0mg"},{"bike_id":"17420948-b265-44c0-a789-fd2c350a970b","system_id":"levelo_inurba_marseille","lat":43.26678,"lon":5.38266,"is_reserved":false,"is_disabled":false,"rental_uris":{"android":"levelo://app?vid=17420948-b265-44c0-a789-fd2c350a970b","ios":"levelo://app?vid=17420948-b265-44c0-a789-fd2c350a970b"},"vehicle_type_id":"4","last_reported":1729634920,"current_range_meters":39200,"station_id":"ce4bhg92rcd13ifvqf90","pricing_plan_id":"cebpf4jnsgd1na2vs0mg"},{"bike_id":"18eed99c-266e-45f5-8dfd-4901bf1bc11e","system_id":"levelo_inurba_marseille","lat":43.31326,"lon":5.3969,"is_reserved":false,"is_disabled":false,"rental_uris":{"android":"levelo://app?vid=18eed99c-266e-45f5-8dfd-4901bf1bc11e","ios":"levelo://app?vid=18eed99c-266e-45f5-8dfd-4901bf1bc11e"},"vehicle_type_id":"4","last_reported":1729634920,"current_range_meters":12000,"station_id":"ce4bgvp2rcd13ifvqcu0","pricing_plan_id":"cebpf4jnsgd1na2vs0mg"},{"bike_id":"6fbd6335-d27c-478e-8240-0b255a553481","system_id":"levelo_inurba_marseille","lat":43.31332,"lon":5.39702,"is_reserved":false,"is_disabled":false,"rental_uris":{"android":"levelo://app?vid=6fbd6335-d27c-478e-8240-0b255a553481","ios":"levelo://app?vid=6fbd6335-d27c-478e-8240-0b255a553481"},"vehicle_type_id":"4","last_reported":1729634920,"current_range_meters":39200,"station_id":"ce4bgvp2rcd13ifvqcu0","pricing_plan_id":"cebpf4jnsgd1na2vs0mg"},{"bike_id":"3c18da75-067c-4d59-8574-d9e83f4b8bc5","system_id":"levelo_inurba_marseille","lat":43.29252,"lon":5.40911,"is_reserved":false,"is_disabled":false,"rental_uris":{"android":"levelo://app?vid=3c18da75-067c-4d59-8574-d9e83f4b8bc5","ios":"levelo://app?vid=3c18da75-067c-4d59-8574-d9e83f4b8bc5"},"vehicle_type_id":"4","last_reported":1729634920,"current_range_meters":38800,"station_id":"ce4bh192rcd13ifvqdc0","pricing_plan_id":"cebpf4jnsgd1na2vs0mg"},{"bike_id":"22fc431c-b57c-465f-994e-166d81585d45","system_id":"levelo_inurba_marseille","lat":43.2396,"lon":5.36633,"is_reserved":false,"is_disabled":false,"rental_uris":{"android":"levelo://app?vid=22fc431c-b57c-465f-994e-166d81585d45","ios":"levelo://app?vid=22fc431c-b57c-465f-994e-166d81585d45"},"vehicle_type_id":"4","last_reported":1729634920,"current_range_meters":38800,"station_id":"ce4bhi12rcd13ifvqfp0","pricing_plan_id":"cebpf4jnsgd1na2vs0mg"},{"bike_id":"7d7f9e8e-0f42-4f3b-9817-c0f0203311ea","system_id":"levelo_inurba_marseille","lat":43.30784,"lon":5.38156,"is_reserved":false,"is_disabled":false,"rental_uris":{"android":"levelo://app?vid=7d7f9e8e-0f42-4f3b-9817-c0f0203311ea","ios":"levelo://app?vid=7d7f9e8e-0f42-4f3b-9817-c0f0203311ea"},"vehicle_type_id":"4","last_reported":1729634920,"current_range_meters":38800,"station_id":"","pricing_plan_id":"cebpf4jnsgd1na2vs0mg"},{"bike_id":"0290ab5a-42d3-4476-9fc4-3caaf6899b72","system_id":"levelo_inurba_marseille","lat":43.298742,"lon":5.39736,"is_reserved":false,"is_disabled":false,"rental_uris":{"android":"levelo://app?vid=0290ab5a-42d3-4476-9fc4-3caaf6899b72","ios":"levelo://app?vid=0290ab5a-42d3-4476-9fc4-3caaf6899b72"},"vehicle_type_id":"4","last_reported":1729634920,"current_range_meters":30400,"station_id":"ce4bh0h2rcd13ifvqd50","pricing_plan_id":"cebpf4jnsgd1na2vs0mg"},{"bike_id":"f801a972-c648-424a-a7e1-9d8a4bf001b1","system_id":"levelo_inurba_marseille","lat":43.28031,"lon":5.36942,"is_reserved":false,"is_disabled":false,"rental_uris":{"android":"levelo://app?vid=f801a972-c648-424a-a7e1-9d8a4bf001b1","ios":"levelo://app?vid=f801a972-c648-424a-a7e1-9d8a4bf001b1"},"vehicle_type_id":"4","last_reported":1729634920,"current_range_meters":37600,"station_id":"ce4bha12rcd13ifvqef0","pricing_plan_id":"cebpf4jnsgd1na2vs0mg"},{"bike_id":"b4c17c83-feb2-4320-b8f2-f428bac7a5ec","system_id":"levelo_inurba_marseille","lat":43.31361,"lon":5.38491,"is_reserved":false,"is_disabled":false,"rental_uris":{"android":"levelo://app?vid=b4c17c83-feb2-4320-b8f2-f428bac7a5ec","ios":"levelo://app?vid=b4c17c83-feb2-4320-b8f2-f428bac7a5ec"},"vehicle_type_id":"4","last_reported":1729634920,"current_range_meters":38400,"station_id":"ce4bgt92rcd13ifvqcf0","pricing_plan_id":"cebpf4jnsgd1na2vs0mg"},{"bike_id":"83dd2c6b-679c-4f62-a311-51f14c6cd316","system_id":"levelo_inurba_marseille","lat":43.28656,"lon":5.36345,"is_reserved":false,"is_disabled":false,"rental_uris":{"android":"levelo://app?vid=83dd2c6b-679c-4f62-a311-51f14c6cd316","ios":"levelo://app?vid=83dd2c6b-679c-4f62-a311-51f14c6cd316"},"vehicle_type_id":"4","last_reported":1729634920,"current_range_meters":24800,"station_id":"ce4bhah2rcd13ifvqej0","pricing_plan_id":"cebpf4jnsgd1na2vs0mg"},{"bike_id":"2cdf5722-0992-422b-b8c9-f0bdbeea1331","system_id":"levelo_inurba_marseille","lat":43.27062,"lon":5.42273,"is_reserved":false,"is_disabled":false,"rental_uris":{"android":"levelo://app?vid=2cdf5722-0992-422b-b8c9-f0bdbeea1331","ios":"levelo://app?vid=2cdf5722-0992-422b-b8c9-f0bdbeea1331"},"vehicle_type_id":"4","last_reported":1729634920,"current_range_meters":38400,"station_id":"ce4bhk92rcd13ifvqgb0","pricing_plan_id":"cebpf4jnsgd1na2vs0mg"},{"bike_id":"4072c5dd-fe83-46da-877b-3505b0b7a367","system_id":"levelo_inurba_marseille","lat":43.28078,"lon":5.39632,"is_reserved":false,"is_disabled":false,"rental_uris":{"android":"levelo://app?vid=4072c5dd-fe83-46da-877b-3505b0b7a367","ios":"levelo://app?vid=4072c5dd-fe83-46da-877b-3505b0b7a367"},"vehicle_type_id":"4","last_reported":1729634920,"current_range_meters":38800,"station_id":"ce4bho12rcd13ifvqh2g","pricing_plan_id":"cebpf4jnsgd1na2vs0mg"},{"bike_id":"317311e4-8e0e-4fe7-81bd-932b612554aa","system_id":"levelo_inurba_marseille","lat":43.26192,"lon":5.37447,"is_reserved":false,"is_disabled":false,"rental_uris":{"android":"levelo://app?vid=317311e4-8e0e-4fe7-81bd-932b612554aa","ios":"levelo://app?vid=317311e4-8e0e-4fe7-81bd-932b612554aa"},"vehicle_type_id":"4","last_reported":1729634920,"current_range_meters":19200,"station_id":"ce4bhgp2rcd13ifvqfc0","pricing_plan_id":"cebpf4jnsgd1na2vs0mg"},{"bike_id":"0f8fcea2-a548-4eec-88b1-83ebcf53f1a8","system_id":"levelo_inurba_marseille","lat":43.32287,"lon":5.38272,"is_reserved":false,"is_disabled":false,"rental_uris":{"android":"levelo://app?vid=0f8fcea2-a548-4eec-88b1-83ebcf53f1a8","ios":"levelo://app?vid=0f8fcea2-a548-4eec-88b1-83ebcf53f1a8"},"vehicle_type_id":"4","last_reported":1729634920,"current_range_meters":38800,"station_id":"ce4bhr12rcd13ifvqhqg","pricing_plan_id":"cebpf4jnsgd1na2vs0mg"},{"bike_id":"9a5e67ac-2a0f-452a-90d1-1c4c31765aa0","system_id":"levelo_inurba_marseille","lat":43.27888,"lon":5.38013,"is_reserved":false,"is_disabled":false,"rental_uris":{"android":"levelo://app?vid=9a5e67ac-2a0f-452a-90d1-1c4c31765aa0","ios":"levelo://app?vid=9a5e67ac-2a0f-452a-90d1-1c4c31765aa0"},"vehicle_type_id":"4","last_reported":1729634920,"current_range_meters":39200,"station_id":"ce4bhf92rcd13ifvqf50","pricing_plan_id":"cebpf4jnsgd1na2vs0mg"},{"bike_id":"ea81553d-b885-4862-8f2d-c1b86e563ea7","system_id":"levelo_inurba_marseille","lat":43.28453,"lon":5.35887,"is_reserved":false,"is_disabled":false,"rental_uris":{"android":"levelo://app?vid=ea81553d-b885-4862-8f2d-c1b86e563ea7","ios":"levelo://app?vid=ea81553d-b885-4862-8f2d-c1b86e563ea7"},"vehicle_type_id":"4","last_reported":1729634920,"current_range_meters":28000,"station_id":"ce4bhah2rcd13ifvqei0","pricing_plan_id":"cebpf4jnsgd1na2vs0mg"},{"bike_id":"cdbb78db-ec68-476d-bc3c-31e8d11d01df","system_id":"levelo_inurba_marseille","lat":43.28458,"lon":5.35888,"is_reserved":false,"is_disabled":false,"rental_uris":{"android":"levelo://app?vid=cdbb78db-ec68-476d-bc3c-31e8d11d01df","ios":"levelo://app?vid=cdbb78db-ec68-476d-bc3c-31e8d11d01df"},"vehicle_type_id":"4","last_reported":1729634920,"current_range_meters":30800,"station_id":"ce4bhah2rcd13ifvqei0","pricing_plan_id":"cebpf4jnsgd1na2vs0mg"},{"bike_id":"14df2fab-9651-4705-b502-6d7825c4ba36","system_id":"levelo_inurba_marseille","lat":43.31711,"lon":5.37761,"is_reserved":false,"is_disabled":false,"rental_uris":{"android":"levelo://app?vid=14df2fab-9651-4705-b502-6d7825c4ba36","ios":"levelo://app?vid=14df2fab-9651-4705-b502-6d7825c4ba36"},"vehicle_type_id":"4","last_reported":1729634920,"current_range_meters":36000,"station_id":"ce4bgth2rcd13ifvqch0","pricing_plan_id":"cebpf4jnsgd1na2vs0mg"},{"bike_id":"6064ba38-3849-4c23-8c6f-3eb896267f69","system_id":"levelo_inurba_marseille","lat":43.2558,"lon":5.38236,"is_reserved":false,"is_disabled":false,"rental_uris":{"android":"levelo://app?vid=6064ba38-3849-4c23-8c6f-3eb896267f69","ios":"levelo://app?vid=6064ba38-3849-4c23-8c6f-3eb896267f69"},"vehicle_type_id":"4","last_reported":1729634920,"current_range_meters":29600,"station_id":"ce4bhih2rcd13ifvqfs0","pricing_plan_id":"cebpf4jnsgd1na2vs0mg"},{"bike_id":"8957c51c-188f-421f-940c-13e3e082bd9e","system_id":"levelo_inurba_marseille","lat":43.2957,"lon":5.39969,"is_reserved":false,"is_disabled":false,"rental_uris":{"android":"levelo://app?vid=8957c51c-188f-421f-940c-13e3e082bd9e","ios":"levelo://app?vid=8957c51c-188f-421f-940c-13e3e082bd9e"},"vehicle_type_id":"4","last_reported":1729634920,"current_range_meters":18000,"station_id":"ce4bh312rcd13ifvqdj0","pricing_plan_id":"cebpf4jnsgd1na2vs0mg"},{"bike_id":"a829b938-58bb-4f2e-9e76-50e089b5bcba","system_id":"levelo_inurba_marseille","lat":43.29305,"lon":5.37175,"is_reserved":false,"is_disabled":false,"rental_uris":{"android":"levelo://app?vid=a829b938-58bb-4f2e-9e76-50e089b5bcba","ios":"levelo://app?vid=a829b938-58bb-4f2e-9e76-50e089b5bcba"},"vehicle_type_id":"4","last_reported":1729634920,"current_range_meters":10000,"station_id":"ce4bgh92rcd13ifvqb40","pricing_plan_id":"cebpf4jnsgd1na2vs0mg"},{"bike_id":"01d08235-a4e4-434f-8493-03de70774cab","system_id":"levelo_inurba_marseille","lat":43.32111,"lon":5.36763,"is_reserved":false,"is_disabled":false,"rental_uris":{"android":"levelo://app?vid=01d08235-a4e4-434f-8493-03de70774cab","ios":"levelo://app?vid=01d08235-a4e4-434f-8493-03de70774cab"},"vehicle_type_id":"4","last_reported":1729634920,"current_range_meters":38800,"station_id":"ce4bhrh2rcd13ifvqhug","pricing_plan_id":"cebpf4jnsgd1na2vs0mg"},{"bike_id":"2b80f943-bf35-49c7-9584-ea1845fd1d05","system_id":"levelo_inurba_marseille","lat":43.23185,"lon":5.35544,"is_reserved":false,"is_disabled":false,"rental_uris":{"android":"levelo://app?vid=2b80f943-bf35-49c7-9584-ea1845fd1d05","ios":"levelo://app?vid=2b80f943-bf35-49c7-9584-ea1845fd1d05"},"vehicle_type_id":"4","last_reported":1729634920,"current_range_meters":8800,"station_id":"ce4bhu92rcd13ifvqi70","pricing_plan_id":"cebpf4jnsgd1na2vs0mg"},{"bike_id":"2c121b80-27d3-49c3-a6b4-3ab555ef32c9","system_id":"levelo_inurba_marseille","lat":43.26565,"lon":5.3901,"is_reserved":false,"is_disabled":false,"rental_uris":{"android":"levelo://app?vid=2c121b80-27d3-49c3-a6b4-3ab555ef32c9","ios":"levelo://app?vid=2c121b80-27d3-49c3-a6b4-3ab555ef32c9"},"vehicle_type_id":"4","last_reported":1729634920,"current_range_meters":38800,"station_id":"ce4bhe12rcd13ifvqf30","pricing_plan_id":"cebpf4jnsgd1na2vs0mg"},{"bike_id":"d4be358b-41a1-4e5d-a11f-e010c6bddcd5","system_id":"levelo_inurba_marseille","lat":43.23192,"lon":5.35554,"is_reserved":false,"is_disabled":false,"rental_uris":{"android":"levelo://app?vid=d4be358b-41a1-4e5d-a11f-e010c6bddcd5","ios":"levelo://app?vid=d4be358b-41a1-4e5d-a11f-e010c6bddcd5"},"vehicle_type_id":"4","last_reported":1729634920,"current_range_meters":30800,"station_id":"ce4bhu92rcd13ifvqi70","pricing_plan_id":"cebpf4jnsgd1na2vs0mg"},{"bike_id":"40be76d3-69b8-4dc0-a02a-a835baff37a7","system_id":"levelo_inurba_marseille","lat":43.28673,"lon":5.3996,"is_reserved":false,"is_disabled":false,"rental_uris":{"android":"levelo://app?vid=40be76d3-69b8-4dc0-a02a-a835baff37a7","ios":"levelo://app?vid=40be76d3-69b8-4dc0-a02a-a835baff37a7"},"vehicle_type_id":"4","last_reported":1729634920,"current_range_meters":4800,"station_id":"","pricing_plan_id":"cebpf4jnsgd1na2vs0mg"},{"bike_id":"0ba002b8-e108-4a2b-b69b-9d62a94756b7","system_id":"levelo_inurba_marseille","lat":43.24996,"lon":5.38918,"is_reserved":false,"is_disabled":false,"rental_uris":{"android":"levelo://app?vid=0ba002b8-e108-4a2b-b69b-9d62a94756b7","ios":"levelo://app?vid=0ba002b8-e108-4a2b-b69b-9d62a94756b7"},"vehicle_type_id":"4","last_reported":1729634920,"current_range_meters":38800,"station_id":"ce4bhgp2rcd13ifvqfd0","pricing_plan_id":"cebpf4jnsgd1na2vs0mg"},{"bike_id":"250ac974-4810-406d-9164-349ff4ee0953","system_id":"levelo_inurba_marseille","lat":43.25866,"lon":5.39899,"is_reserved":false,"is_disabled":false,"rental_uris":{"android":"levelo://app?vid=250ac974-4810-406d-9164-349ff4ee0953","ios":"levelo://app?vid=250ac974-4810-406d-9164-349ff4ee0953"},"vehicle_type_id":"4","last_reported":1729634920,"current_range_meters":7200,"station_id":"ce4bhl92rcd13ifvqghg","pricing_plan_id":"cebpf4jnsgd1na2vs0mg"},{"bike_id":"669bf473-ea4a-4c7d-acc6-14a612b65c49","system_id":"levelo_inurba_marseille","lat":43.30886,"lon":5.39632,"is_reserved":false,"is_disabled":false,"rental_uris":{"android":"levelo://app?vid=669bf473-ea4a-4c7d-acc6-14a612b65c49","ios":"levelo://app?vid=669bf473-ea4a-4c7d-acc6-14a612b65c49"},"vehicle_type_id":"4","last_reported":1729634920,"current_range_meters":39200,"station_id":"ce4bh012rcd13ifvqcv0","pricing_plan_id":"cebpf4jnsgd1na2vs0mg"},{"bike_id":"8b3fb690-85c6-4703-86e3-f27a8f80559c","system_id":"levelo_inurba_marseille","lat":43.27371,"lon":5.36247,"is_reserved":false,"is_disabled":false,"rental_uris":{"android":"levelo://app?vid=8b3fb690-85c6-4703-86e3-f27a8f80559c","ios":"levelo://app?vid=8b3fb690-85c6-4703-86e3-f27a8f80559c"},"vehicle_type_id":"4","last_reported":1729634920,"current_range_meters":39200,"station_id":"ce4bhbh2rcd13ifvqeo0","pricing_plan_id":"cebpf4jnsgd1na2vs0mg"},{"bike_id":"7da9d9f0-d727-48e4-a79c-d492a6edfc26","system_id":"levelo_inurba_marseille","lat":43.28412,"lon":5.37518,"is_reserved":false,"is_disabled":false,"rental_uris":{"android":"levelo://app?vid=7da9d9f0-d727-48e4-a79c-d492a6edfc26","ios":"levelo://app?vid=7da9d9f0-d727-48e4-a79c-d492a6edfc26"},"vehicle_type_id":"4","last_reported":1729634920,"current_range_meters":8000,"station_id":"ce4bh412rcd13ifvqds0","pricing_plan_id":"cebpf4jnsgd1na2vs0mg"},{"bike_id":"627c6540-d7df-46a3-8354-a24156ff4b61","system_id":"levelo_inurba_marseille","lat":43.30125,"lon":5.39869,"is_reserved":false,"is_disabled":false,"rental_uris":{"android":"levelo://app?vid=627c6540-d7df-46a3-8354-a24156ff4b61","ios":"levelo://app?vid=627c6540-d7df-46a3-8354-a24156ff4b61"},"vehicle_type_id":"4","last_reported":1729634920,"current_range_meters":38400,"station_id":"ce4bh0h2rcd13ifvqd40","pricing_plan_id":"cebpf4jnsgd1na2vs0mg"},{"bike_id":"9200f059-e673-4c15-ac4f-15fe74d24d34","system_id":"levelo_inurba_marseille","lat":43.32285,"lon":5.38256,"is_reserved":false,"is_disabled":false,"rental_uris":{"android":"levelo://app?vid=9200f059-e673-4c15-ac4f-15fe74d24d34","ios":"levelo://app?vid=9200f059-e673-4c15-ac4f-15fe74d24d34"},"vehicle_type_id":"4","last_reported":1729634920,"current_range_meters":24400,"station_id":"ce4bhr12rcd13ifvqhqg","pricing_plan_id":"cebpf4jnsgd1na2vs0mg"},{"bike_id":"53b12870-d6bd-43ee-b2dd-33f023b61796","system_id":"levelo_inurba_marseille","lat":43.27176,"lon":5.40995,"is_reserved":false,"is_disabled":false,"rental_uris":{"android":"levelo://app?vid=53b12870-d6bd-43ee-b2dd-33f023b61796","ios":"levelo://app?vid=53b12870-d6bd-43ee-b2dd-33f023b61796"},"vehicle_type_id":"4","last_reported":1729634920,"current_range_meters":38000,"station_id":"ce4bhl12rcd13ifvqgf0","pricing_plan_id":"cebpf4jnsgd1na2vs0mg"},{"bike_id":"bf1822fd-5e89-4ec4-9800-f6de15a36cf3","system_id":"levelo_inurba_marseille","lat":43.28613,"lon":5.351,"is_reserved":false,"is_disabled":false,"rental_uris":{"android":"levelo://app?vid=bf1822fd-5e89-4ec4-9800-f6de15a36cf3","ios":"levelo://app?vid=bf1822fd-5e89-4ec4-9800-f6de15a36cf3"},"vehicle_type_id":"4","last_reported":1729634920,"current_range_meters":38000,"station_id":"ce4bhch2rcd13ifvqeug","pricing_plan_id":"cebpf4jnsgd1na2vs0mg"},{"bike_id":"29f0141d-ee50-4bcb-88eb-5c9c95e667f9","system_id":"levelo_inurba_marseille","lat":43.30249,"lon":5.40073,"is_reserved":false,"is_disabled":false,"rental_uris":{"android":"levelo://app?vid=29f0141d-ee50-4bcb-88eb-5c9c95e667f9","ios":"levelo://app?vid=29f0141d-ee50-4bcb-88eb-5c9c95e667f9"},"vehicle_type_id":"4","last_reported":1729634920,"current_range_meters":36400,"station_id":"ce4bgvh2rcd13ifvqcs0","pricing_plan_id":"cebpf4jnsgd1na2vs0mg"},{"bike_id":"a97f70b3-b8f9-4dcd-a2cf-4e43c4f464de","system_id":"levelo_inurba_marseille","lat":43.279985,"lon":5.400076,"is_reserved":false,"is_disabled":false,"rental_uris":{"android":"levelo://app?vid=a97f70b3-b8f9-4dcd-a2cf-4e43c4f464de","ios":"levelo://app?vid=a97f70b3-b8f9-4dcd-a2cf-4e43c4f464de"},"vehicle_type_id":"4","last_reported":1729634920,"current_range_meters":39200,"station_id":"ce4bho92rcd13ifvqh4g","pricing_plan_id":"cebpf4jnsgd1na2vs0mg"},{"bike_id":"2460c067-67a6-43dd-a79b-4e5b7c8dc390","system_id":"levelo_inurba_marseille","lat":43.29795,"lon":5.404,"is_reserved":false,"is_disabled":false,"rental_uris":{"android":"levelo://app?vid=2460c067-67a6-43dd-a79b-4e5b7c8dc390","ios":"levelo://app?vid=2460c067-67a6-43dd-a79b-4e5b7c8dc390"},"vehicle_type_id":"4","last_reported":1729634920,"current_range_meters":4000,"station_id":"ce4bh112rcd13ifvqd90","pricing_plan_id":"cebpf4jnsgd1na2vs0mg"},{"bike_id":"15a0e7c7-3591-4561-acb9-20247ed589fd","system_id":"levelo_inurba_marseille","lat":43.29555,"lon":5.42293,"is_reserved":false,"is_disabled":false,"rental_uris":{"android":"levelo://app?vid=15a0e7c7-3591-4561-acb9-20247ed589fd","ios":"levelo://app?vid=15a0e7c7-3591-4561-acb9-20247ed589fd"},"vehicle_type_id":"4","last_reported":1729634920,"current_range_meters":24000,"station_id":"ce4bhph2rcd13ifvqhdg","pricing_plan_id":"cebpf4jnsgd1na2vs0mg"},{"bike_id":"f1720f56-fc53-460f-9452-3135857c1f39","system_id":"levelo_inurba_marseille","lat":43.28655,"lon":5.36354,"is_reserved":false,"is_disabled":false,"rental_uris":{"android":"levelo://app?vid=f1720f56-fc53-460f-9452-3135857c1f39","ios":"levelo://app?vid=f1720f56-fc53-460f-9452-3135857c1f39"},"vehicle_type_id":"4","last_reported":1729634920,"current_range_meters":17200,"station_id":"ce4bhah2rcd13ifvqej0","pricing_plan_id":"cebpf4jnsgd1na2vs0mg"},{"bike_id":"b49119a5-7eeb-4ba8-ba81-41cdccdac5a9","system_id":"levelo_inurba_marseille","lat":43.30597,"lon":5.37222,"is_reserved":false,"is_disabled":false,"rental_uris":{"android":"levelo://app?vid=b49119a5-7eeb-4ba8-ba81-41cdccdac5a9","ios":"levelo://app?vid=b49119a5-7eeb-4ba8-ba81-41cdccdac5a9"},"vehicle_type_id":"4","last_reported":1729634920,"current_range_meters":38000,"station_id":"ce4bgqh2rcd13ifvqc4g","pricing_plan_id":"cebpf4jnsgd1na2vs0mg"},{"bike_id":"c2632a56-eb49-4576-89f2-24ffcb35cebd","system_id":"levelo_inurba_marseille","lat":43.26993,"lon":5.36562,"is_reserved":false,"is_disabled":false,"rental_uris":{"android":"levelo://app?vid=c2632a56-eb49-4576-89f2-24ffcb35cebd","ios":"levelo://app?vid=c2632a56-eb49-4576-89f2-24ffcb35cebd"},"vehicle_type_id":"4","last_reported":1729634920,"current_range_meters":30000,"station_id":"","pricing_plan_id":"cebpf4jnsgd1na2vs0mg"},{"bike_id":"477564cb-f4bf-447a-8f11-9a6bbc3f3deb","system_id":"levelo_inurba_marseille","lat":43.2781,"lon":5.40724,"is_reserved":false,"is_disabled":false,"rental_uris":{"android":"levelo://app?vid=477564cb-f4bf-447a-8f11-9a6bbc3f3deb","ios":"levelo://app?vid=477564cb-f4bf-447a-8f11-9a6bbc3f3deb"},"vehicle_type_id":"4","last_reported":1729634920,"current_range_meters":38000,"station_id":"ce4bhnh2rcd13ifvqgtg","pricing_plan_id":"cebpf4jnsgd1na2vs0mg"},{"bike_id":"a978e2de-cedc-4d2f-8c4a-882ab53f1bfa","system_id":"levelo_inurba_marseille","lat":43.24664,"lon":5.38158,"is_reserved":false,"is_disabled":false,"rental_uris":{"android":"levelo://app?vid=a978e2de-cedc-4d2f-8c4a-882ab53f1bfa","ios":"levelo://app?vid=a978e2de-cedc-4d2f-8c4a-882ab53f1bfa"},"vehicle_type_id":"4","last_reported":1729634920,"current_range_meters":38800,"station_id":"ce4bhih2rcd13ifvqfr0","pricing_plan_id":"cebpf4jnsgd1na2vs0mg"},{"bike_id":"8347d519-bc8f-4feb-9fa9-70853a696682","system_id":"levelo_inurba_marseille","lat":43.31164,"lon":5.38718,"is_reserved":false,"is_disabled":false,"rental_uris":{"android":"levelo://app?vid=8347d519-bc8f-4feb-9fa9-70853a696682","ios":"levelo://app?vid=8347d519-bc8f-4feb-9fa9-70853a696682"},"vehicle_type_id":"4","last_reported":1729634920,"current_range_meters":9200,"station_id":"ce4bgv12rcd13ifvqcp0","pricing_plan_id":"cebpf4jnsgd1na2vs0mg"},{"bike_id":"a7d17c5e-fa4e-4389-8c32-1b0d87b0877a","system_id":"levelo_inurba_marseille","lat":43.28118,"lon":5.40628,"is_reserved":false,"is_disabled":false,"rental_uris":{"android":"levelo://app?vid=a7d17c5e-fa4e-4389-8c32-1b0d87b0877a","ios":"levelo://app?vid=a7d17c5e-fa4e-4389-8c32-1b0d87b0877a"},"vehicle_type_id":"4","last_reported":1729634920,"current_range_meters":8800,"station_id":"","pricing_plan_id":"cebpf4jnsgd1na2vs0mg"},{"bike_id":"f81397e9-332a-4e70-b4c4-245849512d52","system_id":"levelo_inurba_marseille","lat":43.30872,"lon":5.39635,"is_reserved":false,"is_disabled":false,"rental_uris":{"android":"levelo://app?vid=f81397e9-332a-4e70-b4c4-245849512d52","ios":"levelo://app?vid=f81397e9-332a-4e70-b4c4-245849512d52"},"vehicle_type_id":"4","last_reported":1729634920,"current_range_meters":39200,"station_id":"ce4bh012rcd13ifvqcv0","pricing_plan_id":"cebpf4jnsgd1na2vs0mg"},{"bike_id":"34ad4c2a-1206-4e6b-9544-602210b3566b","system_id":"levelo_inurba_marseille","lat":43.3042,"lon":5.39749,"is_reserved":false,"is_disabled":false,"rental_uris":{"android":"levelo://app?vid=34ad4c2a-1206-4e6b-9544-602210b3566b","ios":"levelo://app?vid=34ad4c2a-1206-4e6b-9544-602210b3566b"},"vehicle_type_id":"4","last_reported":1729634920,"current_range_meters":20800,"station_id":"ce4bh092rcd13ifvqd20","pricing_plan_id":"cebpf4jnsgd1na2vs0mg"},{"bike_id":"2d94fee2-a02a-414d-bb4c-d83316627c91","system_id":"levelo_inurba_marseille","lat":43.295227,"lon":5.375037,"is_reserved":false,"is_disabled":false,"rental_uris":{"android":"levelo://app?vid=2d94fee2-a02a-414d-bb4c-d83316627c91","ios":"levelo://app?vid=2d94fee2-a02a-414d-bb4c-d83316627c91"},"vehicle_type_id":"4","last_reported":1729634920,"current_range_meters":38400,"station_id":"ce4bgkp2rcd13ifvqbmg","pricing_plan_id":"cebpf4jnsgd1na2vs0mg"},{"bike_id":"dd6afe68-916d-4630-8332-a85ab7cf7ebc","system_id":"levelo_inurba_marseille","lat":43.27975,"lon":5.38736,"is_reserved":false,"is_disabled":false,"rental_uris":{"android":"levelo://app?vid=dd6afe68-916d-4630-8332-a85ab7cf7ebc","ios":"levelo://app?vid=dd6afe68-916d-4630-8332-a85ab7cf7ebc"},"vehicle_type_id":"4","last_reported":1729634920,"current_range_meters":37600,"station_id":"ce4bhg12rcd13ifvqf80","pricing_plan_id":"cebpf4jnsgd1na2vs0mg"},{"bike_id":"e88a3162-82c7-4ba8-941e-5bd494476090","system_id":"levelo_inurba_marseille","lat":43.27942,"lon":5.41045,"is_reserved":false,"is_disabled":false,"rental_uris":{"android":"levelo://app?vid=e88a3162-82c7-4ba8-941e-5bd494476090","ios":"levelo://app?vid=e88a3162-82c7-4ba8-941e-5bd494476090"},"vehicle_type_id":"4","last_reported":1729634920,"current_range_meters":28400,"station_id":"ce4bhnp2rcd13ifvqh0g","pricing_plan_id":"cebpf4jnsgd1na2vs0mg"},{"bike_id":"090f40c4-6af8-464d-9f17-bd72074b55cd","system_id":"levelo_inurba_marseille","lat":43.30085,"lon":5.39076,"is_reserved":false,"is_disabled":false,"rental_uris":{"android":"levelo://app?vid=090f40c4-6af8-464d-9f17-bd72074b55cd","ios":"levelo://app?vid=090f40c4-6af8-464d-9f17-bd72074b55cd"},"vehicle_type_id":"4","last_reported":1729634920,"current_range_meters":6800,"station_id":"ce4bh192rcd13ifvqdb0","pricing_plan_id":"cebpf4jnsgd1na2vs0mg"},{"bike_id":"d4ddc449-c65f-4ec5-8f47-53674294a200","system_id":"levelo_inurba_marseille","lat":43.32365,"lon":5.3888,"is_reserved":false,"is_disabled":false,"rental_uris":{"android":"levelo://app?vid=d4ddc449-c65f-4ec5-8f47-53674294a200","ios":"levelo://app?vid=d4ddc449-c65f-4ec5-8f47-53674294a200"},"vehicle_type_id":"4","last_reported":1729634920,"current_range_meters":30400,"station_id":"ce4bhqp2rcd13ifvqhog","pricing_plan_id":"cebpf4jnsgd1na2vs0mg"},{"bike_id":"fd48b4a5-21e0-4357-af2d-13f8a366950c","system_id":"levelo_inurba_marseille","lat":43.28105,"lon":5.37841,"is_reserved":false,"is_disabled":false,"rental_uris":{"android":"levelo://app?vid=fd48b4a5-21e0-4357-af2d-13f8a366950c","ios":"levelo://app?vid=fd48b4a5-21e0-4357-af2d-13f8a366950c"},"vehicle_type_id":"4","last_reported":1729634920,"current_range_meters":6000,"station_id":"ce4bha12rcd13ifvqee0","pricing_plan_id":"cebpf4jnsgd1na2vs0mg"},{"bike_id":"63cd7cee-7402-43f4-8766-a50eb955ab2d","system_id":"levelo_inurba_marseille","lat":43.27913,"lon":5.39584,"is_reserved":false,"is_disabled":false,"rental_uris":{"android":"levelo://app?vid=63cd7cee-7402-43f4-8766-a50eb955ab2d","ios":"levelo://app?vid=63cd7cee-7402-43f4-8766-a50eb955ab2d"},"vehicle_type_id":"4","last_reported":1729634920,"current_range_meters":33200,"station_id":"ce4bhf92rcd13ifvqf40","pricing_plan_id":"cebpf4jnsgd1na2vs0mg"},{"bike_id":"cc6b42ff-594f-4c90-839a-340020db1ebd","system_id":"levelo_inurba_marseille","lat":43.28104,"lon":5.37829,"is_reserved":false,"is_disabled":false,"rental_uris":{"android":"levelo://app?vid=cc6b42ff-594f-4c90-839a-340020db1ebd","ios":"levelo://app?vid=cc6b42ff-594f-4c90-839a-340020db1ebd"},"vehicle_type_id":"4","last_reported":1729634920,"current_range_meters":22000,"station_id":"ce4bha12rcd13ifvqee0","pricing_plan_id":"cebpf4jnsgd1na2vs0mg"},