{"last_updated":1768241930,"ttl":60,"version":"2.2","data":{"bikes":[{"bike_id":"9cb8a7ab-1d20-41bb-872e-f89974c54222","system_id":"levelo_inurba_marseille","lat":43.27813,"lon":5.3921,"is_reserved":false,"is_disabled":false,"rental_uris":{"android":"levelo://app?vid=9cb8a7ab-1d20-41bb-872e-f89974c54222","ios":"levelo://app?vid=9cb8a7ab-1d20-41bb-872e-f89974c54222"},"vehicle_type_id":"4","last_reported":1768241930,"current_range_meters":2800,"station_id":"ce4bhjp2rcd13ifvqga0","pricing_plan_id":"cebpf4jnsgd1na2vs0mg"},{"bike_id":"8175900e-c27a-4313-abe0-b32a77a2ba1f","system_id":"levelo_inurba_marseille","lat":43.29598,"lon":5.38106,"is_reserved":false,"is_disabled":false,"rental_uris":{"android":"levelo://app?vid=8175900e-c27a-4313-abe0-b32a77a2ba1f","ios":"levelo://app?vid=8175900e-c27a-4313-abe0-b32a77a2ba1f"},"vehicle_type_id":"4","last_reported":1768241930,"current_range_meters":2800,"station_id":"ce4bgl12rcd13ifvqbo0","pricing_plan_id":"cebpf4jnsgd1na2vs0mg"},{"bike_id":"2e20bb84-1c03-4f1e-bb7c-55c5ffc3fd10","system_id":"levelo_inurba_marseille","lat":43.31867,"lon":5.376902,"is_reserved":false,"is_disabled":false,"rental_uris":{"android":"levelo://app?vid=2e20bb84-1c03-4f1e-bb7c-55c5ffc3fd10","ios":"levelo://app?vid=2e20bb84-1c03-4f1e-bb7c-55c5ffc3fd10"},"vehicle_type_id":"4","last_reported":1768241930,"current_range_meters":2800,"station_id":"","pricing_plan_id":"cebpf4jnsgd1na2vs0mg"},{"bike_id":"d56582c1-57d9-4dc2-9f1f-28dcb2c244f3","system_id":"levelo_inurba_marseille","lat":43.2902,"lon":5.381278,"is_reserved":false,"is_disabled":false,"rental_uris":{"android":"levelo://app?vid=d56582c1-57d9-4dc2-9f1f-28dcb2c244f3","ios":"levelo://app?vid=d56582c1-57d9-4dc2-9f1f-28dcb2c244f3"},"vehicle_type_id":"4","last_reported":1768241930,"current_range_meters":2800,"station_id":"ce4bh4p2rcd13ifvqe1g","pricing_plan_id":"cebpf4jnsgd1na2vs0mg"},{"bike_id":"1f367a74-8214-4934-9709-6fb2e4d3f48d","system_id":"levelo_inurba_marseille","lat":43.31118,"lon":5.37753,"is_reserved":false,"is_disabled":false,"rental_uris":{"android":"levelo://app?vid=1f367a74-8214-4934-9709-6fb2e4d3f48d","ios":"levelo://app?vid=1f367a74-8214-4934-9709-6fb2e4d3f48d"},"vehicle_type_id":"4","last_reported":1768241930,"current_range_meters":2800,"station_id":"ce4bgt92rcd13ifvqcg0","pricing_plan_id":"cebpf4jnsgd1na2vs0mg"},{"bike_id":"29dc424a-d606-4587-9dbf-42f41291e5ba","system_id":"levelo_inurba_marseille","lat":43.27616,"lon":5.36104,"is_reserved":false,"is_disabled":false,"rental_uris":{"android":"levelo://app?vid=29dc424a-d606-4587-9dbf-42f41291e5ba","ios":"levelo://app?vid=29dc424a-d606-4587-9dbf-42f41291e5ba"},"vehicle_type_id":"4","last_reported":1768241930,"current_range_meters":2800,"station_id":"","pricing_plan_id":"cebpf4jnsgd1na2vs0mg"},{"bike_id":"89925bb9-a63d-4f3a-9d06-8d216f94061a","system_id":"levelo_inurba_marseille","lat":43.241791,"lon":5.397346,"is_reserved":false,"is_disabled":false,"rental_uris":{"android":"levelo://app?vid=89925bb9-a63d-4f3a-9d06-8d216f94061a","ios":"levelo://app?vid=89925bb9-a63d-4f3a-9d06-8d216f94061a"},"vehicle_type_id":"4","last_reported":1768241930,"current_range_meters":2800,"station_id":"ce4bhn12rcd13ifvqgpg","pricing_plan_id":"cebpf4jnsgd1na2vs0mg"},{"bike_id":"f5d7ba9b-19fd-42e2-851b-0760eceb88f9","system_id":"levelo_inurba_marseille","lat":43.26546,"lon":5.37288,"is_reserved":false,"is_disabled":false,"rental_uris":{"android":"levelo://app?vid=f5d7ba9b-19fd-42e2-851b-0760eceb88f9","ios":"levelo://app?vid=f5d7ba9b-19fd-42e2-851b-0760eceb88f9"},"vehicle_type_id":"4","last_reported":1768241930,"current_range_meters":3200,"station_id":"ce4bhg12rcd13ifvqf70","pricing_plan_id":"cebpf4jnsgd1na2vs0mg"},{"bike_id":"2bbf313c-1fda-478e-8018-30c90588fa7a","system_id":"levelo_inurba_marseille","lat":43.29101,"lon":5.38118,"is_reserved":false,"is_disabled":false,"rental_uris":{"android":"levelo://app?vid=2bbf313c-1fda-478e-8018-30c90588fa7a","ios":"levelo://app?vid=2bbf313c-1fda-478e-8018-30c90588fa7a"},"vehicle_type_id":"4","last_reported":1768241930,"current_range_meters":3200,"station_id":"ce4bh512rcd13ifvqe2g","pricing_plan_id":"cebpf4jnsgd1na2vs0mg"},{"bike_id":"098d94c1-f520-462c-b21d-91020ee6aa01","system_id":"levelo_inurba_marseille","lat":43.3073,"lon":5.40984,"is_reserved":false,"is_disabled":false,"rental_uris":{"android":"levelo://app?vid=098d94c1-f520-462c-b21d-91020ee6aa01","ios":"levelo://app?vid=098d94c1-f520-462c-b21d-91020ee6aa01"},"vehicle_type_id":"4","last_reported":1768241930,"current_range_meters":3200,"station_id":"","pricing_plan_id":"cebpf4jnsgd1na2vs0mg"},{"bike_id":"a98f3780-2392-4139-9771-0f70933db341","system_id":"levelo_inurba_marseille","lat":43.2803,"lon":5.36998,"is_reserved":false,"is_disabled":false,"rental_uris":{"android":"levelo://app?vid=a98f3780-2392-4139-9771-0f70933db341","ios":"levelo://app?vid=a98f3780-2392-4139-9771-0f70933db341"},"vehicle_type_id":"4","last_reported":1768241930,"current_range_meters":3200,"station_id":"ce4bha12rcd13ifvqef0","pricing_plan_id":"cebpf4jnsgd1na2vs0mg"},{"bike_id":"0fa22ef5-d785-49d3-80e0-8122bc638a32","system_id":"levelo_inurba_marseille","lat":43.22567,"lon":5.41629,"is_reserved":false,"is_disabled":false,"rental_uris":{"android":"levelo://app?vid=0fa22ef5-d785-49d3-80e0-8122bc638a32","ios":"levelo://app?vid=0fa22ef5-d785-49d3-80e0-8122bc638a32"},"vehicle_type_id":"4","last_reported":1768241930,"current_range_meters":3200,"station_id":"st_d2o4gvlbi1j2169b742g","pricing_plan_id":"cebpf4jnsgd1na2vs0mg"},{"bike_id":"e8550f66-27c2-4dbf-9f78-6c12c833a327","system_id":"levelo_inurba_marseille","lat":43.289469,"lon":5.363859,"is_reserved":false,"is_disabled":false,"rental_uris":{"android":"levelo://app?vid=e8550f66-27c2-4dbf-9f78-6c12c833a327","ios":"levelo://app?vid=e8550f66-27c2-4dbf-9f78-6c12c833a327"},"vehicle_type_id":"4","last_reported":1768241930,"current_range_meters":3200,"station_id":"ce4bhc92rcd13ifvqetg","pricing_plan_id":"cebpf4jnsgd1na2vs0mg"},{"bike_id":"320be350-7ad8-4b9a-a7c5-19451b57fc01","system_id":"levelo_inurba_marseille","lat":43.22925,"lon":5.35366,"is_reserved":false,"is_disabled":false,"rental_uris":{"android":"levelo://app?vid=320be350-7ad8-4b9a-a7c5-19451b57fc01","ios":"levelo://app?vid=320be350-7ad8-4b9a-a7c5-19451b57fc01"},"vehicle_type_id":"4","last_reported":1768241930,"current_range_meters":3200,"station_id":"cpo3532slgdg3j2ikp40","pricing_plan_id":"cebpf4jnsgd1na2vs0mg"},{"bike_id":"f596da05-0b66-4513-826b-a866a276204c","system_id":"levelo_inurba_marseille","lat":43.245826,"lon":5.374825,"is_reserved":false,"is_disabled":false,"rental_uris":{"android":"levelo://app?vid=f596da05-0b66-4513-826b-a866a276204c","ios":"levelo://app?vid=f596da05-0b66-4513-826b-a866a276204c"},"vehicle_type_id":"4","last_reported":1768241930,"current_range_meters":3200,"station_id":"","pricing_plan_id":"cebpf4jnsgd1na2vs0mg"},{"bike_id":"cce1ca9c-5d71-48ab-8479-efe60c92d8ed","system_id":"levelo_inurba_marseille","lat":43.24078,"lon":5.37753,"is_reserved":false,"is_disabled":false,"rental_uris":{"android":"levelo://app?vid=cce1ca9c-5d71-48ab-8479-efe60c92d8ed","ios":"levelo://app?vid=cce1ca9c-5d71-48ab-8479-efe60c92d8ed"},"vehicle_type_id":"4","last_reported":1768241930,"current_range_meters":3200,"station_id":"ce4bhnp2rcd13ifvqgvg","pricing_plan_id":"cebpf4jnsgd1na2vs0mg"},{"bike_id":"dcb7be01-50ce-42e0-a9ed-adc761203c14","system_id":"levelo_inurba_marseille","lat":43.2863,"lon":5.42625,"is_reserved":false,"is_disabled":false,"rental_uris":{"android":"levelo://app?vid=dcb7be01-50ce-42e0-a9ed-adc761203c14","ios":"levelo://app?vid=dcb7be01-50ce-42e0-a9ed-adc761203c14"},"vehicle_type_id":"4","last_reported":1768241930,"current_range_meters":3200,"station_id":"","pricing_plan_id":"cebpf4jnsgd1na2vs0mg"},{"bike_id":"a5787e37-ecb5-4a87-bcf3-a0b74c386c9d","system_id":"levelo_inurba_marseille","lat":43.241702,"lon":5.363941,"is_reserved":false,"is_disabled":false,"rental_uris":{"android":"levelo://app?vid=a5787e37-ecb5-4a87-bcf3-a0b74c386c9d","ios":"levelo://app?vid=a5787e37-ecb5-4a87-bcf3-a0b74c386c9d"},"vehicle_type_id":"4","last_reported":1768241930,"current_range_meters":3200,"station_id":"cpo36qri1sfpv3e86is0","pricing_plan_id":"cebpf4jnsgd1na2vs0mg"},{"bike_id":"64cd3d95-1725-477d-bc45-fa8570d8f0cd","system_id":"levelo_inurba_marseille","lat":43.25333,"lon":5.42169,"is_reserved":false,"is_disabled":false,"rental_uris":{"android":"levelo://app?vid=64cd3d95-1725-477d-bc45-fa8570d8f0cd","ios":"levelo://app?vid=64cd3d95-1725-477d-bc45-fa8570d8f0cd"},"vehicle_type_id":"4","last_reported":1768241930,"current_range_meters":3200,"station_id":"st_d2m65c5bi1j21697t3ng","pricing_plan_id":"cebpf4jnsgd1na2vs0mg"},{"bike_id":"7482f723-e9aa-4c5c-baec-c9574fd38c08","system_id":"levelo_inurba_marseille","lat":43.31533,"lon":5.38016,"is_reserved":false,"is_disabled":false,"rental_uris":{"android":"levelo://app?vid=7482f723-e9aa-4c5c-baec-c9574fd38c08","ios":"levelo://app?vid=7482f723-e9aa-4c5c-baec-c9574fd38c08"},"vehicle_type_id":"4","last_reported":1768241930,"current_range_meters":3200,"station_id":"ce4bhsp2rcd13ifvqi50","pricing_plan_id":"cebpf4jnsgd1na2vs0mg"},{"bike_id":"6ad6e14f-b56b-421d-a6ba-eb1c8cdbfdc6","system_id":"levelo_inurba_marseille","lat":43.29853,"lon":5.36289,"is_reserved":false,"is_disabled":false,"rental_uris":{"android":"levelo://app?vid=6ad6e14f-b56b-421d-a6ba-eb1c8cdbfdc6","ios":"levelo://app?vid=6ad6e14f-b56b-421d-a6ba-eb1c8cdbfdc6"},"vehicle_type_id":"4","last_reported":1768241930,"current_range_meters":3600,"station_id":"ce4bgpp2rcd13ifvqc3g","pricing_plan_id":"cebpf4jnsgd1na2vs0mg"},{"bike_id":"9bc89c8e-a483-418e-b55a-8f6d2ebdde7a","system_id":"levelo_inurba_marseille","lat":43.22934,"lon":5.35377,"is_reserved":false,"is_disabled":false,"rental_uris":{"android":"levelo://app?vid=9bc89c8e-a483-418e-b55a-8f6d2ebdde7a","ios":"levelo://app?vid=9bc89c8e-a483-418e-b55a-8f6d2ebdde7a"},"vehicle_type_id":"4","last_reported":1768241930,"current_range_meters":3600,"station_id":"cpo3532slgdg3j2ikp40","pricing_plan_id":"cebpf4jnsgd1na2vs0mg"},{"bike_id":"6c3d77ae-e5b4-40fb-ac8d-55d2ca975358","system_id":"levelo_inurba_marseille","lat":43.25338,"lon":5.421808,"is_reserved":false,"is_disabled":false,"rental_uris":{"android":"levelo://app?vid=6c3d77ae-e5b4-40fb-ac8d-55d2ca975358","ios":"levelo://app?vid=6c3d77ae-e5b4-40fb-ac8d-55d2ca975358"},"vehicle_type_id":"4","last_reported":1768241930,"current_range_meters":3600,"station_id":"st_d2m65c5bi1j21697t3ng","pricing_plan_id":"cebpf4jnsgd1na2vs0mg"},{"bike_id":"f5cc3353-2eb4-4fef-87a7-73fd26e5d359","system_id":"levelo_inurba_marseille","lat":43.25003,"lon":5.38936,"is_reserved":false,"is_disabled":false,"rental_uris":{"android":"levelo://app?vid=f5cc3353-2eb4-4fef-87a7-73fd26e5d359","ios":"levelo://app?vid=f5cc3353-2eb4-4fef-87a7-73fd26e5d359"},"vehicle_type_id":"4","last_reported":1768241930,"current_range_meters":3600,"station_id":"ce4bhgp2rcd13ifvqfd0","pricing_plan_id":"cebpf4jnsgd1na2vs0mg"},{"bike_id":"4796fbb0-0ff6-4038-81f9-79f0028fe827","system_id":"levelo_inurba_marseille","lat":43.295288,"lon":5.385409,"is_reserved":false,"is_disabled":false,"rental_uris":{"android":"levelo://app?vid=4796fbb0-0ff6-4038-81f9-79f0028fe827","ios":"levelo://app?vid=4796fbb0-0ff6-4038-81f9-79f0028fe827"},"vehicle_type_id":"4","last_reported":1768241930,"current_range_meters":3600,"station_id":"ce4bgih2rcd13ifvqba0","pricing_plan_id":"cebpf4jnsgd1na2vs0mg"},{"bike_id":"07ffdba9-ad9b-45a2-9345-0cd700d2b6a9","system_id":"levelo_inurba_marseille","lat":43.2804,"lon":5.36945,"is_reserved":false,"is_disabled":false,"rental_uris":{"android":"levelo://app?vid=07ffdba9-ad9b-45a2-9345-0cd700d2b6a9","ios":"levelo://app?vid=07ffdba9-ad9b-45a2-9345-0cd700d2b6a9"},"vehicle_type_id":"4","last_reported":1768241930,"current_range_meters":3600,"station_id":"ce4bha12rcd13ifvqef0","pricing_plan_id":"cebpf4jnsgd1na2vs0mg"},{"bike_id":"fc07a5f4-baa1-432d-8197-76b4987e0970","system_id":"levelo_inurba_marseille","lat":43.30585,"lon":5.37091,"is_reserved":false,"is_disabled":false,"rental_uris":{"android":"levelo://app?vid=fc07a5f4-baa1-432d-8197-76b4987e0970","ios":"levelo://app?vid=fc07a5f4-baa1-432d-8197-76b4987e0970"},"vehicle_type_id":"4","last_reported":1768241930,"current_range_meters":3600,"station_id":"","pricing_plan_id":"cebpf4jnsgd1na2vs0mg"},{"bike_id":"b1b1e325-f9ab-4dfc-88c2-8bb9fd05557c","system_id":"levelo_inurba_marseille","lat":43.30889,"lon":5.37204,"is_reserved":false,"is_disabled":false,"rental_uris":{"android":"levelo://app?vid=b1b1e325-f9ab-4dfc-88c2-8bb9fd05557c","ios":"levelo://app?vid=b1b1e325-f9ab-4dfc-88c2-8bb9fd05557c"},"vehicle_type_id":"4","last_reported":1768241930,"current_range_meters":3600,"station_id":"ce4bguh2rcd13ifvqckg","pricing_plan_id":"cebpf4jnsgd1na2vs0mg"},{"bike_id":"c42733a9-3460-4d69-9f64-7395e3d47680","system_id":"levelo_inurba_marseille","lat":43.32527,"lon":5.40673,"is_reserved":false,"is_disabled":false,"rental_uris":{"android":"levelo://app?vid=c42733a9-3460-4d69-9f64-7395e3d47680","ios":"levelo://app?vid=c42733a9-3460-4d69-9f64-7395e3d47680"},"vehicle_type_id":"4","last_reported":1768241930,"current_range_meters":3600,"station_id":"","pricing_plan_id":"cebpf4jnsgd1na2vs0mg"},{"bike_id":"42aea219-9a5c-47a8-938c-7ea5cbf03ba7","system_id":"levelo_inurba_marseille","lat":43.26781,"lon":5.39412,"is_reserved":false,"is_disabled":false,"rental_uris":{"android":"levelo://app?vid=42aea219-9a5c-47a8-938c-7ea5cbf03ba7","ios":"levelo://app?vid=42aea219-9a5c-47a8-938c-7ea5cbf03ba7"},"vehicle_type_id":"4","last_reported":1768241930,"current_range_meters":3600,"station_id":"ce4bhh12rcd13ifvqfg0","pricing_plan_id":"cebpf4jnsgd1na2vs0mg"},{"bike_id":"63455f42-0b47-4078-a8cf-348f242f0a66","system_id":"levelo_inurba_marseille","lat":43.25577,"lon":5.38226,"is_reserved":false,"is_disabled":false,"rental_uris":{"android":"levelo://app?vid=63455f42-0b47-4078-a8cf-348f242f0a66","ios":"levelo://app?vid=63455f42-0b47-4078-a8cf-348f242f0a66"},"vehicle_type_id":"4","last_reported":1768241930,"current_range_meters":4000,"station_id":"ce4bhih2rcd13ifvqfs0","pricing_plan_id":"cebpf4jnsgd1na2vs0mg"},{"bike_id":"41541052-aaac-401b-9a4b-4100378978ed","system_id":"levelo_inurba_marseille","lat":43.241627,"lon":5.363926,"is_reserved":false,"is_disabled":false,"rental_uris":{"android":"levelo://app?vid=41541052-aaac-401b-9a4b-4100378978ed","ios":"levelo://app?vid=41541052-aaac-401b-9a4b-4100378978ed"},"vehicle_type_id":"4","last_reported":1768241930,"current_range_meters":4000,"station_id":"cpo36qri1sfpv3e86is0","pricing_plan_id":"cebpf4jnsgd1na2vs0mg"},{"bike_id":"11b7113f-ff79-4452-9417-d352466ee269","system_id":"levelo_inurba_marseille","lat":43.32317,"lon":5.3705,"is_reserved":false,"is_disabled":false,"rental_uris":{"android":"levelo://app?vid=11b7113f-ff79-4452-9417-d352466ee269","ios":"levelo://app?vid=11b7113f-ff79-4452-9417-d352466ee269"},"vehicle_type_id":"4","last_reported":1768241930,"current_range_meters":4000,"station_id":"","pricing_plan_id":"cebpf4jnsgd1na2vs0mg"},{"bike_id":"6680bd6e-a9c3-48c4-86d6-4cdc76ce96f2","system_id":"levelo_inurba_marseille","lat":43.26563,"lon":5.40324,"is_reserved":false,"is_disabled":false,"rental_uris":{"android":"levelo://app?vid=6680bd6e-a9c3-48c4-86d6-4cdc76ce96f2","ios":"levelo://app?vid=6680bd6e-a9c3-48c4-86d6-4cdc76ce96f2"},"vehicle_type_id":"4","last_reported":1768241930,"current_range_meters":4000,"station_id":"ce4bhmp2rcd13ifvqgng","pricing_plan_id":"cebpf4jnsgd1na2vs0mg"},{"bike_id":"9baaf756-52c7-44b4-b899-0a755bfa56f3","system_id":"levelo_inurba_marseille","lat":43.28353,"lon":5.38114,"is_reserved":false,"is_disabled":false,"rental_uris":{"android":"levelo://app?vid=9baaf756-52c7-44b4-b899-0a755bfa56f3","ios":"levelo://app?vid=9baaf756-52c7-44b4-b899-0a755bfa56f3"},"vehicle_type_id":"4","last_reported":1768241930,"current_range_meters":4000,"station_id":"ce4bh412rcd13ifvqdr0","pricing_plan_id":"cebpf4jnsgd1na2vs0mg"},{"bike_id":"9787124e-2f43-4981-b8ec-2ffd778032d5","system_id":"levelo_inurba_marseille","lat":43.26936,"lon":5.38927,"is_reserved":false,"is_disabled":false,"rental_uris":{"android":"levelo://app?vid=9787124e-2f43-4981-b8ec-2ffd778032d5","ios":"levelo://app?vid=9787124e-2f43-4981-b8ec-2ffd778032d5"},"vehicle_type_id":"4","last_reported":1768241930,"current_range_meters":4000,"station_id":"ce4bhhh2rcd13ifvqfl0","pricing_plan_id":"cebpf4jnsgd1na2vs0mg"},{"bike_id":"e8909d11-c6c0-4a1b-a11a-6b74d5a8be8d","system_id":"levelo_inurba_marseille","lat":43.225339,"lon":5.348392,"is_reserved":false,"is_disabled":false,"rental_uris":{"android":"levelo://app?vid=e8909d11-c6c0-4a1b-a11a-6b74d5a8be8d","ios":"levelo://app?vid=e8909d11-c6c0-4a1b-a11a-6b74d5a8be8d"},"vehicle_type_id":"4","last_reported":1768241930,"current_range_meters":4000,"station_id":"","pricing_plan_id":"cebpf4jnsgd1na2vs0mg"},{"bike_id":"aedb0b1d-61ef-4190-a07d-7f49f8bc3c0c","system_id":"levelo_inurba_marseille","lat":43.22929,"lon":5.3537,"is_reserved":false,"is_disabled":false,"rental_uris":{"android":"levelo://app?vid=aedb0b1d-61ef-4190-a07d-7f49f8bc3c0c","ios":"levelo://app?vid=aedb0b1d-61ef-4190-a07d-7f49f8bc3c0c"},"vehicle_type_id":"4","last_reported":1768241930,"current_range_meters":4000,"station_id":"cpo3532slgdg3j2ikp40","pricing_plan_id":"cebpf4jnsgd1na2vs0mg"},{"bike_id":"01b19e5d-b9f1-4c50-ac3f-4cdb26e79d1b","system_id":"levelo_inurba_marseille","lat":43.27812,"lon":5.40712,"is_reserved":false,"is_disabled":false,"rental_uris":{"android":"levelo://app?vid=01b19e5d-b9f1-4c50-ac3f-4cdb26e79d1b","ios":"levelo://app?vid=01b19e5d-b9f1-4c50-ac3f-4cdb26e79d1b"},"vehicle_type_id":"4","last_reported":1768241930,"current_range_meters":4000,"station_id":"ce4bhnh2rcd13ifvqgtg","pricing_plan_id":"cebpf4jnsgd1na2vs0mg"},{"bike_id":"021c3b11-e583-40b4-8ea1-2ae3371d0bc9","system_id":"levelo_inurba_marseille","lat":43.28491,"lon":5.48419,"is_reserved":false,"is_disabled":false,"rental_uris":{"android":"levelo://app?vid=021c3b11-e583-40b4-8ea1-2ae3371d0bc9","ios":"levelo://app?vid=021c3b11-e583-40b4-8ea1-2ae3371d0bc9"},"vehicle_type_id":"4","last_reported":1768241930,"current_range_meters":4000,"station_id":"","pricing_plan_id":"cebpf4jnsgd1na2vs0mg"},{"bike_id":"b77dd399-8633-4e57-b02f-3cf1ad9b2dc5","system_id":"levelo_inurba_marseille","lat":43.332744,"lon":5.412216,"is_reserved":false,"is_disabled":false,"rental_uris":{"android":"levelo://app?vid=b77dd399-8633-4e57-b02f-3cf1ad9b2dc5","ios":"levelo://app?vid=b77dd399-8633-4e57-b02f-3cf1ad9b2dc5"},"vehicle_type_id":"4","last_reported":1768241930,"current_range_meters":4000,"station_id":"","pricing_plan_id":"cebpf4jnsgd1na2vs0mg"},{"bike_id":"682a25db-2229-438e-a91a-bd8e0ed43f7f","system_id":"levelo_inurba_marseille","lat":43.30208,"lon":5.37099,"is_reserved":false,"is_disabled":false,"rental_uris":{"android":"levelo://app?vid=682a25db-2229-438e-a91a-bd8e0ed43f7f","ios":"levelo://app?vid=682a25db-2229-438e-a91a-bd8e0ed43f7f"},"vehicle_type_id":"4","last_reported":1768241930,"current_range_meters":4400,"station_id":"","pricing_plan_id":"cebpf4jnsgd1na2vs0mg"},{"bike_id":"37d346c2-402f-45d2-b4da-80d15ccfc742","system_id":"levelo_inurba_marseille","lat":43.25115,"lon":5.40319,"is_reserved":false,"is_disabled":false,"rental_uris":{"android":"levelo://app?vid=37d346c2-402f-45d2-b4da-80d15ccfc742","ios":"levelo://app?vid=37d346c2-402f-45d2-b4da-80d15ccfc742"},"vehicle_type_id":"4","last_reported":1768241930,"current_range_meters":4400,"station_id":"ce4bhlh2rcd13ifvqgig","pricing_plan_id":"cebpf4jnsgd1na2vs0mg"},{"bike_id":"74517fce-3511-422e-b7b6-d84d30e9d61f","system_id":"levelo_inurba_marseille","lat":43.30367,"lon":5.37326,"is_reserved":false,"is_disabled":false,"rental_uris":{"android":"levelo://app?vid=74517fce-3511-422e-b7b6-d84d30e9d61f","ios":"levelo://app?vid=74517fce-3511-422e-b7b6-d84d30e9d61f"},"vehicle_type_id":"4","last_reported":1768241930,"current_range_meters":4400,"station_id":"","pricing_plan_id":"cebpf4jnsgd1na2vs0mg"},{"bike_id":"86e3d2b0-3b7b-43a8-a0f5-1c139a4a5076","system_id":"levelo_inurba_marseille","lat":43.27915,"lon":5.39581,"is_reserved":false,"is_disabled":false,"rental_uris":{"android":"levelo://app?vid=86e3d2b0-3b7b-43a8-a0f5-1c139a4a5076","ios":"levelo://app?vid=86e3d2b0-3b7b-43a8-a0f5-1c139a4a5076"},"vehicle_type_id":"4","last_reported":1768241930,"current_range_meters":4400,"station_id":"ce4bhf92rcd13ifvqf40","pricing_plan_id":"cebpf4jnsgd1na2vs0mg"},{"bike_id":"208b6de9-ffcd-4907-8a2c-4799bc189022","system_id":"levelo_inurba_marseille","lat":43.23193,"lon":5.3997,"is_reserved":false,"is_disabled":false,"rental_uris":{"android":"levelo://app?vid=208b6de9-ffcd-4907-8a2c-4799bc189022","ios":"levelo://app?vid=208b6de9-ffcd-4907-8a2c-4799bc189022"},"vehicle_type_id":"4","last_reported":1768241930,"current_range_meters":4400,"station_id":"ce4bhn12rcd13ifvqgqg","pricing_plan_id":"cebpf4jnsgd1na2vs0mg"},{"bike_id":"64f7d702-cc24-4d72-aef8-c34806e3088b","system_id":"levelo_inurba_marseille","lat":43.2512,"lon":5.40332,"is_reserved":false,"is_disabled":false,"rental_uris":{"android":"levelo://app?vid=64f7d702-cc24-4d72-aef8-c34806e3088b","ios":"levelo://app?vid=64f7d702-cc24-4d72-aef8-c34806e3088b"},"vehicle_type_id":"4","last_reported":1768241930,"current_range_meters":4400,"station_id":"ce4bhlh2rcd13ifvqgig","pricing_plan_id":"cebpf4jnsgd1na2vs0mg"},{"bike_id":"599551f3-489c-449c-a5f9-34490cbff37c","system_id":"levelo_inurba_marseille","lat":43.28481,"lon":5.38216,"is_reserved":false,"is_disabled":false,"rental_uris":{"android":"levelo://app?vid=599551f3-489c-449c-a5f9-34490cbff37c","ios":"levelo://app?vid=599551f3-489c-449c-a5f9-34490cbff37c"},"vehicle_type_id":"4","last_reported":1768241930,"current_range_meters":4400,"station_id":"","pricing_plan_id":"cebpf4jnsgd1na2vs0mg"},{"bike_id":"950fb9ca-8a92-4124-b176-97b616bd9ee7","system_id":"levelo_inurba_marseille","lat":43.28852,"lon":5.39322,"is_reserved":false,"is_disabled":true,"rental_uris":{"android":"levelo://app?vid=950fb9ca-8a92-4124-b176-97b616bd9ee7","ios":"levelo://app?vid=950fb9ca-8a92-4124-b176-97b616bd9ee7"},"vehicle_type_id":"4","last_reported":1768241930,"current_range_meters":4400,"station_id":"ce4bh2p2rcd13ifvqdi0","pricing_plan_id":"cebpf4jnsgd1na2vs0mg"},{"bike_id":"2f357f68-e8cc-4f6a-9fe7-b735ddecb351","system_id":"levelo_inurba_marseille","lat":43.31724,"lon":5.37753,"is_reserved":false,"is_disabled":false,"rental_uris":{"android":"levelo://app?vid=2f357f68-e8cc-4f6a-9fe7-b735ddecb351","ios":"levelo://app?vid=2f357f68-e8cc-4f6a-9fe7-b735ddecb351"},"vehicle_type_id":"4","last_reported":1768241930,"current_range_meters":4400,"station_id":"ce4bgth2rcd13ifvqch0","pricing_plan_id":"cebpf4jnsgd1na2vs0mg"},{"bike_id":"2890cf2d-a560-4dc5-a0c5-018a030626b0","system_id":"levelo_inurba_marseille","lat":43.25825,"lon":5.39432,"is_reserved":false,"is_disabled":false,"rental_uris":{"android":"levelo://app?vid=2890cf2d-a560-4dc5-a0c5-018a030626b0","ios":"levelo://app?vid=2890cf2d-a560-4dc5-a0c5-018a030626b0"},"vehicle_type_id":"4","last_reported":1768241930,"current_range_meters":4400,"station_id":"ce4bhip2rcd13ifvqft0","pricing_plan_id":"cebpf4jnsgd1na2vs0mg"},{"bike_id":"f55035af-60a9-49d1-8e12-e53ee74a2586","system_id":"levelo_inurba_marseille","lat":43.29845,"lon":5.36268,"is_reserved":false,"is_disabled":false,"rental_uris":{"android":"levelo://app?vid=f55035af-60a9-49d1-8e12-e53ee74a2586","ios":"levelo://app?vid=f55035af-60a9-49d1-8e12-e53ee74a2586"},"vehicle_type_id":"4","last_reported":1768241930,"current_range_meters":4400,"station_id":"ce4bgpp2rcd13ifvqc3g","pricing_plan_id":"cebpf4jnsgd1na2vs0mg"},{"bike_id":"1e77de7f-4d27-4509-a320-356d2d64a285","system_id":"levelo_inurba_marseille","lat":43.306138,"lon":5.372315,"is_reserved":false,"is_disabled":false,"rental_uris":{"android":"levelo://app?vid=1e77de7f-4d27-4509-a320-356d2d64a285","ios":"levelo://app?vid=1e77de7f-4d27-4509-a320-356d2d64a285"},"vehicle_type_id":"4","last_reported":1768241930,"current_range_meters":4400,"station_id":"ce4bgqh2rcd13ifvqc4g","pricing_plan_id":"cebpf4jnsgd1na2vs0mg"},{"bike_id":"84e16006-5628-4350-aeb6-7f7c09d8818d","system_id":"levelo_inurba_marseille","lat":43.23965,"lon":5.36629,"is_reserved":false,"is_disabled":false,"rental_uris":{"android":"levelo://app?vid=84e16006-5628-4350-aeb6-7f7c09d8818d","ios":"levelo://app?vid=84e16006-5628-4350-aeb6-7f7c09d8818d"},"vehicle_type_id":"4","last_reported":1768241930,"current_range_meters":4400,"station_id":"ce4bhi12rcd13ifvqfp0","pricing_plan_id":"cebpf4jnsgd1na2vs0mg"},{"bike_id":"6e5c982e-c67a-4226-afb6-c45803df8e9d","system_id":"levelo_inurba_marseille","lat":43.27981,"lon":5.41646,"is_reserved":false,"is_disabled":false,"rental_uris":{"android":"levelo://app?vid=6e5c982e-c67a-4226-afb6-c45803df8e9d","ios":"levelo://app?vid=6e5c982e-c67a-4226-afb6-c45803df8e9d"},"vehicle_type_id":"4","last_reported":1768241930,"current_range_meters":4400,"station_id":"ce4bho12rcd13ifvqh1g","pricing_plan_id":"cebpf4jnsgd1na2vs0mg"},{"bike_id":"10a4859b-492e-4415-9063-1030a46ae63d","system_id":"levelo_inurba_marseille","lat":43.23793,"lon":5.36631,"is_reserved":false,"is_disabled":false,"rental_uris":{"android":"levelo://app?vid=10a4859b-492e-4415-9063-1030a46ae63d","ios":"levelo://app?vid=10a4859b-492e-4415-9063-1030a46ae63d"},"vehicle_type_id":"4","last_reported":1768241930,"current_range_meters":4400,"station_id":"st_d3nk18o9ro0c73en2l3g","pricing_plan_id":"cebpf4jnsgd1na2vs0mg"},{"bike_id":"7fe21793-db8c-4337-8752-6b7e026e2640","system_id":"levelo_inurba_marseille","lat":43.25516,"lon":5.3761,"is_reserved":false,"is_disabled":false,"rental_uris":{"android":"levelo://app?vid=7fe21793-db8c-4337-8752-6b7e026e2640","ios":"levelo://app?vid=7fe21793-db8c-4337-8752-6b7e026e2640"},"vehicle_type_id":"4","last_reported":1768241930,"current_range_meters":4400,"station_id":"ce4bhh12rcd13ifvqff0","pricing_plan_id":"cebpf4jnsgd1na2vs0mg"},{"bike_id":"d8554dab-c699-4c10-b045-54add82446e0","system_id":"levelo_inurba_marseille","lat":43.26558,"lon":5.39015,"is_reserved":false,"is_disabled":false,"rental_uris":{"android":"levelo://app?vid=d8554dab-c699-4c10-b045-54add82446e0","ios":"levelo://app?vid=d8554dab-c699-4c10-b045-54add82446e0"},"vehicle_type_id":"4","last_reported":1768241930,"current_range_meters":4400,"station_id":"ce4bhe12rcd13ifvqf30","pricing_plan_id":"cebpf4jnsgd1na2vs0mg"},{"bike_id":"63b1856a-5e73-4949-8313-642a7aae66aa","system_id":"levelo_inurba_marseille","lat":43.22924,"lon":5.35378,"is_reserved":false,"is_disabled":false,"rental_uris":{"android":"levelo://app?vid=63b1856a-5e73-4949-8313-642a7aae66aa","ios":"levelo://app?vid=63b1856a-5e73-4949-8313-642a7aae66aa"},"vehicle_type_id":"4","last_reported":1768241930,"current_range_meters":4400,"station_id":"cpo3532slgdg3j2ikp40","pricing_plan_id":"cebpf4jnsgd1na2vs0mg"},{"bike_id":"f66a133e-7af9-409d-b78c-71e5f6289609","system_id":"levelo_inurba_marseille","lat":43.2256,"lon":5.41624,"is_reserved":false,"is_disabled":false,"rental_uris":{"android":"levelo://app?vid=f66a133e-7af9-409d-b78c-71e5f6289609","ios":"levelo://app?vid=f66a133e-7af9-409d-b78c-71e5f6289609"},"vehicle_type_id":"4","last_reported":1768241930,"current_range_meters":4400,"station_id":"st_d2o4gvlbi1j2169b742g","pricing_plan_id":"cebpf4jnsgd1na2vs0mg"},{"bike_id":"8fe004da-d884-439d-b5b3-c79d651a3f8c","system_id":"levelo_inurba_marseille","lat":43.2804,"lon":5.36934,"is_reserved":false,"is_disabled":false,"rental_uris":{"android":"levelo://app?vid=8fe004da-d884-439d-b5b3-c79d651a3f8c","ios":"levelo://app?vid=8fe004da-d884-439d-b5b3-c79d651a3f8c"},"vehicle_type_id":"4","last_reported":1768241930,"current_range_meters":4400,"station_id":"ce4bha12rcd13ifvqef0","pricing_plan_id":"cebpf4jnsgd1na2vs0mg"},{"bike_id":"65b70051-09ac-46a7-9a7f-f58322751641","system_id":"levelo_inurba_marseille","lat":43.31485,"lon":5.37299,"is_reserved":false,"is_disabled":false,"rental_uris":{"android":"levelo://app?vid=65b70051-09ac-46a7-9a7f-f58322751641","ios":"levelo://app?vid=65b70051-09ac-46a7-9a7f-f58322751641"},"vehicle_type_id":"4","last_reported":1768241930,"current_range_meters":4400,"station_id":"ce4bgt12rcd13ifvqcd0","pricing_plan_id":"cebpf4jnsgd1na2vs0mg"},{"bike_id":"4755f4de-5e86-47b9-8160-12c356d26375","system_id":"levelo_inurba_marseille","lat":43.22557,"lon":5.41629,"is_reserved":false,"is_disabled":false,"rental_uris":{"android":"levelo://app?vid=4755f4de-5e86-47b9-8160-12c356d26375","ios":"levelo://app?vid=4755f4de-5e86-47b9-8160-12c356d26375"},"vehicle_type_id":"4","last_reported":1768241930,"current_range_meters":4400,"station_id":"st_d2o4gvlbi1j2169b742g","pricing_plan_id":"cebpf4jnsgd1na2vs0mg"},{"bike_id":"8f9c5fef-eb25-471f-abc7-43f55327e6a6","system_id":"levelo_inurba_marseille","lat":43.27815,"lon":5.40711,"is_reserved":false,"is_disabled":false,"rental_uris":{"android":"levelo://app?vid=8f9c5fef-eb25-471f-abc7-43f55327e6a6","ios":"levelo://app?vid=8f9c5fef-eb25-471f-abc7-43f55327e6a6"},"vehicle_type_id":"4","last_reported":1768241930,"current_range_meters":4800,"station_id":"ce4bhnh2rcd13ifvqgtg","pricing_plan_id":"cebpf4jnsgd1na2vs0mg"},{"bike_id":"a7f3381d-b96a-4907-8886-7a2032e17419","system_id":"levelo_inurba_marseille","lat":43.30738,"lon":5.42433,"is_reserved":false,"is_disabled":false,"rental_uris":{"android":"levelo://app?vid=a7f3381d-b96a-4907-8886-7a2032e17419","ios":"levelo://app?vid=a7f3381d-b96a-4907-8886-7a2032e17419"},"vehicle_type_id":"4","last_reported":1768241930,"current_range_meters":4800,"station_id":"st_cvj6ca6bvosntc0bfgr0","pricing_plan_id":"cebpf4jnsgd1na2vs0mg"},{"bike_id":"63a8ad53-0407-4bea-a09c-eee796fd0c2b","system_id":"levelo_inurba_marseille","lat":43.27879,"lon":5.40744,"is_reserved":false,"is_disabled":false,"rental_uris":{"android":"levelo://app?vid=63a8ad53-0407-4bea-a09c-eee796fd0c2b","ios":"levelo://app?vid=63a8ad53-0407-4bea-a09c-eee796fd0c2b"},"vehicle_type_id":"4","last_reported":1768241930,"current_range_meters":4800,"station_id":"","pricing_plan_id":"cebpf4jnsgd1na2vs0mg"},{"bike_id":"2c79ba8b-e186-4531-bb05-ea95004575af","system_id":"levelo_inurba_marseille","lat":43.30182,"lon":5.38079,"is_reserved":false,"is_disabled":false,"rental_uris":{"android":"levelo://app?vid=2c79ba8b-e186-4531-bb05-ea95004575af","ios":"levelo://app?vid=2c79ba8b-e186-4531-bb05-ea95004575af"},"vehicle_type_id":"4","last_reported":1768241930,"current_range_meters":4800,"station_id":"ce4bgjp2rcd13ifvqbh0","pricing_plan_id":"cebpf4jnsgd1na2vs0mg"},{"bike_id":"e21f83f2-ad42-4aed-9759-576415e0cd84","system_id":"levelo_inurba_marseille","lat":43.28518,"lon":5.42997,"is_reserved":false,"is_disabled":false,"rental_uris":{"android":"levelo://app?vid=e21f83f2-ad42-4aed-9759-576415e0cd84","ios":"levelo://app?vid=e21f83f2-ad42-4aed-9759-576415e0cd84"},"vehicle_type_id":"4","last_reported":1768241930,"current_range_meters":4800,"station_id":"","pricing_plan_id":"cebpf4jnsgd1na2vs0mg"},{"bike_id":"99b0b882-37e6-4299-b9b6-2ed94cbce739","system_id":"levelo_inurba_marseille","lat":43.30646,"lon":5.40081,"is_reserved":false,"is_disabled":false,"rental_uris":{"android":"levelo://app?vid=99b0b882-37e6-4299-b9b6-2ed94cbce739","ios":"levelo://app?vid=99b0b882-37e6-4299-b9b6-2ed94cbce739"},"vehicle_type_id":"4","last_reported":1768241930,"current_range_meters":4800,"station_id":"ce4bh112rcd13ifvqda0","pricing_plan_id":"cebpf4jnsgd1na2vs0mg"},{"bike_id":"795d793e-88df-4ac1-a147-0968b8571e02","system_id":"levelo_inurba_marseille","lat":43.23188,"lon":5.39981,"is_reserved":false,"is_disabled":false,"rental_uris":{"android":"levelo://app?vid=795d793e-88df-4ac1-a147-0968b8571e02","ios":"levelo://app?vid=795d793e-88df-4ac1-a147-0968b8571e02"},"vehicle_type_id":"4","last_reported":1768241930,"current_range_meters":4800,"station_id":"ce4bhn12rcd13ifvqgqg","pricing_plan_id":"cebpf4jnsgd1na2vs0mg"},{"bike_id":"b3299f87-2756-452f-a2ad-5db4a7d2e646","system_id":"levelo_inurba_marseille","lat":43.29279,"lon":5.4012,"is_reserved":false,"is_disabled":false,"rental_uris":{"android":"levelo://app?vid=b3299f87-2756-452f-a2ad-5db4a7d2e646","ios":"levelo://app?vid=b3299f87-2756-452f-a2ad-5db4a7d2e646"},"vehicle_type_id":"4","last_reported":1768241930,"current_range_meters":4800,"station_id":"ce4bh312rcd13ifvqdk0","pricing_plan_id":"cebpf4jnsgd1na2vs0mg"},{"bike_id":"db3843ce-54de-4097-bdb4-de5fae035089","system_id":"levelo_inurba_marseille","lat":43.296045,"lon":5.381037,"is_reserved":false,"is_disabled":false,"rental_uris":{"android":"levelo://app?vid=db3843ce-54de-4097-bdb4-de5fae035089","ios":"levelo://app?vid=db3843ce-54de-4097-bdb4-de5fae035089"},"vehicle_type_id":"4","last_reported":1768241930,"current_range_meters":4800,"station_id":"ce4bgup2rcd13ifvqco0","pricing_plan_id":"cebpf4jnsgd1na2vs0mg"},{"bike_id":"f3a618ee-96a3-4640-b487-ccfb6882f3f2","system_id":"levelo_inurba_marseille","lat":43.29194,"lon":5.35797,"is_reserved":false,"is_disabled":false,"rental_uris":{"android":"levelo://app?vid=f3a618ee-96a3-4640-b487-ccfb6882f3f2","ios":"levelo://app?vid=f3a618ee-96a3-4640-b487-ccfb6882f3f2"},"vehicle_type_id":"4","last_reported":1768241930,"current_range_meters":4800,"station_id":"ce4bhb12rcd13ifvqel0","pricing_plan_id":"cebpf4jnsgd1na2vs0mg"},{"bike_id":"d27437ba-3ffb-4f9d-bb78-9893a2ba4e33","system_id":"levelo_inurba_marseille","lat":43.28613,"lon":5.35112,"is_reserved":false,"is_disabled":false,"rental_uris":{"android":"levelo://app?vid=d27437ba-3ffb-4f9d-bb78-9893a2ba4e33","ios":"levelo://app?vid=d27437ba-3ffb-4f9d-bb78-9893a2ba4e33"},"vehicle_type_id":"4","last_reported":1768241930,"current_range_meters":4800,"station_id":"ce4bhch2rcd13ifvqeug","pricing_plan_id":"cebpf4jnsgd1na2vs0mg"},{"bike_id":"5a93c31a-82d4-4450-bb2d-5c0f5869f750","system_id":"levelo_inurba_marseille","lat":43.31393,"lon":5.36938,"is_reserved":false,"is_disabled":false,"rental_uris":{"android":"levelo://app?vid=5a93c31a-82d4-4450-bb2d-5c0f5869f750","ios":"levelo://app?vid=5a93c31a-82d4-4450-bb2d-5c0f5869f750"},"vehicle_type_id":"4","last_reported":1768241930,"current_range_meters":4800,"station_id":"","pricing_plan_id":"cebpf4jnsgd1na2vs0mg"},{"bike_id":"c54ce281-353e-49bf-958e-392ff0163285","system_id":"levelo_inurba_marseille","lat":43.28435,"lon":5.39206,"is_reserved":false,"is_disabled":false,"rental_uris":{"android":"levelo://app?vid=c54ce281-353e-49bf-958e-392ff0163285","ios":"levelo://app?vid=c54ce281-353e-49bf-958e-392ff0163285"},"vehicle_type_id":"4","last_reported":1768241930,"current_range_meters":4800,"station_id":"ce4bhoh2rcd13ifvqh5g","pricing_plan_id":"cebpf4jnsgd1na2vs0mg"},{"bike_id":"af146d4e-f9c3-4778-9ef8-32090a68b37a","system_id":"levelo_inurba_marseille","lat":43.30585,"lon":5.39345,"is_reserved":false,"is_disabled":false,"rental_uris":{"android":"levelo://app?vid=af146d4e-f9c3-4778-9ef8-32090a68b37a","ios":"levelo://app?vid=af146d4e-f9c3-4778-9ef8-32090a68b37a"},"vehicle_type_id":"4","last_reported":1768241930,"current_range_meters":4800,"station_id":"ce4bh0p2rcd13ifvqd80","pricing_plan_id":"cebpf4jnsgd1na2vs0mg"},{"bike_id":"86b62783-992a-4d4e-b21b-d4b6818d36d8","system_id":"levelo_inurba_marseille","lat":43.25598,"lon":5.38195,"is_reserved":false,"is_disabled":false,"rental_uris":{"android":"levelo://app?vid=86b62783-992a-4d4e-b21b-d4b6818d36d8","ios":"levelo://app?vid=86b62783-992a-4d4e-b21b-d4b6818d36d8"},"vehicle_type_id":"4","last_reported":1768241930,"current_range_meters":4800,"station_id":"ce4bhih2rcd13ifvqfs0","pricing_plan_id":"cebpf4jnsgd1na2vs0mg"},{"bike_id":"886f6a48-d8c9-4f03-9c08-fa6700bc8f85","system_id":"levelo_inurba_marseille","lat":43.22935,"lon":5.35378,"is_reserved":false,"is_disabled":false,"rental_uris":{"android":"levelo://app?vid=886f6a48-d8c9-4f03-9c08-fa6700bc8f85","ios":"levelo://app?vid=886f6a48-d8c9-4f03-9c08-fa6700bc8f85"},"vehicle_type_id":"4","last_reported":1768241930,"current_range_meters":4800,"station_id":"cpo3532slgdg3j2ikp40","pricing_plan_id":"cebpf4jnsgd1na2vs0mg"},{"bike_id":"53d22cba-91d1-42b1-b294-699211397009","system_id":"levelo_inurba_marseille","lat":43.253309,"lon":5.421641,"is_reserved":false,"is_disabled":false,"rental_uris":{"android":"levelo://app?vid=53d22cba-91d1-42b1-b294-699211397009","ios":"levelo://app?vid=53d22cba-91d1-42b1-b294-699211397009"},"vehicle_type_id":"4","last_reported":1768241930,"current_range_meters":4800,"station_id":"st_d2m65c5bi1j21697t3ng","pricing_plan_id":"cebpf4jnsgd1na2vs0mg"},{"bike_id":"8f7d4958-8799-4979-b908-245a42bc8529","system_id":"levelo_inurba_marseille","lat":43.30429,"lon":5.38908,"is_reserved":false,"is_disabled":false,"rental_uris":{"android":"levelo://app?vid=8f7d4958-8799-4979-b908-245a42bc8529","ios":"levelo://app?vid=8f7d4958-8799-4979-b908-245a42bc8529"},"vehicle_type_id":"4","last_reported":1768241930,"current_range_meters":4800,"station_id":"ce4bgk12rcd13ifvqbi0","pricing_plan_id":"cebpf4jnsgd1na2vs0mg"},{"bike_id":"fa41facd-1726-4f2f-947e-865f658f52f6","system_id":"levelo_inurba_marseille","lat":43.262074,"lon":5.37927,"is_reserved":false,"is_disabled":true,"rental_uris":{"android":"levelo://app?vid=fa41facd-1726-4f2f-947e-865f658f52f6","ios":"levelo://app?vid=fa41facd-1726-4f2f-947e-865f658f52f6"},"vehicle_type_id":"4","last_reported":1768241930,"current_range_meters":5600,"station_id":"","pricing_plan_id":"cebpf4jnsgd1na2vs0mg"},{"bike_id":"6cfafae2-24e3-4bb5-9336-a15339de06af","system_id":"levelo_inurba_marseille","lat":43.23777,"lon":5.36635,"is_reserved":false,"is_disabled":false,"rental_uris":{"android":"levelo://app?vid=6cfafae2-24e3-4bb5-9336-a15339de06af","ios":"levelo://app?vid=6cfafae2-24e3-4bb5-9336-a15339de06af"},"vehicle_type_id":"4","last_reported":1768241930,"current_range_meters":5600,"station_id":"st_d3nk18o9ro0c73en2l3g","pricing_plan_id":"cebpf4jnsgd1na2vs0mg"},{"bike_id":"5de157c2-16f6-4b03-910c-5a1a0f77b0ec","system_id":"levelo_inurba_marseille","lat":43.279062,"lon":5.380274,"is_reserved":false,"is_disabled":false,"rental_uris":{"android":"levelo://app?vid=5de157c2-16f6-4b03-910c-5a1a0f77b0ec","ios":"levelo://app?vid=5de157c2-16f6-4b03-910c-5a1a0f77b0ec"},"vehicle_type_id":"4","last_reported":1768241930,"current_range_meters":5600,"station_id":"ce4bhf92rcd13ifvqf50","pricing_plan_id":"cebpf4jnsgd1na2vs0mg"},{"bike_id":"c8ff5af5-da3b-4b10-9507-25dbe88a654d","system_id":"levelo_inurba_marseille","lat":43.28003,"lon":5.40908,"is_reserved":false,"is_disabled":false,"rental_uris":{"android":"levelo://app?vid=c8ff5af5-da3b-4b10-9507-25dbe88a654d","ios":"levelo://app?vid=c8ff5af5-da3b-4b10-9507-25dbe88a654d"},"vehicle_type_id":"4","last_reported":1768241930,"current_range_meters":5600,"station_id":"","pricing_plan_id":"cebpf4jnsgd1na2vs0mg"},{"bike_id":"2d8c1637-2fbc-4210-8640-38a49f09d559","system_id":"levelo_inurba_marseille","lat":43.28478,"lon":5.38548,"is_reserved":false,"is_disabled":false,"rental_uris":{"android":"levelo://app?vid=2d8c1637-2fbc-4210-8640-38a49f09d559","ios":"levelo://app?vid=2d8c1637-2fbc-4210-8640-38a49f09d559"},"vehicle_type_id":"4","last_reported":1768241930,"current_range_meters":5600,"station_id":"ce4bh8p2rcd13ifvqeb0","pricing_plan_id":"cebpf4jnsgd1na2vs0mg"},{"bike_id":"dd67a0b3-d5e0-4276-b1a4-1926be74a790","system_id":"levelo_inurba_marseille","lat":43.30014,"lon":5.37637,"is_reserved":false,"is_disabled":false,"rental_uris":{"android":"levelo://app?vid=dd67a0b3-d5e0-4276-b1a4-1926be74a790","ios":"levelo://app?vid=dd67a0b3-d5e0-4276-b1a4-1926be74a790"},"vehicle_type_id":"4","last_reported":1768241930,"current_range_meters":5600,"station_id":"","pricing_plan_id":"cebpf4jnsgd1na2vs0mg"},{"bike_id":"635a1de5-8a8b-49a7-a7fc-67da1d77364c","system_id":"levelo_inurba_marseille","lat":43.30142,"lon":5.39875,"is_reserved":false,"is_disabled":false,"rental_uris":{"android":"levelo://app?vid=635a1de5-8a8b-49a7-a7fc-67da1d77364c","ios":"levelo://app?vid=635a1de5-8a8b-49a7-a7fc-67da1d77364c"},"vehicle_type_id":"4","last_reported":1768241930,"current_range_meters":5600,"station_id":"ce4bh0h2rcd13ifvqd40","pricing_plan_id":"cebpf4jnsgd1na2vs0mg"},{"bike_id":"750e8e62-51a2-4fb5-8872-d9b955bb452f","system_id":"levelo_inurba_marseille","lat":43.29799,"lon":5.381,"is_reserved":false,"is_disabled":false,"rental_uris":{"android":"levelo://app?vid=750e8e62-51a2-4fb5-8872-d9b955bb452f","ios":"levelo://app?vid=750e8e62-51a2-4fb5-8872-d9b955bb452f"},"vehicle_type_id":"4","last_reported":1768241930,"current_range_meters":5600,"station_id":"ce4bgip2rcd13ifvqbb0","pricing_plan_id":"cebpf4jnsgd1na2vs0mg"},{"bike_id":"5f6fb85d-91ce-41ed-9044-39fbef016a90","system_id":"levelo_inurba_marseille","lat":43.28351,"lon":5.38102,"is_reserved":false,"is_disabled":false,"rental_uris":{"android":"levelo://app?vid=5f6fb85d-91ce-41ed-9044-39fbef016a90","ios":"levelo://app?vid=5f6fb85d-91ce-41ed-9044-39fbef016a90"},"vehicle_type_id":"4","last_reported":1768241930,"current_range_meters":5600,"station_id":"ce4bh412rcd13ifvqdr0","pricing_plan_id":"cebpf4jnsgd1na2vs0mg"},{"bike_id":"82c86ff4-0d38-4dbb-9a89-8f3fb163ce47","system_id":"levelo_inurba_marseille","lat":43.28659,"lon":5.36352,"is_reserved":false,"is_disabled":false,"rental_uris":{"android":"levelo://app?vid=82c86ff4-0d38-4dbb-9a89-8f3fb163ce47","ios":"levelo://app?vid=82c86ff4-0d38-4dbb-9a89-8f3fb163ce47"},"vehicle_type_id":"4","last_reported":1768241930,"current_range_meters":5600,"station_id":"ce4bhah2rcd13ifvqej0","pricing_plan_id":"cebpf4jnsgd1na2vs0mg"},{"bike_id":"6b4cd2dc-25ea-4079-b9fe-5462d5e3a9f0","system_id":"levelo_inurba_marseille","lat":43.271248,"lon":5.404266,"is_reserved":false,"is_disabled":false,"rental_uris":{"android":"levelo://app?vid=6b4cd2dc-25ea-4079-b9fe-5462d5e3a9f0","ios":"levelo://app?vid=6b4cd2dc-25ea-4079-b9fe-5462d5e3a9f0"},"vehicle_type_id":"4","last_reported":1768241930,"current_range_meters":5600,"station_id":"","pricing_plan_id":"cebpf4jnsgd1na2vs0mg"},{"bike_id":"e182e4ab-288a-42b6-8e15-3c6ddf3ebe07","system_id":"levelo_inurba_marseille","lat":43.30948,"lon":5.40151,"is_reserved":false,"is_disabled":false,"rental_uris":{"android":"levelo://app?vid=e182e4ab-288a-42b6-8e15-3c6ddf3ebe07","ios":"levelo://app?vid=e182e4ab-288a-42b6-8e15-3c6ddf3ebe07"},"vehicle_type_id":"4","last_reported":1768241930,"current_range_meters":5600,"station_id":"ce4bgvp2rcd13ifvqct0","pricing_plan_id":"cebpf4jnsgd1na2vs0mg"},{"bike_id":"31112e0a-315c-4639-8339-bc4861e22d25","system_id":"levelo_inurba_marseille","lat":43.31678,"lon":5.37754,"is_reserved":false,"is_disabled":false,"rental_uris":{"android":"levelo://app?vid=31112e0a-315c-4639-8339-bc4861e22d25","ios":"levelo://app?vid=31112e0a-315c-4639-8339-bc4861e22d25"},"vehicle_type_id":"4","last_reported":1768241930,"current_range_meters":5600,"station_id":"ce4bgth2rcd13ifvqch0","pricing_plan_id":"cebpf4jnsgd1na2vs0mg"},{"bike_id":"73458e0d-84b9-4043-9286-37e9026bc27e","system_id":"levelo_inurba_marseille","lat":43.22556,"lon":5.41634,"is_reserved":false,"is_disabled":false,"rental_uris":{"android":"levelo://app?vid=73458e0d-84b9-4043-9286-37e9026bc27e","ios":"levelo://app?vid=73458e0d-84b9-4043-9286-37e9026bc27e"},"vehicle_type_id":"4","last_reported":1768241930,"current_range_meters":5600,"station_id":"st_d2o4gvlbi1j2169b742g","pricing_plan_id":"cebpf4jnsgd1na2vs0mg"},{"bike_id":"301c787a-5305-45f5-86ff-c559fa230a50","system_id":"levelo_inurba_marseille","lat":43.2988,"lon":5.37654,"is_reserved":false,"is_disabled":false,"rental_uris":{"android":"levelo://app?vid=301c787a-5305-45f5-86ff-c559fa230a50","ios":"levelo://app?vid=301c787a-5305-45f5-86ff-c559fa230a50"},"vehicle_type_id":"4","last_reported":1768241930,"current_range_meters":5600,"station_id":"","pricing_plan_id":"cebpf4jnsgd1na2vs0mg"},{"bike_id":"38b1f35e-3e66-44cb-abbb-1da3f84f9f5d","system_id":"levelo_inurba_marseille","lat":43.27847,"lon":5.39206,"is_reserved":false,"is_disabled":false,"rental_uris":{"android":"levelo://app?vid=38b1f35e-3e66-44cb-abbb-1da3f84f9f5d","ios":"levelo://app?vid=38b1f35e-3e66-44cb-abbb-1da3f84f9f5d"},"vehicle_type_id":"4","last_reported":1768241930,"current_range_meters":5600,"station_id":"ce4bhjp2rcd13ifvqga0","pricing_plan_id":"cebpf4jnsgd1na2vs0mg"},{"bike_id":"a5e4775c-fe09-4d93-916a-5022170bcc25","system_id":"levelo_inurba_marseille","lat":43.24168,"lon":5.36403,"is_reserved":false,"is_disabled":false,"rental_uris":{"android":"levelo://app?vid=a5e4775c-fe09-4d93-916a-5022170bcc25","ios":"levelo://app?vid=a5e4775c-fe09-4d93-916a-5022170bcc25"},"vehicle_type_id":"4","last_reported":1768241930,"current_range_meters":5600,"station_id":"cpo36qri1sfpv3e86is0","pricing_plan_id":"cebpf4jnsgd1na2vs0mg"},{"bike_id":"9a13a604-527d-4b4d-9bfc-822eda0c1bc3","system_id":"levelo_inurba_marseille","lat":43.29876,"lon":5.39719,"is_reserved":false,"is_disabled":false,"rental_uris":{"android":"levelo://app?vid=9a13a604-527d-4b4d-9bfc-822eda0c1bc3","ios":"levelo://app?vid=9a13a604-527d-4b4d-9bfc-822eda0c1bc3"},"vehicle_type_id":"4","last_reported":1768241930,"current_range_meters":5600,"station_id":"ce4bh0h2rcd13ifvqd50","pricing_plan_id":"cebpf4jnsgd1na2vs0mg"},{"bike_id":"46b25bcd-1b30-4ab1-a048-fe805bc6821a","system_id":"levelo_inurba_marseille","lat":43.25111,"lon":5.40311,"is_reserved":false,"is_disabled":false,"rental_uris":{"android":"levelo://app?vid=46b25bcd-1b30-4ab1-a048-fe805bc6821a","ios":"levelo://app?vid=46b25bcd-1b30-4ab1-a048-fe805bc6821a"},"vehicle_type_id":"4","last_reported":1768241930,"current_range_meters":5600,"station_id":"ce4bhlh2rcd13ifvqgig","pricing_plan_id":"cebpf4jnsgd1na2vs0mg"},{"bike_id":"241b3663-44e6-4e9d-8e4c-b7aa7cace038","system_id":"levelo_inurba_marseille","lat":43.27987,"lon":5.38665,"is_reserved":false,"is_disabled":false,"rental_uris":{"android":"levelo://app?vid=241b3663-44e6-4e9d-8e4c-b7aa7cace038","ios":"levelo://app?vid=241b3663-44e6-4e9d-8e4c-b7aa7cace038"},"vehicle_type_id":"4","last_reported":1768241930,"current_range_meters":5600,"station_id":"","pricing_plan_id":"cebpf4jnsgd1na2vs0mg"},{"bike_id":"8526553b-0b37-4bce-915f-62180bbce18a","system_id":"levelo_inurba_marseille","lat":43.29528,"lon":5.38547,"is_reserved":false,"is_disabled":false,"rental_uris":{"android":"levelo://app?vid=8526553b-0b37-4bce-915f-62180bbce18a","ios":"levelo://app?vid=8526553b-0b37-4bce-915f-62180bbce18a"},"vehicle_type_id":"4","last_reported":1768241930,"current_range_meters":6000,"station_id":"ce4bgih2rcd13ifvqba0","pricing_plan_id":"cebpf4jnsgd1na2vs0mg"},{"bike_id":"90d49c9a-3ea1-49e0-8bdd-873cf2f73029","system_id":"levelo_inurba_marseille","lat":43.2987,"lon":5.39736,"is_reserved":false,"is_disabled":false,"rental_uris":{"android":"levelo://app?vid=90d49c9a-3ea1-49e0-8bdd-873cf2f73029","ios":"levelo://app?vid=90d49c9a-3ea1-49e0-8bdd-873cf2f73029"},"vehicle_type_id":"4","last_reported":1768241930,"current_range_meters":6000,"station_id":"ce4bh0h2rcd13ifvqd50","pricing_plan_id":"cebpf4jnsgd1na2vs0mg"},{"bike_id":"7d00d7e1-b1fe-4c53-857d-9e3c45cb25aa","system_id":"levelo_inurba_marseille","lat":43.29851,"lon":5.36292,"is_reserved":false,"is_disabled":false,"rental_uris":{"android":"levelo://app?vid=7d00d7e1-b1fe-4c53-857d-9e3c45cb25aa","ios":"levelo://app?vid=7d00d7e1-b1fe-4c53-857d-9e3c45cb25aa"},"vehicle_type_id":"4","last_reported":1768241930,"current_range_meters":6000,"station_id":"ce4bgpp2rcd13ifvqc3g","pricing_plan_id":"cebpf4jnsgd1na2vs0mg"},{"bike_id":"5b74f76c-7655-4a1b-bf0f-ee1d1ac9b692","system_id":"levelo_inurba_marseille","lat":43.3138,"lon":5.36807,"is_reserved":false,"is_disabled":false,"rental_uris":{"android":"levelo://app?vid=5b74f76c-7655-4a1b-bf0f-ee1d1ac9b692","ios":"levelo://app?vid=5b74f76c-7655-4a1b-bf0f-ee1d1ac9b692"},"vehicle_type_id":"4","last_reported":1768241930,"current_range_meters":6000,"station_id":"","pricing_plan_id":"cebpf4jnsgd1na2vs0mg"},{"bike_id":"f043a1a1-4a69-4186-9666-3af6d6cee7e1","system_id":"levelo_inurba_marseille","lat":43.26186,"lon":5.37459,"is_reserved":false,"is_disabled":true,"rental_uris":{"android":"levelo://app?vid=f043a1a1-4a69-4186-9666-3af6d6cee7e1","ios":"levelo://app?vid=f043a1a1-4a69-4186-9666-3af6d6cee7e1"},"vehicle_type_id":"4","last_reported":1768241930,"current_range_meters":6000,"station_id":"ce4bhgp2rcd13ifvqfc0","pricing_plan_id":"cebpf4jnsgd1na2vs0mg"},{"bike_id":"b75b9b40-daab-41be-984c-4907ce0bd6e7","system_id":"levelo_inurba_marseille","lat":43.28436,"lon":5.35006,"is_reserved":false,"is_disabled":false,"rental_uris":{"android":"levelo://app?vid=b75b9b40-daab-41be-984c-4907ce0bd6e7","ios":"levelo://app?vid=b75b9b40-daab-41be-984c-4907ce0bd6e7"},"vehicle_type_id":"4","last_reported":1768241930,"current_range_meters":6000,"station_id":"ce4bhbh2rcd13ifvqepg","pricing_plan_id":"cebpf4jnsgd1na2vs0mg"},{"bike_id":"0b89e391-f907-49b3-821c-11a35132660a","system_id":"levelo_inurba_marseille","lat":43.25339,"lon":5.42174,"is_reserved":false,"is_disabled":false,"rental_uris":{"android":"levelo://app?vid=0b89e391-f907-49b3-821c-11a35132660a","ios":"levelo://app?vid=0b89e391-f907-49b3-821c-11a35132660a"},"vehicle_type_id":"4","last_reported":1768241930,"current_range_meters":6000,"station_id":"st_d2m65c5bi1j21697t3ng","pricing_plan_id":"cebpf4jnsgd1na2vs0mg"},{"bike_id":"aaa7746b-4bb3-4745-9a78-16c7e3f0ea13","system_id":"levelo_inurba_marseille","lat":43.24068,"lon":5.37762,"is_reserved":false,"is_disabled":false,"rental_uris":{"android":"levelo://app?vid=aaa7746b-4bb3-4745-9a78-16c7e3f0ea13","ios":"levelo://app?vid=aaa7746b-4bb3-4745-9a78-16c7e3f0ea13"},"vehicle_type_id":"4","last_reported":1768241930,"current_range_meters":6000,"station_id":"ce4bhnp2rcd13ifvqgvg","pricing_plan_id":"cebpf4jnsgd1na2vs0mg"},{"bike_id":"b0d8414b-9ec4-4d2d-ada4-4b5a508ba76c","system_id":"levelo_inurba_marseille","lat":43.25931,"lon":5.40913,"is_reserved":false,"is_disabled":false,"rental_uris":{"android":"levelo://app?vid=b0d8414b-9ec4-4d2d-ada4-4b5a508ba76c","ios":"levelo://app?vid=b0d8414b-9ec4-4d2d-ada4-4b5a508ba76c"},"vehicle_type_id":"4","last_reported":1768241930,"current_range_meters":6000,"station_id":"ce4bhm92rcd13ifvqglg","pricing_plan_id":"cebpf4jnsgd1na2vs0mg"},{"bike_id":"56f33d1a-63a6-44cd-9b0f-4476e7b7806c","system_id":"levelo_inurba_marseille","lat":43.24079,"lon":5.37763,"is_reserved":false,"is_disabled":false,"rental_uris":{"android":"levelo://app?vid=56f33d1a-63a6-44cd-9b0f-4476e7b7806c","ios":"levelo://app?vid=56f33d1a-63a6-44cd-9b0f-4476e7b7806c"},"vehicle_type_id":"4","last_reported":1768241930,"current_range_meters":6000,"station_id":"ce4bhnp2rcd13ifvqgvg","pricing_plan_id":"cebpf4jnsgd1na2vs0mg"},{"bike_id":"fae57e34-d123-4b5d-b549-b5483c41b8c0","system_id":"levelo_inurba_marseille","lat":43.29142,"lon":5.37668,"is_reserved":false,"is_disabled":false,"rental_uris":{"android":"levelo://app?vid=fae57e34-d123-4b5d-b549-b5483c41b8c0","ios":"levelo://app?vid=fae57e34-d123-4b5d-b549-b5483c41b8c0"},"vehicle_type_id":"4","last_reported":1768241930,"current_range_meters":6000,"station_id":"","pricing_plan_id":"cebpf4jnsgd1na2vs0mg"},{"bike_id":"dbad2cff-9661-422b-a29b-69069add4417","system_id":"levelo_inurba_marseille","lat":43.22932,"lon":5.35382,"is_reserved":false,"is_disabled":false,"rental_uris":{"android":"levelo://app?vid=dbad2cff-9661-422b-a29b-69069add4417","ios":"levelo://app?vid=dbad2cff-9661-422b-a29b-69069add4417"},"vehicle_type_id":"4","last_reported":1768241930,"current_range_meters":6000,"station_id":"cpo3532slgdg3j2ikp40","pricing_plan_id":"cebpf4jnsgd1na2vs0mg"},{"bike_id":"b088ad58-7f41-4ab8-80da-21ba2cb9e467","system_id":"levelo_inurba_marseille","lat":43.22566,"lon":5.41622,"is_reserved":false,"is_disabled":false,"rental_uris":{"android":"levelo://app?vid=b088ad58-7f41-4ab8-80da-21ba2cb9e467","ios":"levelo://app?vid=b088ad58-7f41-4ab8-80da-21ba2cb9e467"},"vehicle_type_id":"4","last_reported":1768241930,"current_range_meters":6000,"station_id":"st_d2o4gvlbi1j2169b742g","pricing_plan_id":"cebpf4jnsgd1na2vs0mg"},{"bike_id":"6139c10e-9938-4122-bd56-3985da1045c8","system_id":"levelo_inurba_marseille","lat":43.24457,"lon":5.42529,"is_reserved":false,"is_disabled":false,"rental_uris":{"android":"levelo://app?vid=6139c10e-9938-4122-bd56-3985da1045c8","ios":"levelo://app?vid=6139c10e-9938-4122-bd56-3985da1045c8"},"vehicle_type_id":"4","last_reported":1768241930,"current_range_meters":6000,"station_id":"st_d4a3vfp97mjs738cd8kg","pricing_plan_id":"cebpf4jnsgd1na2vs0mg"},{"bike_id":"9f2a1fd3-ffc5-4586-95af-377ff8c15230","system_id":"levelo_inurba_marseille","lat":43.2495,"lon":5.40493,"is_reserved":false,"is_disabled":false,"rental_uris":{"android":"levelo://app?vid=9f2a1fd3-ffc5-4586-95af-377ff8c15230","ios":"levelo://app?vid=9f2a1fd3-ffc5-4586-95af-377ff8c15230"},"vehicle_type_id":"4","last_reported":1768241930,"current_range_meters":6000,"station_id":"st_d2ngiaodas8pm72gd1h0","pricing_plan_id":"cebpf4jnsgd1na2vs0mg"},{"bike_id":"1da82394-edf2-4a0c-a62d-43072755bbb4","system_id":"levelo_inurba_marseille","lat":43.24673,"lon":5.3815,"is_reserved":false,"is_disabled":false,"rental_uris":{"android":"levelo://app?vid=1da82394-edf2-4a0c-a62d-43072755bbb4","ios":"levelo://app?vid=1da82394-edf2-4a0c-a62d-43072755bbb4"},"vehicle_type_id":"4","last_reported":1768241930,"current_range_meters":6000,"station_id":"ce4bhih2rcd13ifvqfr0","pricing_plan_id":"cebpf4jnsgd1na2vs0mg"},{"bike_id":"2e02cc71-3e50-4a35-806f-7e9a5398a999","system_id":"levelo_inurba_marseille","lat":43.29229,"lon":5.36104,"is_reserved":false,"is_disabled":true,"rental_uris":{"android":"levelo://app?vid=2e02cc71-3e50-4a35-806f-7e9a5398a999","ios":"levelo://app?vid=2e02cc71-3e50-4a35-806f-7e9a5398a999"},"vehicle_type_id":"4","last_reported":1768241930,"current_range_meters":6400,"station_id":"ce4bhbh2rcd13ifvqeqg","pricing_plan_id":"cebpf4jnsgd1na2vs0mg"},{"bike_id":"1aa61ac0-9c18-4327-98a5-1e9ed887f470","system_id":"levelo_inurba_marseille","lat":43.284091,"lon":5.375151,"is_reserved":false,"is_disabled":false,"rental_uris":{"android":"levelo://app?vid=1aa61ac0-9c18-4327-98a5-1e9ed887f470","ios":"levelo://app?vid=1aa61ac0-9c18-4327-98a5-1e9ed887f470"},"vehicle_type_id":"4","last_reported":1768241930,"current_range_meters":6400,"station_id":"ce4bh412rcd13ifvqds0","pricing_plan_id":"cebpf4jnsgd1na2vs0mg"},{"bike_id":"35254f06-efb2-4d00-b949-89c11838f9ec","system_id":"levelo_inurba_marseille","lat":43.23195,"lon":5.35572,"is_reserved":false,"is_disabled":false,"rental_uris":{"android":"levelo://app?vid=35254f06-efb2-4d00-b949-89c11838f9ec","ios":"levelo://app?vid=35254f06-efb2-4d00-b949-89c11838f9ec"},"vehicle_type_id":"4","last_reported":1768241930,"current_range_meters":6400,"station_id":"ce4bhu92rcd13ifvqi70","pricing_plan_id":"cebpf4jnsgd1na2vs0mg"},{"bike_id":"857213d5-7353-4d98-a3cc-a303673faf43","system_id":"levelo_inurba_marseille","lat":43.25588,"lon":5.38234,"is_reserved":false,"is_disabled":true,"rental_uris":{"android":"levelo://app?vid=857213d5-7353-4d98-a3cc-a303673faf43","ios":"levelo://app?vid=857213d5-7353-4d98-a3cc-a303673faf43"},"vehicle_type_id":"4","last_reported":1768241930,"current_range_meters":6400,"station_id":"ce4bhih2rcd13ifvqfs0","pricing_plan_id":"cebpf4jnsgd1na2vs0mg"},{"bike_id":"a16392da-5207-4df7-9429-2df19a8a41ee","system_id":"levelo_inurba_marseille","lat":43.32941,"lon":5.39054,"is_reserved":false,"is_disabled":false,"rental_uris":{"android":"levelo://app?vid=a16392da-5207-4df7-9429-2df19a8a41ee","ios":"levelo://app?vid=a16392da-5207-4df7-9429-2df19a8a41ee"},"vehicle_type_id":"4","last_reported":1768241930,"current_range_meters":6400,"station_id":"","pricing_plan_id":"cebpf4jnsgd1na2vs0mg"},{"bike_id":"48e0d58e-bd7e-4b90-92d4-898fdf7abd39","system_id":"levelo_inurba_marseille","lat":43.30882,"lon":5.40577,"is_reserved":false,"is_disabled":false,"rental_uris":{"android":"levelo://app?vid=48e0d58e-bd7e-4b90-92d4-898fdf7abd39","ios":"levelo://app?vid=48e0d58e-bd7e-4b90-92d4-898fdf7abd39"},"vehicle_type_id":"4","last_reported":1768241930,"current_range_meters":6400,"station_id":"","pricing_plan_id":"cebpf4jnsgd1na2vs0mg"},{"bike_id":"21f594df-8489-4ed1-9833-71f4d7d5f3e6","system_id":"levelo_inurba_marseille","lat":43.276152,"lon":5.361068,"is_reserved":false,"is_disabled":false,"rental_uris":{"android":"levelo://app?vid=21f594df-8489-4ed1-9833-71f4d7d5f3e6","ios":"levelo://app?vid=21f594df-8489-4ed1-9833-71f4d7d5f3e6"},"vehicle_type_id":"4","last_reported":1768241930,"current_range_meters":6400,"station_id":"ce4bgj92rcd13ifvqbe0","pricing_plan_id":"cebpf4jnsgd1na2vs0mg"},{"bike_id":"2587eba2-f80d-4b3a-88e3-bb85d27a199d","system_id":"levelo_inurba_marseille","lat":43.22561,"lon":5.41642,"is_reserved":false,"is_disabled":false,"rental_uris":{"android":"levelo://app?vid=2587eba2-f80d-4b3a-88e3-bb85d27a199d","ios":"levelo://app?vid=2587eba2-f80d-4b3a-88e3-bb85d27a199d"},"vehicle_type_id":"4","last_reported":1768241930,"current_range_meters":6400,"station_id":"st_d2o4gvlbi1j2169b742g","pricing_plan_id":"cebpf4jnsgd1na2vs0mg"},{"bike_id":"881ab4b2-44fd-41aa-a940-9c805591aebd","system_id":"levelo_inurba_marseille","lat":43.29844,"lon":5.36272,"is_reserved":false,"is_disabled":false,"rental_uris":{"android":"levelo://app?vid=881ab4b2-44fd-41aa-a940-9c805591aebd","ios":"levelo://app?vid=881ab4b2-44fd-41aa-a940-9c805591aebd"},"vehicle_type_id":"4","last_reported":1768241930,"current_range_meters":6400,"station_id":"ce4bgpp2rcd13ifvqc3g","pricing_plan_id":"cebpf4jnsgd1na2vs0mg"},{"bike_id":"cf7ff780-5cc1-488c-bf59-2cc02d1f230b","system_id":"levelo_inurba_marseille","lat":43.23758,"lon":5.36672,"is_reserved":false,"is_disabled":false,"rental_uris":{"android":"levelo://app?vid=cf7ff780-5cc1-488c-bf59-2cc02d1f230b","ios":"levelo://app?vid=cf7ff780-5cc1-488c-bf59-2cc02d1f230b"},"vehicle_type_id":"4","last_reported":1768241930,"current_range_meters":6400,"station_id":"st_d3nk18o9ro0c73en2l3g","pricing_plan_id":"cebpf4jnsgd1na2vs0mg"},{"bike_id":"5a7dd1fb-12da-4ffe-a80c-3d765edaa1e0","system_id":"levelo_inurba_marseille","lat":43.22555,"lon":5.41626,"is_reserved":false,"is_disabled":false,"rental_uris":{"android":"levelo://app?vid=5a7dd1fb-12da-4ffe-a80c-3d765edaa1e0","ios":"levelo://app?vid=5a7dd1fb-12da-4ffe-a80c-3d765edaa1e0"},"vehicle_type_id":"4","last_reported":1768241930,"current_range_meters":6400,"station_id":"st_d2o4gvlbi1j2169b742g","pricing_plan_id":"cebpf4jnsgd1na2vs0mg"},{"bike_id":"31b02cd8-90be-4607-9612-ef41245111ac","system_id":"levelo_inurba_marseille","lat":43.2895,"lon":5.36413,"is_reserved":false,"is_disabled":true,"rental_uris":{"android":"levelo://app?vid=31b02cd8-90be-4607-9612-ef41245111ac","ios":"levelo://app?vid=31b02cd8-90be-4607-9612-ef41245111ac"},"vehicle_type_id":"4","last_reported":1768241930,"current_range_meters":6400,"station_id":"ce4bhc92rcd13ifvqetg","pricing_plan_id":"cebpf4jnsgd1na2vs0mg"},{"bike_id":"6406b753-28fd-4c5d-89b2-3902feebd9b5","system_id":"levelo_inurba_marseille","lat":43.26059,"lon":5.39364,"is_reserved":false,"is_disabled":false,"rental_uris":{"android":"levelo://app?vid=6406b753-28fd-4c5d-89b2-3902feebd9b5","ios":"levelo://app?vid=6406b753-28fd-4c5d-89b2-3902feebd9b5"},"vehicle_type_id":"4","last_reported":1768241930,"current_range_meters":6400,"station_id":"ce4bhh92rcd13ifvqfj0","pricing_plan_id":"cebpf4jnsgd1na2vs0mg"},{"bike_id":"affaca89-259f-4487-bcff-f8671a16ad76","system_id":"levelo_inurba_marseille","lat":43.28437,"lon":5.39173,"is_reserved":false,"is_disabled":false,"rental_uris":{"android":"levelo://app?vid=affaca89-259f-4487-bcff-f8671a16ad76","ios":"levelo://app?vid=affaca89-259f-4487-bcff-f8671a16ad76"},"vehicle_type_id":"4","last_reported":1768241930,"current_range_meters":6400,"station_id":"ce4bhoh2rcd13ifvqh5g","pricing_plan_id":"cebpf4jnsgd1na2vs0mg"},{"bike_id":"8778a270-debd-4124-975b-32917c0cd81c","system_id":"levelo_inurba_marseille","lat":43.30796,"lon":5.38149,"is_reserved":false,"is_disabled":false,"rental_uris":{"android":"levelo://app?vid=8778a270-debd-4124-975b-32917c0cd81c","ios":"levelo://app?vid=8778a270-debd-4124-975b-32917c0cd81c"},"vehicle_type_id":"4","last_reported":1768241930,"current_range_meters":6400,"station_id":"ce4bgt12rcd13ifvqce0","pricing_plan_id":"cebpf4jnsgd1na2vs0mg"},{"bike_id":"4202e215-6f29-4f58-ace8-2e6289f05e81","system_id":"levelo_inurba_marseille","lat":43.23959,"lon":5.36614,"is_reserved":false,"is_disabled":false,"rental_uris":{"android":"levelo://app?vid=4202e215-6f29-4f58-ace8-2e6289f05e81","ios":"levelo://app?vid=4202e215-6f29-4f58-ace8-2e6289f05e81"},"vehicle_type_id":"4","last_reported":1768241930,"current_range_meters":6400,"station_id":"ce4bhi12rcd13ifvqfp0","pricing_plan_id":"cebpf4jnsgd1na2vs0mg"},{"bike_id":"f2f6879c-c6f8-4aad-a64c-976ab5b32f9c","system_id":"levelo_inurba_marseille","lat":43.24046,"lon":5.3768,"is_reserved":false,"is_disabled":false,"rental_uris":{"android":"levelo://app?vid=f2f6879c-c6f8-4aad-a64c-976ab5b32f9c","ios":"levelo://app?vid=f2f6879c-c6f8-4aad-a64c-976ab5b32f9c"},"vehicle_type_id":"4","last_reported":1768241930,"current_range_meters":6400,"station_id":"","pricing_plan_id":"cebpf4jnsgd1na2vs0mg"},{"bike_id":"824e0100-c6fc-4a0d-bafe-328ab4a682ff","system_id":"levelo_inurba_marseille","lat":43.32357,"lon":5.36759,"is_reserved":false,"is_disabled":false,"rental_uris":{"android":"levelo://app?vid=824e0100-c6fc-4a0d-bafe-328ab4a682ff","ios":"levelo://app?vid=824e0100-c6fc-4a0d-bafe-328ab4a682ff"},"vehicle_type_id":"4","last_reported":1768241930,"current_range_meters":6400,"station_id":"ce4bhsh2rcd13ifvqi2g","pricing_plan_id":"cebpf4jnsgd1na2vs0mg"},{"bike_id":"724036e8-2e63-49a9-a556-8c29cbfb0aef","system_id":"levelo_inurba_marseille","lat":43.29842,"lon":5.36274,"is_reserved":false,"is_disabled":false,"rental_uris":{"android":"levelo://app?vid=724036e8-2e63-49a9-a556-8c29cbfb0aef","ios":"levelo://app?vid=724036e8-2e63-49a9-a556-8c29cbfb0aef"},"vehicle_type_id":"4","last_reported":1768241930,"current_range_meters":6400,"station_id":"ce4bgpp2rcd13ifvqc3g","pricing_plan_id":"cebpf4jnsgd1na2vs0mg"},{"bike_id":"5c7c7d9e-b199-43a9-9039-49ab92e678a2","system_id":"levelo_inurba_marseille","lat":43.27762,"lon":5.39941,"is_reserved":false,"is_disabled":false,"rental_uris":{"android":"levelo://app?vid=5c7c7d9e-b199-43a9-9039-49ab92e678a2","ios":"levelo://app?vid=5c7c7d9e-b199-43a9-9039-49ab92e678a2"},"vehicle_type_id":"4","last_reported":1768241930,"current_range_meters":6400,"station_id":"","pricing_plan_id":"cebpf4jnsgd1na2vs0mg"},{"bike_id":"df71383a-9ca7-495b-b260-689528024e77","system_id":"levelo_inurba_marseille","lat":43.29023,"lon":5.38625,"is_reserved":false,"is_disabled":false,"rental_uris":{"android":"levelo://app?vid=df71383a-9ca7-495b-b260-689528024e77","ios":"levelo://app?vid=df71383a-9ca7-495b-b260-689528024e77"},"vehicle_type_id":"4","last_reported":1768241930,"current_range_meters":6400,"station_id":"ce4bh4p2rcd13ifvqe0g","pricing_plan_id":"cebpf4jnsgd1na2vs0mg"},{"bike_id":"697994ed-c258-471a-a5e6-a50f88084b59","system_id":"levelo_inurba_marseille","lat":43.24984,"lon":5.38972,"is_reserved":false,"is_disabled":false,"rental_uris":{"android":"levelo://app?vid=697994ed-c258-471a-a5e6-a50f88084b59","ios":"levelo://app?vid=697994ed-c258-471a-a5e6-a50f88084b59"},"vehicle_type_id":"4","last_reported":1768241930,"current_range_meters":6400,"station_id":"","pricing_plan_id":"cebpf4jnsgd1na2vs0mg"},{"bike_id":"9562e019-218e-482a-aaa2-01b0ce4b1da7","system_id":"levelo_inurba_marseille","lat":43.290808,"lon":5.371638,"is_reserved":false,"is_disabled":false,"rental_uris":{"android":"levelo://app?vid=9562e019-218e-482a-aaa2-01b0ce4b1da7","ios":"levelo://app?vid=9562e019-218e-482a-aaa2-01b0ce4b1da7"},"vehicle_type_id":"4","last_reported":1768241930,"current_range_meters":6400,"station_id":"ce4bh5p2rcd13ifvqe4g","pricing_plan_id":"cebpf4jnsgd1na2vs0mg"},{"bike_id":"b81a771e-796c-40e5-98d5-2c3857393d80","system_id":"levelo_inurba_marseille","lat":43.284775,"lon":5.483983,"is_reserved":false,"is_disabled":false,"rental_uris":{"android":"levelo://app?vid=b81a771e-796c-40e5-98d5-2c3857393d80","ios":"levelo://app?vid=b81a771e-796c-40e5-98d5-2c3857393d80"},"vehicle_type_id":"4","last_reported":1768241930,"current_range_meters":6400,"station_id":"st_d3svhcjqgbts73a3dn0g","pricing_plan_id":"cebpf4jnsgd1na2vs0mg"},{"bike_id":"24f0a2da-aa1b-495a-8bd2-5db4872b3634","system_id":"levelo_inurba_marseille","lat":43.225613,"lon":5.416254,"is_reserved":false,"is_disabled":false,"rental_uris":{"android":"levelo://app?vid=24f0a2da-aa1b-495a-8bd2-5db4872b3634","ios":"levelo://app?vid=24f0a2da-aa1b-495a-8bd2-5db4872b3634"},"vehicle_type_id":"4","last_reported":1768241930,"current_range_meters":6400,"station_id":"st_d2o4gvlbi1j2169b742g","pricing_plan_id":"cebpf4jnsgd1na2vs0mg"},{"bike_id":"8685ba34-cb7d-4eb4-a401-a6d947bbdb57","system_id":"levelo_inurba_marseille","lat":43.24464,"lon":5.42545,"is_reserved":false,"is_disabled":false,"rental_uris":{"android":"levelo://app?vid=8685ba34-cb7d-4eb4-a401-a6d947bbdb57","ios":"levelo://app?vid=8685ba34-cb7d-4eb4-a401-a6d947bbdb57"},"vehicle_type_id":"4","last_reported":1768241930,"current_range_meters":6400,"station_id":"st_d4a3vfp97mjs738cd8kg","pricing_plan_id":"cebpf4jnsgd1na2vs0mg"},{"bike_id":"d6fc741c-6097-4ce8-aeee-b2422caf87bb","system_id":"levelo_inurba_marseille","lat":43.30131,"lon":5.3743,"is_reserved":false,"is_disabled":false,"rental_uris":{"android":"levelo://app?vid=d6fc741c-6097-4ce8-aeee-b2422caf87bb","ios":"levelo://app?vid=d6fc741c-6097-4ce8-aeee-b2422caf87bb"},"vehicle_type_id":"4","last_reported":1768241930,"current_range_meters":6800,"station_id":"ce4bgs92rcd13ifvqcc0","pricing_plan_id":"cebpf4jnsgd1na2vs0mg"},{"bike_id":"7c2a7247-1757-4f73-86d7-4e2145cd68ac","system_id":"levelo_inurba_marseille","lat":43.290651,"lon":5.372,"is_reserved":false,"is_disabled":false,"rental_uris":{"android":"levelo://app?vid=7c2a7247-1757-4f73-86d7-4e2145cd68ac","ios":"levelo://app?vid=7c2a7247-1757-4f73-86d7-4e2145cd68ac"},"vehicle_type_id":"4","last_reported":1768241930,"current_range_meters":6800,"station_id":"","pricing_plan_id":"cebpf4jnsgd1na2vs0mg"},{"bike_id":"c5cacf13-0b9c-41b5-94a2-55e05bf702f3","system_id":"levelo_inurba_marseille","lat":43.29718,"lon":5.3786,"is_reserved":false,"is_disabled":false,"rental_uris":{"android":"levelo://app?vid=c5cacf13-0b9c-41b5-94a2-55e05bf702f3","ios":"levelo://app?vid=c5cacf13-0b9c-41b5-94a2-55e05bf702f3"},"vehicle_type_id":"4","last_reported":1768241930,"current_range_meters":6800,"station_id":"","pricing_plan_id":"cebpf4jnsgd1na2vs0mg"},{"bike_id":"4c9ec99c-df7c-41bf-8b16-07391af7868c","system_id":"levelo_inurba_marseille","lat":43.2696,"lon":5.38636,"is_reserved":false,"is_disabled":false,"rental_uris":{"android":"levelo://app?vid=4c9ec99c-df7c-41bf-8b16-07391af7868c","ios":"levelo://app?vid=4c9ec99c-df7c-41bf-8b16-07391af7868c"},"vehicle_type_id":"4","last_reported":1768241930,"current_range_meters":6800,"station_id":"ce4bhh92rcd13ifvqfh0","pricing_plan_id":"cebpf4jnsgd1na2vs0mg"},{"bike_id":"d84786fe-606f-4cea-8819-113abea8f013","system_id":"levelo_inurba_marseille","lat":43.28867,"lon":5.42517,"is_reserved":false,"is_disabled":false,"rental_uris":{"android":"levelo://app?vid=d84786fe-606f-4cea-8819-113abea8f013","ios":"levelo://app?vid=d84786fe-606f-4cea-8819-113abea8f013"},"vehicle_type_id":"4","last_reported":1768241930,"current_range_meters":6800,"station_id":"st_d3b462108ojc7389ooeg","pricing_plan_id":"cebpf4jnsgd1na2vs0mg"},{"bike_id":"a3b66a73-aef3-42a6-bf24-ef2935218f23","system_id":"levelo_inurba_marseille","lat":43.32346,"lon":5.36748,"is_reserved":false,"is_disabled":false,"rental_uris":{"android":"levelo://app?vid=a3b66a73-aef3-42a6-bf24-ef2935218f23","ios":"levelo://app?vid=a3b66a73-aef3-42a6-bf24-ef2935218f23"},"vehicle_type_id":"4","last_reported":1768241930,"current_range_meters":6800,"station_id":"ce4bhsh2rcd13ifvqi2g","pricing_plan_id":"cebpf4jnsgd1na2vs0mg"},{"bike_id":"2e196469-604a-4967-bb8c-81182633e36a","system_id":"levelo_inurba_marseille","lat":43.30328,"lon":5.40439,"is_reserved":false,"is_disabled":false,"rental_uris":{"android":"levelo://app?vid=2e196469-604a-4967-bb8c-81182633e36a","ios":"levelo://app?vid=2e196469-604a-4967-bb8c-81182633e36a"},"vehicle_type_id":"4","last_reported":1768241930,"current_range_meters":6800,"station_id":"ce4bh012rcd13ifvqd10","pricing_plan_id":"cebpf4jnsgd1na2vs0mg"},{"bike_id":"d86ceb68-928c-4cd3-a45f-50c9cc1b47c6","system_id":"levelo_inurba_marseille","lat":43.27203,"lon":5.39207,"is_reserved":false,"is_disabled":false,"rental_uris":{"android":"levelo://app?vid=d86ceb68-928c-4cd3-a45f-50c9cc1b47c6","ios":"levelo://app?vid=d86ceb68-928c-4cd3-a45f-50c9cc1b47c6"},"vehicle_type_id":"4","last_reported":1768241930,"current_range_meters":6800,"station_id":"ce4bhhp2rcd13ifvqfm0","pricing_plan_id":"cebpf4jnsgd1na2vs0mg"},{"bike_id":"cddcf2c2-04b5-4843-b385-219618c4a20f","system_id":"levelo_inurba_marseille","lat":43.28622,"lon":5.351,"is_reserved":false,"is_disabled":false,"rental_uris":{"android":"levelo://app?vid=cddcf2c2-04b5-4843-b385-219618c4a20f","ios":"levelo://app?vid=cddcf2c2-04b5-4843-b385-219618c4a20f"},"vehicle_type_id":"4","last_reported":1768241930,"current_range_meters":6800,"station_id":"ce4bhch2rcd13ifvqeug","pricing_plan_id":"cebpf4jnsgd1na2vs0mg"},{"bike_id":"c211c6f8-49bd-4417-9066-24ae90884977","system_id":"levelo_inurba_marseille","lat":43.29858,"lon":5.36275,"is_reserved":false,"is_disabled":false,"rental_uris":{"android":"levelo://app?vid=c211c6f8-49bd-4417-9066-24ae90884977","ios":"levelo://app?vid=c211c6f8-49bd-4417-9066-24ae90884977"},"vehicle_type_id":"4","last_reported":1768241930,"current_range_meters":6800,"station_id":"ce4bgpp2rcd13ifvqc3g","pricing_plan_id":"cebpf4jnsgd1na2vs0mg"},{"bike_id":"bce5bef6-66c0-48f9-9494-83e46be9a229","system_id":"levelo_inurba_marseille","lat":43.32356,"lon":5.36756,"is_reserved":false,"is_disabled":false,"rental_uris":{"android":"levelo://app?vid=bce5bef6-66c0-48f9-9494-83e46be9a229","ios":"levelo://app?vid=bce5bef6-66c0-48f9-9494-83e46be9a229"},"vehicle_type_id":"4","last_reported":1768241930,"current_range_meters":6800,"station_id":"ce4bhsh2rcd13ifvqi2g","pricing_plan_id":"cebpf4jnsgd1na2vs0mg"},{"bike_id":"90dfc0c4-0044-4337-8331-b045fdb00361","system_id":"levelo_inurba_marseille","lat":43.33154,"lon":5.37666,"is_reserved":false,"is_disabled":false,"rental_uris":{"android":"levelo://app?vid=90dfc0c4-0044-4337-8331-b045fdb00361","ios":"levelo://app?vid=90dfc0c4-0044-4337-8331-b045fdb00361"},"vehicle_type_id":"4","last_reported":1768241930,"current_range_meters":6800,"station_id":"st_d46cu089ee8s73dldbu0","pricing_plan_id":"cebpf4jnsgd1na2vs0mg"},{"bike_id":"dd34afd7-28a2-4ecb-a2a1-fb96291af422","system_id":"levelo_inurba_marseille","lat":43.29903,"lon":5.37472,"is_reserved":false,"is_disabled":false,"rental_uris":{"android":"levelo://app?vid=dd34afd7-28a2-4ecb-a2a1-fb96291af422","ios":"levelo://app?vid=dd34afd7-28a2-4ecb-a2a1-fb96291af422"},"vehicle_type_id":"4","last_reported":1768241930,"current_range_meters":6800,"station_id":"ce4bgjh2rcd13ifvqbg0","pricing_plan_id":"cebpf4jnsgd1na2vs0mg"},{"bike_id":"63fc7043-c019-4251-abc3-87e8519908fa","system_id":"levelo_inurba_marseille","lat":43.26688,"lon":5.38285,"is_reserved":false,"is_disabled":true,"rental_uris":{"android":"levelo://app?vid=63fc7043-c019-4251-abc3-87e8519908fa","ios":"levelo://app?vid=63fc7043-c019-4251-abc3-87e8519908fa"},"vehicle_type_id":"4","last_reported":1768241930,"current_range_meters":6800,"station_id":"ce4bhg92rcd13ifvqf90","pricing_plan_id":"cebpf4jnsgd1na2vs0mg"},{"bike_id":"482817d6-1c7c-49cd-bf1a-a824b589e285","system_id":"levelo_inurba_marseille","lat":43.27849,"lon":5.3921,"is_reserved":false,"is_disabled":false,"rental_uris":{"android":"levelo://app?vid=482817d6-1c7c-49cd-bf1a-a824b589e285","ios":"levelo://app?vid=482817d6-1c7c-49cd-bf1a-a824b589e285"},"vehicle_type_id":"4","last_reported":1768241930,"current_range_meters":6800,"station_id":"ce4bhjp2rcd13ifvqga0","pricing_plan_id":"cebpf4jnsgd1na2vs0mg"},{"bike_id":"8049ab61-e378-4478-bef4-ac0f529d7d1a","system_id":"levelo_inurba_marseille","lat":43.23195,"lon":5.35548,"is_reserved":false,"is_disabled":false,"rental_uris":{"android":"levelo://app?vid=8049ab61-e378-4478-bef4-ac0f529d7d1a","ios":"levelo://app?vid=8049ab61-e378-4478-bef4-ac0f529d7d1a"},"vehicle_type_id":"4","last_reported":1768241930,"current_range_meters":6800,"station_id":"ce4bhu92rcd13ifvqi70","pricing_plan_id":"cebpf4jnsgd1na2vs0mg"},{"bike_id":"27e0c08d-d9ee-488f-9de1-e455ccd55d93","system_id":"levelo_inurba_marseille","lat":43.30146,"lon":5.38086,"is_reserved":false,"is_disabled":false,"rental_uris":{"android":"levelo://app?vid=27e0c08d-d9ee-488f-9de1-e455ccd55d93","ios":"levelo://app?vid=27e0c08d-d9ee-488f-9de1-e455ccd55d93"},"vehicle_type_id":"4","last_reported":1768241930,"current_range_meters":6800,"station_id":"ce4bgjp2rcd13ifvqbh0","pricing_plan_id":"cebpf4jnsgd1na2vs0mg"},{"bike_id":"d4c76a3c-be64-4255-845b-8ccc9f87b7d9","system_id":"levelo_inurba_marseille","lat":43.30013,"lon":5.37349,"is_reserved":false,"is_disabled":false,"rental_uris":{"android":"levelo://app?vid=d4c76a3c-be64-4255-845b-8ccc9f87b7d9","ios":"levelo://app?vid=d4c76a3c-be64-4255-845b-8ccc9f87b7d9"},"vehicle_type_id":"4","last_reported":1768241930,"current_range_meters":6800,"station_id":"","pricing_plan_id":"cebpf4jnsgd1na2vs0mg"},{"bike_id":"c982d76b-7fd6-451c-9063-ebda7a233a9e","system_id":"levelo_inurba_marseille","lat":43.26944,"lon":5.40241,"is_reserved":false,"is_disabled":false,"rental_uris":{"android":"levelo://app?vid=c982d76b-7fd6-451c-9063-ebda7a233a9e","ios":"levelo://app?vid=c982d76b-7fd6-451c-9063-ebda7a233a9e"},"vehicle_type_id":"4","last_reported":1768241930,"current_range_meters":6800,"station_id":"cjm6bp8fraef2m0cb0m0","pricing_plan_id":"cebpf4jnsgd1na2vs0mg"},{"bike_id":"b539daf2-0256-4f12-80ca-4ee66e0fd92e","system_id":"levelo_inurba_marseille","lat":43.24971,"lon":5.40483,"is_reserved":false,"is_disabled":false,"rental_uris":{"android":"levelo://app?vid=b539daf2-0256-4f12-80ca-4ee66e0fd92e","ios":"levelo://app?vid=b539daf2-0256-4f12-80ca-4ee66e0fd92e"},"vehicle_type_id":"4","last_reported":1768241930,"current_range_meters":6800,"station_id":"st_d2ngiaodas8pm72gd1h0","pricing_plan_id":"cebpf4jnsgd1na2vs0mg"},{"bike_id":"a10cebfe-81dc-4dff-bad4-c25d976b2067","system_id":"levelo_inurba_marseille","lat":43.284152,"lon":5.34984,"is_reserved":false,"is_disabled":false,"rental_uris":{"android":"levelo://app?vid=a10cebfe-81dc-4dff-bad4-c25d976b2067","ios":"levelo://app?vid=a10cebfe-81dc-4dff-bad4-c25d976b2067"},"vehicle_type_id":"4","last_reported":1768241930,"current_range_meters":7200,"station_id":"ce4bhbh2rcd13ifvqepg","pricing_plan_id":"cebpf4jnsgd1na2vs0mg"},{"bike_id":"07459b0c-be4e-4b2c-ac3f-4f1630cbbe77","system_id":"levelo_inurba_marseille","lat":43.2655,"lon":5.37309,"is_reserved":false,"is_disabled":false,"rental_uris":{"android":"levelo://app?vid=07459b0c-be4e-4b2c-ac3f-4f1630cbbe77","ios":"levelo://app?vid=07459b0c-be4e-4b2c-ac3f-4f1630cbbe77"},"vehicle_type_id":"4","last_reported":1768241930,"current_range_meters":7200,"station_id":"ce4bhg12rcd13ifvqf70","pricing_plan_id":"cebpf4jnsgd1na2vs0mg"},{"bike_id":"a38bcbb1-c226-4bc2-8672-2e7d0273da8d","system_id":"levelo_inurba_marseille","lat":43.32384,"lon":5.36672,"is_reserved":false,"is_disabled":false,"rental_uris":{"android":"levelo://app?vid=a38bcbb1-c226-4bc2-8672-2e7d0273da8d","ios":"levelo://app?vid=a38bcbb1-c226-4bc2-8672-2e7d0273da8d"},"vehicle_type_id":"4","last_reported":1768241930,"current_range_meters":7200,"station_id":"","pricing_plan_id":"cebpf4jnsgd1na2vs0mg"},{"bike_id":"bad9d05b-2efd-4707-af1a-d48b0eeaba21","system_id":"levelo_inurba_marseille","lat":43.24469,"lon":5.42535,"is_reserved":false,"is_disabled":false,"rental_uris":{"android":"levelo://app?vid=bad9d05b-2efd-4707-af1a-d48b0eeaba21","ios":"levelo://app?vid=bad9d05b-2efd-4707-af1a-d48b0eeaba21"},"vehicle_type_id":"4","last_reported":1768241930,"current_range_meters":7200,"station_id":"st_d4a3vfp97mjs738cd8kg","pricing_plan_id":"cebpf4jnsgd1na2vs0mg"},{"bike_id":"a0750e8b-6f08-4dec-ad7b-75931873cace","system_id":"levelo_inurba_marseille","lat":43.3014,"lon":5.37426,"is_reserved":false,"is_disabled":false,"rental_uris":{"android":"levelo://app?vid=a0750e8b-6f08-4dec-ad7b-75931873cace","ios":"levelo://app?vid=a0750e8b-6f08-4dec-ad7b-75931873cace"},"vehicle_type_id":"4","last_reported":1768241930,"current_range_meters":7200,"station_id":"ce4bgs92rcd13ifvqcc0","pricing_plan_id":"cebpf4jnsgd1na2vs0mg"},{"bike_id":"f2feb58b-2e1d-410d-a362-6a4d0a6ad00a","system_id":"levelo_inurba_marseille","lat":43.269458,"lon":5.402447,"is_reserved":false,"is_disabled":false,"rental_uris":{"android":"levelo://app?vid=f2feb58b-2e1d-410d-a362-6a4d0a6ad00a","ios":"levelo://app?vid=f2feb58b-2e1d-410d-a362-6a4d0a6ad00a"},"vehicle_type_id":"4","last_reported":1768241930,"current_range_meters":7200,"station_id":"cjm6bp8fraef2m0cb0m0","pricing_plan_id":"cebpf4jnsgd1na2vs0mg"},{"bike_id":"b0efd0f2-bc5c-4dff-bc29-9743c461b4d7","system_id":"levelo_inurba_marseille","lat":43.24063,"lon":5.37753,"is_reserved":false,"is_disabled":false,"rental_uris":{"android":"levelo://app?vid=b0efd0f2-bc5c-4dff-bc29-9743c461b4d7","ios":"levelo://app?vid=b0efd0f2-bc5c-4dff-bc29-9743c461b4d7"},"vehicle_type_id":"4","last_reported":1768241930,"current_range_meters":7200,"station_id":"ce4bhnp2rcd13ifvqgvg","pricing_plan_id":"cebpf4jnsgd1na2vs0mg"},{"bike_id":"b9c6eb4c-b3a9-45eb-87cd-efb346d5249f","system_id":"levelo_inurba_marseille","lat":43.28205,"lon":5.39066,"is_reserved":false,"is_disabled":false,"rental_uris":{"android":"levelo://app?vid=b9c6eb4c-b3a9-45eb-87cd-efb346d5249f","ios":"levelo://app?vid=b9c6eb4c-b3a9-45eb-87cd-efb346d5249f"},"vehicle_type_id":"4","last_reported":1768241930,"current_range_meters":7200,"station_id":"ce4bhn92rcd13ifvqgsg","pricing_plan_id":"cebpf4jnsgd1na2vs0mg"},{"bike_id":"38d076d2-a3a0-46d0-b800-0eaafad476d4","system_id":"levelo_inurba_marseille","lat":43.28233,"lon":5.40363,"is_reserved":false,"is_disabled":false,"rental_uris":{"android":"levelo://app?vid=38d076d2-a3a0-46d0-b800-0eaafad476d4","ios":"levelo://app?vid=38d076d2-a3a0-46d0-b800-0eaafad476d4"},"vehicle_type_id":"4","last_reported":1768241930,"current_range_meters":7200,"station_id":"","pricing_plan_id":"cebpf4jnsgd1na2vs0mg"},{"bike_id":"584740bc-b28f-45e7-8c07-3256faa8a0cc","system_id":"levelo_inurba_marseille","lat":43.262055,"lon":5.379269,"is_reserved":false,"is_disabled":true,"rental_uris":{"android":"levelo://app?vid=584740bc-b28f-45e7-8c07-3256faa8a0cc","ios":"levelo://app?vid=584740bc-b28f-45e7-8c07-3256faa8a0cc"},"vehicle_type_id":"4","last_reported":1768241930,"current_range_meters":7200,"station_id":"ce4bhjp2rcd13ifvqg90","pricing_plan_id":"cebpf4jnsgd1na2vs0mg"},{"bike_id":"bb1a79bd-f8cd-42d2-9565-6b62b5b7cf92","system_id":"levelo_inurba_marseille","lat":43.30818,"lon":5.38143,"is_reserved":false,"is_disabled":false,"rental_uris":{"android":"levelo://app?vid=bb1a79bd-f8cd-42d2-9565-6b62b5b7cf92","ios":"levelo://app?vid=bb1a79bd-f8cd-42d2-9565-6b62b5b7cf92"},"vehicle_type_id":"4","last_reported":1768241930,"current_range_meters":7200,"station_id":"ce4bgt12rcd13ifvqce0","pricing_plan_id":"cebpf4jnsgd1na2vs0mg"},{"bike_id":"6409133c-4bbf-461b-816e-0788c8d1979b","system_id":"levelo_inurba_marseille","lat":43.30436,"lon":5.38895,"is_reserved":false,"is_disabled":true,"rental_uris":{"android":"levelo://app?vid=6409133c-4bbf-461b-816e-0788c8d1979b","ios":"levelo://app?vid=6409133c-4bbf-461b-816e-0788c8d1979b"},"vehicle_type_id":"4","last_reported":1768241930,"current_range_meters":7200,"station_id":"ce4bgk12rcd13ifvqbi0","pricing_plan_id":"cebpf4jnsgd1na2vs0mg"},{"bike_id":"f984a5c8-b4f0-4ca0-8b12-faccee1f74d4","system_id":"levelo_inurba_marseille","lat":43.24803,"lon":5.37449,"is_reserved":false,"is_disabled":false,"rental_uris":{"android":"levelo://app?vid=f984a5c8-b4f0-4ca0-8b12-faccee1f74d4","ios":"levelo://app?vid=f984a5c8-b4f0-4ca0-8b12-faccee1f74d4"},"vehicle_type_id":"4","last_reported":1768241930,"current_range_meters":7200,"station_id":"ce4bhgh2rcd13ifvqfb0","pricing_plan_id":"cebpf4jnsgd1na2vs0mg"},{"bike_id":"ca6c5b5b-a9ad-467b-8916-3c5ac8e065da","system_id":"levelo_inurba_marseille","lat":43.29929,"lon":5.36532,"is_reserved":false,"is_disabled":false,"rental_uris":{"android":"levelo://app?vid=ca6c5b5b-a9ad-467b-8916-3c5ac8e065da","ios":"levelo://app?vid=ca6c5b5b-a9ad-467b-8916-3c5ac8e065da"},"vehicle_type_id":"4","last_reported":1768241930,"current_range_meters":7200,"station_id":"ce4bgm92rcd13ifvqbr0","pricing_plan_id":"cebpf4jnsgd1na2vs0mg"},{"bike_id":"6bba4daf-89fe-4d85-b2d6-e7c59d10d0f9","system_id":"levelo_inurba_marseille","lat":43.30081,"lon":5.3906,"is_reserved":false,"is_disabled":false,"rental_uris":{"android":"levelo://app?vid=6bba4daf-89fe-4d85-b2d6-e7c59d10d0f9","ios":"levelo://app?vid=6bba4daf-89fe-4d85-b2d6-e7c59d10d0f9"},"vehicle_type_id":"4","last_reported":1768241930,"current_range_meters":7200,"station_id":"ce4bh192rcd13ifvqdb0","pricing_plan_id":"cebpf4jnsgd1na2vs0mg"},{"bike_id":"7bca2df4-8675-4aff-8e91-8d5c46d9b3c2","system_id":"levelo_inurba_marseille","lat":43.311631,"lon":5.387209,"is_reserved":false,"is_disabled":false,"rental_uris":{"android":"levelo://app?vid=7bca2df4-8675-4aff-8e91-8d5c46d9b3c2","ios":"levelo://app?vid=7bca2df4-8675-4aff-8e91-8d5c46d9b3c2"},"vehicle_type_id":"4","last_reported":1768241930,"current_range_meters":7200,"station_id":"ce4bgv12rcd13ifvqcp0","pricing_plan_id":"cebpf4jnsgd1na2vs0mg"},{"bike_id":"9f295e7a-65c6-4272-9043-5a3d89670383","system_id":"levelo_inurba_marseille","lat":43.24811,"lon":5.37453,"is_reserved":false,"is_disabled":false,"rental_uris":{"android":"levelo://app?vid=9f295e7a-65c6-4272-9043-5a3d89670383","ios":"levelo://app?vid=9f295e7a-65c6-4272-9043-5a3d89670383"},"vehicle_type_id":"4","last_reported":1768241930,"current_range_meters":7200,"station_id":"ce4bhgh2rcd13ifvqfb0","pricing_plan_id":"cebpf4jnsgd1na2vs0mg"},{"bike_id":"46a88006-10dd-4061-a51c-940e0d780dfa","system_id":"levelo_inurba_marseille","lat":43.31056,"lon":5.37161,"is_reserved":false,"is_disabled":false,"rental_uris":{"android":"levelo://app?vid=46a88006-10dd-4061-a51c-940e0d780dfa","ios":"levelo://app?vid=46a88006-10dd-4061-a51c-940e0d780dfa"},"vehicle_type_id":"4","last_reported":1768241930,"current_range_meters":7200,"station_id":"st_d4kl2rp97mjs73e7tdfg","pricing_plan_id":"cebpf4jnsgd1na2vs0mg"},{"bike_id":"1b1a670a-fcf4-4828-aa79-e1b72cfec18c","system_id":"levelo_inurba_marseille","lat":43.23185,"lon":5.35541,"is_reserved":false,"is_disabled":false,"rental_uris":{"android":"levelo://app?vid=1b1a670a-fcf4-4828-aa79-e1b72cfec18c","ios":"levelo://app?vid=1b1a670a-fcf4-4828-aa79-e1b72cfec18c"},"vehicle_type_id":"4","last_reported":1768241930,"current_range_meters":7200,"station_id":"ce4bhu92rcd13ifvqi70","pricing_plan_id":"cebpf4jnsgd1na2vs0mg"},{"bike_id":"1fab451c-a69a-44ca-b2c3-fe8939fd9580","system_id":"levelo_inurba_marseille","lat":43.31513,"lon":5.41379,"is_reserved":false,"is_disabled":false,"rental_uris":{"android":"levelo://app?vid=1fab451c-a69a-44ca-b2c3-fe8939fd9580","ios":"levelo://app?vid=1fab451c-a69a-44ca-b2c3-fe8939fd9580"},"vehicle_type_id":"4","last_reported":1768241930,"current_range_meters":7200,"station_id":"","pricing_plan_id":"cebpf4jnsgd1na2vs0mg"},{"bike_id":"6dc37f44-5292-46c4-95cf-b92a3b7ee07e","system_id":"levelo_inurba_marseille","lat":43.30889,"lon":5.39617,"is_reserved":false,"is_disabled":false,"rental_uris":{"android":"levelo://app?vid=6dc37f44-5292-46c4-95cf-b92a3b7ee07e","ios":"levelo://app?vid=6dc37f44-5292-46c4-95cf-b92a3b7ee07e"},"vehicle_type_id":"4","last_reported":1768241930,"current_range_meters":7200,"station_id":"ce4bh012rcd13ifvqcv0","pricing_plan_id":"cebpf4jnsgd1na2vs0mg"},{"bike_id":"f4d56beb-17a4-43ae-a1b7-ece3f3acf3f9","system_id":"levelo_inurba_marseille","lat":43.27987,"lon":5.41665,"is_reserved":false,"is_disabled":false,"rental_uris":{"android":"levelo://app?vid=f4d56beb-17a4-43ae-a1b7-ece3f3acf3f9","ios":"levelo://app?vid=f4d56beb-17a4-43ae-a1b7-ece3f3acf3f9"},"vehicle_type_id":"4","last_reported":1768241930,"current_range_meters":7200,"station_id":"ce4bho12rcd13ifvqh1g","pricing_plan_id":"cebpf4jnsgd1na2vs0mg"},{"bike_id":"3afddde6-da0a-4c5c-b1a8-5c9ec0594646","system_id":"levelo_inurba_marseille","lat":43.29877,"lon":5.38902,"is_reserved":false,"is_disabled":false,"rental_uris":{"android":"levelo://app?vid=3afddde6-da0a-4c5c-b1a8-5c9ec0594646","ios":"levelo://app?vid=3afddde6-da0a-4c5c-b1a8-5c9ec0594646"},"vehicle_type_id":"4","last_reported":1768241930,"current_range_meters":7200,"station_id":"ce4bh392rcd13ifvqdl0","pricing_plan_id":"cebpf4jnsgd1na2vs0mg"},{"bike_id":"df269709-d44c-4576-84d8-e2021718e52e","system_id":"levelo_inurba_marseille","lat":43.27946,"lon":5.4105,"is_reserved":false,"is_disabled":false,"rental_uris":{"android":"levelo://app?vid=df269709-d44c-4576-84d8-e2021718e52e","ios":"levelo://app?vid=df269709-d44c-4576-84d8-e2021718e52e"},"vehicle_type_id":"4","last_reported":1768241930,"current_range_meters":7200,"station_id":"ce4bhnp2rcd13ifvqh0g","pricing_plan_id":"cebpf4jnsgd1na2vs0mg"},{"bike_id":"7d685810-6742-41f8-be5c-e1978be9f1f0","system_id":"levelo_inurba_marseille","lat":43.29847,"lon":5.36284,"is_reserved":false,"is_disabled":false,"rental_uris":{"android":"levelo://app?vid=7d685810-6742-41f8-be5c-e1978be9f1f0","ios":"levelo://app?vid=7d685810-6742-41f8-be5c-e1978be9f1f0"},"vehicle_type_id":"4","last_reported":1768241930,"current_range_meters":8000,"station_id":"ce4bgpp2rcd13ifvqc3g","pricing_plan_id":"cebpf4jnsgd1na2vs0mg"},{"bike_id":"45d9e14b-0ab1-473c-82ee-582ce79d61a1","system_id":"levelo_inurba_marseille","lat":43.24671,"lon":5.3817,"is_reserved":false,"is_disabled":false,"rental_uris":{"android":"levelo://app?vid=45d9e14b-0ab1-473c-82ee-582ce79d61a1","ios":"levelo://app?vid=45d9e14b-0ab1-473c-82ee-582ce79d61a1"},"vehicle_type_id":"4","last_reported":1768241930,"current_range_meters":8000,"station_id":"ce4bhih2rcd13ifvqfr0","pricing_plan_id":"cebpf4jnsgd1na2vs0mg"},{"bike_id":"7b6f12be-65ff-469f-954c-5bc823eb23e6","system_id":"levelo_inurba_marseille","lat":43.3252,"lon":5.36465,"is_reserved":false,"is_disabled":false,"rental_uris":{"android":"levelo://app?vid=7b6f12be-65ff-469f-954c-5bc823eb23e6","ios":"levelo://app?vid=7b6f12be-65ff-469f-954c-5bc823eb23e6"},"vehicle_type_id":"4","last_reported":1768241930,"current_range_meters":8000,"station_id":"","pricing_plan_id":"cebpf4jnsgd1na2vs0mg"},{"bike_id":"f79921af-559e-4d94-95c2-036e9167deb5","system_id":"levelo_inurba_marseille","lat":43.31885,"lon":5.39991,"is_reserved":false,"is_disabled":false,"rental_uris":{"android":"levelo://app?vid=f79921af-559e-4d94-95c2-036e9167deb5","ios":"levelo://app?vid=f79921af-559e-4d94-95c2-036e9167deb5"},"vehicle_type_id":"4","last_reported":1768241930,"current_range_meters":8000,"station_id":"","pricing_plan_id":"cebpf4jnsgd1na2vs0mg"},{"bike_id":"8a8b0f0c-0d15-4719-980a-dbef53ae178d","system_id":"levelo_inurba_marseille","lat":43.30326,"lon":5.40446,"is_reserved":false,"is_disabled":false,"rental_uris":{"android":"levelo://app?vid=8a8b0f0c-0d15-4719-980a-dbef53ae178d","ios":"levelo://app?vid=8a8b0f0c-0d15-4719-980a-dbef53ae178d"},"vehicle_type_id":"4","last_reported":1768241930,"current_range_meters":8000,"station_id":"ce4bh012rcd13ifvqd10","pricing_plan_id":"cebpf4jnsgd1na2vs0mg"},{"bike_id":"d5e0798c-e1bc-49fb-a5b8-d9fa466ad64b","system_id":"levelo_inurba_marseille","lat":43.24948,"lon":5.40486,"is_reserved":false,"is_disabled":false,"rental_uris":{"android":"levelo://app?vid=d5e0798c-e1bc-49fb-a5b8-d9fa466ad64b","ios":"levelo://app?vid=d5e0798c-e1bc-49fb-a5b8-d9fa466ad64b"},"vehicle_type_id":"4","last_reported":1768241930,"current_range_meters":8000,"station_id":"st_d2ngiaodas8pm72gd1h0","pricing_plan_id":"cebpf4jnsgd1na2vs0mg"},{"bike_id":"7fb0d18d-87f0-4490-ac9a-259338a041dc","system_id":"levelo_inurba_marseille","lat":43.23527,"lon":5.35945,"is_reserved":false,"is_disabled":false,"rental_uris":{"android":"levelo://app?vid=7fb0d18d-87f0-4490-ac9a-259338a041dc","ios":"levelo://app?vid=7fb0d18d-87f0-4490-ac9a-259338a041dc"},"vehicle_type_id":"4","last_reported":1768241930,"current_range_meters":8000,"station_id":"","pricing_plan_id":"cebpf4jnsgd1na2vs0mg"},{"bike_id":"ea55f796-98ee-4254-bdbe-03d9fcb525f2","system_id":"levelo_inurba_marseille","lat":43.302429,"lon":5.407002,"is_reserved":false,"is_disabled":false,"rental_uris":{"android":"levelo://app?vid=ea55f796-98ee-4254-bdbe-03d9fcb525f2","ios":"levelo://app?vid=ea55f796-98ee-4254-bdbe-03d9fcb525f2"},"vehicle_type_id":"4","last_reported":1768241930,"current_range_meters":8000,"station_id":"ce4bhn92rcd13ifvqgrg","pricing_plan_id":"cebpf4jnsgd1na2vs0mg"},{"bike_id":"7b7c4d5a-48b0-4253-8d68-ce9bdb9244be","system_id":"levelo_inurba_marseille","lat":43.265424,"lon":5.372881,"is_reserved":false,"is_disabled":false,"rental_uris":{"android":"levelo://app?vid=7b7c4d5a-48b0-4253-8d68-ce9bdb9244be","ios":"levelo://app?vid=7b7c4d5a-48b0-4253-8d68-ce9bdb9244be"},"vehicle_type_id":"4","last_reported":1768241930,"current_range_meters":8000,"station_id":"ce4bhg12rcd13ifvqf70","pricing_plan_id":"cebpf4jnsgd1na2vs0mg"},{"bike_id":"2455333c-abb5-40b2-83d1-6df58226f70a","system_id":"levelo_inurba_marseille","lat":43.329068,"lon":5.389534,"is_reserved":false,"is_disabled":false,"rental_uris":{"android":"levelo://app?vid=2455333c-abb5-40b2-83d1-6df58226f70a","ios":"levelo://app?vid=2455333c-abb5-40b2-83d1-6df58226f70a"},"vehicle_type_id":"4","last_reported":1768241930,"current_range_meters":8000,"station_id":"","pricing_plan_id":"cebpf4jnsgd1na2vs0mg"},{"bike_id":"ce421665-3c26-4baa-b8ec-61eb8aef5e07","system_id":"levelo_inurba_marseille","lat":43.28071,"lon":5.40705,"is_reserved":false,"is_disabled":false,"rental_uris":{"android":"levelo://app?vid=ce421665-3c26-4baa-b8ec-61eb8aef5e07","ios":"levelo://app?vid=ce421665-3c26-4baa-b8ec-61eb8aef5e07"},"vehicle_type_id":"4","last_reported":1768241930,"current_range_meters":8000,"station_id":"","pricing_plan_id":"cebpf4jnsgd1na2vs0mg"},{"bike_id":"fd5c22af-551e-4b5c-a587-8bd6f93a7d5e","system_id":"levelo_inurba_marseille","lat":43.27945,"lon":5.41031,"is_reserved":false,"is_disabled":false,"rental_uris":{"android":"levelo://app?vid=fd5c22af-551e-4b5c-a587-8bd6f93a7d5e","ios":"levelo://app?vid=fd5c22af-551e-4b5c-a587-8bd6f93a7d5e"},"vehicle_type_id":"4","last_reported":1768241930,"current_range_meters":8000,"station_id":"","pricing_plan_id":"cebpf4jnsgd1na2vs0mg"},{"bike_id":"c5b0e4e4-c0dd-441f-992f-a632a50a9951","system_id":"levelo_inurba_marseille","lat":43.27619,"lon":5.36118,"is_reserved":false,"is_disabled":false,"rental_uris":{"android":"levelo://app?vid=c5b0e4e4-c0dd-441f-992f-a632a50a9951","ios":"levelo://app?vid=c5b0e4e4-c0dd-441f-992f-a632a50a9951"},"vehicle_type_id":"4","last_reported":1768241930,"current_range_meters":8000,"station_id":"ce4bgj92rcd13ifvqbe0","pricing_plan_id":"cebpf4jnsgd1na2vs0mg"},{"bike_id":"62a6a880-8c2f-4973-954e-dca5b666173d","system_id":"levelo_inurba_marseille","lat":43.29962,"lon":5.37365,"is_reserved":false,"is_disabled":false,"rental_uris":{"android":"levelo://app?vid=62a6a880-8c2f-4973-954e-dca5b666173d","ios":"levelo://app?vid=62a6a880-8c2f-4973-954e-dca5b666173d"},"vehicle_type_id":"4","last_reported":1768241930,"current_range_meters":8000,"station_id":"","pricing_plan_id":"cebpf4jnsgd1na2vs0mg"},{"bike_id":"9bd81498-1c2d-46cc-b134-62e2c3cd9ba1","system_id":"levelo_inurba_marseille","lat":43.28888,"lon":5.42525,"is_reserved":false,"is_disabled":false,"rental_uris":{"android":"levelo://app?vid=9bd81498-1c2d-46cc-b134-62e2c3cd9ba1","ios":"levelo://app?vid=9bd81498-1c2d-46cc-b134-62e2c3cd9ba1"},"vehicle_type_id":"4","last_reported":1768241930,"current_range_meters":8000,"station_id":"st_d3b462108ojc7389ooeg","pricing_plan_id":"cebpf4jnsgd1na2vs0mg"},{"bike_id":"6a29d0f8-9368-4421-9203-6bbc7b648963","system_id":"levelo_inurba_marseille","lat":43.299161,"lon":5.374623,"is_reserved":false,"is_disabled":false,"rental_uris":{"android":"levelo://app?vid=6a29d0f8-9368-4421-9203-6bbc7b648963","ios":"levelo://app?vid=6a29d0f8-9368-4421-9203-6bbc7b648963"},"vehicle_type_id":"4","last_reported":1768241930,"current_range_meters":8000,"station_id":"ce4bgjh2rcd13ifvqbg0","pricing_plan_id":"cebpf4jnsgd1na2vs0mg"},{"bike_id":"0ce4f58b-9b8e-446d-a0d8-6debcbfc126a","system_id":"levelo_inurba_marseille","lat":43.30137,"lon":5.39868,"is_reserved":false,"is_disabled":false,"rental_uris":{"android":"levelo://app?vid=0ce4f58b-9b8e-446d-a0d8-6debcbfc126a","ios":"levelo://app?vid=0ce4f58b-9b8e-446d-a0d8-6debcbfc126a"},"vehicle_type_id":"4","last_reported":1768241930,"current_range_meters":8000,"station_id":"ce4bh0h2rcd13ifvqd40","pricing_plan_id":"cebpf4jnsgd1na2vs0mg"},{"bike_id":"bb872cf3-111a-4da5-8326-64266a28cac2","system_id":"levelo_inurba_marseille","lat":43.26064,"lon":5.39398,"is_reserved":false,"is_disabled":false,"rental_uris":{"android":"levelo://app?vid=bb872cf3-111a-4da5-8326-64266a28cac2","ios":"levelo://app?vid=bb872cf3-111a-4da5-8326-64266a28cac2"},"vehicle_type_id":"4","last_reported":1768241930,"current_range_meters":8000,"station_id":"ce4bhh92rcd13ifvqfj0","pricing_plan_id":"cebpf4jnsgd1na2vs0mg"},{"bike_id":"ac50cf03-9768-42b1-bcb2-4d54c6c61c6a","system_id":"levelo_inurba_marseille","lat":43.29846,"lon":5.36257,"is_reserved":false,"is_disabled":false,"rental_uris":{"android":"levelo://app?vid=ac50cf03-9768-42b1-bcb2-4d54c6c61c6a","ios":"levelo://app?vid=ac50cf03-9768-42b1-bcb2-4d54c6c61c6a"},"vehicle_type_id":"4","last_reported":1768241930,"current_range_meters":8000,"station_id":"ce4bgpp2rcd13ifvqc3g","pricing_plan_id":"cebpf4jnsgd1na2vs0mg"},{"bike_id":"288a92ab-1f1e-4e59-8a79-2310e6d7f9f0","system_id":"levelo_inurba_marseille","lat":43.3091,"lon":5.36846,"is_reserved":false,"is_disabled":false,"rental_uris":{"android":"levelo://app?vid=288a92ab-1f1e-4e59-8a79-2310e6d7f9f0","ios":"levelo://app?vid=288a92ab-1f1e-4e59-8a79-2310e6d7f9f0"},"vehicle_type_id":"4","last_reported":1768241930,"current_range_meters":8000,"station_id":"ce4bgn92rcd13ifvqbvg","pricing_plan_id":"cebpf4jnsgd1na2vs0mg"},{"bike_id":"2cc9db73-43c9-4a56-a963-4c4c6878c41f","system_id":"levelo_inurba_marseille","lat":43.23851,"lon":5.36639,"is_reserved":false,"is_disabled":false,"rental_uris":{"android":"levelo://app?vid=2cc9db73-43c9-4a56-a963-4c4c6878c41f","ios":"levelo://app?vid=2cc9db73-43c9-4a56-a963-4c4c6878c41f"},"vehicle_type_id":"4","last_reported":1768241930,"current_range_meters":8000,"station_id":"","pricing_plan_id":"cebpf4jnsgd1na2vs0mg"},{"bike_id":"37f9049f-e55b-4508-a4e8-e2b02c981370","system_id":"levelo_inurba_marseille","lat":43.29969,"lon":5.3849,"is_reserved":false,"is_disabled":false,"rental_uris":{"android":"levelo://app?vid=37f9049f-e55b-4508-a4e8-e2b02c981370","ios":"levelo://app?vid=37f9049f-e55b-4508-a4e8-e2b02c981370"},"vehicle_type_id":"4","last_reported":1768241930,"current_range_meters":8000,"station_id":"ce4bgj92rcd13ifvqbd0","pricing_plan_id":"cebpf4jnsgd1na2vs0mg"},{"bike_id":"f36b7ae2-2030-496c-8dc8-4dc2101ff9b9","system_id":"levelo_inurba_marseille","lat":43.24552,"lon":5.39524,"is_reserved":false,"is_disabled":false,"rental_uris":{"android":"levelo://app?vid=f36b7ae2-2030-496c-8dc8-4dc2101ff9b9","ios":"levelo://app?vid=f36b7ae2-2030-496c-8dc8-4dc2101ff9b9"},"vehicle_type_id":"4","last_reported":1768241930,"current_range_meters":8000,"station_id":"ce4bhlp2rcd13ifvqgjg","pricing_plan_id":"cebpf4jnsgd1na2vs0mg"},{"bike_id":"f322ca8a-b5f6-42b1-996f-3c1d56bf66ab","system_id":"levelo_inurba_marseille","lat":43.26541,"lon":5.37299,"is_reserved":false,"is_disabled":false,"rental_uris":{"android":"levelo://app?vid=f322ca8a-b5f6-42b1-996f-3c1d56bf66ab","ios":"levelo://app?vid=f322ca8a-b5f6-42b1-996f-3c1d56bf66ab"},"vehicle_type_id":"4","last_reported":1768241930,"current_range_meters":8000,"station_id":"ce4bhg12rcd13ifvqf70","pricing_plan_id":"cebpf4jnsgd1na2vs0mg"},{"bike_id":"952412d5-8359-4eb6-9ee8-294a4128a280","system_id":"levelo_inurba_marseille","lat":43.29305,"lon":5.37359,"is_reserved":false,"is_disabled":false,"rental_uris":{"android":"levelo://app?vid=952412d5-8359-4eb6-9ee8-294a4128a280","ios":"levelo://app?vid=952412d5-8359-4eb6-9ee8-294a4128a280"},"vehicle_type_id":"4","last_reported":1768241930,"current_range_meters":8000,"station_id":"","pricing_plan_id":"cebpf4jnsgd1na2vs0mg"},{"bike_id":"920cda1b-45f7-4913-9f10-496985005c9e","system_id":"levelo_inurba_marseille","lat":43.23784,"lon":5.36635,"is_reserved":false,"is_disabled":false,"rental_uris":{"android":"levelo://app?vid=920cda1b-45f7-4913-9f10-496985005c9e","ios":"levelo://app?vid=920cda1b-45f7-4913-9f10-496985005c9e"},"vehicle_type_id":"4","last_reported":1768241930,"current_range_meters":8000,"station_id":"st_d3nk18o9ro0c73en2l3g","pricing_plan_id":"cebpf4jnsgd1na2vs0mg"},{"bike_id":"8de61461-1f75-44ea-a321-3d572e66b2c1","system_id":"levelo_inurba_marseille","lat":43.29386,"lon":5.40989,"is_reserved":false,"is_disabled":false,"rental_uris":{"android":"levelo://app?vid=8de61461-1f75-44ea-a321-3d572e66b2c1","ios":"levelo://app?vid=8de61461-1f75-44ea-a321-3d572e66b2c1"},"vehicle_type_id":"4","last_reported":1768241930,"current_range_meters":8000,"station_id":"","pricing_plan_id":"cebpf4jnsgd1na2vs0mg"},{"bike_id":"cdb7f885-d79c-4a7f-be8b-87d7e51ae524","system_id":"levelo_inurba_marseille","lat":43.306482,"lon":5.405078,"is_reserved":false,"is_disabled":false,"rental_uris":{"android":"levelo://app?vid=cdb7f885-d79c-4a7f-be8b-87d7e51ae524","ios":"levelo://app?vid=cdb7f885-d79c-4a7f-be8b-87d7e51ae524"},"vehicle_type_id":"4","last_reported":1768241930,"current_range_meters":8000,"station_id":"ce4bh112rcd13ifvqda0","pricing_plan_id":"cebpf4jnsgd1na2vs0mg"},{"bike_id":"b60c8777-50a1-4187-b012-61c8b2392d61","system_id":"levelo_inurba_marseille","lat":43.2417,"lon":5.36401,"is_reserved":false,"is_disabled":false,"rental_uris":{"android":"levelo://app?vid=b60c8777-50a1-4187-b012-61c8b2392d61","ios":"levelo://app?vid=b60c8777-50a1-4187-b012-61c8b2392d61"},"vehicle_type_id":"4","last_reported":1768241930,"current_range_meters":8000,"station_id":"cpo36qri1sfpv3e86is0","pricing_plan_id":"cebpf4jnsgd1na2vs0mg"},{"bike_id":"3e9f6f76-2cc1-4a8f-893d-69062c076f77","system_id":"levelo_inurba_marseille","lat":43.30479,"lon":5.39037,"is_reserved":false,"is_disabled":false,"rental_uris":{"android":"levelo://app?vid=3e9f6f76-2cc1-4a8f-893d-69062c076f77","ios":"levelo://app?vid=3e9f6f76-2cc1-4a8f-893d-69062c076f77"},"vehicle_type_id":"4","last_reported":1768241930,"current_range_meters":8000,"station_id":"","pricing_plan_id":"cebpf4jnsgd1na2vs0mg"},{"bike_id":"6b72b8ae-2518-4b98-97e6-188461737071","system_id":"levelo_inurba_marseille","lat":43.26951,"lon":5.40232,"is_reserved":false,"is_disabled":false,"rental_uris":{"android":"levelo://app?vid=6b72b8ae-2518-4b98-97e6-188461737071","ios":"levelo://app?vid=6b72b8ae-2518-4b98-97e6-188461737071"},"vehicle_type_id":"4","last_reported":1768241930,"current_range_meters":8000,"station_id":"cjm6bp8fraef2m0cb0m0","pricing_plan_id":"cebpf4jnsgd1na2vs0mg"},{"bike_id":"573219be-8449-4b0b-914b-5825e3035243","system_id":"levelo_inurba_marseille","lat":43.2317,"lon":5.35606,"is_reserved":false,"is_disabled":false,"rental_uris":{"android":"levelo://app?vid=573219be-8449-4b0b-914b-5825e3035243","ios":"levelo://app?vid=573219be-8449-4b0b-914b-5825e3035243"},"vehicle_type_id":"4","last_reported":1768241930,"current_range_meters":8000,"station_id":"ce4bhu92rcd13ifvqi70","pricing_plan_id":"cebpf4jnsgd1na2vs0mg"},{"bike_id":"e17a9c82-8846-45df-b367-7545f106e168","system_id":"levelo_inurba_marseille","lat":43.31308,"lon":5.3847,"is_reserved":false,"is_disabled":false,"rental_uris":{"android":"levelo://app?vid=e17a9c82-8846-45df-b367-7545f106e168","ios":"levelo://app?vid=e17a9c82-8846-45df-b367-7545f106e168"},"vehicle_type_id":"4","last_reported":1768241930,"current_range_meters":8400,"station_id":"","pricing_plan_id":"cebpf4jnsgd1na2vs0mg"},{"bike_id":"4163ef96-ff79-4e06-a41c-cf3505e70eec","system_id":"levelo_inurba_marseille","lat":43.2953,"lon":5.38544,"is_reserved":false,"is_disabled":false,"rental_uris":{"android":"levelo://app?vid=4163ef96-ff79-4e06-a41c-cf3505e70eec","ios":"levelo://app?vid=4163ef96-ff79-4e06-a41c-cf3505e70eec"},"vehicle_type_id":"4","last_reported":1768241930,"current_range_meters":8400,"station_id":"ce4bgih2rcd13ifvqba0","pricing_plan_id":"cebpf4jnsgd1na2vs0mg"},