{"last_updated":1732979302,"ttl":60,"version":"2.2","data":{"bikes":[{"bike_id":"c154376e-81a4-4c09-89dd-3a6cf12029e1","system_id":"levelo_inurba_marseille","lat":43.23063,"lon":5.35495,"is_reserved":false,"is_disabled":false,"rental_uris":{"android":"levelo://app?vid=c154376e-81a4-4c09-89dd-3a6cf12029e1","ios":"levelo://app?vid=c154376e-81a4-4c09-89dd-3a6cf12029e1"},"vehicle_type_id":"4","last_reported":1732979303,"current_range_meters":11600,"station_id":"cpo3342slgdg3j2ifvpg","pricing_plan_id":"cebpf4jnsgd1na2vs0mg"},{"bike_id":"73d9907a-0cc4-48da-9f9a-6ee786efce03","system_id":"levelo_inurba_marseille","lat":43.30164,"lon":5.38093,"is_reserved":false,"is_disabled":false,"rental_uris":{"android":"levelo://app?vid=73d9907a-0cc4-48da-9f9a-6ee786efce03","ios":"levelo://app?vid=73d9907a-0cc4-48da-9f9a-6ee786efce03"},"vehicle_type_id":"4","last_reported":1732979303,"current_range_meters":21600,"station_id":"ce4bgjp2rcd13ifvqbh0","pricing_plan_id":"cebpf4jnsgd1na2vs0mg"},{"bike_id":"eda49a19-2d4a-4589-ada5-f68a13a20082","system_id":"levelo_inurba_marseille","lat":43.2315,"lon":5.43718,"is_reserved":false,"is_disabled":false,"rental_uris":{"android":"levelo://app?vid=eda49a19-2d4a-4589-ada5-f68a13a20082","ios":"levelo://app?vid=eda49a19-2d4a-4589-ada5-f68a13a20082"},"vehicle_type_id":"4","last_reported":1732979303,"current_range_meters":6400,"station_id":"ce4bhmp2rcd13ifvqgog","pricing_plan_id":"cebpf4jnsgd1na2vs0mg"},{"bike_id":"5f1362f5-83f8-42bf-9516-270f52ac71ff","system_id":"levelo_inurba_marseille","lat":43.28039,"lon":5.36945,"is_reserved":false,"is_disabled":false,"rental_uris":{"android":"levelo://app?vid=5f1362f5-83f8-42bf-9516-270f52ac71ff","ios":"levelo://app?vid=5f1362f5-83f8-42bf-9516-270f52ac71ff"},"vehicle_type_id":"4","last_reported":1732979303,"current_range_meters":19600,"station_id":"ce4bha12rcd13ifvqef0","pricing_plan_id":"cebpf4jnsgd1na2vs0mg"},{"bike_id":"b856c8b4-412d-4c25-bdd4-e6b29aed04cb","system_id":"levelo_inurba_marseille","lat":43.22933,"lon":5.35379,"is_reserved":false,"is_disabled":false,"rental_uris":{"android":"levelo://app?vid=b856c8b4-412d-4c25-bdd4-e6b29aed04cb","ios":"levelo://app?vid=b856c8b4-412d-4c25-bdd4-e6b29aed04cb"},"vehicle_type_id":"4","last_reported":1732979303,"current_range_meters":39200,"station_id":"cpo3532slgdg3j2ikp40","pricing_plan_id":"cebpf4jnsgd1na2vs0mg"},{"bike_id":"a15891b4-56c2-465c-9621-be9dd4dc5560","system_id":"levelo_inurba_marseille","lat":43.30563,"lon":5.36699,"is_reserved":false,"is_disabled":false,"rental_uris":{"android":"levelo://app?vid=a15891b4-56c2-465c-9621-be9dd4dc5560","ios":"levelo://app?vid=a15891b4-56c2-465c-9621-be9dd4dc5560"},"vehicle_type_id":"4","last_reported":1732979303,"current_range_meters":37600,"station_id":"ce4bgrp2rcd13ifvqc9g","pricing_plan_id":"cebpf4jnsgd1na2vs0mg"},{"bike_id":"ddf8a5d7-6768-4fb0-9d6a-d06078a086f6","system_id":"levelo_inurba_marseille","lat":43.29629,"lon":5.40598,"is_reserved":false,"is_disabled":false,"rental_uris":{"android":"levelo://app?vid=ddf8a5d7-6768-4fb0-9d6a-d06078a086f6","ios":"levelo://app?vid=ddf8a5d7-6768-4fb0-9d6a-d06078a086f6"},"vehicle_type_id":"4","last_reported":1732979303,"current_range_meters":8400,"station_id":"ce4bh0h2rcd13ifvqd60","pricing_plan_id":"cebpf4jnsgd1na2vs0mg"},{"bike_id":"7ab5ca07-c9c4-44c3-b1bf-a9fe940ac72c","system_id":"levelo_inurba_marseille","lat":43.23054,"lon":5.35486,"is_reserved":false,"is_disabled":false,"rental_uris":{"android":"levelo://app?vid=7ab5ca07-c9c4-44c3-b1bf-a9fe940ac72c","ios":"levelo://app?vid=7ab5ca07-c9c4-44c3-b1bf-a9fe940ac72c"},"vehicle_type_id":"4","last_reported":1732979303,"current_range_meters":8000,"station_id":"cpo3342slgdg3j2ifvpg","pricing_plan_id":"cebpf4jnsgd1na2vs0mg"},{"bike_id":"f4cd695a-da45-439d-a63b-9b5a49adea80","system_id":"levelo_inurba_marseille","lat":43.29258,"lon":5.38428,"is_reserved":false,"is_disabled":false,"rental_uris":{"android":"levelo://app?vid=f4cd695a-da45-439d-a63b-9b5a49adea80","ios":"levelo://app?vid=f4cd695a-da45-439d-a63b-9b5a49adea80"},"vehicle_type_id":"4","last_reported":1732979303,"current_range_meters":29600,"station_id":"ce4bh692rcd13ifvqea0","pricing_plan_id":"cebpf4jnsgd1na2vs0mg"},{"bike_id":"24b58811-c922-45fc-9bd8-9af52b722bc3","system_id":"levelo_inurba_marseille","lat":43.3249,"lon":5.36568,"is_reserved":false,"is_disabled":false,"rental_uris":{"android":"levelo://app?vid=24b58811-c922-45fc-9bd8-9af52b722bc3","ios":"levelo://app?vid=24b58811-c922-45fc-9bd8-9af52b722bc3"},"vehicle_type_id":"4","last_reported":1732979303,"current_range_meters":28400,"station_id":"ce4bhs12rcd13ifvqhvg","pricing_plan_id":"cebpf4jnsgd1na2vs0mg"},{"bike_id":"8da8ec5b-40e6-46d2-b4e1-7e0207a76f7b","system_id":"levelo_inurba_marseille","lat":43.29576,"lon":5.39675,"is_reserved":false,"is_disabled":false,"rental_uris":{"android":"levelo://app?vid=8da8ec5b-40e6-46d2-b4e1-7e0207a76f7b","ios":"levelo://app?vid=8da8ec5b-40e6-46d2-b4e1-7e0207a76f7b"},"vehicle_type_id":"4","last_reported":1732979303,"current_range_meters":14400,"station_id":"ce4bh292rcd13ifvqdf0","pricing_plan_id":"cebpf4jnsgd1na2vs0mg"},{"bike_id":"966791e8-cdff-4838-a42b-c9b609a533a7","system_id":"levelo_inurba_marseille","lat":43.27987,"lon":5.39465,"is_reserved":false,"is_disabled":true,"rental_uris":{"android":"levelo://app?vid=966791e8-cdff-4838-a42b-c9b609a533a7","ios":"levelo://app?vid=966791e8-cdff-4838-a42b-c9b609a533a7"},"vehicle_type_id":"4","last_reported":1732979303,"current_range_meters":0,"station_id":"","pricing_plan_id":"cebpf4jnsgd1na2vs0mg"},{"bike_id":"0dfb5348-2a41-4497-89ed-f8bc96f05e25","system_id":"levelo_inurba_marseille","lat":43.29919,"lon":5.3748,"is_reserved":false,"is_disabled":true,"rental_uris":{"android":"levelo://app?vid=0dfb5348-2a41-4497-89ed-f8bc96f05e25","ios":"levelo://app?vid=0dfb5348-2a41-4497-89ed-f8bc96f05e25"},"vehicle_type_id":"4","last_reported":1732979303,"current_range_meters":0,"station_id":"ce4bgjh2rcd13ifvqbg0","pricing_plan_id":"cebpf4jnsgd1na2vs0mg"},{"bike_id":"7974306f-50f1-4979-96e6-42a3a669c81a","system_id":"levelo_inurba_marseille","lat":43.32004,"lon":5.38164,"is_reserved":false,"is_disabled":false,"rental_uris":{"android":"levelo://app?vid=7974306f-50f1-4979-96e6-42a3a669c81a","ios":"levelo://app?vid=7974306f-50f1-4979-96e6-42a3a669c81a"},"vehicle_type_id":"4","last_reported":1732979303,"current_range_meters":9600,"station_id":"ce4bhr12rcd13ifvqhpg","pricing_plan_id":"cebpf4jnsgd1na2vs0mg"},{"bike_id":"32910786-5518-43e3-8702-d33e2f317cdf","system_id":"levelo_inurba_marseille","lat":43.24167,"lon":5.36397,"is_reserved":false,"is_disabled":false,"rental_uris":{"android":"levelo://app?vid=32910786-5518-43e3-8702-d33e2f317cdf","ios":"levelo://app?vid=32910786-5518-43e3-8702-d33e2f317cdf"},"vehicle_type_id":"4","last_reported":1732979303,"current_range_meters":35600,"station_id":"cpo36qri1sfpv3e86is0","pricing_plan_id":"cebpf4jnsgd1na2vs0mg"},{"bike_id":"98b1170c-0d5c-4b81-8f49-eea4684ce966","system_id":"levelo_inurba_marseille","lat":43.23968,"lon":5.36633,"is_reserved":false,"is_disabled":false,"rental_uris":{"android":"levelo://app?vid=98b1170c-0d5c-4b81-8f49-eea4684ce966","ios":"levelo://app?vid=98b1170c-0d5c-4b81-8f49-eea4684ce966"},"vehicle_type_id":"4","last_reported":1732979303,"current_range_meters":25200,"station_id":"ce4bhi12rcd13ifvqfp0","pricing_plan_id":"cebpf4jnsgd1na2vs0mg"},{"bike_id":"fea8be46-4fff-49b0-8bdf-b7eb740219aa","system_id":"levelo_inurba_marseille","lat":43.30549,"lon":5.36556,"is_reserved":false,"is_disabled":false,"rental_uris":{"android":"levelo://app?vid=fea8be46-4fff-49b0-8bdf-b7eb740219aa","ios":"levelo://app?vid=fea8be46-4fff-49b0-8bdf-b7eb740219aa"},"vehicle_type_id":"4","last_reported":1732979303,"current_range_meters":27600,"station_id":"ce4bgs12rcd13ifvqcag","pricing_plan_id":"cebpf4jnsgd1na2vs0mg"},{"bike_id":"0d5dc593-d1b5-41e8-a0f6-454de48a2412","system_id":"levelo_inurba_marseille","lat":43.31372,"lon":5.38509,"is_reserved":false,"is_disabled":false,"rental_uris":{"android":"levelo://app?vid=0d5dc593-d1b5-41e8-a0f6-454de48a2412","ios":"levelo://app?vid=0d5dc593-d1b5-41e8-a0f6-454de48a2412"},"vehicle_type_id":"4","last_reported":1732979303,"current_range_meters":3200,"station_id":"ce4bgt92rcd13ifvqcf0","pricing_plan_id":"cebpf4jnsgd1na2vs0mg"},{"bike_id":"3c2774d0-8def-49f3-8722-5228203b97f4","system_id":"levelo_inurba_marseille","lat":43.25869,"lon":5.39904,"is_reserved":false,"is_disabled":false,"rental_uris":{"android":"levelo://app?vid=3c2774d0-8def-49f3-8722-5228203b97f4","ios":"levelo://app?vid=3c2774d0-8def-49f3-8722-5228203b97f4"},"vehicle_type_id":"4","last_reported":1732979303,"current_range_meters":22400,"station_id":"ce4bhl92rcd13ifvqghg","pricing_plan_id":"cebpf4jnsgd1na2vs0mg"},{"bike_id":"d6cd8e11-82d1-49fb-8bc2-934533f5bfc4","system_id":"levelo_inurba_marseille","lat":43.29534,"lon":5.39406,"is_reserved":false,"is_disabled":false,"rental_uris":{"android":"levelo://app?vid=d6cd8e11-82d1-49fb-8bc2-934533f5bfc4","ios":"levelo://app?vid=d6cd8e11-82d1-49fb-8bc2-934533f5bfc4"},"vehicle_type_id":"4","last_reported":1732979303,"current_range_meters":28800,"station_id":"ce4bh292rcd13ifvqdf0","pricing_plan_id":"cebpf4jnsgd1na2vs0mg"},{"bike_id":"2f0885d6-4a47-44fc-942c-486fc1316da6","system_id":"levelo_inurba_marseille","lat":43.30349,"lon":5.41886,"is_reserved":false,"is_disabled":false,"rental_uris":{"android":"levelo://app?vid=2f0885d6-4a47-44fc-942c-486fc1316da6","ios":"levelo://app?vid=2f0885d6-4a47-44fc-942c-486fc1316da6"},"vehicle_type_id":"4","last_reported":1732979303,"current_range_meters":22000,"station_id":"ce4bhop2rcd13ifvqh7g","pricing_plan_id":"cebpf4jnsgd1na2vs0mg"},{"bike_id":"b0bd4cdf-7308-45f0-8e99-a0d5811907ff","system_id":"levelo_inurba_marseille","lat":43.25451,"lon":5.38134,"is_reserved":false,"is_disabled":true,"rental_uris":{"android":"levelo://app?vid=b0bd4cdf-7308-45f0-8e99-a0d5811907ff","ios":"levelo://app?vid=b0bd4cdf-7308-45f0-8e99-a0d5811907ff"},"vehicle_type_id":"4","last_reported":1732979303,"current_range_meters":0,"station_id":"","pricing_plan_id":"cebpf4jnsgd1na2vs0mg"},{"bike_id":"6db2668d-562c-4528-9019-1cb20a81449a","system_id":"levelo_inurba_marseille","lat":43.30935,"lon":5.37201,"is_reserved":false,"is_disabled":false,"rental_uris":{"android":"levelo://app?vid=6db2668d-562c-4528-9019-1cb20a81449a","ios":"levelo://app?vid=6db2668d-562c-4528-9019-1cb20a81449a"},"vehicle_type_id":"4","last_reported":1732979303,"current_range_meters":33200,"station_id":"ce4bguh2rcd13ifvqckg","pricing_plan_id":"cebpf4jnsgd1na2vs0mg"},{"bike_id":"3beb74fc-fd6d-4b2f-8e33-efb410627112","system_id":"levelo_inurba_marseille","lat":43.23966,"lon":5.36635,"is_reserved":false,"is_disabled":false,"rental_uris":{"android":"levelo://app?vid=3beb74fc-fd6d-4b2f-8e33-efb410627112","ios":"levelo://app?vid=3beb74fc-fd6d-4b2f-8e33-efb410627112"},"vehicle_type_id":"4","last_reported":1732979303,"current_range_meters":10800,"station_id":"ce4bhi12rcd13ifvqfp0","pricing_plan_id":"cebpf4jnsgd1na2vs0mg"},{"bike_id":"5e3f80f6-0dd9-47b7-8ccb-ebd71a356424","system_id":"levelo_inurba_marseille","lat":43.31188,"lon":5.38721,"is_reserved":false,"is_disabled":false,"rental_uris":{"android":"levelo://app?vid=5e3f80f6-0dd9-47b7-8ccb-ebd71a356424","ios":"levelo://app?vid=5e3f80f6-0dd9-47b7-8ccb-ebd71a356424"},"vehicle_type_id":"4","last_reported":1732979303,"current_range_meters":36400,"station_id":"ce4bgv12rcd13ifvqcp0","pricing_plan_id":"cebpf4jnsgd1na2vs0mg"},{"bike_id":"3c241112-0e96-425e-8646-c6f08bf02411","system_id":"levelo_inurba_marseille","lat":43.24654,"lon":5.38892,"is_reserved":false,"is_disabled":false,"rental_uris":{"android":"levelo://app?vid=3c241112-0e96-425e-8646-c6f08bf02411","ios":"levelo://app?vid=3c241112-0e96-425e-8646-c6f08bf02411"},"vehicle_type_id":"4","last_reported":1732979303,"current_range_meters":39200,"station_id":"ce4bhg12rcd13ifvqf60","pricing_plan_id":"cebpf4jnsgd1na2vs0mg"},{"bike_id":"6f7949e1-de87-4a49-8620-fec27e04447f","system_id":"levelo_inurba_marseille","lat":43.33728,"lon":5.39215,"is_reserved":false,"is_disabled":false,"rental_uris":{"android":"levelo://app?vid=6f7949e1-de87-4a49-8620-fec27e04447f","ios":"levelo://app?vid=6f7949e1-de87-4a49-8620-fec27e04447f"},"vehicle_type_id":"4","last_reported":1732979303,"current_range_meters":27600,"station_id":"ce4bhr92rcd13ifvqhsg","pricing_plan_id":"cebpf4jnsgd1na2vs0mg"},{"bike_id":"440cb15e-33be-4df8-8721-48d188434d9c","system_id":"levelo_inurba_marseille","lat":43.2466,"lon":5.38165,"is_reserved":false,"is_disabled":false,"rental_uris":{"android":"levelo://app?vid=440cb15e-33be-4df8-8721-48d188434d9c","ios":"levelo://app?vid=440cb15e-33be-4df8-8721-48d188434d9c"},"vehicle_type_id":"4","last_reported":1732979303,"current_range_meters":16000,"station_id":"ce4bhih2rcd13ifvqfr0","pricing_plan_id":"cebpf4jnsgd1na2vs0mg"},{"bike_id":"7066298c-8444-4dbb-8e5a-afa45f0890f5","system_id":"levelo_inurba_marseille","lat":43.288586,"lon":5.39318,"is_reserved":false,"is_disabled":true,"rental_uris":{"android":"levelo://app?vid=7066298c-8444-4dbb-8e5a-afa45f0890f5","ios":"levelo://app?vid=7066298c-8444-4dbb-8e5a-afa45f0890f5"},"vehicle_type_id":"4","last_reported":1732979303,"current_range_meters":12000,"station_id":"ce4bh2p2rcd13ifvqdi0","pricing_plan_id":"cebpf4jnsgd1na2vs0mg"},{"bike_id":"79da6e11-068f-4f85-891a-bf5d6033ae1b","system_id":"levelo_inurba_marseille","lat":43.29195,"lon":5.39313,"is_reserved":false,"is_disabled":true,"rental_uris":{"android":"levelo://app?vid=79da6e11-068f-4f85-891a-bf5d6033ae1b","ios":"levelo://app?vid=79da6e11-068f-4f85-891a-bf5d6033ae1b"},"vehicle_type_id":"4","last_reported":1732979303,"current_range_meters":24400,"station_id":"ce4bh192rcd13ifvqdd0","pricing_plan_id":"cebpf4jnsgd1na2vs0mg"},{"bike_id":"835d153f-e532-46c5-8589-d6e611faf784","system_id":"levelo_inurba_marseille","lat":43.27615,"lon":5.36121,"is_reserved":false,"is_disabled":false,"rental_uris":{"android":"levelo://app?vid=835d153f-e532-46c5-8589-d6e611faf784","ios":"levelo://app?vid=835d153f-e532-46c5-8589-d6e611faf784"},"vehicle_type_id":"4","last_reported":1732979303,"current_range_meters":7200,"station_id":"ce4bgj92rcd13ifvqbe0","pricing_plan_id":"cebpf4jnsgd1na2vs0mg"},{"bike_id":"f26bfa4f-1b03-4d40-bd8a-9396393c620d","system_id":"levelo_inurba_marseille","lat":43.25579,"lon":5.38241,"is_reserved":false,"is_disabled":false,"rental_uris":{"android":"levelo://app?vid=f26bfa4f-1b03-4d40-bd8a-9396393c620d","ios":"levelo://app?vid=f26bfa4f-1b03-4d40-bd8a-9396393c620d"},"vehicle_type_id":"4","last_reported":1732979303,"current_range_meters":38800,"station_id":"ce4bhih2rcd13ifvqfs0","pricing_plan_id":"cebpf4jnsgd1na2vs0mg"},{"bike_id":"982bbe9c-0e50-41c8-b455-56097cd7196f","system_id":"levelo_inurba_marseille","lat":43.31316,"lon":5.39713,"is_reserved":false,"is_disabled":false,"rental_uris":{"android":"levelo://app?vid=982bbe9c-0e50-41c8-b455-56097cd7196f","ios":"levelo://app?vid=982bbe9c-0e50-41c8-b455-56097cd7196f"},"vehicle_type_id":"4","last_reported":1732979303,"current_range_meters":24400,"station_id":"ce4bgvp2rcd13ifvqcu0","pricing_plan_id":"cebpf4jnsgd1na2vs0mg"},{"bike_id":"4cd0fae9-9b96-4c08-80a7-0987ebb39a57","system_id":"levelo_inurba_marseille","lat":43.29001,"lon":5.35638,"is_reserved":false,"is_disabled":false,"rental_uris":{"android":"levelo://app?vid=4cd0fae9-9b96-4c08-80a7-0987ebb39a57","ios":"levelo://app?vid=4cd0fae9-9b96-4c08-80a7-0987ebb39a57"},"vehicle_type_id":"4","last_reported":1732979303,"current_range_meters":38800,"station_id":"ce4bhb92rcd13ifvqen0","pricing_plan_id":"cebpf4jnsgd1na2vs0mg"},{"bike_id":"98037c3a-9b2c-4fc3-b5c9-984ee3607601","system_id":"levelo_inurba_marseille","lat":43.3236,"lon":5.36765,"is_reserved":false,"is_disabled":false,"rental_uris":{"android":"levelo://app?vid=98037c3a-9b2c-4fc3-b5c9-984ee3607601","ios":"levelo://app?vid=98037c3a-9b2c-4fc3-b5c9-984ee3607601"},"vehicle_type_id":"4","last_reported":1732979303,"current_range_meters":8000,"station_id":"ce4bhsh2rcd13ifvqi2g","pricing_plan_id":"cebpf4jnsgd1na2vs0mg"},{"bike_id":"1b7e7808-71dd-480e-915f-91a83d3c16cb","system_id":"levelo_inurba_marseille","lat":43.28272,"lon":5.35071,"is_reserved":false,"is_disabled":false,"rental_uris":{"android":"levelo://app?vid=1b7e7808-71dd-480e-915f-91a83d3c16cb","ios":"levelo://app?vid=1b7e7808-71dd-480e-915f-91a83d3c16cb"},"vehicle_type_id":"4","last_reported":1732979303,"current_range_meters":24800,"station_id":"ce4bhbp2rcd13ifvqerg","pricing_plan_id":"cebpf4jnsgd1na2vs0mg"},{"bike_id":"e00ba5ec-71a0-4146-aadd-ef7f6cfd276d","system_id":"levelo_inurba_marseille","lat":43.26032,"lon":5.37557,"is_reserved":false,"is_disabled":false,"rental_uris":{"android":"levelo://app?vid=e00ba5ec-71a0-4146-aadd-ef7f6cfd276d","ios":"levelo://app?vid=e00ba5ec-71a0-4146-aadd-ef7f6cfd276d"},"vehicle_type_id":"4","last_reported":1732979303,"current_range_meters":38800,"station_id":"ce4bhgh2rcd13ifvqfa0","pricing_plan_id":"cebpf4jnsgd1na2vs0mg"},{"bike_id":"a1fa2bf1-1bf3-429b-8623-01a289e12ad5","system_id":"levelo_inurba_marseille","lat":43.22933,"lon":5.35383,"is_reserved":false,"is_disabled":false,"rental_uris":{"android":"levelo://app?vid=a1fa2bf1-1bf3-429b-8623-01a289e12ad5","ios":"levelo://app?vid=a1fa2bf1-1bf3-429b-8623-01a289e12ad5"},"vehicle_type_id":"4","last_reported":1732979303,"current_range_meters":30400,"station_id":"cpo3532slgdg3j2ikp40","pricing_plan_id":"cebpf4jnsgd1na2vs0mg"},{"bike_id":"c7bc53fc-285c-4506-94cb-af297fbb29ee","system_id":"levelo_inurba_marseille","lat":43.25603,"lon":5.38214,"is_reserved":false,"is_disabled":false,"rental_uris":{"android":"levelo://app?vid=c7bc53fc-285c-4506-94cb-af297fbb29ee","ios":"levelo://app?vid=c7bc53fc-285c-4506-94cb-af297fbb29ee"},"vehicle_type_id":"4","last_reported":1732979303,"current_range_meters":30000,"station_id":"ce4bhih2rcd13ifvqfs0","pricing_plan_id":"cebpf4jnsgd1na2vs0mg"},{"bike_id":"0eda5e93-f6e6-4072-9128-512e50ccd19d","system_id":"levelo_inurba_marseille","lat":43.24809,"lon":5.37462,"is_reserved":false,"is_disabled":false,"rental_uris":{"android":"levelo://app?vid=0eda5e93-f6e6-4072-9128-512e50ccd19d","ios":"levelo://app?vid=0eda5e93-f6e6-4072-9128-512e50ccd19d"},"vehicle_type_id":"4","last_reported":1732979303,"current_range_meters":9600,"station_id":"ce4bhgh2rcd13ifvqfb0","pricing_plan_id":"cebpf4jnsgd1na2vs0mg"},{"bike_id":"d350231d-a46d-4666-ba51-f12c2e69a01c","system_id":"levelo_inurba_marseille","lat":43.25718,"lon":5.41113,"is_reserved":false,"is_disabled":false,"rental_uris":{"android":"levelo://app?vid=d350231d-a46d-4666-ba51-f12c2e69a01c","ios":"levelo://app?vid=d350231d-a46d-4666-ba51-f12c2e69a01c"},"vehicle_type_id":"4","last_reported":1732979303,"current_range_meters":38800,"station_id":"ce4bhkp2rcd13ifvqgd0","pricing_plan_id":"cebpf4jnsgd1na2vs0mg"},{"bike_id":"385b33d2-1c16-4ef6-a22f-27cf07ac44d1","system_id":"levelo_inurba_marseille","lat":43.26203,"lon":5.3793,"is_reserved":false,"is_disabled":false,"rental_uris":{"android":"levelo://app?vid=385b33d2-1c16-4ef6-a22f-27cf07ac44d1","ios":"levelo://app?vid=385b33d2-1c16-4ef6-a22f-27cf07ac44d1"},"vehicle_type_id":"4","last_reported":1732979303,"current_range_meters":8000,"station_id":"ce4bhjp2rcd13ifvqg90","pricing_plan_id":"cebpf4jnsgd1na2vs0mg"},{"bike_id":"1b9d6586-57d2-41ae-a557-b4794a67a371","system_id":"levelo_inurba_marseille","lat":43.31997,"lon":5.41461,"is_reserved":false,"is_disabled":false,"rental_uris":{"android":"levelo://app?vid=1b9d6586-57d2-41ae-a557-b4794a67a371","ios":"levelo://app?vid=1b9d6586-57d2-41ae-a557-b4794a67a371"},"vehicle_type_id":"4","last_reported":1732979303,"current_range_meters":29600,"station_id":"ce4bhq92rcd13ifvqhkg","pricing_plan_id":"cebpf4jnsgd1na2vs0mg"},{"bike_id":"973568af-5e1b-4076-bd26-32e4e284fced","system_id":"levelo_inurba_marseille","lat":43.2718,"lon":5.41006,"is_reserved":false,"is_disabled":true,"rental_uris":{"android":"levelo://app?vid=973568af-5e1b-4076-bd26-32e4e284fced","ios":"levelo://app?vid=973568af-5e1b-4076-bd26-32e4e284fced"},"vehicle_type_id":"4","last_reported":1732979303,"current_range_meters":0,"station_id":"ce4bhl12rcd13ifvqgf0","pricing_plan_id":"cebpf4jnsgd1na2vs0mg"},{"bike_id":"47dced5c-9eee-4af6-9791-b16b21b10f52","system_id":"levelo_inurba_marseille","lat":43.28471,"lon":5.35897,"is_reserved":false,"is_disabled":false,"rental_uris":{"android":"levelo://app?vid=47dced5c-9eee-4af6-9791-b16b21b10f52","ios":"levelo://app?vid=47dced5c-9eee-4af6-9791-b16b21b10f52"},"vehicle_type_id":"4","last_reported":1732979303,"current_range_meters":28800,"station_id":"ce4bhah2rcd13ifvqei0","pricing_plan_id":"cebpf4jnsgd1na2vs0mg"},{"bike_id":"80d2731f-b906-4617-8ebf-25c514f46b29","system_id":"levelo_inurba_marseille","lat":43.22929,"lon":5.35379,"is_reserved":false,"is_disabled":false,"rental_uris":{"android":"levelo://app?vid=80d2731f-b906-4617-8ebf-25c514f46b29","ios":"levelo://app?vid=80d2731f-b906-4617-8ebf-25c514f46b29"},"vehicle_type_id":"4","last_reported":1732979303,"current_range_meters":30400,"station_id":"cpo3532slgdg3j2ikp40","pricing_plan_id":"cebpf4jnsgd1na2vs0mg"},{"bike_id":"67fa2a9e-eed8-4ed6-bdd8-7d1023a52b4e","system_id":"levelo_inurba_marseille","lat":43.26937,"lon":5.38925,"is_reserved":false,"is_disabled":true,"rental_uris":{"android":"levelo://app?vid=67fa2a9e-eed8-4ed6-bdd8-7d1023a52b4e","ios":"levelo://app?vid=67fa2a9e-eed8-4ed6-bdd8-7d1023a52b4e"},"vehicle_type_id":"4","last_reported":1732979303,"current_range_meters":9600,"station_id":"ce4bhhh2rcd13ifvqfl0","pricing_plan_id":"cebpf4jnsgd1na2vs0mg"},{"bike_id":"7aea2cc0-8fb7-4051-bad9-d49d559b2b34","system_id":"levelo_inurba_marseille","lat":43.30878,"lon":5.39657,"is_reserved":false,"is_disabled":false,"rental_uris":{"android":"levelo://app?vid=7aea2cc0-8fb7-4051-bad9-d49d559b2b34","ios":"levelo://app?vid=7aea2cc0-8fb7-4051-bad9-d49d559b2b34"},"vehicle_type_id":"4","last_reported":1732979303,"current_range_meters":2800,"station_id":"ce4bh012rcd13ifvqcv0","pricing_plan_id":"cebpf4jnsgd1na2vs0mg"},{"bike_id":"285dc202-9316-4878-8897-c50f4d9e0901","system_id":"levelo_inurba_marseille","lat":43.26788,"lon":5.39418,"is_reserved":false,"is_disabled":false,"rental_uris":{"android":"levelo://app?vid=285dc202-9316-4878-8897-c50f4d9e0901","ios":"levelo://app?vid=285dc202-9316-4878-8897-c50f4d9e0901"},"vehicle_type_id":"4","last_reported":1732979303,"current_range_meters":1600,"station_id":"ce4bhh12rcd13ifvqfg0","pricing_plan_id":"cebpf4jnsgd1na2vs0mg"},{"bike_id":"f453dc37-c945-448b-80e2-38bae3f013a5","system_id":"levelo_inurba_marseille","lat":43.32003,"lon":5.38163,"is_reserved":false,"is_disabled":false,"rental_uris":{"android":"levelo://app?vid=f453dc37-c945-448b-80e2-38bae3f013a5","ios":"levelo://app?vid=f453dc37-c945-448b-80e2-38bae3f013a5"},"vehicle_type_id":"4","last_reported":1732979303,"current_range_meters":30400,"station_id":"ce4bhr12rcd13ifvqhpg","pricing_plan_id":"cebpf4jnsgd1na2vs0mg"},{"bike_id":"e2e79c91-224e-43f2-aa53-c1cdf4a4ace3","system_id":"levelo_inurba_marseille","lat":43.30545,"lon":5.36558,"is_reserved":false,"is_disabled":false,"rental_uris":{"android":"levelo://app?vid=e2e79c91-224e-43f2-aa53-c1cdf4a4ace3","ios":"levelo://app?vid=e2e79c91-224e-43f2-aa53-c1cdf4a4ace3"},"vehicle_type_id":"4","last_reported":1732979303,"current_range_meters":27600,"station_id":"ce4bgs12rcd13ifvqcag","pricing_plan_id":"cebpf4jnsgd1na2vs0mg"},{"bike_id":"a2ac41da-6096-4fe3-9a6c-690722f4702a","system_id":"levelo_inurba_marseille","lat":43.24388,"lon":5.37065,"is_reserved":false,"is_disabled":false,"rental_uris":{"android":"levelo://app?vid=a2ac41da-6096-4fe3-9a6c-690722f4702a","ios":"levelo://app?vid=a2ac41da-6096-4fe3-9a6c-690722f4702a"},"vehicle_type_id":"4","last_reported":1732979303,"current_range_meters":6800,"station_id":"ce4bhhh2rcd13ifvqfk0","pricing_plan_id":"cebpf4jnsgd1na2vs0mg"},{"bike_id":"c173fdc2-78af-46e1-96eb-7ad24318f8b4","system_id":"levelo_inurba_marseille","lat":43.27073,"lon":5.42284,"is_reserved":false,"is_disabled":false,"rental_uris":{"android":"levelo://app?vid=c173fdc2-78af-46e1-96eb-7ad24318f8b4","ios":"levelo://app?vid=c173fdc2-78af-46e1-96eb-7ad24318f8b4"},"vehicle_type_id":"4","last_reported":1732979303,"current_range_meters":20400,"station_id":"ce4bhk92rcd13ifvqgb0","pricing_plan_id":"cebpf4jnsgd1na2vs0mg"},{"bike_id":"0e9c8bd2-332f-4ee3-a316-abe090c8c02c","system_id":"levelo_inurba_marseille","lat":43.29574,"lon":5.37526,"is_reserved":false,"is_disabled":false,"rental_uris":{"android":"levelo://app?vid=0e9c8bd2-332f-4ee3-a316-abe090c8c02c","ios":"levelo://app?vid=0e9c8bd2-332f-4ee3-a316-abe090c8c02c"},"vehicle_type_id":"4","last_reported":1732979303,"current_range_meters":32800,"station_id":"ce4bgh92rcd13ifvqb50","pricing_plan_id":"cebpf4jnsgd1na2vs0mg"},{"bike_id":"41caa9ee-86f5-464c-8b22-d4d7c535acc8","system_id":"levelo_inurba_marseille","lat":43.2846,"lon":5.35887,"is_reserved":false,"is_disabled":true,"rental_uris":{"android":"levelo://app?vid=41caa9ee-86f5-464c-8b22-d4d7c535acc8","ios":"levelo://app?vid=41caa9ee-86f5-464c-8b22-d4d7c535acc8"},"vehicle_type_id":"4","last_reported":1732979303,"current_range_meters":5600,"station_id":"ce4bhah2rcd13ifvqei0","pricing_plan_id":"cebpf4jnsgd1na2vs0mg"},{"bike_id":"bc749360-3ce4-4dd6-a0ac-83aa82c323a7","system_id":"levelo_inurba_marseille","lat":43.28157,"lon":5.42641,"is_reserved":false,"is_disabled":true,"rental_uris":{"android":"levelo://app?vid=bc749360-3ce4-4dd6-a0ac-83aa82c323a7","ios":"levelo://app?vid=bc749360-3ce4-4dd6-a0ac-83aa82c323a7"},"vehicle_type_id":"4","last_reported":1732979303,"current_range_meters":35200,"station_id":"ce4bhnh2rcd13ifvqgug","pricing_plan_id":"cebpf4jnsgd1na2vs0mg"},{"bike_id":"aca3045c-00b5-4e45-9d2c-a26c62abbfac","system_id":"levelo_inurba_marseille","lat":43.28666,"lon":5.38662,"is_reserved":false,"is_disabled":false,"rental_uris":{"android":"levelo://app?vid=aca3045c-00b5-4e45-9d2c-a26c62abbfac","ios":"levelo://app?vid=aca3045c-00b5-4e45-9d2c-a26c62abbfac"},"vehicle_type_id":"4","last_reported":1732979303,"current_range_meters":28800,"station_id":"ce4bh492rcd13ifvqdug","pricing_plan_id":"cebpf4jnsgd1na2vs0mg"},{"bike_id":"558747a2-4017-443c-bd21-43d4dcdb19d0","system_id":"levelo_inurba_marseille","lat":43.231903,"lon":5.355404,"is_reserved":false,"is_disabled":false,"rental_uris":{"android":"levelo://app?vid=558747a2-4017-443c-bd21-43d4dcdb19d0","ios":"levelo://app?vid=558747a2-4017-443c-bd21-43d4dcdb19d0"},"vehicle_type_id":"4","last_reported":1732979303,"current_range_meters":38800,"station_id":"ce4bhu92rcd13ifvqi70","pricing_plan_id":"cebpf4jnsgd1na2vs0mg"},{"bike_id":"4d4c884f-6933-49c0-8899-f9856d90f44d","system_id":"levelo_inurba_marseille","lat":43.29748,"lon":5.37971,"is_reserved":false,"is_disabled":true,"rental_uris":{"android":"levelo://app?vid=4d4c884f-6933-49c0-8899-f9856d90f44d","ios":"levelo://app?vid=4d4c884f-6933-49c0-8899-f9856d90f44d"},"vehicle_type_id":"4","last_reported":1732979303,"current_range_meters":0,"station_id":"","pricing_plan_id":"cebpf4jnsgd1na2vs0mg"},{"bike_id":"49383f8c-5e0c-4bb5-aa2b-e1c81f4536f3","system_id":"levelo_inurba_marseille","lat":43.32286,"lon":5.38267,"is_reserved":false,"is_disabled":false,"rental_uris":{"android":"levelo://app?vid=49383f8c-5e0c-4bb5-aa2b-e1c81f4536f3","ios":"levelo://app?vid=49383f8c-5e0c-4bb5-aa2b-e1c81f4536f3"},"vehicle_type_id":"4","last_reported":1732979303,"current_range_meters":30000,"station_id":"ce4bhr12rcd13ifvqhqg","pricing_plan_id":"cebpf4jnsgd1na2vs0mg"},{"bike_id":"3cd59383-a551-4e95-8283-4bb194f510f3","system_id":"levelo_inurba_marseille","lat":43.29534,"lon":5.38553,"is_reserved":false,"is_disabled":false,"rental_uris":{"android":"levelo://app?vid=3cd59383-a551-4e95-8283-4bb194f510f3","ios":"levelo://app?vid=3cd59383-a551-4e95-8283-4bb194f510f3"},"vehicle_type_id":"4","last_reported":1732979303,"current_range_meters":12000,"station_id":"ce4bgih2rcd13ifvqba0","pricing_plan_id":"cebpf4jnsgd1na2vs0mg"},{"bike_id":"def061a7-f9c1-4575-9626-2cc401ef7c0d","system_id":"levelo_inurba_marseille","lat":43.29044,"lon":5.39989,"is_reserved":false,"is_disabled":false,"rental_uris":{"android":"levelo://app?vid=def061a7-f9c1-4575-9626-2cc401ef7c0d","ios":"levelo://app?vid=def061a7-f9c1-4575-9626-2cc401ef7c0d"},"vehicle_type_id":"4","last_reported":1732979303,"current_range_meters":28400,"station_id":"ce4bh392rcd13ifvqdm0","pricing_plan_id":"cebpf4jnsgd1na2vs0mg"},{"bike_id":"12cee7de-4489-490e-aa7c-eb0184ecb8fa","system_id":"levelo_inurba_marseille","lat":43.29557,"lon":5.42298,"is_reserved":false,"is_disabled":false,"rental_uris":{"android":"levelo://app?vid=12cee7de-4489-490e-aa7c-eb0184ecb8fa","ios":"levelo://app?vid=12cee7de-4489-490e-aa7c-eb0184ecb8fa"},"vehicle_type_id":"4","last_reported":1732979303,"current_range_meters":26800,"station_id":"ce4bhph2rcd13ifvqhdg","pricing_plan_id":"cebpf4jnsgd1na2vs0mg"},{"bike_id":"9009be37-c6b1-406b-b0a8-fbab355f715e","system_id":"levelo_inurba_marseille","lat":43.33763,"lon":5.37495,"is_reserved":false,"is_disabled":false,"rental_uris":{"android":"levelo://app?vid=9009be37-c6b1-406b-b0a8-fbab355f715e","ios":"levelo://app?vid=9009be37-c6b1-406b-b0a8-fbab355f715e"},"vehicle_type_id":"4","last_reported":1732979303,"current_range_meters":36000,"station_id":"","pricing_plan_id":"cebpf4jnsgd1na2vs0mg"},{"bike_id":"2d935013-838b-4196-a076-6a1507e4cc81","system_id":"levelo_inurba_marseille","lat":43.23965,"lon":5.36634,"is_reserved":false,"is_disabled":false,"rental_uris":{"android":"levelo://app?vid=2d935013-838b-4196-a076-6a1507e4cc81","ios":"levelo://app?vid=2d935013-838b-4196-a076-6a1507e4cc81"},"vehicle_type_id":"4","last_reported":1732979303,"current_range_meters":19600,"station_id":"ce4bhi12rcd13ifvqfp0","pricing_plan_id":"cebpf4jnsgd1na2vs0mg"},{"bike_id":"f315444c-3182-4e6c-adf2-7365eb3bf125","system_id":"levelo_inurba_marseille","lat":43.24075,"lon":5.37763,"is_reserved":false,"is_disabled":false,"rental_uris":{"android":"levelo://app?vid=f315444c-3182-4e6c-adf2-7365eb3bf125","ios":"levelo://app?vid=f315444c-3182-4e6c-adf2-7365eb3bf125"},"vehicle_type_id":"4","last_reported":1732979303,"current_range_meters":14400,"station_id":"ce4bhnp2rcd13ifvqgvg","pricing_plan_id":"cebpf4jnsgd1na2vs0mg"},{"bike_id":"ac49fba4-30df-4893-b052-7d9d76fd86a2","system_id":"levelo_inurba_marseille","lat":43.29258,"lon":5.38434,"is_reserved":false,"is_disabled":true,"rental_uris":{"android":"levelo://app?vid=ac49fba4-30df-4893-b052-7d9d76fd86a2","ios":"levelo://app?vid=ac49fba4-30df-4893-b052-7d9d76fd86a2"},"vehicle_type_id":"4","last_reported":1732979303,"current_range_meters":17200,"station_id":"ce4bh692rcd13ifvqea0","pricing_plan_id":"cebpf4jnsgd1na2vs0mg"},{"bike_id":"96024f36-3d47-4f4f-b477-c82b7ca447d2","system_id":"levelo_inurba_marseille","lat":43.30876,"lon":5.39654,"is_reserved":false,"is_disabled":false,"rental_uris":{"android":"levelo://app?vid=96024f36-3d47-4f4f-b477-c82b7ca447d2","ios":"levelo://app?vid=96024f36-3d47-4f4f-b477-c82b7ca447d2"},"vehicle_type_id":"4","last_reported":1732979303,"current_range_meters":20000,"station_id":"ce4bh012rcd13ifvqcv0","pricing_plan_id":"cebpf4jnsgd1na2vs0mg"},{"bike_id":"1d9c21ae-41c7-43f3-9736-93a9de673aff","system_id":"levelo_inurba_marseille","lat":43.30084,"lon":5.39079,"is_reserved":false,"is_disabled":false,"rental_uris":{"android":"levelo://app?vid=1d9c21ae-41c7-43f3-9736-93a9de673aff","ios":"levelo://app?vid=1d9c21ae-41c7-43f3-9736-93a9de673aff"},"vehicle_type_id":"4","last_reported":1732979303,"current_range_meters":30800,"station_id":"ce4bh192rcd13ifvqdb0","pricing_plan_id":"cebpf4jnsgd1na2vs0mg"},{"bike_id":"56a51390-ab43-4f44-9c27-9ff36621ac39","system_id":"levelo_inurba_marseille","lat":43.304285,"lon":5.388948,"is_reserved":false,"is_disabled":false,"rental_uris":{"android":"levelo://app?vid=56a51390-ab43-4f44-9c27-9ff36621ac39","ios":"levelo://app?vid=56a51390-ab43-4f44-9c27-9ff36621ac39"},"vehicle_type_id":"4","last_reported":1732979303,"current_range_meters":35600,"station_id":"ce4bgk12rcd13ifvqbi0","pricing_plan_id":"cebpf4jnsgd1na2vs0mg"},{"bike_id":"be1ea8ae-bb6c-4cc9-9878-4dd6e7c328d6","system_id":"levelo_inurba_marseille","lat":43.3211,"lon":5.36781,"is_reserved":false,"is_disabled":false,"rental_uris":{"android":"levelo://app?vid=be1ea8ae-bb6c-4cc9-9878-4dd6e7c328d6","ios":"levelo://app?vid=be1ea8ae-bb6c-4cc9-9878-4dd6e7c328d6"},"vehicle_type_id":"4","last_reported":1732979303,"current_range_meters":30400,"station_id":"ce4bhrh2rcd13ifvqhug","pricing_plan_id":"cebpf4jnsgd1na2vs0mg"},{"bike_id":"3abdb507-aca9-41cf-ab5c-c13fb795c3a0","system_id":"levelo_inurba_marseille","lat":43.284054,"lon":5.349836,"is_reserved":false,"is_disabled":true,"rental_uris":{"android":"levelo://app?vid=3abdb507-aca9-41cf-ab5c-c13fb795c3a0","ios":"levelo://app?vid=3abdb507-aca9-41cf-ab5c-c13fb795c3a0"},"vehicle_type_id":"4","last_reported":1732979303,"current_range_meters":38400,"station_id":"ce4bhbh2rcd13ifvqepg","pricing_plan_id":"cebpf4jnsgd1na2vs0mg"},{"bike_id":"659c3713-9f69-48d4-ab56-f16999acb99a","system_id":"levelo_inurba_marseille","lat":43.33023,"lon":5.39043,"is_reserved":false,"is_disabled":false,"rental_uris":{"android":"levelo://app?vid=659c3713-9f69-48d4-ab56-f16999acb99a","ios":"levelo://app?vid=659c3713-9f69-48d4-ab56-f16999acb99a"},"vehicle_type_id":"4","last_reported":1732979303,"current_range_meters":26000,"station_id":"ce4bhr92rcd13ifvqhrg","pricing_plan_id":"cebpf4jnsgd1na2vs0mg"},{"bike_id":"a76ab13f-71c5-48ad-9cec-0ff7fa8c8b1a","system_id":"levelo_inurba_marseille","lat":43.25868,"lon":5.39904,"is_reserved":false,"is_disabled":false,"rental_uris":{"android":"levelo://app?vid=a76ab13f-71c5-48ad-9cec-0ff7fa8c8b1a","ios":"levelo://app?vid=a76ab13f-71c5-48ad-9cec-0ff7fa8c8b1a"},"vehicle_type_id":"4","last_reported":1732979303,"current_range_meters":6400,"station_id":"ce4bhl92rcd13ifvqghg","pricing_plan_id":"cebpf4jnsgd1na2vs0mg"},{"bike_id":"97b35c0e-7e77-4f0a-83fa-58fbc99a2959","system_id":"levelo_inurba_marseille","lat":43.337444,"lon":5.374475,"is_reserved":false,"is_disabled":false,"rental_uris":{"android":"levelo://app?vid=97b35c0e-7e77-4f0a-83fa-58fbc99a2959","ios":"levelo://app?vid=97b35c0e-7e77-4f0a-83fa-58fbc99a2959"},"vehicle_type_id":"4","last_reported":1732979303,"current_range_meters":35200,"station_id":"","pricing_plan_id":"cebpf4jnsgd1na2vs0mg"},{"bike_id":"90e6624d-f15b-40a9-aa21-66d0047fb8c0","system_id":"levelo_inurba_marseille","lat":43.33742,"lon":5.37444,"is_reserved":false,"is_disabled":false,"rental_uris":{"android":"levelo://app?vid=90e6624d-f15b-40a9-aa21-66d0047fb8c0","ios":"levelo://app?vid=90e6624d-f15b-40a9-aa21-66d0047fb8c0"},"vehicle_type_id":"4","last_reported":1732979303,"current_range_meters":14000,"station_id":"","pricing_plan_id":"cebpf4jnsgd1na2vs0mg"},{"bike_id":"57516422-900b-4fee-adbc-7ea31a53a248","system_id":"levelo_inurba_marseille","lat":43.25723,"lon":5.41105,"is_reserved":false,"is_disabled":false,"rental_uris":{"android":"levelo://app?vid=57516422-900b-4fee-adbc-7ea31a53a248","ios":"levelo://app?vid=57516422-900b-4fee-adbc-7ea31a53a248"},"vehicle_type_id":"4","last_reported":1732979303,"current_range_meters":38400,"station_id":"ce4bhkp2rcd13ifvqgd0","pricing_plan_id":"cebpf4jnsgd1na2vs0mg"},{"bike_id":"bd592188-d898-4edf-9253-c06b88f51b1b","system_id":"levelo_inurba_marseille","lat":43.30468,"lon":5.37915,"is_reserved":false,"is_disabled":false,"rental_uris":{"android":"levelo://app?vid=bd592188-d898-4edf-9253-c06b88f51b1b","ios":"levelo://app?vid=bd592188-d898-4edf-9253-c06b88f51b1b"},"vehicle_type_id":"4","last_reported":1732979303,"current_range_meters":38000,"station_id":"ce4bgup2rcd13ifvqcn0","pricing_plan_id":"cebpf4jnsgd1na2vs0mg"},{"bike_id":"5d7560ca-2d2d-46fd-ba91-63027f6383d6","system_id":"levelo_inurba_marseille","lat":43.31214,"lon":5.36859,"is_reserved":false,"is_disabled":true,"rental_uris":{"android":"levelo://app?vid=5d7560ca-2d2d-46fd-ba91-63027f6383d6","ios":"levelo://app?vid=5d7560ca-2d2d-46fd-ba91-63027f6383d6"},"vehicle_type_id":"4","last_reported":1732979303,"current_range_meters":2000,"station_id":"ce4bgl92rcd13ifvqbq0","pricing_plan_id":"cebpf4jnsgd1na2vs0mg"},{"bike_id":"d8893ea1-0749-47d0-bcb7-133a48050ff5","system_id":"levelo_inurba_marseille","lat":43.24651,"lon":5.38903,"is_reserved":false,"is_disabled":false,"rental_uris":{"android":"levelo://app?vid=d8893ea1-0749-47d0-bcb7-133a48050ff5","ios":"levelo://app?vid=d8893ea1-0749-47d0-bcb7-133a48050ff5"},"vehicle_type_id":"4","last_reported":1732979303,"current_range_meters":9600,"station_id":"ce4bhg12rcd13ifvqf60","pricing_plan_id":"cebpf4jnsgd1na2vs0mg"},{"bike_id":"9270d82b-4180-4925-b1aa-215718accbbd","system_id":"levelo_inurba_marseille","lat":43.30814,"lon":5.43539,"is_reserved":false,"is_disabled":false,"rental_uris":{"android":"levelo://app?vid=9270d82b-4180-4925-b1aa-215718accbbd","ios":"levelo://app?vid=9270d82b-4180-4925-b1aa-215718accbbd"},"vehicle_type_id":"4","last_reported":1732979303,"current_range_meters":13600,"station_id":"ce4bhph2rcd13ifvqheg","pricing_plan_id":"cebpf4jnsgd1na2vs0mg"},{"bike_id":"b62465a8-97f3-4826-b18c-2d81f24e17c6","system_id":"levelo_inurba_marseille","lat":43.27383,"lon":5.36265,"is_reserved":false,"is_disabled":true,"rental_uris":{"android":"levelo://app?vid=b62465a8-97f3-4826-b18c-2d81f24e17c6","ios":"levelo://app?vid=b62465a8-97f3-4826-b18c-2d81f24e17c6"},"vehicle_type_id":"4","last_reported":1732979303,"current_range_meters":0,"station_id":"ce4bhbh2rcd13ifvqeo0","pricing_plan_id":"cebpf4jnsgd1na2vs0mg"},{"bike_id":"256ed7b4-aff1-4687-9338-98ca1590cf7b","system_id":"levelo_inurba_marseille","lat":43.33749,"lon":5.37475,"is_reserved":false,"is_disabled":false,"rental_uris":{"android":"levelo://app?vid=256ed7b4-aff1-4687-9338-98ca1590cf7b","ios":"levelo://app?vid=256ed7b4-aff1-4687-9338-98ca1590cf7b"},"vehicle_type_id":"4","last_reported":1732979303,"current_range_meters":26800,"station_id":"","pricing_plan_id":"cebpf4jnsgd1na2vs0mg"},{"bike_id":"b2d953f4-eb10-4545-acc8-7f2058a172db","system_id":"levelo_inurba_marseille","lat":43.24804,"lon":5.37457,"is_reserved":false,"is_disabled":false,"rental_uris":{"android":"levelo://app?vid=b2d953f4-eb10-4545-acc8-7f2058a172db","ios":"levelo://app?vid=b2d953f4-eb10-4545-acc8-7f2058a172db"},"vehicle_type_id":"4","last_reported":1732979303,"current_range_meters":40000,"station_id":"ce4bhgh2rcd13ifvqfb0","pricing_plan_id":"cebpf4jnsgd1na2vs0mg"},{"bike_id":"064861a6-5a15-4e22-bc40-26ea165590ab","system_id":"levelo_inurba_marseille","lat":43.29196,"lon":5.39313,"is_reserved":false,"is_disabled":true,"rental_uris":{"android":"levelo://app?vid=064861a6-5a15-4e22-bc40-26ea165590ab","ios":"levelo://app?vid=064861a6-5a15-4e22-bc40-26ea165590ab"},"vehicle_type_id":"4","last_reported":1732979303,"current_range_meters":27600,"station_id":"ce4bh192rcd13ifvqdd0","pricing_plan_id":"cebpf4jnsgd1na2vs0mg"},{"bike_id":"7fe71f7a-ec8a-4e54-ad2d-3058bb02f899","system_id":"levelo_inurba_marseille","lat":43.2694,"lon":5.38924,"is_reserved":false,"is_disabled":false,"rental_uris":{"android":"levelo://app?vid=7fe71f7a-ec8a-4e54-ad2d-3058bb02f899","ios":"levelo://app?vid=7fe71f7a-ec8a-4e54-ad2d-3058bb02f899"},"vehicle_type_id":"4","last_reported":1732979303,"current_range_meters":38400,"station_id":"ce4bhhh2rcd13ifvqfl0","pricing_plan_id":"cebpf4jnsgd1na2vs0mg"},{"bike_id":"46507057-863b-4762-9275-3f3b81fccf53","system_id":"levelo_inurba_marseille","lat":43.25002,"lon":5.38932,"is_reserved":false,"is_disabled":false,"rental_uris":{"android":"levelo://app?vid=46507057-863b-4762-9275-3f3b81fccf53","ios":"levelo://app?vid=46507057-863b-4762-9275-3f3b81fccf53"},"vehicle_type_id":"4","last_reported":1732979303,"current_range_meters":24400,"station_id":"ce4bhgp2rcd13ifvqfd0","pricing_plan_id":"cebpf4jnsgd1na2vs0mg"},{"bike_id":"e8fa7be1-2407-41a7-b843-e7c70f1917ef","system_id":"levelo_inurba_marseille","lat":43.27611,"lon":5.36109,"is_reserved":false,"is_disabled":true,"rental_uris":{"android":"levelo://app?vid=e8fa7be1-2407-41a7-b843-e7c70f1917ef","ios":"levelo://app?vid=e8fa7be1-2407-41a7-b843-e7c70f1917ef"},"vehicle_type_id":"4","last_reported":1732979303,"current_range_meters":0,"station_id":"ce4bgj92rcd13ifvqbe0","pricing_plan_id":"cebpf4jnsgd1na2vs0mg"},{"bike_id":"86798679-2d11-4f7c-88f2-6fb22d206b65","system_id":"levelo_inurba_marseille","lat":43.304325,"lon":5.38894,"is_reserved":false,"is_disabled":false,"rental_uris":{"android":"levelo://app?vid=86798679-2d11-4f7c-88f2-6fb22d206b65","ios":"levelo://app?vid=86798679-2d11-4f7c-88f2-6fb22d206b65"},"vehicle_type_id":"4","last_reported":1732979303,"current_range_meters":31200,"station_id":"ce4bgk12rcd13ifvqbi0","pricing_plan_id":"cebpf4jnsgd1na2vs0mg"},{"bike_id":"4fd8c3d7-b0d8-4183-b8c6-5e9eadd555af","system_id":"levelo_inurba_marseille","lat":43.28954,"lon":5.36642,"is_reserved":false,"is_disabled":false,"rental_uris":{"android":"levelo://app?vid=4fd8c3d7-b0d8-4183-b8c6-5e9eadd555af","ios":"levelo://app?vid=4fd8c3d7-b0d8-4183-b8c6-5e9eadd555af"},"vehicle_type_id":"4","last_reported":1732979303,"current_range_meters":24400,"station_id":"ce4bhap2rcd13ifvqek0","pricing_plan_id":"cebpf4jnsgd1na2vs0mg"},{"bike_id":"a4404dac-00c5-4861-a1ae-6d042a4030f1","system_id":"levelo_inurba_marseille","lat":43.33734,"lon":5.37473,"is_reserved":false,"is_disabled":false,"rental_uris":{"android":"levelo://app?vid=a4404dac-00c5-4861-a1ae-6d042a4030f1","ios":"levelo://app?vid=a4404dac-00c5-4861-a1ae-6d042a4030f1"},"vehicle_type_id":"4","last_reported":1732979303,"current_range_meters":11600,"station_id":"","pricing_plan_id":"cebpf4jnsgd1na2vs0mg"},{"bike_id":"ae110baa-6fa5-463d-9c19-2aa3237d6213","system_id":"levelo_inurba_marseille","lat":43.2319,"lon":5.35555,"is_reserved":false,"is_disabled":false,"rental_uris":{"android":"levelo://app?vid=ae110baa-6fa5-463d-9c19-2aa3237d6213","ios":"levelo://app?vid=ae110baa-6fa5-463d-9c19-2aa3237d6213"},"vehicle_type_id":"4","last_reported":1732979303,"current_range_meters":25600,"station_id":"ce4bhu92rcd13ifvqi70","pricing_plan_id":"cebpf4jnsgd1na2vs0mg"},{"bike_id":"cd64a4e4-7dd1-4319-a2a3-5c11ddf00832","system_id":"levelo_inurba_marseille","lat":43.2907,"lon":5.37164,"is_reserved":false,"is_disabled":true,"rental_uris":{"android":"levelo://app?vid=cd64a4e4-7dd1-4319-a2a3-5c11ddf00832","ios":"levelo://app?vid=cd64a4e4-7dd1-4319-a2a3-5c11ddf00832"},"vehicle_type_id":"4","last_reported":1732979303,"current_range_meters":0,"station_id":"ce4bh5p2rcd13ifvqe4g","pricing_plan_id":"cebpf4jnsgd1na2vs0mg"},{"bike_id":"8530124b-7f0c-42f6-ab85-0842ea22d9b0","system_id":"levelo_inurba_marseille","lat":43.30883,"lon":5.39642,"is_reserved":false,"is_disabled":false,"rental_uris":{"android":"levelo://app?vid=8530124b-7f0c-42f6-ab85-0842ea22d9b0","ios":"levelo://app?vid=8530124b-7f0c-42f6-ab85-0842ea22d9b0"},"vehicle_type_id":"4","last_reported":1732979303,"current_range_meters":36800,"station_id":"ce4bh012rcd13ifvqcv0","pricing_plan_id":"cebpf4jnsgd1na2vs0mg"},{"bike_id":"9700beae-0fbf-4e58-beda-d02b6fed27fe","system_id":"levelo_inurba_marseille","lat":43.337444,"lon":5.374475,"is_reserved":false,"is_disabled":false,"rental_uris":{"android":"levelo://app?vid=9700beae-0fbf-4e58-beda-d02b6fed27fe","ios":"levelo://app?vid=9700beae-0fbf-4e58-beda-d02b6fed27fe"},"vehicle_type_id":"4","last_reported":1732979303,"current_range_meters":38000,"station_id":"","pricing_plan_id":"cebpf4jnsgd1na2vs0mg"},{"bike_id":"bf62ee0a-8d14-4e0d-96e0-b17a719ad934","system_id":"levelo_inurba_marseille","lat":43.29636,"lon":5.40604,"is_reserved":false,"is_disabled":false,"rental_uris":{"android":"levelo://app?vid=bf62ee0a-8d14-4e0d-96e0-b17a719ad934","ios":"levelo://app?vid=bf62ee0a-8d14-4e0d-96e0-b17a719ad934"},"vehicle_type_id":"4","last_reported":1732979303,"current_range_meters":18000,"station_id":"ce4bh0h2rcd13ifvqd60","pricing_plan_id":"cebpf4jnsgd1na2vs0mg"},{"bike_id":"08226cce-1374-4711-b45d-e670b0ff171c","system_id":"levelo_inurba_marseille","lat":43.28415,"lon":5.34998,"is_reserved":false,"is_disabled":true,"rental_uris":{"android":"levelo://app?vid=08226cce-1374-4711-b45d-e670b0ff171c","ios":"levelo://app?vid=08226cce-1374-4711-b45d-e670b0ff171c"},"vehicle_type_id":"4","last_reported":1732979303,"current_range_meters":0,"station_id":"ce4bhbh2rcd13ifvqepg","pricing_plan_id":"cebpf4jnsgd1na2vs0mg"},{"bike_id":"57be8da2-cc15-4fa0-ab5c-c8edf9f8151f","system_id":"levelo_inurba_marseille","lat":43.25005,"lon":5.38929,"is_reserved":false,"is_disabled":false,"rental_uris":{"android":"levelo://app?vid=57be8da2-cc15-4fa0-ab5c-c8edf9f8151f","ios":"levelo://app?vid=57be8da2-cc15-4fa0-ab5c-c8edf9f8151f"},"vehicle_type_id":"4","last_reported":1732979303,"current_range_meters":10800,"station_id":"ce4bhgp2rcd13ifvqfd0","pricing_plan_id":"cebpf4jnsgd1na2vs0mg"},{"bike_id":"59e2c82f-d206-4dd1-b1bc-f9df08576799","system_id":"levelo_inurba_marseille","lat":43.29062,"lon":5.37162,"is_reserved":false,"is_disabled":false,"rental_uris":{"android":"levelo://app?vid=59e2c82f-d206-4dd1-b1bc-f9df08576799","ios":"levelo://app?vid=59e2c82f-d206-4dd1-b1bc-f9df08576799"},"vehicle_type_id":"4","last_reported":1732979303,"current_range_meters":3600,"station_id":"ce4bh5p2rcd13ifvqe4g","pricing_plan_id":"cebpf4jnsgd1na2vs0mg"},{"bike_id":"58cc47a8-7400-4783-8e9f-bef56208b81d","system_id":"levelo_inurba_marseille","lat":43.25579,"lon":5.38225,"is_reserved":false,"is_disabled":false,"rental_uris":{"android":"levelo://app?vid=58cc47a8-7400-4783-8e9f-bef56208b81d","ios":"levelo://app?vid=58cc47a8-7400-4783-8e9f-bef56208b81d"},"vehicle_type_id":"4","last_reported":1732979303,"current_range_meters":10800,"station_id":"ce4bhih2rcd13ifvqfs0","pricing_plan_id":"cebpf4jnsgd1na2vs0mg"},{"bike_id":"bac14038-fa36-4006-a336-8ba03639bc6c","system_id":"levelo_inurba_marseille","lat":43.29525,"lon":5.39409,"is_reserved":false,"is_disabled":false,"rental_uris":{"android":"levelo://app?vid=bac14038-fa36-4006-a336-8ba03639bc6c","ios":"levelo://app?vid=bac14038-fa36-4006-a336-8ba03639bc6c"},"vehicle_type_id":"4","last_reported":1732979303,"current_range_meters":20800,"station_id":"ce4bh292rcd13ifvqdf0","pricing_plan_id":"cebpf4jnsgd1na2vs0mg"},{"bike_id":"9abb17ed-a34e-42a8-8638-1fbed662a366","system_id":"levelo_inurba_marseille","lat":43.24083,"lon":5.37752,"is_reserved":false,"is_disabled":false,"rental_uris":{"android":"levelo://app?vid=9abb17ed-a34e-42a8-8638-1fbed662a366","ios":"levelo://app?vid=9abb17ed-a34e-42a8-8638-1fbed662a366"},"vehicle_type_id":"4","last_reported":1732979303,"current_range_meters":39200,"station_id":"ce4bhnp2rcd13ifvqgvg","pricing_plan_id":"cebpf4jnsgd1na2vs0mg"},{"bike_id":"78b17874-38cc-49a5-900e-f70a114359e0","system_id":"levelo_inurba_marseille","lat":43.26944,"lon":5.40259,"is_reserved":false,"is_disabled":false,"rental_uris":{"android":"levelo://app?vid=78b17874-38cc-49a5-900e-f70a114359e0","ios":"levelo://app?vid=78b17874-38cc-49a5-900e-f70a114359e0"},"vehicle_type_id":"4","last_reported":1732979303,"current_range_meters":23200,"station_id":"cjm6bp8fraef2m0cb0m0","pricing_plan_id":"cebpf4jnsgd1na2vs0mg"},{"bike_id":"4a2be555-d056-454c-bed3-fe781ba86f8e","system_id":"levelo_inurba_marseille","lat":43.25886,"lon":5.39954,"is_reserved":false,"is_disabled":true,"rental_uris":{"android":"levelo://app?vid=4a2be555-d056-454c-bed3-fe781ba86f8e","ios":"levelo://app?vid=4a2be555-d056-454c-bed3-fe781ba86f8e"},"vehicle_type_id":"4","last_reported":1732979303,"current_range_meters":0,"station_id":"","pricing_plan_id":"cebpf4jnsgd1na2vs0mg"},{"bike_id":"0762035b-11a6-43b1-906c-953817361917","system_id":"levelo_inurba_marseille","lat":43.32484,"lon":5.36559,"is_reserved":false,"is_disabled":false,"rental_uris":{"android":"levelo://app?vid=0762035b-11a6-43b1-906c-953817361917","ios":"levelo://app?vid=0762035b-11a6-43b1-906c-953817361917"},"vehicle_type_id":"4","last_reported":1732979303,"current_range_meters":39200,"station_id":"ce4bhs12rcd13ifvqhvg","pricing_plan_id":"cebpf4jnsgd1na2vs0mg"},{"bike_id":"81cf8f79-febf-4b90-b4be-2e1931becf33","system_id":"levelo_inurba_marseille","lat":43.28619,"lon":5.38494,"is_reserved":false,"is_disabled":false,"rental_uris":{"android":"levelo://app?vid=81cf8f79-febf-4b90-b4be-2e1931becf33","ios":"levelo://app?vid=81cf8f79-febf-4b90-b4be-2e1931becf33"},"vehicle_type_id":"4","last_reported":1732979303,"current_range_meters":38800,"station_id":"ce4bh292rcd13ifvqdf0","pricing_plan_id":"cebpf4jnsgd1na2vs0mg"},{"bike_id":"8942a591-de10-4ccf-b053-77881b8b9160","system_id":"levelo_inurba_marseille","lat":43.25002,"lon":5.3893,"is_reserved":false,"is_disabled":true,"rental_uris":{"android":"levelo://app?vid=8942a591-de10-4ccf-b053-77881b8b9160","ios":"levelo://app?vid=8942a591-de10-4ccf-b053-77881b8b9160"},"vehicle_type_id":"4","last_reported":1732979303,"current_range_meters":800,"station_id":"ce4bhgp2rcd13ifvqfd0","pricing_plan_id":"cebpf4jnsgd1na2vs0mg"},{"bike_id":"db303386-ad2f-4d95-9952-a3909a77412e","system_id":"levelo_inurba_marseille","lat":43.303032,"lon":5.392155,"is_reserved":false,"is_disabled":false,"rental_uris":{"android":"levelo://app?vid=db303386-ad2f-4d95-9952-a3909a77412e","ios":"levelo://app?vid=db303386-ad2f-4d95-9952-a3909a77412e"},"vehicle_type_id":"4","last_reported":1732979303,"current_range_meters":35600,"station_id":"ce4bgkh2rcd13ifvqbk0","pricing_plan_id":"cebpf4jnsgd1na2vs0mg"},{"bike_id":"f236a7ce-f574-43e0-bbd1-95ab89bdfdf4","system_id":"levelo_inurba_marseille","lat":43.25113,"lon":5.40328,"is_reserved":false,"is_disabled":false,"rental_uris":{"android":"levelo://app?vid=f236a7ce-f574-43e0-bbd1-95ab89bdfdf4","ios":"levelo://app?vid=f236a7ce-f574-43e0-bbd1-95ab89bdfdf4"},"vehicle_type_id":"4","last_reported":1732979303,"current_range_meters":21600,"station_id":"ce4bhlh2rcd13ifvqgig","pricing_plan_id":"cebpf4jnsgd1na2vs0mg"},{"bike_id":"80ee5806-271f-4b24-a602-2dc27d804313","system_id":"levelo_inurba_marseille","lat":43.32107,"lon":5.36783,"is_reserved":false,"is_disabled":false,"rental_uris":{"android":"levelo://app?vid=80ee5806-271f-4b24-a602-2dc27d804313","ios":"levelo://app?vid=80ee5806-271f-4b24-a602-2dc27d804313"},"vehicle_type_id":"4","last_reported":1732979303,"current_range_meters":9200,"station_id":"ce4bhrh2rcd13ifvqhug","pricing_plan_id":"cebpf4jnsgd1na2vs0mg"},{"bike_id":"000b518d-442b-4752-8b9a-e2fc3654d286","system_id":"levelo_inurba_marseille","lat":43.29444,"lon":5.39767,"is_reserved":false,"is_disabled":true,"rental_uris":{"android":"levelo://app?vid=000b518d-442b-4752-8b9a-e2fc3654d286","ios":"levelo://app?vid=000b518d-442b-4752-8b9a-e2fc3654d286"},"vehicle_type_id":"4","last_reported":1732979303,"current_range_meters":22800,"station_id":"ce4bh3h2rcd13ifvqdo0","pricing_plan_id":"cebpf4jnsgd1na2vs0mg"},{"bike_id":"8410cca3-953f-4753-980b-b4d3e12817fc","system_id":"levelo_inurba_marseille","lat":43.28265,"lon":5.35072,"is_reserved":false,"is_disabled":false,"rental_uris":{"android":"levelo://app?vid=8410cca3-953f-4753-980b-b4d3e12817fc","ios":"levelo://app?vid=8410cca3-953f-4753-980b-b4d3e12817fc"},"vehicle_type_id":"4","last_reported":1732979303,"current_range_meters":28800,"station_id":"ce4bhbp2rcd13ifvqerg","pricing_plan_id":"cebpf4jnsgd1na2vs0mg"},{"bike_id":"9680e32e-8058-40c1-8f3e-7d26f11ff2e7","system_id":"levelo_inurba_marseille","lat":43.29009,"lon":5.3562,"is_reserved":false,"is_disabled":true,"rental_uris":{"android":"levelo://app?vid=9680e32e-8058-40c1-8f3e-7d26f11ff2e7","ios":"levelo://app?vid=9680e32e-8058-40c1-8f3e-7d26f11ff2e7"},"vehicle_type_id":"4","last_reported":1732979303,"current_range_meters":0,"station_id":"ce4bhb92rcd13ifvqen0","pricing_plan_id":"cebpf4jnsgd1na2vs0mg"},{"bike_id":"b2da2633-98d6-42c6-aa7f-68fbf806b027","system_id":"levelo_inurba_marseille","lat":43.31269,"lon":5.40176,"is_reserved":false,"is_disabled":false,"rental_uris":{"android":"levelo://app?vid=b2da2633-98d6-42c6-aa7f-68fbf806b027","ios":"levelo://app?vid=b2da2633-98d6-42c6-aa7f-68fbf806b027"},"vehicle_type_id":"4","last_reported":1732979303,"current_range_meters":37600,"station_id":"ce4bh092rcd13ifvqd30","pricing_plan_id":"cebpf4jnsgd1na2vs0mg"},{"bike_id":"489fc078-53ba-46cd-9b33-a7c9c289306b","system_id":"levelo_inurba_marseille","lat":43.26942,"lon":5.40246,"is_reserved":false,"is_disabled":true,"rental_uris":{"android":"levelo://app?vid=489fc078-53ba-46cd-9b33-a7c9c289306b","ios":"levelo://app?vid=489fc078-53ba-46cd-9b33-a7c9c289306b"},"vehicle_type_id":"4","last_reported":1732979303,"current_range_meters":0,"station_id":"cjm6bp8fraef2m0cb0m0","pricing_plan_id":"cebpf4jnsgd1na2vs0mg"},{"bike_id":"981f5323-76ee-4aff-abdb-308b2ece5ca8","system_id":"levelo_inurba_marseille","lat":43.33729,"lon":5.39187,"is_reserved":false,"is_disabled":false,"rental_uris":{"android":"levelo://app?vid=981f5323-76ee-4aff-abdb-308b2ece5ca8","ios":"levelo://app?vid=981f5323-76ee-4aff-abdb-308b2ece5ca8"},"vehicle_type_id":"4","last_reported":1732979303,"current_range_meters":38800,"station_id":"ce4bhr92rcd13ifvqhsg","pricing_plan_id":"cebpf4jnsgd1na2vs0mg"},{"bike_id":"8fdcb3f1-2e99-4c54-9597-3a7b1b27c0e1","system_id":"levelo_inurba_marseille","lat":43.298724,"lon":5.397384,"is_reserved":false,"is_disabled":false,"rental_uris":{"android":"levelo://app?vid=8fdcb3f1-2e99-4c54-9597-3a7b1b27c0e1","ios":"levelo://app?vid=8fdcb3f1-2e99-4c54-9597-3a7b1b27c0e1"},"vehicle_type_id":"4","last_reported":1732979303,"current_range_meters":9200,"station_id":"ce4bh0h2rcd13ifvqd50","pricing_plan_id":"cebpf4jnsgd1na2vs0mg"},{"bike_id":"16b4fe50-bbe4-4e81-a212-0ac40320e2b5","system_id":"levelo_inurba_marseille","lat":43.30916,"lon":5.40148,"is_reserved":false,"is_disabled":false,"rental_uris":{"android":"levelo://app?vid=16b4fe50-bbe4-4e81-a212-0ac40320e2b5","ios":"levelo://app?vid=16b4fe50-bbe4-4e81-a212-0ac40320e2b5"},"vehicle_type_id":"4","last_reported":1732979303,"current_range_meters":20800,"station_id":"ce4bgvp2rcd13ifvqct0","pricing_plan_id":"cebpf4jnsgd1na2vs0mg"},{"bike_id":"5b288936-29e4-43ce-b01e-372dac93d874","system_id":"levelo_inurba_marseille","lat":43.3054,"lon":5.36532,"is_reserved":false,"is_disabled":false,"rental_uris":{"android":"levelo://app?vid=5b288936-29e4-43ce-b01e-372dac93d874","ios":"levelo://app?vid=5b288936-29e4-43ce-b01e-372dac93d874"},"vehicle_type_id":"4","last_reported":1732979303,"current_range_meters":37600,"station_id":"ce4bgs12rcd13ifvqcag","pricing_plan_id":"cebpf4jnsgd1na2vs0mg"},{"bike_id":"e2b51d6b-cb0b-4fbd-ba8e-ca7faa50fcce","system_id":"levelo_inurba_marseille","lat":43.23185,"lon":5.39985,"is_reserved":false,"is_disabled":false,"rental_uris":{"android":"levelo://app?vid=e2b51d6b-cb0b-4fbd-ba8e-ca7faa50fcce","ios":"levelo://app?vid=e2b51d6b-cb0b-4fbd-ba8e-ca7faa50fcce"},"vehicle_type_id":"4","last_reported":1732979303,"current_range_meters":38800,"station_id":"ce4bhn12rcd13ifvqgqg","pricing_plan_id":"cebpf4jnsgd1na2vs0mg"},{"bike_id":"29a80c71-9648-4a26-b6c9-5f69092eaa01","system_id":"levelo_inurba_marseille","lat":43.2707,"lon":5.42279,"is_reserved":false,"is_disabled":false,"rental_uris":{"android":"levelo://app?vid=29a80c71-9648-4a26-b6c9-5f69092eaa01","ios":"levelo://app?vid=29a80c71-9648-4a26-b6c9-5f69092eaa01"},"vehicle_type_id":"4","last_reported":1732979303,"current_range_meters":39200,"station_id":"ce4bhk92rcd13ifvqgb0","pricing_plan_id":"cebpf4jnsgd1na2vs0mg"},{"bike_id":"81212ebd-b091-4bc8-914f-78d44f40f52e","system_id":"levelo_inurba_marseille","lat":43.28415,"lon":5.34998,"is_reserved":false,"is_disabled":false,"rental_uris":{"android":"levelo://app?vid=81212ebd-b091-4bc8-914f-78d44f40f52e","ios":"levelo://app?vid=81212ebd-b091-4bc8-914f-78d44f40f52e"},"vehicle_type_id":"4","last_reported":1732979303,"current_range_meters":12800,"station_id":"ce4bhbh2rcd13ifvqepg","pricing_plan_id":"cebpf4jnsgd1na2vs0mg"},{"bike_id":"6f46c294-6fb4-4027-8273-32ac43d92893","system_id":"levelo_inurba_marseille","lat":43.2953,"lon":5.38555,"is_reserved":false,"is_disabled":true,"rental_uris":{"android":"levelo://app?vid=6f46c294-6fb4-4027-8273-32ac43d92893","ios":"levelo://app?vid=6f46c294-6fb4-4027-8273-32ac43d92893"},"vehicle_type_id":"4","last_reported":1732979303,"current_range_meters":11600,"station_id":"ce4bgih2rcd13ifvqba0","pricing_plan_id":"cebpf4jnsgd1na2vs0mg"},{"bike_id":"0174841e-8011-4a7b-bd18-480101bee765","system_id":"levelo_inurba_marseille","lat":43.23959,"lon":5.36631,"is_reserved":false,"is_disabled":true,"rental_uris":{"android":"levelo://app?vid=0174841e-8011-4a7b-bd18-480101bee765","ios":"levelo://app?vid=0174841e-8011-4a7b-bd18-480101bee765"},"vehicle_type_id":"4","last_reported":1732979303,"current_range_meters":0,"station_id":"ce4bhi12rcd13ifvqfp0","pricing_plan_id":"cebpf4jnsgd1na2vs0mg"},{"bike_id":"22a9f54b-7703-4896-932f-a5372ffc42ab","system_id":"levelo_inurba_marseille","lat":43.24166,"lon":5.36399,"is_reserved":false,"is_disabled":false,"rental_uris":{"android":"levelo://app?vid=22a9f54b-7703-4896-932f-a5372ffc42ab","ios":"levelo://app?vid=22a9f54b-7703-4896-932f-a5372ffc42ab"},"vehicle_type_id":"4","last_reported":1732979303,"current_range_meters":15200,"station_id":"cpo36qri1sfpv3e86is0","pricing_plan_id":"cebpf4jnsgd1na2vs0mg"},{"bike_id":"fd405db4-6f5b-4763-b335-7a51479a2ea9","system_id":"levelo_inurba_marseille","lat":43.25587,"lon":5.38233,"is_reserved":false,"is_disabled":false,"rental_uris":{"android":"levelo://app?vid=fd405db4-6f5b-4763-b335-7a51479a2ea9","ios":"levelo://app?vid=fd405db4-6f5b-4763-b335-7a51479a2ea9"},"vehicle_type_id":"4","last_reported":1732979303,"current_range_meters":38800,"station_id":"ce4bhih2rcd13ifvqfs0","pricing_plan_id":"cebpf4jnsgd1na2vs0mg"},{"bike_id":"00b5e211-7497-40e0-9a48-4abd0dd8f0c1","system_id":"levelo_inurba_marseille","lat":43.2396,"lon":5.36644,"is_reserved":false,"is_disabled":false,"rental_uris":{"android":"levelo://app?vid=00b5e211-7497-40e0-9a48-4abd0dd8f0c1","ios":"levelo://app?vid=00b5e211-7497-40e0-9a48-4abd0dd8f0c1"},"vehicle_type_id":"4","last_reported":1732979303,"current_range_meters":39200,"station_id":"ce4bhi12rcd13ifvqfp0","pricing_plan_id":"cebpf4jnsgd1na2vs0mg"},{"bike_id":"a233b25b-869e-422b-bf5e-63d3d8ff686f","system_id":"levelo_inurba_marseille","lat":43.30923,"lon":5.40151,"is_reserved":false,"is_disabled":true,"rental_uris":{"android":"levelo://app?vid=a233b25b-869e-422b-bf5e-63d3d8ff686f","ios":"levelo://app?vid=a233b25b-869e-422b-bf5e-63d3d8ff686f"},"vehicle_type_id":"4","last_reported":1732979303,"current_range_meters":24400,"station_id":"ce4bgvp2rcd13ifvqct0","pricing_plan_id":"cebpf4jnsgd1na2vs0mg"},{"bike_id":"12ba7dd0-6a56-48af-8971-129f9405fb29","system_id":"levelo_inurba_marseille","lat":43.32485,"lon":5.36562,"is_reserved":false,"is_disabled":false,"rental_uris":{"android":"levelo://app?vid=12ba7dd0-6a56-48af-8971-129f9405fb29","ios":"levelo://app?vid=12ba7dd0-6a56-48af-8971-129f9405fb29"},"vehicle_type_id":"4","last_reported":1732979303,"current_range_meters":14800,"station_id":"ce4bhs12rcd13ifvqhvg","pricing_plan_id":"cebpf4jnsgd1na2vs0mg"},{"bike_id":"4256b520-7f6a-4419-9333-389cc8e6b7c7","system_id":"levelo_inurba_marseille","lat":43.30785,"lon":5.37639,"is_reserved":false,"is_disabled":false,"rental_uris":{"android":"levelo://app?vid=4256b520-7f6a-4419-9333-389cc8e6b7c7","ios":"levelo://app?vid=4256b520-7f6a-4419-9333-389cc8e6b7c7"},"vehicle_type_id":"4","last_reported":1732979303,"current_range_meters":38800,"station_id":"ce4bgv92rcd13ifvqcq0","pricing_plan_id":"cebpf4jnsgd1na2vs0mg"},{"bike_id":"a39f78dd-641b-42ee-9ba4-987fd4e607e8","system_id":"levelo_inurba_marseille","lat":43.2936,"lon":5.37842,"is_reserved":false,"is_disabled":false,"rental_uris":{"android":"levelo://app?vid=a39f78dd-641b-42ee-9ba4-987fd4e607e8","ios":"levelo://app?vid=a39f78dd-641b-42ee-9ba4-987fd4e607e8"},"vehicle_type_id":"4","last_reported":1732979303,"current_range_meters":39200,"station_id":"ce4bgjh2rcd13ifvqbf0","pricing_plan_id":"cebpf4jnsgd1na2vs0mg"},{"bike_id":"c53456cf-9ecd-48ab-bd70-22a06cf80d9a","system_id":"levelo_inurba_marseille","lat":43.25496,"lon":5.37649,"is_reserved":false,"is_disabled":false,"rental_uris":{"android":"levelo://app?vid=c53456cf-9ecd-48ab-bd70-22a06cf80d9a","ios":"levelo://app?vid=c53456cf-9ecd-48ab-bd70-22a06cf80d9a"},"vehicle_type_id":"4","last_reported":1732979303,"current_range_meters":39200,"station_id":"ce4bhh12rcd13ifvqff0","pricing_plan_id":"cebpf4jnsgd1na2vs0mg"},{"bike_id":"93089a48-0def-40ff-a972-2cffba8e042d","system_id":"levelo_inurba_marseille","lat":43.28373,"lon":5.38641,"is_reserved":false,"is_disabled":false,"rental_uris":{"android":"levelo://app?vid=93089a48-0def-40ff-a972-2cffba8e042d","ios":"levelo://app?vid=93089a48-0def-40ff-a972-2cffba8e042d"},"vehicle_type_id":"4","last_reported":1732979303,"current_range_meters":38800,"station_id":"ce4bh492rcd13ifvqdvg","pricing_plan_id":"cebpf4jnsgd1na2vs0mg"},{"bike_id":"c2d172e1-98e6-4a29-80b6-476b9c5f1669","system_id":"levelo_inurba_marseille","lat":43.27623,"lon":5.36125,"is_reserved":false,"is_disabled":false,"rental_uris":{"android":"levelo://app?vid=c2d172e1-98e6-4a29-80b6-476b9c5f1669","ios":"levelo://app?vid=c2d172e1-98e6-4a29-80b6-476b9c5f1669"},"vehicle_type_id":"4","last_reported":1732979303,"current_range_meters":38400,"station_id":"ce4bgj92rcd13ifvqbe0","pricing_plan_id":"cebpf4jnsgd1na2vs0mg"},{"bike_id":"1d15e990-7efe-4c24-b426-a3c7aade15e1","system_id":"levelo_inurba_marseille","lat":43.29972,"lon":5.38503,"is_reserved":false,"is_disabled":false,"rental_uris":{"android":"levelo://app?vid=1d15e990-7efe-4c24-b426-a3c7aade15e1","ios":"levelo://app?vid=1d15e990-7efe-4c24-b426-a3c7aade15e1"},"vehicle_type_id":"4","last_reported":1732979303,"current_range_meters":10800,"station_id":"ce4bgj92rcd13ifvqbd0","pricing_plan_id":"cebpf4jnsgd1na2vs0mg"},{"bike_id":"8931d9f6-bf3a-40d7-9c21-4a251c126593","system_id":"levelo_inurba_marseille","lat":43.28425,"lon":5.34996,"is_reserved":false,"is_disabled":false,"rental_uris":{"android":"levelo://app?vid=8931d9f6-bf3a-40d7-9c21-4a251c126593","ios":"levelo://app?vid=8931d9f6-bf3a-40d7-9c21-4a251c126593"},"vehicle_type_id":"4","last_reported":1732979303,"current_range_meters":32800,"station_id":"ce4bhbh2rcd13ifvqepg","pricing_plan_id":"cebpf4jnsgd1na2vs0mg"},{"bike_id":"527e9215-5e4e-41d1-879f-857f198e8537","system_id":"levelo_inurba_marseille","lat":43.28418,"lon":5.34994,"is_reserved":false,"is_disabled":false,"rental_uris":{"android":"levelo://app?vid=527e9215-5e4e-41d1-879f-857f198e8537","ios":"levelo://app?vid=527e9215-5e4e-41d1-879f-857f198e8537"},"vehicle_type_id":"4","last_reported":1732979303,"current_range_meters":7200,"station_id":"ce4bhbh2rcd13ifvqepg","pricing_plan_id":"cebpf4jnsgd1na2vs0mg"},{"bike_id":"cf9f3a3f-ec66-4a92-abcd-f016e9c0310b","system_id":"levelo_inurba_marseille","lat":43.33022,"lon":5.39039,"is_reserved":false,"is_disabled":false,"rental_uris":{"android":"levelo://app?vid=cf9f3a3f-ec66-4a92-abcd-f016e9c0310b","ios":"levelo://app?vid=cf9f3a3f-ec66-4a92-abcd-f016e9c0310b"},"vehicle_type_id":"4","last_reported":1732979303,"current_range_meters":38800,"station_id":"ce4bhr92rcd13ifvqhrg","pricing_plan_id":"cebpf4jnsgd1na2vs0mg"},{"bike_id":"1400ab2c-b582-432a-9bce-ef8234c01f57","system_id":"levelo_inurba_marseille","lat":43.298845,"lon":5.397515,"is_reserved":false,"is_disabled":false,"rental_uris":{"android":"levelo://app?vid=1400ab2c-b582-432a-9bce-ef8234c01f57","ios":"levelo://app?vid=1400ab2c-b582-432a-9bce-ef8234c01f57"},"vehicle_type_id":"4","last_reported":1732979303,"current_range_meters":34000,"station_id":"","pricing_plan_id":"cebpf4jnsgd1na2vs0mg"},{"bike_id":"f4d19859-dbfb-4982-b796-c8007145699f","system_id":"levelo_inurba_marseille","lat":43.28612,"lon":5.35108,"is_reserved":false,"is_disabled":true,"rental_uris":{"android":"levelo://app?vid=f4d19859-dbfb-4982-b796-c8007145699f","ios":"levelo://app?vid=f4d19859-dbfb-4982-b796-c8007145699f"},"vehicle_type_id":"4","last_reported":1732979303,"current_range_meters":22000,"station_id":"","pricing_plan_id":"cebpf4jnsgd1na2vs0mg"},{"bike_id":"bfb856cf-7615-4aa7-a7e4-859a62ce8248","system_id":"levelo_inurba_marseille","lat":43.33746,"lon":5.37475,"is_reserved":false,"is_disabled":false,"rental_uris":{"android":"levelo://app?vid=bfb856cf-7615-4aa7-a7e4-859a62ce8248","ios":"levelo://app?vid=bfb856cf-7615-4aa7-a7e4-859a62ce8248"},"vehicle_type_id":"4","last_reported":1732979303,"current_range_meters":16800,"station_id":"","pricing_plan_id":"cebpf4jnsgd1na2vs0mg"},{"bike_id":"fe1c6c60-0f4f-4b5c-a7ea-9f2ff8347245","system_id":"levelo_inurba_marseille","lat":43.27625,"lon":5.36122,"is_reserved":false,"is_disabled":false,"rental_uris":{"android":"levelo://app?vid=fe1c6c60-0f4f-4b5c-a7ea-9f2ff8347245","ios":"levelo://app?vid=fe1c6c60-0f4f-4b5c-a7ea-9f2ff8347245"},"vehicle_type_id":"4","last_reported":1732979303,"current_range_meters":38800,"station_id":"ce4bgj92rcd13ifvqbe0","pricing_plan_id":"cebpf4jnsgd1na2vs0mg"},{"bike_id":"4abebe2b-dec7-442c-a6a0-da33deb742de","system_id":"levelo_inurba_marseille","lat":43.3204,"lon":5.36804,"is_reserved":false,"is_disabled":false,"rental_uris":{"android":"levelo://app?vid=4abebe2b-dec7-442c-a6a0-da33deb742de","ios":"levelo://app?vid=4abebe2b-dec7-442c-a6a0-da33deb742de"},"vehicle_type_id":"4","last_reported":1732979303,"current_range_meters":36800,"station_id":"","pricing_plan_id":"cebpf4jnsgd1na2vs0mg"},{"bike_id":"e8761c76-5abe-46ec-a02e-5c1eaaf3ecfa","system_id":"levelo_inurba_marseille","lat":43.24154,"lon":5.36418,"is_reserved":false,"is_disabled":false,"rental_uris":{"android":"levelo://app?vid=e8761c76-5abe-46ec-a02e-5c1eaaf3ecfa","ios":"levelo://app?vid=e8761c76-5abe-46ec-a02e-5c1eaaf3ecfa"},"vehicle_type_id":"4","last_reported":1732979303,"current_range_meters":29600,"station_id":"cpo36qri1sfpv3e86is0","pricing_plan_id":"cebpf4jnsgd1na2vs0mg"},{"bike_id":"048a5b9e-befd-4e9e-a97c-f931a23386af","system_id":"levelo_inurba_marseille","lat":43.27616,"lon":5.36114,"is_reserved":false,"is_disabled":true,"rental_uris":{"android":"levelo://app?vid=048a5b9e-befd-4e9e-a97c-f931a23386af","ios":"levelo://app?vid=048a5b9e-befd-4e9e-a97c-f931a23386af"},"vehicle_type_id":"4","last_reported":1732979303,"current_range_meters":1200,"station_id":"ce4bgj92rcd13ifvqbe0","pricing_plan_id":"cebpf4jnsgd1na2vs0mg"},{"bike_id":"68fbfc7b-5117-4986-a643-1e26853e844b","system_id":"levelo_inurba_marseille","lat":43.30802,"lon":5.43535,"is_reserved":false,"is_disabled":false,"rental_uris":{"android":"levelo://app?vid=68fbfc7b-5117-4986-a643-1e26853e844b","ios":"levelo://app?vid=68fbfc7b-5117-4986-a643-1e26853e844b"},"vehicle_type_id":"4","last_reported":1732979303,"current_range_meters":26000,"station_id":"ce4bhph2rcd13ifvqheg","pricing_plan_id":"cebpf4jnsgd1na2vs0mg"},{"bike_id":"6a65690f-b5a8-4293-8701-fb146039dea9","system_id":"levelo_inurba_marseille","lat":43.26558,"lon":5.37286,"is_reserved":false,"is_disabled":false,"rental_uris":{"android":"levelo://app?vid=6a65690f-b5a8-4293-8701-fb146039dea9","ios":"levelo://app?vid=6a65690f-b5a8-4293-8701-fb146039dea9"},"vehicle_type_id":"4","last_reported":1732979303,"current_range_meters":13600,"station_id":"ce4bhg12rcd13ifvqf70","pricing_plan_id":"cebpf4jnsgd1na2vs0mg"},{"bike_id":"4bdc5e4a-ec59-4da4-af90-0d0e3cee73df","system_id":"levelo_inurba_marseille","lat":43.28724,"lon":5.37948,"is_reserved":false,"is_disabled":false,"rental_uris":{"android":"levelo://app?vid=4bdc5e4a-ec59-4da4-af90-0d0e3cee73df","ios":"levelo://app?vid=4bdc5e4a-ec59-4da4-af90-0d0e3cee73df"},"vehicle_type_id":"4","last_reported":1732979303,"current_range_meters":3200,"station_id":"ce4bh9p2rcd13ifvqec0","pricing_plan_id":"cebpf4jnsgd1na2vs0mg"},{"bike_id":"c63d1d32-8326-43e4-9161-07aa66247f84","system_id":"levelo_inurba_marseille","lat":43.23055,"lon":5.35501,"is_reserved":false,"is_disabled":true,"rental_uris":{"android":"levelo://app?vid=c63d1d32-8326-43e4-9161-07aa66247f84","ios":"levelo://app?vid=c63d1d32-8326-43e4-9161-07aa66247f84"},"vehicle_type_id":"4","last_reported":1732979303,"current_range_meters":0,"station_id":"cpo3342slgdg3j2ifvpg","pricing_plan_id":"cebpf4jnsgd1na2vs0mg"},{"bike_id":"7de6feba-10a2-4d0b-b1ce-424d27c7d426","system_id":"levelo_inurba_marseille","lat":43.29985,"lon":5.37169,"is_reserved":false,"is_disabled":false,"rental_uris":{"android":"levelo://app?vid=7de6feba-10a2-4d0b-b1ce-424d27c7d426","ios":"levelo://app?vid=7de6feba-10a2-4d0b-b1ce-424d27c7d426"},"vehicle_type_id":"4","last_reported":1732979303,"current_range_meters":10000,"station_id":"ce4bgr92rcd13ifvqc7g","pricing_plan_id":"cebpf4jnsgd1na2vs0mg"},{"bike_id":"e2e936dc-8655-447b-9d2b-10b1c1f5df31","system_id":"levelo_inurba_marseille","lat":43.28424,"lon":5.35003,"is_reserved":false,"is_disabled":true,"rental_uris":{"android":"levelo://app?vid=e2e936dc-8655-447b-9d2b-10b1c1f5df31","ios":"levelo://app?vid=e2e936dc-8655-447b-9d2b-10b1c1f5df31"},"vehicle_type_id":"4","last_reported":1732979303,"current_range_meters":400,"station_id":"ce4bhbh2rcd13ifvqepg","pricing_plan_id":"cebpf4jnsgd1na2vs0mg"},{"bike_id":"0bab6015-08f5-4e71-a39c-ebe1ec0d6a21","system_id":"levelo_inurba_marseille","lat":43.24165,"lon":5.36401,"is_reserved":false,"is_disabled":false,"rental_uris":{"android":"levelo://app?vid=0bab6015-08f5-4e71-a39c-ebe1ec0d6a21","ios":"levelo://app?vid=0bab6015-08f5-4e71-a39c-ebe1ec0d6a21"},"vehicle_type_id":"4","last_reported":1732979303,"current_range_meters":22000,"station_id":"cpo36qri1sfpv3e86is0","pricing_plan_id":"cebpf4jnsgd1na2vs0mg"},{"bike_id":"211f1654-c38a-4b70-a625-52e8ee2ae31d","system_id":"levelo_inurba_marseille","lat":43.29629,"lon":5.40599,"is_reserved":false,"is_disabled":false,"rental_uris":{"android":"levelo://app?vid=211f1654-c38a-4b70-a625-52e8ee2ae31d","ios":"levelo://app?vid=211f1654-c38a-4b70-a625-52e8ee2ae31d"},"vehicle_type_id":"4","last_reported":1732979303,"current_range_meters":3200,"station_id":"ce4bh0h2rcd13ifvqd60","pricing_plan_id":"cebpf4jnsgd1na2vs0mg"},{"bike_id":"b121fb9e-7640-46f0-9e18-2b4bcd1a630f","system_id":"levelo_inurba_marseille","lat":43.28745,"lon":5.3522,"is_reserved":false,"is_disabled":false,"rental_uris":{"android":"levelo://app?vid=b121fb9e-7640-46f0-9e18-2b4bcd1a630f","ios":"levelo://app?vid=b121fb9e-7640-46f0-9e18-2b4bcd1a630f"},"vehicle_type_id":"4","last_reported":1732979303,"current_range_meters":33600,"station_id":"","pricing_plan_id":"cebpf4jnsgd1na2vs0mg"},{"bike_id":"9dd1fc98-a89e-437a-b707-6eb8b3c899e8","system_id":"levelo_inurba_marseille","lat":43.29041,"lon":5.35934,"is_reserved":false,"is_disabled":true,"rental_uris":{"android":"levelo://app?vid=9dd1fc98-a89e-437a-b707-6eb8b3c899e8","ios":"levelo://app?vid=9dd1fc98-a89e-437a-b707-6eb8b3c899e8"},"vehicle_type_id":"4","last_reported":1732979303,"current_range_meters":0,"station_id":"ce4bha92rcd13ifvqeg0","pricing_plan_id":"cebpf4jnsgd1na2vs0mg"},{"bike_id":"aea6b7a8-fa3c-4842-89c6-693b08a99724","system_id":"levelo_inurba_marseille","lat":43.33752,"lon":5.37428,"is_reserved":false,"is_disabled":false,"rental_uris":{"android":"levelo://app?vid=aea6b7a8-fa3c-4842-89c6-693b08a99724","ios":"levelo://app?vid=aea6b7a8-fa3c-4842-89c6-693b08a99724"},"vehicle_type_id":"4","last_reported":1732979303,"current_range_meters":38400,"station_id":"","pricing_plan_id":"cebpf4jnsgd1na2vs0mg"},{"bike_id":"873fd052-9978-4f27-b782-8807a1f3aba0","system_id":"levelo_inurba_marseille","lat":43.29987,"lon":5.37189,"is_reserved":false,"is_disabled":false,"rental_uris":{"android":"levelo://app?vid=873fd052-9978-4f27-b782-8807a1f3aba0","ios":"levelo://app?vid=873fd052-9978-4f27-b782-8807a1f3aba0"},"vehicle_type_id":"4","last_reported":1732979303,"current_range_meters":30000,"station_id":"ce4bgr92rcd13ifvqc7g","pricing_plan_id":"cebpf4jnsgd1na2vs0mg"},{"bike_id":"b9904971-9405-40a1-af17-5fcd330fe4ea","system_id":"levelo_inurba_marseille","lat":43.30596,"lon":5.37235,"is_reserved":false,"is_disabled":false,"rental_uris":{"android":"levelo://app?vid=b9904971-9405-40a1-af17-5fcd330fe4ea","ios":"levelo://app?vid=b9904971-9405-40a1-af17-5fcd330fe4ea"},"vehicle_type_id":"4","last_reported":1732979303,"current_range_meters":37600,"station_id":"ce4bgqh2rcd13ifvqc4g","pricing_plan_id":"cebpf4jnsgd1na2vs0mg"},{"bike_id":"a5909545-3e09-4859-9fda-9ffe4e6e4883","system_id":"levelo_inurba_marseille","lat":43.23066,"lon":5.35492,"is_reserved":false,"is_disabled":false,"rental_uris":{"android":"levelo://app?vid=a5909545-3e09-4859-9fda-9ffe4e6e4883","ios":"levelo://app?vid=a5909545-3e09-4859-9fda-9ffe4e6e4883"},"vehicle_type_id":"4","last_reported":1732979303,"current_range_meters":10800,"station_id":"cpo3342slgdg3j2ifvpg","pricing_plan_id":"cebpf4jnsgd1na2vs0mg"},{"bike_id":"01dd0f6c-5d7c-4e63-a161-668f65657b81","system_id":"levelo_inurba_marseille","lat":43.2293,"lon":5.35375,"is_reserved":false,"is_disabled":false,"rental_uris":{"android":"levelo://app?vid=01dd0f6c-5d7c-4e63-a161-668f65657b81","ios":"levelo://app?vid=01dd0f6c-5d7c-4e63-a161-668f65657b81"},"vehicle_type_id":"4","last_reported":1732979303,"current_range_meters":39200,"station_id":"cpo3532slgdg3j2ikp40","pricing_plan_id":"cebpf4jnsgd1na2vs0mg"},{"bike_id":"73936631-eb28-4f77-8218-ccffc3bfc648","system_id":"levelo_inurba_marseille","lat":43.3361,"lon":5.41038,"is_reserved":false,"is_disabled":false,"rental_uris":{"android":"levelo://app?vid=73936631-eb28-4f77-8218-ccffc3bfc648","ios":"levelo://app?vid=73936631-eb28-4f77-8218-ccffc3bfc648"},"vehicle_type_id":"4","last_reported":1732979303,"current_range_meters":19600,"station_id":"ce4bhqh2rcd13ifvqhmg","pricing_plan_id":"cebpf4jnsgd1na2vs0mg"},{"bike_id":"5bc9d9cf-df24-4e03-a64c-e5379f67945a","system_id":"levelo_inurba_marseille","lat":43.27505,"lon":5.42446,"is_reserved":false,"is_disabled":false,"rental_uris":{"android":"levelo://app?vid=5bc9d9cf-df24-4e03-a64c-e5379f67945a","ios":"levelo://app?vid=5bc9d9cf-df24-4e03-a64c-e5379f67945a"},"vehicle_type_id":"4","last_reported":1732979303,"current_range_meters":38800,"station_id":"ce4bhn92rcd13ifvqgrg","pricing_plan_id":"cebpf4jnsgd1na2vs0mg"},{"bike_id":"26574650-f3c5-4496-af68-033e727c7c94","system_id":"levelo_inurba_marseille","lat":43.33023,"lon":5.39049,"is_reserved":false,"is_disabled":false,"rental_uris":{"android":"levelo://app?vid=26574650-f3c5-4496-af68-033e727c7c94","ios":"levelo://app?vid=26574650-f3c5-4496-af68-033e727c7c94"},"vehicle_type_id":"4","last_reported":1732979303,"current_range_meters":25200,"station_id":"ce4bhr92rcd13ifvqhrg","pricing_plan_id":"cebpf4jnsgd1na2vs0mg"},{"bike_id":"ee944a6a-a8d8-4e48-a06b-ab02bcbf57e2","system_id":"levelo_inurba_marseille","lat":43.30894,"lon":5.37213,"is_reserved":false,"is_disabled":false,"rental_uris":{"android":"levelo://app?vid=ee944a6a-a8d8-4e48-a06b-ab02bcbf57e2","ios":"levelo://app?vid=ee944a6a-a8d8-4e48-a06b-ab02bcbf57e2"},"vehicle_type_id":"4","last_reported":1732979303,"current_range_meters":20400,"station_id":"ce4bguh2rcd13ifvqckg","pricing_plan_id":"cebpf4jnsgd1na2vs0mg"},{"bike_id":"e5951ee3-4a5a-4ebb-b469-096c5188dfa3","system_id":"levelo_inurba_marseille","lat":43.23205,"lon":5.35563,"is_reserved":false,"is_disabled":false,"rental_uris":{"android":"levelo://app?vid=e5951ee3-4a5a-4ebb-b469-096c5188dfa3","ios":"levelo://app?vid=e5951ee3-4a5a-4ebb-b469-096c5188dfa3"},"vehicle_type_id":"4","last_reported":1732979303,"current_range_meters":19200,"station_id":"ce4bhu92rcd13ifvqi70","pricing_plan_id":"cebpf4jnsgd1na2vs0mg"},{"bike_id":"f9a63393-5401-4f98-ae5a-dfbb8291ab6d","system_id":"levelo_inurba_marseille","lat":43.3004,"lon":5.37551,"is_reserved":false,"is_disabled":true,"rental_uris":{"android":"levelo://app?vid=f9a63393-5401-4f98-ae5a-dfbb8291ab6d","ios":"levelo://app?vid=f9a63393-5401-4f98-ae5a-dfbb8291ab6d"},"vehicle_type_id":"4","last_reported":1732979303,"current_range_meters":0,"station_id":"","pricing_plan_id":"cebpf4jnsgd1na2vs0mg"},{"bike_id":"d2300a67-e59d-4c6d-84e8-89c1777cddcc","system_id":"levelo_inurba_marseille","lat":43.32001,"lon":5.38163,"is_reserved":false,"is_disabled":false,"rental_uris":{"android":"levelo://app?vid=d2300a67-e59d-4c6d-84e8-89c1777cddcc","ios":"levelo://app?vid=d2300a67-e59d-4c6d-84e8-89c1777cddcc"},"vehicle_type_id":"4","last_reported":1732979303,"current_range_meters":38800,"station_id":"ce4bhr12rcd13ifvqhpg","pricing_plan_id":"cebpf4jnsgd1na2vs0mg"},{"bike_id":"b38c09bb-a215-4e8b-b764-0091f548550c","system_id":"levelo_inurba_marseille","lat":43.22931,"lon":5.35394,"is_reserved":false,"is_disabled":false,"rental_uris":{"android":"levelo://app?vid=b38c09bb-a215-4e8b-b764-0091f548550c","ios":"levelo://app?vid=b38c09bb-a215-4e8b-b764-0091f548550c"},"vehicle_type_id":"4","last_reported":1732979303,"current_range_meters":39200,"station_id":"cpo3532slgdg3j2ikp40","pricing_plan_id":"cebpf4jnsgd1na2vs0mg"},{"bike_id":"fb05c01d-f382-4155-a013-26f1d1f5742f","system_id":"levelo_inurba_marseille","lat":43.24387,"lon":5.37059,"is_reserved":false,"is_disabled":true,"rental_uris":{"android":"levelo://app?vid=fb05c01d-f382-4155-a013-26f1d1f5742f","ios":"levelo://app?vid=fb05c01d-f382-4155-a013-26f1d1f5742f"},"vehicle_type_id":"4","last_reported":1732979303,"current_range_meters":800,"station_id":"ce4bhhh2rcd13ifvqfk0","pricing_plan_id":"cebpf4jnsgd1na2vs0mg"},{"bike_id":"12eb8744-d6e3-4cc2-a8a3-67560abc1e26","system_id":"levelo_inurba_marseille","lat":43.22927,"lon":5.3538,"is_reserved":false,"is_disabled":false,"rental_uris":{"android":"levelo://app?vid=12eb8744-d6e3-4cc2-a8a3-67560abc1e26","ios":"levelo://app?vid=12eb8744-d6e3-4cc2-a8a3-67560abc1e26"},"vehicle_type_id":"4","last_reported":1732979303,"current_range_meters":16800,"station_id":"cpo3532slgdg3j2ikp40","pricing_plan_id":"cebpf4jnsgd1na2vs0mg"},{"bike_id":"209edce5-94bd-42b7-894c-233f806592a5","system_id":"levelo_inurba_marseille","lat":43.323611,"lon":5.367552,"is_reserved":false,"is_disabled":false,"rental_uris":{"android":"levelo://app?vid=209edce5-94bd-42b7-894c-233f806592a5","ios":"levelo://app?vid=209edce5-94bd-42b7-894c-233f806592a5"},"vehicle_type_id":"4","last_reported":1732979303,"current_range_meters":28000,"station_id":"ce4bhsh2rcd13ifvqi2g","pricing_plan_id":"cebpf4jnsgd1na2vs0mg"},{"bike_id":"ea461fa6-489e-4de7-89c7-2f448445227c","system_id":"levelo_inurba_marseille","lat":43.293,"lon":5.3719,"is_reserved":false,"is_disabled":true,"rental_uris":{"android":"levelo://app?vid=ea461fa6-489e-4de7-89c7-2f448445227c","ios":"levelo://app?vid=ea461fa6-489e-4de7-89c7-2f448445227c"},"vehicle_type_id":"4","last_reported":1732979303,"current_range_meters":38800,"station_id":"ce4bgh92rcd13ifvqb40","pricing_plan_id":"cebpf4jnsgd1na2vs0mg"},{"bike_id":"b0bda3a0-8d9d-4bd3-a5b8-75ccdf39fdf3","system_id":"levelo_inurba_marseille","lat":43.29443,"lon":5.39757,"is_reserved":false,"is_disabled":true,"rental_uris":{"android":"levelo://app?vid=b0bda3a0-8d9d-4bd3-a5b8-75ccdf39fdf3","ios":"levelo://app?vid=b0bda3a0-8d9d-4bd3-a5b8-75ccdf39fdf3"},"vehicle_type_id":"4","last_reported":1732979303,"current_range_meters":29600,"station_id":"ce4bh3h2rcd13ifvqdo0","pricing_plan_id":"cebpf4jnsgd1na2vs0mg"},{"bike_id":"04791269-9bad-451a-a252-9b63a8db9660","system_id":"levelo_inurba_marseille","lat":43.28033,"lon":5.36947,"is_reserved":false,"is_disabled":false,"rental_uris":{"android":"levelo://app?vid=04791269-9bad-451a-a252-9b63a8db9660","ios":"levelo://app?vid=04791269-9bad-451a-a252-9b63a8db9660"},"vehicle_type_id":"4","last_reported":1732979303,"current_range_meters":7200,"station_id":"ce4bha12rcd13ifvqef0","pricing_plan_id":"cebpf4jnsgd1na2vs0mg"},{"bike_id":"efbc4d20-bdec-45eb-8f74-c8ad3b7ba3bb","system_id":"levelo_inurba_marseille","lat":43.23063,"lon":5.35502,"is_reserved":false,"is_disabled":false,"rental_uris":{"android":"levelo://app?vid=efbc4d20-bdec-45eb-8f74-c8ad3b7ba3bb","ios":"levelo://app?vid=efbc4d20-bdec-45eb-8f74-c8ad3b7ba3bb"},"vehicle_type_id":"4","last_reported":1732979303,"current_range_meters":28800,"station_id":"cpo3342slgdg3j2ifvpg","pricing_plan_id":"cebpf4jnsgd1na2vs0mg"},{"bike_id":"2f912621-5ca1-46ff-9674-4fff9f98c56b","system_id":"levelo_inurba_marseille","lat":43.29911,"lon":5.37473,"is_reserved":false,"is_disabled":false,"rental_uris":{"android":"levelo://app?vid=2f912621-5ca1-46ff-9674-4fff9f98c56b","ios":"levelo://app?vid=2f912621-5ca1-46ff-9674-4fff9f98c56b"},"vehicle_type_id":"4","last_reported":1732979303,"current_range_meters":18000,"station_id":"ce4bgjh2rcd13ifvqbg0","pricing_plan_id":"cebpf4jnsgd1na2vs0mg"},{"bike_id":"9e9de009-497d-4c99-9478-2ab3b3c53f97","system_id":"levelo_inurba_marseille","lat":43.30269,"lon":5.37702,"is_reserved":false,"is_disabled":false,"rental_uris":{"android":"levelo://app?vid=9e9de009-497d-4c99-9478-2ab3b3c53f97","ios":"levelo://app?vid=9e9de009-497d-4c99-9478-2ab3b3c53f97"},"vehicle_type_id":"4","last_reported":1732979303,"current_range_meters":32000,"station_id":"ce4bguh2rcd13ifvqcj0","pricing_plan_id":"cebpf4jnsgd1na2vs0mg"},{"bike_id":"ffee92d3-4119-470f-811e-5a167fe07917","system_id":"levelo_inurba_marseille","lat":43.33024,"lon":5.39039,"is_reserved":false,"is_disabled":false,"rental_uris":{"android":"levelo://app?vid=ffee92d3-4119-470f-811e-5a167fe07917","ios":"levelo://app?vid=ffee92d3-4119-470f-811e-5a167fe07917"},"vehicle_type_id":"4","last_reported":1732979303,"current_range_meters":39200,"station_id":"ce4bhr92rcd13ifvqhrg","pricing_plan_id":"cebpf4jnsgd1na2vs0mg"},{"bike_id":"b075e94a-8442-4fee-981a-8a052399d933","system_id":"levelo_inurba_marseille","lat":43.30568,"lon":5.36528,"is_reserved":false,"is_disabled":false,"rental_uris":{"android":"levelo://app?vid=b075e94a-8442-4fee-981a-8a052399d933","ios":"levelo://app?vid=b075e94a-8442-4fee-981a-8a052399d933"},"vehicle_type_id":"4","last_reported":1732979303,"current_range_meters":28800,"station_id":"ce4bgs12rcd13ifvqcag","pricing_plan_id":"cebpf4jnsgd1na2vs0mg"},{"bike_id":"8d00995a-ba41-43f3-9823-01312bda0f56","system_id":"levelo_inurba_marseille","lat":43.24547,"lon":5.39525,"is_reserved":false,"is_disabled":false,"rental_uris":{"android":"levelo://app?vid=8d00995a-ba41-43f3-9823-01312bda0f56","ios":"levelo://app?vid=8d00995a-ba41-43f3-9823-01312bda0f56"},"vehicle_type_id":"4","last_reported":1732979303,"current_range_meters":3600,"station_id":"ce4bhlp2rcd13ifvqgjg","pricing_plan_id":"cebpf4jnsgd1na2vs0mg"},{"bike_id":"38798db8-5bd5-4792-b41b-6f809d1b1c45","system_id":"levelo_inurba_marseille","lat":43.31964,"lon":5.38152,"is_reserved":false,"is_disabled":false,"rental_uris":{"android":"levelo://app?vid=38798db8-5bd5-4792-b41b-6f809d1b1c45","ios":"levelo://app?vid=38798db8-5bd5-4792-b41b-6f809d1b1c45"},"vehicle_type_id":"4","last_reported":1732979303,"current_range_meters":18000,"station_id":"ce4bhr12rcd13ifvqhpg","pricing_plan_id":"cebpf4jnsgd1na2vs0mg"},{"bike_id":"375f3ff8-f817-4dea-ba6a-e7f3d0cf2b56","system_id":"levelo_inurba_marseille","lat":43.28035,"lon":5.36967,"is_reserved":false,"is_disabled":false,"rental_uris":{"android":"levelo://app?vid=375f3ff8-f817-4dea-ba6a-e7f3d0cf2b56","ios":"levelo://app?vid=375f3ff8-f817-4dea-ba6a-e7f3d0cf2b56"},"vehicle_type_id":"4","last_reported":1732979303,"current_range_meters":39200,"station_id":"ce4bha12rcd13ifvqef0","pricing_plan_id":"cebpf4jnsgd1na2vs0mg"},{"bike_id":"af575885-a07d-4ca0-80d9-b5f25447ce4c","system_id":"levelo_inurba_marseille","lat":43.30141,"lon":5.37428,"is_reserved":false,"is_disabled":false,"rental_uris":{"android":"levelo://app?vid=af575885-a07d-4ca0-80d9-b5f25447ce4c","ios":"levelo://app?vid=af575885-a07d-4ca0-80d9-b5f25447ce4c"},"vehicle_type_id":"4","last_reported":1732979303,"current_range_meters":27600,"station_id":"ce4bgs92rcd13ifvqcc0","pricing_plan_id":"cebpf4jnsgd1na2vs0mg"},{"bike_id":"a7917277-2e3d-4070-a6e2-aff59e308f23","system_id":"levelo_inurba_marseille","lat":43.29039,"lon":5.39964,"is_reserved":false,"is_disabled":false,"rental_uris":{"android":"levelo://app?vid=a7917277-2e3d-4070-a6e2-aff59e308f23","ios":"levelo://app?vid=a7917277-2e3d-4070-a6e2-aff59e308f23"},"vehicle_type_id":"4","last_reported":1732979303,"current_range_meters":1600,"station_id":"ce4bh392rcd13ifvqdm0","pricing_plan_id":"cebpf4jnsgd1na2vs0mg"},{"bike_id":"ed151763-9b18-498c-894b-855dfd42d28d","system_id":"levelo_inurba_marseille","lat":43.26032,"lon":5.37552,"is_reserved":false,"is_disabled":true,"rental_uris":{"android":"levelo://app?vid=ed151763-9b18-498c-894b-855dfd42d28d","ios":"levelo://app?vid=ed151763-9b18-498c-894b-855dfd42d28d"},"vehicle_type_id":"4","last_reported":1732979303,"current_range_meters":400,"station_id":"ce4bhgh2rcd13ifvqfa0","pricing_plan_id":"cebpf4jnsgd1na2vs0mg"},{"bike_id":"62edf88c-6b39-4bd2-b87e-e81d7482be78","system_id":"levelo_inurba_marseille","lat":43.29983,"lon":5.3719,"is_reserved":false,"is_disabled":false,"rental_uris":{"android":"levelo://app?vid=62edf88c-6b39-4bd2-b87e-e81d7482be78","ios":"levelo://app?vid=62edf88c-6b39-4bd2-b87e-e81d7482be78"},"vehicle_type_id":"4","last_reported":1732979303,"current_range_meters":38800,"station_id":"ce4bgr92rcd13ifvqc7g","pricing_plan_id":"cebpf4jnsgd1na2vs0mg"},{"bike_id":"8b7bc44b-c481-433f-b397-5cd095f261fd","system_id":"levelo_inurba_marseille","lat":43.23194,"lon":5.35558,"is_reserved":false,"is_disabled":false,"rental_uris":{"android":"levelo://app?vid=8b7bc44b-c481-433f-b397-5cd095f261fd","ios":"levelo://app?vid=8b7bc44b-c481-433f-b397-5cd095f261fd"},"vehicle_type_id":"4","last_reported":1732979303,"current_range_meters":16800,"station_id":"ce4bhu92rcd13ifvqi70","pricing_plan_id":"cebpf4jnsgd1na2vs0mg"},{"bike_id":"96b27800-f11c-44a0-a1c4-be400e11057c","system_id":"levelo_inurba_marseille","lat":43.3093,"lon":5.40158,"is_reserved":false,"is_disabled":true,"rental_uris":{"android":"levelo://app?vid=96b27800-f11c-44a0-a1c4-be400e11057c","ios":"levelo://app?vid=96b27800-f11c-44a0-a1c4-be400e11057c"},"vehicle_type_id":"4","last_reported":1732979303,"current_range_meters":0,"station_id":"ce4bgvp2rcd13ifvqct0","pricing_plan_id":"cebpf4jnsgd1na2vs0mg"},{"bike_id":"775909b0-04bc-42f2-a070-af428d2cf418","system_id":"levelo_inurba_marseille","lat":43.3248,"lon":5.36575,"is_reserved":false,"is_disabled":false,"rental_uris":{"android":"levelo://app?vid=775909b0-04bc-42f2-a070-af428d2cf418","ios":"levelo://app?vid=775909b0-04bc-42f2-a070-af428d2cf418"},"vehicle_type_id":"4","last_reported":1732979303,"current_range_meters":24000,"station_id":"ce4bhs12rcd13ifvqhvg","pricing_plan_id":"cebpf4jnsgd1na2vs0mg"},{"bike_id":"5bc2bfb0-d071-499b-8eb9-afa68393fbf3","system_id":"levelo_inurba_marseille","lat":43.25087,"lon":5.39523,"is_reserved":false,"is_disabled":false,"rental_uris":{"android":"levelo://app?vid=5bc2bfb0-d071-499b-8eb9-afa68393fbf3","ios":"levelo://app?vid=5bc2bfb0-d071-499b-8eb9-afa68393fbf3"},"vehicle_type_id":"4","last_reported":1732979303,"current_range_meters":28800,"station_id":"ce4bhm12rcd13ifvqgkg","pricing_plan_id":"cebpf4jnsgd1na2vs0mg"},{"bike_id":"97a60f06-1c21-4a79-931e-b0b1a74bf158","system_id":"levelo_inurba_marseille","lat":43.26578,"lon":5.3902,"is_reserved":false,"is_disabled":false,"rental_uris":{"android":"levelo://app?vid=97a60f06-1c21-4a79-931e-b0b1a74bf158","ios":"levelo://app?vid=97a60f06-1c21-4a79-931e-b0b1a74bf158"},"vehicle_type_id":"4","last_reported":1732979303,"current_range_meters":4800,"station_id":"ce4bhe12rcd13ifvqf30","pricing_plan_id":"cebpf4jnsgd1na2vs0mg"},{"bike_id":"43746d86-8a13-4845-9faf-ae69b548d714","system_id":"levelo_inurba_marseille","lat":43.29459,"lon":5.37917,"is_reserved":false,"is_disabled":true,"rental_uris":{"android":"levelo://app?vid=43746d86-8a13-4845-9faf-ae69b548d714","ios":"levelo://app?vid=43746d86-8a13-4845-9faf-ae69b548d714"},"vehicle_type_id":"4","last_reported":1732979303,"current_range_meters":0,"station_id":"","pricing_plan_id":"cebpf4jnsgd1na2vs0mg"},{"bike_id":"b99d912f-5dc0-4792-8912-e0c60fda2b57","system_id":"levelo_inurba_marseille","lat":43.23055,"lon":5.35496,"is_reserved":false,"is_disabled":false,"rental_uris":{"android":"levelo://app?vid=b99d912f-5dc0-4792-8912-e0c60fda2b57","ios":"levelo://app?vid=b99d912f-5dc0-4792-8912-e0c60fda2b57"},"vehicle_type_id":"4","last_reported":1732979303,"current_range_meters":27200,"station_id":"cpo3342slgdg3j2ifvpg","pricing_plan_id":"cebpf4jnsgd1na2vs0mg"},{"bike_id":"240cdfd7-95f5-485b-88d0-677dc749db87","system_id":"levelo_inurba_marseille","lat":43.28412,"lon":5.34988,"is_reserved":false,"is_disabled":false,"rental_uris":{"android":"levelo://app?vid=240cdfd7-95f5-485b-88d0-677dc749db87","ios":"levelo://app?vid=240cdfd7-95f5-485b-88d0-677dc749db87"},"vehicle_type_id":"4","last_reported":1732979303,"current_range_meters":32000,"station_id":"ce4bhbh2rcd13ifvqepg","pricing_plan_id":"cebpf4jnsgd1na2vs0mg"},{"bike_id":"0ee73595-b035-4e98-87ee-9c9f0b577ff8","system_id":"levelo_inurba_marseille","lat":43.29531,"lon":5.3855,"is_reserved":false,"is_disabled":false,"rental_uris":{"android":"levelo://app?vid=0ee73595-b035-4e98-87ee-9c9f0b577ff8","ios":"levelo://app?vid=0ee73595-b035-4e98-87ee-9c9f0b577ff8"},"vehicle_type_id":"4","last_reported":1732979303,"current_range_meters":21600,"station_id":"ce4bgih2rcd13ifvqba0","pricing_plan_id":"cebpf4jnsgd1na2vs0mg"},{"bike_id":"6a6d2bce-2322-4739-920d-d863ed9f7029","system_id":"levelo_inurba_marseille","lat":43.24662,"lon":5.3816,"is_reserved":false,"is_disabled":true,"rental_uris":{"android":"levelo://app?vid=6a6d2bce-2322-4739-920d-d863ed9f7029","ios":"levelo://app?vid=6a6d2bce-2322-4739-920d-d863ed9f7029"},"vehicle_type_id":"4","last_reported":1732979303,"current_range_meters":0,"station_id":"ce4bhih2rcd13ifvqfr0","pricing_plan_id":"cebpf4jnsgd1na2vs0mg"},{"bike_id":"2e8c7541-3b0e-41b2-b0ea-13f1be73e806","system_id":"levelo_inurba_marseille","lat":43.30304,"lon":5.39212,"is_reserved":false,"is_disabled":false,"rental_uris":{"android":"levelo://app?vid=2e8c7541-3b0e-41b2-b0ea-13f1be73e806","ios":"levelo://app?vid=2e8c7541-3b0e-41b2-b0ea-13f1be73e806"},"vehicle_type_id":"4","last_reported":1732979303,"current_range_meters":8000,"station_id":"ce4bgkh2rcd13ifvqbk0","pricing_plan_id":"cebpf4jnsgd1na2vs0mg"},{"bike_id":"5b902be2-8ab9-4a98-9a9d-286fda393859","system_id":"levelo_inurba_marseille","lat":43.260264,"lon":5.3755,"is_reserved":false,"is_disabled":false,"rental_uris":{"android":"levelo://app?vid=5b902be2-8ab9-4a98-9a9d-286fda393859","ios":"levelo://app?vid=5b902be2-8ab9-4a98-9a9d-286fda393859"},"vehicle_type_id":"4","last_reported":1732979303,"current_range_meters":30400,"station_id":"ce4bhgh2rcd13ifvqfa0","pricing_plan_id":"cebpf4jnsgd1na2vs0mg"},{"bike_id":"efe32a30-d075-42b3-88a6-e2a1a28f2121","system_id":"levelo_inurba_marseille","lat":43.281248,"lon":5.36893,"is_reserved":false,"is_disabled":false,"rental_uris":{"android":"levelo://app?vid=efe32a30-d075-42b3-88a6-e2a1a28f2121","ios":"levelo://app?vid=efe32a30-d075-42b3-88a6-e2a1a28f2121"},"vehicle_type_id":"4","last_reported":1732979303,"current_range_meters":20400,"station_id":"ce4bha12rcd13ifvqef0","pricing_plan_id":"cebpf4jnsgd1na2vs0mg"},{"bike_id":"e6b1d409-bf50-4795-bc44-baaa463ceace","system_id":"levelo_inurba_marseille","lat":43.2851,"lon":5.36879,"is_reserved":false,"is_disabled":false,"rental_uris":{"android":"levelo://app?vid=e6b1d409-bf50-4795-bc44-baaa463ceace","ios":"levelo://app?vid=e6b1d409-bf50-4795-bc44-baaa463ceace"},"vehicle_type_id":"4","last_reported":1732979303,"current_range_meters":24000,"station_id":"ce4bhap2rcd13ifvqek0","pricing_plan_id":"cebpf4jnsgd1na2vs0mg"},{"bike_id":"9e2dae0c-4997-4761-9c82-eeabee0ca3bb","system_id":"levelo_inurba_marseille","lat":43.28153,"lon":5.42645,"is_reserved":false,"is_disabled":false,"rental_uris":{"android":"levelo://app?vid=9e2dae0c-4997-4761-9c82-eeabee0ca3bb","ios":"levelo://app?vid=9e2dae0c-4997-4761-9c82-eeabee0ca3bb"},"vehicle_type_id":"4","last_reported":1732979303,"current_range_meters":30000,"station_id":"ce4bhnh2rcd13ifvqgug","pricing_plan_id":"cebpf4jnsgd1na2vs0mg"},{"bike_id":"15e24c31-4292-4084-bcd3-e24f0a31685e","system_id":"levelo_inurba_marseille","lat":43.28436,"lon":5.35005,"is_reserved":false,"is_disabled":true,"rental_uris":{"android":"levelo://app?vid=15e24c31-4292-4084-bcd3-e24f0a31685e","ios":"levelo://app?vid=15e24c31-4292-4084-bcd3-e24f0a31685e"},"vehicle_type_id":"4","last_reported":1732979303,"current_range_meters":34800,"station_id":"ce4bhbh2rcd13ifvqepg","pricing_plan_id":"cebpf4jnsgd1na2vs0mg"},{"bike_id":"b3d12ac5-e065-4b77-83d8-6cd36d3a39d9","system_id":"levelo_inurba_marseille","lat":43.33758,"lon":5.37451,"is_reserved":false,"is_disabled":false,"rental_uris":{"android":"levelo://app?vid=b3d12ac5-e065-4b77-83d8-6cd36d3a39d9","ios":"levelo://app?vid=b3d12ac5-e065-4b77-83d8-6cd36d3a39d9"},"vehicle_type_id":"4","last_reported":1732979303,"current_range_meters":12400,"station_id":"","pricing_plan_id":"cebpf4jnsgd1na2vs0mg"},{"bike_id":"c67affd0-758a-47c8-bb19-f58fff7a7b97","system_id":"levelo_inurba_marseille","lat":43.33021,"lon":5.39049,"is_reserved":false,"is_disabled":false,"rental_uris":{"android":"levelo://app?vid=c67affd0-758a-47c8-bb19-f58fff7a7b97","ios":"levelo://app?vid=c67affd0-758a-47c8-bb19-f58fff7a7b97"},"vehicle_type_id":"4","last_reported":1732979303,"current_range_meters":38800,"station_id":"ce4bhr92rcd13ifvqhrg","pricing_plan_id":"cebpf4jnsgd1na2vs0mg"},{"bike_id":"ed2e18cb-6b73-482a-997d-872d2e2185a6","system_id":"levelo_inurba_marseille","lat":43.22931,"lon":5.35372,"is_reserved":false,"is_disabled":false,"rental_uris":{"android":"levelo://app?vid=ed2e18cb-6b73-482a-997d-872d2e2185a6","ios":"levelo://app?vid=ed2e18cb-6b73-482a-997d-872d2e2185a6"},"vehicle_type_id":"4","last_reported":1732979303,"current_range_meters":39200,"station_id":"cpo3532slgdg3j2ikp40","pricing_plan_id":"cebpf4jnsgd1na2vs0mg"},{"bike_id":"247dc039-c9ef-403e-a9c0-a15bdcc92a60","system_id":"levelo_inurba_marseille","lat":43.27615,"lon":5.36122,"is_reserved":false,"is_disabled":false,"rental_uris":{"android":"levelo://app?vid=247dc039-c9ef-403e-a9c0-a15bdcc92a60","ios":"levelo://app?vid=247dc039-c9ef-403e-a9c0-a15bdcc92a60"},"vehicle_type_id":"4","last_reported":1732979303,"current_range_meters":32400,"station_id":"ce4bgj92rcd13ifvqbe0","pricing_plan_id":"cebpf4jnsgd1na2vs0mg"},{"bike_id":"455f9f41-4306-493e-b7fb-102f81ad0243","system_id":"levelo_inurba_marseille","lat":43.30538,"lon":5.36543,"is_reserved":false,"is_disabled":true,"rental_uris":{"android":"levelo://app?vid=455f9f41-4306-493e-b7fb-102f81ad0243","ios":"levelo://app?vid=455f9f41-4306-493e-b7fb-102f81ad0243"},"vehicle_type_id":"4","last_reported":1732979303,"current_range_meters":400,"station_id":"ce4bgs12rcd13ifvqcag","pricing_plan_id":"cebpf4jnsgd1na2vs0mg"},{"bike_id":"6b08f529-4bec-4ab1-8e04-44780ae9d79f","system_id":"levelo_inurba_marseille","lat":43.29371,"lon":5.37848,"is_reserved":false,"is_disabled":false,"rental_uris":{"android":"levelo://app?vid=6b08f529-4bec-4ab1-8e04-44780ae9d79f","ios":"levelo://app?vid=6b08f529-4bec-4ab1-8e04-44780ae9d79f"},"vehicle_type_id":"4","last_reported":1732979303,"current_range_meters":8400,"station_id":"ce4bgjh2rcd13ifvqbf0","pricing_plan_id":"cebpf4jnsgd1na2vs0mg"},{"bike_id":"fc4d15f5-6256-45a3-90d6-77bb4c676955","system_id":"levelo_inurba_marseille","lat":43.296284,"lon":5.377877,"is_reserved":false,"is_disabled":true,"rental_uris":{"android":"levelo://app?vid=fc4d15f5-6256-45a3-90d6-77bb4c676955","ios":"levelo://app?vid=fc4d15f5-6256-45a3-90d6-77bb4c676955"},"vehicle_type_id":"4","last_reported":1732979303,"current_range_meters":24400,"station_id":"","pricing_plan_id":"cebpf4jnsgd1na2vs0mg"},{"bike_id":"6e675a0e-72ec-4234-9e1a-833ddccf46a2","system_id":"levelo_inurba_marseille","lat":43.25582,"lon":5.38229,"is_reserved":false,"is_disabled":false,"rental_uris":{"android":"levelo://app?vid=6e675a0e-72ec-4234-9e1a-833ddccf46a2","ios":"levelo://app?vid=6e675a0e-72ec-4234-9e1a-833ddccf46a2"},"vehicle_type_id":"4","last_reported":1732979303,"current_range_meters":35600,"station_id":"ce4bhih2rcd13ifvqfs0","pricing_plan_id":"cebpf4jnsgd1na2vs0mg"},{"bike_id":"a16afe75-0fd4-4a69-b96a-bb6ed635780c","system_id":"levelo_inurba_marseille","lat":43.31124,"lon":5.37773,"is_reserved":false,"is_disabled":true,"rental_uris":{"android":"levelo://app?vid=a16afe75-0fd4-4a69-b96a-bb6ed635780c","ios":"levelo://app?vid=a16afe75-0fd4-4a69-b96a-bb6ed635780c"},"vehicle_type_id":"4","last_reported":1732979303,"current_range_meters":20800,"station_id":"ce4bgt92rcd13ifvqcg0","pricing_plan_id":"cebpf4jnsgd1na2vs0mg"},{"bike_id":"811497db-5142-4475-91a0-a716d80c82d3","system_id":"levelo_inurba_marseille","lat":43.30463,"lon":5.37909,"is_reserved":false,"is_disabled":false,"rental_uris":{"android":"levelo://app?vid=811497db-5142-4475-91a0-a716d80c82d3","ios":"levelo://app?vid=811497db-5142-4475-91a0-a716d80c82d3"},"vehicle_type_id":"4","last_reported":1732979303,"current_range_meters":16800,"station_id":"ce4bgup2rcd13ifvqcn0","pricing_plan_id":"cebpf4jnsgd1na2vs0mg"},{"bike_id":"da719756-3742-4209-8d60-b3804f08c501","system_id":"levelo_inurba_marseille","lat":43.29807,"lon":5.37996,"is_reserved":false,"is_disabled":false,"rental_uris":{"android":"levelo://app?vid=da719756-3742-4209-8d60-b3804f08c501","ios":"levelo://app?vid=da719756-3742-4209-8d60-b3804f08c501"},"vehicle_type_id":"4","last_reported":1732979303,"current_range_meters":27200,"station_id":"","pricing_plan_id":"cebpf4jnsgd1na2vs0mg"},{"bike_id":"5547a441-9653-482c-905c-97a54076438b","system_id":"levelo_inurba_marseille","lat":43.32367,"lon":5.36768,"is_reserved":false,"is_disabled":false,"rental_uris":{"android":"levelo://app?vid=5547a441-9653-482c-905c-97a54076438b","ios":"levelo://app?vid=5547a441-9653-482c-905c-97a54076438b"},"vehicle_type_id":"4","last_reported":1732979303,"current_range_meters":14800,"station_id":"ce4bhsh2rcd13ifvqi2g","pricing_plan_id":"cebpf4jnsgd1na2vs0mg"},{"bike_id":"25873d78-5815-4cf1-8864-668e132be1ac","system_id":"levelo_inurba_marseille","lat":43.29311,"lon":5.37466,"is_reserved":false,"is_disabled":false,"rental_uris":{"android":"levelo://app?vid=25873d78-5815-4cf1-8864-668e132be1ac","ios":"levelo://app?vid=25873d78-5815-4cf1-8864-668e132be1ac"},"vehicle_type_id":"4","last_reported":1732979303,"current_range_meters":12800,"station_id":"ce4bgi12rcd13ifvqb70","pricing_plan_id":"cebpf4jnsgd1na2vs0mg"},{"bike_id":"8cdf91ca-38a8-40c2-9b1d-089e42292163","system_id":"levelo_inurba_marseille","lat":43.2842,"lon":5.34999,"is_reserved":false,"is_disabled":false,"rental_uris":{"android":"levelo://app?vid=8cdf91ca-38a8-40c2-9b1d-089e42292163","ios":"levelo://app?vid=8cdf91ca-38a8-40c2-9b1d-089e42292163"},"vehicle_type_id":"4","last_reported":1732979303,"current_range_meters":38400,"station_id":"ce4bhbh2rcd13ifvqepg","pricing_plan_id":"cebpf4jnsgd1na2vs0mg"},{"bike_id":"4cf43627-0b7e-4333-909d-518692211cde","system_id":"levelo_inurba_marseille","lat":43.28485,"lon":5.3842,"is_reserved":false,"is_disabled":false,"rental_uris":{"android":"levelo://app?vid=4cf43627-0b7e-4333-909d-518692211cde","ios":"levelo://app?vid=4cf43627-0b7e-4333-909d-518692211cde"},"vehicle_type_id":"4","last_reported":1732979303,"current_range_meters":38800,"station_id":"ce4bh512rcd13ifvqe3g","pricing_plan_id":"cebpf4jnsgd1na2vs0mg"},{"bike_id":"0d302ebb-61ae-4206-800b-07319031dfa5","system_id":"levelo_inurba_marseille","lat":43.3229,"lon":5.38264,"is_reserved":false,"is_disabled":false,"rental_uris":{"android":"levelo://app?vid=0d302ebb-61ae-4206-800b-07319031dfa5","ios":"levelo://app?vid=0d302ebb-61ae-4206-800b-07319031dfa5"},"vehicle_type_id":"4","last_reported":1732979303,"current_range_meters":35200,"station_id":"ce4bhr12rcd13ifvqhqg","pricing_plan_id":"cebpf4jnsgd1na2vs0mg"},{"bike_id":"615d3b9c-5cdd-4442-8e0c-b2ac0c975d11","system_id":"levelo_inurba_marseille","lat":43.29555,"lon":5.42283,"is_reserved":false,"is_disabled":false,"rental_uris":{"android":"levelo://app?vid=615d3b9c-5cdd-4442-8e0c-b2ac0c975d11","ios":"levelo://app?vid=615d3b9c-5cdd-4442-8e0c-b2ac0c975d11"},"vehicle_type_id":"4","last_reported":1732979303,"current_range_meters":36800,"station_id":"ce4bhph2rcd13ifvqhdg","pricing_plan_id":"cebpf4jnsgd1na2vs0mg"},{"bike_id":"b69579fa-8e8f-41b9-bc0a-2a716393d399","system_id":"levelo_inurba_marseille","lat":43.31757,"lon":5.39028,"is_reserved":false,"is_disabled":true,"rental_uris":{"android":"levelo://app?vid=b69579fa-8e8f-41b9-bc0a-2a716393d399","ios":"levelo://app?vid=b69579fa-8e8f-41b9-bc0a-2a716393d399"},