{"last_updated":1700327127,"ttl":30,"version":"2.2","data":{"bikes":[{"bike_id":"35e77a24-634a-4290-ae27-f5dbecad1501","system_id":"levelo_inurba_marseille","lat":43.31341,"lon":5.367098,"is_reserved":false,"is_disabled":false,"rental_uris":{"android":"levelo://app?vid=35e77a24-634a-4290-ae27-f5dbecad1501","ios":"levelo://app?vid=35e77a24-634a-4290-ae27-f5dbecad1501"},"vehicle_type_id":"4","last_reported":1700327127,"current_range_meters":10400,"station_id":"ce4bgr92rcd13ifvqc6g","pricing_plan_id":"free"},{"bike_id":"84ca0190-1877-47f7-b10d-af1bb94e4f32","system_id":"levelo_inurba_marseille","lat":43.312239,"lon":5.368562,"is_reserved":false,"is_disabled":false,"rental_uris":{"android":"levelo://app?vid=84ca0190-1877-47f7-b10d-af1bb94e4f32","ios":"levelo://app?vid=84ca0190-1877-47f7-b10d-af1bb94e4f32"},"vehicle_type_id":"4","last_reported":1700327127,"current_range_meters":29600,"station_id":"ce4bgl92rcd13ifvqbq0","pricing_plan_id":"free"},{"bike_id":"943dfc2f-eec4-44b8-ae3a-bf8f278b58c3","system_id":"levelo_inurba_marseille","lat":43.311498,"lon":5.368935,"is_reserved":false,"is_disabled":false,"rental_uris":{"android":"levelo://app?vid=943dfc2f-eec4-44b8-ae3a-bf8f278b58c3","ios":"levelo://app?vid=943dfc2f-eec4-44b8-ae3a-bf8f278b58c3"},"vehicle_type_id":"4","last_reported":1700327127,"current_range_meters":0,"station_id":"","pricing_plan_id":"free"},{"bike_id":"3475d204-43b6-43d9-b615-ca1d0d58200e","system_id":"levelo_inurba_marseille","lat":43.30679,"lon":5.3679,"is_reserved":false,"is_disabled":false,"rental_uris":{"android":"levelo://app?vid=3475d204-43b6-43d9-b615-ca1d0d58200e","ios":"levelo://app?vid=3475d204-43b6-43d9-b615-ca1d0d58200e"},"vehicle_type_id":"4","last_reported":1700327127,"current_range_meters":14000,"station_id":"","pricing_plan_id":"free"},{"bike_id":"c89b6022-0b04-44f0-bb8d-00b8bddaa14f","system_id":"levelo_inurba_marseille","lat":43.31949,"lon":5.37106,"is_reserved":false,"is_disabled":false,"rental_uris":{"android":"levelo://app?vid=c89b6022-0b04-44f0-bb8d-00b8bddaa14f","ios":"levelo://app?vid=c89b6022-0b04-44f0-bb8d-00b8bddaa14f"},"vehicle_type_id":"4","last_reported":1700327127,"current_range_meters":4400,"station_id":"","pricing_plan_id":"free"},{"bike_id":"b8b4e7a6-0825-48e1-a66b-7c81639937ca","system_id":"levelo_inurba_marseille","lat":43.305706,"lon":5.365654,"is_reserved":false,"is_disabled":false,"rental_uris":{"android":"levelo://app?vid=b8b4e7a6-0825-48e1-a66b-7c81639937ca","ios":"levelo://app?vid=b8b4e7a6-0825-48e1-a66b-7c81639937ca"},"vehicle_type_id":"4","last_reported":1700327127,"current_range_meters":7200,"station_id":"ce4bgs12rcd13ifvqcag","pricing_plan_id":"free"},{"bike_id":"ecb79ee5-fde6-441f-a523-3359551432f8","system_id":"levelo_inurba_marseille","lat":43.311125,"lon":5.377624,"is_reserved":false,"is_disabled":false,"rental_uris":{"android":"levelo://app?vid=ecb79ee5-fde6-441f-a523-3359551432f8","ios":"levelo://app?vid=ecb79ee5-fde6-441f-a523-3359551432f8"},"vehicle_type_id":"4","last_reported":1700327127,"current_range_meters":0,"station_id":"ce4bgt92rcd13ifvqcg0","pricing_plan_id":"free"},{"bike_id":"2d49cb03-7339-4a21-98db-beedb60a2a4c","system_id":"levelo_inurba_marseille","lat":43.304958,"lon":5.370783,"is_reserved":false,"is_disabled":false,"rental_uris":{"android":"levelo://app?vid=2d49cb03-7339-4a21-98db-beedb60a2a4c","ios":"levelo://app?vid=2d49cb03-7339-4a21-98db-beedb60a2a4c"},"vehicle_type_id":"4","last_reported":1700327127,"current_range_meters":0,"station_id":"","pricing_plan_id":"free"},{"bike_id":"dcbf9c93-0758-41cf-8699-4ede01d69428","system_id":"levelo_inurba_marseille","lat":43.308176,"lon":5.376574,"is_reserved":false,"is_disabled":false,"rental_uris":{"android":"levelo://app?vid=dcbf9c93-0758-41cf-8699-4ede01d69428","ios":"levelo://app?vid=dcbf9c93-0758-41cf-8699-4ede01d69428"},"vehicle_type_id":"4","last_reported":1700327127,"current_range_meters":15200,"station_id":"ce4bgv92rcd13ifvqcq0","pricing_plan_id":"free"},{"bike_id":"f87f5296-6cb2-4eea-9ad2-0cd34c2e1f19","system_id":"levelo_inurba_marseille","lat":43.307945,"lon":5.376487,"is_reserved":false,"is_disabled":false,"rental_uris":{"android":"levelo://app?vid=f87f5296-6cb2-4eea-9ad2-0cd34c2e1f19","ios":"levelo://app?vid=f87f5296-6cb2-4eea-9ad2-0cd34c2e1f19"},"vehicle_type_id":"4","last_reported":1700327127,"current_range_meters":26400,"station_id":"ce4bgv92rcd13ifvqcq0","pricing_plan_id":"free"},{"bike_id":"e0018666-83b9-439f-9fe4-66bb377da6e0","system_id":"levelo_inurba_marseille","lat":43.30807,"lon":5.38154,"is_reserved":false,"is_disabled":false,"rental_uris":{"android":"levelo://app?vid=e0018666-83b9-439f-9fe4-66bb377da6e0","ios":"levelo://app?vid=e0018666-83b9-439f-9fe4-66bb377da6e0"},"vehicle_type_id":"4","last_reported":1700327127,"current_range_meters":0,"station_id":"ce4bgt12rcd13ifvqce0","pricing_plan_id":"free"},{"bike_id":"efdcf568-7b71-4098-84a9-17d307ff1a40","system_id":"levelo_inurba_marseille","lat":43.308012,"lon":5.381511,"is_reserved":false,"is_disabled":false,"rental_uris":{"android":"levelo://app?vid=efdcf568-7b71-4098-84a9-17d307ff1a40","ios":"levelo://app?vid=efdcf568-7b71-4098-84a9-17d307ff1a40"},"vehicle_type_id":"4","last_reported":1700327127,"current_range_meters":18400,"station_id":"ce4bgt12rcd13ifvqce0","pricing_plan_id":"free"},{"bike_id":"2c8da651-230a-4e6c-888d-e1888d78dcf2","system_id":"levelo_inurba_marseille","lat":43.304606,"lon":5.379026,"is_reserved":false,"is_disabled":false,"rental_uris":{"android":"levelo://app?vid=2c8da651-230a-4e6c-888d-e1888d78dcf2","ios":"levelo://app?vid=2c8da651-230a-4e6c-888d-e1888d78dcf2"},"vehicle_type_id":"4","last_reported":1700327127,"current_range_meters":0,"station_id":"ce4bgup2rcd13ifvqcn0","pricing_plan_id":"free"},{"bike_id":"8582e63c-68af-4a5e-a41b-a2e2d4df8807","system_id":"levelo_inurba_marseille","lat":43.324771,"lon":5.36557,"is_reserved":false,"is_disabled":false,"rental_uris":{"android":"levelo://app?vid=8582e63c-68af-4a5e-a41b-a2e2d4df8807","ios":"levelo://app?vid=8582e63c-68af-4a5e-a41b-a2e2d4df8807"},"vehicle_type_id":"4","last_reported":1700327127,"current_range_meters":8400,"station_id":"ce4bhs12rcd13ifvqhvg","pricing_plan_id":"free"},{"bike_id":"5a6db0fc-cfe2-47a7-ae76-d4e0529428ab","system_id":"levelo_inurba_marseille","lat":43.31983,"lon":5.381063,"is_reserved":false,"is_disabled":false,"rental_uris":{"android":"levelo://app?vid=5a6db0fc-cfe2-47a7-ae76-d4e0529428ab","ios":"levelo://app?vid=5a6db0fc-cfe2-47a7-ae76-d4e0529428ab"},"vehicle_type_id":"4","last_reported":1700327127,"current_range_meters":17600,"station_id":"","pricing_plan_id":"free"},{"bike_id":"b07df4dc-5dee-47d2-9384-cdf7d13ef59f","system_id":"levelo_inurba_marseille","lat":43.317603,"lon":5.383377,"is_reserved":false,"is_disabled":false,"rental_uris":{"android":"levelo://app?vid=b07df4dc-5dee-47d2-9384-cdf7d13ef59f","ios":"levelo://app?vid=b07df4dc-5dee-47d2-9384-cdf7d13ef59f"},"vehicle_type_id":"4","last_reported":1700327127,"current_range_meters":22800,"station_id":"","pricing_plan_id":"free"},{"bike_id":"66963c79-9023-4e40-bef4-709c1b04f449","system_id":"levelo_inurba_marseille","lat":43.311573,"lon":5.38683,"is_reserved":false,"is_disabled":false,"rental_uris":{"android":"levelo://app?vid=66963c79-9023-4e40-bef4-709c1b04f449","ios":"levelo://app?vid=66963c79-9023-4e40-bef4-709c1b04f449"},"vehicle_type_id":"4","last_reported":1700327127,"current_range_meters":3200,"station_id":"ce4bgv12rcd13ifvqcp0","pricing_plan_id":"free"},{"bike_id":"5da9dea2-bd9f-4746-b637-56e44ea9e587","system_id":"levelo_inurba_marseille","lat":43.298489,"lon":5.362942,"is_reserved":false,"is_disabled":false,"rental_uris":{"android":"levelo://app?vid=5da9dea2-bd9f-4746-b637-56e44ea9e587","ios":"levelo://app?vid=5da9dea2-bd9f-4746-b637-56e44ea9e587"},"vehicle_type_id":"4","last_reported":1700327127,"current_range_meters":0,"station_id":"","pricing_plan_id":"free"},{"bike_id":"dacc6149-1035-4669-a1b8-a2a285a130b3","system_id":"levelo_inurba_marseille","lat":43.305364,"lon":5.384119,"is_reserved":false,"is_disabled":false,"rental_uris":{"android":"levelo://app?vid=dacc6149-1035-4669-a1b8-a2a285a130b3","ios":"levelo://app?vid=dacc6149-1035-4669-a1b8-a2a285a130b3"},"vehicle_type_id":"4","last_reported":1700327127,"current_range_meters":1600,"station_id":"ce4bgg92rcd13ifvqb30","pricing_plan_id":"free"},{"bike_id":"43abb132-97bb-454a-a441-77715111ef81","system_id":"levelo_inurba_marseille","lat":43.305364,"lon":5.384119,"is_reserved":false,"is_disabled":false,"rental_uris":{"android":"levelo://app?vid=43abb132-97bb-454a-a441-77715111ef81","ios":"levelo://app?vid=43abb132-97bb-454a-a441-77715111ef81"},"vehicle_type_id":"4","last_reported":1700327127,"current_range_meters":7600,"station_id":"ce4bgg92rcd13ifvqb30","pricing_plan_id":"free"},{"bike_id":"4aec1cec-c43c-45b3-addc-6c49ffd5a46f","system_id":"levelo_inurba_marseille","lat":43.311722,"lon":5.387247,"is_reserved":false,"is_disabled":false,"rental_uris":{"android":"levelo://app?vid=4aec1cec-c43c-45b3-addc-6c49ffd5a46f","ios":"levelo://app?vid=4aec1cec-c43c-45b3-addc-6c49ffd5a46f"},"vehicle_type_id":"4","last_reported":1700327127,"current_range_meters":22000,"station_id":"ce4bgv12rcd13ifvqcp0","pricing_plan_id":"free"},{"bike_id":"d3cfc26a-f830-47e2-8127-33e4ab2d3d06","system_id":"levelo_inurba_marseille","lat":43.31186,"lon":5.38716,"is_reserved":false,"is_disabled":false,"rental_uris":{"android":"levelo://app?vid=d3cfc26a-f830-47e2-8127-33e4ab2d3d06","ios":"levelo://app?vid=d3cfc26a-f830-47e2-8127-33e4ab2d3d06"},"vehicle_type_id":"4","last_reported":1700327127,"current_range_meters":0,"station_id":"ce4bgv12rcd13ifvqcp0","pricing_plan_id":"free"},{"bike_id":"83b4a712-5deb-4185-a2eb-cf504fb97aa1","system_id":"levelo_inurba_marseille","lat":43.29908,"lon":5.37535,"is_reserved":false,"is_disabled":false,"rental_uris":{"android":"levelo://app?vid=83b4a712-5deb-4185-a2eb-cf504fb97aa1","ios":"levelo://app?vid=83b4a712-5deb-4185-a2eb-cf504fb97aa1"},"vehicle_type_id":"4","last_reported":1700327127,"current_range_meters":17200,"station_id":"ce4bgjh2rcd13ifvqbg0","pricing_plan_id":"free"},{"bike_id":"dadade26-8d95-44b2-86a8-a68427fdc33d","system_id":"levelo_inurba_marseille","lat":43.32293,"lon":5.38265,"is_reserved":false,"is_disabled":false,"rental_uris":{"android":"levelo://app?vid=dadade26-8d95-44b2-86a8-a68427fdc33d","ios":"levelo://app?vid=dadade26-8d95-44b2-86a8-a68427fdc33d"},"vehicle_type_id":"4","last_reported":1700327127,"current_range_meters":9600,"station_id":"ce4bhr12rcd13ifvqhqg","pricing_plan_id":"free"},{"bike_id":"b0bc5a2b-ee52-4745-9049-5d157e365412","system_id":"levelo_inurba_marseille","lat":43.32825,"lon":5.36678,"is_reserved":false,"is_disabled":false,"rental_uris":{"android":"levelo://app?vid=b0bc5a2b-ee52-4745-9049-5d157e365412","ios":"levelo://app?vid=b0bc5a2b-ee52-4745-9049-5d157e365412"},"vehicle_type_id":"4","last_reported":1700327127,"current_range_meters":11200,"station_id":"ce4bhs92rcd13ifvqi0g","pricing_plan_id":"free"},{"bike_id":"6f461906-1734-4a2d-9c3e-a93c6064dfd5","system_id":"levelo_inurba_marseille","lat":43.32828,"lon":5.36684,"is_reserved":false,"is_disabled":false,"rental_uris":{"android":"levelo://app?vid=6f461906-1734-4a2d-9c3e-a93c6064dfd5","ios":"levelo://app?vid=6f461906-1734-4a2d-9c3e-a93c6064dfd5"},"vehicle_type_id":"4","last_reported":1700327127,"current_range_meters":24000,"station_id":"ce4bhs92rcd13ifvqi0g","pricing_plan_id":"free"},{"bike_id":"bab6e1e8-0726-4f51-8b18-d54941f080d7","system_id":"levelo_inurba_marseille","lat":43.29726,"lon":5.37141,"is_reserved":false,"is_disabled":false,"rental_uris":{"android":"levelo://app?vid=bab6e1e8-0726-4f51-8b18-d54941f080d7","ios":"levelo://app?vid=bab6e1e8-0726-4f51-8b18-d54941f080d7"},"vehicle_type_id":"4","last_reported":1700327127,"current_range_meters":0,"station_id":"","pricing_plan_id":"free"},{"bike_id":"4e43e08c-c20b-494c-b020-f68f1650483c","system_id":"levelo_inurba_marseille","lat":43.296131,"lon":5.370773,"is_reserved":false,"is_disabled":false,"rental_uris":{"android":"levelo://app?vid=4e43e08c-c20b-494c-b020-f68f1650483c","ios":"levelo://app?vid=4e43e08c-c20b-494c-b020-f68f1650483c"},"vehicle_type_id":"4","last_reported":1700327127,"current_range_meters":4800,"station_id":"ce4bgnh2rcd13ifvqc0g","pricing_plan_id":"free"},{"bike_id":"d447991a-59b4-4778-a190-7d2b0920a414","system_id":"levelo_inurba_marseille","lat":43.32215,"lon":5.38613,"is_reserved":false,"is_disabled":false,"rental_uris":{"android":"levelo://app?vid=d447991a-59b4-4778-a190-7d2b0920a414","ios":"levelo://app?vid=d447991a-59b4-4778-a190-7d2b0920a414"},"vehicle_type_id":"4","last_reported":1700327127,"current_range_meters":0,"station_id":"","pricing_plan_id":"free"},{"bike_id":"8a0fa736-c053-49ea-b4f4-febb9c8b5184","system_id":"levelo_inurba_marseille","lat":43.29573,"lon":5.367355,"is_reserved":false,"is_disabled":false,"rental_uris":{"android":"levelo://app?vid=8a0fa736-c053-49ea-b4f4-febb9c8b5184","ios":"levelo://app?vid=8a0fa736-c053-49ea-b4f4-febb9c8b5184"},"vehicle_type_id":"4","last_reported":1700327127,"current_range_meters":2000,"station_id":"ce4bgph2rcd13ifvqc2g","pricing_plan_id":"free"},{"bike_id":"a9b1f171-b9af-4d66-95e8-caec337e1aa2","system_id":"levelo_inurba_marseille","lat":43.29576,"lon":5.36738,"is_reserved":false,"is_disabled":false,"rental_uris":{"android":"levelo://app?vid=a9b1f171-b9af-4d66-95e8-caec337e1aa2","ios":"levelo://app?vid=a9b1f171-b9af-4d66-95e8-caec337e1aa2"},"vehicle_type_id":"4","last_reported":1700327127,"current_range_meters":5200,"station_id":"ce4bgph2rcd13ifvqc2g","pricing_plan_id":"free"},{"bike_id":"dcc38634-006a-48ce-916f-6d0de71efb2f","system_id":"levelo_inurba_marseille","lat":43.296935,"lon":5.376544,"is_reserved":false,"is_disabled":false,"rental_uris":{"android":"levelo://app?vid=dcc38634-006a-48ce-916f-6d0de71efb2f","ios":"levelo://app?vid=dcc38634-006a-48ce-916f-6d0de71efb2f"},"vehicle_type_id":"4","last_reported":1700327127,"current_range_meters":28400,"station_id":"ce4bgkh2rcd13ifvqbl0","pricing_plan_id":"free"},{"bike_id":"b7bb920d-f3b5-4de2-a8d2-3a280b941af0","system_id":"levelo_inurba_marseille","lat":43.309589,"lon":5.390258,"is_reserved":false,"is_disabled":false,"rental_uris":{"android":"levelo://app?vid=b7bb920d-f3b5-4de2-a8d2-3a280b941af0","ios":"levelo://app?vid=b7bb920d-f3b5-4de2-a8d2-3a280b941af0"},"vehicle_type_id":"4","last_reported":1700327127,"current_range_meters":15600,"station_id":"ce4bgup2rcd13ifvqco0","pricing_plan_id":"free"},{"bike_id":"65560a07-26ba-43e8-9a3c-4c9d143b2405","system_id":"levelo_inurba_marseille","lat":43.317557,"lon":5.390173,"is_reserved":false,"is_disabled":false,"rental_uris":{"android":"levelo://app?vid=65560a07-26ba-43e8-9a3c-4c9d143b2405","ios":"levelo://app?vid=65560a07-26ba-43e8-9a3c-4c9d143b2405"},"vehicle_type_id":"4","last_reported":1700327127,"current_range_meters":7200,"station_id":"ce4bhqp2rcd13ifvqhng","pricing_plan_id":"free"},{"bike_id":"365b3b7c-9078-4815-ba71-ca77744cff09","system_id":"levelo_inurba_marseille","lat":43.304274,"lon":5.388873,"is_reserved":false,"is_disabled":false,"rental_uris":{"android":"levelo://app?vid=365b3b7c-9078-4815-ba71-ca77744cff09","ios":"levelo://app?vid=365b3b7c-9078-4815-ba71-ca77744cff09"},"vehicle_type_id":"4","last_reported":1700327127,"current_range_meters":0,"station_id":"ce4bgk12rcd13ifvqbi0","pricing_plan_id":"free"},{"bike_id":"d2dced52-b7fb-4d11-ad33-56be009e3364","system_id":"levelo_inurba_marseille","lat":43.321847,"lon":5.388263,"is_reserved":false,"is_disabled":false,"rental_uris":{"android":"levelo://app?vid=d2dced52-b7fb-4d11-ad33-56be009e3364","ios":"levelo://app?vid=d2dced52-b7fb-4d11-ad33-56be009e3364"},"vehicle_type_id":"4","last_reported":1700327127,"current_range_meters":18400,"station_id":"","pricing_plan_id":"free"},{"bike_id":"67ffd28a-0325-489b-a10f-d90500122751","system_id":"levelo_inurba_marseille","lat":43.295748,"lon":5.37522,"is_reserved":false,"is_disabled":false,"rental_uris":{"android":"levelo://app?vid=67ffd28a-0325-489b-a10f-d90500122751","ios":"levelo://app?vid=67ffd28a-0325-489b-a10f-d90500122751"},"vehicle_type_id":"4","last_reported":1700327127,"current_range_meters":30400,"station_id":"ce4bgh92rcd13ifvqb50","pricing_plan_id":"free"},{"bike_id":"77b35311-64f7-4e0a-b9ac-d303f698f472","system_id":"levelo_inurba_marseille","lat":43.295748,"lon":5.37522,"is_reserved":false,"is_disabled":false,"rental_uris":{"android":"levelo://app?vid=77b35311-64f7-4e0a-b9ac-d303f698f472","ios":"levelo://app?vid=77b35311-64f7-4e0a-b9ac-d303f698f472"},"vehicle_type_id":"4","last_reported":1700327127,"current_range_meters":0,"station_id":"ce4bgh92rcd13ifvqb50","pricing_plan_id":"free"},{"bike_id":"3e3e92fe-39b7-4933-99ff-3747b28b5d69","system_id":"levelo_inurba_marseille","lat":43.328154,"lon":5.380034,"is_reserved":false,"is_disabled":false,"rental_uris":{"android":"levelo://app?vid=3e3e92fe-39b7-4933-99ff-3747b28b5d69","ios":"levelo://app?vid=3e3e92fe-39b7-4933-99ff-3747b28b5d69"},"vehicle_type_id":"4","last_reported":1700327127,"current_range_meters":9200,"station_id":"","pricing_plan_id":"free"},{"bike_id":"ba262785-62b0-4a5e-a59c-a701c8c54935","system_id":"levelo_inurba_marseille","lat":43.296263,"lon":5.377094,"is_reserved":false,"is_disabled":false,"rental_uris":{"android":"levelo://app?vid=ba262785-62b0-4a5e-a59c-a701c8c54935","ios":"levelo://app?vid=ba262785-62b0-4a5e-a59c-a701c8c54935"},"vehicle_type_id":"4","last_reported":1700327127,"current_range_meters":400,"station_id":"ce4bgi92rcd13ifvqb90","pricing_plan_id":"free"},{"bike_id":"dd466863-1138-4cb3-94a0-d43e1c913a96","system_id":"levelo_inurba_marseille","lat":43.299832,"lon":5.384898,"is_reserved":false,"is_disabled":false,"rental_uris":{"android":"levelo://app?vid=dd466863-1138-4cb3-94a0-d43e1c913a96","ios":"levelo://app?vid=dd466863-1138-4cb3-94a0-d43e1c913a96"},"vehicle_type_id":"4","last_reported":1700327127,"current_range_meters":31200,"station_id":"ce4bgj92rcd13ifvqbd0","pricing_plan_id":"free"},{"bike_id":"fddcf427-1404-4261-afa7-e3197cb4d3bc","system_id":"levelo_inurba_marseille","lat":43.299717,"lon":5.384845,"is_reserved":false,"is_disabled":false,"rental_uris":{"android":"levelo://app?vid=fddcf427-1404-4261-afa7-e3197cb4d3bc","ios":"levelo://app?vid=fddcf427-1404-4261-afa7-e3197cb4d3bc"},"vehicle_type_id":"4","last_reported":1700327127,"current_range_meters":30800,"station_id":"ce4bgj92rcd13ifvqbd0","pricing_plan_id":"free"},{"bike_id":"9792089b-4b34-4646-8301-d3d3b42b9d70","system_id":"levelo_inurba_marseille","lat":43.299724,"lon":5.384848,"is_reserved":false,"is_disabled":false,"rental_uris":{"android":"levelo://app?vid=9792089b-4b34-4646-8301-d3d3b42b9d70","ios":"levelo://app?vid=9792089b-4b34-4646-8301-d3d3b42b9d70"},"vehicle_type_id":"4","last_reported":1700327127,"current_range_meters":31200,"station_id":"ce4bgj92rcd13ifvqbd0","pricing_plan_id":"free"},{"bike_id":"e145a3f7-00ac-4f8f-bfe5-435bc38ccaf7","system_id":"levelo_inurba_marseille","lat":43.293801,"lon":5.363066,"is_reserved":false,"is_disabled":false,"rental_uris":{"android":"levelo://app?vid=e145a3f7-00ac-4f8f-bfe5-435bc38ccaf7","ios":"levelo://app?vid=e145a3f7-00ac-4f8f-bfe5-435bc38ccaf7"},"vehicle_type_id":"4","last_reported":1700327127,"current_range_meters":26800,"station_id":"","pricing_plan_id":"free"},{"bike_id":"5f427612-3e69-4319-ac93-ffe4e2951d88","system_id":"levelo_inurba_marseille","lat":43.32367,"lon":5.388836,"is_reserved":false,"is_disabled":false,"rental_uris":{"android":"levelo://app?vid=5f427612-3e69-4319-ac93-ffe4e2951d88","ios":"levelo://app?vid=5f427612-3e69-4319-ac93-ffe4e2951d88"},"vehicle_type_id":"4","last_reported":1700327127,"current_range_meters":3200,"station_id":"ce4bhqp2rcd13ifvqhog","pricing_plan_id":"free"},{"bike_id":"605b1f04-3a70-4ef1-8f91-3df36527923e","system_id":"levelo_inurba_marseille","lat":43.292762,"lon":5.368494,"is_reserved":false,"is_disabled":false,"rental_uris":{"android":"levelo://app?vid=605b1f04-3a70-4ef1-8f91-3df36527923e","ios":"levelo://app?vid=605b1f04-3a70-4ef1-8f91-3df36527923e"},"vehicle_type_id":"4","last_reported":1700327127,"current_range_meters":11600,"station_id":"ce4bhbp2rcd13ifvqesg","pricing_plan_id":"free"},{"bike_id":"bf606a06-16c0-4b1a-9fe2-eeae3bc77d15","system_id":"levelo_inurba_marseille","lat":43.293009,"lon":5.374584,"is_reserved":false,"is_disabled":false,"rental_uris":{"android":"levelo://app?vid=bf606a06-16c0-4b1a-9fe2-eeae3bc77d15","ios":"levelo://app?vid=bf606a06-16c0-4b1a-9fe2-eeae3bc77d15"},"vehicle_type_id":"4","last_reported":1700327127,"current_range_meters":0,"station_id":"ce4bgi12rcd13ifvqb70","pricing_plan_id":"free"},{"bike_id":"127a6cf6-876d-4ccf-a3f5-efd52d67df41","system_id":"levelo_inurba_marseille","lat":43.303002,"lon":5.392142,"is_reserved":false,"is_disabled":false,"rental_uris":{"android":"levelo://app?vid=127a6cf6-876d-4ccf-a3f5-efd52d67df41","ios":"levelo://app?vid=127a6cf6-876d-4ccf-a3f5-efd52d67df41"},"vehicle_type_id":"4","last_reported":1700327127,"current_range_meters":0,"station_id":"ce4bgkh2rcd13ifvqbk0","pricing_plan_id":"free"},{"bike_id":"4eef38cc-64cf-4f4d-8d5b-99bd9d3b1b37","system_id":"levelo_inurba_marseille","lat":43.291675,"lon":5.371583,"is_reserved":false,"is_disabled":false,"rental_uris":{"android":"levelo://app?vid=4eef38cc-64cf-4f4d-8d5b-99bd9d3b1b37","ios":"levelo://app?vid=4eef38cc-64cf-4f4d-8d5b-99bd9d3b1b37"},"vehicle_type_id":"4","last_reported":1700327127,"current_range_meters":26800,"station_id":"ce4bha92rcd13ifvqeh0","pricing_plan_id":"free"},{"bike_id":"7af374db-2fca-4102-93f4-30baa547db7a","system_id":"levelo_inurba_marseille","lat":43.298894,"lon":5.389066,"is_reserved":false,"is_disabled":false,"rental_uris":{"android":"levelo://app?vid=7af374db-2fca-4102-93f4-30baa547db7a","ios":"levelo://app?vid=7af374db-2fca-4102-93f4-30baa547db7a"},"vehicle_type_id":"4","last_reported":1700327127,"current_range_meters":14000,"station_id":"","pricing_plan_id":"free"},{"bike_id":"dafa8b1e-fa43-4873-83d7-7eaa0a8b8e58","system_id":"levelo_inurba_marseille","lat":43.29169,"lon":5.37155,"is_reserved":false,"is_disabled":false,"rental_uris":{"android":"levelo://app?vid=dafa8b1e-fa43-4873-83d7-7eaa0a8b8e58","ios":"levelo://app?vid=dafa8b1e-fa43-4873-83d7-7eaa0a8b8e58"},"vehicle_type_id":"4","last_reported":1700327127,"current_range_meters":0,"station_id":"ce4bha92rcd13ifvqeh0","pricing_plan_id":"free"},{"bike_id":"1045079f-fe33-4948-938b-51dceba28122","system_id":"levelo_inurba_marseille","lat":43.29164,"lon":5.37153,"is_reserved":false,"is_disabled":false,"rental_uris":{"android":"levelo://app?vid=1045079f-fe33-4948-938b-51dceba28122","ios":"levelo://app?vid=1045079f-fe33-4948-938b-51dceba28122"},"vehicle_type_id":"4","last_reported":1700327127,"current_range_meters":0,"station_id":"ce4bha92rcd13ifvqeh0","pricing_plan_id":"free"},{"bike_id":"46f563c1-9f25-402e-8e48-e737b7be3026","system_id":"levelo_inurba_marseille","lat":43.291671,"lon":5.371575,"is_reserved":false,"is_disabled":false,"rental_uris":{"android":"levelo://app?vid=46f563c1-9f25-402e-8e48-e737b7be3026","ios":"levelo://app?vid=46f563c1-9f25-402e-8e48-e737b7be3026"},"vehicle_type_id":"4","last_reported":1700327127,"current_range_meters":18800,"station_id":"ce4bha92rcd13ifvqeh0","pricing_plan_id":"free"},{"bike_id":"2b3c692e-f894-49fc-a5a4-9f5c6497093e","system_id":"levelo_inurba_marseille","lat":43.31325,"lon":5.39693,"is_reserved":false,"is_disabled":false,"rental_uris":{"android":"levelo://app?vid=2b3c692e-f894-49fc-a5a4-9f5c6497093e","ios":"levelo://app?vid=2b3c692e-f894-49fc-a5a4-9f5c6497093e"},"vehicle_type_id":"4","last_reported":1700327127,"current_range_meters":0,"station_id":"ce4bgvp2rcd13ifvqcu0","pricing_plan_id":"free"},{"bike_id":"b4d71117-9819-41d5-81b5-34d71b83ca1d","system_id":"levelo_inurba_marseille","lat":43.313291,"lon":5.396838,"is_reserved":false,"is_disabled":false,"rental_uris":{"android":"levelo://app?vid=b4d71117-9819-41d5-81b5-34d71b83ca1d","ios":"levelo://app?vid=b4d71117-9819-41d5-81b5-34d71b83ca1d"},"vehicle_type_id":"4","last_reported":1700327127,"current_range_meters":0,"station_id":"ce4bgvp2rcd13ifvqcu0","pricing_plan_id":"free"},{"bike_id":"72148b85-8154-4d66-a739-d9c6fd57930e","system_id":"levelo_inurba_marseille","lat":43.3133,"lon":5.39695,"is_reserved":false,"is_disabled":false,"rental_uris":{"android":"levelo://app?vid=72148b85-8154-4d66-a739-d9c6fd57930e","ios":"levelo://app?vid=72148b85-8154-4d66-a739-d9c6fd57930e"},"vehicle_type_id":"4","last_reported":1700327127,"current_range_meters":8800,"station_id":"ce4bgvp2rcd13ifvqcu0","pricing_plan_id":"free"},{"bike_id":"7634867d-2391-4cdd-aa5f-caca4baceeb9","system_id":"levelo_inurba_marseille","lat":43.29529,"lon":5.385581,"is_reserved":false,"is_disabled":false,"rental_uris":{"android":"levelo://app?vid=7634867d-2391-4cdd-aa5f-caca4baceeb9","ios":"levelo://app?vid=7634867d-2391-4cdd-aa5f-caca4baceeb9"},"vehicle_type_id":"4","last_reported":1700327127,"current_range_meters":27600,"station_id":"ce4bgih2rcd13ifvqba0","pricing_plan_id":"free"},{"bike_id":"81792c76-3b3e-46e6-b714-620c082c195b","system_id":"levelo_inurba_marseille","lat":43.29529,"lon":5.385581,"is_reserved":false,"is_disabled":false,"rental_uris":{"android":"levelo://app?vid=81792c76-3b3e-46e6-b714-620c082c195b","ios":"levelo://app?vid=81792c76-3b3e-46e6-b714-620c082c195b"},"vehicle_type_id":"4","last_reported":1700327127,"current_range_meters":18000,"station_id":"ce4bgih2rcd13ifvqba0","pricing_plan_id":"free"},{"bike_id":"c44e13a8-107f-4413-8b6c-76c78c971953","system_id":"levelo_inurba_marseille","lat":43.302008,"lon":5.394694,"is_reserved":false,"is_disabled":false,"rental_uris":{"android":"levelo://app?vid=c44e13a8-107f-4413-8b6c-76c78c971953","ios":"levelo://app?vid=c44e13a8-107f-4413-8b6c-76c78c971953"},"vehicle_type_id":"4","last_reported":1700327127,"current_range_meters":0,"station_id":"ce4bh0p2rcd13ifvqd70","pricing_plan_id":"free"},{"bike_id":"1a50c7b8-6161-4f01-a089-bc172fb468a8","system_id":"levelo_inurba_marseille","lat":43.294153,"lon":5.386305,"is_reserved":false,"is_disabled":false,"rental_uris":{"android":"levelo://app?vid=1a50c7b8-6161-4f01-a089-bc172fb468a8","ios":"levelo://app?vid=1a50c7b8-6161-4f01-a089-bc172fb468a8"},"vehicle_type_id":"4","last_reported":1700327127,"current_range_meters":16800,"station_id":"ce4bh2h2rcd13ifvqdh0","pricing_plan_id":"free"},{"bike_id":"e206a690-ffeb-4ed3-8f70-93c80b1e672f","system_id":"levelo_inurba_marseille","lat":43.289184,"lon":5.366408,"is_reserved":false,"is_disabled":false,"rental_uris":{"android":"levelo://app?vid=e206a690-ffeb-4ed3-8f70-93c80b1e672f","ios":"levelo://app?vid=e206a690-ffeb-4ed3-8f70-93c80b1e672f"},"vehicle_type_id":"4","last_reported":1700327127,"current_range_meters":0,"station_id":"ce4bhap2rcd13ifvqek0","pricing_plan_id":"free"},{"bike_id":"b6fe0c7c-4170-4668-948c-9e960bfab618","system_id":"levelo_inurba_marseille","lat":43.292644,"lon":5.384257,"is_reserved":false,"is_disabled":false,"rental_uris":{"android":"levelo://app?vid=b6fe0c7c-4170-4668-948c-9e960bfab618","ios":"levelo://app?vid=b6fe0c7c-4170-4668-948c-9e960bfab618"},"vehicle_type_id":"4","last_reported":1700327127,"current_range_meters":9600,"station_id":"ce4bh692rcd13ifvqea0","pricing_plan_id":"free"},{"bike_id":"80b10064-8209-4535-a00b-0ca5f16452e7","system_id":"levelo_inurba_marseille","lat":43.292642,"lon":5.384254,"is_reserved":false,"is_disabled":false,"rental_uris":{"android":"levelo://app?vid=80b10064-8209-4535-a00b-0ca5f16452e7","ios":"levelo://app?vid=80b10064-8209-4535-a00b-0ca5f16452e7"},"vehicle_type_id":"4","last_reported":1700327127,"current_range_meters":2400,"station_id":"ce4bh692rcd13ifvqea0","pricing_plan_id":"free"},{"bike_id":"f867bbdc-3677-47f3-bcf0-694f7a5e86f4","system_id":"levelo_inurba_marseille","lat":43.2901,"lon":5.35606,"is_reserved":false,"is_disabled":false,"rental_uris":{"android":"levelo://app?vid=f867bbdc-3677-47f3-bcf0-694f7a5e86f4","ios":"levelo://app?vid=f867bbdc-3677-47f3-bcf0-694f7a5e86f4"},"vehicle_type_id":"4","last_reported":1700327127,"current_range_meters":0,"station_id":"ce4bhb92rcd13ifvqen0","pricing_plan_id":"free"},{"bike_id":"72431e60-f15e-49c3-a86d-32a7d914ba14","system_id":"levelo_inurba_marseille","lat":43.307387,"lon":5.3998,"is_reserved":false,"is_disabled":false,"rental_uris":{"android":"levelo://app?vid=72431e60-f15e-49c3-a86d-32a7d914ba14","ios":"levelo://app?vid=72431e60-f15e-49c3-a86d-32a7d914ba14"},"vehicle_type_id":"4","last_reported":1700327127,"current_range_meters":20400,"station_id":"","pricing_plan_id":"free"},{"bike_id":"34a98f64-7083-4dcd-9257-5a963cf539ff","system_id":"levelo_inurba_marseille","lat":43.312609,"lon":5.401662,"is_reserved":false,"is_disabled":false,"rental_uris":{"android":"levelo://app?vid=34a98f64-7083-4dcd-9257-5a963cf539ff","ios":"levelo://app?vid=34a98f64-7083-4dcd-9257-5a963cf539ff"},"vehicle_type_id":"4","last_reported":1700327127,"current_range_meters":0,"station_id":"ce4bh092rcd13ifvqd30","pricing_plan_id":"free"},{"bike_id":"07202f70-50d7-46f0-a5bd-59712659d6a0","system_id":"levelo_inurba_marseille","lat":43.31251,"lon":5.40162,"is_reserved":false,"is_disabled":false,"rental_uris":{"android":"levelo://app?vid=07202f70-50d7-46f0-a5bd-59712659d6a0","ios":"levelo://app?vid=07202f70-50d7-46f0-a5bd-59712659d6a0"},"vehicle_type_id":"4","last_reported":1700327127,"current_range_meters":14000,"station_id":"","pricing_plan_id":"free"},{"bike_id":"82e0c6f4-9e35-43a0-a603-85994840c429","system_id":"levelo_inurba_marseille","lat":43.28723,"lon":5.36084,"is_reserved":false,"is_disabled":false,"rental_uris":{"android":"levelo://app?vid=82e0c6f4-9e35-43a0-a603-85994840c429","ios":"levelo://app?vid=82e0c6f4-9e35-43a0-a603-85994840c429"},"vehicle_type_id":"4","last_reported":1700327127,"current_range_meters":29600,"station_id":"cki0cbj6b192h4jlfktg","pricing_plan_id":"free"},{"bike_id":"b3b31a9c-2b06-4731-a6fe-886992b25751","system_id":"levelo_inurba_marseille","lat":43.28722,"lon":5.360853,"is_reserved":false,"is_disabled":false,"rental_uris":{"android":"levelo://app?vid=b3b31a9c-2b06-4731-a6fe-886992b25751","ios":"levelo://app?vid=b3b31a9c-2b06-4731-a6fe-886992b25751"},"vehicle_type_id":"4","last_reported":1700327127,"current_range_meters":31200,"station_id":"cki0cbj6b192h4jlfktg","pricing_plan_id":"free"},{"bike_id":"f878dd7f-0c1b-4375-9fdc-c45f21b52b47","system_id":"levelo_inurba_marseille","lat":43.286961,"lon":5.373785,"is_reserved":false,"is_disabled":false,"rental_uris":{"android":"levelo://app?vid=f878dd7f-0c1b-4375-9fdc-c45f21b52b47","ios":"levelo://app?vid=f878dd7f-0c1b-4375-9fdc-c45f21b52b47"},"vehicle_type_id":"4","last_reported":1700327127,"current_range_meters":23600,"station_id":"ce4bh3p2rcd13ifvqdq0","pricing_plan_id":"free"},{"bike_id":"c3ca1dae-74fd-408e-990a-d4a7652634de","system_id":"levelo_inurba_marseille","lat":43.29034,"lon":5.38649,"is_reserved":false,"is_disabled":false,"rental_uris":{"android":"levelo://app?vid=c3ca1dae-74fd-408e-990a-d4a7652634de","ios":"levelo://app?vid=c3ca1dae-74fd-408e-990a-d4a7652634de"},"vehicle_type_id":"4","last_reported":1700327127,"current_range_meters":6400,"station_id":"ce4bh4p2rcd13ifvqe0g","pricing_plan_id":"free"},{"bike_id":"f4d84116-d5ac-43fc-b73e-b25f7431ab6e","system_id":"levelo_inurba_marseille","lat":43.286039,"lon":5.370679,"is_reserved":false,"is_disabled":false,"rental_uris":{"android":"levelo://app?vid=f4d84116-d5ac-43fc-b73e-b25f7431ab6e","ios":"levelo://app?vid=f4d84116-d5ac-43fc-b73e-b25f7431ab6e"},"vehicle_type_id":"4","last_reported":1700327127,"current_range_meters":10800,"station_id":"ce4bht12rcd13ifvqi60","pricing_plan_id":"free"},{"bike_id":"8f951278-a554-4ad9-8441-036e6af4a420","system_id":"levelo_inurba_marseille","lat":43.287184,"lon":5.37937,"is_reserved":false,"is_disabled":false,"rental_uris":{"android":"levelo://app?vid=8f951278-a554-4ad9-8441-036e6af4a420","ios":"levelo://app?vid=8f951278-a554-4ad9-8441-036e6af4a420"},"vehicle_type_id":"4","last_reported":1700327127,"current_range_meters":8800,"station_id":"ce4bh9p2rcd13ifvqec0","pricing_plan_id":"free"},{"bike_id":"0b46b1b4-f42b-4e67-9aef-2797da64a2b5","system_id":"levelo_inurba_marseille","lat":43.33122,"lon":5.396975,"is_reserved":false,"is_disabled":false,"rental_uris":{"android":"levelo://app?vid=0b46b1b4-f42b-4e67-9aef-2797da64a2b5","ios":"levelo://app?vid=0b46b1b4-f42b-4e67-9aef-2797da64a2b5"},"vehicle_type_id":"4","last_reported":1700327127,"current_range_meters":18000,"station_id":"","pricing_plan_id":"free"},{"bike_id":"e4689498-8bc9-4e94-a87a-90c454e633d8","system_id":"levelo_inurba_marseille","lat":43.294314,"lon":5.397498,"is_reserved":false,"is_disabled":false,"rental_uris":{"android":"levelo://app?vid=e4689498-8bc9-4e94-a87a-90c454e633d8","ios":"levelo://app?vid=e4689498-8bc9-4e94-a87a-90c454e633d8"},"vehicle_type_id":"4","last_reported":1700327127,"current_range_meters":18000,"station_id":"ce4bh3h2rcd13ifvqdo0","pricing_plan_id":"free"},{"bike_id":"5ad3762e-98c7-4713-b667-13446714c1da","system_id":"levelo_inurba_marseille","lat":43.2862,"lon":5.351057,"is_reserved":false,"is_disabled":false,"rental_uris":{"android":"levelo://app?vid=5ad3762e-98c7-4713-b667-13446714c1da","ios":"levelo://app?vid=5ad3762e-98c7-4713-b667-13446714c1da"},"vehicle_type_id":"4","last_reported":1700327127,"current_range_meters":25600,"station_id":"ce4bhch2rcd13ifvqeug","pricing_plan_id":"free"},{"bike_id":"98018165-68ff-46d6-b152-3dcac1307023","system_id":"levelo_inurba_marseille","lat":43.285848,"lon":5.350787,"is_reserved":false,"is_disabled":false,"rental_uris":{"android":"levelo://app?vid=98018165-68ff-46d6-b152-3dcac1307023","ios":"levelo://app?vid=98018165-68ff-46d6-b152-3dcac1307023"},"vehicle_type_id":"4","last_reported":1700327127,"current_range_meters":0,"station_id":"ce4bhch2rcd13ifvqeug","pricing_plan_id":"free"},{"bike_id":"ed87b1ee-f9d6-4645-ab70-39bdee888a83","system_id":"levelo_inurba_marseille","lat":43.28615,"lon":5.35104,"is_reserved":false,"is_disabled":false,"rental_uris":{"android":"levelo://app?vid=ed87b1ee-f9d6-4645-ab70-39bdee888a83","ios":"levelo://app?vid=ed87b1ee-f9d6-4645-ab70-39bdee888a83"},"vehicle_type_id":"4","last_reported":1700327127,"current_range_meters":0,"station_id":"ce4bhch2rcd13ifvqeug","pricing_plan_id":"free"},{"bike_id":"22da7d8e-5b4c-416d-a7bc-9cb1c9fa8751","system_id":"levelo_inurba_marseille","lat":43.28409,"lon":5.37515,"is_reserved":false,"is_disabled":false,"rental_uris":{"android":"levelo://app?vid=22da7d8e-5b4c-416d-a7bc-9cb1c9fa8751","ios":"levelo://app?vid=22da7d8e-5b4c-416d-a7bc-9cb1c9fa8751"},"vehicle_type_id":"4","last_reported":1700327127,"current_range_meters":400,"station_id":"ce4bh412rcd13ifvqds0","pricing_plan_id":"free"},{"bike_id":"d94dfb15-e572-4e59-af3c-ee7cbd62cef5","system_id":"levelo_inurba_marseille","lat":43.295717,"lon":5.399697,"is_reserved":false,"is_disabled":false,"rental_uris":{"android":"levelo://app?vid=d94dfb15-e572-4e59-af3c-ee7cbd62cef5","ios":"levelo://app?vid=d94dfb15-e572-4e59-af3c-ee7cbd62cef5"},"vehicle_type_id":"4","last_reported":1700327127,"current_range_meters":13200,"station_id":"","pricing_plan_id":"free"},{"bike_id":"83817918-40fc-48a0-b4d2-4ca9f198594c","system_id":"levelo_inurba_marseille","lat":43.294538,"lon":5.39855,"is_reserved":false,"is_disabled":false,"rental_uris":{"android":"levelo://app?vid=83817918-40fc-48a0-b4d2-4ca9f198594c","ios":"levelo://app?vid=83817918-40fc-48a0-b4d2-4ca9f198594c"},"vehicle_type_id":"4","last_reported":1700327127,"current_range_meters":0,"station_id":"","pricing_plan_id":"free"},{"bike_id":"82055b47-9239-416a-b74e-43023dc33c0c","system_id":"levelo_inurba_marseille","lat":43.295713,"lon":5.399639,"is_reserved":false,"is_disabled":false,"rental_uris":{"android":"levelo://app?vid=82055b47-9239-416a-b74e-43023dc33c0c","ios":"levelo://app?vid=82055b47-9239-416a-b74e-43023dc33c0c"},"vehicle_type_id":"4","last_reported":1700327127,"current_range_meters":0,"station_id":"ce4bh312rcd13ifvqdj0","pricing_plan_id":"free"},{"bike_id":"10d1daff-ae5b-454d-9b71-c41c38813a44","system_id":"levelo_inurba_marseille","lat":43.295713,"lon":5.399639,"is_reserved":false,"is_disabled":false,"rental_uris":{"android":"levelo://app?vid=10d1daff-ae5b-454d-9b71-c41c38813a44","ios":"levelo://app?vid=10d1daff-ae5b-454d-9b71-c41c38813a44"},"vehicle_type_id":"4","last_reported":1700327127,"current_range_meters":19600,"station_id":"ce4bh312rcd13ifvqdj0","pricing_plan_id":"free"},{"bike_id":"9fb6cdd1-c4f7-42c5-9b0e-045a9494b3e6","system_id":"levelo_inurba_marseille","lat":43.294153,"lon":5.386305,"is_reserved":false,"is_disabled":false,"rental_uris":{"android":"levelo://app?vid=9fb6cdd1-c4f7-42c5-9b0e-045a9494b3e6","ios":"levelo://app?vid=9fb6cdd1-c4f7-42c5-9b0e-045a9494b3e6"},"vehicle_type_id":"4","last_reported":1700327127,"current_range_meters":18800,"station_id":"ce4bh2h2rcd13ifvqdh0","pricing_plan_id":"free"},{"bike_id":"5974ad3b-da81-42ca-a08b-1b3632a47afa","system_id":"levelo_inurba_marseille","lat":43.33237,"lon":5.3985,"is_reserved":false,"is_disabled":false,"rental_uris":{"android":"levelo://app?vid=5974ad3b-da81-42ca-a08b-1b3632a47afa","ios":"levelo://app?vid=5974ad3b-da81-42ca-a08b-1b3632a47afa"},"vehicle_type_id":"4","last_reported":1700327127,"current_range_meters":4800,"station_id":"","pricing_plan_id":"free"},{"bike_id":"acd28e3d-78f0-4ed3-be3f-0d7655f0851a","system_id":"levelo_inurba_marseille","lat":43.28489,"lon":5.38423,"is_reserved":false,"is_disabled":false,"rental_uris":{"android":"levelo://app?vid=acd28e3d-78f0-4ed3-be3f-0d7655f0851a","ios":"levelo://app?vid=acd28e3d-78f0-4ed3-be3f-0d7655f0851a"},"vehicle_type_id":"4","last_reported":1700327127,"current_range_meters":0,"station_id":"ce4bh512rcd13ifvqe3g","pricing_plan_id":"free"},{"bike_id":"06d5e7b0-c9db-4d0e-bf91-23ec0dcea877","system_id":"levelo_inurba_marseille","lat":43.284787,"lon":5.384116,"is_reserved":false,"is_disabled":false,"rental_uris":{"android":"levelo://app?vid=06d5e7b0-c9db-4d0e-bf91-23ec0dcea877","ios":"levelo://app?vid=06d5e7b0-c9db-4d0e-bf91-23ec0dcea877"},"vehicle_type_id":"4","last_reported":1700327127,"current_range_meters":26000,"station_id":"ce4bh512rcd13ifvqe3g","pricing_plan_id":"free"},{"bike_id":"8dc88dc3-0757-4514-b419-2d7d19e5ef00","system_id":"levelo_inurba_marseille","lat":43.284793,"lon":5.384119,"is_reserved":false,"is_disabled":false,"rental_uris":{"android":"levelo://app?vid=8dc88dc3-0757-4514-b419-2d7d19e5ef00","ios":"levelo://app?vid=8dc88dc3-0757-4514-b419-2d7d19e5ef00"},"vehicle_type_id":"4","last_reported":1700327127,"current_range_meters":4000,"station_id":"ce4bh512rcd13ifvqe3g","pricing_plan_id":"free"},{"bike_id":"0cd658bd-b868-48c5-a3da-31030c860969","system_id":"levelo_inurba_marseille","lat":43.283494,"lon":5.380945,"is_reserved":false,"is_disabled":false,"rental_uris":{"android":"levelo://app?vid=0cd658bd-b868-48c5-a3da-31030c860969","ios":"levelo://app?vid=0cd658bd-b868-48c5-a3da-31030c860969"},"vehicle_type_id":"4","last_reported":1700327127,"current_range_meters":12400,"station_id":"ce4bh412rcd13ifvqdr0","pricing_plan_id":"free"},{"bike_id":"25086d3e-0f3b-4df6-8ce9-79460d61d6ef","system_id":"levelo_inurba_marseille","lat":43.283498,"lon":5.380948,"is_reserved":false,"is_disabled":false,"rental_uris":{"android":"levelo://app?vid=25086d3e-0f3b-4df6-8ce9-79460d61d6ef","ios":"levelo://app?vid=25086d3e-0f3b-4df6-8ce9-79460d61d6ef"},"vehicle_type_id":"4","last_reported":1700327127,"current_range_meters":27200,"station_id":"ce4bh412rcd13ifvqdr0","pricing_plan_id":"free"},{"bike_id":"d3dd3e3d-57b0-4c9e-949f-fddd56c2349c","system_id":"levelo_inurba_marseille","lat":43.32521,"lon":5.40575,"is_reserved":false,"is_disabled":false,"rental_uris":{"android":"levelo://app?vid=d3dd3e3d-57b0-4c9e-949f-fddd56c2349c","ios":"levelo://app?vid=d3dd3e3d-57b0-4c9e-949f-fddd56c2349c"},"vehicle_type_id":"4","last_reported":1700327127,"current_range_meters":1600,"station_id":"","pricing_plan_id":"free"},{"bike_id":"7766c6a7-2dc4-43fd-8082-d93c6ec99bbd","system_id":"levelo_inurba_marseille","lat":43.288501,"lon":5.393087,"is_reserved":false,"is_disabled":false,"rental_uris":{"android":"levelo://app?vid=7766c6a7-2dc4-43fd-8082-d93c6ec99bbd","ios":"levelo://app?vid=7766c6a7-2dc4-43fd-8082-d93c6ec99bbd"},"vehicle_type_id":"4","last_reported":1700327127,"current_range_meters":0,"station_id":"ce4bh2p2rcd13ifvqdi0","pricing_plan_id":"free"},{"bike_id":"735edea5-81bb-4be2-a316-f0debed8ca37","system_id":"levelo_inurba_marseille","lat":43.289363,"lon":5.396322,"is_reserved":false,"is_disabled":false,"rental_uris":{"android":"levelo://app?vid=735edea5-81bb-4be2-a316-f0debed8ca37","ios":"levelo://app?vid=735edea5-81bb-4be2-a316-f0debed8ca37"},"vehicle_type_id":"4","last_reported":1700327127,"current_range_meters":0,"station_id":"ce4bh3h2rcd13ifvqdn0","pricing_plan_id":"free"},{"bike_id":"7bb3792b-1e37-45d2-91d3-ab407135c3bf","system_id":"levelo_inurba_marseille","lat":43.292724,"lon":5.401131,"is_reserved":false,"is_disabled":false,"rental_uris":{"android":"levelo://app?vid=7bb3792b-1e37-45d2-91d3-ab407135c3bf","ios":"levelo://app?vid=7bb3792b-1e37-45d2-91d3-ab407135c3bf"},"vehicle_type_id":"4","last_reported":1700327127,"current_range_meters":12400,"station_id":"ce4bh312rcd13ifvqdk0","pricing_plan_id":"free"},{"bike_id":"1715526d-9a70-400c-aed7-e0339b32e2cc","system_id":"levelo_inurba_marseille","lat":43.282754,"lon":5.350519,"is_reserved":false,"is_disabled":false,"rental_uris":{"android":"levelo://app?vid=1715526d-9a70-400c-aed7-e0339b32e2cc","ios":"levelo://app?vid=1715526d-9a70-400c-aed7-e0339b32e2cc"},"vehicle_type_id":"4","last_reported":1700327127,"current_range_meters":2000,"station_id":"ce4bhbp2rcd13ifvqerg","pricing_plan_id":"free"},{"bike_id":"611d331e-2773-40a7-8d25-6f4aaf8cfa3c","system_id":"levelo_inurba_marseille","lat":43.283502,"lon":5.386471,"is_reserved":false,"is_disabled":false,"rental_uris":{"android":"levelo://app?vid=611d331e-2773-40a7-8d25-6f4aaf8cfa3c","ios":"levelo://app?vid=611d331e-2773-40a7-8d25-6f4aaf8cfa3c"},"vehicle_type_id":"4","last_reported":1700327127,"current_range_meters":28400,"station_id":"ce4bh492rcd13ifvqdvg","pricing_plan_id":"free"},{"bike_id":"03f21667-68c9-449e-9790-79b9969a9a4c","system_id":"levelo_inurba_marseille","lat":43.282744,"lon":5.350533,"is_reserved":false,"is_disabled":false,"rental_uris":{"android":"levelo://app?vid=03f21667-68c9-449e-9790-79b9969a9a4c","ios":"levelo://app?vid=03f21667-68c9-449e-9790-79b9969a9a4c"},"vehicle_type_id":"4","last_reported":1700327127,"current_range_meters":0,"station_id":"ce4bhbp2rcd13ifvqerg","pricing_plan_id":"free"},{"bike_id":"e706b32a-5779-4989-911e-73110a6ff485","system_id":"levelo_inurba_marseille","lat":43.28039,"lon":5.369297,"is_reserved":false,"is_disabled":false,"rental_uris":{"android":"levelo://app?vid=e706b32a-5779-4989-911e-73110a6ff485","ios":"levelo://app?vid=e706b32a-5779-4989-911e-73110a6ff485"},"vehicle_type_id":"4","last_reported":1700327127,"current_range_meters":3600,"station_id":"ce4bha12rcd13ifvqef0","pricing_plan_id":"free"},{"bike_id":"b97592bd-7dda-471c-a26e-5f6f0314ae37","system_id":"levelo_inurba_marseille","lat":43.281044,"lon":5.378308,"is_reserved":false,"is_disabled":false,"rental_uris":{"android":"levelo://app?vid=b97592bd-7dda-471c-a26e-5f6f0314ae37","ios":"levelo://app?vid=b97592bd-7dda-471c-a26e-5f6f0314ae37"},"vehicle_type_id":"4","last_reported":1700327127,"current_range_meters":6000,"station_id":"ce4bha12rcd13ifvqee0","pricing_plan_id":"free"},{"bike_id":"2b3c1403-5445-4cd7-8ee4-817e5a4c436b","system_id":"levelo_inurba_marseille","lat":43.281044,"lon":5.378308,"is_reserved":false,"is_disabled":false,"rental_uris":{"android":"levelo://app?vid=2b3c1403-5445-4cd7-8ee4-817e5a4c436b","ios":"levelo://app?vid=2b3c1403-5445-4cd7-8ee4-817e5a4c436b"},"vehicle_type_id":"4","last_reported":1700327127,"current_range_meters":8800,"station_id":"ce4bha12rcd13ifvqee0","pricing_plan_id":"free"},{"bike_id":"1f52d708-b2e7-4e78-b973-dceeb8ae763a","system_id":"levelo_inurba_marseille","lat":43.284462,"lon":5.392121,"is_reserved":false,"is_disabled":false,"rental_uris":{"android":"levelo://app?vid=1f52d708-b2e7-4e78-b973-dceeb8ae763a","ios":"levelo://app?vid=1f52d708-b2e7-4e78-b973-dceeb8ae763a"},"vehicle_type_id":"4","last_reported":1700327127,"current_range_meters":1600,"station_id":"ce4bhoh2rcd13ifvqh5g","pricing_plan_id":"free"},{"bike_id":"ccf9b17e-2fb6-47d5-b5cb-73ea08fcb6e5","system_id":"levelo_inurba_marseille","lat":43.28575,"lon":5.39498,"is_reserved":false,"is_disabled":false,"rental_uris":{"android":"levelo://app?vid=ccf9b17e-2fb6-47d5-b5cb-73ea08fcb6e5","ios":"levelo://app?vid=ccf9b17e-2fb6-47d5-b5cb-73ea08fcb6e5"},"vehicle_type_id":"4","last_reported":1700327127,"current_range_meters":400,"station_id":"ce4bh292rcd13ifvqdg0","pricing_plan_id":"free"},{"bike_id":"c731a2d8-4b6d-4750-88d2-f37d25e13b0d","system_id":"levelo_inurba_marseille","lat":43.326605,"lon":5.409903,"is_reserved":false,"is_disabled":false,"rental_uris":{"android":"levelo://app?vid=c731a2d8-4b6d-4750-88d2-f37d25e13b0d","ios":"levelo://app?vid=c731a2d8-4b6d-4750-88d2-f37d25e13b0d"},"vehicle_type_id":"4","last_reported":1700327127,"current_range_meters":23600,"station_id":"ce4bhpp2rcd13ifvqhgg","pricing_plan_id":"free"},{"bike_id":"fcff3748-33a2-40b5-98d8-a0815fcc820c","system_id":"levelo_inurba_marseille","lat":43.279087,"lon":5.380114,"is_reserved":false,"is_disabled":false,"rental_uris":{"android":"levelo://app?vid=fcff3748-33a2-40b5-98d8-a0815fcc820c","ios":"levelo://app?vid=fcff3748-33a2-40b5-98d8-a0815fcc820c"},"vehicle_type_id":"4","last_reported":1700327127,"current_range_meters":8000,"station_id":"ce4bhf92rcd13ifvqf50","pricing_plan_id":"free"},{"bike_id":"8e9cebcc-1987-4348-87cf-10365cf07425","system_id":"levelo_inurba_marseille","lat":43.28082,"lon":5.38702,"is_reserved":false,"is_disabled":false,"rental_uris":{"android":"levelo://app?vid=8e9cebcc-1987-4348-87cf-10365cf07425","ios":"levelo://app?vid=8e9cebcc-1987-4348-87cf-10365cf07425"},"vehicle_type_id":"4","last_reported":1700327127,"current_range_meters":2800,"station_id":"","pricing_plan_id":"free"},{"bike_id":"f067250b-7062-41c3-8de1-962f13b5c145","system_id":"levelo_inurba_marseille","lat":43.287154,"lon":5.399979,"is_reserved":false,"is_disabled":false,"rental_uris":{"android":"levelo://app?vid=f067250b-7062-41c3-8de1-962f13b5c145","ios":"levelo://app?vid=f067250b-7062-41c3-8de1-962f13b5c145"},"vehicle_type_id":"4","last_reported":1700327127,"current_range_meters":14400,"station_id":"ce4bho92rcd13ifvqh3g","pricing_plan_id":"free"},{"bike_id":"857c3c17-3692-4ba2-b83c-9b14ad8166fe","system_id":"levelo_inurba_marseille","lat":43.290412,"lon":5.399633,"is_reserved":false,"is_disabled":false,"rental_uris":{"android":"levelo://app?vid=857c3c17-3692-4ba2-b83c-9b14ad8166fe","ios":"levelo://app?vid=857c3c17-3692-4ba2-b83c-9b14ad8166fe"},"vehicle_type_id":"4","last_reported":1700327127,"current_range_meters":10800,"station_id":"ce4bh392rcd13ifvqdm0","pricing_plan_id":"free"},{"bike_id":"feca28d2-7019-4e39-96be-d7938cc29597","system_id":"levelo_inurba_marseille","lat":43.32435,"lon":5.4137,"is_reserved":false,"is_disabled":false,"rental_uris":{"android":"levelo://app?vid=feca28d2-7019-4e39-96be-d7938cc29597","ios":"levelo://app?vid=feca28d2-7019-4e39-96be-d7938cc29597"},"vehicle_type_id":"4","last_reported":1700327127,"current_range_meters":0,"station_id":"","pricing_plan_id":"free"},{"bike_id":"e1f93b6f-6674-4350-9a94-4709c60e06a7","system_id":"levelo_inurba_marseille","lat":43.320045,"lon":5.415046,"is_reserved":false,"is_disabled":false,"rental_uris":{"android":"levelo://app?vid=e1f93b6f-6674-4350-9a94-4709c60e06a7","ios":"levelo://app?vid=e1f93b6f-6674-4350-9a94-4709c60e06a7"},"vehicle_type_id":"4","last_reported":1700327127,"current_range_meters":25200,"station_id":"ce4bhq92rcd13ifvqhkg","pricing_plan_id":"free"},{"bike_id":"e343ce85-012b-4f59-9e6d-64f56867acdb","system_id":"levelo_inurba_marseille","lat":43.279742,"lon":5.38744,"is_reserved":false,"is_disabled":false,"rental_uris":{"android":"levelo://app?vid=e343ce85-012b-4f59-9e6d-64f56867acdb","ios":"levelo://app?vid=e343ce85-012b-4f59-9e6d-64f56867acdb"},"vehicle_type_id":"4","last_reported":1700327127,"current_range_meters":21200,"station_id":"ce4bhg12rcd13ifvqf80","pricing_plan_id":"free"},{"bike_id":"a1b00e42-7cf2-4048-b69a-47f960c9e25d","system_id":"levelo_inurba_marseille","lat":43.279742,"lon":5.38744,"is_reserved":false,"is_disabled":false,"rental_uris":{"android":"levelo://app?vid=a1b00e42-7cf2-4048-b69a-47f960c9e25d","ios":"levelo://app?vid=a1b00e42-7cf2-4048-b69a-47f960c9e25d"},"vehicle_type_id":"4","last_reported":1700327127,"current_range_meters":22000,"station_id":"ce4bhg12rcd13ifvqf80","pricing_plan_id":"free"},{"bike_id":"75ea3e28-747a-4e2f-bf2d-75ac9fc85017","system_id":"levelo_inurba_marseille","lat":43.279742,"lon":5.38744,"is_reserved":false,"is_disabled":false,"rental_uris":{"android":"levelo://app?vid=75ea3e28-747a-4e2f-bf2d-75ac9fc85017","ios":"levelo://app?vid=75ea3e28-747a-4e2f-bf2d-75ac9fc85017"},"vehicle_type_id":"4","last_reported":1700327127,"current_range_meters":12400,"station_id":"ce4bhg12rcd13ifvqf80","pricing_plan_id":"free"},{"bike_id":"ce291ea7-014b-4a45-99db-6876d578f7d3","system_id":"levelo_inurba_marseille","lat":43.279742,"lon":5.38744,"is_reserved":false,"is_disabled":false,"rental_uris":{"android":"levelo://app?vid=ce291ea7-014b-4a45-99db-6876d578f7d3","ios":"levelo://app?vid=ce291ea7-014b-4a45-99db-6876d578f7d3"},"vehicle_type_id":"4","last_reported":1700327127,"current_range_meters":10000,"station_id":"ce4bhg12rcd13ifvqf80","pricing_plan_id":"free"},{"bike_id":"b74f775c-5c69-4312-98c1-0dad8ebb657f","system_id":"levelo_inurba_marseille","lat":43.2762,"lon":5.36106,"is_reserved":false,"is_disabled":false,"rental_uris":{"android":"levelo://app?vid=b74f775c-5c69-4312-98c1-0dad8ebb657f","ios":"levelo://app?vid=b74f775c-5c69-4312-98c1-0dad8ebb657f"},"vehicle_type_id":"4","last_reported":1700327127,"current_range_meters":14800,"station_id":"ce4bgj92rcd13ifvqbe0","pricing_plan_id":"free"},{"bike_id":"a23e2917-d985-43ac-a158-bc4439f6afdb","system_id":"levelo_inurba_marseille","lat":43.27619,"lon":5.36106,"is_reserved":false,"is_disabled":false,"rental_uris":{"android":"levelo://app?vid=a23e2917-d985-43ac-a158-bc4439f6afdb","ios":"levelo://app?vid=a23e2917-d985-43ac-a158-bc4439f6afdb"},"vehicle_type_id":"4","last_reported":1700327127,"current_range_meters":15600,"station_id":"ce4bgj92rcd13ifvqbe0","pricing_plan_id":"free"},{"bike_id":"2e04608d-242b-4138-bdf6-47820d78f4b6","system_id":"levelo_inurba_marseille","lat":43.276182,"lon":5.361025,"is_reserved":false,"is_disabled":false,"rental_uris":{"android":"levelo://app?vid=2e04608d-242b-4138-bdf6-47820d78f4b6","ios":"levelo://app?vid=2e04608d-242b-4138-bdf6-47820d78f4b6"},"vehicle_type_id":"4","last_reported":1700327127,"current_range_meters":16000,"station_id":"ce4bgj92rcd13ifvqbe0","pricing_plan_id":"free"},{"bike_id":"c1ebc94b-3a40-4785-8743-8f174db84b1f","system_id":"levelo_inurba_marseille","lat":43.27618,"lon":5.361009,"is_reserved":false,"is_disabled":false,"rental_uris":{"android":"levelo://app?vid=c1ebc94b-3a40-4785-8743-8f174db84b1f","ios":"levelo://app?vid=c1ebc94b-3a40-4785-8743-8f174db84b1f"},"vehicle_type_id":"4","last_reported":1700327127,"current_range_meters":28400,"station_id":"ce4bgj92rcd13ifvqbe0","pricing_plan_id":"free"},{"bike_id":"b8da83f4-5a5f-4733-9346-fd220cadc907","system_id":"levelo_inurba_marseille","lat":43.280784,"lon":5.396622,"is_reserved":false,"is_disabled":false,"rental_uris":{"android":"levelo://app?vid=b8da83f4-5a5f-4733-9346-fd220cadc907","ios":"levelo://app?vid=b8da83f4-5a5f-4733-9346-fd220cadc907"},"vehicle_type_id":"4","last_reported":1700327127,"current_range_meters":10000,"station_id":"ce4bho12rcd13ifvqh2g","pricing_plan_id":"free"},{"bike_id":"2409d88a-4279-48d8-bcfa-d2e01f5eed1a","system_id":"levelo_inurba_marseille","lat":43.273613,"lon":5.362705,"is_reserved":false,"is_disabled":false,"rental_uris":{"android":"levelo://app?vid=2409d88a-4279-48d8-bcfa-d2e01f5eed1a","ios":"levelo://app?vid=2409d88a-4279-48d8-bcfa-d2e01f5eed1a"},"vehicle_type_id":"4","last_reported":1700327127,"current_range_meters":3600,"station_id":"ce4bhbh2rcd13ifvqeo0","pricing_plan_id":"free"},{"bike_id":"ae5d3541-bbd7-4d28-bfed-d680b45d1a1a","system_id":"levelo_inurba_marseille","lat":43.273609,"lon":5.362708,"is_reserved":false,"is_disabled":false,"rental_uris":{"android":"levelo://app?vid=ae5d3541-bbd7-4d28-bfed-d680b45d1a1a","ios":"levelo://app?vid=ae5d3541-bbd7-4d28-bfed-d680b45d1a1a"},"vehicle_type_id":"4","last_reported":1700327127,"current_range_meters":30400,"station_id":"ce4bhbh2rcd13ifvqeo0","pricing_plan_id":"free"},{"bike_id":"18d269e8-2e40-4f1f-8cc3-732ff54d70ea","system_id":"levelo_inurba_marseille","lat":43.279973,"lon":5.400122,"is_reserved":false,"is_disabled":false,"rental_uris":{"android":"levelo://app?vid=18d269e8-2e40-4f1f-8cc3-732ff54d70ea","ios":"levelo://app?vid=18d269e8-2e40-4f1f-8cc3-732ff54d70ea"},"vehicle_type_id":"4","last_reported":1700327127,"current_range_meters":9200,"station_id":"ce4bho92rcd13ifvqh4g","pricing_plan_id":"free"},{"bike_id":"079fb5e9-aec2-4ae7-8ffe-7e7247d5fdd7","system_id":"levelo_inurba_marseille","lat":43.279952,"lon":5.400085,"is_reserved":false,"is_disabled":false,"rental_uris":{"android":"levelo://app?vid=079fb5e9-aec2-4ae7-8ffe-7e7247d5fdd7","ios":"levelo://app?vid=079fb5e9-aec2-4ae7-8ffe-7e7247d5fdd7"},"vehicle_type_id":"4","last_reported":1700327127,"current_range_meters":18000,"station_id":"ce4bho92rcd13ifvqh4g","pricing_plan_id":"free"},{"bike_id":"1c489e8f-9c52-4563-a1a2-18535a1743aa","system_id":"levelo_inurba_marseille","lat":43.27995,"lon":5.40015,"is_reserved":false,"is_disabled":false,"rental_uris":{"android":"levelo://app?vid=1c489e8f-9c52-4563-a1a2-18535a1743aa","ios":"levelo://app?vid=1c489e8f-9c52-4563-a1a2-18535a1743aa"},"vehicle_type_id":"4","last_reported":1700327127,"current_range_meters":27200,"station_id":"ce4bho92rcd13ifvqh4g","pricing_plan_id":"free"},{"bike_id":"21a79381-c590-43fa-b57c-d9f763a4b9f0","system_id":"levelo_inurba_marseille","lat":43.279952,"lon":5.400085,"is_reserved":false,"is_disabled":false,"rental_uris":{"android":"levelo://app?vid=21a79381-c590-43fa-b57c-d9f763a4b9f0","ios":"levelo://app?vid=21a79381-c590-43fa-b57c-d9f763a4b9f0"},"vehicle_type_id":"4","last_reported":1700327127,"current_range_meters":31600,"station_id":"ce4bho92rcd13ifvqh4g","pricing_plan_id":"free"},{"bike_id":"ef1c6620-0330-4606-96e5-6c5e1567f762","system_id":"levelo_inurba_marseille","lat":43.279952,"lon":5.400085,"is_reserved":false,"is_disabled":false,"rental_uris":{"android":"levelo://app?vid=ef1c6620-0330-4606-96e5-6c5e1567f762","ios":"levelo://app?vid=ef1c6620-0330-4606-96e5-6c5e1567f762"},"vehicle_type_id":"4","last_reported":1700327127,"current_range_meters":29200,"station_id":"ce4bho92rcd13ifvqh4g","pricing_plan_id":"free"},{"bike_id":"1f675464-1fc9-4eb9-949d-be8a1f26b9d4","system_id":"levelo_inurba_marseille","lat":43.310827,"lon":5.42429,"is_reserved":false,"is_disabled":false,"rental_uris":{"android":"levelo://app?vid=1f675464-1fc9-4eb9-949d-be8a1f26b9d4","ios":"levelo://app?vid=1f675464-1fc9-4eb9-949d-be8a1f26b9d4"},"vehicle_type_id":"4","last_reported":1700327127,"current_range_meters":29200,"station_id":"ce4bhp92rcd13ifvqhag","pricing_plan_id":"free"},{"bike_id":"2eb9c8ea-eafc-4114-96e5-18995d764647","system_id":"levelo_inurba_marseille","lat":43.31081,"lon":5.42432,"is_reserved":false,"is_disabled":false,"rental_uris":{"android":"levelo://app?vid=2eb9c8ea-eafc-4114-96e5-18995d764647","ios":"levelo://app?vid=2eb9c8ea-eafc-4114-96e5-18995d764647"},"vehicle_type_id":"4","last_reported":1700327127,"current_range_meters":27200,"station_id":"ce4bhp92rcd13ifvqhag","pricing_plan_id":"free"},{"bike_id":"3a7b98b9-7ee6-4352-b93c-93a226bec689","system_id":"levelo_inurba_marseille","lat":43.27785,"lon":5.3994,"is_reserved":false,"is_disabled":false,"rental_uris":{"android":"levelo://app?vid=3a7b98b9-7ee6-4352-b93c-93a226bec689","ios":"levelo://app?vid=3a7b98b9-7ee6-4352-b93c-93a226bec689"},"vehicle_type_id":"4","last_reported":1700327127,"current_range_meters":0,"station_id":"","pricing_plan_id":"free"},{"bike_id":"63776645-b23a-48d4-91ea-1ecde9bde709","system_id":"levelo_inurba_marseille","lat":43.27362,"lon":5.39073,"is_reserved":false,"is_disabled":false,"rental_uris":{"android":"levelo://app?vid=63776645-b23a-48d4-91ea-1ecde9bde709","ios":"levelo://app?vid=63776645-b23a-48d4-91ea-1ecde9bde709"},"vehicle_type_id":"4","last_reported":1700327127,"current_range_meters":21600,"station_id":"","pricing_plan_id":"free"},{"bike_id":"4ac50ec0-aea0-44cd-a88c-80aaf3baea24","system_id":"levelo_inurba_marseille","lat":43.273129,"lon":5.390725,"is_reserved":false,"is_disabled":false,"rental_uris":{"android":"levelo://app?vid=4ac50ec0-aea0-44cd-a88c-80aaf3baea24","ios":"levelo://app?vid=4ac50ec0-aea0-44cd-a88c-80aaf3baea24"},"vehicle_type_id":"4","last_reported":1700327127,"current_range_meters":22400,"station_id":"ce4bhgp2rcd13ifvqfe0","pricing_plan_id":"free"},{"bike_id":"8b5885c1-9a54-469e-8e43-b4118c6dbd24","system_id":"levelo_inurba_marseille","lat":43.273129,"lon":5.390725,"is_reserved":false,"is_disabled":false,"rental_uris":{"android":"levelo://app?vid=8b5885c1-9a54-469e-8e43-b4118c6dbd24","ios":"levelo://app?vid=8b5885c1-9a54-469e-8e43-b4118c6dbd24"},"vehicle_type_id":"4","last_reported":1700327127,"current_range_meters":4800,"station_id":"ce4bhgp2rcd13ifvqfe0","pricing_plan_id":"free"},{"bike_id":"2903b51e-24bd-4a8e-8c95-eccce7785dc7","system_id":"levelo_inurba_marseille","lat":43.3042,"lon":5.42542,"is_reserved":false,"is_disabled":false,"rental_uris":{"android":"levelo://app?vid=2903b51e-24bd-4a8e-8c95-eccce7785dc7","ios":"levelo://app?vid=2903b51e-24bd-4a8e-8c95-eccce7785dc7"},"vehicle_type_id":"4","last_reported":1700327127,"current_range_meters":11200,"station_id":"ce4bhoh2rcd13ifvqh6g","pricing_plan_id":"free"},{"bike_id":"fff3c005-d696-4583-a396-99635991127b","system_id":"levelo_inurba_marseille","lat":43.29558,"lon":5.42284,"is_reserved":false,"is_disabled":false,"rental_uris":{"android":"levelo://app?vid=fff3c005-d696-4583-a396-99635991127b","ios":"levelo://app?vid=fff3c005-d696-4583-a396-99635991127b"},"vehicle_type_id":"4","last_reported":1700327127,"current_range_meters":22000,"station_id":"ce4bhph2rcd13ifvqhdg","pricing_plan_id":"free"},{"bike_id":"7d1f97b9-ee6c-4ac2-832f-ccde09d82150","system_id":"levelo_inurba_marseille","lat":43.29551,"lon":5.42281,"is_reserved":false,"is_disabled":false,"rental_uris":{"android":"levelo://app?vid=7d1f97b9-ee6c-4ac2-832f-ccde09d82150","ios":"levelo://app?vid=7d1f97b9-ee6c-4ac2-832f-ccde09d82150"},"vehicle_type_id":"4","last_reported":1700327127,"current_range_meters":12000,"station_id":"ce4bhph2rcd13ifvqhdg","pricing_plan_id":"free"},{"bike_id":"8eca73a7-bce3-4b86-a555-f300db5c54bb","system_id":"levelo_inurba_marseille","lat":43.295523,"lon":5.422926,"is_reserved":false,"is_disabled":false,"rental_uris":{"android":"levelo://app?vid=8eca73a7-bce3-4b86-a555-f300db5c54bb","ios":"levelo://app?vid=8eca73a7-bce3-4b86-a555-f300db5c54bb"},"vehicle_type_id":"4","last_reported":1700327127,"current_range_meters":20000,"station_id":"ce4bhph2rcd13ifvqhdg","pricing_plan_id":"free"},{"bike_id":"81c9054a-b03c-4b55-a969-e0c91b91fa2a","system_id":"levelo_inurba_marseille","lat":43.29558,"lon":5.42293,"is_reserved":false,"is_disabled":false,"rental_uris":{"android":"levelo://app?vid=81c9054a-b03c-4b55-a969-e0c91b91fa2a","ios":"levelo://app?vid=81c9054a-b03c-4b55-a969-e0c91b91fa2a"},"vehicle_type_id":"4","last_reported":1700327127,"current_range_meters":23200,"station_id":"ce4bhph2rcd13ifvqhdg","pricing_plan_id":"free"},{"bike_id":"4d584277-8090-41df-afb9-fcd63fc8efd2","system_id":"levelo_inurba_marseille","lat":43.272116,"lon":5.391747,"is_reserved":false,"is_disabled":false,"rental_uris":{"android":"levelo://app?vid=4d584277-8090-41df-afb9-fcd63fc8efd2","ios":"levelo://app?vid=4d584277-8090-41df-afb9-fcd63fc8efd2"},"vehicle_type_id":"4","last_reported":1700327127,"current_range_meters":8400,"station_id":"ce4bhhp2rcd13ifvqfm0","pricing_plan_id":"free"},{"bike_id":"f8f5619a-a183-461d-b100-453fb972fcd4","system_id":"levelo_inurba_marseille","lat":43.272118,"lon":5.391758,"is_reserved":false,"is_disabled":false,"rental_uris":{"android":"levelo://app?vid=f8f5619a-a183-461d-b100-453fb972fcd4","ios":"levelo://app?vid=f8f5619a-a183-461d-b100-453fb972fcd4"},"vehicle_type_id":"4","last_reported":1700327127,"current_range_meters":26000,"station_id":"ce4bhhp2rcd13ifvqfm0","pricing_plan_id":"free"},{"bike_id":"a977c11a-629f-40d1-87ce-1030f795ac71","system_id":"levelo_inurba_marseille","lat":43.272124,"lon":5.391768,"is_reserved":false,"is_disabled":false,"rental_uris":{"android":"levelo://app?vid=a977c11a-629f-40d1-87ce-1030f795ac71","ios":"levelo://app?vid=a977c11a-629f-40d1-87ce-1030f795ac71"},"vehicle_type_id":"4","last_reported":1700327127,"current_range_meters":21600,"station_id":"ce4bhhp2rcd13ifvqfm0","pricing_plan_id":"free"},{"bike_id":"c24c6ce9-e1d6-44cb-bf6c-b41bf8fbfefa","system_id":"levelo_inurba_marseille","lat":43.272118,"lon":5.391758,"is_reserved":false,"is_disabled":false,"rental_uris":{"android":"levelo://app?vid=c24c6ce9-e1d6-44cb-bf6c-b41bf8fbfefa","ios":"levelo://app?vid=c24c6ce9-e1d6-44cb-bf6c-b41bf8fbfefa"},"vehicle_type_id":"4","last_reported":1700327127,"current_range_meters":2000,"station_id":"ce4bhhp2rcd13ifvqfm0","pricing_plan_id":"free"},{"bike_id":"139753b1-0b83-4c3a-80f1-5052bac15461","system_id":"levelo_inurba_marseille","lat":43.272183,"lon":5.392396,"is_reserved":false,"is_disabled":false,"rental_uris":{"android":"levelo://app?vid=139753b1-0b83-4c3a-80f1-5052bac15461","ios":"levelo://app?vid=139753b1-0b83-4c3a-80f1-5052bac15461"},"vehicle_type_id":"4","last_reported":1700327127,"current_range_meters":9200,"station_id":"","pricing_plan_id":"free"},{"bike_id":"fe139271-7817-4645-9ec4-f7eee743e805","system_id":"levelo_inurba_marseille","lat":43.271896,"lon":5.392307,"is_reserved":false,"is_disabled":false,"rental_uris":{"android":"levelo://app?vid=fe139271-7817-4645-9ec4-f7eee743e805","ios":"levelo://app?vid=fe139271-7817-4645-9ec4-f7eee743e805"},"vehicle_type_id":"4","last_reported":1700327127,"current_range_meters":0,"station_id":"ce4bhhp2rcd13ifvqfm0","pricing_plan_id":"free"},{"bike_id":"f0ed4531-078e-42fb-a007-3ed80505eb54","system_id":"levelo_inurba_marseille","lat":43.271891,"lon":5.392412,"is_reserved":false,"is_disabled":false,"rental_uris":{"android":"levelo://app?vid=f0ed4531-078e-42fb-a007-3ed80505eb54","ios":"levelo://app?vid=f0ed4531-078e-42fb-a007-3ed80505eb54"},"vehicle_type_id":"4","last_reported":1700327127,"current_range_meters":6400,"station_id":"","pricing_plan_id":"free"},{"bike_id":"462126be-b935-4202-aab0-db26edf447e2","system_id":"levelo_inurba_marseille","lat":43.326111,"lon":5.427105,"is_reserved":false,"is_disabled":false,"rental_uris":{"android":"levelo://app?vid=462126be-b935-4202-aab0-db26edf447e2","ios":"levelo://app?vid=462126be-b935-4202-aab0-db26edf447e2"},"vehicle_type_id":"4","last_reported":1700327127,"current_range_meters":10800,"station_id":"","pricing_plan_id":"free"},{"bike_id":"027f7342-0b8c-4509-8cbb-c26666f28dd0","system_id":"levelo_inurba_marseille","lat":43.279465,"lon":5.410561,"is_reserved":false,"is_disabled":false,"rental_uris":{"android":"levelo://app?vid=027f7342-0b8c-4509-8cbb-c26666f28dd0","ios":"levelo://app?vid=027f7342-0b8c-4509-8cbb-c26666f28dd0"},"vehicle_type_id":"4","last_reported":1700327127,"current_range_meters":31200,"station_id":"ce4bhnp2rcd13ifvqh0g","pricing_plan_id":"free"},{"bike_id":"474f0885-4fc1-42fc-bc31-2d07f8c6b7dc","system_id":"levelo_inurba_marseille","lat":43.269319,"lon":5.389397,"is_reserved":false,"is_disabled":false,"rental_uris":{"android":"levelo://app?vid=474f0885-4fc1-42fc-bc31-2d07f8c6b7dc","ios":"levelo://app?vid=474f0885-4fc1-42fc-bc31-2d07f8c6b7dc"},"vehicle_type_id":"4","last_reported":1700327127,"current_range_meters":0,"station_id":"ce4bhhh2rcd13ifvqfl0","pricing_plan_id":"free"},{"bike_id":"d36cb19d-66e1-410f-a7ed-6351284a39aa","system_id":"levelo_inurba_marseille","lat":43.265714,"lon":5.372891,"is_reserved":false,"is_disabled":false,"rental_uris":{"android":"levelo://app?vid=d36cb19d-66e1-410f-a7ed-6351284a39aa","ios":"levelo://app?vid=d36cb19d-66e1-410f-a7ed-6351284a39aa"},"vehicle_type_id":"4","last_reported":1700327127,"current_range_meters":30800,"station_id":"ce4bhg12rcd13ifvqf70","pricing_plan_id":"free"},{"bike_id":"c7758cb2-2a45-4f89-aa5c-0e391d845c76","system_id":"levelo_inurba_marseille","lat":43.326053,"lon":5.429943,"is_reserved":false,"is_disabled":false,"rental_uris":{"android":"levelo://app?vid=c7758cb2-2a45-4f89-aa5c-0e391d845c76","ios":"levelo://app?vid=c7758cb2-2a45-4f89-aa5c-0e391d845c76"},"vehicle_type_id":"4","last_reported":1700327127,"current_range_meters":3600,"station_id":"","pricing_plan_id":"free"},{"bike_id":"42871d3b-8c03-490f-baf1-f4b57c44a331","system_id":"levelo_inurba_marseille","lat":43.326328,"lon":5.430804,"is_reserved":false,"is_disabled":false,"rental_uris":{"android":"levelo://app?vid=42871d3b-8c03-490f-baf1-f4b57c44a331","ios":"levelo://app?vid=42871d3b-8c03-490f-baf1-f4b57c44a331"},"vehicle_type_id":"4","last_reported":1700327127,"current_range_meters":17200,"station_id":"","pricing_plan_id":"free"},{"bike_id":"75bf6e14-f416-4982-9b29-f5570f760620","system_id":"levelo_inurba_marseille","lat":43.27996,"lon":5.416624,"is_reserved":false,"is_disabled":false,"rental_uris":{"android":"levelo://app?vid=75bf6e14-f416-4982-9b29-f5570f760620","ios":"levelo://app?vid=75bf6e14-f416-4982-9b29-f5570f760620"},"vehicle_type_id":"4","last_reported":1700327127,"current_range_meters":3200,"station_id":"ce4bho12rcd13ifvqh1g","pricing_plan_id":"free"},{"bike_id":"2f4112c3-1383-4a13-a032-b05e2e74734a","system_id":"levelo_inurba_marseille","lat":43.27996,"lon":5.416624,"is_reserved":false,"is_disabled":false,"rental_uris":{"android":"levelo://app?vid=2f4112c3-1383-4a13-a032-b05e2e74734a","ios":"levelo://app?vid=2f4112c3-1383-4a13-a032-b05e2e74734a"},"vehicle_type_id":"4","last_reported":1700327127,"current_range_meters":3200,"station_id":"ce4bho12rcd13ifvqh1g","pricing_plan_id":"free"},{"bike_id":"620a3c54-c782-4192-844a-c1ac11de35a9","system_id":"levelo_inurba_marseille","lat":43.265714,"lon":5.372891,"is_reserved":false,"is_disabled":false,"rental_uris":{"android":"levelo://app?vid=620a3c54-c782-4192-844a-c1ac11de35a9","ios":"levelo://app?vid=620a3c54-c782-4192-844a-c1ac11de35a9"},"vehicle_type_id":"4","last_reported":1700327127,"current_range_meters":0,"station_id":"ce4bhg12rcd13ifvqf70","pricing_plan_id":"free"},{"bike_id":"460a16d8-049f-4cdb-b5ce-f0c3ea4d5067","system_id":"levelo_inurba_marseille","lat":43.265873,"lon":5.39001,"is_reserved":false,"is_disabled":false,"rental_uris":{"android":"levelo://app?vid=460a16d8-049f-4cdb-b5ce-f0c3ea4d5067","ios":"levelo://app?vid=460a16d8-049f-4cdb-b5ce-f0c3ea4d5067"},"vehicle_type_id":"4","last_reported":1700327127,"current_range_meters":0,"station_id":"ce4bhe12rcd13ifvqf30","pricing_plan_id":"free"},{"bike_id":"19dac04f-44ff-4156-8da1-33213b8dbe37","system_id":"levelo_inurba_marseille","lat":43.265569,"lon":5.390047,"is_reserved":false,"is_disabled":false,"rental_uris":{"android":"levelo://app?vid=19dac04f-44ff-4156-8da1-33213b8dbe37","ios":"levelo://app?vid=19dac04f-44ff-4156-8da1-33213b8dbe37"},"vehicle_type_id":"4","last_reported":1700327127,"current_range_meters":28000,"station_id":"ce4bhe12rcd13ifvqf30","pricing_plan_id":"free"},{"bike_id":"ab5d91c6-541b-47da-8202-456e46ce6b5a","system_id":"levelo_inurba_marseille","lat":43.265569,"lon":5.390047,"is_reserved":false,"is_disabled":false,"rental_uris":{"android":"levelo://app?vid=ab5d91c6-541b-47da-8202-456e46ce6b5a","ios":"levelo://app?vid=ab5d91c6-541b-47da-8202-456e46ce6b5a"},"vehicle_type_id":"4","last_reported":1700327127,"current_range_meters":11200,"station_id":"ce4bhe12rcd13ifvqf30","pricing_plan_id":"free"},{"bike_id":"402ce496-bef0-404f-a774-cbcbc259eb90","system_id":"levelo_inurba_marseille","lat":43.26571,"lon":5.39015,"is_reserved":false,"is_disabled":false,"rental_uris":{"android":"levelo://app?vid=402ce496-bef0-404f-a774-cbcbc259eb90","ios":"levelo://app?vid=402ce496-bef0-404f-a774-cbcbc259eb90"},"vehicle_type_id":"4","last_reported":1700327127,"current_range_meters":23600,"station_id":"ce4bhe12rcd13ifvqf30","pricing_plan_id":"free"},{"bike_id":"5229d78a-47de-43fe-94e7-df61c53cafae","system_id":"levelo_inurba_marseille","lat":43.265569,"lon":5.390047,"is_reserved":false,"is_disabled":false,"rental_uris":{"android":"levelo://app?vid=5229d78a-47de-43fe-94e7-df61c53cafae","ios":"levelo://app?vid=5229d78a-47de-43fe-94e7-df61c53cafae"},"vehicle_type_id":"4","last_reported":1700327127,"current_range_meters":1200,"station_id":"ce4bhe12rcd13ifvqf30","pricing_plan_id":"free"},{"bike_id":"f7590c1c-df45-40f0-bf0b-62ed9689b376","system_id":"levelo_inurba_marseille","lat":43.265571,"lon":5.390032,"is_reserved":false,"is_disabled":false,"rental_uris":{"android":"levelo://app?vid=f7590c1c-df45-40f0-bf0b-62ed9689b376","ios":"levelo://app?vid=f7590c1c-df45-40f0-bf0b-62ed9689b376"},"vehicle_type_id":"4","last_reported":1700327127,"current_range_meters":26400,"station_id":"ce4bhe12rcd13ifvqf30","pricing_plan_id":"free"},{"bike_id":"b56a6d6f-8d83-4500-8a42-2e819ea77445","system_id":"levelo_inurba_marseille","lat":43.265498,"lon":5.390098,"is_reserved":false,"is_disabled":false,"rental_uris":{"android":"levelo://app?vid=b56a6d6f-8d83-4500-8a42-2e819ea77445","ios":"levelo://app?vid=b56a6d6f-8d83-4500-8a42-2e819ea77445"},"vehicle_type_id":"4","last_reported":1700327127,"current_range_meters":12000,"station_id":"ce4bhe12rcd13ifvqf30","pricing_plan_id":"free"},{"bike_id":"6db8fb69-0626-4574-bb1e-0b47b0dacfba","system_id":"levelo_inurba_marseille","lat":43.26946,"lon":5.40244,"is_reserved":false,"is_disabled":false,"rental_uris":{"android":"levelo://app?vid=6db8fb69-0626-4574-bb1e-0b47b0dacfba","ios":"levelo://app?vid=6db8fb69-0626-4574-bb1e-0b47b0dacfba"},"vehicle_type_id":"4","last_reported":1700327127,"current_range_meters":0,"station_id":"cjm6bp8fraef2m0cb0m0","pricing_plan_id":"free"},{"bike_id":"d077710c-062f-4bb5-bc07-f925193fbbe9","system_id":"levelo_inurba_marseille","lat":43.31711,"lon":5.43706,"is_reserved":false,"is_disabled":false,"rental_uris":{"android":"levelo://app?vid=d077710c-062f-4bb5-bc07-f925193fbbe9","ios":"levelo://app?vid=d077710c-062f-4bb5-bc07-f925193fbbe9"},"vehicle_type_id":"4","last_reported":1700327127,"current_range_meters":6400,"station_id":"ce4bhp92rcd13ifvqhcg","pricing_plan_id":"free"},{"bike_id":"584c5199-357e-4900-bd58-cb216b28e7ac","system_id":"levelo_inurba_marseille","lat":43.317104,"lon":5.436818,"is_reserved":false,"is_disabled":false,"rental_uris":{"android":"levelo://app?vid=584c5199-357e-4900-bd58-cb216b28e7ac","ios":"levelo://app?vid=584c5199-357e-4900-bd58-cb216b28e7ac"},"vehicle_type_id":"4","last_reported":1700327127,"current_range_meters":28400,"station_id":"ce4bhp92rcd13ifvqhcg","pricing_plan_id":"free"},{"bike_id":"802ce0a4-d556-447b-bd93-4352fcbc5e24","system_id":"levelo_inurba_marseille","lat":43.317104,"lon":5.436818,"is_reserved":false,"is_disabled":false,"rental_uris":{"android":"levelo://app?vid=802ce0a4-d556-447b-bd93-4352fcbc5e24","ios":"levelo://app?vid=802ce0a4-d556-447b-bd93-4352fcbc5e24"},"vehicle_type_id":"4","last_reported":1700327127,"current_range_meters":31200,"station_id":"ce4bhp92rcd13ifvqhcg","pricing_plan_id":"free"},{"bike_id":"8b76f50b-f6e2-47f0-a783-08b06ed997ea","system_id":"levelo_inurba_marseille","lat":43.31712,"lon":5.43709,"is_reserved":false,"is_disabled":false,"rental_uris":{"android":"levelo://app?vid=8b76f50b-f6e2-47f0-a783-08b06ed997ea","ios":"levelo://app?vid=8b76f50b-f6e2-47f0-a783-08b06ed997ea"},"vehicle_type_id":"4","last_reported":1700327127,"current_range_meters":4800,"station_id":"ce4bhp92rcd13ifvqhcg","pricing_plan_id":"free"},{"bike_id":"555c7a59-3825-4d1d-aa0c-d8563490d9db","system_id":"levelo_inurba_marseille","lat":43.271388,"lon":5.409269,"is_reserved":false,"is_disabled":false,"rental_uris":{"android":"levelo://app?vid=555c7a59-3825-4d1d-aa0c-d8563490d9db","ios":"levelo://app?vid=555c7a59-3825-4d1d-aa0c-d8563490d9db"},"vehicle_type_id":"4","last_reported":1700327127,"current_range_meters":28800,"station_id":"ce4bhl12rcd13ifvqgf0","pricing_plan_id":"free"},{"bike_id":"74ce853b-0d8b-42c9-81c8-17a7564a4b34","system_id":"levelo_inurba_marseille","lat":43.31725,"lon":5.43786,"is_reserved":false,"is_disabled":false,"rental_uris":{"android":"levelo://app?vid=74ce853b-0d8b-42c9-81c8-17a7564a4b34","ios":"levelo://app?vid=74ce853b-0d8b-42c9-81c8-17a7564a4b34"},"vehicle_type_id":"4","last_reported":1700327127,"current_range_meters":18000,"station_id":"","pricing_plan_id":"free"},{"bike_id":"1046635b-c1e6-41f1-8dbc-d28bbd202581","system_id":"levelo_inurba_marseille","lat":43.298768,"lon":5.43643,"is_reserved":false,"is_disabled":false,"rental_uris":{"android":"levelo://app?vid=1046635b-c1e6-41f1-8dbc-d28bbd202581","ios":"levelo://app?vid=1046635b-c1e6-41f1-8dbc-d28bbd202581"},"vehicle_type_id":"4","last_reported":1700327127,"current_range_meters":13600,"station_id":"ce4bhpp2rcd13ifvqhfg","pricing_plan_id":"free"},{"bike_id":"e519433d-e174-46ac-866c-5aa69d990273","system_id":"levelo_inurba_marseille","lat":43.28152,"lon":5.42642,"is_reserved":false,"is_disabled":false,"rental_uris":{"android":"levelo://app?vid=e519433d-e174-46ac-866c-5aa69d990273","ios":"levelo://app?vid=e519433d-e174-46ac-866c-5aa69d990273"},"vehicle_type_id":"4","last_reported":1700327127,"current_range_meters":22800,"station_id":"ce4bhnh2rcd13ifvqgug","pricing_plan_id":"free"},{"bike_id":"ba343a96-b108-42f1-a93c-b6a851b91747","system_id":"levelo_inurba_marseille","lat":43.281548,"lon":5.42643,"is_reserved":false,"is_disabled":false,"rental_uris":{"android":"levelo://app?vid=ba343a96-b108-42f1-a93c-b6a851b91747","ios":"levelo://app?vid=ba343a96-b108-42f1-a93c-b6a851b91747"},"vehicle_type_id":"4","last_reported":1700327127,"current_range_meters":31200,"station_id":"ce4bhnh2rcd13ifvqgug","pricing_plan_id":"free"},{"bike_id":"d88b6a73-531b-425a-9e55-b97c354f59a2","system_id":"levelo_inurba_marseille","lat":43.32276,"lon":5.43926,"is_reserved":false,"is_disabled":false,"rental_uris":{"android":"levelo://app?vid=d88b6a73-531b-425a-9e55-b97c354f59a2","ios":"levelo://app?vid=d88b6a73-531b-425a-9e55-b97c354f59a2"},"vehicle_type_id":"4","last_reported":1700327127,"current_range_meters":28800,"station_id":"","pricing_plan_id":"free"},{"bike_id":"52c2449e-ba19-42b2-a2b7-5e9532985598","system_id":"levelo_inurba_marseille","lat":43.32279,"lon":5.43926,"is_reserved":false,"is_disabled":false,"rental_uris":{"android":"levelo://app?vid=52c2449e-ba19-42b2-a2b7-5e9532985598","ios":"levelo://app?vid=52c2449e-ba19-42b2-a2b7-5e9532985598"},"vehicle_type_id":"4","last_reported":1700327127,"current_range_meters":15600,"station_id":"","pricing_plan_id":"free"},{"bike_id":"69848573-3f73-446b-a8d4-d8aca6d1ea66","system_id":"levelo_inurba_marseille","lat":43.275028,"lon":5.424534,"is_reserved":false,"is_disabled":false,"rental_uris":{"android":"levelo://app?vid=69848573-3f73-446b-a8d4-d8aca6d1ea66","ios":"levelo://app?vid=69848573-3f73-446b-a8d4-d8aca6d1ea66"},"vehicle_type_id":"4","last_reported":1700327127,"current_range_meters":800,"station_id":"ce4bhn92rcd13ifvqgrg","pricing_plan_id":"free"},{"bike_id":"25abf784-f08d-493b-b686-dbe040ac3c01","system_id":"levelo_inurba_marseille","lat":43.25585,"lon":5.38228,"is_reserved":false,"is_disabled":false,"rental_uris":{"android":"levelo://app?vid=25abf784-f08d-493b-b686-dbe040ac3c01","ios":"levelo://app?vid=25abf784-f08d-493b-b686-dbe040ac3c01"},"vehicle_type_id":"4","last_reported":1700327127,"current_range_meters":14000,"station_id":"ce4bhih2rcd13ifvqfs0","pricing_plan_id":"free"},{"bike_id":"1fc93aaa-e6b4-49b7-a708-3eb584645577","system_id":"levelo_inurba_marseille","lat":43.25582,"lon":5.38237,"is_reserved":false,"is_disabled":false,"rental_uris":{"android":"levelo://app?vid=1fc93aaa-e6b4-49b7-a708-3eb584645577","ios":"levelo://app?vid=1fc93aaa-e6b4-49b7-a708-3eb584645577"},"vehicle_type_id":"4","last_reported":1700327127,"current_range_meters":31200,"station_id":"ce4bhih2rcd13ifvqfs0","pricing_plan_id":"free"},{"bike_id":"3a480770-ac23-4cce-bd78-fa12fa1a312a","system_id":"levelo_inurba_marseille","lat":43.25581,"lon":5.38232,"is_reserved":false,"is_disabled":false,"rental_uris":{"android":"levelo://app?vid=3a480770-ac23-4cce-bd78-fa12fa1a312a","ios":"levelo://app?vid=3a480770-ac23-4cce-bd78-fa12fa1a312a"},"vehicle_type_id":"4","last_reported":1700327127,"current_range_meters":31200,"station_id":"ce4bhih2rcd13ifvqfs0","pricing_plan_id":"free"},{"bike_id":"893e0dc0-d574-480c-a82b-93db070a51ce","system_id":"levelo_inurba_marseille","lat":43.255805,"lon":5.382375,"is_reserved":false,"is_disabled":false,"rental_uris":{"android":"levelo://app?vid=893e0dc0-d574-480c-a82b-93db070a51ce","ios":"levelo://app?vid=893e0dc0-d574-480c-a82b-93db070a51ce"},"vehicle_type_id":"4","last_reported":1700327127,"current_range_meters":31200,"station_id":"ce4bhih2rcd13ifvqfs0","pricing_plan_id":"free"},{"bike_id":"bdc2fd0b-f2c1-48a7-a9fa-38e63540b3e2","system_id":"levelo_inurba_marseille","lat":43.255782,"lon":5.382348,"is_reserved":false,"is_disabled":false,"rental_uris":{"android":"levelo://app?vid=bdc2fd0b-f2c1-48a7-a9fa-38e63540b3e2","ios":"levelo://app?vid=bdc2fd0b-f2c1-48a7-a9fa-38e63540b3e2"},"vehicle_type_id":"4","last_reported":1700327127,"current_range_meters":30400,"station_id":"ce4bhih2rcd13ifvqfs0","pricing_plan_id":"free"},{"bike_id":"6b2ee0bc-5c1f-4343-a356-b3f7feb7b9d3","system_id":"levelo_inurba_marseille","lat":43.25579,"lon":5.38241,"is_reserved":false,"is_disabled":false,"rental_uris":{"android":"levelo://app?vid=6b2ee0bc-5c1f-4343-a356-b3f7feb7b9d3","ios":"levelo://app?vid=6b2ee0bc-5c1f-4343-a356-b3f7feb7b9d3"},"vehicle_type_id":"4","last_reported":1700327127,"current_range_meters":31200,"station_id":"ce4bhih2rcd13ifvqfs0","pricing_plan_id":"free"},{"bike_id":"4b32d214-ff75-4fe9-a4b8-de1fde4b2ebb","system_id":"levelo_inurba_marseille","lat":43.25574,"lon":5.3824,"is_reserved":false,"is_disabled":false,"rental_uris":{"android":"levelo://app?vid=4b32d214-ff75-4fe9-a4b8-de1fde4b2ebb","ios":"levelo://app?vid=4b32d214-ff75-4fe9-a4b8-de1fde4b2ebb"},"vehicle_type_id":"4","last_reported":1700327127,"current_range_meters":31200,"station_id":"ce4bhih2rcd13ifvqfs0","pricing_plan_id":"free"},{"bike_id":"040ddc83-c8ad-4ed7-9404-44656bc082d4","system_id":"levelo_inurba_marseille","lat":43.25565,"lon":5.38243,"is_reserved":false,"is_disabled":false,"rental_uris":{"android":"levelo://app?vid=040ddc83-c8ad-4ed7-9404-44656bc082d4","ios":"levelo://app?vid=040ddc83-c8ad-4ed7-9404-44656bc082d4"},"vehicle_type_id":"4","last_reported":1700327127,"current_range_meters":30800,"station_id":"ce4bhih2rcd13ifvqfs0","pricing_plan_id":"free"},{"bike_id":"fd237f35-1833-46db-927e-f0d8c6a45315","system_id":"levelo_inurba_marseille","lat":43.254947,"lon":5.376454,"is_reserved":false,"is_disabled":false,"rental_uris":{"android":"levelo://app?vid=fd237f35-1833-46db-927e-f0d8c6a45315","ios":"levelo://app?vid=fd237f35-1833-46db-927e-f0d8c6a45315"},"vehicle_type_id":"4","last_reported":1700327127,"current_range_meters":4000,"station_id":"ce4bhh12rcd13ifvqff0","pricing_plan_id":"free"},{"bike_id":"4497bd3f-58b9-4c53-a33e-d23593111a30","system_id":"levelo_inurba_marseille","lat":43.25929,"lon":5.40909,"is_reserved":false,"is_disabled":false,"rental_uris":{"android":"levelo://app?vid=4497bd3f-58b9-4c53-a33e-d23593111a30","ios":"levelo://app?vid=4497bd3f-58b9-4c53-a33e-d23593111a30"},"vehicle_type_id":"4","last_reported":1700327127,"current_range_meters":31600,"station_id":"ce4bhm92rcd13ifvqglg","pricing_plan_id":"free"},{"bike_id":"c066fd2a-8fee-4202-8f47-33f36da84f5d","system_id":"levelo_inurba_marseille","lat":43.257079,"lon":5.411051,"is_reserved":false,"is_disabled":false,"rental_uris":{"android":"levelo://app?vid=c066fd2a-8fee-4202-8f47-33f36da84f5d","ios":"levelo://app?vid=c066fd2a-8fee-4202-8f47-33f36da84f5d"},"vehicle_type_id":"4","last_reported":1700327127,"current_range_meters":24800,"station_id":"ce4bhkp2rcd13ifvqgd0","pricing_plan_id":"free"},{"bike_id":"2ec54442-9a7a-413a-8cba-5a34c7425524","system_id":"levelo_inurba_marseille","lat":43.25006,"lon":5.38923,"is_reserved":false,"is_disabled":false,"rental_uris":{"android":"levelo://app?vid=2ec54442-9a7a-413a-8cba-5a34c7425524","ios":"levelo://app?vid=2ec54442-9a7a-413a-8cba-5a34c7425524"},"vehicle_type_id":"4","last_reported":1700327127,"current_range_meters":0,"station_id":"ce4bhgp2rcd13ifvqfd0","pricing_plan_id":"free"},{"bike_id":"6ff2e125-027c-40b0-9f76-2fd7cfd714d8","system_id":"levelo_inurba_marseille","lat":43.24813,"lon":5.37458,"is_reserved":false,"is_disabled":false,"rental_uris":{"android":"levelo://app?vid=6ff2e125-027c-40b0-9f76-2fd7cfd714d8","ios":"levelo://app?vid=6ff2e125-027c-40b0-9f76-2fd7cfd714d8"},"vehicle_type_id":"4","last_reported":1700327127,"current_range_meters":26800,"station_id":"ce4bhgh2rcd13ifvqfb0","pricing_plan_id":"free"},{"bike_id":"15fa474a-ae59-44db-a89f-fdb712084b29","system_id":"levelo_inurba_marseille","lat":43.2479,"lon":5.374457,"is_reserved":false,"is_disabled":false,"rental_uris":{"android":"levelo://app?vid=15fa474a-ae59-44db-a89f-fdb712084b29","ios":"levelo://app?vid=15fa474a-ae59-44db-a89f-fdb712084b29"},"vehicle_type_id":"4","last_reported":1700327127,"current_range_meters":4400,"station_id":"ce4bhgh2rcd13ifvqfb0","pricing_plan_id":"free"},{"bike_id":"e15b8913-bc9e-45e6-b40a-547533f1eb20","system_id":"levelo_inurba_marseille","lat":43.2479,"lon":5.374457,"is_reserved":false,"is_disabled":false,"rental_uris":{"android":"levelo://app?vid=e15b8913-bc9e-45e6-b40a-547533f1eb20","ios":"levelo://app?vid=e15b8913-bc9e-45e6-b40a-547533f1eb20"},"vehicle_type_id":"4","last_reported":1700327127,"current_range_meters":28000,"station_id":"ce4bhgh2rcd13ifvqfb0","pricing_plan_id":"free"},{"bike_id":"8f7721e0-6bc4-451e-a5a0-2220afd5f0c3","system_id":"levelo_inurba_marseille","lat":43.25102,"lon":5.403214,"is_reserved":false,"is_disabled":false,"rental_uris":{"android":"levelo://app?vid=8f7721e0-6bc4-451e-a5a0-2220afd5f0c3","ios":"levelo://app?vid=8f7721e0-6bc4-451e-a5a0-2220afd5f0c3"},"vehicle_type_id":"4","last_reported":1700327127,"current_range_meters":1200,"station_id":"ce4bhlh2rcd13ifvqgig","pricing_plan_id":"free"},{"bike_id":"0d959971-6662-4b6b-840a-776a9f257493","system_id":"levelo_inurba_marseille","lat":43.25102,"lon":5.403214,"is_reserved":false,"is_disabled":false,"rental_uris":{"android":"levelo://app?vid=0d959971-6662-4b6b-840a-776a9f257493","ios":"levelo://app?vid=0d959971-6662-4b6b-840a-776a9f257493"},"vehicle_type_id":"4","last_reported":1700327127,"current_range_meters":0,"station_id":"ce4bhlh2rcd13ifvqgig","pricing_plan_id":"free"},{"bike_id":"61964f84-c7f7-432b-a064-8ecc06e40e42","system_id":"levelo_inurba_marseille","lat":43.243884,"lon":5.370736,"is_reserved":false,"is_disabled":false,"rental_uris":{"android":"levelo://app?vid=61964f84-c7f7-432b-a064-8ecc06e40e42","ios":"levelo://app?vid=61964f84-c7f7-432b-a064-8ecc06e40e42"},"vehicle_type_id":"4","last_reported":1700327127,"current_range_meters":3600,"station_id":"ce4bhhh2rcd13ifvqfk0","pricing_plan_id":"free"},{"bike_id":"242e4ec9-12c9-432d-9c60-a4a642209794","system_id":"levelo_inurba_marseille","lat":43.24545,"lon":5.39528,"is_reserved":false,"is_disabled":false,"rental_uris":{"android":"levelo://app?vid=242e4ec9-12c9-432d-9c60-a4a642209794","ios":"levelo://app?vid=242e4ec9-12c9-432d-9c60-a4a642209794"},"vehicle_type_id":"4","last_reported":1700327127,"current_range_meters":7600,"station_id":"ce4bhlp2rcd13ifvqgjg","pricing_plan_id":"free"},{"bike_id":"693cc2c5-7e95-40dc-b1ad-f57fddabf34b","system_id":"levelo_inurba_marseille","lat":43.245581,"lon":5.395069,"is_reserved":false,"is_disabled":false,"rental_uris":{"android":"levelo://app?vid=693cc2c5-7e95-40dc-b1ad-f57fddabf34b","ios":"levelo://app?vid=693cc2c5-7e95-40dc-b1ad-f57fddabf34b"},"vehicle_type_id":"4","last_reported":1700327127,"current_range_meters":27200,"station_id":"ce4bhlp2rcd13ifvqgjg","pricing_plan_id":"free"},{"bike_id":"e372efd2-f8e1-4612-9524-d2f55833dd19","system_id":"levelo_inurba_marseille","lat":43.24075,"lon":5.37761,"is_reserved":false,"is_disabled":false,"rental_uris":{"android":"levelo://app?vid=e372efd2-f8e1-4612-9524-d2f55833dd19","ios":"levelo://app?vid=e372efd2-f8e1-4612-9524-d2f55833dd19"},"vehicle_type_id":"4","last_reported":1700327127,"current_range_meters":18800,"station_id":"ce4bhnp2rcd13ifvqgvg","pricing_plan_id":"free"},{"bike_id":"5a980be7-c7ae-42db-bd64-63cc5cf9e0f6","system_id":"levelo_inurba_marseille","lat":43.240737,"lon":5.377631,"is_reserved":false,"is_disabled":false,"rental_uris":{"android":"levelo://app?vid=5a980be7-c7ae-42db-bd64-63cc5cf9e0f6","ios":"levelo://app?vid=5a980be7-c7ae-42db-bd64-63cc5cf9e0f6"},"vehicle_type_id":"4","last_reported":1700327127,"current_range_meters":31200,"station_id":"ce4bhnp2rcd13ifvqgvg","pricing_plan_id":"free"},{"bike_id":"b7ad8b76-3a1b-4631-a1f8-cbd38dd30c19","system_id":"levelo_inurba_marseille","lat":43.24073,"lon":5.37762,"is_reserved":false,"is_disabled":false,"rental_uris":{"android":"levelo://app?vid=b7ad8b76-3a1b-4631-a1f8-cbd38dd30c19","ios":"levelo://app?vid=b7ad8b76-3a1b-4631-a1f8-cbd38dd30c19"},"vehicle_type_id":"4","last_reported":1700327127,"current_range_meters":24000,"station_id":"ce4bhnp2rcd13ifvqgvg","pricing_plan_id":"free"},{"bike_id":"ed419b13-266f-407c-bf9b-711a3ecbb865","system_id":"levelo_inurba_marseille","lat":43.24072,"lon":5.37759,"is_reserved":false,"is_disabled":false,"rental_uris":{"android":"levelo://app?vid=ed419b13-266f-407c-bf9b-711a3ecbb865","ios":"levelo://app?vid=ed419b13-266f-407c-bf9b-711a3ecbb865"},"vehicle_type_id":"4","last_reported":1700327127,"current_range_meters":23600,"station_id":"ce4bhnp2rcd13ifvqgvg","pricing_plan_id":"free"},{"bike_id":"a759d4ef-ae01-4e76-9f99-0530261038e0","system_id":"levelo_inurba_marseille","lat":43.24072,"lon":5.37763,"is_reserved":false,"is_disabled":false,"rental_uris":{"android":"levelo://app?vid=a759d4ef-ae01-4e76-9f99-0530261038e0","ios":"levelo://app?vid=a759d4ef-ae01-4e76-9f99-0530261038e0"},"vehicle_type_id":"4","last_reported":1700327127,"current_range_meters":4400,"station_id":"ce4bhnp2rcd13ifvqgvg","pricing_plan_id":"free"},{"bike_id":"86a0aa5a-5652-467d-92bf-bfd0f3f5294a","system_id":"levelo_inurba_marseille","lat":43.240718,"lon":5.377676,"is_reserved":false,"is_disabled":false,"rental_uris":{"android":"levelo://app?vid=86a0aa5a-5652-467d-92bf-bfd0f3f5294a","ios":"levelo://app?vid=86a0aa5a-5652-467d-92bf-bfd0f3f5294a"},"vehicle_type_id":"4","last_reported":1700327127,"current_range_meters":30000,"station_id":"ce4bhnp2rcd13ifvqgvg","pricing_plan_id":"free"},{"bike_id":"b17abfb9-7775-45d9-aa1e-bf036e6fdf06","system_id":"levelo_inurba_marseille","lat":43.24071,"lon":5.37759,"is_reserved":false,"is_disabled":false,"rental_uris":{"android":"levelo://app?vid=b17abfb9-7775-45d9-aa1e-bf036e6fdf06","ios":"levelo://app?vid=b17abfb9-7775-45d9-aa1e-bf036e6fdf06"},"vehicle_type_id":"4","last_reported":1700327127,"current_range_meters":27200,"station_id":"ce4bhnp2rcd13ifvqgvg","pricing_plan_id":"free"},{"bike_id":"41efc39b-2b40-4934-a650-64a0ed67d548","system_id":"levelo_inurba_marseille","lat":43.240671,"lon":5.377081,"is_reserved":false,"is_disabled":false,"rental_uris":{"android":"levelo://app?vid=41efc39b-2b40-4934-a650-64a0ed67d548","ios":"levelo://app?vid=41efc39b-2b40-4934-a650-64a0ed67d548"},"vehicle_type_id":"4","last_reported":1700327127,"current_range_meters":0,"station_id":"ce4bhnp2rcd13ifvqgvg","pricing_plan_id":"free"},{"bike_id":"db4af865-3d76-4b2d-b149-75b45c61d843","system_id":"levelo_inurba_marseille","lat":43.240623,"lon":5.377642,"is_reserved":false,"is_disabled":false,"rental_uris":{"android":"levelo://app?vid=db4af865-3d76-4b2d-b149-75b45c61d843","ios":"levelo://app?vid=db4af865-3d76-4b2d-b149-75b45c61d843"},"vehicle_type_id":"4","last_reported":1700327127,"current_range_meters":9200,"station_id":"ce4bhnp2rcd13ifvqgvg","pricing_plan_id":"free"},{"bike_id":"8f3a5da5-e450-44c1-b7f2-7006197e8e0e","system_id":"levelo_inurba_marseille","lat":43.240623,"lon":5.377642,"is_reserved":false,"is_disabled":false,"rental_uris":{"android":"levelo://app?vid=8f3a5da5-e450-44c1-b7f2-7006197e8e0e","ios":"levelo://app?vid=8f3a5da5-e450-44c1-b7f2-7006197e8e0e"},"vehicle_type_id":"4","last_reported":1700327127,"current_range_meters":31600,"station_id":"ce4bhnp2rcd13ifvqgvg","pricing_plan_id":"free"},{"bike_id":"3cc5da47-2ffd-4e24-8283-b9644a8e09df","system_id":"levelo_inurba_marseille","lat":43.240623,"lon":5.377642,"is_reserved":false,"is_disabled":false,"rental_uris":{"android":"levelo://app?vid=3cc5da47-2ffd-4e24-8283-b9644a8e09df","ios":"levelo://app?vid=3cc5da47-2ffd-4e24-8283-b9644a8e09df"},"vehicle_type_id":"4","last_reported":1700327127,"current_range_meters":31200,"station_id":"ce4bhnp2rcd13ifvqgvg","pricing_plan_id":"free"},{"bike_id":"644e4169-0038-4ddc-858f-d374fe4275d0","system_id":"levelo_inurba_marseille","lat":43.239588,"lon":5.366238,"is_reserved":false,"is_disabled":false,"rental_uris":{"android":"levelo://app?vid=644e4169-0038-4ddc-858f-d374fe4275d0","ios":"levelo://app?vid=644e4169-0038-4ddc-858f-d374fe4275d0"},"vehicle_type_id":"4","last_reported":1700327127,"current_range_meters":25600,"station_id":"ce4bhi12rcd13ifvqfp0","pricing_plan_id":"free"},{"bike_id":"cb017f51-a091-4785-8843-e2b4f3968fd6","system_id":"levelo_inurba_marseille","lat":43.241782,"lon":5.397261,"is_reserved":false,"is_disabled":false,"rental_uris":{"android":"levelo://app?vid=cb017f51-a091-4785-8843-e2b4f3968fd6","ios":"levelo://app?vid=cb017f51-a091-4785-8843-e2b4f3968fd6"},"vehicle_type_id":"4","last_reported":1700327127,"current_range_meters":3200,"station_id":"ce4bhn12rcd13ifvqgpg","pricing_plan_id":"free"},{"bike_id":"4370869b-0c59-4e1b-b4c7-59bf3a7bc50e","system_id":"levelo_inurba_marseille","lat":43.241782,"lon":5.397264,"is_reserved":false,"is_disabled":false,"rental_uris":{"android":"levelo://app?vid=4370869b-0c59-4e1b-b4c7-59bf3a7bc50e","ios":"levelo://app?vid=4370869b-0c59-4e1b-b4c7-59bf3a7bc50e"},"vehicle_type_id":"4","last_reported":1700327127,"current_range_meters":18000,"station_id":"ce4bhn12rcd13ifvqgpg","pricing_plan_id":"free"},{"bike_id":"99cc6b38-3aad-4c65-a2a0-1c4ce9965de4","system_id":"levelo_inurba_marseille","lat":43.241782,"lon":5.397261,"is_reserved":false,"is_disabled":false,"rental_uris":{"android":"levelo://app?vid=99cc6b38-3aad-4c65-a2a0-1c4ce9965de4","ios":"levelo://app?vid=99cc6b38-3aad-4c65-a2a0-1c4ce9965de4"},"vehicle_type_id":"4","last_reported":1700327127,"current_range_meters":18800,"station_id":"ce4bhn12rcd13ifvqgpg","pricing_plan_id":"free"},{"bike_id":"07e8793f-b5c8-4815-95b2-cfd73adfc584","system_id":"levelo_inurba_marseille","lat":43.24179,"lon":5.39727,"is_reserved":false,"is_disabled":false,"rental_uris":{"android":"levelo://app?vid=07e8793f-b5c8-4815-95b2-cfd73adfc584","ios":"levelo://app?vid=07e8793f-b5c8-4815-95b2-cfd73adfc584"},"vehicle_type_id":"4","last_reported":1700327127,"current_range_meters":27600,"station_id":"ce4bhn12rcd13ifvqgpg","pricing_plan_id":"free"},{"bike_id":"4f5534b5-aefd-49d1-810b-7263e1241940","system_id":"levelo_inurba_marseille","lat":43.241782,"lon":5.397261,"is_reserved":false,"is_disabled":false,"rental_uris":{"android":"levelo://app?vid=4f5534b5-aefd-49d1-810b-7263e1241940","ios":"levelo://app?vid=4f5534b5-aefd-49d1-810b-7263e1241940"},"vehicle_type_id":"4","last_reported":1700327127,"current_range_meters":30800,"station_id":"ce4bhn12rcd13ifvqgpg","pricing_plan_id":"free"},{"bike_id":"a5a63f73-cff7-4b1f-877b-187826a46521","system_id":"levelo_inurba_marseille","lat":43.231919,"lon":5.355532,"is_reserved":false,"is_disabled":false,"rental_uris":{"android":"levelo://app?vid=a5a63f73-cff7-4b1f-877b-187826a46521","ios":"levelo://app?vid=a5a63f73-cff7-4b1f-877b-187826a46521"},"vehicle_type_id":"4","last_reported":1700327127,"current_range_meters":17200,"station_id":"ce4bhu92rcd13ifvqi70","pricing_plan_id":"free"},{"bike_id":"43a6401e-8957-4fa2-9140-600ad3aaf959","system_id":"levelo_inurba_marseille","lat":43.231794,"lon":5.400052,"is_reserved":false,"is_disabled":false,"rental_uris":{"android":"levelo://app?vid=43a6401e-8957-4fa2-9140-600ad3aaf959","ios":"levelo://app?vid=43a6401e-8957-4fa2-9140-600ad3aaf959"},"vehicle_type_id":"4","last_reported":1700327127,"current_range_meters":18400,"station_id":"ce4bhn12rcd13ifvqgqg","pricing_plan_id":"free"},{"bike_id":"5d8316f4-9b3b-4f22-8b0a-d975b6faa1c0","system_id":"levelo_inurba_marseille","lat":43.231793,"lon":5.400044,"is_reserved":false,"is_disabled":false,"rental_uris":{"android":"levelo://app?vid=5d8316f4-9b3b-4f22-8b0a-d975b6faa1c0","ios":"levelo://app?vid=5d8316f4-9b3b-4f22-8b0a-d975b6faa1c0"},"vehicle_type_id":"4","last_reported":1700327127,"current_range_meters":18800,"station_id":"ce4bhn12rcd13ifvqgqg","pricing_plan_id":"free"},{"bike_id":"486fecf0-765d-4eee-9a85-898f8aa27175","system_id":"levelo_inurba_marseille","lat":43.231793,"lon":5.400044,"is_reserved":false,"is_disabled":false,"rental_uris":{"android":"levelo://app?vid=486fecf0-765d-4eee-9a85-898f8aa27175","ios":"levelo://app?vid=486fecf0-765d-4eee-9a85-898f8aa27175"},"vehicle_type_id":"4","last_reported":1700327127,"current_range_meters":30800,"station_id":"ce4bhn12rcd13ifvqgqg","pricing_plan_id":"free"},{"bike_id":"fb647ab6-bdfe-4d43-8021-469b840e3f01","system_id":"levelo_inurba_marseille","lat":43.231794,"lon":5.400052,"is_reserved":false,"is_disabled":false,"rental_uris":{"android":"levelo://app?vid=fb647ab6-bdfe-4d43-8021-469b840e3f01","ios":"levelo://app?vid=fb647ab6-bdfe-4d43-8021-469b840e3f01"},"vehicle_type_id":"4","last_reported":1700327127,"current_range_meters":29200,"station_id":"ce4bhn12rcd13ifvqgqg","pricing_plan_id":"free"},{"bike_id":"1707e521-3adc-4f41-8fe0-03fad5d7cf96","system_id":"levelo_inurba_marseille","lat":43.231793,"lon":5.400044,"is_reserved":false,"is_disabled":false,"rental_uris":{"android":"levelo://app?vid=1707e521-3adc-4f41-8fe0-03fad5d7cf96","ios":"levelo://app?vid=1707e521-3adc-4f41-8fe0-03fad5d7cf96"},"vehicle_type_id":"4","last_reported":1700327127,"current_range_meters":6000,"station_id":"ce4bhn12rcd13ifvqgqg","pricing_plan_id":"free"},{"bike_id":"fa9cc91c-c78c-4cb3-ab2e-3cc3c66a937c","system_id":"levelo_inurba_marseille","lat":43.231793,"lon":5.400044,"is_reserved":false,"is_disabled":false,"rental_uris":{"android":"levelo://app?vid=fa9cc91c-c78c-4cb3-ab2e-3cc3c66a937c","ios":"levelo://app?vid=fa9cc91c-c78c-4cb3-ab2e-3cc3c66a937c"},"vehicle_type_id":"4","last_reported":1700327127,"current_range_meters":22000,"station_id":"ce4bhn12rcd13ifvqgqg","pricing_plan_id":"free"},{"bike_id":"f4a8cd9e-70db-4af1-b4c0-7aa0a7fac3fa","system_id":"levelo_inurba_marseille","lat":43.231793,"lon":5.400044,"is_reserved":false,"is_disabled":false,"rental_uris":{"android":"levelo://app?vid=f4a8cd9e-70db-4af1-b4c0-7aa0a7fac3fa","ios":"levelo://app?vid=f4a8cd9e-70db-4af1-b4c0-7aa0a7fac3fa"},"vehicle_type_id":"4","last_reported":1700327127,"current_range_meters":31200,"station_id":"ce4bhn12rcd13ifvqgqg","pricing_plan_id":"free"},{"bike_id":"21503f80-a737-42c9-80ac-41d5f021fc9e","system_id":"levelo_inurba_marseille","lat":43.231794,"lon":5.400052,"is_reserved":false,"is_disabled":false,"rental_uris":{"android":"levelo://app?vid=21503f80-a737-42c9-80ac-41d5f021fc9e","ios":"levelo://app?vid=21503f80-a737-42c9-80ac-41d5f021fc9e"},"vehicle_type_id":"4","last_reported":1700327127,"current_range_meters":12400,"station_id":"ce4bhn12rcd13ifvqgqg","pricing_plan_id":"free"},{"bike_id":"7f10c40d-a28f-435c-a517-41012b005fc5","system_id":"levelo_inurba_marseille","lat":43.231794,"lon":5.400052,"is_reserved":false,"is_disabled":false,"rental_uris":{"android":"levelo://app?vid=7f10c40d-a28f-435c-a517-41012b005fc5","ios":"levelo://app?vid=7f10c40d-a28f-435c-a517-41012b005fc5"},"vehicle_type_id":"4","last_reported":1700327127,"current_range_meters":0,"station_id":"ce4bhn12rcd13ifvqgqg","pricing_plan_id":"free"},{"bike_id":"a77536b5-5a4a-4d26-b9d3-350ffe3416bd","system_id":"levelo_inurba_marseille","lat":43.231793,"lon":5.400044,"is_reserved":false,"is_disabled":false,"rental_uris":{"android":"levelo://app?vid=a77536b5-5a4a-4d26-b9d3-350ffe3416bd","ios":"levelo://app?vid=a77536b5-5a4a-4d26-b9d3-350ffe3416bd"},"vehicle_type_id":"4","last_reported":1700327127,"current_range_meters":11600,"station_id":"ce4bhn12rcd13ifvqgqg","pricing_plan_id":"free"},{"bike_id":"7bc95a0e-72f8-4232-b877-46fe8e7f9e0c","system_id":"levelo_inurba_marseille","lat":43.231794,"lon":5.400052,"is_reserved":false,"is_disabled":false,"rental_uris":{"android":"levelo://app?vid=7bc95a0e-72f8-4232-b877-46fe8e7f9e0c","ios":"levelo://app?vid=7bc95a0e-72f8-4232-b877-46fe8e7f9e0c"},"vehicle_type_id":"4","last_reported":1700327127,"current_range_meters":31600,"station_id":"ce4bhn12rcd13ifvqgqg","pricing_plan_id":"free"},{"bike_id":"9c708561-3c6f-4756-a396-0fe474a6510d","system_id":"levelo_inurba_marseille","lat":43.231794,"lon":5.400052,"is_reserved":false,"is_disabled":false,"rental_uris":{"android":"levelo://app?vid=9c708561-3c6f-4756-a396-0fe474a6510d","ios":"levelo://app?vid=9c708561-3c6f-4756-a396-0fe474a6510d"},"vehicle_type_id":"4","last_reported":1700327127,"current_range_meters":27200,"station_id":"ce4bhn12rcd13ifvqgqg","pricing_plan_id":"free"},{"bike_id":"ad9d26be-fd61-4954-b04a-614ee9d33f7d","system_id":"levelo_inurba_marseille","lat":43.231794,"lon":5.400052,"is_reserved":false,"is_disabled":false,"rental_uris":{"android":"levelo://app?vid=ad9d26be-fd61-4954-b04a-614ee9d33f7d","ios":"levelo://app?vid=ad9d26be-fd61-4954-b04a-614ee9d33f7d"},"vehicle_type_id":"4","last_reported":1700327127,"current_range_meters":31600,"station_id":"ce4bhn12rcd13ifvqgqg","pricing_plan_id":"free"},{"bike_id":"2740bc0a-943d-4810-853f-0053f51c0cac","system_id":"levelo_inurba_marseille","lat":43.231794,"lon":5.400052,"is_reserved":false,"is_disabled":false,"rental_uris":{"android":"levelo://app?vid=2740bc0a-943d-4810-853f-0053f51c0cac","ios":"levelo://app?vid=2740bc0a-943d-4810-853f-0053f51c0cac"},"vehicle_type_id":"4","last_reported":1700327127,"current_range_meters":27600,"station_id":"ce4bhn12rcd13ifvqgqg","pricing_plan_id":"free"},{"bike_id":"adac1971-5e73-41e6-9ade-b5ded0f026e7","system_id":"levelo_inurba_marseille","lat":43.231793,"lon":5.400044,"is_reserved":false,"is_disabled":false,"rental_uris":{"android":"levelo://app?vid=adac1971-5e73-41e6-9ade-b5ded0f026e7","ios":"levelo://app?vid=adac1971-5e73-41e6-9ade-b5ded0f026e7"},"vehicle_type_id":"4","last_reported":1700327127,"current_range_meters":30800,"station_id":"ce4bhn12rcd13ifvqgqg","pricing_plan_id":"free"},{"bike_id":"efc139d5-8bb1-4a6b-b437-01d31830d455","system_id":"levelo_inurba_marseille","lat":43.231794,"lon":5.400052,"is_reserved":false,"is_disabled":false,"rental_uris":{"android":"levelo://app?vid=efc139d5-8bb1-4a6b-b437-01d31830d455","ios":"levelo://app?vid=efc139d5-8bb1-4a6b-b437-01d31830d455"},"vehicle_type_id":"4","last_reported":1700327127,"current_range_meters":31200,"station_id":"ce4bhn12rcd13ifvqgqg","pricing_plan_id":"free"}]}}