{"last_updated":1768205943,"ttl":60,"version":"2.2","data":{"bikes":[{"bike_id":"0aae748a-9d13-417f-89f2-69e5221a26d0","system_id":"levelo_inurba_marseille","lat":43.24117,"lon":5.37676,"is_reserved":false,"is_disabled":false,"rental_uris":{"android":"levelo://app?vid=0aae748a-9d13-417f-89f2-69e5221a26d0","ios":"levelo://app?vid=0aae748a-9d13-417f-89f2-69e5221a26d0"},"vehicle_type_id":"4","last_reported":1768205944,"current_range_meters":2800,"station_id":"","pricing_plan_id":"cebpf4jnsgd1na2vs0mg"},{"bike_id":"a086ce0c-3cff-47d2-ac7e-009ad7c5e69f","system_id":"levelo_inurba_marseille","lat":43.24075,"lon":5.37763,"is_reserved":false,"is_disabled":false,"rental_uris":{"android":"levelo://app?vid=a086ce0c-3cff-47d2-ac7e-009ad7c5e69f","ios":"levelo://app?vid=a086ce0c-3cff-47d2-ac7e-009ad7c5e69f"},"vehicle_type_id":"4","last_reported":1768205944,"current_range_meters":2800,"station_id":"ce4bhnp2rcd13ifvqgvg","pricing_plan_id":"cebpf4jnsgd1na2vs0mg"},{"bike_id":"c46739cb-8652-48d3-972f-9096dc83781a","system_id":"levelo_inurba_marseille","lat":43.23192,"lon":5.35558,"is_reserved":false,"is_disabled":false,"rental_uris":{"android":"levelo://app?vid=c46739cb-8652-48d3-972f-9096dc83781a","ios":"levelo://app?vid=c46739cb-8652-48d3-972f-9096dc83781a"},"vehicle_type_id":"4","last_reported":1768205944,"current_range_meters":2800,"station_id":"ce4bhu92rcd13ifvqi70","pricing_plan_id":"cebpf4jnsgd1na2vs0mg"},{"bike_id":"d0833424-10fa-418e-868b-de361d34e593","system_id":"levelo_inurba_marseille","lat":43.317126,"lon":5.377532,"is_reserved":false,"is_disabled":false,"rental_uris":{"android":"levelo://app?vid=d0833424-10fa-418e-868b-de361d34e593","ios":"levelo://app?vid=d0833424-10fa-418e-868b-de361d34e593"},"vehicle_type_id":"4","last_reported":1768205944,"current_range_meters":2800,"station_id":"ce4bgth2rcd13ifvqch0","pricing_plan_id":"cebpf4jnsgd1na2vs0mg"},{"bike_id":"2e00dc9d-8fca-4c53-9c49-436b3c531ac4","system_id":"levelo_inurba_marseille","lat":43.24804,"lon":5.3746,"is_reserved":false,"is_disabled":false,"rental_uris":{"android":"levelo://app?vid=2e00dc9d-8fca-4c53-9c49-436b3c531ac4","ios":"levelo://app?vid=2e00dc9d-8fca-4c53-9c49-436b3c531ac4"},"vehicle_type_id":"4","last_reported":1768205944,"current_range_meters":2800,"station_id":"ce4bhgh2rcd13ifvqfb0","pricing_plan_id":"cebpf4jnsgd1na2vs0mg"},{"bike_id":"f80bd508-f401-4f88-8e7c-95a860f31d52","system_id":"levelo_inurba_marseille","lat":43.27203,"lon":5.39181,"is_reserved":false,"is_disabled":false,"rental_uris":{"android":"levelo://app?vid=f80bd508-f401-4f88-8e7c-95a860f31d52","ios":"levelo://app?vid=f80bd508-f401-4f88-8e7c-95a860f31d52"},"vehicle_type_id":"4","last_reported":1768205944,"current_range_meters":2800,"station_id":"ce4bhhp2rcd13ifvqfm0","pricing_plan_id":"cebpf4jnsgd1na2vs0mg"},{"bike_id":"a2ade47c-7ad3-483b-94da-9589d7bb35dc","system_id":"levelo_inurba_marseille","lat":43.3052,"lon":5.36719,"is_reserved":false,"is_disabled":false,"rental_uris":{"android":"levelo://app?vid=a2ade47c-7ad3-483b-94da-9589d7bb35dc","ios":"levelo://app?vid=a2ade47c-7ad3-483b-94da-9589d7bb35dc"},"vehicle_type_id":"4","last_reported":1768205944,"current_range_meters":2800,"station_id":"ce4bgrp2rcd13ifvqc9g","pricing_plan_id":"cebpf4jnsgd1na2vs0mg"},{"bike_id":"56ebee6e-cb5f-46e6-9c26-4f621522f8aa","system_id":"levelo_inurba_marseille","lat":43.29227,"lon":5.36076,"is_reserved":false,"is_disabled":false,"rental_uris":{"android":"levelo://app?vid=56ebee6e-cb5f-46e6-9c26-4f621522f8aa","ios":"levelo://app?vid=56ebee6e-cb5f-46e6-9c26-4f621522f8aa"},"vehicle_type_id":"4","last_reported":1768205944,"current_range_meters":2800,"station_id":"ce4bhbh2rcd13ifvqeqg","pricing_plan_id":"cebpf4jnsgd1na2vs0mg"},{"bike_id":"bec1bdf7-8c3e-466a-9564-9717af11359e","system_id":"levelo_inurba_marseille","lat":43.2464,"lon":5.38152,"is_reserved":false,"is_disabled":true,"rental_uris":{"android":"levelo://app?vid=bec1bdf7-8c3e-466a-9564-9717af11359e","ios":"levelo://app?vid=bec1bdf7-8c3e-466a-9564-9717af11359e"},"vehicle_type_id":"4","last_reported":1768205944,"current_range_meters":2800,"station_id":"ce4bhih2rcd13ifvqfr0","pricing_plan_id":"cebpf4jnsgd1na2vs0mg"},{"bike_id":"3cbdb5ea-16ea-4aa6-9268-abc3d127d7fe","system_id":"levelo_inurba_marseille","lat":43.29038,"lon":5.39958,"is_reserved":false,"is_disabled":false,"rental_uris":{"android":"levelo://app?vid=3cbdb5ea-16ea-4aa6-9268-abc3d127d7fe","ios":"levelo://app?vid=3cbdb5ea-16ea-4aa6-9268-abc3d127d7fe"},"vehicle_type_id":"4","last_reported":1768205944,"current_range_meters":2800,"station_id":"ce4bh392rcd13ifvqdm0","pricing_plan_id":"cebpf4jnsgd1na2vs0mg"},{"bike_id":"3f302b16-1145-4a2d-9440-c7f99c2edb92","system_id":"levelo_inurba_marseille","lat":43.26948,"lon":5.38632,"is_reserved":false,"is_disabled":false,"rental_uris":{"android":"levelo://app?vid=3f302b16-1145-4a2d-9440-c7f99c2edb92","ios":"levelo://app?vid=3f302b16-1145-4a2d-9440-c7f99c2edb92"},"vehicle_type_id":"4","last_reported":1768205944,"current_range_meters":2800,"station_id":"ce4bhh92rcd13ifvqfh0","pricing_plan_id":"cebpf4jnsgd1na2vs0mg"},{"bike_id":"e22cc6a3-5217-4c70-a0c3-1bb618e9068d","system_id":"levelo_inurba_marseille","lat":43.28944,"lon":5.3665,"is_reserved":false,"is_disabled":false,"rental_uris":{"android":"levelo://app?vid=e22cc6a3-5217-4c70-a0c3-1bb618e9068d","ios":"levelo://app?vid=e22cc6a3-5217-4c70-a0c3-1bb618e9068d"},"vehicle_type_id":"4","last_reported":1768205944,"current_range_meters":2800,"station_id":"ce4bhap2rcd13ifvqek0","pricing_plan_id":"cebpf4jnsgd1na2vs0mg"},{"bike_id":"1abcea64-d377-4e7a-923d-3fe8699944bd","system_id":"levelo_inurba_marseille","lat":43.306,"lon":5.39372,"is_reserved":false,"is_disabled":false,"rental_uris":{"android":"levelo://app?vid=1abcea64-d377-4e7a-923d-3fe8699944bd","ios":"levelo://app?vid=1abcea64-d377-4e7a-923d-3fe8699944bd"},"vehicle_type_id":"4","last_reported":1768205944,"current_range_meters":2800,"station_id":"ce4bh0p2rcd13ifvqd80","pricing_plan_id":"cebpf4jnsgd1na2vs0mg"},{"bike_id":"7a2b1e2b-1f85-429f-9e31-eaf2f3b7d4a5","system_id":"levelo_inurba_marseille","lat":43.262074,"lon":5.37927,"is_reserved":false,"is_disabled":true,"rental_uris":{"android":"levelo://app?vid=7a2b1e2b-1f85-429f-9e31-eaf2f3b7d4a5","ios":"levelo://app?vid=7a2b1e2b-1f85-429f-9e31-eaf2f3b7d4a5"},"vehicle_type_id":"4","last_reported":1768205944,"current_range_meters":3200,"station_id":"","pricing_plan_id":"cebpf4jnsgd1na2vs0mg"},{"bike_id":"ca35d045-2c1b-44bb-b957-8f4166968359","system_id":"levelo_inurba_marseille","lat":43.260576,"lon":5.393996,"is_reserved":false,"is_disabled":false,"rental_uris":{"android":"levelo://app?vid=ca35d045-2c1b-44bb-b957-8f4166968359","ios":"levelo://app?vid=ca35d045-2c1b-44bb-b957-8f4166968359"},"vehicle_type_id":"4","last_reported":1768205944,"current_range_meters":3200,"station_id":"ce4bhh92rcd13ifvqfj0","pricing_plan_id":"cebpf4jnsgd1na2vs0mg"},{"bike_id":"dbad3d2e-bbd0-4132-93c5-9bca131fda63","system_id":"levelo_inurba_marseille","lat":43.29555,"lon":5.37521,"is_reserved":false,"is_disabled":false,"rental_uris":{"android":"levelo://app?vid=dbad3d2e-bbd0-4132-93c5-9bca131fda63","ios":"levelo://app?vid=dbad3d2e-bbd0-4132-93c5-9bca131fda63"},"vehicle_type_id":"4","last_reported":1768205944,"current_range_meters":3200,"station_id":"ce4bgh92rcd13ifvqb50","pricing_plan_id":"cebpf4jnsgd1na2vs0mg"},{"bike_id":"077c8981-bea2-4e23-9f90-a06cf25901d0","system_id":"levelo_inurba_marseille","lat":43.29585,"lon":5.38041,"is_reserved":false,"is_disabled":false,"rental_uris":{"android":"levelo://app?vid=077c8981-bea2-4e23-9f90-a06cf25901d0","ios":"levelo://app?vid=077c8981-bea2-4e23-9f90-a06cf25901d0"},"vehicle_type_id":"4","last_reported":1768205944,"current_range_meters":3200,"station_id":"","pricing_plan_id":"cebpf4jnsgd1na2vs0mg"},{"bike_id":"4c7b2ffd-ccb0-48ab-a409-0108095ad067","system_id":"levelo_inurba_marseille","lat":43.23174,"lon":5.39994,"is_reserved":false,"is_disabled":true,"rental_uris":{"android":"levelo://app?vid=4c7b2ffd-ccb0-48ab-a409-0108095ad067","ios":"levelo://app?vid=4c7b2ffd-ccb0-48ab-a409-0108095ad067"},"vehicle_type_id":"4","last_reported":1768205944,"current_range_meters":3200,"station_id":"ce4bhn12rcd13ifvqgqg","pricing_plan_id":"cebpf4jnsgd1na2vs0mg"},{"bike_id":"5c19822a-c497-4f67-8777-6169bef66dc3","system_id":"levelo_inurba_marseille","lat":43.225332,"lon":5.348298,"is_reserved":false,"is_disabled":false,"rental_uris":{"android":"levelo://app?vid=5c19822a-c497-4f67-8777-6169bef66dc3","ios":"levelo://app?vid=5c19822a-c497-4f67-8777-6169bef66dc3"},"vehicle_type_id":"4","last_reported":1768205944,"current_range_meters":3200,"station_id":"","pricing_plan_id":"cebpf4jnsgd1na2vs0mg"},{"bike_id":"b555239d-2168-4ba9-bdf4-8b711ca32acb","system_id":"levelo_inurba_marseille","lat":43.28471,"lon":5.48411,"is_reserved":false,"is_disabled":false,"rental_uris":{"android":"levelo://app?vid=b555239d-2168-4ba9-bdf4-8b711ca32acb","ios":"levelo://app?vid=b555239d-2168-4ba9-bdf4-8b711ca32acb"},"vehicle_type_id":"4","last_reported":1768205944,"current_range_meters":3200,"station_id":"","pricing_plan_id":"cebpf4jnsgd1na2vs0mg"},{"bike_id":"be8576a8-995a-45d7-bc62-cb26c280bb04","system_id":"levelo_inurba_marseille","lat":43.23217,"lon":5.35556,"is_reserved":false,"is_disabled":false,"rental_uris":{"android":"levelo://app?vid=be8576a8-995a-45d7-bc62-cb26c280bb04","ios":"levelo://app?vid=be8576a8-995a-45d7-bc62-cb26c280bb04"},"vehicle_type_id":"4","last_reported":1768205944,"current_range_meters":3200,"station_id":"ce4bhu92rcd13ifvqi70","pricing_plan_id":"cebpf4jnsgd1na2vs0mg"},{"bike_id":"01755f55-961f-40b3-9e23-e95349abd649","system_id":"levelo_inurba_marseille","lat":43.26058,"lon":5.394,"is_reserved":false,"is_disabled":false,"rental_uris":{"android":"levelo://app?vid=01755f55-961f-40b3-9e23-e95349abd649","ios":"levelo://app?vid=01755f55-961f-40b3-9e23-e95349abd649"},"vehicle_type_id":"4","last_reported":1768205944,"current_range_meters":3600,"station_id":"ce4bhh92rcd13ifvqfj0","pricing_plan_id":"cebpf4jnsgd1na2vs0mg"},{"bike_id":"f0ebc8c2-e687-4bde-b3f8-6d500df6884a","system_id":"levelo_inurba_marseille","lat":43.29892,"lon":5.436718,"is_reserved":false,"is_disabled":false,"rental_uris":{"android":"levelo://app?vid=f0ebc8c2-e687-4bde-b3f8-6d500df6884a","ios":"levelo://app?vid=f0ebc8c2-e687-4bde-b3f8-6d500df6884a"},"vehicle_type_id":"4","last_reported":1768205944,"current_range_meters":3600,"station_id":"ce4bhpp2rcd13ifvqhfg","pricing_plan_id":"cebpf4jnsgd1na2vs0mg"},{"bike_id":"7d074f39-2033-499f-a4a7-f3d06f4ebb92","system_id":"levelo_inurba_marseille","lat":43.313736,"lon":5.367802,"is_reserved":false,"is_disabled":false,"rental_uris":{"android":"levelo://app?vid=7d074f39-2033-499f-a4a7-f3d06f4ebb92","ios":"levelo://app?vid=7d074f39-2033-499f-a4a7-f3d06f4ebb92"},"vehicle_type_id":"4","last_reported":1768205944,"current_range_meters":3600,"station_id":"ce4bgr92rcd13ifvqc6g","pricing_plan_id":"cebpf4jnsgd1na2vs0mg"},{"bike_id":"6f4243d7-a899-45df-9f36-5a28e263a49a","system_id":"levelo_inurba_marseille","lat":43.24461,"lon":5.42554,"is_reserved":false,"is_disabled":false,"rental_uris":{"android":"levelo://app?vid=6f4243d7-a899-45df-9f36-5a28e263a49a","ios":"levelo://app?vid=6f4243d7-a899-45df-9f36-5a28e263a49a"},"vehicle_type_id":"4","last_reported":1768205944,"current_range_meters":3600,"station_id":"st_d4a3vfp97mjs738cd8kg","pricing_plan_id":"cebpf4jnsgd1na2vs0mg"},{"bike_id":"4c3558f2-faf6-43e6-a593-3aae3d520ba3","system_id":"levelo_inurba_marseille","lat":43.30319,"lon":5.36908,"is_reserved":false,"is_disabled":false,"rental_uris":{"android":"levelo://app?vid=4c3558f2-faf6-43e6-a593-3aae3d520ba3","ios":"levelo://app?vid=4c3558f2-faf6-43e6-a593-3aae3d520ba3"},"vehicle_type_id":"4","last_reported":1768205944,"current_range_meters":3600,"station_id":"ce4bgqh2rcd13ifvqc5g","pricing_plan_id":"cebpf4jnsgd1na2vs0mg"},{"bike_id":"d9c321c1-bd42-4a0f-bd8a-d741d0e507f0","system_id":"levelo_inurba_marseille","lat":43.24168,"lon":5.363959,"is_reserved":false,"is_disabled":false,"rental_uris":{"android":"levelo://app?vid=d9c321c1-bd42-4a0f-bd8a-d741d0e507f0","ios":"levelo://app?vid=d9c321c1-bd42-4a0f-bd8a-d741d0e507f0"},"vehicle_type_id":"4","last_reported":1768205944,"current_range_meters":3600,"station_id":"cpo36qri1sfpv3e86is0","pricing_plan_id":"cebpf4jnsgd1na2vs0mg"},{"bike_id":"2572d577-b0cc-412e-9c31-a108870f6cb3","system_id":"levelo_inurba_marseille","lat":43.29389,"lon":5.37832,"is_reserved":false,"is_disabled":false,"rental_uris":{"android":"levelo://app?vid=2572d577-b0cc-412e-9c31-a108870f6cb3","ios":"levelo://app?vid=2572d577-b0cc-412e-9c31-a108870f6cb3"},"vehicle_type_id":"4","last_reported":1768205944,"current_range_meters":3600,"station_id":"ce4bgjh2rcd13ifvqbf0","pricing_plan_id":"cebpf4jnsgd1na2vs0mg"},{"bike_id":"016decb5-a4fe-4d88-a583-364244f3b740","system_id":"levelo_inurba_marseille","lat":43.286109,"lon":5.35112,"is_reserved":false,"is_disabled":false,"rental_uris":{"android":"levelo://app?vid=016decb5-a4fe-4d88-a583-364244f3b740","ios":"levelo://app?vid=016decb5-a4fe-4d88-a583-364244f3b740"},"vehicle_type_id":"4","last_reported":1768205944,"current_range_meters":3600,"station_id":"ce4bhch2rcd13ifvqeug","pricing_plan_id":"cebpf4jnsgd1na2vs0mg"},{"bike_id":"7e568021-7c90-4521-bdbe-e48f8b81248f","system_id":"levelo_inurba_marseille","lat":43.29073,"lon":5.38185,"is_reserved":false,"is_disabled":false,"rental_uris":{"android":"levelo://app?vid=7e568021-7c90-4521-bdbe-e48f8b81248f","ios":"levelo://app?vid=7e568021-7c90-4521-bdbe-e48f8b81248f"},"vehicle_type_id":"4","last_reported":1768205944,"current_range_meters":3600,"station_id":"ce4bh512rcd13ifvqe2g","pricing_plan_id":"cebpf4jnsgd1na2vs0mg"},{"bike_id":"5ae46213-526f-49bc-859d-bd77a6272ad3","system_id":"levelo_inurba_marseille","lat":43.23195,"lon":5.39989,"is_reserved":false,"is_disabled":true,"rental_uris":{"android":"levelo://app?vid=5ae46213-526f-49bc-859d-bd77a6272ad3","ios":"levelo://app?vid=5ae46213-526f-49bc-859d-bd77a6272ad3"},"vehicle_type_id":"4","last_reported":1768205944,"current_range_meters":4000,"station_id":"ce4bhn12rcd13ifvqgqg","pricing_plan_id":"cebpf4jnsgd1na2vs0mg"},{"bike_id":"70164c08-8f57-4c6f-b7dd-76ca37d2ce10","system_id":"levelo_inurba_marseille","lat":43.24076,"lon":5.37754,"is_reserved":false,"is_disabled":false,"rental_uris":{"android":"levelo://app?vid=70164c08-8f57-4c6f-b7dd-76ca37d2ce10","ios":"levelo://app?vid=70164c08-8f57-4c6f-b7dd-76ca37d2ce10"},"vehicle_type_id":"4","last_reported":1768205944,"current_range_meters":4000,"station_id":"ce4bhnp2rcd13ifvqgvg","pricing_plan_id":"cebpf4jnsgd1na2vs0mg"},{"bike_id":"20de3ddf-3cfd-42ef-81e0-029c9589c76b","system_id":"levelo_inurba_marseille","lat":43.31567,"lon":5.38765,"is_reserved":false,"is_disabled":false,"rental_uris":{"android":"levelo://app?vid=20de3ddf-3cfd-42ef-81e0-029c9589c76b","ios":"levelo://app?vid=20de3ddf-3cfd-42ef-81e0-029c9589c76b"},"vehicle_type_id":"4","last_reported":1768205944,"current_range_meters":4000,"station_id":"","pricing_plan_id":"cebpf4jnsgd1na2vs0mg"},{"bike_id":"3d9ca8f9-ac9d-41f8-ad50-df6291e7a4c4","system_id":"levelo_inurba_marseille","lat":43.23185,"lon":5.35551,"is_reserved":false,"is_disabled":false,"rental_uris":{"android":"levelo://app?vid=3d9ca8f9-ac9d-41f8-ad50-df6291e7a4c4","ios":"levelo://app?vid=3d9ca8f9-ac9d-41f8-ad50-df6291e7a4c4"},"vehicle_type_id":"4","last_reported":1768205944,"current_range_meters":4000,"station_id":"ce4bhu92rcd13ifvqi70","pricing_plan_id":"cebpf4jnsgd1na2vs0mg"},{"bike_id":"f1738cae-b37c-436c-93e9-f046d263b6fa","system_id":"levelo_inurba_marseille","lat":43.225301,"lon":5.348359,"is_reserved":false,"is_disabled":false,"rental_uris":{"android":"levelo://app?vid=f1738cae-b37c-436c-93e9-f046d263b6fa","ios":"levelo://app?vid=f1738cae-b37c-436c-93e9-f046d263b6fa"},"vehicle_type_id":"4","last_reported":1768205944,"current_range_meters":4000,"station_id":"","pricing_plan_id":"cebpf4jnsgd1na2vs0mg"},{"bike_id":"000bc33d-14bb-4ee3-8c98-01bdb8f48321","system_id":"levelo_inurba_marseille","lat":43.22568,"lon":5.41627,"is_reserved":false,"is_disabled":false,"rental_uris":{"android":"levelo://app?vid=000bc33d-14bb-4ee3-8c98-01bdb8f48321","ios":"levelo://app?vid=000bc33d-14bb-4ee3-8c98-01bdb8f48321"},"vehicle_type_id":"4","last_reported":1768205944,"current_range_meters":4000,"station_id":"st_d2o4gvlbi1j2169b742g","pricing_plan_id":"cebpf4jnsgd1na2vs0mg"},{"bike_id":"79c0ba30-a8bc-455f-be6b-ed310d987a62","system_id":"levelo_inurba_marseille","lat":43.28848,"lon":5.39337,"is_reserved":false,"is_disabled":true,"rental_uris":{"android":"levelo://app?vid=79c0ba30-a8bc-455f-be6b-ed310d987a62","ios":"levelo://app?vid=79c0ba30-a8bc-455f-be6b-ed310d987a62"},"vehicle_type_id":"4","last_reported":1768205944,"current_range_meters":4000,"station_id":"ce4bh2p2rcd13ifvqdi0","pricing_plan_id":"cebpf4jnsgd1na2vs0mg"},{"bike_id":"99b2f31a-2369-48a8-9140-818135cc867b","system_id":"levelo_inurba_marseille","lat":43.24387,"lon":5.37053,"is_reserved":false,"is_disabled":false,"rental_uris":{"android":"levelo://app?vid=99b2f31a-2369-48a8-9140-818135cc867b","ios":"levelo://app?vid=99b2f31a-2369-48a8-9140-818135cc867b"},"vehicle_type_id":"4","last_reported":1768205944,"current_range_meters":4000,"station_id":"ce4bhhh2rcd13ifvqfk0","pricing_plan_id":"cebpf4jnsgd1na2vs0mg"},{"bike_id":"930483c6-b0db-481d-b8ef-96c4bce4f1cf","system_id":"levelo_inurba_marseille","lat":43.23958,"lon":5.36624,"is_reserved":false,"is_disabled":false,"rental_uris":{"android":"levelo://app?vid=930483c6-b0db-481d-b8ef-96c4bce4f1cf","ios":"levelo://app?vid=930483c6-b0db-481d-b8ef-96c4bce4f1cf"},"vehicle_type_id":"4","last_reported":1768205944,"current_range_meters":4000,"station_id":"ce4bhi12rcd13ifvqfp0","pricing_plan_id":"cebpf4jnsgd1na2vs0mg"},{"bike_id":"b380f87b-5a8f-4ae6-a975-3344c54998e2","system_id":"levelo_inurba_marseille","lat":43.28406,"lon":5.37521,"is_reserved":false,"is_disabled":false,"rental_uris":{"android":"levelo://app?vid=b380f87b-5a8f-4ae6-a975-3344c54998e2","ios":"levelo://app?vid=b380f87b-5a8f-4ae6-a975-3344c54998e2"},"vehicle_type_id":"4","last_reported":1768205944,"current_range_meters":4000,"station_id":"ce4bh412rcd13ifvqds0","pricing_plan_id":"cebpf4jnsgd1na2vs0mg"},{"bike_id":"2ab98ffd-9337-4976-9b8c-00b288e144ae","system_id":"levelo_inurba_marseille","lat":43.2368,"lon":5.36075,"is_reserved":false,"is_disabled":false,"rental_uris":{"android":"levelo://app?vid=2ab98ffd-9337-4976-9b8c-00b288e144ae","ios":"levelo://app?vid=2ab98ffd-9337-4976-9b8c-00b288e144ae"},"vehicle_type_id":"4","last_reported":1768205944,"current_range_meters":4000,"station_id":"","pricing_plan_id":"cebpf4jnsgd1na2vs0mg"},{"bike_id":"eb94da2c-2b9f-48dd-a6b4-1185c0b7aa8a","system_id":"levelo_inurba_marseille","lat":43.32481,"lon":5.36555,"is_reserved":false,"is_disabled":false,"rental_uris":{"android":"levelo://app?vid=eb94da2c-2b9f-48dd-a6b4-1185c0b7aa8a","ios":"levelo://app?vid=eb94da2c-2b9f-48dd-a6b4-1185c0b7aa8a"},"vehicle_type_id":"4","last_reported":1768205944,"current_range_meters":4000,"station_id":"ce4bhs12rcd13ifvqhvg","pricing_plan_id":"cebpf4jnsgd1na2vs0mg"},{"bike_id":"795f49e9-4ba6-4391-a424-8a19a6d32c70","system_id":"levelo_inurba_marseille","lat":43.26954,"lon":5.38633,"is_reserved":false,"is_disabled":false,"rental_uris":{"android":"levelo://app?vid=795f49e9-4ba6-4391-a424-8a19a6d32c70","ios":"levelo://app?vid=795f49e9-4ba6-4391-a424-8a19a6d32c70"},"vehicle_type_id":"4","last_reported":1768205944,"current_range_meters":4000,"station_id":"ce4bhh92rcd13ifvqfh0","pricing_plan_id":"cebpf4jnsgd1na2vs0mg"},{"bike_id":"2b502982-b4ce-404e-ba25-50f38bdd9cf5","system_id":"levelo_inurba_marseille","lat":43.28863,"lon":5.42512,"is_reserved":false,"is_disabled":false,"rental_uris":{"android":"levelo://app?vid=2b502982-b4ce-404e-ba25-50f38bdd9cf5","ios":"levelo://app?vid=2b502982-b4ce-404e-ba25-50f38bdd9cf5"},"vehicle_type_id":"4","last_reported":1768205944,"current_range_meters":4000,"station_id":"st_d3b462108ojc7389ooeg","pricing_plan_id":"cebpf4jnsgd1na2vs0mg"},{"bike_id":"0f4aa1f0-1d34-4e14-89b1-e12e93833b6d","system_id":"levelo_inurba_marseille","lat":43.253336,"lon":5.421783,"is_reserved":false,"is_disabled":false,"rental_uris":{"android":"levelo://app?vid=0f4aa1f0-1d34-4e14-89b1-e12e93833b6d","ios":"levelo://app?vid=0f4aa1f0-1d34-4e14-89b1-e12e93833b6d"},"vehicle_type_id":"4","last_reported":1768205944,"current_range_meters":4000,"station_id":"st_d2m65c5bi1j21697t3ng","pricing_plan_id":"cebpf4jnsgd1na2vs0mg"},{"bike_id":"252022da-26ee-4d7f-abc8-1b488b81c896","system_id":"levelo_inurba_marseille","lat":43.301956,"lon":5.370949,"is_reserved":false,"is_disabled":false,"rental_uris":{"android":"levelo://app?vid=252022da-26ee-4d7f-abc8-1b488b81c896","ios":"levelo://app?vid=252022da-26ee-4d7f-abc8-1b488b81c896"},"vehicle_type_id":"4","last_reported":1768205944,"current_range_meters":4400,"station_id":"","pricing_plan_id":"cebpf4jnsgd1na2vs0mg"},{"bike_id":"c59d8b8e-cf5f-4322-970d-7755113b46c7","system_id":"levelo_inurba_marseille","lat":43.29501,"lon":5.43303,"is_reserved":false,"is_disabled":false,"rental_uris":{"android":"levelo://app?vid=c59d8b8e-cf5f-4322-970d-7755113b46c7","ios":"levelo://app?vid=c59d8b8e-cf5f-4322-970d-7755113b46c7"},"vehicle_type_id":"4","last_reported":1768205944,"current_range_meters":4400,"station_id":"st_d3j5ugp08ojc73fj9d10","pricing_plan_id":"cebpf4jnsgd1na2vs0mg"},{"bike_id":"ce168850-ad18-4118-b8c3-4df4ab978171","system_id":"levelo_inurba_marseille","lat":43.2954,"lon":5.3854,"is_reserved":false,"is_disabled":false,"rental_uris":{"android":"levelo://app?vid=ce168850-ad18-4118-b8c3-4df4ab978171","ios":"levelo://app?vid=ce168850-ad18-4118-b8c3-4df4ab978171"},"vehicle_type_id":"4","last_reported":1768205944,"current_range_meters":4400,"station_id":"ce4bgih2rcd13ifvqba0","pricing_plan_id":"cebpf4jnsgd1na2vs0mg"},{"bike_id":"7628e7a5-7b21-4849-a067-eb70db95c2b6","system_id":"levelo_inurba_marseille","lat":43.29895,"lon":5.43669,"is_reserved":false,"is_disabled":false,"rental_uris":{"android":"levelo://app?vid=7628e7a5-7b21-4849-a067-eb70db95c2b6","ios":"levelo://app?vid=7628e7a5-7b21-4849-a067-eb70db95c2b6"},"vehicle_type_id":"4","last_reported":1768205944,"current_range_meters":4400,"station_id":"ce4bhpp2rcd13ifvqhfg","pricing_plan_id":"cebpf4jnsgd1na2vs0mg"},{"bike_id":"947ce4af-bec6-4b27-9e63-ce65682eb248","system_id":"levelo_inurba_marseille","lat":43.32356,"lon":5.3676,"is_reserved":false,"is_disabled":false,"rental_uris":{"android":"levelo://app?vid=947ce4af-bec6-4b27-9e63-ce65682eb248","ios":"levelo://app?vid=947ce4af-bec6-4b27-9e63-ce65682eb248"},"vehicle_type_id":"4","last_reported":1768205944,"current_range_meters":4400,"station_id":"ce4bhsh2rcd13ifvqi2g","pricing_plan_id":"cebpf4jnsgd1na2vs0mg"},{"bike_id":"7dfd5bdb-4faf-4211-b657-8558744c1c2e","system_id":"levelo_inurba_marseille","lat":43.32041,"lon":5.41555,"is_reserved":false,"is_disabled":false,"rental_uris":{"android":"levelo://app?vid=7dfd5bdb-4faf-4211-b657-8558744c1c2e","ios":"levelo://app?vid=7dfd5bdb-4faf-4211-b657-8558744c1c2e"},"vehicle_type_id":"4","last_reported":1768205944,"current_range_meters":4400,"station_id":"ce4bhq92rcd13ifvqhkg","pricing_plan_id":"cebpf4jnsgd1na2vs0mg"},{"bike_id":"8d3f99e8-e0d3-4ac2-bf02-cbd27ce4a64f","system_id":"levelo_inurba_marseille","lat":43.286223,"lon":5.351014,"is_reserved":false,"is_disabled":false,"rental_uris":{"android":"levelo://app?vid=8d3f99e8-e0d3-4ac2-bf02-cbd27ce4a64f","ios":"levelo://app?vid=8d3f99e8-e0d3-4ac2-bf02-cbd27ce4a64f"},"vehicle_type_id":"4","last_reported":1768205944,"current_range_meters":4400,"station_id":"ce4bhch2rcd13ifvqeug","pricing_plan_id":"cebpf4jnsgd1na2vs0mg"},{"bike_id":"c72dfa06-f246-4eb4-a47f-cc812e4e69c1","system_id":"levelo_inurba_marseille","lat":43.23957,"lon":5.36639,"is_reserved":false,"is_disabled":false,"rental_uris":{"android":"levelo://app?vid=c72dfa06-f246-4eb4-a47f-cc812e4e69c1","ios":"levelo://app?vid=c72dfa06-f246-4eb4-a47f-cc812e4e69c1"},"vehicle_type_id":"4","last_reported":1768205944,"current_range_meters":4400,"station_id":"ce4bhi12rcd13ifvqfp0","pricing_plan_id":"cebpf4jnsgd1na2vs0mg"},{"bike_id":"a3fe0340-c1de-4606-bb6c-089641f839a6","system_id":"levelo_inurba_marseille","lat":43.301578,"lon":5.381032,"is_reserved":false,"is_disabled":false,"rental_uris":{"android":"levelo://app?vid=a3fe0340-c1de-4606-bb6c-089641f839a6","ios":"levelo://app?vid=a3fe0340-c1de-4606-bb6c-089641f839a6"},"vehicle_type_id":"4","last_reported":1768205944,"current_range_meters":4400,"station_id":"ce4bgjp2rcd13ifvqbh0","pricing_plan_id":"cebpf4jnsgd1na2vs0mg"},{"bike_id":"6e99c334-d573-40a3-a05a-9f88ac29d830","system_id":"levelo_inurba_marseille","lat":43.30804,"lon":5.38155,"is_reserved":false,"is_disabled":false,"rental_uris":{"android":"levelo://app?vid=6e99c334-d573-40a3-a05a-9f88ac29d830","ios":"levelo://app?vid=6e99c334-d573-40a3-a05a-9f88ac29d830"},"vehicle_type_id":"4","last_reported":1768205944,"current_range_meters":4400,"station_id":"ce4bgt12rcd13ifvqce0","pricing_plan_id":"cebpf4jnsgd1na2vs0mg"},{"bike_id":"c4bc3707-c469-4b9d-877e-f5c4ff9e0ca7","system_id":"levelo_inurba_marseille","lat":43.29224,"lon":5.36078,"is_reserved":false,"is_disabled":false,"rental_uris":{"android":"levelo://app?vid=c4bc3707-c469-4b9d-877e-f5c4ff9e0ca7","ios":"levelo://app?vid=c4bc3707-c469-4b9d-877e-f5c4ff9e0ca7"},"vehicle_type_id":"4","last_reported":1768205944,"current_range_meters":4400,"station_id":"ce4bhbh2rcd13ifvqeqg","pricing_plan_id":"cebpf4jnsgd1na2vs0mg"},{"bike_id":"6869894f-67a0-4b58-8bae-911192c83f2f","system_id":"levelo_inurba_marseille","lat":43.31865,"lon":5.40003,"is_reserved":false,"is_disabled":false,"rental_uris":{"android":"levelo://app?vid=6869894f-67a0-4b58-8bae-911192c83f2f","ios":"levelo://app?vid=6869894f-67a0-4b58-8bae-911192c83f2f"},"vehicle_type_id":"4","last_reported":1768205944,"current_range_meters":4400,"station_id":"","pricing_plan_id":"cebpf4jnsgd1na2vs0mg"},{"bike_id":"961afc8f-ed9b-4274-a217-6c11d5ce9537","system_id":"levelo_inurba_marseille","lat":43.2874,"lon":5.37921,"is_reserved":false,"is_disabled":false,"rental_uris":{"android":"levelo://app?vid=961afc8f-ed9b-4274-a217-6c11d5ce9537","ios":"levelo://app?vid=961afc8f-ed9b-4274-a217-6c11d5ce9537"},"vehicle_type_id":"4","last_reported":1768205944,"current_range_meters":4400,"station_id":"ce4bh9p2rcd13ifvqec0","pricing_plan_id":"cebpf4jnsgd1na2vs0mg"},{"bike_id":"abf16fcb-1814-4f7e-9c1b-9fde77d80cc0","system_id":"levelo_inurba_marseille","lat":43.31118,"lon":5.3779,"is_reserved":false,"is_disabled":false,"rental_uris":{"android":"levelo://app?vid=abf16fcb-1814-4f7e-9c1b-9fde77d80cc0","ios":"levelo://app?vid=abf16fcb-1814-4f7e-9c1b-9fde77d80cc0"},"vehicle_type_id":"4","last_reported":1768205944,"current_range_meters":4800,"station_id":"ce4bgt92rcd13ifvqcg0","pricing_plan_id":"cebpf4jnsgd1na2vs0mg"},{"bike_id":"784bade9-de85-4c9f-99c1-e1f7d025a70e","system_id":"levelo_inurba_marseille","lat":43.22553,"lon":5.41635,"is_reserved":false,"is_disabled":false,"rental_uris":{"android":"levelo://app?vid=784bade9-de85-4c9f-99c1-e1f7d025a70e","ios":"levelo://app?vid=784bade9-de85-4c9f-99c1-e1f7d025a70e"},"vehicle_type_id":"4","last_reported":1768205944,"current_range_meters":4800,"station_id":"st_d2o4gvlbi1j2169b742g","pricing_plan_id":"cebpf4jnsgd1na2vs0mg"},{"bike_id":"3548cd23-1028-4789-a60a-6afc151695cc","system_id":"levelo_inurba_marseille","lat":43.30537,"lon":5.38425,"is_reserved":false,"is_disabled":false,"rental_uris":{"android":"levelo://app?vid=3548cd23-1028-4789-a60a-6afc151695cc","ios":"levelo://app?vid=3548cd23-1028-4789-a60a-6afc151695cc"},"vehicle_type_id":"4","last_reported":1768205944,"current_range_meters":4800,"station_id":"ce4bgg92rcd13ifvqb30","pricing_plan_id":"cebpf4jnsgd1na2vs0mg"},{"bike_id":"f97b3454-46a8-4580-aa1d-632b39531a16","system_id":"levelo_inurba_marseille","lat":43.29717,"lon":5.36608,"is_reserved":false,"is_disabled":false,"rental_uris":{"android":"levelo://app?vid=f97b3454-46a8-4580-aa1d-632b39531a16","ios":"levelo://app?vid=f97b3454-46a8-4580-aa1d-632b39531a16"},"vehicle_type_id":"4","last_reported":1768205944,"current_range_meters":4800,"station_id":"ce4bgn12rcd13ifvqbt0","pricing_plan_id":"cebpf4jnsgd1na2vs0mg"},{"bike_id":"244b7538-163d-454d-823f-8b1f8b0c67c5","system_id":"levelo_inurba_marseille","lat":43.29434,"lon":5.39781,"is_reserved":false,"is_disabled":true,"rental_uris":{"android":"levelo://app?vid=244b7538-163d-454d-823f-8b1f8b0c67c5","ios":"levelo://app?vid=244b7538-163d-454d-823f-8b1f8b0c67c5"},"vehicle_type_id":"4","last_reported":1768205944,"current_range_meters":4800,"station_id":"ce4bh3h2rcd13ifvqdo0","pricing_plan_id":"cebpf4jnsgd1na2vs0mg"},{"bike_id":"0b73420d-5361-4012-ba77-c47b2b377280","system_id":"levelo_inurba_marseille","lat":43.28466,"lon":5.38435,"is_reserved":false,"is_disabled":false,"rental_uris":{"android":"levelo://app?vid=0b73420d-5361-4012-ba77-c47b2b377280","ios":"levelo://app?vid=0b73420d-5361-4012-ba77-c47b2b377280"},"vehicle_type_id":"4","last_reported":1768205944,"current_range_meters":4800,"station_id":"ce4bh512rcd13ifvqe3g","pricing_plan_id":"cebpf4jnsgd1na2vs0mg"},{"bike_id":"53285794-c62b-442b-9e6a-233ce6590272","system_id":"levelo_inurba_marseille","lat":43.245826,"lon":5.374825,"is_reserved":false,"is_disabled":false,"rental_uris":{"android":"levelo://app?vid=53285794-c62b-442b-9e6a-233ce6590272","ios":"levelo://app?vid=53285794-c62b-442b-9e6a-233ce6590272"},"vehicle_type_id":"4","last_reported":1768205944,"current_range_meters":4800,"station_id":"","pricing_plan_id":"cebpf4jnsgd1na2vs0mg"},{"bike_id":"d1d2b5b8-08c4-4846-a980-a1694a91c4bc","system_id":"levelo_inurba_marseille","lat":43.21188,"lon":5.35075,"is_reserved":false,"is_disabled":false,"rental_uris":{"android":"levelo://app?vid=d1d2b5b8-08c4-4846-a980-a1694a91c4bc","ios":"levelo://app?vid=d1d2b5b8-08c4-4846-a980-a1694a91c4bc"},"vehicle_type_id":"4","last_reported":1768205944,"current_range_meters":4800,"station_id":"st_cvj6sg6p6f1abm77japg","pricing_plan_id":"cebpf4jnsgd1na2vs0mg"},{"bike_id":"affd63c6-b8a1-443d-bb79-e5ac663010fa","system_id":"levelo_inurba_marseille","lat":43.3155,"lon":5.39838,"is_reserved":false,"is_disabled":false,"rental_uris":{"android":"levelo://app?vid=affd63c6-b8a1-443d-bb79-e5ac663010fa","ios":"levelo://app?vid=affd63c6-b8a1-443d-bb79-e5ac663010fa"},"vehicle_type_id":"4","last_reported":1768205944,"current_range_meters":4800,"station_id":"","pricing_plan_id":"cebpf4jnsgd1na2vs0mg"},{"bike_id":"cbdddb1d-51eb-4704-9311-2cc797b2a12c","system_id":"levelo_inurba_marseille","lat":43.23144,"lon":5.43727,"is_reserved":false,"is_disabled":false,"rental_uris":{"android":"levelo://app?vid=cbdddb1d-51eb-4704-9311-2cc797b2a12c","ios":"levelo://app?vid=cbdddb1d-51eb-4704-9311-2cc797b2a12c"},"vehicle_type_id":"4","last_reported":1768205944,"current_range_meters":4800,"station_id":"ce4bhmp2rcd13ifvqgog","pricing_plan_id":"cebpf4jnsgd1na2vs0mg"},{"bike_id":"c59f5a79-013e-434e-937e-1cdde0b23ac2","system_id":"levelo_inurba_marseille","lat":43.25333,"lon":5.4218,"is_reserved":false,"is_disabled":false,"rental_uris":{"android":"levelo://app?vid=c59f5a79-013e-434e-937e-1cdde0b23ac2","ios":"levelo://app?vid=c59f5a79-013e-434e-937e-1cdde0b23ac2"},"vehicle_type_id":"4","last_reported":1768205944,"current_range_meters":4800,"station_id":"st_d2m65c5bi1j21697t3ng","pricing_plan_id":"cebpf4jnsgd1na2vs0mg"},{"bike_id":"c7c3fd4d-fd1d-4f8c-9546-aed8a4e8924a","system_id":"levelo_inurba_marseille","lat":43.27822,"lon":5.40709,"is_reserved":false,"is_disabled":false,"rental_uris":{"android":"levelo://app?vid=c7c3fd4d-fd1d-4f8c-9546-aed8a4e8924a","ios":"levelo://app?vid=c7c3fd4d-fd1d-4f8c-9546-aed8a4e8924a"},"vehicle_type_id":"4","last_reported":1768205944,"current_range_meters":4800,"station_id":"ce4bhnh2rcd13ifvqgtg","pricing_plan_id":"cebpf4jnsgd1na2vs0mg"},{"bike_id":"16a57651-014c-44c7-85c5-405497bf4716","system_id":"levelo_inurba_marseille","lat":43.2926,"lon":5.38433,"is_reserved":false,"is_disabled":false,"rental_uris":{"android":"levelo://app?vid=16a57651-014c-44c7-85c5-405497bf4716","ios":"levelo://app?vid=16a57651-014c-44c7-85c5-405497bf4716"},"vehicle_type_id":"4","last_reported":1768205944,"current_range_meters":4800,"station_id":"ce4bh692rcd13ifvqea0","pricing_plan_id":"cebpf4jnsgd1na2vs0mg"},{"bike_id":"7391bea9-cf28-4483-bef1-ec64b236fa58","system_id":"levelo_inurba_marseille","lat":43.22934,"lon":5.35377,"is_reserved":false,"is_disabled":false,"rental_uris":{"android":"levelo://app?vid=7391bea9-cf28-4483-bef1-ec64b236fa58","ios":"levelo://app?vid=7391bea9-cf28-4483-bef1-ec64b236fa58"},"vehicle_type_id":"4","last_reported":1768205944,"current_range_meters":5600,"station_id":"cpo3532slgdg3j2ikp40","pricing_plan_id":"cebpf4jnsgd1na2vs0mg"},{"bike_id":"15687bc0-05f1-4300-868e-707e755d590d","system_id":"levelo_inurba_marseille","lat":43.27674,"lon":5.38868,"is_reserved":false,"is_disabled":false,"rental_uris":{"android":"levelo://app?vid=15687bc0-05f1-4300-868e-707e755d590d","ios":"levelo://app?vid=15687bc0-05f1-4300-868e-707e755d590d"},"vehicle_type_id":"4","last_reported":1768205944,"current_range_meters":5600,"station_id":"ce4bhi12rcd13ifvqfo0","pricing_plan_id":"cebpf4jnsgd1na2vs0mg"},{"bike_id":"9fa22f45-a9dd-45b5-89e0-49da596fcd5a","system_id":"levelo_inurba_marseille","lat":43.24545,"lon":5.39525,"is_reserved":false,"is_disabled":false,"rental_uris":{"android":"levelo://app?vid=9fa22f45-a9dd-45b5-89e0-49da596fcd5a","ios":"levelo://app?vid=9fa22f45-a9dd-45b5-89e0-49da596fcd5a"},"vehicle_type_id":"4","last_reported":1768205944,"current_range_meters":5600,"station_id":"ce4bhlp2rcd13ifvqgjg","pricing_plan_id":"cebpf4jnsgd1na2vs0mg"},{"bike_id":"2e17ea1e-1ee6-4b02-964a-826e174a77e9","system_id":"levelo_inurba_marseille","lat":43.278086,"lon":5.407039,"is_reserved":false,"is_disabled":false,"rental_uris":{"android":"levelo://app?vid=2e17ea1e-1ee6-4b02-964a-826e174a77e9","ios":"levelo://app?vid=2e17ea1e-1ee6-4b02-964a-826e174a77e9"},"vehicle_type_id":"4","last_reported":1768205944,"current_range_meters":5600,"station_id":"ce4bhnh2rcd13ifvqgtg","pricing_plan_id":"cebpf4jnsgd1na2vs0mg"},{"bike_id":"748968f8-327c-4969-9ba7-2d3fe0ea40f7","system_id":"levelo_inurba_marseille","lat":43.29508,"lon":5.39633,"is_reserved":false,"is_disabled":false,"rental_uris":{"android":"levelo://app?vid=748968f8-327c-4969-9ba7-2d3fe0ea40f7","ios":"levelo://app?vid=748968f8-327c-4969-9ba7-2d3fe0ea40f7"},"vehicle_type_id":"4","last_reported":1768205944,"current_range_meters":5600,"station_id":"","pricing_plan_id":"cebpf4jnsgd1na2vs0mg"},{"bike_id":"739b9c75-e4e2-4afd-940a-adf7aa79d965","system_id":"levelo_inurba_marseille","lat":43.265675,"lon":5.390224,"is_reserved":false,"is_disabled":false,"rental_uris":{"android":"levelo://app?vid=739b9c75-e4e2-4afd-940a-adf7aa79d965","ios":"levelo://app?vid=739b9c75-e4e2-4afd-940a-adf7aa79d965"},"vehicle_type_id":"4","last_reported":1768205944,"current_range_meters":5600,"station_id":"ce4bhe12rcd13ifvqf30","pricing_plan_id":"cebpf4jnsgd1na2vs0mg"},{"bike_id":"439a61d5-d051-40af-9b0f-2926884e52eb","system_id":"levelo_inurba_marseille","lat":43.30722,"lon":5.40991,"is_reserved":false,"is_disabled":false,"rental_uris":{"android":"levelo://app?vid=439a61d5-d051-40af-9b0f-2926884e52eb","ios":"levelo://app?vid=439a61d5-d051-40af-9b0f-2926884e52eb"},"vehicle_type_id":"4","last_reported":1768205944,"current_range_meters":5600,"station_id":"","pricing_plan_id":"cebpf4jnsgd1na2vs0mg"},{"bike_id":"83e16bc7-29d6-4595-af9d-c81a8cdf3e20","system_id":"levelo_inurba_marseille","lat":43.30175,"lon":5.38079,"is_reserved":false,"is_disabled":false,"rental_uris":{"android":"levelo://app?vid=83e16bc7-29d6-4595-af9d-c81a8cdf3e20","ios":"levelo://app?vid=83e16bc7-29d6-4595-af9d-c81a8cdf3e20"},"vehicle_type_id":"4","last_reported":1768205944,"current_range_meters":5600,"station_id":"ce4bgjp2rcd13ifvqbh0","pricing_plan_id":"cebpf4jnsgd1na2vs0mg"},{"bike_id":"ed2cd03a-66bb-4e81-9432-86bceab963be","system_id":"levelo_inurba_marseille","lat":43.22563,"lon":5.41636,"is_reserved":false,"is_disabled":false,"rental_uris":{"android":"levelo://app?vid=ed2cd03a-66bb-4e81-9432-86bceab963be","ios":"levelo://app?vid=ed2cd03a-66bb-4e81-9432-86bceab963be"},"vehicle_type_id":"4","last_reported":1768205944,"current_range_meters":5600,"station_id":"st_d2o4gvlbi1j2169b742g","pricing_plan_id":"cebpf4jnsgd1na2vs0mg"},{"bike_id":"a32529b7-5a9a-4ff3-9820-03d7619f7470","system_id":"levelo_inurba_marseille","lat":43.2953,"lon":5.394,"is_reserved":false,"is_disabled":false,"rental_uris":{"android":"levelo://app?vid=a32529b7-5a9a-4ff3-9820-03d7619f7470","ios":"levelo://app?vid=a32529b7-5a9a-4ff3-9820-03d7619f7470"},"vehicle_type_id":"4","last_reported":1768205944,"current_range_meters":5600,"station_id":"ce4bh292rcd13ifvqdf0","pricing_plan_id":"cebpf4jnsgd1na2vs0mg"},{"bike_id":"d62f9e36-0176-47ea-b04e-e25d60615654","system_id":"levelo_inurba_marseille","lat":43.2649,"lon":5.39573,"is_reserved":false,"is_disabled":false,"rental_uris":{"android":"levelo://app?vid=d62f9e36-0176-47ea-b04e-e25d60615654","ios":"levelo://app?vid=d62f9e36-0176-47ea-b04e-e25d60615654"},"vehicle_type_id":"4","last_reported":1768205944,"current_range_meters":5600,"station_id":"ce4bhi12rcd13ifvqfq0","pricing_plan_id":"cebpf4jnsgd1na2vs0mg"},{"bike_id":"cfa9d431-0c3a-47b2-bafd-95922015c415","system_id":"levelo_inurba_marseille","lat":43.31858,"lon":5.37685,"is_reserved":false,"is_disabled":false,"rental_uris":{"android":"levelo://app?vid=cfa9d431-0c3a-47b2-bafd-95922015c415","ios":"levelo://app?vid=cfa9d431-0c3a-47b2-bafd-95922015c415"},"vehicle_type_id":"4","last_reported":1768205944,"current_range_meters":5600,"station_id":"","pricing_plan_id":"cebpf4jnsgd1na2vs0mg"},{"bike_id":"cfc31cb0-49ca-4b30-8c65-0b6d74754b4a","system_id":"levelo_inurba_marseille","lat":43.28626,"lon":5.42631,"is_reserved":false,"is_disabled":false,"rental_uris":{"android":"levelo://app?vid=cfc31cb0-49ca-4b30-8c65-0b6d74754b4a","ios":"levelo://app?vid=cfc31cb0-49ca-4b30-8c65-0b6d74754b4a"},"vehicle_type_id":"4","last_reported":1768205944,"current_range_meters":5600,"station_id":"","pricing_plan_id":"cebpf4jnsgd1na2vs0mg"},{"bike_id":"cbc05215-eae3-482c-8a83-406d798cd6ab","system_id":"levelo_inurba_marseille","lat":43.241667,"lon":5.363933,"is_reserved":false,"is_disabled":false,"rental_uris":{"android":"levelo://app?vid=cbc05215-eae3-482c-8a83-406d798cd6ab","ios":"levelo://app?vid=cbc05215-eae3-482c-8a83-406d798cd6ab"},"vehicle_type_id":"4","last_reported":1768205944,"current_range_meters":5600,"station_id":"cpo36qri1sfpv3e86is0","pricing_plan_id":"cebpf4jnsgd1na2vs0mg"},{"bike_id":"4aeb7be4-6540-4819-a2a5-714be90ccdb8","system_id":"levelo_inurba_marseille","lat":43.314849,"lon":5.373079,"is_reserved":false,"is_disabled":false,"rental_uris":{"android":"levelo://app?vid=4aeb7be4-6540-4819-a2a5-714be90ccdb8","ios":"levelo://app?vid=4aeb7be4-6540-4819-a2a5-714be90ccdb8"},"vehicle_type_id":"4","last_reported":1768205944,"current_range_meters":6000,"station_id":"ce4bgt12rcd13ifvqcd0","pricing_plan_id":"cebpf4jnsgd1na2vs0mg"},{"bike_id":"42f33adc-fe65-4ac4-9016-fac52b6274ac","system_id":"levelo_inurba_marseille","lat":43.25359,"lon":5.42139,"is_reserved":false,"is_disabled":false,"rental_uris":{"android":"levelo://app?vid=42f33adc-fe65-4ac4-9016-fac52b6274ac","ios":"levelo://app?vid=42f33adc-fe65-4ac4-9016-fac52b6274ac"},"vehicle_type_id":"4","last_reported":1768205944,"current_range_meters":6000,"station_id":"st_d2m65c5bi1j21697t3ng","pricing_plan_id":"cebpf4jnsgd1na2vs0mg"},{"bike_id":"e48607cd-b2f5-4b5a-9c6c-86ffe0a63554","system_id":"levelo_inurba_marseille","lat":43.24395,"lon":5.37069,"is_reserved":false,"is_disabled":false,"rental_uris":{"android":"levelo://app?vid=e48607cd-b2f5-4b5a-9c6c-86ffe0a63554","ios":"levelo://app?vid=e48607cd-b2f5-4b5a-9c6c-86ffe0a63554"},"vehicle_type_id":"4","last_reported":1768205944,"current_range_meters":6000,"station_id":"ce4bhhh2rcd13ifvqfk0","pricing_plan_id":"cebpf4jnsgd1na2vs0mg"},{"bike_id":"e8cc55ed-6dbf-42a1-9d30-a86610322615","system_id":"levelo_inurba_marseille","lat":43.28935,"lon":5.36379,"is_reserved":false,"is_disabled":false,"rental_uris":{"android":"levelo://app?vid=e8cc55ed-6dbf-42a1-9d30-a86610322615","ios":"levelo://app?vid=e8cc55ed-6dbf-42a1-9d30-a86610322615"},"vehicle_type_id":"4","last_reported":1768205944,"current_range_meters":6000,"station_id":"ce4bhc92rcd13ifvqetg","pricing_plan_id":"cebpf4jnsgd1na2vs0mg"},{"bike_id":"1f38f0a0-9d5e-4cb4-93c5-d4ef43fbf00e","system_id":"levelo_inurba_marseille","lat":43.30609,"lon":5.37138,"is_reserved":false,"is_disabled":false,"rental_uris":{"android":"levelo://app?vid=1f38f0a0-9d5e-4cb4-93c5-d4ef43fbf00e","ios":"levelo://app?vid=1f38f0a0-9d5e-4cb4-93c5-d4ef43fbf00e"},"vehicle_type_id":"4","last_reported":1768205944,"current_range_meters":6000,"station_id":"","pricing_plan_id":"cebpf4jnsgd1na2vs0mg"},{"bike_id":"95172e0d-44d7-4bb1-abdc-dd3fd118e056","system_id":"levelo_inurba_marseille","lat":43.27987,"lon":5.41657,"is_reserved":false,"is_disabled":false,"rental_uris":{"android":"levelo://app?vid=95172e0d-44d7-4bb1-abdc-dd3fd118e056","ios":"levelo://app?vid=95172e0d-44d7-4bb1-abdc-dd3fd118e056"},"vehicle_type_id":"4","last_reported":1768205944,"current_range_meters":6000,"station_id":"ce4bho12rcd13ifvqh1g","pricing_plan_id":"cebpf4jnsgd1na2vs0mg"},{"bike_id":"c28651f8-c7f3-47c0-a854-7c444378edc7","system_id":"levelo_inurba_marseille","lat":43.24073,"lon":5.37767,"is_reserved":false,"is_disabled":false,"rental_uris":{"android":"levelo://app?vid=c28651f8-c7f3-47c0-a854-7c444378edc7","ios":"levelo://app?vid=c28651f8-c7f3-47c0-a854-7c444378edc7"},"vehicle_type_id":"4","last_reported":1768205944,"current_range_meters":6000,"station_id":"ce4bhnp2rcd13ifvqgvg","pricing_plan_id":"cebpf4jnsgd1na2vs0mg"},{"bike_id":"b9a0deb0-6fe6-4051-9ed1-304381243667","system_id":"levelo_inurba_marseille","lat":43.2958,"lon":5.37481,"is_reserved":false,"is_disabled":true,"rental_uris":{"android":"levelo://app?vid=b9a0deb0-6fe6-4051-9ed1-304381243667","ios":"levelo://app?vid=b9a0deb0-6fe6-4051-9ed1-304381243667"},"vehicle_type_id":"4","last_reported":1768205944,"current_range_meters":6000,"station_id":"ce4bgh92rcd13ifvqb50","pricing_plan_id":"cebpf4jnsgd1na2vs0mg"},{"bike_id":"c2ad736a-0f34-4b3e-820d-2640a768895d","system_id":"levelo_inurba_marseille","lat":43.22923,"lon":5.3538,"is_reserved":false,"is_disabled":true,"rental_uris":{"android":"levelo://app?vid=c2ad736a-0f34-4b3e-820d-2640a768895d","ios":"levelo://app?vid=c2ad736a-0f34-4b3e-820d-2640a768895d"},"vehicle_type_id":"4","last_reported":1768205944,"current_range_meters":6000,"station_id":"cpo3532slgdg3j2ikp40","pricing_plan_id":"cebpf4jnsgd1na2vs0mg"},{"bike_id":"fd81f0f7-5687-4c78-93a6-8e3e6e68e0a4","system_id":"levelo_inurba_marseille","lat":43.29042,"lon":5.37574,"is_reserved":false,"is_disabled":false,"rental_uris":{"android":"levelo://app?vid=fd81f0f7-5687-4c78-93a6-8e3e6e68e0a4","ios":"levelo://app?vid=fd81f0f7-5687-4c78-93a6-8e3e6e68e0a4"},"vehicle_type_id":"4","last_reported":1768205944,"current_range_meters":6000,"station_id":"ce4bh692rcd13ifvqe90","pricing_plan_id":"cebpf4jnsgd1na2vs0mg"},{"bike_id":"d3b1ee38-bad2-49e7-8aa5-107fe72388a4","system_id":"levelo_inurba_marseille","lat":43.28327,"lon":5.380981,"is_reserved":false,"is_disabled":false,"rental_uris":{"android":"levelo://app?vid=d3b1ee38-bad2-49e7-8aa5-107fe72388a4","ios":"levelo://app?vid=d3b1ee38-bad2-49e7-8aa5-107fe72388a4"},"vehicle_type_id":"4","last_reported":1768205944,"current_range_meters":6000,"station_id":"ce4bh412rcd13ifvqdr0","pricing_plan_id":"cebpf4jnsgd1na2vs0mg"},{"bike_id":"d9ce34fe-fe90-4e47-b6ba-341532773938","system_id":"levelo_inurba_marseille","lat":43.2407,"lon":5.3776,"is_reserved":false,"is_disabled":false,"rental_uris":{"android":"levelo://app?vid=d9ce34fe-fe90-4e47-b6ba-341532773938","ios":"levelo://app?vid=d9ce34fe-fe90-4e47-b6ba-341532773938"},"vehicle_type_id":"4","last_reported":1768205944,"current_range_meters":6000,"station_id":"ce4bhnp2rcd13ifvqgvg","pricing_plan_id":"cebpf4jnsgd1na2vs0mg"},{"bike_id":"8c9546b7-23eb-4b17-8fd1-f7ab5af8e789","system_id":"levelo_inurba_marseille","lat":43.31079,"lon":5.42434,"is_reserved":false,"is_disabled":false,"rental_uris":{"android":"levelo://app?vid=8c9546b7-23eb-4b17-8fd1-f7ab5af8e789","ios":"levelo://app?vid=8c9546b7-23eb-4b17-8fd1-f7ab5af8e789"},"vehicle_type_id":"4","last_reported":1768205944,"current_range_meters":6000,"station_id":"ce4bhp92rcd13ifvqhag","pricing_plan_id":"cebpf4jnsgd1na2vs0mg"},{"bike_id":"b835307e-0757-4153-8e31-ce3378be4d4e","system_id":"levelo_inurba_marseille","lat":43.25028,"lon":5.3892,"is_reserved":false,"is_disabled":false,"rental_uris":{"android":"levelo://app?vid=b835307e-0757-4153-8e31-ce3378be4d4e","ios":"levelo://app?vid=b835307e-0757-4153-8e31-ce3378be4d4e"},"vehicle_type_id":"4","last_reported":1768205944,"current_range_meters":6000,"station_id":"ce4bhgp2rcd13ifvqfd0","pricing_plan_id":"cebpf4jnsgd1na2vs0mg"},{"bike_id":"e69a6ed5-b514-48b2-8369-f158471012bc","system_id":"levelo_inurba_marseille","lat":43.225339,"lon":5.348392,"is_reserved":false,"is_disabled":false,"rental_uris":{"android":"levelo://app?vid=e69a6ed5-b514-48b2-8369-f158471012bc","ios":"levelo://app?vid=e69a6ed5-b514-48b2-8369-f158471012bc"},"vehicle_type_id":"4","last_reported":1768205944,"current_range_meters":6000,"station_id":"","pricing_plan_id":"cebpf4jnsgd1na2vs0mg"},{"bike_id":"f7c2e365-3405-4288-8419-9bbd8f25eece","system_id":"levelo_inurba_marseille","lat":43.22929,"lon":5.3537,"is_reserved":false,"is_disabled":false,"rental_uris":{"android":"levelo://app?vid=f7c2e365-3405-4288-8419-9bbd8f25eece","ios":"levelo://app?vid=f7c2e365-3405-4288-8419-9bbd8f25eece"},"vehicle_type_id":"4","last_reported":1768205944,"current_range_meters":6000,"station_id":"cpo3532slgdg3j2ikp40","pricing_plan_id":"cebpf4jnsgd1na2vs0mg"},{"bike_id":"0fee359e-fd0a-419a-8bad-68dfffe61373","system_id":"levelo_inurba_marseille","lat":43.32533,"lon":5.40672,"is_reserved":false,"is_disabled":false,"rental_uris":{"android":"levelo://app?vid=0fee359e-fd0a-419a-8bad-68dfffe61373","ios":"levelo://app?vid=0fee359e-fd0a-419a-8bad-68dfffe61373"},"vehicle_type_id":"4","last_reported":1768205944,"current_range_meters":6000,"station_id":"","pricing_plan_id":"cebpf4jnsgd1na2vs0mg"},{"bike_id":"5f981a6e-8136-4763-bc15-9772dec1ff09","system_id":"levelo_inurba_marseille","lat":43.27174,"lon":5.40997,"is_reserved":false,"is_disabled":false,"rental_uris":{"android":"levelo://app?vid=5f981a6e-8136-4763-bc15-9772dec1ff09","ios":"levelo://app?vid=5f981a6e-8136-4763-bc15-9772dec1ff09"},"vehicle_type_id":"4","last_reported":1768205944,"current_range_meters":6000,"station_id":"ce4bhl12rcd13ifvqgf0","pricing_plan_id":"cebpf4jnsgd1na2vs0mg"},{"bike_id":"0ee05af5-25e8-44b9-9b8c-5cd2d5665069","system_id":"levelo_inurba_marseille","lat":43.23202,"lon":5.35547,"is_reserved":false,"is_disabled":false,"rental_uris":{"android":"levelo://app?vid=0ee05af5-25e8-44b9-9b8c-5cd2d5665069","ios":"levelo://app?vid=0ee05af5-25e8-44b9-9b8c-5cd2d5665069"},"vehicle_type_id":"4","last_reported":1768205944,"current_range_meters":6000,"station_id":"ce4bhu92rcd13ifvqi70","pricing_plan_id":"cebpf4jnsgd1na2vs0mg"},{"bike_id":"c09077fd-b45e-4923-87ed-8f3d3b3f4e4e","system_id":"levelo_inurba_marseille","lat":43.28475,"lon":5.48393,"is_reserved":false,"is_disabled":false,"rental_uris":{"android":"levelo://app?vid=c09077fd-b45e-4923-87ed-8f3d3b3f4e4e","ios":"levelo://app?vid=c09077fd-b45e-4923-87ed-8f3d3b3f4e4e"},"vehicle_type_id":"4","last_reported":1768205944,"current_range_meters":6000,"station_id":"","pricing_plan_id":"cebpf4jnsgd1na2vs0mg"},{"bike_id":"21c109ac-e8ef-4037-9186-0bc96f2921c1","system_id":"levelo_inurba_marseille","lat":43.23204,"lon":5.35563,"is_reserved":false,"is_disabled":false,"rental_uris":{"android":"levelo://app?vid=21c109ac-e8ef-4037-9186-0bc96f2921c1","ios":"levelo://app?vid=21c109ac-e8ef-4037-9186-0bc96f2921c1"},"vehicle_type_id":"4","last_reported":1768205944,"current_range_meters":6000,"station_id":"ce4bhu92rcd13ifvqi70","pricing_plan_id":"cebpf4jnsgd1na2vs0mg"},{"bike_id":"8c3592ce-81e6-42d0-ba76-e6a535161275","system_id":"levelo_inurba_marseille","lat":43.290758,"lon":5.371782,"is_reserved":false,"is_disabled":false,"rental_uris":{"android":"levelo://app?vid=8c3592ce-81e6-42d0-ba76-e6a535161275","ios":"levelo://app?vid=8c3592ce-81e6-42d0-ba76-e6a535161275"},"vehicle_type_id":"4","last_reported":1768205944,"current_range_meters":6400,"station_id":"ce4bgh92rcd13ifvqb50","pricing_plan_id":"cebpf4jnsgd1na2vs0mg"},{"bike_id":"9a3bcfa8-754c-46dc-9e23-cede3ccc5a9b","system_id":"levelo_inurba_marseille","lat":43.25576,"lon":5.38239,"is_reserved":false,"is_disabled":false,"rental_uris":{"android":"levelo://app?vid=9a3bcfa8-754c-46dc-9e23-cede3ccc5a9b","ios":"levelo://app?vid=9a3bcfa8-754c-46dc-9e23-cede3ccc5a9b"},"vehicle_type_id":"4","last_reported":1768205944,"current_range_meters":6400,"station_id":"ce4bhih2rcd13ifvqfs0","pricing_plan_id":"cebpf4jnsgd1na2vs0mg"},{"bike_id":"403f8c73-7900-479f-8ac5-a80e802353b8","system_id":"levelo_inurba_marseille","lat":43.29263,"lon":5.37626,"is_reserved":false,"is_disabled":false,"rental_uris":{"android":"levelo://app?vid=403f8c73-7900-479f-8ac5-a80e802353b8","ios":"levelo://app?vid=403f8c73-7900-479f-8ac5-a80e802353b8"},"vehicle_type_id":"4","last_reported":1768205944,"current_range_meters":6400,"station_id":"ce4bgi12rcd13ifvqb80","pricing_plan_id":"cebpf4jnsgd1na2vs0mg"},{"bike_id":"9eca2961-2c23-4aca-b3c7-bf4fc3359b46","system_id":"levelo_inurba_marseille","lat":43.2416,"lon":5.36395,"is_reserved":false,"is_disabled":false,"rental_uris":{"android":"levelo://app?vid=9eca2961-2c23-4aca-b3c7-bf4fc3359b46","ios":"levelo://app?vid=9eca2961-2c23-4aca-b3c7-bf4fc3359b46"},"vehicle_type_id":"4","last_reported":1768205944,"current_range_meters":6400,"station_id":"cpo36qri1sfpv3e86is0","pricing_plan_id":"cebpf4jnsgd1na2vs0mg"},{"bike_id":"0029105a-7810-4315-9d79-ce4d3ad076e9","system_id":"levelo_inurba_marseille","lat":43.30737,"lon":5.42442,"is_reserved":false,"is_disabled":false,"rental_uris":{"android":"levelo://app?vid=0029105a-7810-4315-9d79-ce4d3ad076e9","ios":"levelo://app?vid=0029105a-7810-4315-9d79-ce4d3ad076e9"},"vehicle_type_id":"4","last_reported":1768205944,"current_range_meters":6400,"station_id":"st_cvj6ca6bvosntc0bfgr0","pricing_plan_id":"cebpf4jnsgd1na2vs0mg"},{"bike_id":"3b05d4eb-8bd1-4878-bb96-9f98dad333b9","system_id":"levelo_inurba_marseille","lat":43.30367,"lon":5.37326,"is_reserved":false,"is_disabled":false,"rental_uris":{"android":"levelo://app?vid=3b05d4eb-8bd1-4878-bb96-9f98dad333b9","ios":"levelo://app?vid=3b05d4eb-8bd1-4878-bb96-9f98dad333b9"},"vehicle_type_id":"4","last_reported":1768205944,"current_range_meters":6400,"station_id":"","pricing_plan_id":"cebpf4jnsgd1na2vs0mg"},{"bike_id":"5407d723-4a9f-44fb-96cd-4d21d8607664","system_id":"levelo_inurba_marseille","lat":43.29194,"lon":5.35816,"is_reserved":false,"is_disabled":false,"rental_uris":{"android":"levelo://app?vid=5407d723-4a9f-44fb-96cd-4d21d8607664","ios":"levelo://app?vid=5407d723-4a9f-44fb-96cd-4d21d8607664"},"vehicle_type_id":"4","last_reported":1768205944,"current_range_meters":6400,"station_id":"ce4bhb12rcd13ifvqel0","pricing_plan_id":"cebpf4jnsgd1na2vs0mg"},{"bike_id":"c7aa20f8-983d-45fa-8f15-bc3b76c15f97","system_id":"levelo_inurba_marseille","lat":43.32316,"lon":5.37045,"is_reserved":false,"is_disabled":false,"rental_uris":{"android":"levelo://app?vid=c7aa20f8-983d-45fa-8f15-bc3b76c15f97","ios":"levelo://app?vid=c7aa20f8-983d-45fa-8f15-bc3b76c15f97"},"vehicle_type_id":"4","last_reported":1768205944,"current_range_meters":6400,"station_id":"","pricing_plan_id":"cebpf4jnsgd1na2vs0mg"},{"bike_id":"c0e1b22c-9e67-43eb-b8e9-683099f38799","system_id":"levelo_inurba_marseille","lat":43.28705,"lon":5.37956,"is_reserved":false,"is_disabled":false,"rental_uris":{"android":"levelo://app?vid=c0e1b22c-9e67-43eb-b8e9-683099f38799","ios":"levelo://app?vid=c0e1b22c-9e67-43eb-b8e9-683099f38799"},"vehicle_type_id":"4","last_reported":1768205944,"current_range_meters":6400,"station_id":"","pricing_plan_id":"cebpf4jnsgd1na2vs0mg"},{"bike_id":"668f657c-080f-48b0-9021-5fd57a58f9ab","system_id":"levelo_inurba_marseille","lat":43.29027,"lon":5.39973,"is_reserved":false,"is_disabled":false,"rental_uris":{"android":"levelo://app?vid=668f657c-080f-48b0-9021-5fd57a58f9ab","ios":"levelo://app?vid=668f657c-080f-48b0-9021-5fd57a58f9ab"},"vehicle_type_id":"4","last_reported":1768205944,"current_range_meters":6400,"station_id":"ce4bh392rcd13ifvqdm0","pricing_plan_id":"cebpf4jnsgd1na2vs0mg"},{"bike_id":"d162d197-a0fd-462d-a34b-b55f6754275b","system_id":"levelo_inurba_marseille","lat":43.26068,"lon":5.39393,"is_reserved":false,"is_disabled":false,"rental_uris":{"android":"levelo://app?vid=d162d197-a0fd-462d-a34b-b55f6754275b","ios":"levelo://app?vid=d162d197-a0fd-462d-a34b-b55f6754275b"},"vehicle_type_id":"4","last_reported":1768205944,"current_range_meters":6400,"station_id":"ce4bhh92rcd13ifvqfj0","pricing_plan_id":"cebpf4jnsgd1na2vs0mg"},{"bike_id":"38a5a6be-7a66-462f-bfdd-a381aa75e6d3","system_id":"levelo_inurba_marseille","lat":43.28685,"lon":5.38669,"is_reserved":false,"is_disabled":true,"rental_uris":{"android":"levelo://app?vid=38a5a6be-7a66-462f-bfdd-a381aa75e6d3","ios":"levelo://app?vid=38a5a6be-7a66-462f-bfdd-a381aa75e6d3"},"vehicle_type_id":"4","last_reported":1768205944,"current_range_meters":6400,"station_id":"ce4bh492rcd13ifvqdug","pricing_plan_id":"cebpf4jnsgd1na2vs0mg"},{"bike_id":"8c2fa2bb-62c3-4e34-9fe1-d67d65e692b3","system_id":"levelo_inurba_marseille","lat":43.23187,"lon":5.39991,"is_reserved":false,"is_disabled":true,"rental_uris":{"android":"levelo://app?vid=8c2fa2bb-62c3-4e34-9fe1-d67d65e692b3","ios":"levelo://app?vid=8c2fa2bb-62c3-4e34-9fe1-d67d65e692b3"},"vehicle_type_id":"4","last_reported":1768205944,"current_range_meters":6400,"station_id":"ce4bhn12rcd13ifvqgqg","pricing_plan_id":"cebpf4jnsgd1na2vs0mg"},{"bike_id":"b3d9f58a-7b40-4af9-9d80-9d6fb2f356d9","system_id":"levelo_inurba_marseille","lat":43.28481,"lon":5.38216,"is_reserved":false,"is_disabled":false,"rental_uris":{"android":"levelo://app?vid=b3d9f58a-7b40-4af9-9d80-9d6fb2f356d9","ios":"levelo://app?vid=b3d9f58a-7b40-4af9-9d80-9d6fb2f356d9"},"vehicle_type_id":"4","last_reported":1768205944,"current_range_meters":6400,"station_id":"","pricing_plan_id":"cebpf4jnsgd1na2vs0mg"},{"bike_id":"a0b9fac4-99be-449f-a28b-5c85c327a2dc","system_id":"levelo_inurba_marseille","lat":43.28852,"lon":5.39322,"is_reserved":false,"is_disabled":true,"rental_uris":{"android":"levelo://app?vid=a0b9fac4-99be-449f-a28b-5c85c327a2dc","ios":"levelo://app?vid=a0b9fac4-99be-449f-a28b-5c85c327a2dc"},"vehicle_type_id":"4","last_reported":1768205944,"current_range_meters":6400,"station_id":"ce4bh2p2rcd13ifvqdi0","pricing_plan_id":"cebpf4jnsgd1na2vs0mg"},{"bike_id":"32911317-1487-4d15-817a-1ada45dd566d","system_id":"levelo_inurba_marseille","lat":43.31724,"lon":5.37753,"is_reserved":false,"is_disabled":false,"rental_uris":{"android":"levelo://app?vid=32911317-1487-4d15-817a-1ada45dd566d","ios":"levelo://app?vid=32911317-1487-4d15-817a-1ada45dd566d"},"vehicle_type_id":"4","last_reported":1768205944,"current_range_meters":6400,"station_id":"ce4bgth2rcd13ifvqch0","pricing_plan_id":"cebpf4jnsgd1na2vs0mg"},{"bike_id":"097b1db9-7cfb-4c5a-94d5-72ec3ba5c8b3","system_id":"levelo_inurba_marseille","lat":43.27998,"lon":5.40892,"is_reserved":false,"is_disabled":false,"rental_uris":{"android":"levelo://app?vid=097b1db9-7cfb-4c5a-94d5-72ec3ba5c8b3","ios":"levelo://app?vid=097b1db9-7cfb-4c5a-94d5-72ec3ba5c8b3"},"vehicle_type_id":"4","last_reported":1768205944,"current_range_meters":6400,"station_id":"","pricing_plan_id":"cebpf4jnsgd1na2vs0mg"},{"bike_id":"94a2c469-f97b-41fb-9158-608de3f137b1","system_id":"levelo_inurba_marseille","lat":43.232,"lon":5.35549,"is_reserved":false,"is_disabled":false,"rental_uris":{"android":"levelo://app?vid=94a2c469-f97b-41fb-9158-608de3f137b1","ios":"levelo://app?vid=94a2c469-f97b-41fb-9158-608de3f137b1"},"vehicle_type_id":"4","last_reported":1768205944,"current_range_meters":6400,"station_id":"ce4bhu92rcd13ifvqi70","pricing_plan_id":"cebpf4jnsgd1na2vs0mg"},{"bike_id":"99fe5b1b-414f-4991-bd96-50c5447c2892","system_id":"levelo_inurba_marseille","lat":43.27494,"lon":5.42448,"is_reserved":false,"is_disabled":false,"rental_uris":{"android":"levelo://app?vid=99fe5b1b-414f-4991-bd96-50c5447c2892","ios":"levelo://app?vid=99fe5b1b-414f-4991-bd96-50c5447c2892"},"vehicle_type_id":"4","last_reported":1768205944,"current_range_meters":6400,"station_id":"ce4bhn92rcd13ifvqgrg","pricing_plan_id":"cebpf4jnsgd1na2vs0mg"},{"bike_id":"858e8a6e-ece2-491f-b2a2-0e10d2fd226b","system_id":"levelo_inurba_marseille","lat":43.29006,"lon":5.35642,"is_reserved":false,"is_disabled":false,"rental_uris":{"android":"levelo://app?vid=858e8a6e-ece2-491f-b2a2-0e10d2fd226b","ios":"levelo://app?vid=858e8a6e-ece2-491f-b2a2-0e10d2fd226b"},"vehicle_type_id":"4","last_reported":1768205944,"current_range_meters":6400,"station_id":"ce4bhb92rcd13ifvqen0","pricing_plan_id":"cebpf4jnsgd1na2vs0mg"},{"bike_id":"4c324f28-3fc8-49aa-b16d-f3785a697b6c","system_id":"levelo_inurba_marseille","lat":43.237852,"lon":5.366317,"is_reserved":false,"is_disabled":false,"rental_uris":{"android":"levelo://app?vid=4c324f28-3fc8-49aa-b16d-f3785a697b6c","ios":"levelo://app?vid=4c324f28-3fc8-49aa-b16d-f3785a697b6c"},"vehicle_type_id":"4","last_reported":1768205944,"current_range_meters":6400,"station_id":"st_d3nk18o9ro0c73en2l3g","pricing_plan_id":"cebpf4jnsgd1na2vs0mg"},{"bike_id":"df716708-6e79-4006-b7b2-76e051822b75","system_id":"levelo_inurba_marseille","lat":43.29042,"lon":5.3996,"is_reserved":false,"is_disabled":false,"rental_uris":{"android":"levelo://app?vid=df716708-6e79-4006-b7b2-76e051822b75","ios":"levelo://app?vid=df716708-6e79-4006-b7b2-76e051822b75"},"vehicle_type_id":"4","last_reported":1768205944,"current_range_meters":6400,"station_id":"ce4bh392rcd13ifvqdm0","pricing_plan_id":"cebpf4jnsgd1na2vs0mg"},{"bike_id":"6522ac43-c756-4e37-93af-edc798cc6e23","system_id":"levelo_inurba_marseille","lat":43.22919,"lon":5.3539,"is_reserved":false,"is_disabled":false,"rental_uris":{"android":"levelo://app?vid=6522ac43-c756-4e37-93af-edc798cc6e23","ios":"levelo://app?vid=6522ac43-c756-4e37-93af-edc798cc6e23"},"vehicle_type_id":"4","last_reported":1768205944,"current_range_meters":6400,"station_id":"cpo3532slgdg3j2ikp40","pricing_plan_id":"cebpf4jnsgd1na2vs0mg"},{"bike_id":"551e9f37-b525-4909-9e6e-0277dfd85b6b","system_id":"levelo_inurba_marseille","lat":43.22555,"lon":5.41633,"is_reserved":false,"is_disabled":false,"rental_uris":{"android":"levelo://app?vid=551e9f37-b525-4909-9e6e-0277dfd85b6b","ios":"levelo://app?vid=551e9f37-b525-4909-9e6e-0277dfd85b6b"},"vehicle_type_id":"4","last_reported":1768205944,"current_range_meters":6400,"station_id":"st_d2o4gvlbi1j2169b742g","pricing_plan_id":"cebpf4jnsgd1na2vs0mg"},{"bike_id":"c7c7fbe4-26ef-4dcf-8f81-a3674c0e5989","system_id":"levelo_inurba_marseille","lat":43.24645,"lon":5.38184,"is_reserved":false,"is_disabled":false,"rental_uris":{"android":"levelo://app?vid=c7c7fbe4-26ef-4dcf-8f81-a3674c0e5989","ios":"levelo://app?vid=c7c7fbe4-26ef-4dcf-8f81-a3674c0e5989"},"vehicle_type_id":"4","last_reported":1768205944,"current_range_meters":6400,"station_id":"ce4bhih2rcd13ifvqfr0","pricing_plan_id":"cebpf4jnsgd1na2vs0mg"},{"bike_id":"0700dc38-89ca-4102-8c9c-e0c4895543f9","system_id":"levelo_inurba_marseille","lat":43.26933,"lon":5.40277,"is_reserved":false,"is_disabled":true,"rental_uris":{"android":"levelo://app?vid=0700dc38-89ca-4102-8c9c-e0c4895543f9","ios":"levelo://app?vid=0700dc38-89ca-4102-8c9c-e0c4895543f9"},"vehicle_type_id":"4","last_reported":1768205944,"current_range_meters":6400,"station_id":"cjm6bp8fraef2m0cb0m0","pricing_plan_id":"cebpf4jnsgd1na2vs0mg"},{"bike_id":"e56d3240-3ab5-4c61-b1de-0419e7a61ce3","system_id":"levelo_inurba_marseille","lat":43.266795,"lon":5.382735,"is_reserved":false,"is_disabled":false,"rental_uris":{"android":"levelo://app?vid=e56d3240-3ab5-4c61-b1de-0419e7a61ce3","ios":"levelo://app?vid=e56d3240-3ab5-4c61-b1de-0419e7a61ce3"},"vehicle_type_id":"4","last_reported":1768205944,"current_range_meters":6400,"station_id":"ce4bhg92rcd13ifvqf90","pricing_plan_id":"cebpf4jnsgd1na2vs0mg"},{"bike_id":"87f80583-e77b-4973-be71-bea918dfb192","system_id":"levelo_inurba_marseille","lat":43.2256,"lon":5.41647,"is_reserved":false,"is_disabled":false,"rental_uris":{"android":"levelo://app?vid=87f80583-e77b-4973-be71-bea918dfb192","ios":"levelo://app?vid=87f80583-e77b-4973-be71-bea918dfb192"},"vehicle_type_id":"4","last_reported":1768205944,"current_range_meters":6400,"station_id":"st_d2o4gvlbi1j2169b742g","pricing_plan_id":"cebpf4jnsgd1na2vs0mg"},{"bike_id":"48fe020d-dabb-4920-a605-853f62ede408","system_id":"levelo_inurba_marseille","lat":43.29963,"lon":5.39734,"is_reserved":false,"is_disabled":true,"rental_uris":{"android":"levelo://app?vid=48fe020d-dabb-4920-a605-853f62ede408","ios":"levelo://app?vid=48fe020d-dabb-4920-a605-853f62ede408"},"vehicle_type_id":"4","last_reported":1768205944,"current_range_meters":6400,"station_id":"","pricing_plan_id":"cebpf4jnsgd1na2vs0mg"},{"bike_id":"4437dd31-8a75-43c0-a1c3-19f6bd7a371a","system_id":"levelo_inurba_marseille","lat":43.33274,"lon":5.41193,"is_reserved":false,"is_disabled":false,"rental_uris":{"android":"levelo://app?vid=4437dd31-8a75-43c0-a1c3-19f6bd7a371a","ios":"levelo://app?vid=4437dd31-8a75-43c0-a1c3-19f6bd7a371a"},"vehicle_type_id":"4","last_reported":1768205944,"current_range_meters":6400,"station_id":"","pricing_plan_id":"cebpf4jnsgd1na2vs0mg"},{"bike_id":"8f0944ff-e945-427e-bdec-71252f9e6cd4","system_id":"levelo_inurba_marseille","lat":43.27963,"lon":5.38736,"is_reserved":false,"is_disabled":false,"rental_uris":{"android":"levelo://app?vid=8f0944ff-e945-427e-bdec-71252f9e6cd4","ios":"levelo://app?vid=8f0944ff-e945-427e-bdec-71252f9e6cd4"},"vehicle_type_id":"4","last_reported":1768205944,"current_range_meters":6800,"station_id":"ce4bhg12rcd13ifvqf80","pricing_plan_id":"cebpf4jnsgd1na2vs0mg"},{"bike_id":"92b744b3-6a0a-49ec-88fc-4262a1c52a6c","system_id":"levelo_inurba_marseille","lat":43.30182,"lon":5.38079,"is_reserved":false,"is_disabled":false,"rental_uris":{"android":"levelo://app?vid=92b744b3-6a0a-49ec-88fc-4262a1c52a6c","ios":"levelo://app?vid=92b744b3-6a0a-49ec-88fc-4262a1c52a6c"},"vehicle_type_id":"4","last_reported":1768205944,"current_range_meters":6800,"station_id":"ce4bgjp2rcd13ifvqbh0","pricing_plan_id":"cebpf4jnsgd1na2vs0mg"},{"bike_id":"33fbd9ad-1a47-4552-be76-41f62e6395e3","system_id":"levelo_inurba_marseille","lat":43.29313,"lon":5.37179,"is_reserved":false,"is_disabled":false,"rental_uris":{"android":"levelo://app?vid=33fbd9ad-1a47-4552-be76-41f62e6395e3","ios":"levelo://app?vid=33fbd9ad-1a47-4552-be76-41f62e6395e3"},"vehicle_type_id":"4","last_reported":1768205944,"current_range_meters":6800,"station_id":"ce4bgh92rcd13ifvqb40","pricing_plan_id":"cebpf4jnsgd1na2vs0mg"},{"bike_id":"e9bbdab2-70a8-48e6-9e43-2ee9964bdeb1","system_id":"levelo_inurba_marseille","lat":43.30331,"lon":5.40449,"is_reserved":false,"is_disabled":false,"rental_uris":{"android":"levelo://app?vid=e9bbdab2-70a8-48e6-9e43-2ee9964bdeb1","ios":"levelo://app?vid=e9bbdab2-70a8-48e6-9e43-2ee9964bdeb1"},"vehicle_type_id":"4","last_reported":1768205944,"current_range_meters":6800,"station_id":"ce4bh012rcd13ifvqd10","pricing_plan_id":"cebpf4jnsgd1na2vs0mg"},{"bike_id":"e620865f-0572-493f-abe2-0a52b7c78a7e","system_id":"levelo_inurba_marseille","lat":43.285162,"lon":5.429851,"is_reserved":false,"is_disabled":false,"rental_uris":{"android":"levelo://app?vid=e620865f-0572-493f-abe2-0a52b7c78a7e","ios":"levelo://app?vid=e620865f-0572-493f-abe2-0a52b7c78a7e"},"vehicle_type_id":"4","last_reported":1768205944,"current_range_meters":6800,"station_id":"","pricing_plan_id":"cebpf4jnsgd1na2vs0mg"},{"bike_id":"5093f106-ab12-42f2-8732-ab294723fbd3","system_id":"levelo_inurba_marseille","lat":43.253337,"lon":5.421688,"is_reserved":false,"is_disabled":false,"rental_uris":{"android":"levelo://app?vid=5093f106-ab12-42f2-8732-ab294723fbd3","ios":"levelo://app?vid=5093f106-ab12-42f2-8732-ab294723fbd3"},"vehicle_type_id":"4","last_reported":1768205944,"current_range_meters":6800,"station_id":"st_d2m65c5bi1j21697t3ng","pricing_plan_id":"cebpf4jnsgd1na2vs0mg"},{"bike_id":"82868e60-7d2c-472d-ab36-3dd7691da624","system_id":"levelo_inurba_marseille","lat":43.25929,"lon":5.4091,"is_reserved":false,"is_disabled":false,"rental_uris":{"android":"levelo://app?vid=82868e60-7d2c-472d-ab36-3dd7691da624","ios":"levelo://app?vid=82868e60-7d2c-472d-ab36-3dd7691da624"},"vehicle_type_id":"4","last_reported":1768205944,"current_range_meters":6800,"station_id":"ce4bhm92rcd13ifvqglg","pricing_plan_id":"cebpf4jnsgd1na2vs0mg"},{"bike_id":"d7446144-eeb6-4bd9-974d-db9bfacf93a5","system_id":"levelo_inurba_marseille","lat":43.246438,"lon":5.388839,"is_reserved":false,"is_disabled":false,"rental_uris":{"android":"levelo://app?vid=d7446144-eeb6-4bd9-974d-db9bfacf93a5","ios":"levelo://app?vid=d7446144-eeb6-4bd9-974d-db9bfacf93a5"},"vehicle_type_id":"4","last_reported":1768205944,"current_range_meters":6800,"station_id":"ce4bhg12rcd13ifvqf60","pricing_plan_id":"cebpf4jnsgd1na2vs0mg"},{"bike_id":"1ea802fd-f66e-4c41-8354-41e1828b1dc4","system_id":"levelo_inurba_marseille","lat":43.28612,"lon":5.35094,"is_reserved":false,"is_disabled":false,"rental_uris":{"android":"levelo://app?vid=1ea802fd-f66e-4c41-8354-41e1828b1dc4","ios":"levelo://app?vid=1ea802fd-f66e-4c41-8354-41e1828b1dc4"},"vehicle_type_id":"4","last_reported":1768205944,"current_range_meters":6800,"station_id":"ce4bhch2rcd13ifvqeug","pricing_plan_id":"cebpf4jnsgd1na2vs0mg"},{"bike_id":"c0a737ab-81b4-481c-8c35-615a5f06c74c","system_id":"levelo_inurba_marseille","lat":43.22555,"lon":5.41626,"is_reserved":false,"is_disabled":false,"rental_uris":{"android":"levelo://app?vid=c0a737ab-81b4-481c-8c35-615a5f06c74c","ios":"levelo://app?vid=c0a737ab-81b4-481c-8c35-615a5f06c74c"},"vehicle_type_id":"4","last_reported":1768205944,"current_range_meters":6800,"station_id":"st_d2o4gvlbi1j2169b742g","pricing_plan_id":"cebpf4jnsgd1na2vs0mg"},{"bike_id":"a79d7ba1-8fc0-4b3f-bad3-bcec2c0e9b69","system_id":"levelo_inurba_marseille","lat":43.29874,"lon":5.3771,"is_reserved":false,"is_disabled":false,"rental_uris":{"android":"levelo://app?vid=a79d7ba1-8fc0-4b3f-bad3-bcec2c0e9b69","ios":"levelo://app?vid=a79d7ba1-8fc0-4b3f-bad3-bcec2c0e9b69"},"vehicle_type_id":"4","last_reported":1768205944,"current_range_meters":6800,"station_id":"","pricing_plan_id":"cebpf4jnsgd1na2vs0mg"},{"bike_id":"fd8e03eb-8c8c-494a-8e80-d7664d053d91","system_id":"levelo_inurba_marseille","lat":43.22935,"lon":5.35378,"is_reserved":false,"is_disabled":false,"rental_uris":{"android":"levelo://app?vid=fd8e03eb-8c8c-494a-8e80-d7664d053d91","ios":"levelo://app?vid=fd8e03eb-8c8c-494a-8e80-d7664d053d91"},"vehicle_type_id":"4","last_reported":1768205944,"current_range_meters":6800,"station_id":"cpo3532slgdg3j2ikp40","pricing_plan_id":"cebpf4jnsgd1na2vs0mg"},{"bike_id":"4ddffc0c-a073-4800-9872-80f96d7a4252","system_id":"levelo_inurba_marseille","lat":43.253376,"lon":5.421703,"is_reserved":false,"is_disabled":false,"rental_uris":{"android":"levelo://app?vid=4ddffc0c-a073-4800-9872-80f96d7a4252","ios":"levelo://app?vid=4ddffc0c-a073-4800-9872-80f96d7a4252"},"vehicle_type_id":"4","last_reported":1768205944,"current_range_meters":6800,"station_id":"st_d2m65c5bi1j21697t3ng","pricing_plan_id":"cebpf4jnsgd1na2vs0mg"},{"bike_id":"f33b67cb-953c-4bfa-8f87-b8b77ecb719c","system_id":"levelo_inurba_marseille","lat":43.27972,"lon":5.41657,"is_reserved":false,"is_disabled":false,"rental_uris":{"android":"levelo://app?vid=f33b67cb-953c-4bfa-8f87-b8b77ecb719c","ios":"levelo://app?vid=f33b67cb-953c-4bfa-8f87-b8b77ecb719c"},"vehicle_type_id":"4","last_reported":1768205944,"current_range_meters":7200,"station_id":"ce4bho12rcd13ifvqh1g","pricing_plan_id":"cebpf4jnsgd1na2vs0mg"},{"bike_id":"724edc4d-cfab-45dd-a76c-b746a0ce7c2a","system_id":"levelo_inurba_marseille","lat":43.30138,"lon":5.37421,"is_reserved":false,"is_disabled":false,"rental_uris":{"android":"levelo://app?vid=724edc4d-cfab-45dd-a76c-b746a0ce7c2a","ios":"levelo://app?vid=724edc4d-cfab-45dd-a76c-b746a0ce7c2a"},"vehicle_type_id":"4","last_reported":1768205944,"current_range_meters":7200,"station_id":"ce4bgs92rcd13ifvqcc0","pricing_plan_id":"cebpf4jnsgd1na2vs0mg"},{"bike_id":"5eb236d0-c732-47a3-b4ae-bebb81ae84fb","system_id":"levelo_inurba_marseille","lat":43.30868,"lon":5.40563,"is_reserved":false,"is_disabled":false,"rental_uris":{"android":"levelo://app?vid=5eb236d0-c732-47a3-b4ae-bebb81ae84fb","ios":"levelo://app?vid=5eb236d0-c732-47a3-b4ae-bebb81ae84fb"},"vehicle_type_id":"4","last_reported":1768205944,"current_range_meters":7200,"station_id":"","pricing_plan_id":"cebpf4jnsgd1na2vs0mg"},{"bike_id":"f5405686-2c5f-4048-b898-5f7ecc36adee","system_id":"levelo_inurba_marseille","lat":43.30153,"lon":5.38104,"is_reserved":false,"is_disabled":true,"rental_uris":{"android":"levelo://app?vid=f5405686-2c5f-4048-b898-5f7ecc36adee","ios":"levelo://app?vid=f5405686-2c5f-4048-b898-5f7ecc36adee"},"vehicle_type_id":"4","last_reported":1768205944,"current_range_meters":7200,"station_id":"ce4bgjp2rcd13ifvqbh0","pricing_plan_id":"cebpf4jnsgd1na2vs0mg"},{"bike_id":"b3454d70-d36a-4db4-9750-be9b842ade3e","system_id":"levelo_inurba_marseille","lat":43.30145,"lon":5.38894,"is_reserved":false,"is_disabled":false,"rental_uris":{"android":"levelo://app?vid=b3454d70-d36a-4db4-9750-be9b842ade3e","ios":"levelo://app?vid=b3454d70-d36a-4db4-9750-be9b842ade3e"},"vehicle_type_id":"4","last_reported":1768205944,"current_range_meters":7200,"station_id":"","pricing_plan_id":"cebpf4jnsgd1na2vs0mg"},{"bike_id":"6cba13f8-48b7-44d1-bd30-5390e53b15ef","system_id":"levelo_inurba_marseille","lat":43.24065,"lon":5.37759,"is_reserved":false,"is_disabled":false,"rental_uris":{"android":"levelo://app?vid=6cba13f8-48b7-44d1-bd30-5390e53b15ef","ios":"levelo://app?vid=6cba13f8-48b7-44d1-bd30-5390e53b15ef"},"vehicle_type_id":"4","last_reported":1768205944,"current_range_meters":7200,"station_id":"ce4bhnp2rcd13ifvqgvg","pricing_plan_id":"cebpf4jnsgd1na2vs0mg"},{"bike_id":"71f6a12e-0176-43f2-88a4-80c6e5aa7f62","system_id":"levelo_inurba_marseille","lat":43.26202,"lon":5.37465,"is_reserved":false,"is_disabled":true,"rental_uris":{"android":"levelo://app?vid=71f6a12e-0176-43f2-88a4-80c6e5aa7f62","ios":"levelo://app?vid=71f6a12e-0176-43f2-88a4-80c6e5aa7f62"},"vehicle_type_id":"4","last_reported":1768205944,"current_range_meters":7200,"station_id":"ce4bhgp2rcd13ifvqfc0","pricing_plan_id":"cebpf4jnsgd1na2vs0mg"},{"bike_id":"68fe2179-279d-4c54-966c-586d35e55bc0","system_id":"levelo_inurba_marseille","lat":43.237865,"lon":5.366285,"is_reserved":false,"is_disabled":false,"rental_uris":{"android":"levelo://app?vid=68fe2179-279d-4c54-966c-586d35e55bc0","ios":"levelo://app?vid=68fe2179-279d-4c54-966c-586d35e55bc0"},"vehicle_type_id":"4","last_reported":1768205944,"current_range_meters":7200,"station_id":"st_d3nk18o9ro0c73en2l3g","pricing_plan_id":"cebpf4jnsgd1na2vs0mg"},{"bike_id":"c3b362a1-e4cc-4395-8261-b8a462cca05c","system_id":"levelo_inurba_marseille","lat":43.297914,"lon":5.404003,"is_reserved":false,"is_disabled":false,"rental_uris":{"android":"levelo://app?vid=c3b362a1-e4cc-4395-8261-b8a462cca05c","ios":"levelo://app?vid=c3b362a1-e4cc-4395-8261-b8a462cca05c"},"vehicle_type_id":"4","last_reported":1768205944,"current_range_meters":7200,"station_id":"ce4bh112rcd13ifvqd90","pricing_plan_id":"cebpf4jnsgd1na2vs0mg"},{"bike_id":"7d51bc4d-7014-4249-a12d-38c77858bb48","system_id":"levelo_inurba_marseille","lat":43.26062,"lon":5.394,"is_reserved":false,"is_disabled":false,"rental_uris":{"android":"levelo://app?vid=7d51bc4d-7014-4249-a12d-38c77858bb48","ios":"levelo://app?vid=7d51bc4d-7014-4249-a12d-38c77858bb48"},"vehicle_type_id":"4","last_reported":1768205944,"current_range_meters":7200,"station_id":"ce4bhh92rcd13ifvqfj0","pricing_plan_id":"cebpf4jnsgd1na2vs0mg"},{"bike_id":"d2715ac3-6a96-4eb8-bac7-bacc5c2604da","system_id":"levelo_inurba_marseille","lat":43.30014,"lon":5.37637,"is_reserved":false,"is_disabled":false,"rental_uris":{"android":"levelo://app?vid=d2715ac3-6a96-4eb8-bac7-bacc5c2604da","ios":"levelo://app?vid=d2715ac3-6a96-4eb8-bac7-bacc5c2604da"},"vehicle_type_id":"4","last_reported":1768205944,"current_range_meters":7200,"station_id":"","pricing_plan_id":"cebpf4jnsgd1na2vs0mg"},{"bike_id":"398dea89-a686-48e7-95fe-1928b3615e0d","system_id":"levelo_inurba_marseille","lat":43.3087,"lon":5.39649,"is_reserved":false,"is_disabled":false,"rental_uris":{"android":"levelo://app?vid=398dea89-a686-48e7-95fe-1928b3615e0d","ios":"levelo://app?vid=398dea89-a686-48e7-95fe-1928b3615e0d"},"vehicle_type_id":"4","last_reported":1768205944,"current_range_meters":7200,"station_id":"ce4bh012rcd13ifvqcv0","pricing_plan_id":"cebpf4jnsgd1na2vs0mg"},{"bike_id":"d664325d-c2cb-42f2-895c-394f61e26f2a","system_id":"levelo_inurba_marseille","lat":43.27986,"lon":5.41666,"is_reserved":false,"is_disabled":false,"rental_uris":{"android":"levelo://app?vid=d664325d-c2cb-42f2-895c-394f61e26f2a","ios":"levelo://app?vid=d664325d-c2cb-42f2-895c-394f61e26f2a"},"vehicle_type_id":"4","last_reported":1768205944,"current_range_meters":7200,"station_id":"ce4bho12rcd13ifvqh1g","pricing_plan_id":"cebpf4jnsgd1na2vs0mg"},{"bike_id":"c741c788-82f0-4732-bb43-3e7a7518580d","system_id":"levelo_inurba_marseille","lat":43.33153,"lon":5.37683,"is_reserved":false,"is_disabled":false,"rental_uris":{"android":"levelo://app?vid=c741c788-82f0-4732-bb43-3e7a7518580d","ios":"levelo://app?vid=c741c788-82f0-4732-bb43-3e7a7518580d"},"vehicle_type_id":"4","last_reported":1768205944,"current_range_meters":7200,"station_id":"st_d46cu089ee8s73dldbu0","pricing_plan_id":"cebpf4jnsgd1na2vs0mg"},{"bike_id":"84705c3b-3603-4cc9-9d42-2fa5919588d7","system_id":"levelo_inurba_marseille","lat":43.273783,"lon":5.362501,"is_reserved":false,"is_disabled":false,"rental_uris":{"android":"levelo://app?vid=84705c3b-3603-4cc9-9d42-2fa5919588d7","ios":"levelo://app?vid=84705c3b-3603-4cc9-9d42-2fa5919588d7"},"vehicle_type_id":"4","last_reported":1768205944,"current_range_meters":7200,"station_id":"ce4bhbh2rcd13ifvqeo0","pricing_plan_id":"cebpf4jnsgd1na2vs0mg"},{"bike_id":"94b0c62f-f2bc-46d9-aee2-8bf9c7678cd6","system_id":"levelo_inurba_marseille","lat":43.26198,"lon":5.37931,"is_reserved":false,"is_disabled":false,"rental_uris":{"android":"levelo://app?vid=94b0c62f-f2bc-46d9-aee2-8bf9c7678cd6","ios":"levelo://app?vid=94b0c62f-f2bc-46d9-aee2-8bf9c7678cd6"},"vehicle_type_id":"4","last_reported":1768205944,"current_range_meters":7200,"station_id":"ce4bhjp2rcd13ifvqg90","pricing_plan_id":"cebpf4jnsgd1na2vs0mg"},{"bike_id":"2b31c108-6930-42ba-946f-e6a6373ca695","system_id":"levelo_inurba_marseille","lat":43.30443,"lon":5.38902,"is_reserved":false,"is_disabled":true,"rental_uris":{"android":"levelo://app?vid=2b31c108-6930-42ba-946f-e6a6373ca695","ios":"levelo://app?vid=2b31c108-6930-42ba-946f-e6a6373ca695"},"vehicle_type_id":"4","last_reported":1768205944,"current_range_meters":7200,"station_id":"ce4bgk12rcd13ifvqbi0","pricing_plan_id":"cebpf4jnsgd1na2vs0mg"},{"bike_id":"c14a64c5-f56b-41d4-a260-43cfcbb6a825","system_id":"levelo_inurba_marseille","lat":43.2914,"lon":5.37667,"is_reserved":false,"is_disabled":false,"rental_uris":{"android":"levelo://app?vid=c14a64c5-f56b-41d4-a260-43cfcbb6a825","ios":"levelo://app?vid=c14a64c5-f56b-41d4-a260-43cfcbb6a825"},"vehicle_type_id":"4","last_reported":1768205944,"current_range_meters":7200,"station_id":"","pricing_plan_id":"cebpf4jnsgd1na2vs0mg"},{"bike_id":"1591f82a-aad7-466d-84d5-af4d94402b1a","system_id":"levelo_inurba_marseille","lat":43.29574,"lon":5.39976,"is_reserved":false,"is_disabled":true,"rental_uris":{"android":"levelo://app?vid=1591f82a-aad7-466d-84d5-af4d94402b1a","ios":"levelo://app?vid=1591f82a-aad7-466d-84d5-af4d94402b1a"},"vehicle_type_id":"4","last_reported":1768205944,"current_range_meters":7200,"station_id":"ce4bh312rcd13ifvqdj0","pricing_plan_id":"cebpf4jnsgd1na2vs0mg"},{"bike_id":"23b46792-919d-43d8-b3a4-b80d3934a7d8","system_id":"levelo_inurba_marseille","lat":43.27762,"lon":5.39949,"is_reserved":false,"is_disabled":false,"rental_uris":{"android":"levelo://app?vid=23b46792-919d-43d8-b3a4-b80d3934a7d8","ios":"levelo://app?vid=23b46792-919d-43d8-b3a4-b80d3934a7d8"},"vehicle_type_id":"4","last_reported":1768205944,"current_range_meters":7200,"station_id":"","pricing_plan_id":"cebpf4jnsgd1na2vs0mg"},{"bike_id":"74b83f57-b043-4644-9196-624a4213acec","system_id":"levelo_inurba_marseille","lat":43.22924,"lon":5.35383,"is_reserved":false,"is_disabled":false,"rental_uris":{"android":"levelo://app?vid=74b83f57-b043-4644-9196-624a4213acec","ios":"levelo://app?vid=74b83f57-b043-4644-9196-624a4213acec"},"vehicle_type_id":"4","last_reported":1768205944,"current_range_meters":7200,"station_id":"cpo3532slgdg3j2ikp40","pricing_plan_id":"cebpf4jnsgd1na2vs0mg"},{"bike_id":"e80c59e8-0fcc-4b6e-ac91-951ea874abea","system_id":"levelo_inurba_marseille","lat":43.23202,"lon":5.35553,"is_reserved":false,"is_disabled":false,"rental_uris":{"android":"levelo://app?vid=e80c59e8-0fcc-4b6e-ac91-951ea874abea","ios":"levelo://app?vid=e80c59e8-0fcc-4b6e-ac91-951ea874abea"},"vehicle_type_id":"4","last_reported":1768205944,"current_range_meters":7200,"station_id":"ce4bhu92rcd13ifvqi70","pricing_plan_id":"cebpf4jnsgd1na2vs0mg"},{"bike_id":"e6110b19-a38b-4113-9ab2-e5c7136863ba","system_id":"levelo_inurba_marseille","lat":43.24611,"lon":5.43107,"is_reserved":false,"is_disabled":false,"rental_uris":{"android":"levelo://app?vid=e6110b19-a38b-4113-9ab2-e5c7136863ba","ios":"levelo://app?vid=e6110b19-a38b-4113-9ab2-e5c7136863ba"},"vehicle_type_id":"4","last_reported":1768205944,"current_range_meters":7200,"station_id":"st_d2m6c4gdas8pm72e190g","pricing_plan_id":"cebpf4jnsgd1na2vs0mg"},{"bike_id":"a48c03bd-0092-420a-b48d-51f9d47c3435","system_id":"levelo_inurba_marseille","lat":43.24069,"lon":5.37775,"is_reserved":false,"is_disabled":false,"rental_uris":{"android":"levelo://app?vid=a48c03bd-0092-420a-b48d-51f9d47c3435","ios":"levelo://app?vid=a48c03bd-0092-420a-b48d-51f9d47c3435"},"vehicle_type_id":"4","last_reported":1768205944,"current_range_meters":7200,"station_id":"ce4bhnp2rcd13ifvqgvg","pricing_plan_id":"cebpf4jnsgd1na2vs0mg"},{"bike_id":"dd38b488-39cc-41a7-bd66-cef3a34060de","system_id":"levelo_inurba_marseille","lat":43.28478,"lon":5.4839,"is_reserved":false,"is_disabled":false,"rental_uris":{"android":"levelo://app?vid=dd38b488-39cc-41a7-bd66-cef3a34060de","ios":"levelo://app?vid=dd38b488-39cc-41a7-bd66-cef3a34060de"},"vehicle_type_id":"4","last_reported":1768205944,"current_range_meters":7200,"station_id":"st_d3svhcjqgbts73a3dn0g","pricing_plan_id":"cebpf4jnsgd1na2vs0mg"},{"bike_id":"7a0dc5a2-2fcf-4d97-a695-0d309e62ee0c","system_id":"levelo_inurba_marseille","lat":43.231924,"lon":5.355526,"is_reserved":false,"is_disabled":false,"rental_uris":{"android":"levelo://app?vid=7a0dc5a2-2fcf-4d97-a695-0d309e62ee0c","ios":"levelo://app?vid=7a0dc5a2-2fcf-4d97-a695-0d309e62ee0c"},"vehicle_type_id":"4","last_reported":1768205944,"current_range_meters":7200,"station_id":"ce4bhu92rcd13ifvqi70","pricing_plan_id":"cebpf4jnsgd1na2vs0mg"},{"bike_id":"39b144a3-3528-4134-9a2a-b8fcf18762fe","system_id":"levelo_inurba_marseille","lat":43.24065,"lon":5.37734,"is_reserved":false,"is_disabled":false,"rental_uris":{"android":"levelo://app?vid=39b144a3-3528-4134-9a2a-b8fcf18762fe","ios":"levelo://app?vid=39b144a3-3528-4134-9a2a-b8fcf18762fe"},"vehicle_type_id":"4","last_reported":1768205944,"current_range_meters":7200,"station_id":"ce4bhnp2rcd13ifvqgvg","pricing_plan_id":"cebpf4jnsgd1na2vs0mg"},{"bike_id":"2f71cfff-5cc5-4e9e-b38d-a9d99fd6e1e7","system_id":"levelo_inurba_marseille","lat":43.246557,"lon":5.381541,"is_reserved":false,"is_disabled":false,"rental_uris":{"android":"levelo://app?vid=2f71cfff-5cc5-4e9e-b38d-a9d99fd6e1e7","ios":"levelo://app?vid=2f71cfff-5cc5-4e9e-b38d-a9d99fd6e1e7"},"vehicle_type_id":"4","last_reported":1768205944,"current_range_meters":7200,"station_id":"ce4bhih2rcd13ifvqfr0","pricing_plan_id":"cebpf4jnsgd1na2vs0mg"},{"bike_id":"340c2cbe-243c-40b4-8bc5-dea9b0e962c7","system_id":"levelo_inurba_marseille","lat":43.23189,"lon":5.35549,"is_reserved":false,"is_disabled":false,"rental_uris":{"android":"levelo://app?vid=340c2cbe-243c-40b4-8bc5-dea9b0e962c7","ios":"levelo://app?vid=340c2cbe-243c-40b4-8bc5-dea9b0e962c7"},"vehicle_type_id":"4","last_reported":1768205944,"current_range_meters":8000,"station_id":"ce4bhu92rcd13ifvqi70","pricing_plan_id":"cebpf4jnsgd1na2vs0mg"},{"bike_id":"b027f744-7494-4df5-8a07-08b78b4158dd","system_id":"levelo_inurba_marseille","lat":43.25572,"lon":5.38254,"is_reserved":false,"is_disabled":true,"rental_uris":{"android":"levelo://app?vid=b027f744-7494-4df5-8a07-08b78b4158dd","ios":"levelo://app?vid=b027f744-7494-4df5-8a07-08b78b4158dd"},"vehicle_type_id":"4","last_reported":1768205944,"current_range_meters":8000,"station_id":"ce4bhih2rcd13ifvqfs0","pricing_plan_id":"cebpf4jnsgd1na2vs0mg"},{"bike_id":"caca6502-7fba-4a36-89eb-b7fe25f857cd","system_id":"levelo_inurba_marseille","lat":43.3138,"lon":5.36807,"is_reserved":false,"is_disabled":false,"rental_uris":{"android":"levelo://app?vid=caca6502-7fba-4a36-89eb-b7fe25f857cd","ios":"levelo://app?vid=caca6502-7fba-4a36-89eb-b7fe25f857cd"},"vehicle_type_id":"4","last_reported":1768205944,"current_range_meters":8000,"station_id":"","pricing_plan_id":"cebpf4jnsgd1na2vs0mg"},{"bike_id":"8dc28e71-34f9-4f1f-b086-66c77d18dd28","system_id":"levelo_inurba_marseille","lat":43.275601,"lon":5.384222,"is_reserved":false,"is_disabled":false,"rental_uris":{"android":"levelo://app?vid=8dc28e71-34f9-4f1f-b086-66c77d18dd28","ios":"levelo://app?vid=8dc28e71-34f9-4f1f-b086-66c77d18dd28"},"vehicle_type_id":"4","last_reported":1768205944,"current_range_meters":8000,"station_id":"ce4bhh92rcd13ifvqfi0","pricing_plan_id":"cebpf4jnsgd1na2vs0mg"},{"bike_id":"a23ab11e-9791-4255-b287-b52f988bae58","system_id":"levelo_inurba_marseille","lat":43.27823,"lon":5.4072,"is_reserved":false,"is_disabled":false,"rental_uris":{"android":"levelo://app?vid=a23ab11e-9791-4255-b287-b52f988bae58","ios":"levelo://app?vid=a23ab11e-9791-4255-b287-b52f988bae58"},"vehicle_type_id":"4","last_reported":1768205944,"current_range_meters":8000,"station_id":"ce4bhnh2rcd13ifvqgtg","pricing_plan_id":"cebpf4jnsgd1na2vs0mg"},{"bike_id":"bf66e930-90c3-478a-9926-95b8de8a6d74","system_id":"levelo_inurba_marseille","lat":43.22556,"lon":5.41633,"is_reserved":false,"is_disabled":false,"rental_uris":{"android":"levelo://app?vid=bf66e930-90c3-478a-9926-95b8de8a6d74","ios":"levelo://app?vid=bf66e930-90c3-478a-9926-95b8de8a6d74"},"vehicle_type_id":"4","last_reported":1768205944,"current_range_meters":8000,"station_id":"st_d2o4gvlbi1j2169b742g","pricing_plan_id":"cebpf4jnsgd1na2vs0mg"},{"bike_id":"d8fd8f8a-38f2-4992-9be5-cec5fec90127","system_id":"levelo_inurba_marseille","lat":43.29604,"lon":5.37731,"is_reserved":false,"is_disabled":true,"rental_uris":{"android":"levelo://app?vid=d8fd8f8a-38f2-4992-9be5-cec5fec90127","ios":"levelo://app?vid=d8fd8f8a-38f2-4992-9be5-cec5fec90127"},"vehicle_type_id":"4","last_reported":1768205944,"current_range_meters":8000,"station_id":"ce4bgi92rcd13ifvqb90","pricing_plan_id":"cebpf4jnsgd1na2vs0mg"},{"bike_id":"b41a2875-da15-43f3-b115-97366df37d38","system_id":"levelo_inurba_marseille","lat":43.33144,"lon":5.37658,"is_reserved":false,"is_disabled":false,"rental_uris":{"android":"levelo://app?vid=b41a2875-da15-43f3-b115-97366df37d38","ios":"levelo://app?vid=b41a2875-da15-43f3-b115-97366df37d38"},"vehicle_type_id":"4","last_reported":1768205944,"current_range_meters":8000,"station_id":"st_d46cu089ee8s73dldbu0","pricing_plan_id":"cebpf4jnsgd1na2vs0mg"},{"bike_id":"0dc33624-aad9-4738-ab08-dfd76af85df6","system_id":"levelo_inurba_marseille","lat":43.24067,"lon":5.37769,"is_reserved":false,"is_disabled":false,"rental_uris":{"android":"levelo://app?vid=0dc33624-aad9-4738-ab08-dfd76af85df6","ios":"levelo://app?vid=0dc33624-aad9-4738-ab08-dfd76af85df6"},"vehicle_type_id":"4","last_reported":1768205944,"current_range_meters":8000,"station_id":"ce4bhnp2rcd13ifvqgvg","pricing_plan_id":"cebpf4jnsgd1na2vs0mg"},{"bike_id":"2f0d5ebb-41df-4dfd-96e0-c139f222cfbb","system_id":"levelo_inurba_marseille","lat":43.25821,"lon":5.40955,"is_reserved":false,"is_disabled":false,"rental_uris":{"android":"levelo://app?vid=2f0d5ebb-41df-4dfd-96e0-c139f222cfbb","ios":"levelo://app?vid=2f0d5ebb-41df-4dfd-96e0-c139f222cfbb"},"vehicle_type_id":"4","last_reported":1768205944,"current_range_meters":8000,"station_id":"","pricing_plan_id":"cebpf4jnsgd1na2vs0mg"},{"bike_id":"53e81292-caae-4f8b-a557-bc615d8d7425","system_id":"levelo_inurba_marseille","lat":43.246595,"lon":5.431481,"is_reserved":false,"is_disabled":false,"rental_uris":{"android":"levelo://app?vid=53e81292-caae-4f8b-a557-bc615d8d7425","ios":"levelo://app?vid=53e81292-caae-4f8b-a557-bc615d8d7425"},"vehicle_type_id":"4","last_reported":1768205944,"current_range_meters":8000,"station_id":"st_d2m6c4gdas8pm72e190g","pricing_plan_id":"cebpf4jnsgd1na2vs0mg"},{"bike_id":"769c60da-14a6-416d-b772-59ceff33d237","system_id":"levelo_inurba_marseille","lat":43.27322,"lon":5.42367,"is_reserved":false,"is_disabled":false,"rental_uris":{"android":"levelo://app?vid=769c60da-14a6-416d-b772-59ceff33d237","ios":"levelo://app?vid=769c60da-14a6-416d-b772-59ceff33d237"},"vehicle_type_id":"4","last_reported":1768205944,"current_range_meters":8000,"station_id":"","pricing_plan_id":"cebpf4jnsgd1na2vs0mg"},{"bike_id":"b28f5267-d3a8-412a-9e5c-1e163dbc74b4","system_id":"levelo_inurba_marseille","lat":43.33611,"lon":5.40985,"is_reserved":false,"is_disabled":false,"rental_uris":{"android":"levelo://app?vid=b28f5267-d3a8-412a-9e5c-1e163dbc74b4","ios":"levelo://app?vid=b28f5267-d3a8-412a-9e5c-1e163dbc74b4"},"vehicle_type_id":"4","last_reported":1768205944,"current_range_meters":8000,"station_id":"ce4bhqh2rcd13ifvqhmg","pricing_plan_id":"cebpf4jnsgd1na2vs0mg"},{"bike_id":"360cd3e6-e5e1-447a-b1c4-a37d19e4f9fa","system_id":"levelo_inurba_marseille","lat":43.32348,"lon":5.36751,"is_reserved":false,"is_disabled":false,"rental_uris":{"android":"levelo://app?vid=360cd3e6-e5e1-447a-b1c4-a37d19e4f9fa","ios":"levelo://app?vid=360cd3e6-e5e1-447a-b1c4-a37d19e4f9fa"},"vehicle_type_id":"4","last_reported":1768205944,"current_range_meters":8000,"station_id":"ce4bhsh2rcd13ifvqi2g","pricing_plan_id":"cebpf4jnsgd1na2vs0mg"},{"bike_id":"fce974f8-1461-4c79-9773-672c90511019","system_id":"levelo_inurba_marseille","lat":43.25327,"lon":5.42202,"is_reserved":false,"is_disabled":false,"rental_uris":{"android":"levelo://app?vid=fce974f8-1461-4c79-9773-672c90511019","ios":"levelo://app?vid=fce974f8-1461-4c79-9773-672c90511019"},"vehicle_type_id":"4","last_reported":1768205944,"current_range_meters":8000,"station_id":"st_d2m65c5bi1j21697t3ng","pricing_plan_id":"cebpf4jnsgd1na2vs0mg"},{"bike_id":"10c0b1c4-7d2b-417e-87d0-9f8889d09f30","system_id":"levelo_inurba_marseille","lat":43.2256,"lon":5.4163,"is_reserved":false,"is_disabled":false,"rental_uris":{"android":"levelo://app?vid=10c0b1c4-7d2b-417e-87d0-9f8889d09f30","ios":"levelo://app?vid=10c0b1c4-7d2b-417e-87d0-9f8889d09f30"},"vehicle_type_id":"4","last_reported":1768205944,"current_range_meters":8000,"station_id":"st_d2o4gvlbi1j2169b742g","pricing_plan_id":"cebpf4jnsgd1na2vs0mg"},{"bike_id":"e5a3d6a3-5a0b-4c05-b321-ca477bf7394c","system_id":"levelo_inurba_marseille","lat":43.281737,"lon":5.426097,"is_reserved":false,"is_disabled":false,"rental_uris":{"android":"levelo://app?vid=e5a3d6a3-5a0b-4c05-b321-ca477bf7394c","ios":"levelo://app?vid=e5a3d6a3-5a0b-4c05-b321-ca477bf7394c"},"vehicle_type_id":"4","last_reported":1768205944,"current_range_meters":8000,"station_id":"ce4bhnh2rcd13ifvqgug","pricing_plan_id":"cebpf4jnsgd1na2vs0mg"},{"bike_id":"53cc5848-250b-4b4f-bfbb-ba807720f5e8","system_id":"levelo_inurba_marseille","lat":43.24068,"lon":5.37756,"is_reserved":false,"is_disabled":false,"rental_uris":{"android":"levelo://app?vid=53cc5848-250b-4b4f-bfbb-ba807720f5e8","ios":"levelo://app?vid=53cc5848-250b-4b4f-bfbb-ba807720f5e8"},"vehicle_type_id":"4","last_reported":1768205944,"current_range_meters":8000,"station_id":"ce4bhnp2rcd13ifvqgvg","pricing_plan_id":"cebpf4jnsgd1na2vs0mg"},{"bike_id":"8a7ee903-e4c0-4637-b8c6-905f7f6393e5","system_id":"levelo_inurba_marseille","lat":43.24164,"lon":5.36406,"is_reserved":false,"is_disabled":false,"rental_uris":{"android":"levelo://app?vid=8a7ee903-e4c0-4637-b8c6-905f7f6393e5","ios":"levelo://app?vid=8a7ee903-e4c0-4637-b8c6-905f7f6393e5"},"vehicle_type_id":"4","last_reported":1768205944,"current_range_meters":8000,"station_id":"cpo36qri1sfpv3e86is0","pricing_plan_id":"cebpf4jnsgd1na2vs0mg"},{"bike_id":"08d32b54-49dd-402b-a9b8-fabbfb48259f","system_id":"levelo_inurba_marseille","lat":43.22563,"lon":5.41631,"is_reserved":false,"is_disabled":false,"rental_uris":{"android":"levelo://app?vid=08d32b54-49dd-402b-a9b8-fabbfb48259f","ios":"levelo://app?vid=08d32b54-49dd-402b-a9b8-fabbfb48259f"},"vehicle_type_id":"4","last_reported":1768205944,"current_range_meters":8000,"station_id":"st_d2o4gvlbi1j2169b742g","pricing_plan_id":"cebpf4jnsgd1na2vs0mg"},{"bike_id":"90980194-cc03-4769-a7e1-09c8a4c0e089","system_id":"levelo_inurba_marseille","lat":43.24074,"lon":5.37758,"is_reserved":false,"is_disabled":false,"rental_uris":{"android":"levelo://app?vid=90980194-cc03-4769-a7e1-09c8a4c0e089","ios":"levelo://app?vid=90980194-cc03-4769-a7e1-09c8a4c0e089"},"vehicle_type_id":"4","last_reported":1768205944,"current_range_meters":8400,"station_id":"ce4bhnp2rcd13ifvqgvg","pricing_plan_id":"cebpf4jnsgd1na2vs0mg"},{"bike_id":"412c4daa-00b5-42ee-bae7-89b10fb3374d","system_id":"levelo_inurba_marseille","lat":43.32367,"lon":5.36773,"is_reserved":false,"is_disabled":false,"rental_uris":{"android":"levelo://app?vid=412c4daa-00b5-42ee-bae7-89b10fb3374d","ios":"levelo://app?vid=412c4daa-00b5-42ee-bae7-89b10fb3374d"},"vehicle_type_id":"4","last_reported":1768205944,"current_range_meters":8400,"station_id":"ce4bhsh2rcd13ifvqi2g","pricing_plan_id":"cebpf4jnsgd1na2vs0mg"},{"bike_id":"762020d9-8a0a-4255-a7c2-e512dba0013d","system_id":"levelo_inurba_marseille","lat":43.29724,"lon":5.37858,"is_reserved":false,"is_disabled":false,"rental_uris":{"android":"levelo://app?vid=762020d9-8a0a-4255-a7c2-e512dba0013d","ios":"levelo://app?vid=762020d9-8a0a-4255-a7c2-e512dba0013d"},"vehicle_type_id":"4","last_reported":1768205944,"current_range_meters":8400,"station_id":"","pricing_plan_id":"cebpf4jnsgd1na2vs0mg"},{"bike_id":"816bdee6-40be-42e1-9efd-c27b41592de9","system_id":"levelo_inurba_marseille","lat":43.28875,"lon":5.42526,"is_reserved":false,"is_disabled":false,"rental_uris":{"android":"levelo://app?vid=816bdee6-40be-42e1-9efd-c27b41592de9","ios":"levelo://app?vid=816bdee6-40be-42e1-9efd-c27b41592de9"},"vehicle_type_id":"4","last_reported":1768205944,"current_range_meters":8400,"station_id":"st_d3b462108ojc7389ooeg","pricing_plan_id":"cebpf4jnsgd1na2vs0mg"},{"bike_id":"76c0649d-b98d-4083-a1ba-177f8b045115","system_id":"levelo_inurba_marseille","lat":43.258619,"lon":5.399086,"is_reserved":false,"is_disabled":true,"rental_uris":{"android":"levelo://app?vid=76c0649d-b98d-4083-a1ba-177f8b045115","ios":"levelo://app?vid=76c0649d-b98d-4083-a1ba-177f8b045115"},"vehicle_type_id":"4","last_reported":1768205944,"current_range_meters":8400,"station_id":"ce4bhl92rcd13ifvqghg","pricing_plan_id":"cebpf4jnsgd1na2vs0mg"},{"bike_id":"8a7fda0d-7225-44ed-8682-912e8ba6ea55","system_id":"levelo_inurba_marseille","lat":43.24468,"lon":5.42538,"is_reserved":false,"is_disabled":false,"rental_uris":{"android":"levelo://app?vid=8a7fda0d-7225-44ed-8682-912e8ba6ea55","ios":"levelo://app?vid=8a7fda0d-7225-44ed-8682-912e8ba6ea55"},"vehicle_type_id":"4","last_reported":1768205944,"current_range_meters":8400,"station_id":"st_d4a3vfp97mjs738cd8kg","pricing_plan_id":"cebpf4jnsgd1na2vs0mg"},{"bike_id":"cf526842-1b4a-4c84-b1c3-b6cf7f433420","system_id":"levelo_inurba_marseille","lat":43.26061,"lon":5.39407,"is_reserved":false,"is_disabled":false,"rental_uris":{"android":"levelo://app?vid=cf526842-1b4a-4c84-b1c3-b6cf7f433420","ios":"levelo://app?vid=cf526842-1b4a-4c84-b1c3-b6cf7f433420"},"vehicle_type_id":"4","last_reported":1768205944,"current_range_meters":8400,"station_id":"ce4bhh92rcd13ifvqfj0","pricing_plan_id":"cebpf4jnsgd1na2vs0mg"},{"bike_id":"b6f592cc-7b8d-42e7-9ad7-3226d127ce34","system_id":"levelo_inurba_marseille","lat":43.265374,"lon":5.372945,"is_reserved":false,"is_disabled":false,"rental_uris":{"android":"levelo://app?vid=b6f592cc-7b8d-42e7-9ad7-3226d127ce34","ios":"levelo://app?vid=b6f592cc-7b8d-42e7-9ad7-3226d127ce34"},"vehicle_type_id":"4","last_reported":1768205944,"current_range_meters":8400,"station_id":"ce4bhg12rcd13ifvqf70","pricing_plan_id":"cebpf4jnsgd1na2vs0mg"},{"bike_id":"86709562-da3f-411c-b77c-1c581c5bc47a","system_id":"levelo_inurba_marseille","lat":43.22559,"lon":5.41635,"is_reserved":false,"is_disabled":false,"rental_uris":{"android":"levelo://app?vid=86709562-da3f-411c-b77c-1c581c5bc47a","ios":"levelo://app?vid=86709562-da3f-411c-b77c-1c581c5bc47a"},"vehicle_type_id":"4","last_reported":1768205944,"current_range_meters":8400,"station_id":"st_d2o4gvlbi1j2169b742g","pricing_plan_id":"cebpf4jnsgd1na2vs0mg"},{"bike_id":"e5b35282-eb3b-414a-95e1-30cd938f47e1","system_id":"levelo_inurba_marseille","lat":43.290398,"lon":5.363407,"is_reserved":false,"is_disabled":true,"rental_uris":{"android":"levelo://app?vid=e5b35282-eb3b-414a-95e1-30cd938f47e1","ios":"levelo://app?vid=e5b35282-eb3b-414a-95e1-30cd938f47e1"},"vehicle_type_id":"4","last_reported":1768205944,"current_range_meters":8400,"station_id":"","pricing_plan_id":"cebpf4jnsgd1na2vs0mg"},{"bike_id":"5f2748af-7a79-4322-a1b2-29853cbba1ed","system_id":"levelo_inurba_marseille","lat":43.28597,"lon":5.35161,"is_reserved":false,"is_disabled":false,"rental_uris":{"android":"levelo://app?vid=5f2748af-7a79-4322-a1b2-29853cbba1ed","ios":"levelo://app?vid=5f2748af-7a79-4322-a1b2-29853cbba1ed"},"vehicle_type_id":"4","last_reported":1768205944,"current_range_meters":8400,"station_id":"","pricing_plan_id":"cebpf4jnsgd1na2vs0mg"},{"bike_id":"dc7c5fed-b969-4774-ad45-d778bb5cddad","system_id":"levelo_inurba_marseille","lat":43.23959,"lon":5.36614,"is_reserved":false,"is_disabled":false,"rental_uris":{"android":"levelo://app?vid=dc7c5fed-b969-4774-ad45-d778bb5cddad","ios":"levelo://app?vid=dc7c5fed-b969-4774-ad45-d778bb5cddad"},"vehicle_type_id":"4","last_reported":1768205944,"current_range_meters":8400,"station_id":"ce4bhi12rcd13ifvqfp0","pricing_plan_id":"cebpf4jnsgd1na2vs0mg"},{"bike_id":"df93eae1-9a8e-44a7-a49c-a273a5b8de4d","system_id":"levelo_inurba_marseille","lat":43.31233,"lon":5.36802,"is_reserved":false,"is_disabled":false,"rental_uris":{"android":"levelo://app?vid=df93eae1-9a8e-44a7-a49c-a273a5b8de4d","ios":"levelo://app?vid=df93eae1-9a8e-44a7-a49c-a273a5b8de4d"},"vehicle_type_id":"4","last_reported":1768205944,"current_range_meters":8400,"station_id":"ce4bgl92rcd13ifvqbq0","pricing_plan_id":"cebpf4jnsgd1na2vs0mg"},{"bike_id":"66963ec7-6410-41aa-ab8b-428b71198e50","system_id":"levelo_inurba_marseille","lat":43.32365,"lon":5.367437,"is_reserved":false,"is_disabled":false,"rental_uris":{"android":"levelo://app?vid=66963ec7-6410-41aa-ab8b-428b71198e50","ios":"levelo://app?vid=66963ec7-6410-41aa-ab8b-428b71198e50"},"vehicle_type_id":"4","last_reported":1768205944,"current_range_meters":8400,"station_id":"ce4bhsh2rcd13ifvqi2g","pricing_plan_id":"cebpf4jnsgd1na2vs0mg"},{"bike_id":"df72b015-4fe9-4841-892f-2637c1c768f5","system_id":"levelo_inurba_marseille","lat":43.30134,"lon":5.3879,"is_reserved":false,"is_disabled":false,"rental_uris":{"android":"levelo://app?vid=df72b015-4fe9-4841-892f-2637c1c768f5","ios":"levelo://app?vid=df72b015-4fe9-4841-892f-2637c1c768f5"},"vehicle_type_id":"4","last_reported":1768205944,"current_range_meters":8400,"station_id":"ce4bghh2rcd13ifvqb60","pricing_plan_id":"cebpf4jnsgd1na2vs0mg"},{"bike_id":"2d5ccc13-d1ca-441a-856d-0d77751ce04b","system_id":"levelo_inurba_marseille","lat":43.2319,"lon":5.35559,"is_reserved":false,"is_disabled":false,"rental_uris":{"android":"levelo://app?vid=2d5ccc13-d1ca-441a-856d-0d77751ce04b","ios":"levelo://app?vid=2d5ccc13-d1ca-441a-856d-0d77751ce04b"},"vehicle_type_id":"4","last_reported":1768205944,"current_range_meters":8400,"station_id":"ce4bhu92rcd13ifvqi70","pricing_plan_id":"cebpf4jnsgd1na2vs0mg"},{"bike_id":"a5f78f70-6ea4-40d0-a95c-7cf813ffd3be","system_id":"levelo_inurba_marseille","lat":43.2929,"lon":5.37463,"is_reserved":false,"is_disabled":false,"rental_uris":{"android":"levelo://app?vid=a5f78f70-6ea4-40d0-a95c-7cf813ffd3be","ios":"levelo://app?vid=a5f78f70-6ea4-40d0-a95c-7cf813ffd3be"},"vehicle_type_id":"4","last_reported":1768205944,"current_range_meters":8400,"station_id":"ce4bgi12rcd13ifvqb70","pricing_plan_id":"cebpf4jnsgd1na2vs0mg"},{"bike_id":"802467fe-1976-474f-b9ad-178be7a60e99","system_id":"levelo_inurba_marseille","lat":43.27494,"lon":5.42449,"is_reserved":false,"is_disabled":false,"rental_uris":{"android":"levelo://app?vid=802467fe-1976-474f-b9ad-178be7a60e99","ios":"levelo://app?vid=802467fe-1976-474f-b9ad-178be7a60e99"},"vehicle_type_id":"4","last_reported":1768205944,"current_range_meters":8400,"station_id":"ce4bhn92rcd13ifvqgrg","pricing_plan_id":"cebpf4jnsgd1na2vs0mg"},{"bike_id":"fbcd5815-1baf-4b82-bc77-56650e359e6e","system_id":"levelo_inurba_marseille","lat":43.29199,"lon":5.35801,"is_reserved":false,"is_disabled":false,"rental_uris":{"android":"levelo://app?vid=fbcd5815-1baf-4b82-bc77-56650e359e6e","ios":"levelo://app?vid=fbcd5815-1baf-4b82-bc77-56650e359e6e"},"vehicle_type_id":"4","last_reported":1768205944,"current_range_meters":8400,"station_id":"ce4bhb12rcd13ifvqel0","pricing_plan_id":"cebpf4jnsgd1na2vs0mg"},{"bike_id":"95d64d3c-7b4c-4db5-b5f1-781d786e1901","system_id":"levelo_inurba_marseille","lat":43.248013,"lon":5.374571,"is_reserved":false,"is_disabled":false,"rental_uris":{"android":"levelo://app?vid=95d64d3c-7b4c-4db5-b5f1-781d786e1901","ios":"levelo://app?vid=95d64d3c-7b4c-4db5-b5f1-781d786e1901"},"vehicle_type_id":"4","last_reported":1768205944,"current_range_meters":8400,"station_id":"ce4bhgh2rcd13ifvqfb0","pricing_plan_id":"cebpf4jnsgd1na2vs0mg"},{"bike_id":"e6b72d51-9ebb-4ae8-bda9-bcfd23593d37","system_id":"levelo_inurba_marseille","lat":43.300074,"lon":5.373459,"is_reserved":false,"is_disabled":false,"rental_uris":{"android":"levelo://app?vid=e6b72d51-9ebb-4ae8-bda9-bcfd23593d37","ios":"levelo://app?vid=e6b72d51-9ebb-4ae8-bda9-bcfd23593d37"},"vehicle_type_id":"4","last_reported":1768205944,"current_range_meters":8400,"station_id":"","pricing_plan_id":"cebpf4jnsgd1na2vs0mg"},{"bike_id":"c613abca-3ffb-4b68-9d10-c38d18728f87","system_id":"levelo_inurba_marseille","lat":43.30644,"lon":5.40526,"is_reserved":false,"is_disabled":false,"rental_uris":{"android":"levelo://app?vid=c613abca-3ffb-4b68-9d10-c38d18728f87","ios":"levelo://app?vid=c613abca-3ffb-4b68-9d10-c38d18728f87"},"vehicle_type_id":"4","last_reported":1768205944,"current_range_meters":8400,"station_id":"ce4bh112rcd13ifvqda0","pricing_plan_id":"cebpf4jnsgd1na2vs0mg"},{"bike_id":"81877182-5c12-4fe4-b6d5-1b469b15a37b","system_id":"levelo_inurba_marseille","lat":43.29929,"lon":5.36518,"is_reserved":false,"is_disabled":false,"rental_uris":{"android":"levelo://app?vid=81877182-5c12-4fe4-b6d5-1b469b15a37b","ios":"levelo://app?vid=81877182-5c12-4fe4-b6d5-1b469b15a37b"},"vehicle_type_id":"4","last_reported":1768205944,"current_range_meters":8800,"station_id":"ce4bgm92rcd13ifvqbr0","pricing_plan_id":"cebpf4jnsgd1na2vs0mg"},{"bike_id":"5827a747-6c79-498b-8ef8-45b8c96b9534","system_id":"levelo_inurba_marseille","lat":43.308258,"lon":5.397244,"is_reserved":false,"is_disabled":false,"rental_uris":{"android":"levelo://app?vid=5827a747-6c79-498b-8ef8-45b8c96b9534","ios":"levelo://app?vid=5827a747-6c79-498b-8ef8-45b8c96b9534"},