{"last_updated":1727262459,"ttl":60,"version":"2.2","data":{"bikes":[{"bike_id":"b7f6d325-9730-4c35-a837-d1eed6824256","system_id":"levelo_inurba_marseille","lat":43.27597,"lon":5.36099,"is_reserved":false,"is_disabled":false,"rental_uris":{"android":"levelo://app?vid=b7f6d325-9730-4c35-a837-d1eed6824256","ios":"levelo://app?vid=b7f6d325-9730-4c35-a837-d1eed6824256"},"vehicle_type_id":"4","last_reported":1727262459,"current_range_meters":6400,"station_id":"ce4bgj92rcd13ifvqbe0","pricing_plan_id":"cebpf4jnsgd1na2vs0mg"},{"bike_id":"25462338-bf6f-47a9-b5a8-6eb58cc72396","system_id":"levelo_inurba_marseille","lat":43.28941,"lon":5.36637,"is_reserved":false,"is_disabled":false,"rental_uris":{"android":"levelo://app?vid=25462338-bf6f-47a9-b5a8-6eb58cc72396","ios":"levelo://app?vid=25462338-bf6f-47a9-b5a8-6eb58cc72396"},"vehicle_type_id":"4","last_reported":1727262459,"current_range_meters":19200,"station_id":"ce4bhap2rcd13ifvqek0","pricing_plan_id":"cebpf4jnsgd1na2vs0mg"},{"bike_id":"6109ada7-505d-440e-a420-8d4d66c41f19","system_id":"levelo_inurba_marseille","lat":43.27438,"lon":5.42467,"is_reserved":false,"is_disabled":false,"rental_uris":{"android":"levelo://app?vid=6109ada7-505d-440e-a420-8d4d66c41f19","ios":"levelo://app?vid=6109ada7-505d-440e-a420-8d4d66c41f19"},"vehicle_type_id":"4","last_reported":1727262459,"current_range_meters":25200,"station_id":"","pricing_plan_id":"cebpf4jnsgd1na2vs0mg"},{"bike_id":"1035aa74-604a-43b2-bfcc-ffbd3a1cb238","system_id":"levelo_inurba_marseille","lat":43.25121,"lon":5.40318,"is_reserved":false,"is_disabled":false,"rental_uris":{"android":"levelo://app?vid=1035aa74-604a-43b2-bfcc-ffbd3a1cb238","ios":"levelo://app?vid=1035aa74-604a-43b2-bfcc-ffbd3a1cb238"},"vehicle_type_id":"4","last_reported":1727262459,"current_range_meters":35200,"station_id":"ce4bhlh2rcd13ifvqgig","pricing_plan_id":"cebpf4jnsgd1na2vs0mg"},{"bike_id":"954dbc37-5cf3-42a4-8cc3-852fa1dae527","system_id":"levelo_inurba_marseille","lat":43.27444,"lon":5.39414,"is_reserved":false,"is_disabled":false,"rental_uris":{"android":"levelo://app?vid=954dbc37-5cf3-42a4-8cc3-852fa1dae527","ios":"levelo://app?vid=954dbc37-5cf3-42a4-8cc3-852fa1dae527"},"vehicle_type_id":"4","last_reported":1727262459,"current_range_meters":38800,"station_id":"ce4bhdp2rcd13ifvqf20","pricing_plan_id":"cebpf4jnsgd1na2vs0mg"},{"bike_id":"ef783995-369e-4e3d-86dd-db5168584640","system_id":"levelo_inurba_marseille","lat":43.30913,"lon":5.36837,"is_reserved":false,"is_disabled":false,"rental_uris":{"android":"levelo://app?vid=ef783995-369e-4e3d-86dd-db5168584640","ios":"levelo://app?vid=ef783995-369e-4e3d-86dd-db5168584640"},"vehicle_type_id":"4","last_reported":1727262459,"current_range_meters":16400,"station_id":"ce4bgn92rcd13ifvqbvg","pricing_plan_id":"cebpf4jnsgd1na2vs0mg"},{"bike_id":"f7a338af-1395-4aab-9a8f-5f637cc6b9d3","system_id":"levelo_inurba_marseille","lat":43.30911,"lon":5.3688,"is_reserved":false,"is_disabled":false,"rental_uris":{"android":"levelo://app?vid=f7a338af-1395-4aab-9a8f-5f637cc6b9d3","ios":"levelo://app?vid=f7a338af-1395-4aab-9a8f-5f637cc6b9d3"},"vehicle_type_id":"4","last_reported":1727262459,"current_range_meters":22000,"station_id":"ce4bgn92rcd13ifvqbvg","pricing_plan_id":"cebpf4jnsgd1na2vs0mg"},{"bike_id":"ad0addb0-706a-4791-bf48-02a3d448cf3d","system_id":"levelo_inurba_marseille","lat":43.29954,"lon":5.38759,"is_reserved":false,"is_disabled":false,"rental_uris":{"android":"levelo://app?vid=ad0addb0-706a-4791-bf48-02a3d448cf3d","ios":"levelo://app?vid=ad0addb0-706a-4791-bf48-02a3d448cf3d"},"vehicle_type_id":"4","last_reported":1727262459,"current_range_meters":22000,"station_id":"ce4bgvp2rcd13ifvqct0","pricing_plan_id":"cebpf4jnsgd1na2vs0mg"},{"bike_id":"10fc6660-aa40-4ed8-9fb8-62949ea510f0","system_id":"levelo_inurba_marseille","lat":43.31327,"lon":5.39695,"is_reserved":false,"is_disabled":false,"rental_uris":{"android":"levelo://app?vid=10fc6660-aa40-4ed8-9fb8-62949ea510f0","ios":"levelo://app?vid=10fc6660-aa40-4ed8-9fb8-62949ea510f0"},"vehicle_type_id":"4","last_reported":1727262459,"current_range_meters":33200,"station_id":"ce4bgvp2rcd13ifvqcu0","pricing_plan_id":"cebpf4jnsgd1na2vs0mg"},{"bike_id":"0d523290-0ce2-43c4-a7ae-976548039833","system_id":"levelo_inurba_marseille","lat":43.28672,"lon":5.38668,"is_reserved":false,"is_disabled":false,"rental_uris":{"android":"levelo://app?vid=0d523290-0ce2-43c4-a7ae-976548039833","ios":"levelo://app?vid=0d523290-0ce2-43c4-a7ae-976548039833"},"vehicle_type_id":"4","last_reported":1727262459,"current_range_meters":20000,"station_id":"ce4bh492rcd13ifvqdug","pricing_plan_id":"cebpf4jnsgd1na2vs0mg"},{"bike_id":"b3b4ffea-4a69-495a-b61a-866742dfd2d7","system_id":"levelo_inurba_marseille","lat":43.337444,"lon":5.374475,"is_reserved":false,"is_disabled":false,"rental_uris":{"android":"levelo://app?vid=b3b4ffea-4a69-495a-b61a-866742dfd2d7","ios":"levelo://app?vid=b3b4ffea-4a69-495a-b61a-866742dfd2d7"},"vehicle_type_id":"4","last_reported":1727262459,"current_range_meters":34800,"station_id":"","pricing_plan_id":"cebpf4jnsgd1na2vs0mg"},{"bike_id":"25efd241-95d4-4957-9414-50676d4f1256","system_id":"levelo_inurba_marseille","lat":43.32662,"lon":5.40977,"is_reserved":false,"is_disabled":false,"rental_uris":{"android":"levelo://app?vid=25efd241-95d4-4957-9414-50676d4f1256","ios":"levelo://app?vid=25efd241-95d4-4957-9414-50676d4f1256"},"vehicle_type_id":"4","last_reported":1727262459,"current_range_meters":37600,"station_id":"ce4bhpp2rcd13ifvqhgg","pricing_plan_id":"cebpf4jnsgd1na2vs0mg"},{"bike_id":"8fe97d71-993f-4892-a7ee-5ffced166f45","system_id":"levelo_inurba_marseille","lat":43.25001,"lon":5.3893,"is_reserved":false,"is_disabled":false,"rental_uris":{"android":"levelo://app?vid=8fe97d71-993f-4892-a7ee-5ffced166f45","ios":"levelo://app?vid=8fe97d71-993f-4892-a7ee-5ffced166f45"},"vehicle_type_id":"4","last_reported":1727262459,"current_range_meters":19600,"station_id":"ce4bhgp2rcd13ifvqfd0","pricing_plan_id":"cebpf4jnsgd1na2vs0mg"},{"bike_id":"dec73f4f-b681-4818-a068-daca63f0a22d","system_id":"levelo_inurba_marseille","lat":43.229337,"lon":5.353869,"is_reserved":false,"is_disabled":false,"rental_uris":{"android":"levelo://app?vid=dec73f4f-b681-4818-a068-daca63f0a22d","ios":"levelo://app?vid=dec73f4f-b681-4818-a068-daca63f0a22d"},"vehicle_type_id":"4","last_reported":1727262459,"current_range_meters":38400,"station_id":"cpo3532slgdg3j2ikp40","pricing_plan_id":"cebpf4jnsgd1na2vs0mg"},{"bike_id":"40c48cf2-711a-44be-9162-7979b7928af0","system_id":"levelo_inurba_marseille","lat":43.3094,"lon":5.39019,"is_reserved":false,"is_disabled":false,"rental_uris":{"android":"levelo://app?vid=40c48cf2-711a-44be-9162-7979b7928af0","ios":"levelo://app?vid=40c48cf2-711a-44be-9162-7979b7928af0"},"vehicle_type_id":"4","last_reported":1727262459,"current_range_meters":14400,"station_id":"ce4bgup2rcd13ifvqco0","pricing_plan_id":"cebpf4jnsgd1na2vs0mg"},{"bike_id":"9926f8d4-52ff-41d7-995b-39e4b6d4cdc0","system_id":"levelo_inurba_marseille","lat":43.32487,"lon":5.36559,"is_reserved":false,"is_disabled":false,"rental_uris":{"android":"levelo://app?vid=9926f8d4-52ff-41d7-995b-39e4b6d4cdc0","ios":"levelo://app?vid=9926f8d4-52ff-41d7-995b-39e4b6d4cdc0"},"vehicle_type_id":"4","last_reported":1727262459,"current_range_meters":38800,"station_id":"ce4bhs12rcd13ifvqhvg","pricing_plan_id":"cebpf4jnsgd1na2vs0mg"},{"bike_id":"04f5291e-64e7-4557-a865-181e01726212","system_id":"levelo_inurba_marseille","lat":43.29362,"lon":5.37848,"is_reserved":false,"is_disabled":false,"rental_uris":{"android":"levelo://app?vid=04f5291e-64e7-4557-a865-181e01726212","ios":"levelo://app?vid=04f5291e-64e7-4557-a865-181e01726212"},"vehicle_type_id":"4","last_reported":1727262459,"current_range_meters":36800,"station_id":"ce4bgjh2rcd13ifvqbf0","pricing_plan_id":"cebpf4jnsgd1na2vs0mg"},{"bike_id":"212f6b45-fbe5-4fc3-843a-38bb0625ec87","system_id":"levelo_inurba_marseille","lat":43.240867,"lon":5.377499,"is_reserved":false,"is_disabled":false,"rental_uris":{"android":"levelo://app?vid=212f6b45-fbe5-4fc3-843a-38bb0625ec87","ios":"levelo://app?vid=212f6b45-fbe5-4fc3-843a-38bb0625ec87"},"vehicle_type_id":"4","last_reported":1727262459,"current_range_meters":16000,"station_id":"ce4bhgh2rcd13ifvqfb0","pricing_plan_id":"cebpf4jnsgd1na2vs0mg"},{"bike_id":"bb12d251-5d23-49a2-a2a5-87d7ed7ece91","system_id":"levelo_inurba_marseille","lat":43.31354,"lon":5.36699,"is_reserved":false,"is_disabled":false,"rental_uris":{"android":"levelo://app?vid=bb12d251-5d23-49a2-a2a5-87d7ed7ece91","ios":"levelo://app?vid=bb12d251-5d23-49a2-a2a5-87d7ed7ece91"},"vehicle_type_id":"4","last_reported":1727262459,"current_range_meters":39200,"station_id":"ce4bgr92rcd13ifvqc6g","pricing_plan_id":"cebpf4jnsgd1na2vs0mg"},{"bike_id":"891f67ca-3177-449c-ad82-68ab5a464f63","system_id":"levelo_inurba_marseille","lat":43.24389,"lon":5.37052,"is_reserved":false,"is_disabled":false,"rental_uris":{"android":"levelo://app?vid=891f67ca-3177-449c-ad82-68ab5a464f63","ios":"levelo://app?vid=891f67ca-3177-449c-ad82-68ab5a464f63"},"vehicle_type_id":"4","last_reported":1727262459,"current_range_meters":28400,"station_id":"ce4bhhh2rcd13ifvqfk0","pricing_plan_id":"cebpf4jnsgd1na2vs0mg"},{"bike_id":"f5d7fabd-e40b-4775-8f6f-203938f28ec6","system_id":"levelo_inurba_marseille","lat":43.28854,"lon":5.35844,"is_reserved":false,"is_disabled":false,"rental_uris":{"android":"levelo://app?vid=f5d7fabd-e40b-4775-8f6f-203938f28ec6","ios":"levelo://app?vid=f5d7fabd-e40b-4775-8f6f-203938f28ec6"},"vehicle_type_id":"4","last_reported":1727262459,"current_range_meters":32000,"station_id":"ce4bhb12rcd13ifvqem0","pricing_plan_id":"cebpf4jnsgd1na2vs0mg"},{"bike_id":"aeea4805-d17d-4c4c-a385-15625beb0d39","system_id":"levelo_inurba_marseille","lat":43.30305,"lon":5.36909,"is_reserved":false,"is_disabled":false,"rental_uris":{"android":"levelo://app?vid=aeea4805-d17d-4c4c-a385-15625beb0d39","ios":"levelo://app?vid=aeea4805-d17d-4c4c-a385-15625beb0d39"},"vehicle_type_id":"4","last_reported":1727262459,"current_range_meters":38800,"station_id":"ce4bgqh2rcd13ifvqc5g","pricing_plan_id":"cebpf4jnsgd1na2vs0mg"},{"bike_id":"27e7d364-3743-49ae-81d8-077b559f1e4e","system_id":"levelo_inurba_marseille","lat":43.31338,"lon":5.36714,"is_reserved":false,"is_disabled":false,"rental_uris":{"android":"levelo://app?vid=27e7d364-3743-49ae-81d8-077b559f1e4e","ios":"levelo://app?vid=27e7d364-3743-49ae-81d8-077b559f1e4e"},"vehicle_type_id":"4","last_reported":1727262459,"current_range_meters":33600,"station_id":"ce4bgr92rcd13ifvqc6g","pricing_plan_id":"cebpf4jnsgd1na2vs0mg"},{"bike_id":"46fa38ec-b4b2-4d33-aeab-fdf60dc4a5d6","system_id":"levelo_inurba_marseille","lat":43.30543,"lon":5.36527,"is_reserved":false,"is_disabled":false,"rental_uris":{"android":"levelo://app?vid=46fa38ec-b4b2-4d33-aeab-fdf60dc4a5d6","ios":"levelo://app?vid=46fa38ec-b4b2-4d33-aeab-fdf60dc4a5d6"},"vehicle_type_id":"4","last_reported":1727262459,"current_range_meters":28400,"station_id":"","pricing_plan_id":"cebpf4jnsgd1na2vs0mg"},{"bike_id":"064bc2c7-d6b9-4df7-b87d-12733d407e7a","system_id":"levelo_inurba_marseille","lat":43.28446,"lon":5.35887,"is_reserved":false,"is_disabled":false,"rental_uris":{"android":"levelo://app?vid=064bc2c7-d6b9-4df7-b87d-12733d407e7a","ios":"levelo://app?vid=064bc2c7-d6b9-4df7-b87d-12733d407e7a"},"vehicle_type_id":"4","last_reported":1727262459,"current_range_meters":5600,"station_id":"ce4bhah2rcd13ifvqei0","pricing_plan_id":"cebpf4jnsgd1na2vs0mg"},{"bike_id":"18e2ec78-3df7-4957-9437-f980fdb413f1","system_id":"levelo_inurba_marseille","lat":43.291016,"lon":5.37235,"is_reserved":false,"is_disabled":false,"rental_uris":{"android":"levelo://app?vid=18e2ec78-3df7-4957-9437-f980fdb413f1","ios":"levelo://app?vid=18e2ec78-3df7-4957-9437-f980fdb413f1"},"vehicle_type_id":"4","last_reported":1727262459,"current_range_meters":27600,"station_id":"ce4bh5p2rcd13ifvqe4g","pricing_plan_id":"cebpf4jnsgd1na2vs0mg"},{"bike_id":"a5f3dc7e-8540-4a88-aa88-20e2fc43174a","system_id":"levelo_inurba_marseille","lat":43.29712,"lon":5.36616,"is_reserved":false,"is_disabled":false,"rental_uris":{"android":"levelo://app?vid=a5f3dc7e-8540-4a88-aa88-20e2fc43174a","ios":"levelo://app?vid=a5f3dc7e-8540-4a88-aa88-20e2fc43174a"},"vehicle_type_id":"4","last_reported":1727262459,"current_range_meters":16800,"station_id":"ce4bgn12rcd13ifvqbt0","pricing_plan_id":"cebpf4jnsgd1na2vs0mg"},{"bike_id":"35d46ebf-2c8d-40f1-ac89-c3284b1d1bec","system_id":"levelo_inurba_marseille","lat":43.29914,"lon":5.37454,"is_reserved":false,"is_disabled":false,"rental_uris":{"android":"levelo://app?vid=35d46ebf-2c8d-40f1-ac89-c3284b1d1bec","ios":"levelo://app?vid=35d46ebf-2c8d-40f1-ac89-c3284b1d1bec"},"vehicle_type_id":"4","last_reported":1727262459,"current_range_meters":36800,"station_id":"ce4bgjh2rcd13ifvqbg0","pricing_plan_id":"cebpf4jnsgd1na2vs0mg"},{"bike_id":"7737b815-6daf-41f0-8354-4b28ba75917f","system_id":"levelo_inurba_marseille","lat":43.301967,"lon":5.398269,"is_reserved":false,"is_disabled":false,"rental_uris":{"android":"levelo://app?vid=7737b815-6daf-41f0-8354-4b28ba75917f","ios":"levelo://app?vid=7737b815-6daf-41f0-8354-4b28ba75917f"},"vehicle_type_id":"4","last_reported":1727262459,"current_range_meters":17600,"station_id":"ce4bgvp2rcd13ifvqct0","pricing_plan_id":"cebpf4jnsgd1na2vs0mg"},{"bike_id":"725961d3-4f01-41ca-95ee-8135790d31a9","system_id":"levelo_inurba_marseille","lat":43.27076,"lon":5.42268,"is_reserved":false,"is_disabled":false,"rental_uris":{"android":"levelo://app?vid=725961d3-4f01-41ca-95ee-8135790d31a9","ios":"levelo://app?vid=725961d3-4f01-41ca-95ee-8135790d31a9"},"vehicle_type_id":"4","last_reported":1727262459,"current_range_meters":16000,"station_id":"ce4bhk92rcd13ifvqgb0","pricing_plan_id":"cebpf4jnsgd1na2vs0mg"},{"bike_id":"1e4516e4-a2da-450a-8c67-821033d320f6","system_id":"levelo_inurba_marseille","lat":43.26682,"lon":5.38264,"is_reserved":false,"is_disabled":false,"rental_uris":{"android":"levelo://app?vid=1e4516e4-a2da-450a-8c67-821033d320f6","ios":"levelo://app?vid=1e4516e4-a2da-450a-8c67-821033d320f6"},"vehicle_type_id":"4","last_reported":1727262459,"current_range_meters":25200,"station_id":"ce4bhg92rcd13ifvqf90","pricing_plan_id":"cebpf4jnsgd1na2vs0mg"},{"bike_id":"4ca5a2ab-b4fa-4553-8e23-6e376b7c33e1","system_id":"levelo_inurba_marseille","lat":43.3376,"lon":5.3745,"is_reserved":false,"is_disabled":false,"rental_uris":{"android":"levelo://app?vid=4ca5a2ab-b4fa-4553-8e23-6e376b7c33e1","ios":"levelo://app?vid=4ca5a2ab-b4fa-4553-8e23-6e376b7c33e1"},"vehicle_type_id":"4","last_reported":1727262459,"current_range_meters":32000,"station_id":"","pricing_plan_id":"cebpf4jnsgd1na2vs0mg"},{"bike_id":"836a9120-3836-4611-8ce4-eaea9bb5d922","system_id":"levelo_inurba_marseille","lat":43.26681,"lon":5.38271,"is_reserved":false,"is_disabled":false,"rental_uris":{"android":"levelo://app?vid=836a9120-3836-4611-8ce4-eaea9bb5d922","ios":"levelo://app?vid=836a9120-3836-4611-8ce4-eaea9bb5d922"},"vehicle_type_id":"4","last_reported":1727262459,"current_range_meters":3200,"station_id":"ce4bhg92rcd13ifvqf90","pricing_plan_id":"cebpf4jnsgd1na2vs0mg"},{"bike_id":"1a12c837-f89e-4ed8-8674-d39ae475ada8","system_id":"levelo_inurba_marseille","lat":43.26033,"lon":5.37548,"is_reserved":false,"is_disabled":false,"rental_uris":{"android":"levelo://app?vid=1a12c837-f89e-4ed8-8674-d39ae475ada8","ios":"levelo://app?vid=1a12c837-f89e-4ed8-8674-d39ae475ada8"},"vehicle_type_id":"4","last_reported":1727262459,"current_range_meters":37600,"station_id":"ce4bhgh2rcd13ifvqfa0","pricing_plan_id":"cebpf4jnsgd1na2vs0mg"},{"bike_id":"3b195df4-d71b-45c6-b4ee-0701cb9345da","system_id":"levelo_inurba_marseille","lat":43.30133,"lon":5.37421,"is_reserved":false,"is_disabled":false,"rental_uris":{"android":"levelo://app?vid=3b195df4-d71b-45c6-b4ee-0701cb9345da","ios":"levelo://app?vid=3b195df4-d71b-45c6-b4ee-0701cb9345da"},"vehicle_type_id":"4","last_reported":1727262459,"current_range_meters":26800,"station_id":"ce4bgs92rcd13ifvqcc0","pricing_plan_id":"cebpf4jnsgd1na2vs0mg"},{"bike_id":"f57f9a2b-463a-495e-b929-b7d110fc5488","system_id":"levelo_inurba_marseille","lat":43.2984,"lon":5.36265,"is_reserved":false,"is_disabled":false,"rental_uris":{"android":"levelo://app?vid=f57f9a2b-463a-495e-b929-b7d110fc5488","ios":"levelo://app?vid=f57f9a2b-463a-495e-b929-b7d110fc5488"},"vehicle_type_id":"4","last_reported":1727262459,"current_range_meters":12000,"station_id":"ce4bgpp2rcd13ifvqc3g","pricing_plan_id":"cebpf4jnsgd1na2vs0mg"},{"bike_id":"a6ef7b13-1aab-486c-9ca5-d5571ad66da7","system_id":"levelo_inurba_marseille","lat":43.24662,"lon":5.38915,"is_reserved":false,"is_disabled":false,"rental_uris":{"android":"levelo://app?vid=a6ef7b13-1aab-486c-9ca5-d5571ad66da7","ios":"levelo://app?vid=a6ef7b13-1aab-486c-9ca5-d5571ad66da7"},"vehicle_type_id":"4","last_reported":1727262459,"current_range_meters":24400,"station_id":"ce4bhlh2rcd13ifvqgig","pricing_plan_id":"cebpf4jnsgd1na2vs0mg"},{"bike_id":"e9e079ca-42fb-48ba-a6e1-682b20d310ce","system_id":"levelo_inurba_marseille","lat":43.232,"lon":5.35551,"is_reserved":false,"is_disabled":false,"rental_uris":{"android":"levelo://app?vid=e9e079ca-42fb-48ba-a6e1-682b20d310ce","ios":"levelo://app?vid=e9e079ca-42fb-48ba-a6e1-682b20d310ce"},"vehicle_type_id":"4","last_reported":1727262459,"current_range_meters":27200,"station_id":"ce4bhu92rcd13ifvqi70","pricing_plan_id":"cebpf4jnsgd1na2vs0mg"},{"bike_id":"cb209a58-cf56-418d-8aed-a73daf49924a","system_id":"levelo_inurba_marseille","lat":43.23179,"lon":5.39985,"is_reserved":false,"is_disabled":false,"rental_uris":{"android":"levelo://app?vid=cb209a58-cf56-418d-8aed-a73daf49924a","ios":"levelo://app?vid=cb209a58-cf56-418d-8aed-a73daf49924a"},"vehicle_type_id":"4","last_reported":1727262459,"current_range_meters":13600,"station_id":"ce4bhn12rcd13ifvqgqg","pricing_plan_id":"cebpf4jnsgd1na2vs0mg"},{"bike_id":"0124dbd0-b0b1-447a-93dd-6b9800ae8e76","system_id":"levelo_inurba_marseille","lat":43.27984,"lon":5.41652,"is_reserved":false,"is_disabled":false,"rental_uris":{"android":"levelo://app?vid=0124dbd0-b0b1-447a-93dd-6b9800ae8e76","ios":"levelo://app?vid=0124dbd0-b0b1-447a-93dd-6b9800ae8e76"},"vehicle_type_id":"4","last_reported":1727262459,"current_range_meters":3200,"station_id":"ce4bho12rcd13ifvqh1g","pricing_plan_id":"cebpf4jnsgd1na2vs0mg"},{"bike_id":"695d25e3-ac6d-459d-b69e-9baa2718f7fe","system_id":"levelo_inurba_marseille","lat":43.29622,"lon":5.37705,"is_reserved":false,"is_disabled":false,"rental_uris":{"android":"levelo://app?vid=695d25e3-ac6d-459d-b69e-9baa2718f7fe","ios":"levelo://app?vid=695d25e3-ac6d-459d-b69e-9baa2718f7fe"},"vehicle_type_id":"4","last_reported":1727262459,"current_range_meters":38800,"station_id":"ce4bgi92rcd13ifvqb90","pricing_plan_id":"cebpf4jnsgd1na2vs0mg"},{"bike_id":"47be0132-b2b7-4184-80e1-e477a7067a46","system_id":"levelo_inurba_marseille","lat":43.314234,"lon":5.373639,"is_reserved":false,"is_disabled":false,"rental_uris":{"android":"levelo://app?vid=47be0132-b2b7-4184-80e1-e477a7067a46","ios":"levelo://app?vid=47be0132-b2b7-4184-80e1-e477a7067a46"},"vehicle_type_id":"4","last_reported":1727262459,"current_range_meters":28800,"station_id":"ce4bgt12rcd13ifvqcd0","pricing_plan_id":"cebpf4jnsgd1na2vs0mg"},{"bike_id":"7a8458d5-44ac-4f2e-abef-3f01eb31f7ca","system_id":"levelo_inurba_marseille","lat":43.337444,"lon":5.374475,"is_reserved":false,"is_disabled":false,"rental_uris":{"android":"levelo://app?vid=7a8458d5-44ac-4f2e-abef-3f01eb31f7ca","ios":"levelo://app?vid=7a8458d5-44ac-4f2e-abef-3f01eb31f7ca"},"vehicle_type_id":"4","last_reported":1727262459,"current_range_meters":25600,"station_id":"","pricing_plan_id":"cebpf4jnsgd1na2vs0mg"},{"bike_id":"e86d5d26-054d-4691-88ed-a5bd7c9707d9","system_id":"levelo_inurba_marseille","lat":43.23065,"lon":5.35488,"is_reserved":false,"is_disabled":false,"rental_uris":{"android":"levelo://app?vid=e86d5d26-054d-4691-88ed-a5bd7c9707d9","ios":"levelo://app?vid=e86d5d26-054d-4691-88ed-a5bd7c9707d9"},"vehicle_type_id":"4","last_reported":1727262459,"current_range_meters":14000,"station_id":"cpo3342slgdg3j2ifvpg","pricing_plan_id":"cebpf4jnsgd1na2vs0mg"},{"bike_id":"5b80f534-31aa-493e-a7af-c5c257fa4e9e","system_id":"levelo_inurba_marseille","lat":43.29673,"lon":5.37293,"is_reserved":false,"is_disabled":false,"rental_uris":{"android":"levelo://app?vid=5b80f534-31aa-493e-a7af-c5c257fa4e9e","ios":"levelo://app?vid=5b80f534-31aa-493e-a7af-c5c257fa4e9e"},"vehicle_type_id":"4","last_reported":1727262459,"current_range_meters":38800,"station_id":"ce4bgk12rcd13ifvqbj0","pricing_plan_id":"cebpf4jnsgd1na2vs0mg"},{"bike_id":"a5bed6c7-0181-4d5a-bf16-c9aae083ea7a","system_id":"levelo_inurba_marseille","lat":43.2749,"lon":5.42454,"is_reserved":false,"is_disabled":false,"rental_uris":{"android":"levelo://app?vid=a5bed6c7-0181-4d5a-bf16-c9aae083ea7a","ios":"levelo://app?vid=a5bed6c7-0181-4d5a-bf16-c9aae083ea7a"},"vehicle_type_id":"4","last_reported":1727262459,"current_range_meters":28000,"station_id":"ce4bhn92rcd13ifvqgrg","pricing_plan_id":"cebpf4jnsgd1na2vs0mg"},{"bike_id":"0b1e4c37-3578-47d3-9fbc-3d280b331de0","system_id":"levelo_inurba_marseille","lat":43.33736,"lon":5.37443,"is_reserved":false,"is_disabled":false,"rental_uris":{"android":"levelo://app?vid=0b1e4c37-3578-47d3-9fbc-3d280b331de0","ios":"levelo://app?vid=0b1e4c37-3578-47d3-9fbc-3d280b331de0"},"vehicle_type_id":"4","last_reported":1727262459,"current_range_meters":10000,"station_id":"","pricing_plan_id":"cebpf4jnsgd1na2vs0mg"},{"bike_id":"762d00a3-be5b-4413-a0f4-9d65473b3780","system_id":"levelo_inurba_marseille","lat":43.29598,"lon":5.38099,"is_reserved":false,"is_disabled":false,"rental_uris":{"android":"levelo://app?vid=762d00a3-be5b-4413-a0f4-9d65473b3780","ios":"levelo://app?vid=762d00a3-be5b-4413-a0f4-9d65473b3780"},"vehicle_type_id":"4","last_reported":1727262459,"current_range_meters":38800,"station_id":"ce4bgl12rcd13ifvqbo0","pricing_plan_id":"cebpf4jnsgd1na2vs0mg"},{"bike_id":"15300eb9-9609-4833-bf7c-718f7db799de","system_id":"levelo_inurba_marseille","lat":43.25942,"lon":5.40904,"is_reserved":false,"is_disabled":false,"rental_uris":{"android":"levelo://app?vid=15300eb9-9609-4833-bf7c-718f7db799de","ios":"levelo://app?vid=15300eb9-9609-4833-bf7c-718f7db799de"},"vehicle_type_id":"4","last_reported":1727262459,"current_range_meters":22400,"station_id":"ce4bhm92rcd13ifvqglg","pricing_plan_id":"cebpf4jnsgd1na2vs0mg"},{"bike_id":"1ae406cd-5631-4ed5-a6b8-1a3a613635c9","system_id":"levelo_inurba_marseille","lat":43.27825,"lon":5.3921,"is_reserved":false,"is_disabled":false,"rental_uris":{"android":"levelo://app?vid=1ae406cd-5631-4ed5-a6b8-1a3a613635c9","ios":"levelo://app?vid=1ae406cd-5631-4ed5-a6b8-1a3a613635c9"},"vehicle_type_id":"4","last_reported":1727262459,"current_range_meters":17200,"station_id":"ce4bhjp2rcd13ifvqga0","pricing_plan_id":"cebpf4jnsgd1na2vs0mg"},{"bike_id":"57ee38e2-fb75-467c-843a-fa7948989f4c","system_id":"levelo_inurba_marseille","lat":43.2958,"lon":5.37505,"is_reserved":false,"is_disabled":false,"rental_uris":{"android":"levelo://app?vid=57ee38e2-fb75-467c-843a-fa7948989f4c","ios":"levelo://app?vid=57ee38e2-fb75-467c-843a-fa7948989f4c"},"vehicle_type_id":"4","last_reported":1727262459,"current_range_meters":14400,"station_id":"ce4bgh92rcd13ifvqb50","pricing_plan_id":"cebpf4jnsgd1na2vs0mg"},{"bike_id":"ebbc214c-f9f7-49b0-8c8c-a5c842c76537","system_id":"levelo_inurba_marseille","lat":43.27575,"lon":5.38432,"is_reserved":false,"is_disabled":false,"rental_uris":{"android":"levelo://app?vid=ebbc214c-f9f7-49b0-8c8c-a5c842c76537","ios":"levelo://app?vid=ebbc214c-f9f7-49b0-8c8c-a5c842c76537"},"vehicle_type_id":"4","last_reported":1727262459,"current_range_meters":13600,"station_id":"ce4bhh92rcd13ifvqfi0","pricing_plan_id":"cebpf4jnsgd1na2vs0mg"},{"bike_id":"c9caa42e-e8a7-4b6e-b172-795704959513","system_id":"levelo_inurba_marseille","lat":43.30906,"lon":5.3685,"is_reserved":false,"is_disabled":false,"rental_uris":{"android":"levelo://app?vid=c9caa42e-e8a7-4b6e-b172-795704959513","ios":"levelo://app?vid=c9caa42e-e8a7-4b6e-b172-795704959513"},"vehicle_type_id":"4","last_reported":1727262459,"current_range_meters":32000,"station_id":"ce4bgn92rcd13ifvqbvg","pricing_plan_id":"cebpf4jnsgd1na2vs0mg"},{"bike_id":"4df1a1ed-5f4e-4205-8f2a-c7da9632039d","system_id":"levelo_inurba_marseille","lat":43.29583,"lon":5.37522,"is_reserved":false,"is_disabled":false,"rental_uris":{"android":"levelo://app?vid=4df1a1ed-5f4e-4205-8f2a-c7da9632039d","ios":"levelo://app?vid=4df1a1ed-5f4e-4205-8f2a-c7da9632039d"},"vehicle_type_id":"4","last_reported":1727262459,"current_range_meters":38800,"station_id":"ce4bgh92rcd13ifvqb50","pricing_plan_id":"cebpf4jnsgd1na2vs0mg"},{"bike_id":"a7834bc2-012e-480a-a45b-93c1c327f616","system_id":"levelo_inurba_marseille","lat":43.30592,"lon":5.37202,"is_reserved":false,"is_disabled":false,"rental_uris":{"android":"levelo://app?vid=a7834bc2-012e-480a-a45b-93c1c327f616","ios":"levelo://app?vid=a7834bc2-012e-480a-a45b-93c1c327f616"},"vehicle_type_id":"4","last_reported":1727262459,"current_range_meters":24000,"station_id":"ce4bgqh2rcd13ifvqc4g","pricing_plan_id":"cebpf4jnsgd1na2vs0mg"},{"bike_id":"6f24c72c-8aa6-4007-8674-6921758a11fa","system_id":"levelo_inurba_marseille","lat":43.28982,"lon":5.37825,"is_reserved":false,"is_disabled":false,"rental_uris":{"android":"levelo://app?vid=6f24c72c-8aa6-4007-8674-6921758a11fa","ios":"levelo://app?vid=6f24c72c-8aa6-4007-8674-6921758a11fa"},"vehicle_type_id":"4","last_reported":1727262459,"current_range_meters":6800,"station_id":"ce4bh9p2rcd13ifvqed0","pricing_plan_id":"cebpf4jnsgd1na2vs0mg"},{"bike_id":"c68f3e64-3010-419f-bd5d-ed0fa8ce5cf4","system_id":"levelo_inurba_marseille","lat":43.29541,"lon":5.39402,"is_reserved":false,"is_disabled":false,"rental_uris":{"android":"levelo://app?vid=c68f3e64-3010-419f-bd5d-ed0fa8ce5cf4","ios":"levelo://app?vid=c68f3e64-3010-419f-bd5d-ed0fa8ce5cf4"},"vehicle_type_id":"4","last_reported":1727262459,"current_range_meters":17200,"station_id":"ce4bh292rcd13ifvqdf0","pricing_plan_id":"cebpf4jnsgd1na2vs0mg"},{"bike_id":"2b91a84e-a424-4342-8b8f-74aaffa62f3c","system_id":"levelo_inurba_marseille","lat":43.25592,"lon":5.38233,"is_reserved":false,"is_disabled":false,"rental_uris":{"android":"levelo://app?vid=2b91a84e-a424-4342-8b8f-74aaffa62f3c","ios":"levelo://app?vid=2b91a84e-a424-4342-8b8f-74aaffa62f3c"},"vehicle_type_id":"4","last_reported":1727262459,"current_range_meters":20000,"station_id":"ce4bhih2rcd13ifvqfs0","pricing_plan_id":"cebpf4jnsgd1na2vs0mg"},{"bike_id":"44944327-804d-4efd-957d-c88684856ece","system_id":"levelo_inurba_marseille","lat":43.33759,"lon":5.3743,"is_reserved":false,"is_disabled":false,"rental_uris":{"android":"levelo://app?vid=44944327-804d-4efd-957d-c88684856ece","ios":"levelo://app?vid=44944327-804d-4efd-957d-c88684856ece"},"vehicle_type_id":"4","last_reported":1727262459,"current_range_meters":36000,"station_id":"","pricing_plan_id":"cebpf4jnsgd1na2vs0mg"},{"bike_id":"01a00f87-936e-4d1f-b462-db513a95681a","system_id":"levelo_inurba_marseille","lat":43.293,"lon":5.37453,"is_reserved":false,"is_disabled":false,"rental_uris":{"android":"levelo://app?vid=01a00f87-936e-4d1f-b462-db513a95681a","ios":"levelo://app?vid=01a00f87-936e-4d1f-b462-db513a95681a"},"vehicle_type_id":"4","last_reported":1727262459,"current_range_meters":37600,"station_id":"ce4bgi12rcd13ifvqb70","pricing_plan_id":"cebpf4jnsgd1na2vs0mg"},{"bike_id":"c616d233-ea67-4895-8880-51b610224d27","system_id":"levelo_inurba_marseille","lat":43.305427,"lon":5.365446,"is_reserved":false,"is_disabled":false,"rental_uris":{"android":"levelo://app?vid=c616d233-ea67-4895-8880-51b610224d27","ios":"levelo://app?vid=c616d233-ea67-4895-8880-51b610224d27"},"vehicle_type_id":"4","last_reported":1727262459,"current_range_meters":16400,"station_id":"ce4bgs12rcd13ifvqcag","pricing_plan_id":"cebpf4jnsgd1na2vs0mg"},{"bike_id":"c6621350-e90b-440c-b79f-924284c7fd49","system_id":"levelo_inurba_marseille","lat":43.2958,"lon":5.36742,"is_reserved":false,"is_disabled":false,"rental_uris":{"android":"levelo://app?vid=c6621350-e90b-440c-b79f-924284c7fd49","ios":"levelo://app?vid=c6621350-e90b-440c-b79f-924284c7fd49"},"vehicle_type_id":"4","last_reported":1727262459,"current_range_meters":36800,"station_id":"ce4bgph2rcd13ifvqc2g","pricing_plan_id":"cebpf4jnsgd1na2vs0mg"},{"bike_id":"b6d66480-c506-49eb-b751-7b2c73bd2162","system_id":"levelo_inurba_marseille","lat":43.29626,"lon":5.37158,"is_reserved":false,"is_disabled":false,"rental_uris":{"android":"levelo://app?vid=b6d66480-c506-49eb-b751-7b2c73bd2162","ios":"levelo://app?vid=b6d66480-c506-49eb-b751-7b2c73bd2162"},"vehicle_type_id":"4","last_reported":1727262459,"current_range_meters":22800,"station_id":"ce4bgnh2rcd13ifvqc0g","pricing_plan_id":"cebpf4jnsgd1na2vs0mg"},{"bike_id":"25c2da3d-9bb6-48b8-8579-2ff6744c67cb","system_id":"levelo_inurba_marseille","lat":43.23153,"lon":5.43711,"is_reserved":false,"is_disabled":false,"rental_uris":{"android":"levelo://app?vid=25c2da3d-9bb6-48b8-8579-2ff6744c67cb","ios":"levelo://app?vid=25c2da3d-9bb6-48b8-8579-2ff6744c67cb"},"vehicle_type_id":"4","last_reported":1727262459,"current_range_meters":37600,"station_id":"ce4bhmp2rcd13ifvqgog","pricing_plan_id":"cebpf4jnsgd1na2vs0mg"},{"bike_id":"d9f68a21-de33-44af-a64e-e339eda29d4e","system_id":"levelo_inurba_marseille","lat":43.29195,"lon":5.39324,"is_reserved":false,"is_disabled":false,"rental_uris":{"android":"levelo://app?vid=d9f68a21-de33-44af-a64e-e339eda29d4e","ios":"levelo://app?vid=d9f68a21-de33-44af-a64e-e339eda29d4e"},"vehicle_type_id":"4","last_reported":1727262459,"current_range_meters":30400,"station_id":"ce4bh192rcd13ifvqdd0","pricing_plan_id":"cebpf4jnsgd1na2vs0mg"},{"bike_id":"3c7daa5a-2229-4ef5-8f32-ce0c6827033b","system_id":"levelo_inurba_marseille","lat":43.25729,"lon":5.41094,"is_reserved":false,"is_disabled":false,"rental_uris":{"android":"levelo://app?vid=3c7daa5a-2229-4ef5-8f32-ce0c6827033b","ios":"levelo://app?vid=3c7daa5a-2229-4ef5-8f32-ce0c6827033b"},"vehicle_type_id":"4","last_reported":1727262459,"current_range_meters":28000,"station_id":"ce4bhkp2rcd13ifvqgd0","pricing_plan_id":"cebpf4jnsgd1na2vs0mg"},{"bike_id":"79a05bb1-ccec-47f0-8ebd-1f95854549f8","system_id":"levelo_inurba_marseille","lat":43.31285,"lon":5.38042,"is_reserved":false,"is_disabled":false,"rental_uris":{"android":"levelo://app?vid=79a05bb1-ccec-47f0-8ebd-1f95854549f8","ios":"levelo://app?vid=79a05bb1-ccec-47f0-8ebd-1f95854549f8"},"vehicle_type_id":"4","last_reported":1727262459,"current_range_meters":11200,"station_id":"","pricing_plan_id":"cebpf4jnsgd1na2vs0mg"},{"bike_id":"82a46f4c-338e-4f2c-bb15-b73bebda5189","system_id":"levelo_inurba_marseille","lat":43.23148,"lon":5.43708,"is_reserved":false,"is_disabled":false,"rental_uris":{"android":"levelo://app?vid=82a46f4c-338e-4f2c-bb15-b73bebda5189","ios":"levelo://app?vid=82a46f4c-338e-4f2c-bb15-b73bebda5189"},"vehicle_type_id":"4","last_reported":1727262459,"current_range_meters":37600,"station_id":"ce4bhmp2rcd13ifvqgog","pricing_plan_id":"cebpf4jnsgd1na2vs0mg"},{"bike_id":"df5b9e5c-ff63-4dea-ace9-2c0f06b1574f","system_id":"levelo_inurba_marseille","lat":43.2743,"lon":5.39431,"is_reserved":false,"is_disabled":false,"rental_uris":{"android":"levelo://app?vid=df5b9e5c-ff63-4dea-ace9-2c0f06b1574f","ios":"levelo://app?vid=df5b9e5c-ff63-4dea-ace9-2c0f06b1574f"},"vehicle_type_id":"4","last_reported":1727262459,"current_range_meters":18000,"station_id":"ce4bhdp2rcd13ifvqf20","pricing_plan_id":"cebpf4jnsgd1na2vs0mg"},{"bike_id":"5b12a650-46c3-42bd-802a-cfdc13bbbac9","system_id":"levelo_inurba_marseille","lat":43.33732,"lon":5.37451,"is_reserved":false,"is_disabled":false,"rental_uris":{"android":"levelo://app?vid=5b12a650-46c3-42bd-802a-cfdc13bbbac9","ios":"levelo://app?vid=5b12a650-46c3-42bd-802a-cfdc13bbbac9"},"vehicle_type_id":"4","last_reported":1727262459,"current_range_meters":36000,"station_id":"","pricing_plan_id":"cebpf4jnsgd1na2vs0mg"},{"bike_id":"d65ab9c0-7e18-45de-8bf7-e4c1c3d6db56","system_id":"levelo_inurba_marseille","lat":43.23965,"lon":5.36632,"is_reserved":false,"is_disabled":false,"rental_uris":{"android":"levelo://app?vid=d65ab9c0-7e18-45de-8bf7-e4c1c3d6db56","ios":"levelo://app?vid=d65ab9c0-7e18-45de-8bf7-e4c1c3d6db56"},"vehicle_type_id":"4","last_reported":1727262459,"current_range_meters":24400,"station_id":"ce4bhi12rcd13ifvqfp0","pricing_plan_id":"cebpf4jnsgd1na2vs0mg"},{"bike_id":"796cb342-ddc2-46b9-af55-e1044983438d","system_id":"levelo_inurba_marseille","lat":43.30313,"lon":5.36912,"is_reserved":false,"is_disabled":false,"rental_uris":{"android":"levelo://app?vid=796cb342-ddc2-46b9-af55-e1044983438d","ios":"levelo://app?vid=796cb342-ddc2-46b9-af55-e1044983438d"},"vehicle_type_id":"4","last_reported":1727262459,"current_range_meters":33200,"station_id":"ce4bgqh2rcd13ifvqc5g","pricing_plan_id":"cebpf4jnsgd1na2vs0mg"},{"bike_id":"34b01403-eef4-44d5-a760-4dabcbb14513","system_id":"levelo_inurba_marseille","lat":43.28676,"lon":5.38662,"is_reserved":false,"is_disabled":false,"rental_uris":{"android":"levelo://app?vid=34b01403-eef4-44d5-a760-4dabcbb14513","ios":"levelo://app?vid=34b01403-eef4-44d5-a760-4dabcbb14513"},"vehicle_type_id":"4","last_reported":1727262459,"current_range_meters":9600,"station_id":"ce4bh492rcd13ifvqdug","pricing_plan_id":"cebpf4jnsgd1na2vs0mg"},{"bike_id":"f97ba308-62f2-45e6-b928-755fc3107561","system_id":"levelo_inurba_marseille","lat":43.23182,"lon":5.39999,"is_reserved":false,"is_disabled":false,"rental_uris":{"android":"levelo://app?vid=f97ba308-62f2-45e6-b928-755fc3107561","ios":"levelo://app?vid=f97ba308-62f2-45e6-b928-755fc3107561"},"vehicle_type_id":"4","last_reported":1727262459,"current_range_meters":38800,"station_id":"ce4bhn12rcd13ifvqgqg","pricing_plan_id":"cebpf4jnsgd1na2vs0mg"},{"bike_id":"ffb788d4-680f-4792-a087-79cf193199fa","system_id":"levelo_inurba_marseille","lat":43.31889,"lon":5.40735,"is_reserved":false,"is_disabled":false,"rental_uris":{"android":"levelo://app?vid=ffb788d4-680f-4792-a087-79cf193199fa","ios":"levelo://app?vid=ffb788d4-680f-4792-a087-79cf193199fa"},"vehicle_type_id":"4","last_reported":1727262459,"current_range_meters":27600,"station_id":"ce4bhq12rcd13ifvqhig","pricing_plan_id":"cebpf4jnsgd1na2vs0mg"},{"bike_id":"3fb94ac6-1872-4a49-be5f-fc77bf5b3901","system_id":"levelo_inurba_marseille","lat":43.30907,"lon":5.36858,"is_reserved":false,"is_disabled":false,"rental_uris":{"android":"levelo://app?vid=3fb94ac6-1872-4a49-be5f-fc77bf5b3901","ios":"levelo://app?vid=3fb94ac6-1872-4a49-be5f-fc77bf5b3901"},"vehicle_type_id":"4","last_reported":1727262459,"current_range_meters":36800,"station_id":"ce4bgn92rcd13ifvqbvg","pricing_plan_id":"cebpf4jnsgd1na2vs0mg"},{"bike_id":"502cbdd1-7512-43b9-8e5c-8a510463b77f","system_id":"levelo_inurba_marseille","lat":43.25941,"lon":5.40898,"is_reserved":false,"is_disabled":false,"rental_uris":{"android":"levelo://app?vid=502cbdd1-7512-43b9-8e5c-8a510463b77f","ios":"levelo://app?vid=502cbdd1-7512-43b9-8e5c-8a510463b77f"},"vehicle_type_id":"4","last_reported":1727262459,"current_range_meters":19600,"station_id":"ce4bhm92rcd13ifvqglg","pricing_plan_id":"cebpf4jnsgd1na2vs0mg"},{"bike_id":"78969057-a73d-4dd3-8038-e96c4318ac49","system_id":"levelo_inurba_marseille","lat":43.30597,"lon":5.37222,"is_reserved":false,"is_disabled":false,"rental_uris":{"android":"levelo://app?vid=78969057-a73d-4dd3-8038-e96c4318ac49","ios":"levelo://app?vid=78969057-a73d-4dd3-8038-e96c4318ac49"},"vehicle_type_id":"4","last_reported":1727262459,"current_range_meters":29600,"station_id":"ce4bgqh2rcd13ifvqc4g","pricing_plan_id":"cebpf4jnsgd1na2vs0mg"},{"bike_id":"ecb70881-b110-48a8-b751-24b4690d4031","system_id":"levelo_inurba_marseille","lat":43.2317,"lon":5.40001,"is_reserved":false,"is_disabled":false,"rental_uris":{"android":"levelo://app?vid=ecb70881-b110-48a8-b751-24b4690d4031","ios":"levelo://app?vid=ecb70881-b110-48a8-b751-24b4690d4031"},"vehicle_type_id":"4","last_reported":1727262459,"current_range_meters":38800,"station_id":"ce4bhn12rcd13ifvqgqg","pricing_plan_id":"cebpf4jnsgd1na2vs0mg"},{"bike_id":"25bd7405-be80-4a77-a761-8a1efed52652","system_id":"levelo_inurba_marseille","lat":43.299,"lon":5.43655,"is_reserved":false,"is_disabled":false,"rental_uris":{"android":"levelo://app?vid=25bd7405-be80-4a77-a761-8a1efed52652","ios":"levelo://app?vid=25bd7405-be80-4a77-a761-8a1efed52652"},"vehicle_type_id":"4","last_reported":1727262459,"current_range_meters":39200,"station_id":"ce4bhpp2rcd13ifvqhfg","pricing_plan_id":"cebpf4jnsgd1na2vs0mg"},{"bike_id":"bbd31db5-c137-4320-95f9-7cb19235dc07","system_id":"levelo_inurba_marseille","lat":43.30797,"lon":5.43518,"is_reserved":false,"is_disabled":false,"rental_uris":{"android":"levelo://app?vid=bbd31db5-c137-4320-95f9-7cb19235dc07","ios":"levelo://app?vid=bbd31db5-c137-4320-95f9-7cb19235dc07"},"vehicle_type_id":"4","last_reported":1727262459,"current_range_meters":38800,"station_id":"ce4bhph2rcd13ifvqheg","pricing_plan_id":"cebpf4jnsgd1na2vs0mg"},{"bike_id":"301f31ce-0a1a-4f7c-95c1-6b0d39e87c17","system_id":"levelo_inurba_marseille","lat":43.25582,"lon":5.38222,"is_reserved":false,"is_disabled":false,"rental_uris":{"android":"levelo://app?vid=301f31ce-0a1a-4f7c-95c1-6b0d39e87c17","ios":"levelo://app?vid=301f31ce-0a1a-4f7c-95c1-6b0d39e87c17"},"vehicle_type_id":"4","last_reported":1727262459,"current_range_meters":28000,"station_id":"ce4bhih2rcd13ifvqfs0","pricing_plan_id":"cebpf4jnsgd1na2vs0mg"},{"bike_id":"f6275728-f078-4fe3-a4cc-467a5a2ab004","system_id":"levelo_inurba_marseille","lat":43.31479,"lon":5.36956,"is_reserved":false,"is_disabled":false,"rental_uris":{"android":"levelo://app?vid=f6275728-f078-4fe3-a4cc-467a5a2ab004","ios":"levelo://app?vid=f6275728-f078-4fe3-a4cc-467a5a2ab004"},"vehicle_type_id":"4","last_reported":1727262459,"current_range_meters":35200,"station_id":"","pricing_plan_id":"cebpf4jnsgd1na2vs0mg"},{"bike_id":"124ed7b5-473e-4a00-a600-343137f4cef9","system_id":"levelo_inurba_marseille","lat":43.33721,"lon":5.39184,"is_reserved":false,"is_disabled":false,"rental_uris":{"android":"levelo://app?vid=124ed7b5-473e-4a00-a600-343137f4cef9","ios":"levelo://app?vid=124ed7b5-473e-4a00-a600-343137f4cef9"},"vehicle_type_id":"4","last_reported":1727262459,"current_range_meters":33200,"station_id":"ce4bhr92rcd13ifvqhsg","pricing_plan_id":"cebpf4jnsgd1na2vs0mg"},{"bike_id":"dbb75213-8c54-4c1e-a43f-e3752c1d94e1","system_id":"levelo_inurba_marseille","lat":43.32371,"lon":5.38881,"is_reserved":false,"is_disabled":false,"rental_uris":{"android":"levelo://app?vid=dbb75213-8c54-4c1e-a43f-e3752c1d94e1","ios":"levelo://app?vid=dbb75213-8c54-4c1e-a43f-e3752c1d94e1"},"vehicle_type_id":"4","last_reported":1727262459,"current_range_meters":16800,"station_id":"ce4bhqp2rcd13ifvqhog","pricing_plan_id":"cebpf4jnsgd1na2vs0mg"},{"bike_id":"5af80074-7dde-4580-b635-5084443f24ae","system_id":"levelo_inurba_marseille","lat":43.27559,"lon":5.38416,"is_reserved":false,"is_disabled":false,"rental_uris":{"android":"levelo://app?vid=5af80074-7dde-4580-b635-5084443f24ae","ios":"levelo://app?vid=5af80074-7dde-4580-b635-5084443f24ae"},"vehicle_type_id":"4","last_reported":1727262459,"current_range_meters":28800,"station_id":"ce4bhh92rcd13ifvqfi0","pricing_plan_id":"cebpf4jnsgd1na2vs0mg"},{"bike_id":"420d93c2-f46c-4736-9062-556b1a7eaf42","system_id":"levelo_inurba_marseille","lat":43.29983,"lon":5.38488,"is_reserved":false,"is_disabled":false,"rental_uris":{"android":"levelo://app?vid=420d93c2-f46c-4736-9062-556b1a7eaf42","ios":"levelo://app?vid=420d93c2-f46c-4736-9062-556b1a7eaf42"},"vehicle_type_id":"4","last_reported":1727262459,"current_range_meters":27600,"station_id":"ce4bgj92rcd13ifvqbd0","pricing_plan_id":"cebpf4jnsgd1na2vs0mg"},{"bike_id":"0f642b5e-81bb-4d15-b95c-5adfaa25198a","system_id":"levelo_inurba_marseille","lat":43.28941,"lon":5.39634,"is_reserved":false,"is_disabled":false,"rental_uris":{"android":"levelo://app?vid=0f642b5e-81bb-4d15-b95c-5adfaa25198a","ios":"levelo://app?vid=0f642b5e-81bb-4d15-b95c-5adfaa25198a"},"vehicle_type_id":"4","last_reported":1727262459,"current_range_meters":11600,"station_id":"ce4bh3h2rcd13ifvqdn0","pricing_plan_id":"cebpf4jnsgd1na2vs0mg"},{"bike_id":"793e89d1-2d94-4b20-84b9-ec14430afaf0","system_id":"levelo_inurba_marseille","lat":43.27371,"lon":5.36255,"is_reserved":false,"is_disabled":false,"rental_uris":{"android":"levelo://app?vid=793e89d1-2d94-4b20-84b9-ec14430afaf0","ios":"levelo://app?vid=793e89d1-2d94-4b20-84b9-ec14430afaf0"},"vehicle_type_id":"4","last_reported":1727262459,"current_range_meters":33600,"station_id":"ce4bhbh2rcd13ifvqeo0","pricing_plan_id":"cebpf4jnsgd1na2vs0mg"},{"bike_id":"d18e33d1-440e-4c0b-9a8b-2d2580d7559d","system_id":"levelo_inurba_marseille","lat":43.32484,"lon":5.36563,"is_reserved":false,"is_disabled":false,"rental_uris":{"android":"levelo://app?vid=d18e33d1-440e-4c0b-9a8b-2d2580d7559d","ios":"levelo://app?vid=d18e33d1-440e-4c0b-9a8b-2d2580d7559d"},"vehicle_type_id":"4","last_reported":1727262459,"current_range_meters":3200,"station_id":"ce4bhs12rcd13ifvqhvg","pricing_plan_id":"cebpf4jnsgd1na2vs0mg"},{"bike_id":"9741c67b-4f44-4822-84c5-9142355e44cf","system_id":"levelo_inurba_marseille","lat":43.32529,"lon":5.41446,"is_reserved":false,"is_disabled":false,"rental_uris":{"android":"levelo://app?vid=9741c67b-4f44-4822-84c5-9142355e44cf","ios":"levelo://app?vid=9741c67b-4f44-4822-84c5-9142355e44cf"},"vehicle_type_id":"4","last_reported":1727262459,"current_range_meters":5600,"station_id":"ce4bhq12rcd13ifvqhhg","pricing_plan_id":"cebpf4jnsgd1na2vs0mg"},{"bike_id":"dcca5794-959e-45e1-b073-e693b63e10f0","system_id":"levelo_inurba_marseille","lat":43.26558,"lon":5.37281,"is_reserved":false,"is_disabled":false,"rental_uris":{"android":"levelo://app?vid=dcca5794-959e-45e1-b073-e693b63e10f0","ios":"levelo://app?vid=dcca5794-959e-45e1-b073-e693b63e10f0"},"vehicle_type_id":"4","last_reported":1727262459,"current_range_meters":30800,"station_id":"ce4bhg12rcd13ifvqf70","pricing_plan_id":"cebpf4jnsgd1na2vs0mg"},{"bike_id":"de598c11-ebb5-4c60-9c35-edf20b3b6517","system_id":"levelo_inurba_marseille","lat":43.31713,"lon":5.43707,"is_reserved":false,"is_disabled":false,"rental_uris":{"android":"levelo://app?vid=de598c11-ebb5-4c60-9c35-edf20b3b6517","ios":"levelo://app?vid=de598c11-ebb5-4c60-9c35-edf20b3b6517"},"vehicle_type_id":"4","last_reported":1727262459,"current_range_meters":24800,"station_id":"ce4bhp92rcd13ifvqhcg","pricing_plan_id":"cebpf4jnsgd1na2vs0mg"},{"bike_id":"9e0d7cb9-bd10-47a4-932f-0e2d3b375713","system_id":"levelo_inurba_marseille","lat":43.23152,"lon":5.43722,"is_reserved":false,"is_disabled":false,"rental_uris":{"android":"levelo://app?vid=9e0d7cb9-bd10-47a4-932f-0e2d3b375713","ios":"levelo://app?vid=9e0d7cb9-bd10-47a4-932f-0e2d3b375713"},"vehicle_type_id":"4","last_reported":1727262459,"current_range_meters":32400,"station_id":"ce4bhmp2rcd13ifvqgog","pricing_plan_id":"cebpf4jnsgd1na2vs0mg"},{"bike_id":"dd59969c-92f1-4a29-9626-db2ce1115720","system_id":"levelo_inurba_marseille","lat":43.31703,"lon":5.37741,"is_reserved":false,"is_disabled":false,"rental_uris":{"android":"levelo://app?vid=dd59969c-92f1-4a29-9626-db2ce1115720","ios":"levelo://app?vid=dd59969c-92f1-4a29-9626-db2ce1115720"},"vehicle_type_id":"4","last_reported":1727262459,"current_range_meters":38800,"station_id":"ce4bgth2rcd13ifvqch0","pricing_plan_id":"cebpf4jnsgd1na2vs0mg"},{"bike_id":"1802deb5-1c46-4f67-afa3-157e0fdc0220","system_id":"levelo_inurba_marseille","lat":43.27811,"lon":5.40716,"is_reserved":false,"is_disabled":false,"rental_uris":{"android":"levelo://app?vid=1802deb5-1c46-4f67-afa3-157e0fdc0220","ios":"levelo://app?vid=1802deb5-1c46-4f67-afa3-157e0fdc0220"},"vehicle_type_id":"4","last_reported":1727262459,"current_range_meters":24800,"station_id":"ce4bhnh2rcd13ifvqgtg","pricing_plan_id":"cebpf4jnsgd1na2vs0mg"},{"bike_id":"dd242317-41e5-44f2-bc98-6bc74d7c5925","system_id":"levelo_inurba_marseille","lat":43.23154,"lon":5.43704,"is_reserved":false,"is_disabled":false,"rental_uris":{"android":"levelo://app?vid=dd242317-41e5-44f2-bc98-6bc74d7c5925","ios":"levelo://app?vid=dd242317-41e5-44f2-bc98-6bc74d7c5925"},"vehicle_type_id":"4","last_reported":1727262459,"current_range_meters":22000,"station_id":"ce4bhmp2rcd13ifvqgog","pricing_plan_id":"cebpf4jnsgd1na2vs0mg"},{"bike_id":"6b05d1b6-58bb-4caa-86c1-fd0559805b4c","system_id":"levelo_inurba_marseille","lat":43.25497,"lon":5.3764,"is_reserved":false,"is_disabled":false,"rental_uris":{"android":"levelo://app?vid=6b05d1b6-58bb-4caa-86c1-fd0559805b4c","ios":"levelo://app?vid=6b05d1b6-58bb-4caa-86c1-fd0559805b4c"},"vehicle_type_id":"4","last_reported":1727262459,"current_range_meters":17200,"station_id":"ce4bhh12rcd13ifvqff0","pricing_plan_id":"cebpf4jnsgd1na2vs0mg"},{"bike_id":"7d1c5f24-b2c4-4b39-a45e-5cd31c748af9","system_id":"levelo_inurba_marseille","lat":43.32482,"lon":5.36565,"is_reserved":false,"is_disabled":false,"rental_uris":{"android":"levelo://app?vid=7d1c5f24-b2c4-4b39-a45e-5cd31c748af9","ios":"levelo://app?vid=7d1c5f24-b2c4-4b39-a45e-5cd31c748af9"},"vehicle_type_id":"4","last_reported":1727262459,"current_range_meters":34000,"station_id":"ce4bhs12rcd13ifvqhvg","pricing_plan_id":"cebpf4jnsgd1na2vs0mg"},{"bike_id":"f3ac9d56-8a6b-4b8b-83b8-4e8b660e9afe","system_id":"levelo_inurba_marseille","lat":43.23961,"lon":5.36626,"is_reserved":false,"is_disabled":false,"rental_uris":{"android":"levelo://app?vid=f3ac9d56-8a6b-4b8b-83b8-4e8b660e9afe","ios":"levelo://app?vid=f3ac9d56-8a6b-4b8b-83b8-4e8b660e9afe"},"vehicle_type_id":"4","last_reported":1727262459,"current_range_meters":27600,"station_id":"ce4bhi12rcd13ifvqfp0","pricing_plan_id":"cebpf4jnsgd1na2vs0mg"},{"bike_id":"0043d17a-9416-4d92-bc5e-2b0db035a1d5","system_id":"levelo_inurba_marseille","lat":43.30596,"lon":5.39345,"is_reserved":false,"is_disabled":false,"rental_uris":{"android":"levelo://app?vid=0043d17a-9416-4d92-bc5e-2b0db035a1d5","ios":"levelo://app?vid=0043d17a-9416-4d92-bc5e-2b0db035a1d5"},"vehicle_type_id":"4","last_reported":1727262459,"current_range_meters":34000,"station_id":"ce4bh0p2rcd13ifvqd80","pricing_plan_id":"cebpf4jnsgd1na2vs0mg"},{"bike_id":"873052f7-9bc5-4a04-9907-f5412dc2735a","system_id":"levelo_inurba_marseille","lat":43.337444,"lon":5.374475,"is_reserved":false,"is_disabled":false,"rental_uris":{"android":"levelo://app?vid=873052f7-9bc5-4a04-9907-f5412dc2735a","ios":"levelo://app?vid=873052f7-9bc5-4a04-9907-f5412dc2735a"},"vehicle_type_id":"4","last_reported":1727262459,"current_range_meters":27600,"station_id":"","pricing_plan_id":"cebpf4jnsgd1na2vs0mg"},{"bike_id":"40e8f74b-e490-42cb-8b96-2f519227f431","system_id":"levelo_inurba_marseille","lat":43.3377,"lon":5.37443,"is_reserved":false,"is_disabled":false,"rental_uris":{"android":"levelo://app?vid=40e8f74b-e490-42cb-8b96-2f519227f431","ios":"levelo://app?vid=40e8f74b-e490-42cb-8b96-2f519227f431"},"vehicle_type_id":"4","last_reported":1727262459,"current_range_meters":16800,"station_id":"","pricing_plan_id":"cebpf4jnsgd1na2vs0mg"},{"bike_id":"f24f457c-b638-4a05-a4da-606c7ade2a4e","system_id":"levelo_inurba_marseille","lat":43.29304,"lon":5.37169,"is_reserved":false,"is_disabled":false,"rental_uris":{"android":"levelo://app?vid=f24f457c-b638-4a05-a4da-606c7ade2a4e","ios":"levelo://app?vid=f24f457c-b638-4a05-a4da-606c7ade2a4e"},"vehicle_type_id":"4","last_reported":1727262459,"current_range_meters":27200,"station_id":"ce4bgh92rcd13ifvqb40","pricing_plan_id":"cebpf4jnsgd1na2vs0mg"},{"bike_id":"0a20759b-b37d-417a-ac30-b16dd611fdad","system_id":"levelo_inurba_marseille","lat":43.25116,"lon":5.4032,"is_reserved":false,"is_disabled":false,"rental_uris":{"android":"levelo://app?vid=0a20759b-b37d-417a-ac30-b16dd611fdad","ios":"levelo://app?vid=0a20759b-b37d-417a-ac30-b16dd611fdad"},"vehicle_type_id":"4","last_reported":1727262459,"current_range_meters":11200,"station_id":"ce4bhlh2rcd13ifvqgig","pricing_plan_id":"cebpf4jnsgd1na2vs0mg"},{"bike_id":"ab726e49-11b6-40dc-a2be-173bb4c68775","system_id":"levelo_inurba_marseille","lat":43.31277,"lon":5.39644,"is_reserved":false,"is_disabled":false,"rental_uris":{"android":"levelo://app?vid=ab726e49-11b6-40dc-a2be-173bb4c68775","ios":"levelo://app?vid=ab726e49-11b6-40dc-a2be-173bb4c68775"},"vehicle_type_id":"4","last_reported":1727262459,"current_range_meters":3600,"station_id":"ce4bgvp2rcd13ifvqcu0","pricing_plan_id":"cebpf4jnsgd1na2vs0mg"},{"bike_id":"18441033-26d4-420f-9eae-7aacb10ec103","system_id":"levelo_inurba_marseille","lat":43.29302,"lon":5.37437,"is_reserved":false,"is_disabled":false,"rental_uris":{"android":"levelo://app?vid=18441033-26d4-420f-9eae-7aacb10ec103","ios":"levelo://app?vid=18441033-26d4-420f-9eae-7aacb10ec103"},"vehicle_type_id":"4","last_reported":1727262459,"current_range_meters":24000,"station_id":"ce4bgi12rcd13ifvqb70","pricing_plan_id":"cebpf4jnsgd1na2vs0mg"},{"bike_id":"73e7f655-b2b9-4127-a50c-dc2251f994d0","system_id":"levelo_inurba_marseille","lat":43.28767,"lon":5.39691,"is_reserved":false,"is_disabled":false,"rental_uris":{"android":"levelo://app?vid=73e7f655-b2b9-4127-a50c-dc2251f994d0","ios":"levelo://app?vid=73e7f655-b2b9-4127-a50c-dc2251f994d0"},"vehicle_type_id":"4","last_reported":1727262459,"current_range_meters":36000,"station_id":"","pricing_plan_id":"cebpf4jnsgd1na2vs0mg"},{"bike_id":"a75d11e4-5000-41f8-9ff2-fbd2a76366d5","system_id":"levelo_inurba_marseille","lat":43.33958,"lon":5.420637,"is_reserved":false,"is_disabled":false,"rental_uris":{"android":"levelo://app?vid=a75d11e4-5000-41f8-9ff2-fbd2a76366d5","ios":"levelo://app?vid=a75d11e4-5000-41f8-9ff2-fbd2a76366d5"},"vehicle_type_id":"4","last_reported":1727262459,"current_range_meters":21600,"station_id":"","pricing_plan_id":"cebpf4jnsgd1na2vs0mg"},{"bike_id":"0a6b5981-2748-4b4c-aecd-2cb9cc735910","system_id":"levelo_inurba_marseille","lat":43.31483,"lon":5.3731,"is_reserved":false,"is_disabled":false,"rental_uris":{"android":"levelo://app?vid=0a6b5981-2748-4b4c-aecd-2cb9cc735910","ios":"levelo://app?vid=0a6b5981-2748-4b4c-aecd-2cb9cc735910"},"vehicle_type_id":"4","last_reported":1727262459,"current_range_meters":37600,"station_id":"ce4bgt12rcd13ifvqcd0","pricing_plan_id":"cebpf4jnsgd1na2vs0mg"},{"bike_id":"faf70fb2-4df4-4457-92f1-ba958ff2b93c","system_id":"levelo_inurba_marseille","lat":43.24185,"lon":5.39729,"is_reserved":false,"is_disabled":false,"rental_uris":{"android":"levelo://app?vid=faf70fb2-4df4-4457-92f1-ba958ff2b93c","ios":"levelo://app?vid=faf70fb2-4df4-4457-92f1-ba958ff2b93c"},"vehicle_type_id":"4","last_reported":1727262459,"current_range_meters":20000,"station_id":"ce4bhn12rcd13ifvqgpg","pricing_plan_id":"cebpf4jnsgd1na2vs0mg"},{"bike_id":"ddb47a00-d34f-4a34-bd6c-efe481c0cd9e","system_id":"levelo_inurba_marseille","lat":43.30141,"lon":5.39848,"is_reserved":false,"is_disabled":false,"rental_uris":{"android":"levelo://app?vid=ddb47a00-d34f-4a34-bd6c-efe481c0cd9e","ios":"levelo://app?vid=ddb47a00-d34f-4a34-bd6c-efe481c0cd9e"},"vehicle_type_id":"4","last_reported":1727262459,"current_range_meters":28800,"station_id":"ce4bh0h2rcd13ifvqd40","pricing_plan_id":"cebpf4jnsgd1na2vs0mg"},{"bike_id":"87bc6bbd-c719-4f75-b40f-625edbe2e392","system_id":"levelo_inurba_marseille","lat":43.30589,"lon":5.39334,"is_reserved":false,"is_disabled":false,"rental_uris":{"android":"levelo://app?vid=87bc6bbd-c719-4f75-b40f-625edbe2e392","ios":"levelo://app?vid=87bc6bbd-c719-4f75-b40f-625edbe2e392"},"vehicle_type_id":"4","last_reported":1727262459,"current_range_meters":22000,"station_id":"ce4bh0p2rcd13ifvqd80","pricing_plan_id":"cebpf4jnsgd1na2vs0mg"},{"bike_id":"a4e76940-b202-484e-b67e-c240816f6482","system_id":"levelo_inurba_marseille","lat":43.30145,"lon":5.38073,"is_reserved":false,"is_disabled":false,"rental_uris":{"android":"levelo://app?vid=a4e76940-b202-484e-b67e-c240816f6482","ios":"levelo://app?vid=a4e76940-b202-484e-b67e-c240816f6482"},"vehicle_type_id":"4","last_reported":1727262459,"current_range_meters":38800,"station_id":"ce4bgjp2rcd13ifvqbh0","pricing_plan_id":"cebpf4jnsgd1na2vs0mg"},{"bike_id":"02d6471f-79a7-4b7b-89d3-4a93ddab022a","system_id":"levelo_inurba_marseille","lat":43.262054,"lon":5.379343,"is_reserved":false,"is_disabled":false,"rental_uris":{"android":"levelo://app?vid=02d6471f-79a7-4b7b-89d3-4a93ddab022a","ios":"levelo://app?vid=02d6471f-79a7-4b7b-89d3-4a93ddab022a"},"vehicle_type_id":"4","last_reported":1727262459,"current_range_meters":27600,"station_id":"ce4bhjp2rcd13ifvqg90","pricing_plan_id":"cebpf4jnsgd1na2vs0mg"},{"bike_id":"b219bd9e-1b0a-4956-9e88-9fbe4e039fad","system_id":"levelo_inurba_marseille","lat":43.27069,"lon":5.42278,"is_reserved":false,"is_disabled":false,"rental_uris":{"android":"levelo://app?vid=b219bd9e-1b0a-4956-9e88-9fbe4e039fad","ios":"levelo://app?vid=b219bd9e-1b0a-4956-9e88-9fbe4e039fad"},"vehicle_type_id":"4","last_reported":1727262459,"current_range_meters":33200,"station_id":"ce4bhk92rcd13ifvqgb0","pricing_plan_id":"cebpf4jnsgd1na2vs0mg"},{"bike_id":"3387f1f4-fbc5-4889-bdb1-2f58a447ed66","system_id":"levelo_inurba_marseille","lat":43.26556,"lon":5.37282,"is_reserved":false,"is_disabled":false,"rental_uris":{"android":"levelo://app?vid=3387f1f4-fbc5-4889-bdb1-2f58a447ed66","ios":"levelo://app?vid=3387f1f4-fbc5-4889-bdb1-2f58a447ed66"},"vehicle_type_id":"4","last_reported":1727262459,"current_range_meters":6000,"station_id":"ce4bhg12rcd13ifvqf70","pricing_plan_id":"cebpf4jnsgd1na2vs0mg"},{"bike_id":"e5aa85a7-6285-4308-85ed-92af65cc1c60","system_id":"levelo_inurba_marseille","lat":43.23185,"lon":5.3998,"is_reserved":false,"is_disabled":false,"rental_uris":{"android":"levelo://app?vid=e5aa85a7-6285-4308-85ed-92af65cc1c60","ios":"levelo://app?vid=e5aa85a7-6285-4308-85ed-92af65cc1c60"},"vehicle_type_id":"4","last_reported":1727262459,"current_range_meters":38800,"station_id":"ce4bhn12rcd13ifvqgqg","pricing_plan_id":"cebpf4jnsgd1na2vs0mg"},{"bike_id":"bc0a2413-3bea-48af-b961-1b3c4d74ab88","system_id":"levelo_inurba_marseille","lat":43.28264,"lon":5.35062,"is_reserved":false,"is_disabled":false,"rental_uris":{"android":"levelo://app?vid=bc0a2413-3bea-48af-b961-1b3c4d74ab88","ios":"levelo://app?vid=bc0a2413-3bea-48af-b961-1b3c4d74ab88"},"vehicle_type_id":"4","last_reported":1727262459,"current_range_meters":38800,"station_id":"ce4bhbp2rcd13ifvqerg","pricing_plan_id":"cebpf4jnsgd1na2vs0mg"},{"bike_id":"d2b29a3f-a9f9-4e26-bd8f-3dbbdf2f5a97","system_id":"levelo_inurba_marseille","lat":43.30531,"lon":5.36529,"is_reserved":false,"is_disabled":false,"rental_uris":{"android":"levelo://app?vid=d2b29a3f-a9f9-4e26-bd8f-3dbbdf2f5a97","ios":"levelo://app?vid=d2b29a3f-a9f9-4e26-bd8f-3dbbdf2f5a97"},"vehicle_type_id":"4","last_reported":1727262459,"current_range_meters":36000,"station_id":"ce4bgs12rcd13ifvqcag","pricing_plan_id":"cebpf4jnsgd1na2vs0mg"},{"bike_id":"f1f38292-6308-4127-bcad-e524eb9f1a1c","system_id":"levelo_inurba_marseille","lat":43.239678,"lon":5.366359,"is_reserved":false,"is_disabled":false,"rental_uris":{"android":"levelo://app?vid=f1f38292-6308-4127-bcad-e524eb9f1a1c","ios":"levelo://app?vid=f1f38292-6308-4127-bcad-e524eb9f1a1c"},"vehicle_type_id":"4","last_reported":1727262459,"current_range_meters":30400,"station_id":"ce4bhi12rcd13ifvqfp0","pricing_plan_id":"cebpf4jnsgd1na2vs0mg"},{"bike_id":"d2e964e8-4e2f-49e4-aa9d-3a8d70993580","system_id":"levelo_inurba_marseille","lat":43.2969,"lon":5.37286,"is_reserved":false,"is_disabled":false,"rental_uris":{"android":"levelo://app?vid=d2e964e8-4e2f-49e4-aa9d-3a8d70993580","ios":"levelo://app?vid=d2e964e8-4e2f-49e4-aa9d-3a8d70993580"},"vehicle_type_id":"4","last_reported":1727262459,"current_range_meters":22400,"station_id":"ce4bgk12rcd13ifvqbj0","pricing_plan_id":"cebpf4jnsgd1na2vs0mg"},{"bike_id":"10a437b8-b58e-40b1-b0b7-6372b1519414","system_id":"levelo_inurba_marseille","lat":43.30303,"lon":5.36878,"is_reserved":false,"is_disabled":false,"rental_uris":{"android":"levelo://app?vid=10a437b8-b58e-40b1-b0b7-6372b1519414","ios":"levelo://app?vid=10a437b8-b58e-40b1-b0b7-6372b1519414"},"vehicle_type_id":"4","last_reported":1727262459,"current_range_meters":38000,"station_id":"ce4bgqh2rcd13ifvqc5g","pricing_plan_id":"cebpf4jnsgd1na2vs0mg"},{"bike_id":"c80eec86-a8c9-4662-a1ea-3fc69eb420b2","system_id":"levelo_inurba_marseille","lat":43.30549,"lon":5.36693,"is_reserved":false,"is_disabled":false,"rental_uris":{"android":"levelo://app?vid=c80eec86-a8c9-4662-a1ea-3fc69eb420b2","ios":"levelo://app?vid=c80eec86-a8c9-4662-a1ea-3fc69eb420b2"},"vehicle_type_id":"4","last_reported":1727262459,"current_range_meters":24400,"station_id":"ce4bgrp2rcd13ifvqc9g","pricing_plan_id":"cebpf4jnsgd1na2vs0mg"},{"bike_id":"dff5b480-2f0f-4235-8970-6a378b475319","system_id":"levelo_inurba_marseille","lat":43.29897,"lon":5.43669,"is_reserved":false,"is_disabled":false,"rental_uris":{"android":"levelo://app?vid=dff5b480-2f0f-4235-8970-6a378b475319","ios":"levelo://app?vid=dff5b480-2f0f-4235-8970-6a378b475319"},"vehicle_type_id":"4","last_reported":1727262459,"current_range_meters":24000,"station_id":"ce4bhpp2rcd13ifvqhfg","pricing_plan_id":"cebpf4jnsgd1na2vs0mg"},{"bike_id":"db846659-9f58-4c95-8df7-1391089048a8","system_id":"levelo_inurba_marseille","lat":43.27176,"lon":5.40994,"is_reserved":false,"is_disabled":false,"rental_uris":{"android":"levelo://app?vid=db846659-9f58-4c95-8df7-1391089048a8","ios":"levelo://app?vid=db846659-9f58-4c95-8df7-1391089048a8"},"vehicle_type_id":"4","last_reported":1727262459,"current_range_meters":33200,"station_id":"ce4bhl12rcd13ifvqgf0","pricing_plan_id":"cebpf4jnsgd1na2vs0mg"},{"bike_id":"91d2012e-b801-46b9-a7e3-18f7eb7101de","system_id":"levelo_inurba_marseille","lat":43.28262,"lon":5.35058,"is_reserved":false,"is_disabled":false,"rental_uris":{"android":"levelo://app?vid=91d2012e-b801-46b9-a7e3-18f7eb7101de","ios":"levelo://app?vid=91d2012e-b801-46b9-a7e3-18f7eb7101de"},"vehicle_type_id":"4","last_reported":1727262459,"current_range_meters":33200,"station_id":"ce4bhbp2rcd13ifvqerg","pricing_plan_id":"cebpf4jnsgd1na2vs0mg"},{"bike_id":"32777ea6-7bee-4625-8520-57f3d9a945ba","system_id":"levelo_inurba_marseille","lat":43.28673,"lon":5.3868,"is_reserved":false,"is_disabled":false,"rental_uris":{"android":"levelo://app?vid=32777ea6-7bee-4625-8520-57f3d9a945ba","ios":"levelo://app?vid=32777ea6-7bee-4625-8520-57f3d9a945ba"},"vehicle_type_id":"4","last_reported":1727262459,"current_range_meters":37600,"station_id":"ce4bh492rcd13ifvqdug","pricing_plan_id":"cebpf4jnsgd1na2vs0mg"},{"bike_id":"926fb2e7-86b1-4e2f-b24c-33f396df5cb1","system_id":"levelo_inurba_marseille","lat":43.29572,"lon":5.39975,"is_reserved":false,"is_disabled":false,"rental_uris":{"android":"levelo://app?vid=926fb2e7-86b1-4e2f-b24c-33f396df5cb1","ios":"levelo://app?vid=926fb2e7-86b1-4e2f-b24c-33f396df5cb1"},"vehicle_type_id":"4","last_reported":1727262459,"current_range_meters":3200,"station_id":"ce4bh312rcd13ifvqdj0","pricing_plan_id":"cebpf4jnsgd1na2vs0mg"},{"bike_id":"a2fb52c3-f768-4704-bd2c-b14a8121c8be","system_id":"levelo_inurba_marseille","lat":43.29973,"lon":5.38489,"is_reserved":false,"is_disabled":false,"rental_uris":{"android":"levelo://app?vid=a2fb52c3-f768-4704-bd2c-b14a8121c8be","ios":"levelo://app?vid=a2fb52c3-f768-4704-bd2c-b14a8121c8be"},"vehicle_type_id":"4","last_reported":1727262459,"current_range_meters":38800,"station_id":"ce4bgj92rcd13ifvqbd0","pricing_plan_id":"cebpf4jnsgd1na2vs0mg"},{"bike_id":"8282acf3-1e10-4e7a-9e2e-d47e811adce2","system_id":"levelo_inurba_marseille","lat":43.25503,"lon":5.37652,"is_reserved":false,"is_disabled":false,"rental_uris":{"android":"levelo://app?vid=8282acf3-1e10-4e7a-9e2e-d47e811adce2","ios":"levelo://app?vid=8282acf3-1e10-4e7a-9e2e-d47e811adce2"},"vehicle_type_id":"4","last_reported":1727262459,"current_range_meters":38800,"station_id":"ce4bhh12rcd13ifvqff0","pricing_plan_id":"cebpf4jnsgd1na2vs0mg"},{"bike_id":"ebec7cd5-5fed-46ce-abdb-3cd659f607ac","system_id":"levelo_inurba_marseille","lat":43.29557,"lon":5.42272,"is_reserved":false,"is_disabled":false,"rental_uris":{"android":"levelo://app?vid=ebec7cd5-5fed-46ce-abdb-3cd659f607ac","ios":"levelo://app?vid=ebec7cd5-5fed-46ce-abdb-3cd659f607ac"},"vehicle_type_id":"4","last_reported":1727262459,"current_range_meters":33600,"station_id":"ce4bhph2rcd13ifvqhdg","pricing_plan_id":"cebpf4jnsgd1na2vs0mg"},{"bike_id":"22402881-634a-4462-adad-a24ae74a8cc2","system_id":"levelo_inurba_marseille","lat":43.25861,"lon":5.39896,"is_reserved":false,"is_disabled":false,"rental_uris":{"android":"levelo://app?vid=22402881-634a-4462-adad-a24ae74a8cc2","ios":"levelo://app?vid=22402881-634a-4462-adad-a24ae74a8cc2"},"vehicle_type_id":"4","last_reported":1727262459,"current_range_meters":26800,"station_id":"ce4bhl92rcd13ifvqghg","pricing_plan_id":"cebpf4jnsgd1na2vs0mg"},{"bike_id":"3fa7b782-634f-4c43-a162-5a56e741d2c5","system_id":"levelo_inurba_marseille","lat":43.31075,"lon":5.38361,"is_reserved":false,"is_disabled":false,"rental_uris":{"android":"levelo://app?vid=3fa7b782-634f-4c43-a162-5a56e741d2c5","ios":"levelo://app?vid=3fa7b782-634f-4c43-a162-5a56e741d2c5"},"vehicle_type_id":"4","last_reported":1727262459,"current_range_meters":38000,"station_id":"ce4bgv92rcd13ifvqcr0","pricing_plan_id":"cebpf4jnsgd1na2vs0mg"},{"bike_id":"62a1fd0b-4974-494d-8ebd-89007fc617a1","system_id":"levelo_inurba_marseille","lat":43.30877,"lon":5.37183,"is_reserved":false,"is_disabled":false,"rental_uris":{"android":"levelo://app?vid=62a1fd0b-4974-494d-8ebd-89007fc617a1","ios":"levelo://app?vid=62a1fd0b-4974-494d-8ebd-89007fc617a1"},"vehicle_type_id":"4","last_reported":1727262459,"current_range_meters":25600,"station_id":"ce4bguh2rcd13ifvqckg","pricing_plan_id":"cebpf4jnsgd1na2vs0mg"},{"bike_id":"df5b38d2-64cb-4df0-856f-ea9bd22c082c","system_id":"levelo_inurba_marseille","lat":43.23186,"lon":5.35554,"is_reserved":false,"is_disabled":false,"rental_uris":{"android":"levelo://app?vid=df5b38d2-64cb-4df0-856f-ea9bd22c082c","ios":"levelo://app?vid=df5b38d2-64cb-4df0-856f-ea9bd22c082c"},"vehicle_type_id":"4","last_reported":1727262459,"current_range_meters":8400,"station_id":"ce4bhu92rcd13ifvqi70","pricing_plan_id":"cebpf4jnsgd1na2vs0mg"},{"bike_id":"df8bbc33-e965-4f6b-a73f-bb4398e10299","system_id":"levelo_inurba_marseille","lat":43.29577,"lon":5.37523,"is_reserved":false,"is_disabled":false,"rental_uris":{"android":"levelo://app?vid=df8bbc33-e965-4f6b-a73f-bb4398e10299","ios":"levelo://app?vid=df8bbc33-e965-4f6b-a73f-bb4398e10299"},"vehicle_type_id":"4","last_reported":1727262459,"current_range_meters":36000,"station_id":"ce4bgh92rcd13ifvqb50","pricing_plan_id":"cebpf4jnsgd1na2vs0mg"},{"bike_id":"891137de-5805-4e25-8c63-e02660ead314","system_id":"levelo_inurba_marseille","lat":43.25864,"lon":5.399,"is_reserved":false,"is_disabled":false,"rental_uris":{"android":"levelo://app?vid=891137de-5805-4e25-8c63-e02660ead314","ios":"levelo://app?vid=891137de-5805-4e25-8c63-e02660ead314"},"vehicle_type_id":"4","last_reported":1727262459,"current_range_meters":32800,"station_id":"ce4bhl92rcd13ifvqghg","pricing_plan_id":"cebpf4jnsgd1na2vs0mg"},{"bike_id":"1d19d43a-746f-4ec6-a6a3-c574899f679a","system_id":"levelo_inurba_marseille","lat":43.25003,"lon":5.38923,"is_reserved":false,"is_disabled":false,"rental_uris":{"android":"levelo://app?vid=1d19d43a-746f-4ec6-a6a3-c574899f679a","ios":"levelo://app?vid=1d19d43a-746f-4ec6-a6a3-c574899f679a"},"vehicle_type_id":"4","last_reported":1727262459,"current_range_meters":7200,"station_id":"ce4bhgp2rcd13ifvqfd0","pricing_plan_id":"cebpf4jnsgd1na2vs0mg"},{"bike_id":"33060fdd-0a67-4df3-bb25-c30990875ba7","system_id":"levelo_inurba_marseille","lat":43.25127,"lon":5.40311,"is_reserved":false,"is_disabled":false,"rental_uris":{"android":"levelo://app?vid=33060fdd-0a67-4df3-bb25-c30990875ba7","ios":"levelo://app?vid=33060fdd-0a67-4df3-bb25-c30990875ba7"},"vehicle_type_id":"4","last_reported":1727262459,"current_range_meters":18000,"station_id":"ce4bhlh2rcd13ifvqgig","pricing_plan_id":"cebpf4jnsgd1na2vs0mg"},{"bike_id":"3fb95c81-ef95-48e3-a8c3-f895f69c22eb","system_id":"levelo_inurba_marseille","lat":43.25869,"lon":5.39896,"is_reserved":false,"is_disabled":false,"rental_uris":{"android":"levelo://app?vid=3fb95c81-ef95-48e3-a8c3-f895f69c22eb","ios":"levelo://app?vid=3fb95c81-ef95-48e3-a8c3-f895f69c22eb"},"vehicle_type_id":"4","last_reported":1727262459,"current_range_meters":4400,"station_id":"ce4bhl92rcd13ifvqghg","pricing_plan_id":"cebpf4jnsgd1na2vs0mg"},{"bike_id":"e6581c86-ea5b-4865-89e9-2d08bc65b701","system_id":"levelo_inurba_marseille","lat":43.27178,"lon":5.40983,"is_reserved":false,"is_disabled":false,"rental_uris":{"android":"levelo://app?vid=e6581c86-ea5b-4865-89e9-2d08bc65b701","ios":"levelo://app?vid=e6581c86-ea5b-4865-89e9-2d08bc65b701"},"vehicle_type_id":"4","last_reported":1727262459,"current_range_meters":22400,"station_id":"ce4bhl12rcd13ifvqgf0","pricing_plan_id":"cebpf4jnsgd1na2vs0mg"},{"bike_id":"63c9faf5-e6ad-471b-8360-468af0c99ab9","system_id":"levelo_inurba_marseille","lat":43.29189,"lon":5.35789,"is_reserved":false,"is_disabled":false,"rental_uris":{"android":"levelo://app?vid=63c9faf5-e6ad-471b-8360-468af0c99ab9","ios":"levelo://app?vid=63c9faf5-e6ad-471b-8360-468af0c99ab9"},"vehicle_type_id":"4","last_reported":1727262459,"current_range_meters":9600,"station_id":"ce4bhb12rcd13ifvqel0","pricing_plan_id":"cebpf4jnsgd1na2vs0mg"},{"bike_id":"4bc8cc2b-989f-47cc-8074-4ca638c98463","system_id":"levelo_inurba_marseille","lat":43.27908,"lon":5.41706,"is_reserved":false,"is_disabled":false,"rental_uris":{"android":"levelo://app?vid=4bc8cc2b-989f-47cc-8074-4ca638c98463","ios":"levelo://app?vid=4bc8cc2b-989f-47cc-8074-4ca638c98463"},"vehicle_type_id":"4","last_reported":1727262459,"current_range_meters":16400,"station_id":"ce4bho12rcd13ifvqh1g","pricing_plan_id":"cebpf4jnsgd1na2vs0mg"},{"bike_id":"873db676-c650-4a37-a633-e34836fb7da6","system_id":"levelo_inurba_marseille","lat":43.29006,"lon":5.35615,"is_reserved":false,"is_disabled":false,"rental_uris":{"android":"levelo://app?vid=873db676-c650-4a37-a633-e34836fb7da6","ios":"levelo://app?vid=873db676-c650-4a37-a633-e34836fb7da6"},"vehicle_type_id":"4","last_reported":1727262459,"current_range_meters":6800,"station_id":"ce4bhb92rcd13ifvqen0","pricing_plan_id":"cebpf4jnsgd1na2vs0mg"},{"bike_id":"bca81bcc-db8f-4252-98dd-a19370662d96","system_id":"levelo_inurba_marseille","lat":43.301422,"lon":5.374091,"is_reserved":false,"is_disabled":false,"rental_uris":{"android":"levelo://app?vid=bca81bcc-db8f-4252-98dd-a19370662d96","ios":"levelo://app?vid=bca81bcc-db8f-4252-98dd-a19370662d96"},"vehicle_type_id":"4","last_reported":1727262459,"current_range_meters":22400,"station_id":"ce4bgs92rcd13ifvqcc0","pricing_plan_id":"cebpf4jnsgd1na2vs0mg"},{"bike_id":"cde29f88-37a7-4fca-800e-2a54fcbf5931","system_id":"levelo_inurba_marseille","lat":43.29618,"lon":5.37154,"is_reserved":false,"is_disabled":false,"rental_uris":{"android":"levelo://app?vid=cde29f88-37a7-4fca-800e-2a54fcbf5931","ios":"levelo://app?vid=cde29f88-37a7-4fca-800e-2a54fcbf5931"},"vehicle_type_id":"4","last_reported":1727262459,"current_range_meters":27600,"station_id":"ce4bgnh2rcd13ifvqc0g","pricing_plan_id":"cebpf4jnsgd1na2vs0mg"},{"bike_id":"cfec6e20-8640-4436-92c7-63382aa5292e","system_id":"levelo_inurba_marseille","lat":43.26555,"lon":5.37283,"is_reserved":false,"is_disabled":false,"rental_uris":{"android":"levelo://app?vid=cfec6e20-8640-4436-92c7-63382aa5292e","ios":"levelo://app?vid=cfec6e20-8640-4436-92c7-63382aa5292e"},"vehicle_type_id":"4","last_reported":1727262459,"current_range_meters":19600,"station_id":"ce4bhg12rcd13ifvqf70","pricing_plan_id":"cebpf4jnsgd1na2vs0mg"},{"bike_id":"27431c98-bcee-4fbc-9005-ef4fd6a106b8","system_id":"levelo_inurba_marseille","lat":43.23183,"lon":5.39976,"is_reserved":false,"is_disabled":false,"rental_uris":{"android":"levelo://app?vid=27431c98-bcee-4fbc-9005-ef4fd6a106b8","ios":"levelo://app?vid=27431c98-bcee-4fbc-9005-ef4fd6a106b8"},"vehicle_type_id":"4","last_reported":1727262459,"current_range_meters":11200,"station_id":"ce4bhn12rcd13ifvqgqg","pricing_plan_id":"cebpf4jnsgd1na2vs0mg"},{"bike_id":"6d4d0170-07e1-42c8-9dcb-b55d43264677","system_id":"levelo_inurba_marseille","lat":43.30888,"lon":5.37181,"is_reserved":false,"is_disabled":false,"rental_uris":{"android":"levelo://app?vid=6d4d0170-07e1-42c8-9dcb-b55d43264677","ios":"levelo://app?vid=6d4d0170-07e1-42c8-9dcb-b55d43264677"},"vehicle_type_id":"4","last_reported":1727262459,"current_range_meters":16800,"station_id":"ce4bguh2rcd13ifvqckg","pricing_plan_id":"cebpf4jnsgd1na2vs0mg"},{"bike_id":"72db74d2-2c4f-4a12-a06e-67002269c7dd","system_id":"levelo_inurba_marseille","lat":43.30461,"lon":5.37898,"is_reserved":false,"is_disabled":false,"rental_uris":{"android":"levelo://app?vid=72db74d2-2c4f-4a12-a06e-67002269c7dd","ios":"levelo://app?vid=72db74d2-2c4f-4a12-a06e-67002269c7dd"},"vehicle_type_id":"4","last_reported":1727262459,"current_range_meters":37600,"station_id":"ce4bgup2rcd13ifvqcn0","pricing_plan_id":"cebpf4jnsgd1na2vs0mg"},{"bike_id":"6f13f1e3-08a6-435c-b569-937a600e179f","system_id":"levelo_inurba_marseille","lat":43.31164,"lon":5.38713,"is_reserved":false,"is_disabled":false,"rental_uris":{"android":"levelo://app?vid=6f13f1e3-08a6-435c-b569-937a600e179f","ios":"levelo://app?vid=6f13f1e3-08a6-435c-b569-937a600e179f"},"vehicle_type_id":"4","last_reported":1727262459,"current_range_meters":28800,"station_id":"ce4bgv12rcd13ifvqcp0","pricing_plan_id":"cebpf4jnsgd1na2vs0mg"},{"bike_id":"903507de-16f6-48d0-a454-2c9d4c61bdc6","system_id":"levelo_inurba_marseille","lat":43.30143,"lon":5.37417,"is_reserved":false,"is_disabled":false,"rental_uris":{"android":"levelo://app?vid=903507de-16f6-48d0-a454-2c9d4c61bdc6","ios":"levelo://app?vid=903507de-16f6-48d0-a454-2c9d4c61bdc6"},"vehicle_type_id":"4","last_reported":1727262459,"current_range_meters":28000,"station_id":"ce4bgs92rcd13ifvqcc0","pricing_plan_id":"cebpf4jnsgd1na2vs0mg"},{"bike_id":"64834ec6-817b-4b9d-ba79-cf13485a7723","system_id":"levelo_inurba_marseille","lat":43.33609,"lon":5.41031,"is_reserved":false,"is_disabled":false,"rental_uris":{"android":"levelo://app?vid=64834ec6-817b-4b9d-ba79-cf13485a7723","ios":"levelo://app?vid=64834ec6-817b-4b9d-ba79-cf13485a7723"},"vehicle_type_id":"4","last_reported":1727262459,"current_range_meters":35200,"station_id":"ce4bhqh2rcd13ifvqhmg","pricing_plan_id":"cebpf4jnsgd1na2vs0mg"},{"bike_id":"5464bd4b-5c6d-4472-9105-7bc381bf630a","system_id":"levelo_inurba_marseille","lat":43.2998,"lon":5.37171,"is_reserved":false,"is_disabled":false,"rental_uris":{"android":"levelo://app?vid=5464bd4b-5c6d-4472-9105-7bc381bf630a","ios":"levelo://app?vid=5464bd4b-5c6d-4472-9105-7bc381bf630a"},"vehicle_type_id":"4","last_reported":1727262459,"current_range_meters":32000,"station_id":"ce4bgr92rcd13ifvqc7g","pricing_plan_id":"cebpf4jnsgd1na2vs0mg"},{"bike_id":"f72b1dc1-72fb-4cc7-b0cd-8bf4386ae89b","system_id":"levelo_inurba_marseille","lat":43.29027,"lon":5.38127,"is_reserved":false,"is_disabled":false,"rental_uris":{"android":"levelo://app?vid=f72b1dc1-72fb-4cc7-b0cd-8bf4386ae89b","ios":"levelo://app?vid=f72b1dc1-72fb-4cc7-b0cd-8bf4386ae89b"},"vehicle_type_id":"4","last_reported":1727262459,"current_range_meters":24400,"station_id":"ce4bh4p2rcd13ifvqe1g","pricing_plan_id":"cebpf4jnsgd1na2vs0mg"},{"bike_id":"50a7fcdc-a7ea-4fa4-8d14-fa81d39361e4","system_id":"levelo_inurba_marseille","lat":43.30886,"lon":5.3718,"is_reserved":false,"is_disabled":false,"rental_uris":{"android":"levelo://app?vid=50a7fcdc-a7ea-4fa4-8d14-fa81d39361e4","ios":"levelo://app?vid=50a7fcdc-a7ea-4fa4-8d14-fa81d39361e4"},"vehicle_type_id":"4","last_reported":1727262459,"current_range_meters":13600,"station_id":"ce4bguh2rcd13ifvqckg","pricing_plan_id":"cebpf4jnsgd1na2vs0mg"},{"bike_id":"1274b247-fec9-43e7-b337-0b053285a2d8","system_id":"levelo_inurba_marseille","lat":43.29849,"lon":5.36274,"is_reserved":false,"is_disabled":false,"rental_uris":{"android":"levelo://app?vid=1274b247-fec9-43e7-b337-0b053285a2d8","ios":"levelo://app?vid=1274b247-fec9-43e7-b337-0b053285a2d8"},"vehicle_type_id":"4","last_reported":1727262459,"current_range_meters":38800,"station_id":"ce4bgpp2rcd13ifvqc3g","pricing_plan_id":"cebpf4jnsgd1na2vs0mg"},{"bike_id":"f1d3a11e-0549-4d77-b4bb-3417684abfd3","system_id":"levelo_inurba_marseille","lat":43.29272,"lon":5.36847,"is_reserved":false,"is_disabled":false,"rental_uris":{"android":"levelo://app?vid=f1d3a11e-0549-4d77-b4bb-3417684abfd3","ios":"levelo://app?vid=f1d3a11e-0549-4d77-b4bb-3417684abfd3"},"vehicle_type_id":"4","last_reported":1727262459,"current_range_meters":24000,"station_id":"ce4bhbp2rcd13ifvqesg","pricing_plan_id":"cebpf4jnsgd1na2vs0mg"},{"bike_id":"72dccb5f-1d84-41fe-9146-a3d2680464fd","system_id":"levelo_inurba_marseille","lat":43.27072,"lon":5.42276,"is_reserved":false,"is_disabled":false,"rental_uris":{"android":"levelo://app?vid=72dccb5f-1d84-41fe-9146-a3d2680464fd","ios":"levelo://app?vid=72dccb5f-1d84-41fe-9146-a3d2680464fd"},"vehicle_type_id":"4","last_reported":1727262459,"current_range_meters":24800,"station_id":"ce4bhk92rcd13ifvqgb0","pricing_plan_id":"cebpf4jnsgd1na2vs0mg"},{"bike_id":"ea9035d1-0c9f-4f17-b1b3-40a23517eafe","system_id":"levelo_inurba_marseille","lat":43.32489,"lon":5.36567,"is_reserved":false,"is_disabled":false,"rental_uris":{"android":"levelo://app?vid=ea9035d1-0c9f-4f17-b1b3-40a23517eafe","ios":"levelo://app?vid=ea9035d1-0c9f-4f17-b1b3-40a23517eafe"},"vehicle_type_id":"4","last_reported":1727262459,"current_range_meters":19200,"station_id":"ce4bhs12rcd13ifvqhvg","pricing_plan_id":"cebpf4jnsgd1na2vs0mg"},{"bike_id":"12c78368-6e04-434e-ba41-d2f4750e400a","system_id":"levelo_inurba_marseille","lat":43.33026,"lon":5.39035,"is_reserved":false,"is_disabled":false,"rental_uris":{"android":"levelo://app?vid=12c78368-6e04-434e-ba41-d2f4750e400a","ios":"levelo://app?vid=12c78368-6e04-434e-ba41-d2f4750e400a"},"vehicle_type_id":"4","last_reported":1727262459,"current_range_meters":33600,"station_id":"ce4bhr92rcd13ifvqhrg","pricing_plan_id":"cebpf4jnsgd1na2vs0mg"},{"bike_id":"8fb232c5-d21b-4052-928e-b0f8d765da85","system_id":"levelo_inurba_marseille","lat":43.30152,"lon":5.38086,"is_reserved":false,"is_disabled":false,"rental_uris":{"android":"levelo://app?vid=8fb232c5-d21b-4052-928e-b0f8d765da85","ios":"levelo://app?vid=8fb232c5-d21b-4052-928e-b0f8d765da85"},"vehicle_type_id":"4","last_reported":1727262459,"current_range_meters":36800,"station_id":"ce4bgjp2rcd13ifvqbh0","pricing_plan_id":"cebpf4jnsgd1na2vs0mg"},{"bike_id":"bed33afa-0824-484e-861d-4e8827b72cb4","system_id":"levelo_inurba_marseille","lat":43.32368,"lon":5.3888,"is_reserved":false,"is_disabled":false,"rental_uris":{"android":"levelo://app?vid=bed33afa-0824-484e-861d-4e8827b72cb4","ios":"levelo://app?vid=bed33afa-0824-484e-861d-4e8827b72cb4"},"vehicle_type_id":"4","last_reported":1727262459,"current_range_meters":22000,"station_id":"ce4bhqp2rcd13ifvqhog","pricing_plan_id":"cebpf4jnsgd1na2vs0mg"},{"bike_id":"c6bf9329-ad8f-477b-a937-0e107709e9c3","system_id":"levelo_inurba_marseille","lat":43.33752,"lon":5.37454,"is_reserved":false,"is_disabled":false,"rental_uris":{"android":"levelo://app?vid=c6bf9329-ad8f-477b-a937-0e107709e9c3","ios":"levelo://app?vid=c6bf9329-ad8f-477b-a937-0e107709e9c3"},"vehicle_type_id":"4","last_reported":1727262459,"current_range_meters":27600,"station_id":"","pricing_plan_id":"cebpf4jnsgd1na2vs0mg"},{"bike_id":"ec6e0e84-c5a4-4d40-a6b4-816f42b25960","system_id":"levelo_inurba_marseille","lat":43.25501,"lon":5.37649,"is_reserved":false,"is_disabled":false,"rental_uris":{"android":"levelo://app?vid=ec6e0e84-c5a4-4d40-a6b4-816f42b25960","ios":"levelo://app?vid=ec6e0e84-c5a4-4d40-a6b4-816f42b25960"},"vehicle_type_id":"4","last_reported":1727262459,"current_range_meters":23200,"station_id":"ce4bhh12rcd13ifvqff0","pricing_plan_id":"cebpf4jnsgd1na2vs0mg"},{"bike_id":"e528390e-9c59-4150-b362-f87a5b477eb9","system_id":"levelo_inurba_marseille","lat":43.28572,"lon":5.39497,"is_reserved":false,"is_disabled":false,"rental_uris":{"android":"levelo://app?vid=e528390e-9c59-4150-b362-f87a5b477eb9","ios":"levelo://app?vid=e528390e-9c59-4150-b362-f87a5b477eb9"},"vehicle_type_id":"4","last_reported":1727262459,"current_range_meters":36000,"station_id":"ce4bh292rcd13ifvqdg0","pricing_plan_id":"cebpf4jnsgd1na2vs0mg"},{"bike_id":"03865dce-3846-4044-a4da-d94f561d092c","system_id":"levelo_inurba_marseille","lat":43.2994,"lon":5.36541,"is_reserved":false,"is_disabled":false,"rental_uris":{"android":"levelo://app?vid=03865dce-3846-4044-a4da-d94f561d092c","ios":"levelo://app?vid=03865dce-3846-4044-a4da-d94f561d092c"},"vehicle_type_id":"4","last_reported":1727262459,"current_range_meters":38000,"station_id":"ce4bgm92rcd13ifvqbr0","pricing_plan_id":"cebpf4jnsgd1na2vs0mg"},{"bike_id":"3833f1ff-a1dd-4e25-a558-1268c7b7c0f8","system_id":"levelo_inurba_marseille","lat":43.30604,"lon":5.37242,"is_reserved":false,"is_disabled":false,"rental_uris":{"android":"levelo://app?vid=3833f1ff-a1dd-4e25-a558-1268c7b7c0f8","ios":"levelo://app?vid=3833f1ff-a1dd-4e25-a558-1268c7b7c0f8"},"vehicle_type_id":"4","last_reported":1727262459,"current_range_meters":36800,"station_id":"ce4bgqh2rcd13ifvqc4g","pricing_plan_id":"cebpf4jnsgd1na2vs0mg"},{"bike_id":"59bbd874-f20f-4867-b9b1-9afe5bb8272f","system_id":"levelo_inurba_marseille","lat":43.30592,"lon":5.37241,"is_reserved":false,"is_disabled":false,"rental_uris":{"android":"levelo://app?vid=59bbd874-f20f-4867-b9b1-9afe5bb8272f","ios":"levelo://app?vid=59bbd874-f20f-4867-b9b1-9afe5bb8272f"},"vehicle_type_id":"4","last_reported":1727262459,"current_range_meters":26000,"station_id":"ce4bgqh2rcd13ifvqc4g","pricing_plan_id":"cebpf4jnsgd1na2vs0mg"},{"bike_id":"a9b5ef82-4273-45d0-b93e-a999e67c47fd","system_id":"levelo_inurba_marseille","lat":43.30156,"lon":5.38079,"is_reserved":false,"is_disabled":false,"rental_uris":{"android":"levelo://app?vid=a9b5ef82-4273-45d0-b93e-a999e67c47fd","ios":"levelo://app?vid=a9b5ef82-4273-45d0-b93e-a999e67c47fd"},"vehicle_type_id":"4","last_reported":1727262459,"current_range_meters":38000,"station_id":"ce4bgjp2rcd13ifvqbh0","pricing_plan_id":"cebpf4jnsgd1na2vs0mg"},{"bike_id":"249c9091-61aa-4e8e-8e7b-4cdb5273009f","system_id":"levelo_inurba_marseille","lat":43.30146,"lon":5.37406,"is_reserved":false,"is_disabled":false,"rental_uris":{"android":"levelo://app?vid=249c9091-61aa-4e8e-8e7b-4cdb5273009f","ios":"levelo://app?vid=249c9091-61aa-4e8e-8e7b-4cdb5273009f"},"vehicle_type_id":"4","last_reported":1727262459,"current_range_meters":38800,"station_id":"ce4bgs92rcd13ifvqcc0","pricing_plan_id":"cebpf4jnsgd1na2vs0mg"},{"bike_id":"1ed2687c-622c-4ce4-8374-520d06da46e2","system_id":"levelo_inurba_marseille","lat":43.30773,"lon":5.37649,"is_reserved":false,"is_disabled":false,"rental_uris":{"android":"levelo://app?vid=1ed2687c-622c-4ce4-8374-520d06da46e2","ios":"levelo://app?vid=1ed2687c-622c-4ce4-8374-520d06da46e2"},"vehicle_type_id":"4","last_reported":1727262459,"current_range_meters":8800,"station_id":"ce4bgv92rcd13ifvqcq0","pricing_plan_id":"cebpf4jnsgd1na2vs0mg"},{"bike_id":"9d669928-70c4-4f73-a6f5-ceed2e87e7a7","system_id":"levelo_inurba_marseille","lat":43.30271,"lon":5.37693,"is_reserved":false,"is_disabled":false,"rental_uris":{"android":"levelo://app?vid=9d669928-70c4-4f73-a6f5-ceed2e87e7a7","ios":"levelo://app?vid=9d669928-70c4-4f73-a6f5-ceed2e87e7a7"},"vehicle_type_id":"4","last_reported":1727262459,"current_range_meters":12000,"station_id":"ce4bguh2rcd13ifvqcj0","pricing_plan_id":"cebpf4jnsgd1na2vs0mg"},{"bike_id":"17701005-77c3-4e4f-a0b4-b2ece630517d","system_id":"levelo_inurba_marseille","lat":43.23955,"lon":5.36626,"is_reserved":false,"is_disabled":false,"rental_uris":{"android":"levelo://app?vid=17701005-77c3-4e4f-a0b4-b2ece630517d","ios":"levelo://app?vid=17701005-77c3-4e4f-a0b4-b2ece630517d"},"vehicle_type_id":"4","last_reported":1727262459,"current_range_meters":37600,"station_id":"ce4bhi12rcd13ifvqfp0","pricing_plan_id":"cebpf4jnsgd1na2vs0mg"},{"bike_id":"20b02bf8-7c07-47cd-bbba-31b992e68154","system_id":"levelo_inurba_marseille","lat":43.30147,"lon":5.38087,"is_reserved":false,"is_disabled":false,"rental_uris":{"android":"levelo://app?vid=20b02bf8-7c07-47cd-bbba-31b992e68154","ios":"levelo://app?vid=20b02bf8-7c07-47cd-bbba-31b992e68154"},"vehicle_type_id":"4","last_reported":1727262459,"current_range_meters":37600,"station_id":"ce4bgjp2rcd13ifvqbh0","pricing_plan_id":"cebpf4jnsgd1na2vs0mg"},{"bike_id":"c8cb2714-b765-4d0b-88e0-abf9dc77ce1e","system_id":"levelo_inurba_marseille","lat":43.30313,"lon":5.39198,"is_reserved":false,"is_disabled":false,"rental_uris":{"android":"levelo://app?vid=c8cb2714-b765-4d0b-88e0-abf9dc77ce1e","ios":"levelo://app?vid=c8cb2714-b765-4d0b-88e0-abf9dc77ce1e"},"vehicle_type_id":"4","last_reported":1727262459,"current_range_meters":34800,"station_id":"ce4bgkh2rcd13ifvqbk0","pricing_plan_id":"cebpf4jnsgd1na2vs0mg"},{"bike_id":"b16c4cae-8747-4e06-bc44-1d13c49aa0fb","system_id":"levelo_inurba_marseille","lat":43.27178,"lon":5.40986,"is_reserved":false,"is_disabled":false,"rental_uris":{"android":"levelo://app?vid=b16c4cae-8747-4e06-bc44-1d13c49aa0fb","ios":"levelo://app?vid=b16c4cae-8747-4e06-bc44-1d13c49aa0fb"},"vehicle_type_id":"4","last_reported":1727262459,"current_range_meters":28400,"station_id":"ce4bhl12rcd13ifvqgf0","pricing_plan_id":"cebpf4jnsgd1na2vs0mg"},{"bike_id":"f0a78fc6-5562-40c6-b648-5badb9f076d9","system_id":"levelo_inurba_marseille","lat":43.29002,"lon":5.35615,"is_reserved":false,"is_disabled":false,"rental_uris":{"android":"levelo://app?vid=f0a78fc6-5562-40c6-b648-5badb9f076d9","ios":"levelo://app?vid=f0a78fc6-5562-40c6-b648-5badb9f076d9"},"vehicle_type_id":"4","last_reported":1727262459,"current_range_meters":38000,"station_id":"ce4bhb92rcd13ifvqen0","pricing_plan_id":"cebpf4jnsgd1na2vs0mg"},{"bike_id":"6c6b14c3-545c-4c13-865a-cd6e59e5ddff","system_id":"levelo_inurba_marseille","lat":43.26556,"lon":5.37278,"is_reserved":false,"is_disabled":false,"rental_uris":{"android":"levelo://app?vid=6c6b14c3-545c-4c13-865a-cd6e59e5ddff","ios":"levelo://app?vid=6c6b14c3-545c-4c13-865a-cd6e59e5ddff"},"vehicle_type_id":"4","last_reported":1727262459,"current_range_meters":27200,"station_id":"ce4bhg12rcd13ifvqf70","pricing_plan_id":"cebpf4jnsgd1na2vs0mg"},{"bike_id":"148a2904-6a3f-4978-ad46-822deb5c0a69","system_id":"levelo_inurba_marseille","lat":43.29707,"lon":5.36595,"is_reserved":false,"is_disabled":false,"rental_uris":{"android":"levelo://app?vid=148a2904-6a3f-4978-ad46-822deb5c0a69","ios":"levelo://app?vid=148a2904-6a3f-4978-ad46-822deb5c0a69"},"vehicle_type_id":"4","last_reported":1727262459,"current_range_meters":8000,"station_id":"ce4bgn12rcd13ifvqbt0","pricing_plan_id":"cebpf4jnsgd1na2vs0mg"},{"bike_id":"d6b2c8f4-6195-4921-90d3-26772a7004c4","system_id":"levelo_inurba_marseille","lat":43.31737,"lon":5.36773,"is_reserved":false,"is_disabled":false,"rental_uris":{"android":"levelo://app?vid=d6b2c8f4-6195-4921-90d3-26772a7004c4","ios":"levelo://app?vid=d6b2c8f4-6195-4921-90d3-26772a7004c4"},"vehicle_type_id":"4","last_reported":1727262459,"current_range_meters":10000,"station_id":"","pricing_plan_id":"cebpf4jnsgd1na2vs0mg"},{"bike_id":"12527619-f1f3-4dbc-8aef-87486d7eb50f","system_id":"levelo_inurba_marseille","lat":43.32799,"lon":5.407,"is_reserved":false,"is_disabled":false,"rental_uris":{"android":"levelo://app?vid=12527619-f1f3-4dbc-8aef-87486d7eb50f","ios":"levelo://app?vid=12527619-f1f3-4dbc-8aef-87486d7eb50f"},"vehicle_type_id":"4","last_reported":1727262459,"current_range_meters":12000,"station_id":"ce4bgth2rcd13ifvqch0","pricing_plan_id":"cebpf4jnsgd1na2vs0mg"},{"bike_id":"a292efde-b8ae-417d-81e5-0445b3899ed8","system_id":"levelo_inurba_marseille","lat":43.24649,"lon":5.38889,"is_reserved":false,"is_disabled":false,"rental_uris":{"android":"levelo://app?vid=a292efde-b8ae-417d-81e5-0445b3899ed8","ios":"levelo://app?vid=a292efde-b8ae-417d-81e5-0445b3899ed8"},"vehicle_type_id":"4","last_reported":1727262459,"current_range_meters":26800,"station_id":"ce4bhg12rcd13ifvqf60","pricing_plan_id":"cebpf4jnsgd1na2vs0mg"},{"bike_id":"27c6aca1-71bb-483a-a691-d3a6d1775cc5","system_id":"levelo_inurba_marseille","lat":43.30156,"lon":5.38077,"is_reserved":false,"is_disabled":false,"rental_uris":{"android":"levelo://app?vid=27c6aca1-71bb-483a-a691-d3a6d1775cc5","ios":"levelo://app?vid=27c6aca1-71bb-483a-a691-d3a6d1775cc5"},"vehicle_type_id":"4","last_reported":1727262459,"current_range_meters":32800,"station_id":"ce4bgjp2rcd13ifvqbh0","pricing_plan_id":"cebpf4jnsgd1na2vs0mg"},{"bike_id":"57b6eecb-491f-4d22-adf3-83721690a3d3","system_id":"levelo_inurba_marseille","lat":43.3203,"lon":5.41563,"is_reserved":false,"is_disabled":false,"rental_uris":{"android":"levelo://app?vid=57b6eecb-491f-4d22-adf3-83721690a3d3","ios":"levelo://app?vid=57b6eecb-491f-4d22-adf3-83721690a3d3"},"vehicle_type_id":"4","last_reported":1727262459,"current_range_meters":30000,"station_id":"ce4bhq92rcd13ifvqhkg","pricing_plan_id":"cebpf4jnsgd1na2vs0mg"},{"bike_id":"60094dbc-2b68-4180-a709-7e0b5894cbda","system_id":"levelo_inurba_marseille","lat":43.32107,"lon":5.36769,"is_reserved":false,"is_disabled":false,"rental_uris":{"android":"levelo://app?vid=60094dbc-2b68-4180-a709-7e0b5894cbda","ios":"levelo://app?vid=60094dbc-2b68-4180-a709-7e0b5894cbda"},"vehicle_type_id":"4","last_reported":1727262459,"current_range_meters":31200,"station_id":"ce4bhrh2rcd13ifvqhug","pricing_plan_id":"cebpf4jnsgd1na2vs0mg"},{"bike_id":"b0c6aebb-75a8-47a1-a998-a3575115d99c","system_id":"levelo_inurba_marseille","lat":43.28613,"lon":5.351,"is_reserved":false,"is_disabled":false,"rental_uris":{"android":"levelo://app?vid=b0c6aebb-75a8-47a1-a998-a3575115d99c","ios":"levelo://app?vid=b0c6aebb-75a8-47a1-a998-a3575115d99c"},"vehicle_type_id":"4","last_reported":1727262459,"current_range_meters":6000,"station_id":"ce4bhch2rcd13ifvqeug","pricing_plan_id":"cebpf4jnsgd1na2vs0mg"},{"bike_id":"0d4272b4-0d04-4725-8aa4-07a84f1a1a01","system_id":"levelo_inurba_marseille","lat":43.275655,"lon":5.3842,"is_reserved":false,"is_disabled":false,"rental_uris":{"android":"levelo://app?vid=0d4272b4-0d04-4725-8aa4-07a84f1a1a01","ios":"levelo://app?vid=0d4272b4-0d04-4725-8aa4-07a84f1a1a01"},"vehicle_type_id":"4","last_reported":1727262459,"current_range_meters":25600,"station_id":"ce4bhh92rcd13ifvqfi0","pricing_plan_id":"cebpf4jnsgd1na2vs0mg"},{"bike_id":"e828d106-339e-45bb-8cc1-41a306883c3a","system_id":"levelo_inurba_marseille","lat":43.33767,"lon":5.37437,"is_reserved":false,"is_disabled":false,"rental_uris":{"android":"levelo://app?vid=e828d106-339e-45bb-8cc1-41a306883c3a","ios":"levelo://app?vid=e828d106-339e-45bb-8cc1-41a306883c3a"},"vehicle_type_id":"4","last_reported":1727262459,"current_range_meters":34000,"station_id":"","pricing_plan_id":"cebpf4jnsgd1na2vs0mg"},{"bike_id":"1688b013-2888-4f70-91ea-de7f2a56f3db","system_id":"levelo_inurba_marseille","lat":43.28154,"lon":5.42632,"is_reserved":false,"is_disabled":false,"rental_uris":{"android":"levelo://app?vid=1688b013-2888-4f70-91ea-de7f2a56f3db","ios":"levelo://app?vid=1688b013-2888-4f70-91ea-de7f2a56f3db"},"vehicle_type_id":"4","last_reported":1727262459,"current_range_meters":10800,"station_id":"ce4bhnh2rcd13ifvqgug","pricing_plan_id":"cebpf4jnsgd1na2vs0mg"},{"bike_id":"4c43b43f-be17-43d2-95e0-fab0c099fe37","system_id":"levelo_inurba_marseille","lat":43.23161,"lon":5.437017,"is_reserved":false,"is_disabled":false,"rental_uris":{"android":"levelo://app?vid=4c43b43f-be17-43d2-95e0-fab0c099fe37","ios":"levelo://app?vid=4c43b43f-be17-43d2-95e0-fab0c099fe37"},"vehicle_type_id":"4","last_reported":1727262459,"current_range_meters":37600,"station_id":"ce4bhmp2rcd13ifvqgog","pricing_plan_id":"cebpf4jnsgd1na2vs0mg"},{"bike_id":"dc473676-824d-41ad-aeb7-667c159f885c","system_id":"levelo_inurba_marseille","lat":43.23188,"lon":5.35541,"is_reserved":false,"is_disabled":false,"rental_uris":{"android":"levelo://app?vid=dc473676-824d-41ad-aeb7-667c159f885c","ios":"levelo://app?vid=dc473676-824d-41ad-aeb7-667c159f885c"},"vehicle_type_id":"4","last_reported":1727262459,"current_range_meters":28000,"station_id":"ce4bhu92rcd13ifvqi70","pricing_plan_id":"cebpf4jnsgd1na2vs0mg"},{"bike_id":"b44fe68c-0573-4b7d-ad16-ba1b0c496159","system_id":"levelo_inurba_marseille","lat":43.25728,"lon":5.41107,"is_reserved":false,"is_disabled":false,"rental_uris":{"android":"levelo://app?vid=b44fe68c-0573-4b7d-ad16-ba1b0c496159","ios":"levelo://app?vid=b44fe68c-0573-4b7d-ad16-ba1b0c496159"},"vehicle_type_id":"4","last_reported":1727262459,"current_range_meters":37600,"station_id":"ce4bhkp2rcd13ifvqgd0","pricing_plan_id":"cebpf4jnsgd1na2vs0mg"},{"bike_id":"f31e1d91-c993-4489-8cfe-294799bf42c7","system_id":"levelo_inurba_marseille","lat":43.25723,"lon":5.41104,"is_reserved":false,"is_disabled":false,"rental_uris":{"android":"levelo://app?vid=f31e1d91-c993-4489-8cfe-294799bf42c7","ios":"levelo://app?vid=f31e1d91-c993-4489-8cfe-294799bf42c7"},"vehicle_type_id":"4","last_reported":1727262459,"current_range_meters":25200,"station_id":"ce4bhkp2rcd13ifvqgd0","pricing_plan_id":"cebpf4jnsgd1na2vs0mg"},{"bike_id":"a7bca3df-0344-4204-86d7-b742d4769839","system_id":"levelo_inurba_marseille","lat":43.30863,"lon":5.3685,"is_reserved":false,"is_disabled":false,"rental_uris":{"android":"levelo://app?vid=a7bca3df-0344-4204-86d7-b742d4769839","ios":"levelo://app?vid=a7bca3df-0344-4204-86d7-b742d4769839"},"vehicle_type_id":"4","last_reported":1727262459,"current_range_meters":28000,"station_id":"ce4bgn92rcd13ifvqbvg","pricing_plan_id":"cebpf4jnsgd1na2vs0mg"},{"bike_id":"b756cf65-c2ec-44b8-9be4-0e96439a10f9","system_id":"levelo_inurba_marseille","lat":43.28674,"lon":5.38661,"is_reserved":false,"is_disabled":false,"rental_uris":{"android":"levelo://app?vid=b756cf65-c2ec-44b8-9be4-0e96439a10f9","ios":"levelo://app?vid=b756cf65-c2ec-44b8-9be4-0e96439a10f9"},"vehicle_type_id":"4","last_reported":1727262459,"current_range_meters":20000,"station_id":"ce4bh492rcd13ifvqdug","pricing_plan_id":"cebpf4jnsgd1na2vs0mg"},{"bike_id":"22a93696-29c8-4204-b668-5cf26c040a0d","system_id":"levelo_inurba_marseille","lat":43.32364,"lon":5.38887,"is_reserved":false,"is_disabled":false,"rental_uris":{"android":"levelo://app?vid=22a93696-29c8-4204-b668-5cf26c040a0d","ios":"levelo://app?vid=22a93696-29c8-4204-b668-5cf26c040a0d"},"vehicle_type_id":"4","last_reported":1727262459,"current_range_meters":28000,"station_id":"ce4bhqp2rcd13ifvqhog","pricing_plan_id":"cebpf4jnsgd1na2vs0mg"},{"bike_id":"7827170f-fe53-4f76-acc5-1f9d10e67145","system_id":"levelo_inurba_marseille","lat":43.22932,"lon":5.35375,"is_reserved":false,"is_disabled":false,"rental_uris":{"android":"levelo://app?vid=7827170f-fe53-4f76-acc5-1f9d10e67145","ios":"levelo://app?vid=7827170f-fe53-4f76-acc5-1f9d10e67145"},"vehicle_type_id":"4","last_reported":1727262459,"current_range_meters":38000,"station_id":"cpo3532slgdg3j2ikp40","pricing_plan_id":"cebpf4jnsgd1na2vs0mg"},{"bike_id":"9eeaaf0e-b3e2-468e-a055-22583ff17527","system_id":"levelo_inurba_marseille","lat":43.28732,"lon":5.37403,"is_reserved":false,"is_disabled":false,"rental_uris":{"android":"levelo://app?vid=9eeaaf0e-b3e2-468e-a055-22583ff17527","ios":"levelo://app?vid=9eeaaf0e-b3e2-468e-a055-22583ff17527"},"vehicle_type_id":"4","last_reported":1727262459,"current_range_meters":20800,"station_id":"ce4bha92rcd13ifvqeg0","pricing_plan_id":"cebpf4jnsgd1na2vs0mg"},{"bike_id":"fe06af04-fbb5-4642-911d-6d451bcd8306","system_id":"levelo_inurba_marseille","lat":43.29587,"lon":5.36734,"is_reserved":false,"is_disabled":false,"rental_uris":{"android":"levelo://app?vid=fe06af04-fbb5-4642-911d-6d451bcd8306","ios":"levelo://app?vid=fe06af04-fbb5-4642-911d-6d451bcd8306"},"vehicle_type_id":"4","last_reported":1727262459,"current_range_meters":8000,"station_id":"ce4bgph2rcd13ifvqc2g","pricing_plan_id":"cebpf4jnsgd1na2vs0mg"},{"bike_id":"d831a0c8-0bcd-4449-91a5-836df1a52d4b","system_id":"levelo_inurba_marseille","lat":43.307183,"lon":5.37276,"is_reserved":false,"is_disabled":false,"rental_uris":{"android":"levelo://app?vid=d831a0c8-0bcd-4449-91a5-836df1a52d4b","ios":"levelo://app?vid=d831a0c8-0bcd-4449-91a5-836df1a52d4b"},"vehicle_type_id":"4","last_reported":1727262459,"current_range_meters":10800,"station_id":"","pricing_plan_id":"cebpf4jnsgd1na2vs0mg"},{"bike_id":"b41fc8d1-aaa6-48b8-85ea-0782e9dda81a","system_id":"levelo_inurba_marseille","lat":43.29586,"lon":5.36728,"is_reserved":false,"is_disabled":false,"rental_uris":{"android":"levelo://app?vid=b41fc8d1-aaa6-48b8-85ea-0782e9dda81a","ios":"levelo://app?vid=b41fc8d1-aaa6-48b8-85ea-0782e9dda81a"},"vehicle_type_id":"4","last_reported":1727262459,"current_range_meters":32800,"station_id":"ce4bgph2rcd13ifvqc2g","pricing_plan_id":"cebpf4jnsgd1na2vs0mg"},{"bike_id":"37ea3e6e-16e9-42b3-b4f9-836c84a7a894","system_id":"levelo_inurba_marseille","lat":43.23183,"lon":5.39981,"is_reserved":false,"is_disabled":false,"rental_uris":{"android":"levelo://app?vid=37ea3e6e-16e9-42b3-b4f9-836c84a7a894","ios":"levelo://app?vid=37ea3e6e-16e9-42b3-b4f9-836c84a7a894"},"vehicle_type_id":"4","last_reported":1727262459,"current_range_meters":27600,"station_id":"ce4bhn12rcd13ifvqgqg","pricing_plan_id":"cebpf4jnsgd1na2vs0mg"},{"bike_id":"a3dde81c-8e6a-4d13-bb7c-baa8f840088f","system_id":"levelo_inurba_marseille","lat":43.29708,"lon":5.36599,"is_reserved":false,"is_disabled":false,"rental_uris":{"android":"levelo://app?vid=a3dde81c-8e6a-4d13-bb7c-baa8f840088f","ios":"levelo://app?vid=a3dde81c-8e6a-4d13-bb7c-baa8f840088f"},"vehicle_type_id":"4","last_reported":1727262459,"current_range_meters":28400,"station_id":"ce4bgn12rcd13ifvqbt0","pricing_plan_id":"cebpf4jnsgd1na2vs0mg"},{"bike_id":"7d13bfe6-cac1-417a-a866-11f3f6431dbc","system_id":"levelo_inurba_marseille","lat":43.28856,"lon":5.37141,"is_reserved":false,"is_disabled":false,"rental_uris":{"android":"levelo://app?vid=7d13bfe6-cac1-417a-a866-11f3f6431dbc","ios":"levelo://app?vid=7d13bfe6-cac1-417a-a866-11f3f6431dbc"},"vehicle_type_id":"4","last_reported":1727262459,"current_range_meters":26000,"station_id":"ce4bht12rcd13ifvqi60","pricing_plan_id":"cebpf4jnsgd1na2vs0mg"},{"bike_id":"4a4bfd88-bdfc-4802-b3a8-e798e4274727","system_id":"levelo_inurba_marseille","lat":43.32288,"lon":5.3825,"is_reserved":false,"is_disabled":false,"rental_uris":{"android":"levelo://app?vid=4a4bfd88-bdfc-4802-b3a8-e798e4274727","ios":"levelo://app?vid=4a4bfd88-bdfc-4802-b3a8-e798e4274727"},"vehicle_type_id":"4","last_reported":1727262459,"current_range_meters":28400,"station_id":"ce4bhr12rcd13ifvqhqg","pricing_plan_id":"cebpf4jnsgd1na2vs0mg"},{"bike_id":"55510e67-f2d9-4cd2-86a1-c10296679920","system_id":"levelo_inurba_marseille","lat":43.289867,"lon":5.366273,"is_reserved":false,"is_disabled":false,"rental_uris":{"android":"levelo://app?vid=55510e67-f2d9-4cd2-86a1-c10296679920","ios":"levelo://app?vid=55510e67-f2d9-4cd2-86a1-c10296679920"},"vehicle_type_id":"4","last_reported":1727262459,"current_range_meters":19200,"station_id":"ce4bhbh2rcd13ifvqepg","pricing_plan_id":"cebpf4jnsgd1na2vs0mg"},{"bike_id":"6d96f985-9c01-48a6-84cc-38d4437fa126","system_id":"levelo_inurba_marseille","lat":43.23155,"lon":5.43706,"is_reserved":false,"is_disabled":false,"rental_uris":{"android":"levelo://app?vid=6d96f985-9c01-48a6-84cc-38d4437fa126","ios":"levelo://app?vid=6d96f985-9c01-48a6-84cc-38d4437fa126"},"vehicle_type_id":"4","last_reported":1727262459,"current_range_meters":13600,"station_id":"ce4bhmp2rcd13ifvqgog","pricing_plan_id":"cebpf4jnsgd1na2vs0mg"},{"bike_id":"30a48c94-ec0c-4d2f-a385-a23f95cea9f6","system_id":"levelo_inurba_marseille","lat":43.27995,"lon":5.41664,"is_reserved":false,"is_disabled":false,"rental_uris":{"android":"levelo://app?vid=30a48c94-ec0c-4d2f-a385-a23f95cea9f6","ios":"levelo://app?vid=30a48c94-ec0c-4d2f-a385-a23f95cea9f6"},"vehicle_type_id":"4","last_reported":1727262459,"current_range_meters":11600,"station_id":"ce4bho12rcd13ifvqh1g","pricing_plan_id":"cebpf4jnsgd1na2vs0mg"},{"bike_id":"bd7e911f-33f0-4258-ad50-2f0c938c31a6","system_id":"levelo_inurba_marseille","lat":43.27571,"lon":5.38434,"is_reserved":false,"is_disabled":false,"rental_uris":{"android":"levelo://app?vid=bd7e911f-33f0-4258-ad50-2f0c938c31a6","ios":"levelo://app?vid=bd7e911f-33f0-4258-ad50-2f0c938c31a6"},"vehicle_type_id":"4","last_reported":1727262459,"current_range_meters":23200,"station_id":"ce4bhh92rcd13ifvqfi0","pricing_plan_id":"cebpf4jnsgd1na2vs0mg"},{"bike_id":"a785ac4f-5715-4353-a51f-6658fc399e16","system_id":"levelo_inurba_marseille","lat":43.31332,"lon":5.39686,"is_reserved":false,"is_disabled":false,"rental_uris":{"android":"levelo://app?vid=a785ac4f-5715-4353-a51f-6658fc399e16","ios":"levelo://app?vid=a785ac4f-5715-4353-a51f-6658fc399e16"},"vehicle_type_id":"4","last_reported":1727262459,"current_range_meters":26800,"station_id":"ce4bgvp2rcd13ifvqcu0","pricing_plan_id":"cebpf4jnsgd1na2vs0mg"},{"bike_id":"a6bd2dad-db5a-48ec-9ea3-cf5debcdaafc","system_id":"levelo_inurba_marseille","lat":43.28363,"lon":5.38628,"is_reserved":false,"is_disabled":false,"rental_uris":{"android":"levelo://app?vid=a6bd2dad-db5a-48ec-9ea3-cf5debcdaafc","ios":"levelo://app?vid=a6bd2dad-db5a-48ec-9ea3-cf5debcdaafc"},"vehicle_type_id":"4","last_reported":1727262459,"current_range_meters":14000,"station_id":"ce4bh492rcd13ifvqdvg","pricing_plan_id":"cebpf4jnsgd1na2vs0mg"},{"bike_id":"044cc969-a5ab-494c-b9f6-7441e8509e23","system_id":"levelo_inurba_marseille","lat":43.26917,"lon":5.39072,"is_reserved":false,"is_disabled":false,"rental_uris":{"android":"levelo://app?vid=044cc969-a5ab-494c-b9f6-7441e8509e23","ios":"levelo://app?vid=044cc969-a5ab-494c-b9f6-7441e8509e23"},"vehicle_type_id":"4","last_reported":1727262459,"current_range_meters":32800,"station_id":"ce4bhhh2rcd13ifvqfl0","pricing_plan_id":"cebpf4jnsgd1na2vs0mg"},{"bike_id":"0fa02f19-62ea-444b-908b-23c26cd28fb0","system_id":"levelo_inurba_marseille","lat":43.30139,"lon":5.37422,"is_reserved":false,"is_disabled":false,"rental_uris":{"android":"levelo://app?vid=0fa02f19-62ea-444b-908b-23c26cd28fb0","ios":"levelo://app?vid=0fa02f19-62ea-444b-908b-23c26cd28fb0"},"vehicle_type_id":"4","last_reported":1727262459,"current_range_meters":39200,"station_id":"ce4bgs92rcd13ifvqcc0","pricing_plan_id":"cebpf4jnsgd1na2vs0mg"},{"bike_id":"6f53396e-a4a9-4fbb-8990-bb46bcab1f8b","system_id":"levelo_inurba_marseille","lat":43.29191,"lon":5.35808,"is_reserved":false,"is_disabled":false,"rental_uris":{"android":"levelo://app?vid=6f53396e-a4a9-4fbb-8990-bb46bcab1f8b","ios":"levelo://app?vid=6f53396e-a4a9-4fbb-8990-bb46bcab1f8b"},"vehicle_type_id":"4","last_reported":1727262459,"current_range_meters":18000,"station_id":"ce4bhb12rcd13ifvqel0","pricing_plan_id":"cebpf4jnsgd1na2vs0mg"},{"bike_id":"fd883037-8cc2-42f0-a7e4-095073a05256","system_id":"levelo_inurba_marseille","lat":43.31223,"lon":5.36867,"is_reserved":false,"is_disabled":false,"rental_uris":{"android":"levelo://app?vid=fd883037-8cc2-42f0-a7e4-095073a05256","ios":"levelo://app?vid=fd883037-8cc2-42f0-a7e4-095073a05256"},"vehicle_type_id":"4","last_reported":1727262459,"current_range_meters":30000,"station_id":"ce4bgl92rcd13ifvqbq0","pricing_plan_id":"cebpf4jnsgd1na2vs0mg"},{"bike_id":"5e787303-50e2-4b6f-ac85-c0e6d3015235","system_id":"levelo_inurba_marseille","lat":43.29896,"lon":5.43656,"is_reserved":false,"is_disabled":false,"rental_uris":{"android":"levelo://app?vid=5e787303-50e2-4b6f-ac85-c0e6d3015235","ios":"levelo://app?vid=5e787303-50e2-4b6f-ac85-c0e6d3015235"},"vehicle_type_id":"4","last_reported":1727262459,"current_range_meters":38000,"station_id":"ce4bhpp2rcd13ifvqhfg","pricing_plan_id":"cebpf4jnsgd1na2vs0mg"},{"bike_id":"e8b01203-6bee-421b-8845-c14702847d18","system_id":"levelo_inurba_marseille","lat":43.29097,"lon":5.38146,"is_reserved":false,"is_disabled":false,"rental_uris":{"android":"levelo://app?vid=e8b01203-6bee-421b-8845-c14702847d18","ios":"levelo://app?vid=e8b01203-6bee-421b-8845-c14702847d18"},"vehicle_type_id":"4","last_reported":1727262459,"current_range_meters":28800,"station_id":"ce4bh512rcd13ifvqe2g","pricing_plan_id":"cebpf4jnsgd1na2vs0mg"},