{"last_updated":1770672550,"ttl":60,"version":"2.2","data":{"bikes":[{"bike_id":"c0a7673f-663b-4697-9cc9-b31f824de07c","system_id":"levelo_inurba_marseille","lat":43.27895,"lon":5.38006,"is_reserved":false,"is_disabled":false,"rental_uris":{"android":"levelo://app?vid=c0a7673f-663b-4697-9cc9-b31f824de07c","ios":"levelo://app?vid=c0a7673f-663b-4697-9cc9-b31f824de07c"},"vehicle_type_id":"4","last_reported":1770672551,"current_range_meters":2800,"station_id":"ce4bhf92rcd13ifvqf50","pricing_plan_id":"cebpf4jnsgd1na2vs0mg"},{"bike_id":"fb42dd14-8842-4c1b-bf3c-4ce250e467ea","system_id":"levelo_inurba_marseille","lat":43.257143,"lon":5.411232,"is_reserved":false,"is_disabled":false,"rental_uris":{"android":"levelo://app?vid=fb42dd14-8842-4c1b-bf3c-4ce250e467ea","ios":"levelo://app?vid=fb42dd14-8842-4c1b-bf3c-4ce250e467ea"},"vehicle_type_id":"4","last_reported":1770672551,"current_range_meters":2800,"station_id":"ce4bhkp2rcd13ifvqgd0","pricing_plan_id":"cebpf4jnsgd1na2vs0mg"},{"bike_id":"62468bc0-7c46-4734-a9fc-6c79792208c6","system_id":"levelo_inurba_marseille","lat":43.275629,"lon":5.384192,"is_reserved":false,"is_disabled":false,"rental_uris":{"android":"levelo://app?vid=62468bc0-7c46-4734-a9fc-6c79792208c6","ios":"levelo://app?vid=62468bc0-7c46-4734-a9fc-6c79792208c6"},"vehicle_type_id":"4","last_reported":1770672551,"current_range_meters":2800,"station_id":"ce4bh0h2rcd13ifvqd60","pricing_plan_id":"cebpf4jnsgd1na2vs0mg"},{"bike_id":"cb4e831c-6025-4234-bd44-dc892f6a6133","system_id":"levelo_inurba_marseille","lat":43.26625,"lon":5.40323,"is_reserved":false,"is_disabled":false,"rental_uris":{"android":"levelo://app?vid=cb4e831c-6025-4234-bd44-dc892f6a6133","ios":"levelo://app?vid=cb4e831c-6025-4234-bd44-dc892f6a6133"},"vehicle_type_id":"4","last_reported":1770672551,"current_range_meters":2800,"station_id":"","pricing_plan_id":"cebpf4jnsgd1na2vs0mg"},{"bike_id":"eb4f3087-f321-48ae-b659-58b78ed944bf","system_id":"levelo_inurba_marseille","lat":43.262,"lon":5.37932,"is_reserved":false,"is_disabled":false,"rental_uris":{"android":"levelo://app?vid=eb4f3087-f321-48ae-b659-58b78ed944bf","ios":"levelo://app?vid=eb4f3087-f321-48ae-b659-58b78ed944bf"},"vehicle_type_id":"4","last_reported":1770672551,"current_range_meters":2800,"station_id":"ce4bhjp2rcd13ifvqg90","pricing_plan_id":"cebpf4jnsgd1na2vs0mg"},{"bike_id":"5136d5dd-21c4-452e-b47c-babeef73a51b","system_id":"levelo_inurba_marseille","lat":43.29262,"lon":5.37503,"is_reserved":false,"is_disabled":false,"rental_uris":{"android":"levelo://app?vid=5136d5dd-21c4-452e-b47c-babeef73a51b","ios":"levelo://app?vid=5136d5dd-21c4-452e-b47c-babeef73a51b"},"vehicle_type_id":"4","last_reported":1770672551,"current_range_meters":2800,"station_id":"","pricing_plan_id":"cebpf4jnsgd1na2vs0mg"},{"bike_id":"a171a0f6-2916-42d1-9c62-22231d4595de","system_id":"levelo_inurba_marseille","lat":43.2446,"lon":5.42515,"is_reserved":false,"is_disabled":false,"rental_uris":{"android":"levelo://app?vid=a171a0f6-2916-42d1-9c62-22231d4595de","ios":"levelo://app?vid=a171a0f6-2916-42d1-9c62-22231d4595de"},"vehicle_type_id":"4","last_reported":1770672551,"current_range_meters":2800,"station_id":"st_d4a3vfp97mjs738cd8kg","pricing_plan_id":"cebpf4jnsgd1na2vs0mg"},{"bike_id":"ced06b6c-2a02-4fd5-a532-fc16827c55ca","system_id":"levelo_inurba_marseille","lat":43.284578,"lon":5.358804,"is_reserved":false,"is_disabled":false,"rental_uris":{"android":"levelo://app?vid=ced06b6c-2a02-4fd5-a532-fc16827c55ca","ios":"levelo://app?vid=ced06b6c-2a02-4fd5-a532-fc16827c55ca"},"vehicle_type_id":"4","last_reported":1770672551,"current_range_meters":2800,"station_id":"ce4bhah2rcd13ifvqei0","pricing_plan_id":"cebpf4jnsgd1na2vs0mg"},{"bike_id":"9deb36d9-6993-4809-a790-3ced6886baec","system_id":"levelo_inurba_marseille","lat":43.29248,"lon":5.38438,"is_reserved":false,"is_disabled":false,"rental_uris":{"android":"levelo://app?vid=9deb36d9-6993-4809-a790-3ced6886baec","ios":"levelo://app?vid=9deb36d9-6993-4809-a790-3ced6886baec"},"vehicle_type_id":"4","last_reported":1770672551,"current_range_meters":3200,"station_id":"ce4bh692rcd13ifvqea0","pricing_plan_id":"cebpf4jnsgd1na2vs0mg"},{"bike_id":"2e7206fc-e884-43a8-a3fc-7c9580f4be29","system_id":"levelo_inurba_marseille","lat":43.3078,"lon":5.37654,"is_reserved":false,"is_disabled":false,"rental_uris":{"android":"levelo://app?vid=2e7206fc-e884-43a8-a3fc-7c9580f4be29","ios":"levelo://app?vid=2e7206fc-e884-43a8-a3fc-7c9580f4be29"},"vehicle_type_id":"4","last_reported":1770672551,"current_range_meters":3200,"station_id":"ce4bgv92rcd13ifvqcq0","pricing_plan_id":"cebpf4jnsgd1na2vs0mg"},{"bike_id":"ffcfb0a6-be0d-4d3d-b9ec-3a4698a83e7b","system_id":"levelo_inurba_marseille","lat":43.25949,"lon":5.40893,"is_reserved":false,"is_disabled":false,"rental_uris":{"android":"levelo://app?vid=ffcfb0a6-be0d-4d3d-b9ec-3a4698a83e7b","ios":"levelo://app?vid=ffcfb0a6-be0d-4d3d-b9ec-3a4698a83e7b"},"vehicle_type_id":"4","last_reported":1770672551,"current_range_meters":3200,"station_id":"ce4bhm92rcd13ifvqglg","pricing_plan_id":"cebpf4jnsgd1na2vs0mg"},{"bike_id":"6e033c35-dbfc-4ffc-a036-eedd79c14d36","system_id":"levelo_inurba_marseille","lat":43.217512,"lon":5.346059,"is_reserved":false,"is_disabled":true,"rental_uris":{"android":"levelo://app?vid=6e033c35-dbfc-4ffc-a036-eedd79c14d36","ios":"levelo://app?vid=6e033c35-dbfc-4ffc-a036-eedd79c14d36"},"vehicle_type_id":"4","last_reported":1770672551,"current_range_meters":3200,"station_id":"st_cvj6r9ubvosntc0bgbag","pricing_plan_id":"cebpf4jnsgd1na2vs0mg"},{"bike_id":"733294e4-f91f-4521-b232-9f24c48af8a6","system_id":"levelo_inurba_marseille","lat":43.24667,"lon":5.38164,"is_reserved":false,"is_disabled":false,"rental_uris":{"android":"levelo://app?vid=733294e4-f91f-4521-b232-9f24c48af8a6","ios":"levelo://app?vid=733294e4-f91f-4521-b232-9f24c48af8a6"},"vehicle_type_id":"4","last_reported":1770672551,"current_range_meters":3200,"station_id":"ce4bhih2rcd13ifvqfr0","pricing_plan_id":"cebpf4jnsgd1na2vs0mg"},{"bike_id":"b790913a-3252-4f5f-bc4a-57dab1a3d7cf","system_id":"levelo_inurba_marseille","lat":43.25736,"lon":5.41115,"is_reserved":false,"is_disabled":false,"rental_uris":{"android":"levelo://app?vid=b790913a-3252-4f5f-bc4a-57dab1a3d7cf","ios":"levelo://app?vid=b790913a-3252-4f5f-bc4a-57dab1a3d7cf"},"vehicle_type_id":"4","last_reported":1770672551,"current_range_meters":3200,"station_id":"ce4bhkp2rcd13ifvqgd0","pricing_plan_id":"cebpf4jnsgd1na2vs0mg"},{"bike_id":"fe026ef8-8a5f-4916-bf5d-cdd87a6b206a","system_id":"levelo_inurba_marseille","lat":43.27186,"lon":5.41022,"is_reserved":false,"is_disabled":false,"rental_uris":{"android":"levelo://app?vid=fe026ef8-8a5f-4916-bf5d-cdd87a6b206a","ios":"levelo://app?vid=fe026ef8-8a5f-4916-bf5d-cdd87a6b206a"},"vehicle_type_id":"4","last_reported":1770672551,"current_range_meters":3200,"station_id":"ce4bhl12rcd13ifvqgf0","pricing_plan_id":"cebpf4jnsgd1na2vs0mg"},{"bike_id":"7dd2d399-6383-4a0d-a881-e62efd3ea562","system_id":"levelo_inurba_marseille","lat":43.23197,"lon":5.35562,"is_reserved":false,"is_disabled":false,"rental_uris":{"android":"levelo://app?vid=7dd2d399-6383-4a0d-a881-e62efd3ea562","ios":"levelo://app?vid=7dd2d399-6383-4a0d-a881-e62efd3ea562"},"vehicle_type_id":"4","last_reported":1770672551,"current_range_meters":3200,"station_id":"ce4bhu92rcd13ifvqi70","pricing_plan_id":"cebpf4jnsgd1na2vs0mg"},{"bike_id":"86fe17ca-35f7-492f-908b-0f379e77c87d","system_id":"levelo_inurba_marseille","lat":43.2624,"lon":5.40485,"is_reserved":false,"is_disabled":false,"rental_uris":{"android":"levelo://app?vid=86fe17ca-35f7-492f-908b-0f379e77c87d","ios":"levelo://app?vid=86fe17ca-35f7-492f-908b-0f379e77c87d"},"vehicle_type_id":"4","last_reported":1770672551,"current_range_meters":3600,"station_id":"ce4bhmh2rcd13ifvqgmg","pricing_plan_id":"cebpf4jnsgd1na2vs0mg"},{"bike_id":"81f5a16d-a2f0-4cd2-a5c9-53e69bf4cd2c","system_id":"levelo_inurba_marseille","lat":43.29554,"lon":5.42282,"is_reserved":false,"is_disabled":false,"rental_uris":{"android":"levelo://app?vid=81f5a16d-a2f0-4cd2-a5c9-53e69bf4cd2c","ios":"levelo://app?vid=81f5a16d-a2f0-4cd2-a5c9-53e69bf4cd2c"},"vehicle_type_id":"4","last_reported":1770672551,"current_range_meters":3600,"station_id":"ce4bhph2rcd13ifvqhdg","pricing_plan_id":"cebpf4jnsgd1na2vs0mg"},{"bike_id":"d55752cc-df4f-460b-812b-b0c216163466","system_id":"levelo_inurba_marseille","lat":43.253331,"lon":5.421755,"is_reserved":false,"is_disabled":false,"rental_uris":{"android":"levelo://app?vid=d55752cc-df4f-460b-812b-b0c216163466","ios":"levelo://app?vid=d55752cc-df4f-460b-812b-b0c216163466"},"vehicle_type_id":"4","last_reported":1770672551,"current_range_meters":3600,"station_id":"","pricing_plan_id":"cebpf4jnsgd1na2vs0mg"},{"bike_id":"ef6ce157-048a-4fc1-8f31-c823377f5d47","system_id":"levelo_inurba_marseille","lat":43.24945,"lon":5.40492,"is_reserved":false,"is_disabled":false,"rental_uris":{"android":"levelo://app?vid=ef6ce157-048a-4fc1-8f31-c823377f5d47","ios":"levelo://app?vid=ef6ce157-048a-4fc1-8f31-c823377f5d47"},"vehicle_type_id":"4","last_reported":1770672551,"current_range_meters":3600,"station_id":"st_d2ngiaodas8pm72gd1h0","pricing_plan_id":"cebpf4jnsgd1na2vs0mg"},{"bike_id":"9530f263-d425-4e55-846d-f8c14820f02c","system_id":"levelo_inurba_marseille","lat":43.29542,"lon":5.38563,"is_reserved":false,"is_disabled":false,"rental_uris":{"android":"levelo://app?vid=9530f263-d425-4e55-846d-f8c14820f02c","ios":"levelo://app?vid=9530f263-d425-4e55-846d-f8c14820f02c"},"vehicle_type_id":"4","last_reported":1770672551,"current_range_meters":3600,"station_id":"ce4bgih2rcd13ifvqba0","pricing_plan_id":"cebpf4jnsgd1na2vs0mg"},{"bike_id":"247da1c9-e7a2-4c2a-8eaf-e2f0d137bc9f","system_id":"levelo_inurba_marseille","lat":43.26686,"lon":5.38264,"is_reserved":false,"is_disabled":false,"rental_uris":{"android":"levelo://app?vid=247da1c9-e7a2-4c2a-8eaf-e2f0d137bc9f","ios":"levelo://app?vid=247da1c9-e7a2-4c2a-8eaf-e2f0d137bc9f"},"vehicle_type_id":"4","last_reported":1770672551,"current_range_meters":4000,"station_id":"ce4bhg92rcd13ifvqf90","pricing_plan_id":"cebpf4jnsgd1na2vs0mg"},{"bike_id":"0701605f-acab-4dda-968e-e578216034cb","system_id":"levelo_inurba_marseille","lat":43.26568,"lon":5.39018,"is_reserved":false,"is_disabled":false,"rental_uris":{"android":"levelo://app?vid=0701605f-acab-4dda-968e-e578216034cb","ios":"levelo://app?vid=0701605f-acab-4dda-968e-e578216034cb"},"vehicle_type_id":"4","last_reported":1770672551,"current_range_meters":4000,"station_id":"ce4bhe12rcd13ifvqf30","pricing_plan_id":"cebpf4jnsgd1na2vs0mg"},{"bike_id":"7793efe0-796a-47b9-b395-f00d6d2ba2f3","system_id":"levelo_inurba_marseille","lat":43.335402,"lon":5.374648,"is_reserved":false,"is_disabled":false,"rental_uris":{"android":"levelo://app?vid=7793efe0-796a-47b9-b395-f00d6d2ba2f3","ios":"levelo://app?vid=7793efe0-796a-47b9-b395-f00d6d2ba2f3"},"vehicle_type_id":"4","last_reported":1770672551,"current_range_meters":4000,"station_id":"st_d46tts09ee8s73dlu43g","pricing_plan_id":"cebpf4jnsgd1na2vs0mg"},{"bike_id":"eb4c876b-88dd-43ec-8628-44a384f402f0","system_id":"levelo_inurba_marseille","lat":43.33554,"lon":5.37448,"is_reserved":false,"is_disabled":false,"rental_uris":{"android":"levelo://app?vid=eb4c876b-88dd-43ec-8628-44a384f402f0","ios":"levelo://app?vid=eb4c876b-88dd-43ec-8628-44a384f402f0"},"vehicle_type_id":"4","last_reported":1770672551,"current_range_meters":4000,"station_id":"st_d46tts09ee8s73dlu43g","pricing_plan_id":"cebpf4jnsgd1na2vs0mg"},{"bike_id":"4d004433-dab3-41e6-98e0-36dc64cdcd25","system_id":"levelo_inurba_marseille","lat":43.3093,"lon":5.40148,"is_reserved":false,"is_disabled":false,"rental_uris":{"android":"levelo://app?vid=4d004433-dab3-41e6-98e0-36dc64cdcd25","ios":"levelo://app?vid=4d004433-dab3-41e6-98e0-36dc64cdcd25"},"vehicle_type_id":"4","last_reported":1770672551,"current_range_meters":4000,"station_id":"ce4bgvp2rcd13ifvqct0","pricing_plan_id":"cebpf4jnsgd1na2vs0mg"},{"bike_id":"8a5f7e1d-672f-4752-8c26-dde53239b1e1","system_id":"levelo_inurba_marseille","lat":43.2997,"lon":5.38498,"is_reserved":false,"is_disabled":false,"rental_uris":{"android":"levelo://app?vid=8a5f7e1d-672f-4752-8c26-dde53239b1e1","ios":"levelo://app?vid=8a5f7e1d-672f-4752-8c26-dde53239b1e1"},"vehicle_type_id":"4","last_reported":1770672551,"current_range_meters":4000,"station_id":"ce4bgj92rcd13ifvqbd0","pricing_plan_id":"cebpf4jnsgd1na2vs0mg"},{"bike_id":"cce409e3-e6c0-4194-832c-ffe927c88385","system_id":"levelo_inurba_marseille","lat":43.2958,"lon":5.42289,"is_reserved":false,"is_disabled":false,"rental_uris":{"android":"levelo://app?vid=cce409e3-e6c0-4194-832c-ffe927c88385","ios":"levelo://app?vid=cce409e3-e6c0-4194-832c-ffe927c88385"},"vehicle_type_id":"4","last_reported":1770672551,"current_range_meters":4000,"station_id":"ce4bhph2rcd13ifvqhdg","pricing_plan_id":"cebpf4jnsgd1na2vs0mg"},{"bike_id":"ac645712-adb7-427c-9a1d-bbc03b4ccac1","system_id":"levelo_inurba_marseille","lat":43.21193,"lon":5.35065,"is_reserved":false,"is_disabled":false,"rental_uris":{"android":"levelo://app?vid=ac645712-adb7-427c-9a1d-bbc03b4ccac1","ios":"levelo://app?vid=ac645712-adb7-427c-9a1d-bbc03b4ccac1"},"vehicle_type_id":"4","last_reported":1770672551,"current_range_meters":4000,"station_id":"st_cvj6sg6p6f1abm77japg","pricing_plan_id":"cebpf4jnsgd1na2vs0mg"},{"bike_id":"4017e7f1-a901-46f9-94d4-1ca6ee075cde","system_id":"levelo_inurba_marseille","lat":43.2905,"lon":5.37171,"is_reserved":false,"is_disabled":false,"rental_uris":{"android":"levelo://app?vid=4017e7f1-a901-46f9-94d4-1ca6ee075cde","ios":"levelo://app?vid=4017e7f1-a901-46f9-94d4-1ca6ee075cde"},"vehicle_type_id":"4","last_reported":1770672551,"current_range_meters":4000,"station_id":"ce4bh5p2rcd13ifvqe4g","pricing_plan_id":"cebpf4jnsgd1na2vs0mg"},{"bike_id":"70519adb-911c-4120-b6a7-3660c44ac45b","system_id":"levelo_inurba_marseille","lat":43.24732,"lon":5.39289,"is_reserved":false,"is_disabled":false,"rental_uris":{"android":"levelo://app?vid=70519adb-911c-4120-b6a7-3660c44ac45b","ios":"levelo://app?vid=70519adb-911c-4120-b6a7-3660c44ac45b"},"vehicle_type_id":"4","last_reported":1770672551,"current_range_meters":4400,"station_id":"","pricing_plan_id":"cebpf4jnsgd1na2vs0mg"},{"bike_id":"5131b3a7-3dc7-4a73-8e49-b798c30f271b","system_id":"levelo_inurba_marseille","lat":43.30948,"lon":5.4016,"is_reserved":false,"is_disabled":false,"rental_uris":{"android":"levelo://app?vid=5131b3a7-3dc7-4a73-8e49-b798c30f271b","ios":"levelo://app?vid=5131b3a7-3dc7-4a73-8e49-b798c30f271b"},"vehicle_type_id":"4","last_reported":1770672551,"current_range_meters":4400,"station_id":"ce4bgvp2rcd13ifvqct0","pricing_plan_id":"cebpf4jnsgd1na2vs0mg"},{"bike_id":"707dd2c5-36da-401a-beac-91d3b45ec1bb","system_id":"levelo_inurba_marseille","lat":43.24644,"lon":5.3815,"is_reserved":false,"is_disabled":false,"rental_uris":{"android":"levelo://app?vid=707dd2c5-36da-401a-beac-91d3b45ec1bb","ios":"levelo://app?vid=707dd2c5-36da-401a-beac-91d3b45ec1bb"},"vehicle_type_id":"4","last_reported":1770672551,"current_range_meters":4400,"station_id":"ce4bhih2rcd13ifvqfr0","pricing_plan_id":"cebpf4jnsgd1na2vs0mg"},{"bike_id":"7f82acb8-924f-41f5-9119-b3d7e4dcf745","system_id":"levelo_inurba_marseille","lat":43.24406,"lon":5.37077,"is_reserved":false,"is_disabled":false,"rental_uris":{"android":"levelo://app?vid=7f82acb8-924f-41f5-9119-b3d7e4dcf745","ios":"levelo://app?vid=7f82acb8-924f-41f5-9119-b3d7e4dcf745"},"vehicle_type_id":"4","last_reported":1770672551,"current_range_meters":4400,"station_id":"ce4bhhh2rcd13ifvqfk0","pricing_plan_id":"cebpf4jnsgd1na2vs0mg"},{"bike_id":"983fe694-b982-4f8f-8602-dcc4d84bf3c3","system_id":"levelo_inurba_marseille","lat":43.29197,"lon":5.39319,"is_reserved":false,"is_disabled":false,"rental_uris":{"android":"levelo://app?vid=983fe694-b982-4f8f-8602-dcc4d84bf3c3","ios":"levelo://app?vid=983fe694-b982-4f8f-8602-dcc4d84bf3c3"},"vehicle_type_id":"4","last_reported":1770672551,"current_range_meters":4800,"station_id":"ce4bh192rcd13ifvqdd0","pricing_plan_id":"cebpf4jnsgd1na2vs0mg"},{"bike_id":"c84e4d83-04e3-449f-9895-86dc4df2d6fd","system_id":"levelo_inurba_marseille","lat":43.28284,"lon":5.39472,"is_reserved":false,"is_disabled":false,"rental_uris":{"android":"levelo://app?vid=c84e4d83-04e3-449f-9895-86dc4df2d6fd","ios":"levelo://app?vid=c84e4d83-04e3-449f-9895-86dc4df2d6fd"},"vehicle_type_id":"4","last_reported":1770672551,"current_range_meters":4800,"station_id":"","pricing_plan_id":"cebpf4jnsgd1na2vs0mg"},{"bike_id":"d14ace5a-186c-45f9-b6a2-20b407091f63","system_id":"levelo_inurba_marseille","lat":43.31072,"lon":5.38356,"is_reserved":false,"is_disabled":false,"rental_uris":{"android":"levelo://app?vid=d14ace5a-186c-45f9-b6a2-20b407091f63","ios":"levelo://app?vid=d14ace5a-186c-45f9-b6a2-20b407091f63"},"vehicle_type_id":"4","last_reported":1770672551,"current_range_meters":4800,"station_id":"ce4bgv92rcd13ifvqcr0","pricing_plan_id":"cebpf4jnsgd1na2vs0mg"},{"bike_id":"e2c3118e-ecc2-476a-9be9-aafebb10c1c9","system_id":"levelo_inurba_marseille","lat":43.24637,"lon":5.431456,"is_reserved":false,"is_disabled":false,"rental_uris":{"android":"levelo://app?vid=e2c3118e-ecc2-476a-9be9-aafebb10c1c9","ios":"levelo://app?vid=e2c3118e-ecc2-476a-9be9-aafebb10c1c9"},"vehicle_type_id":"4","last_reported":1770672551,"current_range_meters":4800,"station_id":"st_d2m6c4gdas8pm72e190g","pricing_plan_id":"cebpf4jnsgd1na2vs0mg"},{"bike_id":"d170295b-b012-4c46-b19c-e51dfc05c763","system_id":"levelo_inurba_marseille","lat":43.31187,"lon":5.38701,"is_reserved":false,"is_disabled":false,"rental_uris":{"android":"levelo://app?vid=d170295b-b012-4c46-b19c-e51dfc05c763","ios":"levelo://app?vid=d170295b-b012-4c46-b19c-e51dfc05c763"},"vehicle_type_id":"4","last_reported":1770672551,"current_range_meters":4800,"station_id":"ce4bgv12rcd13ifvqcp0","pricing_plan_id":"cebpf4jnsgd1na2vs0mg"},{"bike_id":"9f6686fa-6a64-4fb0-b355-40c440a1d791","system_id":"levelo_inurba_marseille","lat":43.2621,"lon":5.3794,"is_reserved":false,"is_disabled":true,"rental_uris":{"android":"levelo://app?vid=9f6686fa-6a64-4fb0-b355-40c440a1d791","ios":"levelo://app?vid=9f6686fa-6a64-4fb0-b355-40c440a1d791"},"vehicle_type_id":"4","last_reported":1770672551,"current_range_meters":4800,"station_id":"ce4bhjp2rcd13ifvqg90","pricing_plan_id":"cebpf4jnsgd1na2vs0mg"},{"bike_id":"1adcbe6f-803a-426b-a2c4-f29ead84fbe1","system_id":"levelo_inurba_marseille","lat":43.286657,"lon":5.363541,"is_reserved":false,"is_disabled":false,"rental_uris":{"android":"levelo://app?vid=1adcbe6f-803a-426b-a2c4-f29ead84fbe1","ios":"levelo://app?vid=1adcbe6f-803a-426b-a2c4-f29ead84fbe1"},"vehicle_type_id":"4","last_reported":1770672551,"current_range_meters":4800,"station_id":"ce4bhah2rcd13ifvqej0","pricing_plan_id":"cebpf4jnsgd1na2vs0mg"},{"bike_id":"8ae17b81-0000-4570-ac79-fe68f254c27c","system_id":"levelo_inurba_marseille","lat":43.28725,"lon":5.37939,"is_reserved":false,"is_disabled":true,"rental_uris":{"android":"levelo://app?vid=8ae17b81-0000-4570-ac79-fe68f254c27c","ios":"levelo://app?vid=8ae17b81-0000-4570-ac79-fe68f254c27c"},"vehicle_type_id":"4","last_reported":1770672551,"current_range_meters":5600,"station_id":"ce4bh9p2rcd13ifvqec0","pricing_plan_id":"cebpf4jnsgd1na2vs0mg"},{"bike_id":"8f74c3fa-dc1b-41d7-a97b-a1645dde7e9b","system_id":"levelo_inurba_marseille","lat":43.28281,"lon":5.35066,"is_reserved":false,"is_disabled":false,"rental_uris":{"android":"levelo://app?vid=8f74c3fa-dc1b-41d7-a97b-a1645dde7e9b","ios":"levelo://app?vid=8f74c3fa-dc1b-41d7-a97b-a1645dde7e9b"},"vehicle_type_id":"4","last_reported":1770672551,"current_range_meters":5600,"station_id":"ce4bhbp2rcd13ifvqerg","pricing_plan_id":"cebpf4jnsgd1na2vs0mg"},{"bike_id":"e2230a18-5c2a-4d29-abf4-14e3e4413c7e","system_id":"levelo_inurba_marseille","lat":43.29892,"lon":5.37502,"is_reserved":false,"is_disabled":false,"rental_uris":{"android":"levelo://app?vid=e2230a18-5c2a-4d29-abf4-14e3e4413c7e","ios":"levelo://app?vid=e2230a18-5c2a-4d29-abf4-14e3e4413c7e"},"vehicle_type_id":"4","last_reported":1770672551,"current_range_meters":5600,"station_id":"ce4bgjh2rcd13ifvqbg0","pricing_plan_id":"cebpf4jnsgd1na2vs0mg"},{"bike_id":"ea048703-a9af-4966-9753-67b46180da67","system_id":"levelo_inurba_marseille","lat":43.30126,"lon":5.38781,"is_reserved":false,"is_disabled":false,"rental_uris":{"android":"levelo://app?vid=ea048703-a9af-4966-9753-67b46180da67","ios":"levelo://app?vid=ea048703-a9af-4966-9753-67b46180da67"},"vehicle_type_id":"4","last_reported":1770672551,"current_range_meters":5600,"station_id":"ce4bghh2rcd13ifvqb60","pricing_plan_id":"cebpf4jnsgd1na2vs0mg"},{"bike_id":"e261bb0b-89cd-4db4-a981-e239137e6052","system_id":"levelo_inurba_marseille","lat":43.32008,"lon":5.38137,"is_reserved":false,"is_disabled":false,"rental_uris":{"android":"levelo://app?vid=e261bb0b-89cd-4db4-a981-e239137e6052","ios":"levelo://app?vid=e261bb0b-89cd-4db4-a981-e239137e6052"},"vehicle_type_id":"4","last_reported":1770672551,"current_range_meters":5600,"station_id":"ce4bhr12rcd13ifvqhpg","pricing_plan_id":"cebpf4jnsgd1na2vs0mg"},{"bike_id":"0443e993-9f5a-4259-8c74-9ebdf133e470","system_id":"levelo_inurba_marseille","lat":43.31285,"lon":5.40175,"is_reserved":false,"is_disabled":false,"rental_uris":{"android":"levelo://app?vid=0443e993-9f5a-4259-8c74-9ebdf133e470","ios":"levelo://app?vid=0443e993-9f5a-4259-8c74-9ebdf133e470"},"vehicle_type_id":"4","last_reported":1770672551,"current_range_meters":5600,"station_id":"ce4bh092rcd13ifvqd30","pricing_plan_id":"cebpf4jnsgd1na2vs0mg"},{"bike_id":"7aa3c1d7-5233-4c89-906b-63a5ef63d8a0","system_id":"levelo_inurba_marseille","lat":43.3151,"lon":5.37304,"is_reserved":false,"is_disabled":false,"rental_uris":{"android":"levelo://app?vid=7aa3c1d7-5233-4c89-906b-63a5ef63d8a0","ios":"levelo://app?vid=7aa3c1d7-5233-4c89-906b-63a5ef63d8a0"},"vehicle_type_id":"4","last_reported":1770672551,"current_range_meters":5600,"station_id":"ce4bgt12rcd13ifvqcd0","pricing_plan_id":"cebpf4jnsgd1na2vs0mg"},{"bike_id":"2a41a4e7-1277-4985-ba78-22bce5859488","system_id":"levelo_inurba_marseille","lat":43.26003,"lon":5.40963,"is_reserved":false,"is_disabled":false,"rental_uris":{"android":"levelo://app?vid=2a41a4e7-1277-4985-ba78-22bce5859488","ios":"levelo://app?vid=2a41a4e7-1277-4985-ba78-22bce5859488"},"vehicle_type_id":"4","last_reported":1770672551,"current_range_meters":5600,"station_id":"","pricing_plan_id":"cebpf4jnsgd1na2vs0mg"},{"bike_id":"7138cdd9-0406-47dc-9db1-10bd06f4c986","system_id":"levelo_inurba_marseille","lat":43.31345,"lon":5.39726,"is_reserved":false,"is_disabled":false,"rental_uris":{"android":"levelo://app?vid=7138cdd9-0406-47dc-9db1-10bd06f4c986","ios":"levelo://app?vid=7138cdd9-0406-47dc-9db1-10bd06f4c986"},"vehicle_type_id":"4","last_reported":1770672551,"current_range_meters":5600,"station_id":"ce4bgvp2rcd13ifvqcu0","pricing_plan_id":"cebpf4jnsgd1na2vs0mg"},{"bike_id":"6fd1b106-cb38-4f27-adba-35d8789ead8d","system_id":"levelo_inurba_marseille","lat":43.3117,"lon":5.38707,"is_reserved":false,"is_disabled":false,"rental_uris":{"android":"levelo://app?vid=6fd1b106-cb38-4f27-adba-35d8789ead8d","ios":"levelo://app?vid=6fd1b106-cb38-4f27-adba-35d8789ead8d"},"vehicle_type_id":"4","last_reported":1770672551,"current_range_meters":6000,"station_id":"ce4bgv12rcd13ifvqcp0","pricing_plan_id":"cebpf4jnsgd1na2vs0mg"},{"bike_id":"ea5b640c-f9cc-4437-aff2-20b9a17b6db1","system_id":"levelo_inurba_marseille","lat":43.25911,"lon":5.40868,"is_reserved":false,"is_disabled":false,"rental_uris":{"android":"levelo://app?vid=ea5b640c-f9cc-4437-aff2-20b9a17b6db1","ios":"levelo://app?vid=ea5b640c-f9cc-4437-aff2-20b9a17b6db1"},"vehicle_type_id":"4","last_reported":1770672551,"current_range_meters":6000,"station_id":"ce4bhm92rcd13ifvqglg","pricing_plan_id":"cebpf4jnsgd1na2vs0mg"},{"bike_id":"b7373ee6-e145-4b05-80ed-3adb7fce0200","system_id":"levelo_inurba_marseille","lat":43.29573,"lon":5.36703,"is_reserved":false,"is_disabled":false,"rental_uris":{"android":"levelo://app?vid=b7373ee6-e145-4b05-80ed-3adb7fce0200","ios":"levelo://app?vid=b7373ee6-e145-4b05-80ed-3adb7fce0200"},"vehicle_type_id":"4","last_reported":1770672551,"current_range_meters":6000,"station_id":"ce4bgph2rcd13ifvqc2g","pricing_plan_id":"cebpf4jnsgd1na2vs0mg"},{"bike_id":"7b23c59a-e91f-4ebf-b287-e184212eaf2b","system_id":"levelo_inurba_marseille","lat":43.24657,"lon":5.38921,"is_reserved":false,"is_disabled":false,"rental_uris":{"android":"levelo://app?vid=7b23c59a-e91f-4ebf-b287-e184212eaf2b","ios":"levelo://app?vid=7b23c59a-e91f-4ebf-b287-e184212eaf2b"},"vehicle_type_id":"4","last_reported":1770672551,"current_range_meters":6000,"station_id":"ce4bhg12rcd13ifvqf60","pricing_plan_id":"cebpf4jnsgd1na2vs0mg"},{"bike_id":"9c356895-705a-449d-96cc-0eb6e80936bc","system_id":"levelo_inurba_marseille","lat":43.29185,"lon":5.38851,"is_reserved":false,"is_disabled":false,"rental_uris":{"android":"levelo://app?vid=9c356895-705a-449d-96cc-0eb6e80936bc","ios":"levelo://app?vid=9c356895-705a-449d-96cc-0eb6e80936bc"},"vehicle_type_id":"4","last_reported":1770672551,"current_range_meters":6000,"station_id":"","pricing_plan_id":"cebpf4jnsgd1na2vs0mg"},{"bike_id":"714adb90-f1ac-4859-ab1e-d48f2b2680c0","system_id":"levelo_inurba_marseille","lat":43.24807,"lon":5.37455,"is_reserved":false,"is_disabled":false,"rental_uris":{"android":"levelo://app?vid=714adb90-f1ac-4859-ab1e-d48f2b2680c0","ios":"levelo://app?vid=714adb90-f1ac-4859-ab1e-d48f2b2680c0"},"vehicle_type_id":"4","last_reported":1770672551,"current_range_meters":6000,"station_id":"ce4bhgh2rcd13ifvqfb0","pricing_plan_id":"cebpf4jnsgd1na2vs0mg"},{"bike_id":"777f1f50-9ccf-46db-a1bf-cfe765ca1373","system_id":"levelo_inurba_marseille","lat":43.260664,"lon":5.393915,"is_reserved":false,"is_disabled":false,"rental_uris":{"android":"levelo://app?vid=777f1f50-9ccf-46db-a1bf-cfe765ca1373","ios":"levelo://app?vid=777f1f50-9ccf-46db-a1bf-cfe765ca1373"},"vehicle_type_id":"4","last_reported":1770672551,"current_range_meters":6000,"station_id":"ce4bhh92rcd13ifvqfj0","pricing_plan_id":"cebpf4jnsgd1na2vs0mg"},{"bike_id":"aa2bf0cd-9661-4d84-8b59-aed68b60696e","system_id":"levelo_inurba_marseille","lat":43.21756,"lon":5.34618,"is_reserved":false,"is_disabled":false,"rental_uris":{"android":"levelo://app?vid=aa2bf0cd-9661-4d84-8b59-aed68b60696e","ios":"levelo://app?vid=aa2bf0cd-9661-4d84-8b59-aed68b60696e"},"vehicle_type_id":"4","last_reported":1770672551,"current_range_meters":6000,"station_id":"st_cvj6r9ubvosntc0bgbag","pricing_plan_id":"cebpf4jnsgd1na2vs0mg"},{"bike_id":"ed8676f0-40a0-4d98-a871-3be27e2c8c37","system_id":"levelo_inurba_marseille","lat":43.31556,"lon":5.38983,"is_reserved":false,"is_disabled":false,"rental_uris":{"android":"levelo://app?vid=ed8676f0-40a0-4d98-a871-3be27e2c8c37","ios":"levelo://app?vid=ed8676f0-40a0-4d98-a871-3be27e2c8c37"},"vehicle_type_id":"4","last_reported":1770672551,"current_range_meters":6000,"station_id":"","pricing_plan_id":"cebpf4jnsgd1na2vs0mg"},{"bike_id":"ed924faf-88fd-4116-bcfd-14902be42125","system_id":"levelo_inurba_marseille","lat":43.30469,"lon":5.37877,"is_reserved":false,"is_disabled":false,"rental_uris":{"android":"levelo://app?vid=ed924faf-88fd-4116-bcfd-14902be42125","ios":"levelo://app?vid=ed924faf-88fd-4116-bcfd-14902be42125"},"vehicle_type_id":"4","last_reported":1770672551,"current_range_meters":6000,"station_id":"ce4bgup2rcd13ifvqcn0","pricing_plan_id":"cebpf4jnsgd1na2vs0mg"},{"bike_id":"4b162757-7e84-45ba-8d71-140d08e2efba","system_id":"levelo_inurba_marseille","lat":43.29363,"lon":5.3789,"is_reserved":false,"is_disabled":false,"rental_uris":{"android":"levelo://app?vid=4b162757-7e84-45ba-8d71-140d08e2efba","ios":"levelo://app?vid=4b162757-7e84-45ba-8d71-140d08e2efba"},"vehicle_type_id":"4","last_reported":1770672551,"current_range_meters":6000,"station_id":"ce4bgjh2rcd13ifvqbf0","pricing_plan_id":"cebpf4jnsgd1na2vs0mg"},{"bike_id":"b65a7e72-9e74-4b3f-b167-e422d10fb3a2","system_id":"levelo_inurba_marseille","lat":43.2996,"lon":5.38616,"is_reserved":false,"is_disabled":false,"rental_uris":{"android":"levelo://app?vid=b65a7e72-9e74-4b3f-b167-e422d10fb3a2","ios":"levelo://app?vid=b65a7e72-9e74-4b3f-b167-e422d10fb3a2"},"vehicle_type_id":"4","last_reported":1770672551,"current_range_meters":6400,"station_id":"","pricing_plan_id":"cebpf4jnsgd1na2vs0mg"},{"bike_id":"16a1688f-c2f5-4bf5-96dc-0466fbc0522d","system_id":"levelo_inurba_marseille","lat":43.279696,"lon":5.386964,"is_reserved":false,"is_disabled":false,"rental_uris":{"android":"levelo://app?vid=16a1688f-c2f5-4bf5-96dc-0466fbc0522d","ios":"levelo://app?vid=16a1688f-c2f5-4bf5-96dc-0466fbc0522d"},"vehicle_type_id":"4","last_reported":1770672551,"current_range_meters":6400,"station_id":"ce4bhg12rcd13ifvqf80","pricing_plan_id":"cebpf4jnsgd1na2vs0mg"},{"bike_id":"11362055-2532-43bc-accf-dec1dfa873dc","system_id":"levelo_inurba_marseille","lat":43.235136,"lon":5.410949,"is_reserved":false,"is_disabled":false,"rental_uris":{"android":"levelo://app?vid=11362055-2532-43bc-accf-dec1dfa873dc","ios":"levelo://app?vid=11362055-2532-43bc-accf-dec1dfa873dc"},"vehicle_type_id":"4","last_reported":1770672551,"current_range_meters":6400,"station_id":"","pricing_plan_id":"cebpf4jnsgd1na2vs0mg"},{"bike_id":"d621f5e7-8acc-4ff4-a69d-a1422860881c","system_id":"levelo_inurba_marseille","lat":43.29532,"lon":5.3938,"is_reserved":false,"is_disabled":false,"rental_uris":{"android":"levelo://app?vid=d621f5e7-8acc-4ff4-a69d-a1422860881c","ios":"levelo://app?vid=d621f5e7-8acc-4ff4-a69d-a1422860881c"},"vehicle_type_id":"4","last_reported":1770672551,"current_range_meters":6400,"station_id":"ce4bh292rcd13ifvqdf0","pricing_plan_id":"cebpf4jnsgd1na2vs0mg"},{"bike_id":"fc830711-c6c4-41fc-8c3c-a2ef4151426a","system_id":"levelo_inurba_marseille","lat":43.26807,"lon":5.40248,"is_reserved":false,"is_disabled":false,"rental_uris":{"android":"levelo://app?vid=fc830711-c6c4-41fc-8c3c-a2ef4151426a","ios":"levelo://app?vid=fc830711-c6c4-41fc-8c3c-a2ef4151426a"},"vehicle_type_id":"4","last_reported":1770672551,"current_range_meters":6400,"station_id":"ce501612rcd8frsf0b60","pricing_plan_id":"cebpf4jnsgd1na2vs0mg"},{"bike_id":"a5acbbd9-5f45-4e0f-9727-2ba8aeddbdbb","system_id":"levelo_inurba_marseille","lat":43.30724,"lon":5.42445,"is_reserved":false,"is_disabled":false,"rental_uris":{"android":"levelo://app?vid=a5acbbd9-5f45-4e0f-9727-2ba8aeddbdbb","ios":"levelo://app?vid=a5acbbd9-5f45-4e0f-9727-2ba8aeddbdbb"},"vehicle_type_id":"4","last_reported":1770672551,"current_range_meters":6400,"station_id":"st_cvj6ca6bvosntc0bfgr0","pricing_plan_id":"cebpf4jnsgd1na2vs0mg"},{"bike_id":"7c82b533-62b6-42dd-8df3-6f68f234c486","system_id":"levelo_inurba_marseille","lat":43.2693,"lon":5.38869,"is_reserved":false,"is_disabled":false,"rental_uris":{"android":"levelo://app?vid=7c82b533-62b6-42dd-8df3-6f68f234c486","ios":"levelo://app?vid=7c82b533-62b6-42dd-8df3-6f68f234c486"},"vehicle_type_id":"4","last_reported":1770672551,"current_range_meters":6400,"station_id":"","pricing_plan_id":"cebpf4jnsgd1na2vs0mg"},{"bike_id":"96026421-b10c-4fce-a0b8-6d0d4656540b","system_id":"levelo_inurba_marseille","lat":43.30887,"lon":5.39665,"is_reserved":false,"is_disabled":false,"rental_uris":{"android":"levelo://app?vid=96026421-b10c-4fce-a0b8-6d0d4656540b","ios":"levelo://app?vid=96026421-b10c-4fce-a0b8-6d0d4656540b"},"vehicle_type_id":"4","last_reported":1770672551,"current_range_meters":6400,"station_id":"ce4bh012rcd13ifvqcv0","pricing_plan_id":"cebpf4jnsgd1na2vs0mg"},{"bike_id":"94dc72bb-9da0-4ebf-8855-5dd50c836569","system_id":"levelo_inurba_marseille","lat":43.28156,"lon":5.42644,"is_reserved":false,"is_disabled":false,"rental_uris":{"android":"levelo://app?vid=94dc72bb-9da0-4ebf-8855-5dd50c836569","ios":"levelo://app?vid=94dc72bb-9da0-4ebf-8855-5dd50c836569"},"vehicle_type_id":"4","last_reported":1770672551,"current_range_meters":6400,"station_id":"ce4bhnh2rcd13ifvqgug","pricing_plan_id":"cebpf4jnsgd1na2vs0mg"},{"bike_id":"e83d9e2f-7571-4d83-99bc-489b34ff4643","system_id":"levelo_inurba_marseille","lat":43.25354,"lon":5.42178,"is_reserved":false,"is_disabled":false,"rental_uris":{"android":"levelo://app?vid=e83d9e2f-7571-4d83-99bc-489b34ff4643","ios":"levelo://app?vid=e83d9e2f-7571-4d83-99bc-489b34ff4643"},"vehicle_type_id":"4","last_reported":1770672551,"current_range_meters":6400,"station_id":"st_d2m65c5bi1j21697t3ng","pricing_plan_id":"cebpf4jnsgd1na2vs0mg"},{"bike_id":"ade951fe-8fde-4fca-b8bd-34fd1a5c5b08","system_id":"levelo_inurba_marseille","lat":43.3057,"lon":5.3671,"is_reserved":false,"is_disabled":false,"rental_uris":{"android":"levelo://app?vid=ade951fe-8fde-4fca-b8bd-34fd1a5c5b08","ios":"levelo://app?vid=ade951fe-8fde-4fca-b8bd-34fd1a5c5b08"},"vehicle_type_id":"4","last_reported":1770672551,"current_range_meters":6400,"station_id":"","pricing_plan_id":"cebpf4jnsgd1na2vs0mg"},{"bike_id":"c0b6c3eb-4055-48c5-be4e-2f3633e2e95f","system_id":"levelo_inurba_marseille","lat":43.22565,"lon":5.41632,"is_reserved":false,"is_disabled":false,"rental_uris":{"android":"levelo://app?vid=c0b6c3eb-4055-48c5-be4e-2f3633e2e95f","ios":"levelo://app?vid=c0b6c3eb-4055-48c5-be4e-2f3633e2e95f"},"vehicle_type_id":"4","last_reported":1770672551,"current_range_meters":6400,"station_id":"st_d2o4gvlbi1j2169b742g","pricing_plan_id":"cebpf4jnsgd1na2vs0mg"},{"bike_id":"4ed74a89-631e-4f3d-9ffb-104dbcec7ce5","system_id":"levelo_inurba_marseille","lat":43.28005,"lon":5.40029,"is_reserved":false,"is_disabled":false,"rental_uris":{"android":"levelo://app?vid=4ed74a89-631e-4f3d-9ffb-104dbcec7ce5","ios":"levelo://app?vid=4ed74a89-631e-4f3d-9ffb-104dbcec7ce5"},"vehicle_type_id":"4","last_reported":1770672551,"current_range_meters":6400,"station_id":"ce4bho92rcd13ifvqh4g","pricing_plan_id":"cebpf4jnsgd1na2vs0mg"},{"bike_id":"0c19d373-6eb2-4333-8212-205e194a0e67","system_id":"levelo_inurba_marseille","lat":43.24396,"lon":5.37076,"is_reserved":false,"is_disabled":false,"rental_uris":{"android":"levelo://app?vid=0c19d373-6eb2-4333-8212-205e194a0e67","ios":"levelo://app?vid=0c19d373-6eb2-4333-8212-205e194a0e67"},"vehicle_type_id":"4","last_reported":1770672551,"current_range_meters":6400,"station_id":"ce4bhhh2rcd13ifvqfk0","pricing_plan_id":"cebpf4jnsgd1na2vs0mg"},{"bike_id":"e1242b72-e1d7-481b-8195-5c5f6d9a0b11","system_id":"levelo_inurba_marseille","lat":43.24634,"lon":5.43147,"is_reserved":false,"is_disabled":false,"rental_uris":{"android":"levelo://app?vid=e1242b72-e1d7-481b-8195-5c5f6d9a0b11","ios":"levelo://app?vid=e1242b72-e1d7-481b-8195-5c5f6d9a0b11"},"vehicle_type_id":"4","last_reported":1770672551,"current_range_meters":6400,"station_id":"st_d2m6c4gdas8pm72e190g","pricing_plan_id":"cebpf4jnsgd1na2vs0mg"},{"bike_id":"fc907f3f-e32f-4939-a497-0f14711e7e49","system_id":"levelo_inurba_marseille","lat":43.269515,"lon":5.386517,"is_reserved":false,"is_disabled":false,"rental_uris":{"android":"levelo://app?vid=fc907f3f-e32f-4939-a497-0f14711e7e49","ios":"levelo://app?vid=fc907f3f-e32f-4939-a497-0f14711e7e49"},"vehicle_type_id":"4","last_reported":1770672551,"current_range_meters":6400,"station_id":"ce4bhh92rcd13ifvqfh0","pricing_plan_id":"cebpf4jnsgd1na2vs0mg"},{"bike_id":"91322df4-5dae-4a08-88db-feb022ee507a","system_id":"levelo_inurba_marseille","lat":43.29036,"lon":5.39975,"is_reserved":false,"is_disabled":false,"rental_uris":{"android":"levelo://app?vid=91322df4-5dae-4a08-88db-feb022ee507a","ios":"levelo://app?vid=91322df4-5dae-4a08-88db-feb022ee507a"},"vehicle_type_id":"4","last_reported":1770672551,"current_range_meters":6400,"station_id":"ce4bh392rcd13ifvqdm0","pricing_plan_id":"cebpf4jnsgd1na2vs0mg"},{"bike_id":"d5d0ae74-54fa-4b09-99f0-8e82e1b973d1","system_id":"levelo_inurba_marseille","lat":43.21749,"lon":5.34625,"is_reserved":false,"is_disabled":false,"rental_uris":{"android":"levelo://app?vid=d5d0ae74-54fa-4b09-99f0-8e82e1b973d1","ios":"levelo://app?vid=d5d0ae74-54fa-4b09-99f0-8e82e1b973d1"},"vehicle_type_id":"4","last_reported":1770672551,"current_range_meters":6400,"station_id":"","pricing_plan_id":"cebpf4jnsgd1na2vs0mg"},{"bike_id":"53e44f9b-dd2b-4afd-82bb-645aa9877f11","system_id":"levelo_inurba_marseille","lat":43.2938,"lon":5.3786,"is_reserved":false,"is_disabled":false,"rental_uris":{"android":"levelo://app?vid=53e44f9b-dd2b-4afd-82bb-645aa9877f11","ios":"levelo://app?vid=53e44f9b-dd2b-4afd-82bb-645aa9877f11"},"vehicle_type_id":"4","last_reported":1770672551,"current_range_meters":6400,"station_id":"ce4bgjh2rcd13ifvqbf0","pricing_plan_id":"cebpf4jnsgd1na2vs0mg"},{"bike_id":"b0437b95-ba96-479d-b093-d1fdf30e7bf6","system_id":"levelo_inurba_marseille","lat":43.31451,"lon":5.40442,"is_reserved":false,"is_disabled":false,"rental_uris":{"android":"levelo://app?vid=b0437b95-ba96-479d-b093-d1fdf30e7bf6","ios":"levelo://app?vid=b0437b95-ba96-479d-b093-d1fdf30e7bf6"},"vehicle_type_id":"4","last_reported":1770672551,"current_range_meters":6400,"station_id":"","pricing_plan_id":"cebpf4jnsgd1na2vs0mg"},{"bike_id":"631ca18a-8f45-4674-bb51-5eec2347caad","system_id":"levelo_inurba_marseille","lat":43.24685,"lon":5.38161,"is_reserved":false,"is_disabled":false,"rental_uris":{"android":"levelo://app?vid=631ca18a-8f45-4674-bb51-5eec2347caad","ios":"levelo://app?vid=631ca18a-8f45-4674-bb51-5eec2347caad"},"vehicle_type_id":"4","last_reported":1770672551,"current_range_meters":6400,"station_id":"ce4bhih2rcd13ifvqfr0","pricing_plan_id":"cebpf4jnsgd1na2vs0mg"},{"bike_id":"7d59f1f1-2621-4853-91a8-34ee2eea3bf8","system_id":"levelo_inurba_marseille","lat":43.24427,"lon":5.3709,"is_reserved":false,"is_disabled":false,"rental_uris":{"android":"levelo://app?vid=7d59f1f1-2621-4853-91a8-34ee2eea3bf8","ios":"levelo://app?vid=7d59f1f1-2621-4853-91a8-34ee2eea3bf8"},"vehicle_type_id":"4","last_reported":1770672551,"current_range_meters":6800,"station_id":"ce4bhhh2rcd13ifvqfk0","pricing_plan_id":"cebpf4jnsgd1na2vs0mg"},{"bike_id":"54bd52e6-912c-41e4-90a6-85e5c05a7d3d","system_id":"levelo_inurba_marseille","lat":43.22592,"lon":5.41627,"is_reserved":false,"is_disabled":false,"rental_uris":{"android":"levelo://app?vid=54bd52e6-912c-41e4-90a6-85e5c05a7d3d","ios":"levelo://app?vid=54bd52e6-912c-41e4-90a6-85e5c05a7d3d"},"vehicle_type_id":"4","last_reported":1770672551,"current_range_meters":6800,"station_id":"st_d2o4gvlbi1j2169b742g","pricing_plan_id":"cebpf4jnsgd1na2vs0mg"},{"bike_id":"6051b31d-701e-49ad-8b8c-d5a67a21069c","system_id":"levelo_inurba_marseille","lat":43.27998,"lon":5.40021,"is_reserved":false,"is_disabled":false,"rental_uris":{"android":"levelo://app?vid=6051b31d-701e-49ad-8b8c-d5a67a21069c","ios":"levelo://app?vid=6051b31d-701e-49ad-8b8c-d5a67a21069c"},"vehicle_type_id":"4","last_reported":1770672551,"current_range_meters":6800,"station_id":"ce4bho92rcd13ifvqh4g","pricing_plan_id":"cebpf4jnsgd1na2vs0mg"},{"bike_id":"3063fa18-addf-4b6a-b22b-63fef0e879fe","system_id":"levelo_inurba_marseille","lat":43.30139,"lon":5.38791,"is_reserved":false,"is_disabled":false,"rental_uris":{"android":"levelo://app?vid=3063fa18-addf-4b6a-b22b-63fef0e879fe","ios":"levelo://app?vid=3063fa18-addf-4b6a-b22b-63fef0e879fe"},"vehicle_type_id":"4","last_reported":1770672551,"current_range_meters":6800,"station_id":"ce4bghh2rcd13ifvqb60","pricing_plan_id":"cebpf4jnsgd1na2vs0mg"},{"bike_id":"db2e5c22-9f82-4c32-b356-f06e3f0ce6ed","system_id":"levelo_inurba_marseille","lat":43.24083,"lon":5.37748,"is_reserved":false,"is_disabled":false,"rental_uris":{"android":"levelo://app?vid=db2e5c22-9f82-4c32-b356-f06e3f0ce6ed","ios":"levelo://app?vid=db2e5c22-9f82-4c32-b356-f06e3f0ce6ed"},"vehicle_type_id":"4","last_reported":1770672551,"current_range_meters":6800,"station_id":"ce4bhnp2rcd13ifvqgvg","pricing_plan_id":"cebpf4jnsgd1na2vs0mg"},{"bike_id":"0d435044-39b2-4402-857a-610b31675306","system_id":"levelo_inurba_marseille","lat":43.31087,"lon":5.37443,"is_reserved":false,"is_disabled":false,"rental_uris":{"android":"levelo://app?vid=0d435044-39b2-4402-857a-610b31675306","ios":"levelo://app?vid=0d435044-39b2-4402-857a-610b31675306"},"vehicle_type_id":"4","last_reported":1770672551,"current_range_meters":6800,"station_id":"","pricing_plan_id":"cebpf4jnsgd1na2vs0mg"},{"bike_id":"fe6f8294-65ba-45f1-a4f6-c1ee0f12ef18","system_id":"levelo_inurba_marseille","lat":43.22554,"lon":5.41621,"is_reserved":false,"is_disabled":false,"rental_uris":{"android":"levelo://app?vid=fe6f8294-65ba-45f1-a4f6-c1ee0f12ef18","ios":"levelo://app?vid=fe6f8294-65ba-45f1-a4f6-c1ee0f12ef18"},"vehicle_type_id":"4","last_reported":1770672551,"current_range_meters":6800,"station_id":"st_d2o4gvlbi1j2169b742g","pricing_plan_id":"cebpf4jnsgd1na2vs0mg"},{"bike_id":"d6e0f210-46b5-4d7e-8bfd-97815e82e64a","system_id":"levelo_inurba_marseille","lat":43.286701,"lon":5.363541,"is_reserved":false,"is_disabled":false,"rental_uris":{"android":"levelo://app?vid=d6e0f210-46b5-4d7e-8bfd-97815e82e64a","ios":"levelo://app?vid=d6e0f210-46b5-4d7e-8bfd-97815e82e64a"},"vehicle_type_id":"4","last_reported":1770672551,"current_range_meters":6800,"station_id":"ce4bhah2rcd13ifvqej0","pricing_plan_id":"cebpf4jnsgd1na2vs0mg"},{"bike_id":"d917330e-8029-461a-95c3-ed551a62a88f","system_id":"levelo_inurba_marseille","lat":43.22574,"lon":5.41682,"is_reserved":false,"is_disabled":false,"rental_uris":{"android":"levelo://app?vid=d917330e-8029-461a-95c3-ed551a62a88f","ios":"levelo://app?vid=d917330e-8029-461a-95c3-ed551a62a88f"},"vehicle_type_id":"4","last_reported":1770672551,"current_range_meters":6800,"station_id":"st_d2o4gvlbi1j2169b742g","pricing_plan_id":"cebpf4jnsgd1na2vs0mg"},{"bike_id":"e392d9e4-679d-49ea-8209-6cc157225cab","system_id":"levelo_inurba_marseille","lat":43.25108,"lon":5.40332,"is_reserved":false,"is_disabled":false,"rental_uris":{"android":"levelo://app?vid=e392d9e4-679d-49ea-8209-6cc157225cab","ios":"levelo://app?vid=e392d9e4-679d-49ea-8209-6cc157225cab"},"vehicle_type_id":"4","last_reported":1770672551,"current_range_meters":6800,"station_id":"ce4bhlh2rcd13ifvqgig","pricing_plan_id":"cebpf4jnsgd1na2vs0mg"},{"bike_id":"74581b32-9a8b-4a2e-8a1c-93229ccfcc6d","system_id":"levelo_inurba_marseille","lat":43.27567,"lon":5.38426,"is_reserved":false,"is_disabled":false,"rental_uris":{"android":"levelo://app?vid=74581b32-9a8b-4a2e-8a1c-93229ccfcc6d","ios":"levelo://app?vid=74581b32-9a8b-4a2e-8a1c-93229ccfcc6d"},"vehicle_type_id":"4","last_reported":1770672551,"current_range_meters":6800,"station_id":"ce4bhh92rcd13ifvqfi0","pricing_plan_id":"cebpf4jnsgd1na2vs0mg"},{"bike_id":"91fdd7ab-d339-4963-8616-9757378509a7","system_id":"levelo_inurba_marseille","lat":43.28638,"lon":5.37067,"is_reserved":false,"is_disabled":false,"rental_uris":{"android":"levelo://app?vid=91fdd7ab-d339-4963-8616-9757378509a7","ios":"levelo://app?vid=91fdd7ab-d339-4963-8616-9757378509a7"},"vehicle_type_id":"4","last_reported":1770672551,"current_range_meters":6800,"station_id":"ce4bht12rcd13ifvqi60","pricing_plan_id":"cebpf4jnsgd1na2vs0mg"},{"bike_id":"6e043c13-5a31-4e0d-9658-13d292ba1363","system_id":"levelo_inurba_marseille","lat":43.26213,"lon":5.37922,"is_reserved":false,"is_disabled":false,"rental_uris":{"android":"levelo://app?vid=6e043c13-5a31-4e0d-9658-13d292ba1363","ios":"levelo://app?vid=6e043c13-5a31-4e0d-9658-13d292ba1363"},"vehicle_type_id":"4","last_reported":1770672551,"current_range_meters":6800,"station_id":"ce4bhjp2rcd13ifvqg90","pricing_plan_id":"cebpf4jnsgd1na2vs0mg"},{"bike_id":"7e01f57b-ade8-4cc3-81c3-76e88fac1321","system_id":"levelo_inurba_marseille","lat":43.2851,"lon":5.48426,"is_reserved":false,"is_disabled":false,"rental_uris":{"android":"levelo://app?vid=7e01f57b-ade8-4cc3-81c3-76e88fac1321","ios":"levelo://app?vid=7e01f57b-ade8-4cc3-81c3-76e88fac1321"},"vehicle_type_id":"4","last_reported":1770672551,"current_range_meters":6800,"station_id":"st_d3svhcjqgbts73a3dn0g","pricing_plan_id":"cebpf4jnsgd1na2vs0mg"},{"bike_id":"8bef53ea-8eaf-4178-b831-97fbd54144a8","system_id":"levelo_inurba_marseille","lat":43.26215,"lon":5.40432,"is_reserved":false,"is_disabled":false,"rental_uris":{"android":"levelo://app?vid=8bef53ea-8eaf-4178-b831-97fbd54144a8","ios":"levelo://app?vid=8bef53ea-8eaf-4178-b831-97fbd54144a8"},"vehicle_type_id":"4","last_reported":1770672551,"current_range_meters":6800,"station_id":"ce4bhmh2rcd13ifvqgmg","pricing_plan_id":"cebpf4jnsgd1na2vs0mg"},{"bike_id":"56210cfe-38cc-4638-97ff-d22716f31001","system_id":"levelo_inurba_marseille","lat":43.32068,"lon":5.41547,"is_reserved":false,"is_disabled":false,"rental_uris":{"android":"levelo://app?vid=56210cfe-38cc-4638-97ff-d22716f31001","ios":"levelo://app?vid=56210cfe-38cc-4638-97ff-d22716f31001"},"vehicle_type_id":"4","last_reported":1770672551,"current_range_meters":6800,"station_id":"ce4bhq92rcd13ifvqhkg","pricing_plan_id":"cebpf4jnsgd1na2vs0mg"},{"bike_id":"0bcc3703-c111-48ab-a4fd-1ed90546ea3f","system_id":"levelo_inurba_marseille","lat":43.31079,"lon":5.38381,"is_reserved":false,"is_disabled":false,"rental_uris":{"android":"levelo://app?vid=0bcc3703-c111-48ab-a4fd-1ed90546ea3f","ios":"levelo://app?vid=0bcc3703-c111-48ab-a4fd-1ed90546ea3f"},"vehicle_type_id":"4","last_reported":1770672551,"current_range_meters":6800,"station_id":"ce4bgv92rcd13ifvqcr0","pricing_plan_id":"cebpf4jnsgd1na2vs0mg"},{"bike_id":"818c414c-c9b8-4b39-8f4c-622d1c0380f5","system_id":"levelo_inurba_marseille","lat":43.28865,"lon":5.39321,"is_reserved":false,"is_disabled":false,"rental_uris":{"android":"levelo://app?vid=818c414c-c9b8-4b39-8f4c-622d1c0380f5","ios":"levelo://app?vid=818c414c-c9b8-4b39-8f4c-622d1c0380f5"},"vehicle_type_id":"4","last_reported":1770672551,"current_range_meters":6800,"station_id":"ce4bh2p2rcd13ifvqdi0","pricing_plan_id":"cebpf4jnsgd1na2vs0mg"},{"bike_id":"40ca09fe-7866-480e-ac60-f7b7f539bb36","system_id":"levelo_inurba_marseille","lat":43.23406,"lon":5.41242,"is_reserved":false,"is_disabled":false,"rental_uris":{"android":"levelo://app?vid=40ca09fe-7866-480e-ac60-f7b7f539bb36","ios":"levelo://app?vid=40ca09fe-7866-480e-ac60-f7b7f539bb36"},"vehicle_type_id":"4","last_reported":1770672551,"current_range_meters":6800,"station_id":"","pricing_plan_id":"cebpf4jnsgd1na2vs0mg"},{"bike_id":"9a0a4f5b-d5f2-4be0-a4fa-450256499716","system_id":"levelo_inurba_marseille","lat":43.26977,"lon":5.39895,"is_reserved":false,"is_disabled":false,"rental_uris":{"android":"levelo://app?vid=9a0a4f5b-d5f2-4be0-a4fa-450256499716","ios":"levelo://app?vid=9a0a4f5b-d5f2-4be0-a4fa-450256499716"},"vehicle_type_id":"4","last_reported":1770672551,"current_range_meters":6800,"station_id":"","pricing_plan_id":"cebpf4jnsgd1na2vs0mg"},{"bike_id":"c47f9d06-e2e7-4f1a-9efa-21197e8b1082","system_id":"levelo_inurba_marseille","lat":43.28524,"lon":5.38547,"is_reserved":false,"is_disabled":false,"rental_uris":{"android":"levelo://app?vid=c47f9d06-e2e7-4f1a-9efa-21197e8b1082","ios":"levelo://app?vid=c47f9d06-e2e7-4f1a-9efa-21197e8b1082"},"vehicle_type_id":"4","last_reported":1770672551,"current_range_meters":6800,"station_id":"","pricing_plan_id":"cebpf4jnsgd1na2vs0mg"},{"bike_id":"7a540907-dca9-438e-a691-3d134c86af63","system_id":"levelo_inurba_marseille","lat":43.31064,"lon":5.38364,"is_reserved":false,"is_disabled":false,"rental_uris":{"android":"levelo://app?vid=7a540907-dca9-438e-a691-3d134c86af63","ios":"levelo://app?vid=7a540907-dca9-438e-a691-3d134c86af63"},"vehicle_type_id":"4","last_reported":1770672551,"current_range_meters":6800,"station_id":"ce4bgv92rcd13ifvqcr0","pricing_plan_id":"cebpf4jnsgd1na2vs0mg"},{"bike_id":"4f801ac8-7e18-4f4e-813d-e2c4b2346d28","system_id":"levelo_inurba_marseille","lat":43.26526,"lon":5.38974,"is_reserved":false,"is_disabled":false,"rental_uris":{"android":"levelo://app?vid=4f801ac8-7e18-4f4e-813d-e2c4b2346d28","ios":"levelo://app?vid=4f801ac8-7e18-4f4e-813d-e2c4b2346d28"},"vehicle_type_id":"4","last_reported":1770672551,"current_range_meters":6800,"station_id":"ce4bhe12rcd13ifvqf30","pricing_plan_id":"cebpf4jnsgd1na2vs0mg"},{"bike_id":"fd158031-c8ec-435b-b315-8360533800f5","system_id":"levelo_inurba_marseille","lat":43.26245,"lon":5.40459,"is_reserved":false,"is_disabled":true,"rental_uris":{"android":"levelo://app?vid=fd158031-c8ec-435b-b315-8360533800f5","ios":"levelo://app?vid=fd158031-c8ec-435b-b315-8360533800f5"},"vehicle_type_id":"4","last_reported":1770672551,"current_range_meters":7200,"station_id":"ce4bhmh2rcd13ifvqgmg","pricing_plan_id":"cebpf4jnsgd1na2vs0mg"},{"bike_id":"a07cd24c-7e73-437e-917a-60bdbc1072fc","system_id":"levelo_inurba_marseille","lat":43.24404,"lon":5.37071,"is_reserved":false,"is_disabled":false,"rental_uris":{"android":"levelo://app?vid=a07cd24c-7e73-437e-917a-60bdbc1072fc","ios":"levelo://app?vid=a07cd24c-7e73-437e-917a-60bdbc1072fc"},"vehicle_type_id":"4","last_reported":1770672551,"current_range_meters":7200,"station_id":"ce4bhhh2rcd13ifvqfk0","pricing_plan_id":"cebpf4jnsgd1na2vs0mg"},{"bike_id":"f23a5ea8-cccd-472e-abcc-91e4bbd449a7","system_id":"levelo_inurba_marseille","lat":43.30316,"lon":5.3691,"is_reserved":false,"is_disabled":true,"rental_uris":{"android":"levelo://app?vid=f23a5ea8-cccd-472e-abcc-91e4bbd449a7","ios":"levelo://app?vid=f23a5ea8-cccd-472e-abcc-91e4bbd449a7"},"vehicle_type_id":"4","last_reported":1770672551,"current_range_meters":7200,"station_id":"ce4bgqh2rcd13ifvqc5g","pricing_plan_id":"cebpf4jnsgd1na2vs0mg"},{"bike_id":"8d65ea59-159e-4e8e-8acb-244f43059bc9","system_id":"levelo_inurba_marseille","lat":43.24219,"lon":5.36451,"is_reserved":false,"is_disabled":false,"rental_uris":{"android":"levelo://app?vid=8d65ea59-159e-4e8e-8acb-244f43059bc9","ios":"levelo://app?vid=8d65ea59-159e-4e8e-8acb-244f43059bc9"},"vehicle_type_id":"4","last_reported":1770672551,"current_range_meters":7200,"station_id":"","pricing_plan_id":"cebpf4jnsgd1na2vs0mg"},{"bike_id":"36ac8fb1-1e6b-4c04-8e8e-9441a471d5f6","system_id":"levelo_inurba_marseille","lat":43.28488,"lon":5.48371,"is_reserved":false,"is_disabled":false,"rental_uris":{"android":"levelo://app?vid=36ac8fb1-1e6b-4c04-8e8e-9441a471d5f6","ios":"levelo://app?vid=36ac8fb1-1e6b-4c04-8e8e-9441a471d5f6"},"vehicle_type_id":"4","last_reported":1770672551,"current_range_meters":7200,"station_id":"st_d3svhcjqgbts73a3dn0g","pricing_plan_id":"cebpf4jnsgd1na2vs0mg"},{"bike_id":"e8bb3f15-b7c5-47d2-b9bc-e4535782c9ef","system_id":"levelo_inurba_marseille","lat":43.25575,"lon":5.38239,"is_reserved":false,"is_disabled":false,"rental_uris":{"android":"levelo://app?vid=e8bb3f15-b7c5-47d2-b9bc-e4535782c9ef","ios":"levelo://app?vid=e8bb3f15-b7c5-47d2-b9bc-e4535782c9ef"},"vehicle_type_id":"4","last_reported":1770672551,"current_range_meters":7200,"station_id":"ce4bhih2rcd13ifvqfs0","pricing_plan_id":"cebpf4jnsgd1na2vs0mg"},{"bike_id":"1fa76a45-f289-437d-94cc-e8c22daeef5f","system_id":"levelo_inurba_marseille","lat":43.28875,"lon":5.42528,"is_reserved":false,"is_disabled":false,"rental_uris":{"android":"levelo://app?vid=1fa76a45-f289-437d-94cc-e8c22daeef5f","ios":"levelo://app?vid=1fa76a45-f289-437d-94cc-e8c22daeef5f"},"vehicle_type_id":"4","last_reported":1770672551,"current_range_meters":7200,"station_id":"st_d3b462108ojc7389ooeg","pricing_plan_id":"cebpf4jnsgd1na2vs0mg"},{"bike_id":"286b6ff3-cad3-40cc-8457-9f3961da585f","system_id":"levelo_inurba_marseille","lat":43.26046,"lon":5.37562,"is_reserved":false,"is_disabled":false,"rental_uris":{"android":"levelo://app?vid=286b6ff3-cad3-40cc-8457-9f3961da585f","ios":"levelo://app?vid=286b6ff3-cad3-40cc-8457-9f3961da585f"},"vehicle_type_id":"4","last_reported":1770672551,"current_range_meters":7200,"station_id":"ce4bhgh2rcd13ifvqfa0","pricing_plan_id":"cebpf4jnsgd1na2vs0mg"},{"bike_id":"2deb45fa-cb82-48cc-9169-0ddc074570fe","system_id":"levelo_inurba_marseille","lat":43.31133,"lon":5.44693,"is_reserved":false,"is_disabled":false,"rental_uris":{"android":"levelo://app?vid=2deb45fa-cb82-48cc-9169-0ddc074570fe","ios":"levelo://app?vid=2deb45fa-cb82-48cc-9169-0ddc074570fe"},"vehicle_type_id":"4","last_reported":1770672551,"current_range_meters":7200,"station_id":"","pricing_plan_id":"cebpf4jnsgd1na2vs0mg"},{"bike_id":"6e79fd0f-9e8e-4459-8240-57d4fd86c647","system_id":"levelo_inurba_marseille","lat":43.29762,"lon":5.38109,"is_reserved":false,"is_disabled":false,"rental_uris":{"android":"levelo://app?vid=6e79fd0f-9e8e-4459-8240-57d4fd86c647","ios":"levelo://app?vid=6e79fd0f-9e8e-4459-8240-57d4fd86c647"},"vehicle_type_id":"4","last_reported":1770672551,"current_range_meters":7200,"station_id":"ce4bgip2rcd13ifvqbb0","pricing_plan_id":"cebpf4jnsgd1na2vs0mg"},{"bike_id":"6316a440-6079-4cd7-8710-8e12c6c0a2b7","system_id":"levelo_inurba_marseille","lat":43.29932,"lon":5.43705,"is_reserved":false,"is_disabled":false,"rental_uris":{"android":"levelo://app?vid=6316a440-6079-4cd7-8710-8e12c6c0a2b7","ios":"levelo://app?vid=6316a440-6079-4cd7-8710-8e12c6c0a2b7"},"vehicle_type_id":"4","last_reported":1770672551,"current_range_meters":7200,"station_id":"","pricing_plan_id":"cebpf4jnsgd1na2vs0mg"},{"bike_id":"af109b45-02d2-41f8-be4b-42b484fd3394","system_id":"levelo_inurba_marseille","lat":43.29933,"lon":5.43657,"is_reserved":false,"is_disabled":false,"rental_uris":{"android":"levelo://app?vid=af109b45-02d2-41f8-be4b-42b484fd3394","ios":"levelo://app?vid=af109b45-02d2-41f8-be4b-42b484fd3394"},"vehicle_type_id":"4","last_reported":1770672551,"current_range_meters":7200,"station_id":"","pricing_plan_id":"cebpf4jnsgd1na2vs0mg"},{"bike_id":"fa616fa2-439d-4f1b-934d-4af8464be864","system_id":"levelo_inurba_marseille","lat":43.28681,"lon":5.36325,"is_reserved":false,"is_disabled":false,"rental_uris":{"android":"levelo://app?vid=fa616fa2-439d-4f1b-934d-4af8464be864","ios":"levelo://app?vid=fa616fa2-439d-4f1b-934d-4af8464be864"},"vehicle_type_id":"4","last_reported":1770672551,"current_range_meters":8000,"station_id":"ce4bhah2rcd13ifvqej0","pricing_plan_id":"cebpf4jnsgd1na2vs0mg"},{"bike_id":"73d40cef-8833-4f02-88bd-429ead79640e","system_id":"levelo_inurba_marseille","lat":43.27805,"lon":5.4072,"is_reserved":false,"is_disabled":false,"rental_uris":{"android":"levelo://app?vid=73d40cef-8833-4f02-88bd-429ead79640e","ios":"levelo://app?vid=73d40cef-8833-4f02-88bd-429ead79640e"},"vehicle_type_id":"4","last_reported":1770672551,"current_range_meters":8000,"station_id":"ce4bhnh2rcd13ifvqgtg","pricing_plan_id":"cebpf4jnsgd1na2vs0mg"},{"bike_id":"7f6ef8fc-1579-4912-b00d-edf7547220b9","system_id":"levelo_inurba_marseille","lat":43.27075,"lon":5.42294,"is_reserved":false,"is_disabled":false,"rental_uris":{"android":"levelo://app?vid=7f6ef8fc-1579-4912-b00d-edf7547220b9","ios":"levelo://app?vid=7f6ef8fc-1579-4912-b00d-edf7547220b9"},"vehicle_type_id":"4","last_reported":1770672551,"current_range_meters":8000,"station_id":"ce4bhk92rcd13ifvqgb0","pricing_plan_id":"cebpf4jnsgd1na2vs0mg"},{"bike_id":"1867ef81-cf62-4e81-bfa8-83561c8efb53","system_id":"levelo_inurba_marseille","lat":43.30148,"lon":5.39855,"is_reserved":false,"is_disabled":false,"rental_uris":{"android":"levelo://app?vid=1867ef81-cf62-4e81-bfa8-83561c8efb53","ios":"levelo://app?vid=1867ef81-cf62-4e81-bfa8-83561c8efb53"},"vehicle_type_id":"4","last_reported":1770672551,"current_range_meters":8000,"station_id":"ce4bh0h2rcd13ifvqd40","pricing_plan_id":"cebpf4jnsgd1na2vs0mg"},{"bike_id":"9b51a2e6-7390-417b-8756-92f08ca0518f","system_id":"levelo_inurba_marseille","lat":43.31116,"lon":5.37765,"is_reserved":false,"is_disabled":false,"rental_uris":{"android":"levelo://app?vid=9b51a2e6-7390-417b-8756-92f08ca0518f","ios":"levelo://app?vid=9b51a2e6-7390-417b-8756-92f08ca0518f"},"vehicle_type_id":"4","last_reported":1770672551,"current_range_meters":8000,"station_id":"ce4bgt92rcd13ifvqcg0","pricing_plan_id":"cebpf4jnsgd1na2vs0mg"},{"bike_id":"c905e704-6f56-4fbe-8269-605a142ba243","system_id":"levelo_inurba_marseille","lat":43.2467,"lon":5.38921,"is_reserved":false,"is_disabled":true,"rental_uris":{"android":"levelo://app?vid=c905e704-6f56-4fbe-8269-605a142ba243","ios":"levelo://app?vid=c905e704-6f56-4fbe-8269-605a142ba243"},"vehicle_type_id":"4","last_reported":1770672551,"current_range_meters":8000,"station_id":"ce4bhg12rcd13ifvqf60","pricing_plan_id":"cebpf4jnsgd1na2vs0mg"},{"bike_id":"c0753566-8312-488e-8b9c-2e80228c855b","system_id":"levelo_inurba_marseille","lat":43.26569,"lon":5.39033,"is_reserved":false,"is_disabled":false,"rental_uris":{"android":"levelo://app?vid=c0753566-8312-488e-8b9c-2e80228c855b","ios":"levelo://app?vid=c0753566-8312-488e-8b9c-2e80228c855b"},"vehicle_type_id":"4","last_reported":1770672551,"current_range_meters":8000,"station_id":"ce4bhe12rcd13ifvqf30","pricing_plan_id":"cebpf4jnsgd1na2vs0mg"},{"bike_id":"85dd1ff3-48fb-473b-a6b8-2f438c995677","system_id":"levelo_inurba_marseille","lat":43.299,"lon":5.4365,"is_reserved":false,"is_disabled":false,"rental_uris":{"android":"levelo://app?vid=85dd1ff3-48fb-473b-a6b8-2f438c995677","ios":"levelo://app?vid=85dd1ff3-48fb-473b-a6b8-2f438c995677"},"vehicle_type_id":"4","last_reported":1770672551,"current_range_meters":8000,"station_id":"ce4bhpp2rcd13ifvqhfg","pricing_plan_id":"cebpf4jnsgd1na2vs0mg"},{"bike_id":"83062ade-c076-467d-b125-720c7e101dca","system_id":"levelo_inurba_marseille","lat":43.29618,"lon":5.37717,"is_reserved":false,"is_disabled":true,"rental_uris":{"android":"levelo://app?vid=83062ade-c076-467d-b125-720c7e101dca","ios":"levelo://app?vid=83062ade-c076-467d-b125-720c7e101dca"},"vehicle_type_id":"4","last_reported":1770672551,"current_range_meters":8000,"station_id":"ce4bgi92rcd13ifvqb90","pricing_plan_id":"cebpf4jnsgd1na2vs0mg"},{"bike_id":"2de93526-0696-4e47-bb83-ac0ca8dcb46b","system_id":"levelo_inurba_marseille","lat":43.28153,"lon":5.42644,"is_reserved":false,"is_disabled":false,"rental_uris":{"android":"levelo://app?vid=2de93526-0696-4e47-bb83-ac0ca8dcb46b","ios":"levelo://app?vid=2de93526-0696-4e47-bb83-ac0ca8dcb46b"},"vehicle_type_id":"4","last_reported":1770672551,"current_range_meters":8000,"station_id":"ce4bhnh2rcd13ifvqgug","pricing_plan_id":"cebpf4jnsgd1na2vs0mg"},{"bike_id":"738ace95-69b5-422f-91a8-940bb61d6675","system_id":"levelo_inurba_marseille","lat":43.31852,"lon":5.37965,"is_reserved":false,"is_disabled":false,"rental_uris":{"android":"levelo://app?vid=738ace95-69b5-422f-91a8-940bb61d6675","ios":"levelo://app?vid=738ace95-69b5-422f-91a8-940bb61d6675"},"vehicle_type_id":"4","last_reported":1770672551,"current_range_meters":8000,"station_id":"","pricing_plan_id":"cebpf4jnsgd1na2vs0mg"},{"bike_id":"b6c62c70-6878-46c9-8d0c-4f4873a6a803","system_id":"levelo_inurba_marseille","lat":43.28846,"lon":5.35885,"is_reserved":false,"is_disabled":false,"rental_uris":{"android":"levelo://app?vid=b6c62c70-6878-46c9-8d0c-4f4873a6a803","ios":"levelo://app?vid=b6c62c70-6878-46c9-8d0c-4f4873a6a803"},"vehicle_type_id":"4","last_reported":1770672551,"current_range_meters":8000,"station_id":"ce4bhb12rcd13ifvqem0","pricing_plan_id":"cebpf4jnsgd1na2vs0mg"},{"bike_id":"971b48dd-c7a4-4deb-8d64-56d2c1c381de","system_id":"levelo_inurba_marseille","lat":43.26378,"lon":5.41053,"is_reserved":false,"is_disabled":false,"rental_uris":{"android":"levelo://app?vid=971b48dd-c7a4-4deb-8d64-56d2c1c381de","ios":"levelo://app?vid=971b48dd-c7a4-4deb-8d64-56d2c1c381de"},"vehicle_type_id":"4","last_reported":1770672551,"current_range_meters":8000,"station_id":"st_d4e5ca6na9uc73bfl5fg","pricing_plan_id":"cebpf4jnsgd1na2vs0mg"},{"bike_id":"8f91f29e-0897-43d8-a3cf-8b8240b92337","system_id":"levelo_inurba_marseille","lat":43.29898,"lon":5.43667,"is_reserved":false,"is_disabled":false,"rental_uris":{"android":"levelo://app?vid=8f91f29e-0897-43d8-a3cf-8b8240b92337","ios":"levelo://app?vid=8f91f29e-0897-43d8-a3cf-8b8240b92337"},"vehicle_type_id":"4","last_reported":1770672551,"current_range_meters":8000,"station_id":"ce4bhpp2rcd13ifvqhfg","pricing_plan_id":"cebpf4jnsgd1na2vs0mg"},{"bike_id":"9181861d-3c4b-4770-b545-363c30923e26","system_id":"levelo_inurba_marseille","lat":43.28475,"lon":5.48397,"is_reserved":false,"is_disabled":false,"rental_uris":{"android":"levelo://app?vid=9181861d-3c4b-4770-b545-363c30923e26","ios":"levelo://app?vid=9181861d-3c4b-4770-b545-363c30923e26"},"vehicle_type_id":"4","last_reported":1770672551,"current_range_meters":8000,"station_id":"st_d3svhcjqgbts73a3dn0g","pricing_plan_id":"cebpf4jnsgd1na2vs0mg"},{"bike_id":"e20506fc-81c8-45aa-af10-6b0aa01b93ce","system_id":"levelo_inurba_marseille","lat":43.2561,"lon":5.38251,"is_reserved":false,"is_disabled":false,"rental_uris":{"android":"levelo://app?vid=e20506fc-81c8-45aa-af10-6b0aa01b93ce","ios":"levelo://app?vid=e20506fc-81c8-45aa-af10-6b0aa01b93ce"},"vehicle_type_id":"4","last_reported":1770672551,"current_range_meters":8000,"station_id":"ce4bhih2rcd13ifvqfs0","pricing_plan_id":"cebpf4jnsgd1na2vs0mg"},{"bike_id":"ba1935d6-4428-4636-82c0-3c7e91c38acb","system_id":"levelo_inurba_marseille","lat":43.311,"lon":5.37783,"is_reserved":false,"is_disabled":false,"rental_uris":{"android":"levelo://app?vid=ba1935d6-4428-4636-82c0-3c7e91c38acb","ios":"levelo://app?vid=ba1935d6-4428-4636-82c0-3c7e91c38acb"},"vehicle_type_id":"4","last_reported":1770672551,"current_range_meters":8000,"station_id":"ce4bgt92rcd13ifvqcg0","pricing_plan_id":"cebpf4jnsgd1na2vs0mg"},{"bike_id":"d003f352-b13e-4663-93b0-134844aa3e3d","system_id":"levelo_inurba_marseille","lat":43.30907,"lon":5.39681,"is_reserved":false,"is_disabled":false,"rental_uris":{"android":"levelo://app?vid=d003f352-b13e-4663-93b0-134844aa3e3d","ios":"levelo://app?vid=d003f352-b13e-4663-93b0-134844aa3e3d"},"vehicle_type_id":"4","last_reported":1770672551,"current_range_meters":8000,"station_id":"ce4bh012rcd13ifvqcv0","pricing_plan_id":"cebpf4jnsgd1na2vs0mg"},{"bike_id":"b6ef09ed-d357-4465-bd2f-ee587e4263cc","system_id":"levelo_inurba_marseille","lat":43.2844,"lon":5.41006,"is_reserved":false,"is_disabled":false,"rental_uris":{"android":"levelo://app?vid=b6ef09ed-d357-4465-bd2f-ee587e4263cc","ios":"levelo://app?vid=b6ef09ed-d357-4465-bd2f-ee587e4263cc"},"vehicle_type_id":"4","last_reported":1770672551,"current_range_meters":8000,"station_id":"","pricing_plan_id":"cebpf4jnsgd1na2vs0mg"},{"bike_id":"78f7c85a-1171-4b2a-a3da-c9d84e61c9ce","system_id":"levelo_inurba_marseille","lat":43.29544,"lon":5.38553,"is_reserved":false,"is_disabled":false,"rental_uris":{"android":"levelo://app?vid=78f7c85a-1171-4b2a-a3da-c9d84e61c9ce","ios":"levelo://app?vid=78f7c85a-1171-4b2a-a3da-c9d84e61c9ce"},"vehicle_type_id":"4","last_reported":1770672551,"current_range_meters":8000,"station_id":"ce4bgih2rcd13ifvqba0","pricing_plan_id":"cebpf4jnsgd1na2vs0mg"},{"bike_id":"dcffb64c-9bea-40cd-a5fe-c7eeb8475cd8","system_id":"levelo_inurba_marseille","lat":43.302915,"lon":5.376953,"is_reserved":false,"is_disabled":true,"rental_uris":{"android":"levelo://app?vid=dcffb64c-9bea-40cd-a5fe-c7eeb8475cd8","ios":"levelo://app?vid=dcffb64c-9bea-40cd-a5fe-c7eeb8475cd8"},"vehicle_type_id":"4","last_reported":1770672551,"current_range_meters":8400,"station_id":"ce4bguh2rcd13ifvqcj0","pricing_plan_id":"cebpf4jnsgd1na2vs0mg"},{"bike_id":"4240880d-88bf-48aa-91ea-700e773e4fa1","system_id":"levelo_inurba_marseille","lat":43.25552,"lon":5.38227,"is_reserved":false,"is_disabled":false,"rental_uris":{"android":"levelo://app?vid=4240880d-88bf-48aa-91ea-700e773e4fa1","ios":"levelo://app?vid=4240880d-88bf-48aa-91ea-700e773e4fa1"},"vehicle_type_id":"4","last_reported":1770672551,"current_range_meters":8400,"station_id":"ce4bhih2rcd13ifvqfs0","pricing_plan_id":"cebpf4jnsgd1na2vs0mg"},{"bike_id":"81089c31-0f23-400c-91cf-65461521d37b","system_id":"levelo_inurba_marseille","lat":43.25838,"lon":5.3937,"is_reserved":false,"is_disabled":false,"rental_uris":{"android":"levelo://app?vid=81089c31-0f23-400c-91cf-65461521d37b","ios":"levelo://app?vid=81089c31-0f23-400c-91cf-65461521d37b"},"vehicle_type_id":"4","last_reported":1770672551,"current_range_meters":8400,"station_id":"","pricing_plan_id":"cebpf4jnsgd1na2vs0mg"},{"bike_id":"ea63553f-5c91-4785-8210-3eee831799a5","system_id":"levelo_inurba_marseille","lat":43.29297,"lon":5.37466,"is_reserved":false,"is_disabled":false,"rental_uris":{"android":"levelo://app?vid=ea63553f-5c91-4785-8210-3eee831799a5","ios":"levelo://app?vid=ea63553f-5c91-4785-8210-3eee831799a5"},"vehicle_type_id":"4","last_reported":1770672551,"current_range_meters":8400,"station_id":"ce4bgi12rcd13ifvqb70","pricing_plan_id":"cebpf4jnsgd1na2vs0mg"},{"bike_id":"f3f6fbc6-43d5-47da-82b6-762e4e722ce6","system_id":"levelo_inurba_marseille","lat":43.27993,"lon":5.41349,"is_reserved":false,"is_disabled":false,"rental_uris":{"android":"levelo://app?vid=f3f6fbc6-43d5-47da-82b6-762e4e722ce6","ios":"levelo://app?vid=f3f6fbc6-43d5-47da-82b6-762e4e722ce6"},"vehicle_type_id":"4","last_reported":1770672551,"current_range_meters":8400,"station_id":"","pricing_plan_id":"cebpf4jnsgd1na2vs0mg"},{"bike_id":"05d628e9-781f-4f77-a9a7-087d759ed084","system_id":"levelo_inurba_marseille","lat":43.22892,"lon":5.35373,"is_reserved":false,"is_disabled":false,"rental_uris":{"android":"levelo://app?vid=05d628e9-781f-4f77-a9a7-087d759ed084","ios":"levelo://app?vid=05d628e9-781f-4f77-a9a7-087d759ed084"},"vehicle_type_id":"4","last_reported":1770672551,"current_range_meters":8400,"station_id":"cpo3532slgdg3j2ikp40","pricing_plan_id":"cebpf4jnsgd1na2vs0mg"},{"bike_id":"3b5567a6-efa3-498b-ad01-b9c12c6390c4","system_id":"levelo_inurba_marseille","lat":43.31716,"lon":5.42405,"is_reserved":false,"is_disabled":false,"rental_uris":{"android":"levelo://app?vid=3b5567a6-efa3-498b-ad01-b9c12c6390c4","ios":"levelo://app?vid=3b5567a6-efa3-498b-ad01-b9c12c6390c4"},"vehicle_type_id":"4","last_reported":1770672551,"current_range_meters":8400,"station_id":"ce4bhp92rcd13ifvqhbg","pricing_plan_id":"cebpf4jnsgd1na2vs0mg"},{"bike_id":"2714f080-7ada-4079-8d5a-6ebdb700a1d9","system_id":"levelo_inurba_marseille","lat":43.31042,"lon":5.38338,"is_reserved":false,"is_disabled":false,"rental_uris":{"android":"levelo://app?vid=2714f080-7ada-4079-8d5a-6ebdb700a1d9","ios":"levelo://app?vid=2714f080-7ada-4079-8d5a-6ebdb700a1d9"},"vehicle_type_id":"4","last_reported":1770672551,"current_range_meters":8400,"station_id":"ce4bgv92rcd13ifvqcr0","pricing_plan_id":"cebpf4jnsgd1na2vs0mg"},{"bike_id":"b1429378-b93e-4184-b373-85f0415c9919","system_id":"levelo_inurba_marseille","lat":43.24629,"lon":5.43154,"is_reserved":false,"is_disabled":false,"rental_uris":{"android":"levelo://app?vid=b1429378-b93e-4184-b373-85f0415c9919","ios":"levelo://app?vid=b1429378-b93e-4184-b373-85f0415c9919"},"vehicle_type_id":"4","last_reported":1770672551,"current_range_meters":8400,"station_id":"st_d2m6c4gdas8pm72e190g","pricing_plan_id":"cebpf4jnsgd1na2vs0mg"},{"bike_id":"4bf6681a-e3b6-487c-9124-2e1e805c6af1","system_id":"levelo_inurba_marseille","lat":43.28458,"lon":5.35908,"is_reserved":false,"is_disabled":false,"rental_uris":{"android":"levelo://app?vid=4bf6681a-e3b6-487c-9124-2e1e805c6af1","ios":"levelo://app?vid=4bf6681a-e3b6-487c-9124-2e1e805c6af1"},"vehicle_type_id":"4","last_reported":1770672551,"current_range_meters":8400,"station_id":"ce4bhah2rcd13ifvqei0","pricing_plan_id":"cebpf4jnsgd1na2vs0mg"},{"bike_id":"58727422-ac1d-461d-8326-ead3ab6a5bb0","system_id":"levelo_inurba_marseille","lat":43.25875,"lon":5.39854,"is_reserved":false,"is_disabled":false,"rental_uris":{"android":"levelo://app?vid=58727422-ac1d-461d-8326-ead3ab6a5bb0","ios":"levelo://app?vid=58727422-ac1d-461d-8326-ead3ab6a5bb0"},"vehicle_type_id":"4","last_reported":1770672551,"current_range_meters":8400,"station_id":"ce4bhl92rcd13ifvqghg","pricing_plan_id":"cebpf4jnsgd1na2vs0mg"},{"bike_id":"f12f6f11-1feb-482e-8dc3-a79b8963e979","system_id":"levelo_inurba_marseille","lat":43.335452,"lon":5.374654,"is_reserved":false,"is_disabled":false,"rental_uris":{"android":"levelo://app?vid=f12f6f11-1feb-482e-8dc3-a79b8963e979","ios":"levelo://app?vid=f12f6f11-1feb-482e-8dc3-a79b8963e979"},"vehicle_type_id":"4","last_reported":1770672551,"current_range_meters":8400,"station_id":"","pricing_plan_id":"cebpf4jnsgd1na2vs0mg"},{"bike_id":"cf72e890-701e-4add-a5c3-43611d6acb92","system_id":"levelo_inurba_marseille","lat":43.30211,"lon":5.39464,"is_reserved":false,"is_disabled":false,"rental_uris":{"android":"levelo://app?vid=cf72e890-701e-4add-a5c3-43611d6acb92","ios":"levelo://app?vid=cf72e890-701e-4add-a5c3-43611d6acb92"},"vehicle_type_id":"4","last_reported":1770672551,"current_range_meters":8400,"station_id":"ce4bh0p2rcd13ifvqd70","pricing_plan_id":"cebpf4jnsgd1na2vs0mg"},{"bike_id":"3e1c1a76-0035-4af4-884d-43dbcb7bca0c","system_id":"levelo_inurba_marseille","lat":43.2409,"lon":5.37738,"is_reserved":false,"is_disabled":false,"rental_uris":{"android":"levelo://app?vid=3e1c1a76-0035-4af4-884d-43dbcb7bca0c","ios":"levelo://app?vid=3e1c1a76-0035-4af4-884d-43dbcb7bca0c"},"vehicle_type_id":"4","last_reported":1770672551,"current_range_meters":8400,"station_id":"ce4bhnp2rcd13ifvqgvg","pricing_plan_id":"cebpf4jnsgd1na2vs0mg"},{"bike_id":"c583560a-77a9-496f-bff4-8abe7a8e3cb2","system_id":"levelo_inurba_marseille","lat":43.3018,"lon":5.36608,"is_reserved":false,"is_disabled":false,"rental_uris":{"android":"levelo://app?vid=c583560a-77a9-496f-bff4-8abe7a8e3cb2","ios":"levelo://app?vid=c583560a-77a9-496f-bff4-8abe7a8e3cb2"},"vehicle_type_id":"4","last_reported":1770672551,"current_range_meters":8400,"station_id":"ce4bgrh2rcd13ifvqc8g","pricing_plan_id":"cebpf4jnsgd1na2vs0mg"},{"bike_id":"30b3134b-ba74-4819-8947-e54b8db9bbcc","system_id":"levelo_inurba_marseille","lat":43.31988,"lon":5.38133,"is_reserved":false,"is_disabled":false,"rental_uris":{"android":"levelo://app?vid=30b3134b-ba74-4819-8947-e54b8db9bbcc","ios":"levelo://app?vid=30b3134b-ba74-4819-8947-e54b8db9bbcc"},"vehicle_type_id":"4","last_reported":1770672551,"current_range_meters":8400,"station_id":"ce4bhr12rcd13ifvqhpg","pricing_plan_id":"cebpf4jnsgd1na2vs0mg"},{"bike_id":"186e880b-87c5-4f6d-bb6f-2242c866ebea","system_id":"levelo_inurba_marseille","lat":43.28671,"lon":5.36365,"is_reserved":false,"is_disabled":false,"rental_uris":{"android":"levelo://app?vid=186e880b-87c5-4f6d-bb6f-2242c866ebea","ios":"levelo://app?vid=186e880b-87c5-4f6d-bb6f-2242c866ebea"},"vehicle_type_id":"4","last_reported":1770672551,"current_range_meters":8400,"station_id":"ce4bhah2rcd13ifvqej0","pricing_plan_id":"cebpf4jnsgd1na2vs0mg"},{"bike_id":"f3fcdd89-327e-4ac3-a791-371eabd3b54c","system_id":"levelo_inurba_marseille","lat":43.24412,"lon":5.37067,"is_reserved":false,"is_disabled":false,"rental_uris":{"android":"levelo://app?vid=f3fcdd89-327e-4ac3-a791-371eabd3b54c","ios":"levelo://app?vid=f3fcdd89-327e-4ac3-a791-371eabd3b54c"},"vehicle_type_id":"4","last_reported":1770672551,"current_range_meters":8400,"station_id":"ce4bhhh2rcd13ifvqfk0","pricing_plan_id":"cebpf4jnsgd1na2vs0mg"},{"bike_id":"ca292b8d-7fe0-4666-9b81-5c680f81de00","system_id":"levelo_inurba_marseille","lat":43.31151,"lon":5.3857,"is_reserved":false,"is_disabled":false,"rental_uris":{"android":"levelo://app?vid=ca292b8d-7fe0-4666-9b81-5c680f81de00","ios":"levelo://app?vid=ca292b8d-7fe0-4666-9b81-5c680f81de00"},"vehicle_type_id":"4","last_reported":1770672551,"current_range_meters":8400,"station_id":"","pricing_plan_id":"cebpf4jnsgd1na2vs0mg"},{"bike_id":"ca6aa475-a706-4201-b880-332143dae191","system_id":"levelo_inurba_marseille","lat":43.28733,"lon":5.3869,"is_reserved":false,"is_disabled":false,"rental_uris":{"android":"levelo://app?vid=ca6aa475-a706-4201-b880-332143dae191","ios":"levelo://app?vid=ca6aa475-a706-4201-b880-332143dae191"},"vehicle_type_id":"4","last_reported":1770672551,"current_range_meters":8400,"station_id":"","pricing_plan_id":"cebpf4jnsgd1na2vs0mg"},{"bike_id":"1912d9d8-2cbf-44e1-ad1a-4bfa43c7c7cc","system_id":"levelo_inurba_marseille","lat":43.28389,"lon":5.38677,"is_reserved":false,"is_disabled":false,"rental_uris":{"android":"levelo://app?vid=1912d9d8-2cbf-44e1-ad1a-4bfa43c7c7cc","ios":"levelo://app?vid=1912d9d8-2cbf-44e1-ad1a-4bfa43c7c7cc"},"vehicle_type_id":"4","last_reported":1770672551,"current_range_meters":8400,"station_id":"ce4bh492rcd13ifvqdvg","pricing_plan_id":"cebpf4jnsgd1na2vs0mg"},{"bike_id":"bfc07130-be47-4eef-8325-e33d6610d729","system_id":"levelo_inurba_marseille","lat":43.30121,"lon":5.43112,"is_reserved":false,"is_disabled":false,"rental_uris":{"android":"levelo://app?vid=bfc07130-be47-4eef-8325-e33d6610d729","ios":"levelo://app?vid=bfc07130-be47-4eef-8325-e33d6610d729"},"vehicle_type_id":"4","last_reported":1770672551,"current_range_meters":8800,"station_id":"st_d3js3co5814s73ftftug","pricing_plan_id":"cebpf4jnsgd1na2vs0mg"},{"bike_id":"02e9af11-2912-44f7-be5c-e2ae093265ba","system_id":"levelo_inurba_marseille","lat":43.26681,"lon":5.38219,"is_reserved":false,"is_disabled":false,"rental_uris":{"android":"levelo://app?vid=02e9af11-2912-44f7-be5c-e2ae093265ba","ios":"levelo://app?vid=02e9af11-2912-44f7-be5c-e2ae093265ba"},"vehicle_type_id":"4","last_reported":1770672551,"current_range_meters":8800,"station_id":"ce4bhg92rcd13ifvqf90","pricing_plan_id":"cebpf4jnsgd1na2vs0mg"},{"bike_id":"6aa6da6f-1976-49d0-ac99-282daecf7451","system_id":"levelo_inurba_marseille","lat":43.24032,"lon":5.37735,"is_reserved":false,"is_disabled":false,"rental_uris":{"android":"levelo://app?vid=6aa6da6f-1976-49d0-ac99-282daecf7451","ios":"levelo://app?vid=6aa6da6f-1976-49d0-ac99-282daecf7451"},"vehicle_type_id":"4","last_reported":1770672551,"current_range_meters":8800,"station_id":"ce4bhnp2rcd13ifvqgvg","pricing_plan_id":"cebpf4jnsgd1na2vs0mg"},{"bike_id":"0cad91d7-1079-467e-882f-8f8ec527c2c5","system_id":"levelo_inurba_marseille","lat":43.23182,"lon":5.39983,"is_reserved":false,"is_disabled":false,"rental_uris":{"android":"levelo://app?vid=0cad91d7-1079-467e-882f-8f8ec527c2c5","ios":"levelo://app?vid=0cad91d7-1079-467e-882f-8f8ec527c2c5"},"vehicle_type_id":"4","last_reported":1770672551,"current_range_meters":8800,"station_id":"ce4bhn12rcd13ifvqgqg","pricing_plan_id":"cebpf4jnsgd1na2vs0mg"},{"bike_id":"eb988073-8fe7-4bb4-897d-222ac9bc4a1f","system_id":"levelo_inurba_marseille","lat":43.2588,"lon":5.39914,"is_reserved":false,"is_disabled":false,"rental_uris":{"android":"levelo://app?vid=eb988073-8fe7-4bb4-897d-222ac9bc4a1f","ios":"levelo://app?vid=eb988073-8fe7-4bb4-897d-222ac9bc4a1f"},"vehicle_type_id":"4","last_reported":1770672551,"current_range_meters":8800,"station_id":"ce4bhl92rcd13ifvqghg","pricing_plan_id":"cebpf4jnsgd1na2vs0mg"},{"bike_id":"5f7df976-2770-4b0d-bd16-1a5d3e4bd86a","system_id":"levelo_inurba_marseille","lat":43.26021,"lon":5.37567,"is_reserved":false,"is_disabled":false,"rental_uris":{"android":"levelo://app?vid=5f7df976-2770-4b0d-bd16-1a5d3e4bd86a","ios":"levelo://app?vid=5f7df976-2770-4b0d-bd16-1a5d3e4bd86a"},"vehicle_type_id":"4","last_reported":1770672551,"current_range_meters":8800,"station_id":"ce4bhgh2rcd13ifvqfa0","pricing_plan_id":"cebpf4jnsgd1na2vs0mg"},{"bike_id":"46b69bcd-f35a-433e-b9f1-16ab03d0ac0e","system_id":"levelo_inurba_marseille","lat":43.25899,"lon":5.39928,"is_reserved":false,"is_disabled":false,"rental_uris":{"android":"levelo://app?vid=46b69bcd-f35a-433e-b9f1-16ab03d0ac0e","ios":"levelo://app?vid=46b69bcd-f35a-433e-b9f1-16ab03d0ac0e"},"vehicle_type_id":"4","last_reported":1770672551,"current_range_meters":8800,"station_id":"ce4bhl92rcd13ifvqghg","pricing_plan_id":"cebpf4jnsgd1na2vs0mg"},{"bike_id":"91491a67-54f5-4dcc-9400-230b4a47f1fc","system_id":"levelo_inurba_marseille","lat":43.28406,"lon":5.37536,"is_reserved":false,"is_disabled":true,"rental_uris":{"android":"levelo://app?vid=91491a67-54f5-4dcc-9400-230b4a47f1fc","ios":"levelo://app?vid=91491a67-54f5-4dcc-9400-230b4a47f1fc"},"vehicle_type_id":"4","last_reported":1770672551,"current_range_meters":8800,"station_id":"ce4bh412rcd13ifvqds0","pricing_plan_id":"cebpf4jnsgd1na2vs0mg"},{"bike_id":"89446920-5bad-4011-b083-61088b42ddfa","system_id":"levelo_inurba_marseille","lat":43.248065,"lon":5.374575,"is_reserved":false,"is_disabled":false,"rental_uris":{"android":"levelo://app?vid=89446920-5bad-4011-b083-61088b42ddfa","ios":"levelo://app?vid=89446920-5bad-4011-b083-61088b42ddfa"},"vehicle_type_id":"4","last_reported":1770672551,"current_range_meters":8800,"station_id":"ce4bhgh2rcd13ifvqfb0","pricing_plan_id":"cebpf4jnsgd1na2vs0mg"},{"bike_id":"0e4b7dd1-df8a-4919-8d1a-9562179c8c91","system_id":"levelo_inurba_marseille","lat":43.31671,"lon":5.38981,"is_reserved":false,"is_disabled":false,"rental_uris":{"android":"levelo://app?vid=0e4b7dd1-df8a-4919-8d1a-9562179c8c91","ios":"levelo://app?vid=0e4b7dd1-df8a-4919-8d1a-9562179c8c91"},"vehicle_type_id":"4","last_reported":1770672551,"current_range_meters":8800,"station_id":"","pricing_plan_id":"cebpf4jnsgd1na2vs0mg"},{"bike_id":"442cad98-e31e-464f-900e-9753ad71b9f5","system_id":"levelo_inurba_marseille","lat":43.31113,"lon":5.37786,"is_reserved":false,"is_disabled":false,"rental_uris":{"android":"levelo://app?vid=442cad98-e31e-464f-900e-9753ad71b9f5","ios":"levelo://app?vid=442cad98-e31e-464f-900e-9753ad71b9f5"},"vehicle_type_id":"4","last_reported":1770672551,"current_range_meters":8800,"station_id":"ce4bgt92rcd13ifvqcg0","pricing_plan_id":"cebpf4jnsgd1na2vs0mg"},{"bike_id":"ab8ed30d-dd64-45c7-9d56-1700378f985a","system_id":"levelo_inurba_marseille","lat":43.25559,"lon":5.38223,"is_reserved":false,"is_disabled":false,"rental_uris":{"android":"levelo://app?vid=ab8ed30d-dd64-45c7-9d56-1700378f985a","ios":"levelo://app?vid=ab8ed30d-dd64-45c7-9d56-1700378f985a"},"vehicle_type_id":"4","last_reported":1770672551,"current_range_meters":8800,"station_id":"ce4bhih2rcd13ifvqfs0","pricing_plan_id":"cebpf4jnsgd1na2vs0mg"},{"bike_id":"de3c212d-0fb9-473a-a86c-66f8df44a604","system_id":"levelo_inurba_marseille","lat":43.2466,"lon":5.38166,"is_reserved":false,"is_disabled":false,"rental_uris":{"android":"levelo://app?vid=de3c212d-0fb9-473a-a86c-66f8df44a604","ios":"levelo://app?vid=de3c212d-0fb9-473a-a86c-66f8df44a604"},"vehicle_type_id":"4","last_reported":1770672551,"current_range_meters":8800,"station_id":"ce4bhih2rcd13ifvqfr0","pricing_plan_id":"cebpf4jnsgd1na2vs0mg"},{"bike_id":"1e61639f-c5f0-4b96-889f-d51b510ad218","system_id":"levelo_inurba_marseille","lat":43.3172,"lon":5.37783,"is_reserved":false,"is_disabled":false,"rental_uris":{"android":"levelo://app?vid=1e61639f-c5f0-4b96-889f-d51b510ad218","ios":"levelo://app?vid=1e61639f-c5f0-4b96-889f-d51b510ad218"},"vehicle_type_id":"4","last_reported":1770672551,"current_range_meters":8800,"station_id":"ce4bgth2rcd13ifvqch0","pricing_plan_id":"cebpf4jnsgd1na2vs0mg"},{"bike_id":"7807558b-cd3e-48a4-b886-e8764e7295bf","system_id":"levelo_inurba_marseille","lat":43.24472,"lon":5.42533,"is_reserved":false,"is_disabled":false,"rental_uris":{"android":"levelo://app?vid=7807558b-cd3e-48a4-b886-e8764e7295bf","ios":"levelo://app?vid=7807558b-cd3e-48a4-b886-e8764e7295bf"},"vehicle_type_id":"4","last_reported":1770672551,"current_range_meters":8800,"station_id":"st_d4a3vfp97mjs738cd8kg","pricing_plan_id":"cebpf4jnsgd1na2vs0mg"},{"bike_id":"23faf02b-28d8-4a14-a292-ffbec7ab0604","system_id":"levelo_inurba_marseille","lat":43.26811,"lon":5.40252,"is_reserved":false,"is_disabled":false,"rental_uris":{"android":"levelo://app?vid=23faf02b-28d8-4a14-a292-ffbec7ab0604","ios":"levelo://app?vid=23faf02b-28d8-4a14-a292-ffbec7ab0604"},"vehicle_type_id":"4","last_reported":1770672551,"current_range_meters":8800,"station_id":"ce501612rcd8frsf0b60","pricing_plan_id":"cebpf4jnsgd1na2vs0mg"},{"bike_id":"b2b3c599-18d6-447e-baaa-6da6b96c2039","system_id":"levelo_inurba_marseille","lat":43.28954,"lon":5.36631,"is_reserved":false,"is_disabled":false,"rental_uris":{"android":"levelo://app?vid=b2b3c599-18d6-447e-baaa-6da6b96c2039","ios":"levelo://app?vid=b2b3c599-18d6-447e-baaa-6da6b96c2039"},"vehicle_type_id":"4","last_reported":1770672551,"current_range_meters":8800,"station_id":"ce4bhap2rcd13ifvqek0","pricing_plan_id":"cebpf4jnsgd1na2vs0mg"},{"bike_id":"65653ad0-a964-4762-8fd7-873f72cb3e9d","system_id":"levelo_inurba_marseille","lat":43.28726,"lon":5.37962,"is_reserved":false,"is_disabled":false,"rental_uris":{"android":"levelo://app?vid=65653ad0-a964-4762-8fd7-873f72cb3e9d","ios":"levelo://app?vid=65653ad0-a964-4762-8fd7-873f72cb3e9d"},"vehicle_type_id":"4","last_reported":1770672551,"current_range_meters":8800,"station_id":"ce4bh9p2rcd13ifvqec0","pricing_plan_id":"cebpf4jnsgd1na2vs0mg"},{"bike_id":"3e62a0fd-19ac-4f58-93af-6af710db8a94","system_id":"levelo_inurba_marseille","lat":43.22927,"lon":5.3538,"is_reserved":false,"is_disabled":false,"rental_uris":{"android":"levelo://app?vid=3e62a0fd-19ac-4f58-93af-6af710db8a94","ios":"levelo://app?vid=3e62a0fd-19ac-4f58-93af-6af710db8a94"},"vehicle_type_id":"4","last_reported":1770672551,"current_range_meters":8800,"station_id":"cpo3532slgdg3j2ikp40","pricing_plan_id":"cebpf4jnsgd1na2vs0mg"},{"bike_id":"a647ae6f-c0a1-4109-88aa-ccb20c935e5d","system_id":"levelo_inurba_marseille","lat":43.24672,"lon":5.38176,"is_reserved":false,"is_disabled":false,"rental_uris":{"android":"levelo://app?vid=a647ae6f-c0a1-4109-88aa-ccb20c935e5d","ios":"levelo://app?vid=a647ae6f-c0a1-4109-88aa-ccb20c935e5d"},"vehicle_type_id":"4","last_reported":1770672551,"current_range_meters":8800,"station_id":"ce4bhih2rcd13ifvqfr0","pricing_plan_id":"cebpf4jnsgd1na2vs0mg"},{"bike_id":"6e5c9ca6-75e1-44de-bf4f-fb0d2aecd29f","system_id":"levelo_inurba_marseille","lat":43.27198,"lon":5.39182,"is_reserved":false,"is_disabled":false,"rental_uris":{"android":"levelo://app?vid=6e5c9ca6-75e1-44de-bf4f-fb0d2aecd29f","ios":"levelo://app?vid=6e5c9ca6-75e1-44de-bf4f-fb0d2aecd29f"},"vehicle_type_id":"4","last_reported":1770672551,"current_range_meters":8800,"station_id":"ce4bhhp2rcd13ifvqfm0","pricing_plan_id":"cebpf4jnsgd1na2vs0mg"},{"bike_id":"718e8a6d-d151-4151-aaaf-154d54db698a","system_id":"levelo_inurba_marseille","lat":43.243883,"lon":5.370468,"is_reserved":false,"is_disabled":false,"rental_uris":{"android":"levelo://app?vid=718e8a6d-d151-4151-aaaf-154d54db698a","ios":"levelo://app?vid=718e8a6d-d151-4151-aaaf-154d54db698a"},"vehicle_type_id":"4","last_reported":1770672551,"current_range_meters":9200,"station_id":"ce4bhhh2rcd13ifvqfk0","pricing_plan_id":"cebpf4jnsgd1na2vs0mg"},{"bike_id":"05abb5d5-7a0f-4692-a6b6-119f614f1bb6","system_id":"levelo_inurba_marseille","lat":43.25579,"lon":5.38237,"is_reserved":false,"is_disabled":false,"rental_uris":{"android":"levelo://app?vid=05abb5d5-7a0f-4692-a6b6-119f614f1bb6","ios":"levelo://app?vid=05abb5d5-7a0f-4692-a6b6-119f614f1bb6"},"vehicle_type_id":"4","last_reported":1770672551,"current_range_meters":9200,"station_id":"ce4bhih2rcd13ifvqfs0","pricing_plan_id":"cebpf4jnsgd1na2vs0mg"},{"bike_id":"347d768a-bf61-43d5-ac59-439413067d68","system_id":"levelo_inurba_marseille","lat":43.29274,"lon":5.37633,"is_reserved":false,"is_disabled":false,"rental_uris":{"android":"levelo://app?vid=347d768a-bf61-43d5-ac59-439413067d68","ios":"levelo://app?vid=347d768a-bf61-43d5-ac59-439413067d68"},"vehicle_type_id":"4","last_reported":1770672551,"current_range_meters":9200,"station_id":"ce4bgi12rcd13ifvqb80","pricing_plan_id":"cebpf4jnsgd1na2vs0mg"},{"bike_id":"b6e7db80-dac8-40f9-8cf1-f6855e3a14a3","system_id":"levelo_inurba_marseille","lat":43.2953,"lon":5.39049,"is_reserved":false,"is_disabled":false,"rental_uris":{"android":"levelo://app?vid=b6e7db80-dac8-40f9-8cf1-f6855e3a14a3","ios":"levelo://app?vid=b6e7db80-dac8-40f9-8cf1-f6855e3a14a3"},"vehicle_type_id":"4","last_reported":1770672551,"current_range_meters":9200,"station_id":"ce4bh3p2rcd13ifvqdp0","pricing_plan_id":"cebpf4jnsgd1na2vs0mg"},{"bike_id":"56a2b693-a2d6-4b19-b89c-6c9b83fcbc42","system_id":"levelo_inurba_marseille","lat":43.25718,"lon":5.41133,"is_reserved":false,"is_disabled":false,"rental_uris":{"android":"levelo://app?vid=56a2b693-a2d6-4b19-b89c-6c9b83fcbc42","ios":"levelo://app?vid=56a2b693-a2d6-4b19-b89c-6c9b83fcbc42"},"vehicle_type_id":"4","last_reported":1770672551,"current_range_meters":9200,"station_id":"ce4bhkp2rcd13ifvqgd0","pricing_plan_id":"cebpf4jnsgd1na2vs0mg"},{"bike_id":"34d31835-d3b0-4be1-9854-181d6b3dfb61","system_id":"levelo_inurba_marseille","lat":43.29297,"lon":5.38442,"is_reserved":false,"is_disabled":false,"rental_uris":{"android":"levelo://app?vid=34d31835-d3b0-4be1-9854-181d6b3dfb61","ios":"levelo://app?vid=34d31835-d3b0-4be1-9854-181d6b3dfb61"},"vehicle_type_id":"4","last_reported":1770672551,"current_range_meters":9200,"station_id":"ce4bh692rcd13ifvqea0","pricing_plan_id":"cebpf4jnsgd1na2vs0mg"},{"bike_id":"88b5578d-5496-4712-930c-cd38c4c86682","system_id":"levelo_inurba_marseille","lat":43.29802,"lon":5.40422,"is_reserved":false,"is_disabled":false,"rental_uris":{"android":"levelo://app?vid=88b5578d-5496-4712-930c-cd38c4c86682","ios":"levelo://app?vid=88b5578d-5496-4712-930c-cd38c4c86682"},"vehicle_type_id":"4","last_reported":1770672551,"current_range_meters":9200,"station_id":"ce4bh112rcd13ifvqd90","pricing_plan_id":"cebpf4jnsgd1na2vs0mg"},{"bike_id":"a1a1e459-dc33-458a-a156-5735d4cb79a9","system_id":"levelo_inurba_marseille","lat":43.295648,"lon":5.422992,"is_reserved":false,"is_disabled":false,"rental_uris":{"android":"levelo://app?vid=a1a1e459-dc33-458a-a156-5735d4cb79a9","ios":"levelo://app?vid=a1a1e459-dc33-458a-a156-5735d4cb79a9"},"vehicle_type_id":"4","last_reported":1770672551,"current_range_meters":9200,"station_id":"ce4bhph2rcd13ifvqhdg","pricing_plan_id":"cebpf4jnsgd1na2vs0mg"},{"bike_id":"652029fd-7389-40d5-a0bd-e85f7aa43d7c","system_id":"levelo_inurba_marseille","lat":43.22577,"lon":5.4166,"is_reserved":false,"is_disabled":false,"rental_uris":{"android":"levelo://app?vid=652029fd-7389-40d5-a0bd-e85f7aa43d7c","ios":"levelo://app?vid=652029fd-7389-40d5-a0bd-e85f7aa43d7c"},"vehicle_type_id":"4","last_reported":1770672551,"current_range_meters":9200,"station_id":"st_d2o4gvlbi1j2169b742g","pricing_plan_id":"cebpf4jnsgd1na2vs0mg"},{"bike_id":"ee213b40-802c-442b-9390-5e22834db5df","system_id":"levelo_inurba_marseille","lat":43.24158,"lon":5.36411,"is_reserved":false,"is_disabled":false,"rental_uris":{"android":"levelo://app?vid=ee213b40-802c-442b-9390-5e22834db5df","ios":"levelo://app?vid=ee213b40-802c-442b-9390-5e22834db5df"},"vehicle_type_id":"4","last_reported":1770672551,"current_range_meters":9200,"station_id":"cpo36qri1sfpv3e86is0","pricing_plan_id":"cebpf4jnsgd1na2vs0mg"},{"bike_id":"b6f2af73-eadf-488e-be15-c42d402e2260","system_id":"levelo_inurba_marseille","lat":43.23202,"lon":5.39986,"is_reserved":false,"is_disabled":false,"rental_uris":{"android":"levelo://app?vid=b6f2af73-eadf-488e-be15-c42d402e2260","ios":"levelo://app?vid=b6f2af73-eadf-488e-be15-c42d402e2260"},"vehicle_type_id":"4","last_reported":1770672551,"current_range_meters":9200,"station_id":"ce4bhn12rcd13ifvqgqg","pricing_plan_id":"cebpf4jnsgd1na2vs0mg"},{"bike_id":"cc9d8b4e-9bda-47b4-8088-3f93b11014d1","system_id":"levelo_inurba_marseille","lat":43.25242,"lon":5.40715,"is_reserved":false,"is_disabled":false,"rental_uris":{"android":"levelo://app?vid=cc9d8b4e-9bda-47b4-8088-3f93b11014d1","ios":"levelo://app?vid=cc9d8b4e-9bda-47b4-8088-3f93b11014d1"},"vehicle_type_id":"4","last_reported":1770672551,"current_range_meters":9200,"station_id":"","pricing_plan_id":"cebpf4jnsgd1na2vs0mg"},{"bike_id":"804c72c7-b156-4f59-bfd2-4c7beff1be08","system_id":"levelo_inurba_marseille","lat":43.25105,"lon":5.39509,"is_reserved":false,"is_disabled":false,"rental_uris":{"android":"levelo://app?vid=804c72c7-b156-4f59-bfd2-4c7beff1be08","ios":"levelo://app?vid=804c72c7-b156-4f59-bfd2-4c7beff1be08"},"vehicle_type_id":"4","last_reported":1770672551,"current_range_meters":9200,"station_id":"ce4bhm12rcd13ifvqgkg","pricing_plan_id":"cebpf4jnsgd1na2vs0mg"},{"bike_id":"ddb2c7a2-c954-413b-ae26-18c7aa93906a","system_id":"levelo_inurba_marseille","lat":43.28734,"lon":5.36114,"is_reserved":false,"is_disabled":false,"rental_uris":{"android":"levelo://app?vid=ddb2c7a2-c954-413b-ae26-18c7aa93906a","ios":"levelo://app?vid=ddb2c7a2-c954-413b-ae26-18c7aa93906a"},"vehicle_type_id":"4","last_reported":1770672551,"current_range_meters":9200,"station_id":"cki0cbj6b192h4jlfktg","pricing_plan_id":"cebpf4jnsgd1na2vs0mg"},{"bike_id":"75da2aea-6248-4c67-bb86-78489a20b772","system_id":"levelo_inurba_marseille","lat":43.311639,"lon":5.387247,"is_reserved":false,"is_disabled":false,"rental_uris":{"android":"levelo://app?vid=75da2aea-6248-4c67-bb86-78489a20b772","ios":"levelo://app?vid=75da2aea-6248-4c67-bb86-78489a20b772"},"vehicle_type_id":"4","last_reported":1770672551,"current_range_meters":9200,"station_id":"ce4bgv12rcd13ifvqcp0","pricing_plan_id":"cebpf4jnsgd1na2vs0mg"},{"bike_id":"c6bba051-2987-4068-9b3f-af263ee62dbf","system_id":"levelo_inurba_marseille","lat":43.26482,"lon":5.3955,"is_reserved":false,"is_disabled":false,"rental_uris":{"android":"levelo://app?vid=c6bba051-2987-4068-9b3f-af263ee62dbf","ios":"levelo://app?vid=c6bba051-2987-4068-9b3f-af263ee62dbf"},"vehicle_type_id":"4","last_reported":1770672551,"current_range_meters":9200,"station_id":"ce4bhi12rcd13ifvqfq0","pricing_plan_id":"cebpf4jnsgd1na2vs0mg"},{"bike_id":"c9e1dfab-a295-4c94-9182-c8e248585a23","system_id":"levelo_inurba_marseille","lat":43.26572,"lon":5.40363,"is_reserved":false,"is_disabled":false,"rental_uris":{"android":"levelo://app?vid=c9e1dfab-a295-4c94-9182-c8e248585a23","ios":"levelo://app?vid=c9e1dfab-a295-4c94-9182-c8e248585a23"},"vehicle_type_id":"4","last_reported":1770672551,"current_range_meters":9200,"station_id":"ce4bhmp2rcd13ifvqgng","pricing_plan_id":"cebpf4jnsgd1na2vs0mg"},{"bike_id":"6da7b2c8-ded6-41b1-b326-7acbfdccc073","system_id":"levelo_inurba_marseille","lat":43.29649,"lon":5.38027,"is_reserved":false,"is_disabled":false,"rental_uris":{"android":"levelo://app?vid=6da7b2c8-ded6-41b1-b326-7acbfdccc073","ios":"levelo://app?vid=6da7b2c8-ded6-41b1-b326-7acbfdccc073"},"vehicle_type_id":"4","last_reported":1770672551,"current_range_meters":9200,"station_id":"","pricing_plan_id":"cebpf4jnsgd1na2vs0mg"},{"bike_id":"a9ac6c0d-36d5-42cf-8a07-ff0a32d0781c","system_id":"levelo_inurba_marseille","lat":43.287,"lon":5.37419,"is_reserved":false,"is_disabled":false,"rental_uris":{"android":"levelo://app?vid=a9ac6c0d-36d5-42cf-8a07-ff0a32d0781c","ios":"levelo://app?vid=a9ac6c0d-36d5-42cf-8a07-ff0a32d0781c"},"vehicle_type_id":"4","last_reported":1770672551,"current_range_meters":9200,"station_id":"ce4bh3p2rcd13ifvqdq0","pricing_plan_id":"cebpf4jnsgd1na2vs0mg"},{"bike_id":"0abe4996-163d-4d13-b219-313a23f0f613","system_id":"levelo_inurba_marseille","lat":43.24661,"lon":5.38187,"is_reserved":false,"is_disabled":false,"rental_uris":{"android":"levelo://app?vid=0abe4996-163d-4d13-b219-313a23f0f613","ios":"levelo://app?vid=0abe4996-163d-4d13-b219-313a23f0f613"},"vehicle_type_id":"4","last_reported":1770672551,"current_range_meters":9200,"station_id":"ce4bhih2rcd13ifvqfr0","pricing_plan_id":"cebpf4jnsgd1na2vs0mg"},{"bike_id":"3ffc8ed0-24b7-49ec-b390-276a9dc78730","system_id":"levelo_inurba_marseille","lat":43.29497,"lon":5.43313,"is_reserved":false,"is_disabled":false,"rental_uris":{"android":"levelo://app?vid=3ffc8ed0-24b7-49ec-b390-276a9dc78730","ios":"levelo://app?vid=3ffc8ed0-24b7-49ec-b390-276a9dc78730"},"vehicle_type_id":"4","last_reported":1770672551,"current_range_meters":9200,"station_id":"st_d3j5ugp08ojc73fj9d10","pricing_plan_id":"cebpf4jnsgd1na2vs0mg"},{"bike_id":"cd5788e2-52df-4078-aae8-083196e29c75","system_id":"levelo_inurba_marseille","lat":43.284187,"lon":5.375014,"is_reserved":false,"is_disabled":false,"rental_uris":{"android":"levelo://app?vid=cd5788e2-52df-4078-aae8-083196e29c75","ios":"levelo://app?vid=cd5788e2-52df-4078-aae8-083196e29c75"},"vehicle_type_id":"4","last_reported":1770672551,"current_range_meters":9200,"station_id":"ce4bh412rcd13ifvqds0","pricing_plan_id":"cebpf4jnsgd1na2vs0mg"},{"bike_id":"1d84a6a9-53dd-4546-9d02-4bb696d8451e","system_id":"levelo_inurba_marseille","lat":43.31685,"lon":5.37375,"is_reserved":false,"is_disabled":false,"rental_uris":{"android":"levelo://app?vid=1d84a6a9-53dd-4546-9d02-4bb696d8451e","ios":"levelo://app?vid=1d84a6a9-53dd-4546-9d02-4bb696d8451e"},"vehicle_type_id":"4","last_reported":1770672551,"current_range_meters":9200,"station_id":"","pricing_plan_id":"cebpf4jnsgd1na2vs0mg"},{"bike_id":"7da53b6e-af6b-42a2-b83b-ba7e16848b9a","system_id":"levelo_inurba_marseille","lat":43.31356,"lon":5.38501,"is_reserved":false,"is_disabled":true,"rental_uris":{"android":"levelo://app?vid=7da53b6e-af6b-42a2-b83b-ba7e16848b9a","ios":"levelo://app?vid=7da53b6e-af6b-42a2-b83b-ba7e16848b9a"},"vehicle_type_id":"4","last_reported":1770672551,"current_range_meters":9200,"station_id":"ce4bgt92rcd13ifvqcf0","pricing_plan_id":"cebpf4jnsgd1na2vs0mg"},{"bike_id":"716f0767-1e36-4d1e-862c-20b3e49c9c4c","system_id":"levelo_inurba_marseille","lat":43.28574,"lon":5.39499,"is_reserved":false,"is_disabled":false,"rental_uris":{"android":"levelo://app?vid=716f0767-1e36-4d1e-862c-20b3e49c9c4c","ios":"levelo://app?vid=716f0767-1e36-4d1e-862c-20b3e49c9c4c"},"vehicle_type_id":"4","last_reported":1770672551,"current_range_meters":9200,"station_id":"ce4bh292rcd13ifvqdg0","pricing_plan_id":"cebpf4jnsgd1na2vs0mg"},{"bike_id":"e0450db0-c8b3-4403-bc43-ed5a007877b8","system_id":"levelo_inurba_marseille","lat":43.24617,"lon":5.43144,"is_reserved":false,"is_disabled":false,"rental_uris":{"android":"levelo://app?vid=e0450db0-c8b3-4403-bc43-ed5a007877b8","ios":"levelo://app?vid=e0450db0-c8b3-4403-bc43-ed5a007877b8"},"vehicle_type_id":"4","last_reported":1770672551,"current_range_meters":9600,"station_id":"st_d2m6c4gdas8pm72e190g","pricing_plan_id":"cebpf4jnsgd1na2vs0mg"},{"bike_id":"ffbe3718-fb64-481b-bbfe-6664f18f61cb","system_id":"levelo_inurba_marseille","lat":43.24659,"lon":5.43089,"is_reserved":false,"is_disabled":false,"rental_uris":{"android":"levelo://app?vid=ffbe3718-fb64-481b-bbfe-6664f18f61cb","ios":"levelo://app?vid=ffbe3718-fb64-481b-bbfe-6664f18f61cb"},"vehicle_type_id":"4","last_reported":1770672551,"current_range_meters":9600,"station_id":"","pricing_plan_id":"cebpf4jnsgd1na2vs0mg"},{"bike_id":"693b91c3-2aa8-4a0f-b202-f32bf537677c","system_id":"levelo_inurba_marseille","lat":43.27921,"lon":5.39579,"is_reserved":false,"is_disabled":false,"rental_uris":{"android":"levelo://app?vid=693b91c3-2aa8-4a0f-b202-f32bf537677c","ios":"levelo://app?vid=693b91c3-2aa8-4a0f-b202-f32bf537677c"},"vehicle_type_id":"4","last_reported":1770672551,"current_range_meters":9600,"station_id":"ce4bhf92rcd13ifvqf40","pricing_plan_id":"cebpf4jnsgd1na2vs0mg"},{"bike_id":"87056c0a-278d-470f-af70-99a4eb084f35","system_id":"levelo_inurba_marseille","lat":43.24634,"lon":5.431451,"is_reserved":false,"is_disabled":false,"rental_uris":{"android":"levelo://app?vid=87056c0a-278d-470f-af70-99a4eb084f35","ios":"levelo://app?vid=87056c0a-278d-470f-af70-99a4eb084f35"},"vehicle_type_id":"4","last_reported":1770672551,"current_range_meters":9600,"station_id":"st_d2m6c4gdas8pm72e190g","pricing_plan_id":"cebpf4jnsgd1na2vs0mg"},{"bike_id":"990e96c3-1411-40db-8c41-21f5095438bf","system_id":"levelo_inurba_marseille","lat":43.30618,"lon":5.36538,"is_reserved":false,"is_disabled":false,"rental_uris":{"android":"levelo://app?vid=990e96c3-1411-40db-8c41-21f5095438bf","ios":"levelo://app?vid=990e96c3-1411-40db-8c41-21f5095438bf"},"vehicle_type_id":"4","last_reported":1770672551,"current_range_meters":9600,"station_id":"","pricing_plan_id":"cebpf4jnsgd1na2vs0mg"},{"bike_id":"7a9a901b-3584-4d03-aa22-88fd2fdefad0","system_id":"levelo_inurba_marseille","lat":43.28481,"lon":5.38424,"is_reserved":false,"is_disabled":false,"rental_uris":{"android":"levelo://app?vid=7a9a901b-3584-4d03-aa22-88fd2fdefad0","ios":"levelo://app?vid=7a9a901b-3584-4d03-aa22-88fd2fdefad0"},"vehicle_type_id":"4","last_reported":1770672551,"current_range_meters":9600,"station_id":"ce4bh512rcd13ifvqe3g","pricing_plan_id":"cebpf4jnsgd1na2vs0mg"},{"bike_id":"8571f90b-06c9-4ad1-adf4-4177931f6226","system_id":"levelo_inurba_marseille","lat":43.33605,"lon":5.41046,"is_reserved":false,"is_disabled":false,"rental_uris":{"android":"levelo://app?vid=8571f90b-06c9-4ad1-adf4-4177931f6226","ios":"levelo://app?vid=8571f90b-06c9-4ad1-adf4-4177931f6226"},"vehicle_type_id":"4","last_reported":1770672551,"current_range_meters":9600,"station_id":"ce4bhqh2rcd13ifvqhmg","pricing_plan_id":"cebpf4jnsgd1na2vs0mg"},{"bike_id":"a5301ec3-a03f-48a9-8c89-d0f3e652c25a","system_id":"levelo_inurba_marseille","lat":43.29536,"lon":5.39048,"is_reserved":false,"is_disabled":false,"rental_uris":{"android":"levelo://app?vid=a5301ec3-a03f-48a9-8c89-d0f3e652c25a","ios":"levelo://app?vid=a5301ec3-a03f-48a9-8c89-d0f3e652c25a"},"vehicle_type_id":"4","last_reported":1770672551,"current_range_meters":9600,"station_id":"ce4bh3p2rcd13ifvqdp0","pricing_plan_id":"cebpf4jnsgd1na2vs0mg"},{"bike_id":"b0577ca1-afa8-48fa-be5c-f4673c1a2294","system_id":"levelo_inurba_marseille","lat":43.279914,"lon":5.413318,"is_reserved":false,"is_disabled":false,"rental_uris":{"android":"levelo://app?vid=b0577ca1-afa8-48fa-be5c-f4673c1a2294","ios":"levelo://app?vid=b0577ca1-afa8-48fa-be5c-f4673c1a2294"},"vehicle_type_id":"4","last_reported":1770672551,"current_range_meters":9600,"station_id":"","pricing_plan_id":"cebpf4jnsgd1na2vs0mg"},{"bike_id":"22d8d839-db4c-4efa-bd5d-d78efaca55ca","system_id":"levelo_inurba_marseille","lat":43.25619,"lon":5.38187,"is_reserved":false,"is_disabled":false,"rental_uris":{"android":"levelo://app?vid=22d8d839-db4c-4efa-bd5d-d78efaca55ca","ios":"levelo://app?vid=22d8d839-db4c-4efa-bd5d-d78efaca55ca"},"vehicle_type_id":"4","last_reported":1770672551,"current_range_meters":9600,"station_id":"ce4bhih2rcd13ifvqfs0","pricing_plan_id":"cebpf4jnsgd1na2vs0mg"},{"bike_id":"82c1d0b8-c2bc-4c2d-8c8c-cee1ceff7965","system_id":"levelo_inurba_marseille","lat":43.28711,"lon":5.37911,"is_reserved":false,"is_disabled":false,"rental_uris":{"android":"levelo://app?vid=82c1d0b8-c2bc-4c2d-8c8c-cee1ceff7965","ios":"levelo://app?vid=82c1d0b8-c2bc-4c2d-8c8c-cee1ceff7965"},"vehicle_type_id":"4","last_reported":1770672551,"current_range_meters":9600,"station_id":"ce4bh9p2rcd13ifvqec0","pricing_plan_id":"cebpf4jnsgd1na2vs0mg"},{"bike_id":"7b2dc662-c198-4eac-afc1-372a57781d77","system_id":"levelo_inurba_marseille","lat":43.2509,"lon":5.39492,"is_reserved":false,"is_disabled":false,"rental_uris":{"android":"levelo://app?vid=7b2dc662-c198-4eac-afc1-372a57781d77","ios":"levelo://app?vid=7b2dc662-c198-4eac-afc1-372a57781d77"},"vehicle_type_id":"4","last_reported":1770672551,"current_range_meters":9600,"station_id":"ce4bhm12rcd13ifvqgkg","pricing_plan_id":"cebpf4jnsgd1na2vs0mg"},{"bike_id":"914bd365-2174-44e8-81f6-c3c68ba64874","system_id":"levelo_inurba_marseille","lat":43.231863,"lon":5.399846,"is_reserved":false,"is_disabled":false,"rental_uris":{"android":"levelo://app?vid=914bd365-2174-44e8-81f6-c3c68ba64874","ios":"levelo://app?vid=914bd365-2174-44e8-81f6-c3c68ba64874"},"vehicle_type_id":"4","last_reported":1770672551,"current_range_meters":9600,"station_id":"ce4bhn12rcd13ifvqgqg","pricing_plan_id":"cebpf4jnsgd1na2vs0mg"},{"bike_id":"f91f91e7-cb75-4d46-ab53-f570e2e26557","system_id":"levelo_inurba_marseille","lat":43.27655,"lon":5.38136,"is_reserved":false,"is_disabled":false,"rental_uris":{"android":"levelo://app?vid=f91f91e7-cb75-4d46-ab53-f570e2e26557","ios":"levelo://app?vid=f91f91e7-cb75-4d46-ab53-f570e2e26557"},"vehicle_type_id":"4","last_reported":1770672551,"current_range_meters":9600,"station_id":"","pricing_plan_id":"cebpf4jnsgd1na2vs0mg"},{"bike_id":"9e3e29a0-c7e1-4093-841b-5fc451be56b7","system_id":"levelo_inurba_marseille","lat":43.30658,"lon":5.40103,"is_reserved":false,"is_disabled":false,"rental_uris":{"android":"levelo://app?vid=9e3e29a0-c7e1-4093-841b-5fc451be56b7","ios":"levelo://app?vid=9e3e29a0-c7e1-4093-841b-5fc451be56b7"},"vehicle_type_id":"4","last_reported":1770672551,"current_range_meters":9600,"station_id":"ce4bh112rcd13ifvqda0","pricing_plan_id":"cebpf4jnsgd1na2vs0mg"},{"bike_id":"0dc590ec-14e3-4507-a126-5f1063974b22","system_id":"levelo_inurba_marseille","lat":43.24151,"lon":5.36432,"is_reserved":false,"is_disabled":false,"rental_uris":{"android":"levelo://app?vid=0dc590ec-14e3-4507-a126-5f1063974b22","ios":"levelo://app?vid=0dc590ec-14e3-4507-a126-5f1063974b22"},"vehicle_type_id":"4","last_reported":1770672551,"current_range_meters":9600,"station_id":"cpo36qri1sfpv3e86is0","pricing_plan_id":"cebpf4jnsgd1na2vs0mg"},