{"last_updated":1749817235,"ttl":60,"version":"2.2","data":{"bikes":[{"bike_id":"b31f0139-170f-4194-984f-4386218a1e9d","system_id":"levelo_inurba_marseille","lat":43.33771,"lon":5.37424,"is_reserved":false,"is_disabled":true,"rental_uris":{"android":"levelo://app?vid=b31f0139-170f-4194-984f-4386218a1e9d","ios":"levelo://app?vid=b31f0139-170f-4194-984f-4386218a1e9d"},"vehicle_type_id":"4","last_reported":1749817235,"current_range_meters":0,"station_id":"","pricing_plan_id":"cebpf4jnsgd1na2vs0mg"},{"bike_id":"1acfb620-cad7-48c0-8901-d7a5b74a5b65","system_id":"levelo_inurba_marseille","lat":43.33751,"lon":5.37456,"is_reserved":false,"is_disabled":false,"rental_uris":{"android":"levelo://app?vid=1acfb620-cad7-48c0-8901-d7a5b74a5b65","ios":"levelo://app?vid=1acfb620-cad7-48c0-8901-d7a5b74a5b65"},"vehicle_type_id":"4","last_reported":1749817235,"current_range_meters":4000,"station_id":"","pricing_plan_id":"cebpf4jnsgd1na2vs0mg"},{"bike_id":"bf89d78c-eb96-40d5-beb0-f402ef102cc1","system_id":"levelo_inurba_marseille","lat":43.337444,"lon":5.374475,"is_reserved":false,"is_disabled":true,"rental_uris":{"android":"levelo://app?vid=bf89d78c-eb96-40d5-beb0-f402ef102cc1","ios":"levelo://app?vid=bf89d78c-eb96-40d5-beb0-f402ef102cc1"},"vehicle_type_id":"4","last_reported":1749817235,"current_range_meters":0,"station_id":"","pricing_plan_id":"cebpf4jnsgd1na2vs0mg"},{"bike_id":"5077581b-cebb-46fc-ba69-4fa8272d4810","system_id":"levelo_inurba_marseille","lat":43.21369,"lon":5.35542,"is_reserved":false,"is_disabled":true,"rental_uris":{"android":"levelo://app?vid=5077581b-cebb-46fc-ba69-4fa8272d4810","ios":"levelo://app?vid=5077581b-cebb-46fc-ba69-4fa8272d4810"},"vehicle_type_id":"4","last_reported":1749817235,"current_range_meters":0,"station_id":"","pricing_plan_id":"cebpf4jnsgd1na2vs0mg"},{"bike_id":"7c6a9c32-3bbe-4d4c-8294-1969d0688a87","system_id":"levelo_inurba_marseille","lat":43.28457,"lon":5.42074,"is_reserved":false,"is_disabled":true,"rental_uris":{"android":"levelo://app?vid=7c6a9c32-3bbe-4d4c-8294-1969d0688a87","ios":"levelo://app?vid=7c6a9c32-3bbe-4d4c-8294-1969d0688a87"},"vehicle_type_id":"4","last_reported":1749817235,"current_range_meters":0,"station_id":"","pricing_plan_id":"cebpf4jnsgd1na2vs0mg"},{"bike_id":"66b1cbfb-c132-4ef4-922c-0beab9b5a350","system_id":"levelo_inurba_marseille","lat":43.29746,"lon":5.46024,"is_reserved":false,"is_disabled":true,"rental_uris":{"android":"levelo://app?vid=66b1cbfb-c132-4ef4-922c-0beab9b5a350","ios":"levelo://app?vid=66b1cbfb-c132-4ef4-922c-0beab9b5a350"},"vehicle_type_id":"4","last_reported":1749817235,"current_range_meters":0,"station_id":"","pricing_plan_id":"cebpf4jnsgd1na2vs0mg"},{"bike_id":"492f4bbd-1190-4ef2-b66a-479ffe91b09b","system_id":"levelo_inurba_marseille","lat":43.337444,"lon":5.374475,"is_reserved":false,"is_disabled":true,"rental_uris":{"android":"levelo://app?vid=492f4bbd-1190-4ef2-b66a-479ffe91b09b","ios":"levelo://app?vid=492f4bbd-1190-4ef2-b66a-479ffe91b09b"},"vehicle_type_id":"4","last_reported":1749817235,"current_range_meters":0,"station_id":"","pricing_plan_id":"cebpf4jnsgd1na2vs0mg"},{"bike_id":"a9b6bf99-4070-4437-bb20-72962ae30b90","system_id":"levelo_inurba_marseille","lat":43.27463,"lon":5.36389,"is_reserved":false,"is_disabled":true,"rental_uris":{"android":"levelo://app?vid=a9b6bf99-4070-4437-bb20-72962ae30b90","ios":"levelo://app?vid=a9b6bf99-4070-4437-bb20-72962ae30b90"},"vehicle_type_id":"4","last_reported":1749817235,"current_range_meters":0,"station_id":"","pricing_plan_id":"cebpf4jnsgd1na2vs0mg"},{"bike_id":"9233e001-8abb-4e97-a121-a97b2003078a","system_id":"levelo_inurba_marseille","lat":43.30134,"lon":5.38786,"is_reserved":false,"is_disabled":true,"rental_uris":{"android":"levelo://app?vid=9233e001-8abb-4e97-a121-a97b2003078a","ios":"levelo://app?vid=9233e001-8abb-4e97-a121-a97b2003078a"},"vehicle_type_id":"4","last_reported":1749817235,"current_range_meters":0,"station_id":"ce4bghh2rcd13ifvqb60","pricing_plan_id":"cebpf4jnsgd1na2vs0mg"},{"bike_id":"e258e5e3-043f-4aca-bbde-8ebbb8d5ab5e","system_id":"levelo_inurba_marseille","lat":43.26562,"lon":5.39013,"is_reserved":false,"is_disabled":true,"rental_uris":{"android":"levelo://app?vid=e258e5e3-043f-4aca-bbde-8ebbb8d5ab5e","ios":"levelo://app?vid=e258e5e3-043f-4aca-bbde-8ebbb8d5ab5e"},"vehicle_type_id":"4","last_reported":1749817235,"current_range_meters":0,"station_id":"ce4bhe12rcd13ifvqf30","pricing_plan_id":"cebpf4jnsgd1na2vs0mg"},{"bike_id":"d3087379-4eb8-4bf4-9c7b-103d1878b094","system_id":"levelo_inurba_marseille","lat":43.26681,"lon":5.38263,"is_reserved":false,"is_disabled":true,"rental_uris":{"android":"levelo://app?vid=d3087379-4eb8-4bf4-9c7b-103d1878b094","ios":"levelo://app?vid=d3087379-4eb8-4bf4-9c7b-103d1878b094"},"vehicle_type_id":"4","last_reported":1749817235,"current_range_meters":0,"station_id":"ce4bhg92rcd13ifvqf90","pricing_plan_id":"cebpf4jnsgd1na2vs0mg"},{"bike_id":"fe881d36-1c57-4464-8d16-970bb306816f","system_id":"levelo_inurba_marseille","lat":43.21748,"lon":5.34601,"is_reserved":false,"is_disabled":true,"rental_uris":{"android":"levelo://app?vid=fe881d36-1c57-4464-8d16-970bb306816f","ios":"levelo://app?vid=fe881d36-1c57-4464-8d16-970bb306816f"},"vehicle_type_id":"4","last_reported":1749817235,"current_range_meters":0,"station_id":"st_cvj6r9ubvosntc0bgbag","pricing_plan_id":"cebpf4jnsgd1na2vs0mg"},{"bike_id":"b2fe2b4f-8d56-4252-b144-77194e0ab180","system_id":"levelo_inurba_marseille","lat":43.21747,"lon":5.34601,"is_reserved":false,"is_disabled":true,"rental_uris":{"android":"levelo://app?vid=b2fe2b4f-8d56-4252-b144-77194e0ab180","ios":"levelo://app?vid=b2fe2b4f-8d56-4252-b144-77194e0ab180"},"vehicle_type_id":"4","last_reported":1749817235,"current_range_meters":0,"station_id":"st_cvj6r9ubvosntc0bgbag","pricing_plan_id":"cebpf4jnsgd1na2vs0mg"},{"bike_id":"c7ed29cf-1d0b-4b1f-8db7-a985499fe63e","system_id":"levelo_inurba_marseille","lat":43.32556,"lon":5.41422,"is_reserved":false,"is_disabled":true,"rental_uris":{"android":"levelo://app?vid=c7ed29cf-1d0b-4b1f-8db7-a985499fe63e","ios":"levelo://app?vid=c7ed29cf-1d0b-4b1f-8db7-a985499fe63e"},"vehicle_type_id":"4","last_reported":1749817235,"current_range_meters":400,"station_id":"ce4bhq12rcd13ifvqhhg","pricing_plan_id":"cebpf4jnsgd1na2vs0mg"},{"bike_id":"d996dea8-161c-40db-8449-f21e1d4cfd91","system_id":"levelo_inurba_marseille","lat":43.21743,"lon":5.34599,"is_reserved":false,"is_disabled":true,"rental_uris":{"android":"levelo://app?vid=d996dea8-161c-40db-8449-f21e1d4cfd91","ios":"levelo://app?vid=d996dea8-161c-40db-8449-f21e1d4cfd91"},"vehicle_type_id":"4","last_reported":1749817235,"current_range_meters":400,"station_id":"st_cvj6r9ubvosntc0bgbag","pricing_plan_id":"cebpf4jnsgd1na2vs0mg"},{"bike_id":"a5652db6-c4dd-41f1-afe5-06a93e19d8ff","system_id":"levelo_inurba_marseille","lat":43.24605,"lon":5.39328,"is_reserved":false,"is_disabled":true,"rental_uris":{"android":"levelo://app?vid=a5652db6-c4dd-41f1-afe5-06a93e19d8ff","ios":"levelo://app?vid=a5652db6-c4dd-41f1-afe5-06a93e19d8ff"},"vehicle_type_id":"4","last_reported":1749817235,"current_range_meters":800,"station_id":"","pricing_plan_id":"cebpf4jnsgd1na2vs0mg"},{"bike_id":"753d4142-b545-418b-adcf-c0dd41ca0daf","system_id":"levelo_inurba_marseille","lat":43.2826,"lon":5.35063,"is_reserved":false,"is_disabled":true,"rental_uris":{"android":"levelo://app?vid=753d4142-b545-418b-adcf-c0dd41ca0daf","ios":"levelo://app?vid=753d4142-b545-418b-adcf-c0dd41ca0daf"},"vehicle_type_id":"4","last_reported":1749817235,"current_range_meters":800,"station_id":"ce4bhbp2rcd13ifvqerg","pricing_plan_id":"cebpf4jnsgd1na2vs0mg"},{"bike_id":"77903d9f-7b60-4224-a023-c7dbdc7c96af","system_id":"levelo_inurba_marseille","lat":43.24397,"lon":5.37057,"is_reserved":false,"is_disabled":true,"rental_uris":{"android":"levelo://app?vid=77903d9f-7b60-4224-a023-c7dbdc7c96af","ios":"levelo://app?vid=77903d9f-7b60-4224-a023-c7dbdc7c96af"},"vehicle_type_id":"4","last_reported":1749817235,"current_range_meters":800,"station_id":"ce4bhhh2rcd13ifvqfk0","pricing_plan_id":"cebpf4jnsgd1na2vs0mg"},{"bike_id":"52c2e1be-a7fa-4069-bde6-f38d584e0d07","system_id":"levelo_inurba_marseille","lat":43.23965,"lon":5.36623,"is_reserved":false,"is_disabled":true,"rental_uris":{"android":"levelo://app?vid=52c2e1be-a7fa-4069-bde6-f38d584e0d07","ios":"levelo://app?vid=52c2e1be-a7fa-4069-bde6-f38d584e0d07"},"vehicle_type_id":"4","last_reported":1749817235,"current_range_meters":800,"station_id":"ce4bhi12rcd13ifvqfp0","pricing_plan_id":"cebpf4jnsgd1na2vs0mg"},{"bike_id":"2372d1af-cffe-4748-8ed8-9d9abbd4855d","system_id":"levelo_inurba_marseille","lat":43.24186,"lon":5.39721,"is_reserved":false,"is_disabled":true,"rental_uris":{"android":"levelo://app?vid=2372d1af-cffe-4748-8ed8-9d9abbd4855d","ios":"levelo://app?vid=2372d1af-cffe-4748-8ed8-9d9abbd4855d"},"vehicle_type_id":"4","last_reported":1749817235,"current_range_meters":800,"station_id":"ce4bhn12rcd13ifvqgpg","pricing_plan_id":"cebpf4jnsgd1na2vs0mg"},{"bike_id":"5c219ba0-bd6f-4ec1-8199-9fc28d07f25c","system_id":"levelo_inurba_marseille","lat":43.32301,"lon":5.44685,"is_reserved":false,"is_disabled":true,"rental_uris":{"android":"levelo://app?vid=5c219ba0-bd6f-4ec1-8199-9fc28d07f25c","ios":"levelo://app?vid=5c219ba0-bd6f-4ec1-8199-9fc28d07f25c"},"vehicle_type_id":"4","last_reported":1749817235,"current_range_meters":1200,"station_id":"","pricing_plan_id":"cebpf4jnsgd1na2vs0mg"},{"bike_id":"8c5f15f1-4958-45fb-a929-c7991c8814e4","system_id":"levelo_inurba_marseille","lat":43.30139,"lon":5.39867,"is_reserved":false,"is_disabled":true,"rental_uris":{"android":"levelo://app?vid=8c5f15f1-4958-45fb-a929-c7991c8814e4","ios":"levelo://app?vid=8c5f15f1-4958-45fb-a929-c7991c8814e4"},"vehicle_type_id":"4","last_reported":1749817235,"current_range_meters":1200,"station_id":"ce4bh0h2rcd13ifvqd40","pricing_plan_id":"cebpf4jnsgd1na2vs0mg"},{"bike_id":"e3302f52-969a-4eb2-afd4-1817e9768ded","system_id":"levelo_inurba_marseille","lat":43.29215,"lon":5.36049,"is_reserved":false,"is_disabled":true,"rental_uris":{"android":"levelo://app?vid=e3302f52-969a-4eb2-afd4-1817e9768ded","ios":"levelo://app?vid=e3302f52-969a-4eb2-afd4-1817e9768ded"},"vehicle_type_id":"4","last_reported":1749817235,"current_range_meters":1200,"station_id":"ce4bhbh2rcd13ifvqeqg","pricing_plan_id":"cebpf4jnsgd1na2vs0mg"},{"bike_id":"6ee33a5b-7a23-42ec-9bdf-00a2e2034ace","system_id":"levelo_inurba_marseille","lat":43.25493,"lon":5.37646,"is_reserved":false,"is_disabled":true,"rental_uris":{"android":"levelo://app?vid=6ee33a5b-7a23-42ec-9bdf-00a2e2034ace","ios":"levelo://app?vid=6ee33a5b-7a23-42ec-9bdf-00a2e2034ace"},"vehicle_type_id":"4","last_reported":1749817235,"current_range_meters":1200,"station_id":"ce4bhh12rcd13ifvqff0","pricing_plan_id":"cebpf4jnsgd1na2vs0mg"},{"bike_id":"45c26521-5933-492a-b25a-2a5dd5c8a627","system_id":"levelo_inurba_marseille","lat":43.26808,"lon":5.40254,"is_reserved":false,"is_disabled":true,"rental_uris":{"android":"levelo://app?vid=45c26521-5933-492a-b25a-2a5dd5c8a627","ios":"levelo://app?vid=45c26521-5933-492a-b25a-2a5dd5c8a627"},"vehicle_type_id":"4","last_reported":1749817235,"current_range_meters":1200,"station_id":"ce501612rcd8frsf0b60","pricing_plan_id":"cebpf4jnsgd1na2vs0mg"},{"bike_id":"d1483555-540b-4c93-ad98-8afff5bd5665","system_id":"levelo_inurba_marseille","lat":43.31165,"lon":5.38718,"is_reserved":false,"is_disabled":true,"rental_uris":{"android":"levelo://app?vid=d1483555-540b-4c93-ad98-8afff5bd5665","ios":"levelo://app?vid=d1483555-540b-4c93-ad98-8afff5bd5665"},"vehicle_type_id":"4","last_reported":1749817235,"current_range_meters":1600,"station_id":"ce4bgv12rcd13ifvqcp0","pricing_plan_id":"cebpf4jnsgd1na2vs0mg"},{"bike_id":"0f48118a-29a7-4416-a755-36d024dae807","system_id":"levelo_inurba_marseille","lat":43.29521,"lon":5.39041,"is_reserved":false,"is_disabled":true,"rental_uris":{"android":"levelo://app?vid=0f48118a-29a7-4416-a755-36d024dae807","ios":"levelo://app?vid=0f48118a-29a7-4416-a755-36d024dae807"},"vehicle_type_id":"4","last_reported":1749817235,"current_range_meters":1600,"station_id":"ce4bh3p2rcd13ifvqdp0","pricing_plan_id":"cebpf4jnsgd1na2vs0mg"},{"bike_id":"433531d1-baa4-4fff-8083-69f1f740a2e1","system_id":"levelo_inurba_marseille","lat":43.26555,"lon":5.37284,"is_reserved":false,"is_disabled":true,"rental_uris":{"android":"levelo://app?vid=433531d1-baa4-4fff-8083-69f1f740a2e1","ios":"levelo://app?vid=433531d1-baa4-4fff-8083-69f1f740a2e1"},"vehicle_type_id":"4","last_reported":1749817235,"current_range_meters":2000,"station_id":"ce4bhg12rcd13ifvqf70","pricing_plan_id":"cebpf4jnsgd1na2vs0mg"},{"bike_id":"dd072a9b-f4cf-4596-ae64-3a3c76c815b6","system_id":"levelo_inurba_marseille","lat":43.29782,"lon":5.39335,"is_reserved":false,"is_disabled":true,"rental_uris":{"android":"levelo://app?vid=dd072a9b-f4cf-4596-ae64-3a3c76c815b6","ios":"levelo://app?vid=dd072a9b-f4cf-4596-ae64-3a3c76c815b6"},"vehicle_type_id":"4","last_reported":1749817235,"current_range_meters":2000,"station_id":"chh1huq6cuj3fo74tm60","pricing_plan_id":"cebpf4jnsgd1na2vs0mg"},{"bike_id":"c08d2e2d-85c8-4fe2-8f8d-ca404b3b0a89","system_id":"levelo_inurba_marseille","lat":43.217465,"lon":5.34602,"is_reserved":false,"is_disabled":true,"rental_uris":{"android":"levelo://app?vid=c08d2e2d-85c8-4fe2-8f8d-ca404b3b0a89","ios":"levelo://app?vid=c08d2e2d-85c8-4fe2-8f8d-ca404b3b0a89"},"vehicle_type_id":"4","last_reported":1749817235,"current_range_meters":2000,"station_id":"st_cvj6r9ubvosntc0bgbag","pricing_plan_id":"cebpf4jnsgd1na2vs0mg"},{"bike_id":"c6a03e19-dcdb-48c1-aaa0-b0bdac3f0ef5","system_id":"levelo_inurba_marseille","lat":43.30459,"lon":5.37906,"is_reserved":false,"is_disabled":false,"rental_uris":{"android":"levelo://app?vid=c6a03e19-dcdb-48c1-aaa0-b0bdac3f0ef5","ios":"levelo://app?vid=c6a03e19-dcdb-48c1-aaa0-b0bdac3f0ef5"},"vehicle_type_id":"4","last_reported":1749817235,"current_range_meters":2800,"station_id":"ce4bgup2rcd13ifvqcn0","pricing_plan_id":"cebpf4jnsgd1na2vs0mg"},{"bike_id":"e5ac0ffc-7cf2-4f80-8de4-4f607c040a89","system_id":"levelo_inurba_marseille","lat":43.29789,"lon":5.39339,"is_reserved":false,"is_disabled":false,"rental_uris":{"android":"levelo://app?vid=e5ac0ffc-7cf2-4f80-8de4-4f607c040a89","ios":"levelo://app?vid=e5ac0ffc-7cf2-4f80-8de4-4f607c040a89"},"vehicle_type_id":"4","last_reported":1749817235,"current_range_meters":2800,"station_id":"chh1huq6cuj3fo74tm60","pricing_plan_id":"cebpf4jnsgd1na2vs0mg"},{"bike_id":"8e108a83-e2bf-43e0-9b41-3765b051abd1","system_id":"levelo_inurba_marseille","lat":43.28058,"lon":5.34955,"is_reserved":false,"is_disabled":false,"rental_uris":{"android":"levelo://app?vid=8e108a83-e2bf-43e0-9b41-3765b051abd1","ios":"levelo://app?vid=8e108a83-e2bf-43e0-9b41-3765b051abd1"},"vehicle_type_id":"4","last_reported":1749817235,"current_range_meters":3200,"station_id":"","pricing_plan_id":"cebpf4jnsgd1na2vs0mg"},{"bike_id":"a0b52b75-7bc8-4ea6-b385-c6e1eb495578","system_id":"levelo_inurba_marseille","lat":43.28259,"lon":5.35054,"is_reserved":false,"is_disabled":false,"rental_uris":{"android":"levelo://app?vid=a0b52b75-7bc8-4ea6-b385-c6e1eb495578","ios":"levelo://app?vid=a0b52b75-7bc8-4ea6-b385-c6e1eb495578"},"vehicle_type_id":"4","last_reported":1749817235,"current_range_meters":3200,"station_id":"ce4bhbp2rcd13ifvqerg","pricing_plan_id":"cebpf4jnsgd1na2vs0mg"},{"bike_id":"122cc065-209c-46da-b55d-e60b581799de","system_id":"levelo_inurba_marseille","lat":43.27067,"lon":5.42256,"is_reserved":false,"is_disabled":false,"rental_uris":{"android":"levelo://app?vid=122cc065-209c-46da-b55d-e60b581799de","ios":"levelo://app?vid=122cc065-209c-46da-b55d-e60b581799de"},"vehicle_type_id":"4","last_reported":1749817235,"current_range_meters":3200,"station_id":"ce4bhk92rcd13ifvqgb0","pricing_plan_id":"cebpf4jnsgd1na2vs0mg"},{"bike_id":"127bcefc-364c-49d4-a222-3ea59dd4a67a","system_id":"levelo_inurba_marseille","lat":43.29712,"lon":5.37699,"is_reserved":false,"is_disabled":false,"rental_uris":{"android":"levelo://app?vid=127bcefc-364c-49d4-a222-3ea59dd4a67a","ios":"levelo://app?vid=127bcefc-364c-49d4-a222-3ea59dd4a67a"},"vehicle_type_id":"4","last_reported":1749817235,"current_range_meters":3600,"station_id":"ce4bgkh2rcd13ifvqbl0","pricing_plan_id":"cebpf4jnsgd1na2vs0mg"},{"bike_id":"4644e8b4-620c-4ae9-81db-bedc3d1d16fc","system_id":"levelo_inurba_marseille","lat":43.2826,"lon":5.35068,"is_reserved":false,"is_disabled":false,"rental_uris":{"android":"levelo://app?vid=4644e8b4-620c-4ae9-81db-bedc3d1d16fc","ios":"levelo://app?vid=4644e8b4-620c-4ae9-81db-bedc3d1d16fc"},"vehicle_type_id":"4","last_reported":1749817235,"current_range_meters":3600,"station_id":"ce4bhbp2rcd13ifvqerg","pricing_plan_id":"cebpf4jnsgd1na2vs0mg"},{"bike_id":"be204522-4de4-4ba1-882f-aec771761fc4","system_id":"levelo_inurba_marseille","lat":43.27492,"lon":5.42459,"is_reserved":false,"is_disabled":false,"rental_uris":{"android":"levelo://app?vid=be204522-4de4-4ba1-882f-aec771761fc4","ios":"levelo://app?vid=be204522-4de4-4ba1-882f-aec771761fc4"},"vehicle_type_id":"4","last_reported":1749817235,"current_range_meters":3600,"station_id":"ce4bhn92rcd13ifvqgrg","pricing_plan_id":"cebpf4jnsgd1na2vs0mg"},{"bike_id":"5af4e938-7b1d-4ac7-bb6e-7539dbe6fa5a","system_id":"levelo_inurba_marseille","lat":43.29434,"lon":5.39762,"is_reserved":false,"is_disabled":false,"rental_uris":{"android":"levelo://app?vid=5af4e938-7b1d-4ac7-bb6e-7539dbe6fa5a","ios":"levelo://app?vid=5af4e938-7b1d-4ac7-bb6e-7539dbe6fa5a"},"vehicle_type_id":"4","last_reported":1749817235,"current_range_meters":4000,"station_id":"ce4bh3h2rcd13ifvqdo0","pricing_plan_id":"cebpf4jnsgd1na2vs0mg"},{"bike_id":"02d6e977-e583-4524-8b5d-7ffa10516b1f","system_id":"levelo_inurba_marseille","lat":43.23966,"lon":5.36629,"is_reserved":false,"is_disabled":false,"rental_uris":{"android":"levelo://app?vid=02d6e977-e583-4524-8b5d-7ffa10516b1f","ios":"levelo://app?vid=02d6e977-e583-4524-8b5d-7ffa10516b1f"},"vehicle_type_id":"4","last_reported":1749817235,"current_range_meters":4000,"station_id":"ce4bhi12rcd13ifvqfp0","pricing_plan_id":"cebpf4jnsgd1na2vs0mg"},{"bike_id":"484bee35-616e-49ee-9cb0-993f377c22c0","system_id":"levelo_inurba_marseille","lat":43.30257,"lon":5.40071,"is_reserved":false,"is_disabled":false,"rental_uris":{"android":"levelo://app?vid=484bee35-616e-49ee-9cb0-993f377c22c0","ios":"levelo://app?vid=484bee35-616e-49ee-9cb0-993f377c22c0"},"vehicle_type_id":"4","last_reported":1749817235,"current_range_meters":4400,"station_id":"ce4bgvh2rcd13ifvqcs0","pricing_plan_id":"cebpf4jnsgd1na2vs0mg"},{"bike_id":"3da93439-f90e-43d1-b7bc-71777cba2bb3","system_id":"levelo_inurba_marseille","lat":43.28619,"lon":5.35103,"is_reserved":false,"is_disabled":false,"rental_uris":{"android":"levelo://app?vid=3da93439-f90e-43d1-b7bc-71777cba2bb3","ios":"levelo://app?vid=3da93439-f90e-43d1-b7bc-71777cba2bb3"},"vehicle_type_id":"4","last_reported":1749817235,"current_range_meters":4800,"station_id":"ce4bhch2rcd13ifvqeug","pricing_plan_id":"cebpf4jnsgd1na2vs0mg"},{"bike_id":"cbca154c-2aca-4a8b-b009-b491fb83ff8d","system_id":"levelo_inurba_marseille","lat":43.28723,"lon":5.36088,"is_reserved":false,"is_disabled":false,"rental_uris":{"android":"levelo://app?vid=cbca154c-2aca-4a8b-b009-b491fb83ff8d","ios":"levelo://app?vid=cbca154c-2aca-4a8b-b009-b491fb83ff8d"},"vehicle_type_id":"4","last_reported":1749817235,"current_range_meters":4800,"station_id":"cki0cbj6b192h4jlfktg","pricing_plan_id":"cebpf4jnsgd1na2vs0mg"},{"bike_id":"36bb6181-813c-45d6-b75b-69b665d97c99","system_id":"levelo_inurba_marseille","lat":43.28662,"lon":5.35121,"is_reserved":false,"is_disabled":false,"rental_uris":{"android":"levelo://app?vid=36bb6181-813c-45d6-b75b-69b665d97c99","ios":"levelo://app?vid=36bb6181-813c-45d6-b75b-69b665d97c99"},"vehicle_type_id":"4","last_reported":1749817235,"current_range_meters":5600,"station_id":"ce4bhch2rcd13ifvqeug","pricing_plan_id":"cebpf4jnsgd1na2vs0mg"},{"bike_id":"7d50222c-10df-4ace-bc6b-550f015f5aec","system_id":"levelo_inurba_marseille","lat":43.30896,"lon":5.36904,"is_reserved":false,"is_disabled":false,"rental_uris":{"android":"levelo://app?vid=7d50222c-10df-4ace-bc6b-550f015f5aec","ios":"levelo://app?vid=7d50222c-10df-4ace-bc6b-550f015f5aec"},"vehicle_type_id":"4","last_reported":1749817235,"current_range_meters":6000,"station_id":"ce4bgn92rcd13ifvqbvg","pricing_plan_id":"cebpf4jnsgd1na2vs0mg"},{"bike_id":"a616c80f-08b4-4bbd-85d3-1c39e4107a23","system_id":"levelo_inurba_marseille","lat":43.30169,"lon":5.37398,"is_reserved":false,"is_disabled":false,"rental_uris":{"android":"levelo://app?vid=a616c80f-08b4-4bbd-85d3-1c39e4107a23","ios":"levelo://app?vid=a616c80f-08b4-4bbd-85d3-1c39e4107a23"},"vehicle_type_id":"4","last_reported":1749817235,"current_range_meters":6400,"station_id":"ce4bgs92rcd13ifvqcc0","pricing_plan_id":"cebpf4jnsgd1na2vs0mg"},{"bike_id":"0f9cfb01-619c-444f-b6e6-f5373c1eaa3a","system_id":"levelo_inurba_marseille","lat":43.29256,"lon":5.40905,"is_reserved":false,"is_disabled":false,"rental_uris":{"android":"levelo://app?vid=0f9cfb01-619c-444f-b6e6-f5373c1eaa3a","ios":"levelo://app?vid=0f9cfb01-619c-444f-b6e6-f5373c1eaa3a"},"vehicle_type_id":"4","last_reported":1749817235,"current_range_meters":6400,"station_id":"ce4bh192rcd13ifvqdc0","pricing_plan_id":"cebpf4jnsgd1na2vs0mg"},{"bike_id":"db1e2359-a428-4444-afbe-23b0191a1544","system_id":"levelo_inurba_marseille","lat":43.34142,"lon":5.40905,"is_reserved":false,"is_disabled":false,"rental_uris":{"android":"levelo://app?vid=db1e2359-a428-4444-afbe-23b0191a1544","ios":"levelo://app?vid=db1e2359-a428-4444-afbe-23b0191a1544"},"vehicle_type_id":"4","last_reported":1749817235,"current_range_meters":6400,"station_id":"ce4bhqh2rcd13ifvqhlg","pricing_plan_id":"cebpf4jnsgd1na2vs0mg"},{"bike_id":"e9d00dba-1cac-4451-8c69-9659dba69c74","system_id":"levelo_inurba_marseille","lat":43.21747,"lon":5.34607,"is_reserved":false,"is_disabled":false,"rental_uris":{"android":"levelo://app?vid=e9d00dba-1cac-4451-8c69-9659dba69c74","ios":"levelo://app?vid=e9d00dba-1cac-4451-8c69-9659dba69c74"},"vehicle_type_id":"4","last_reported":1749817235,"current_range_meters":6400,"station_id":"st_cvj6r9ubvosntc0bgbag","pricing_plan_id":"cebpf4jnsgd1na2vs0mg"},{"bike_id":"267ed724-dbbc-44e8-8902-7680aaaa1318","system_id":"levelo_inurba_marseille","lat":43.30187,"lon":5.36617,"is_reserved":false,"is_disabled":false,"rental_uris":{"android":"levelo://app?vid=267ed724-dbbc-44e8-8902-7680aaaa1318","ios":"levelo://app?vid=267ed724-dbbc-44e8-8902-7680aaaa1318"},"vehicle_type_id":"4","last_reported":1749817235,"current_range_meters":6800,"station_id":"ce4bgrh2rcd13ifvqc8g","pricing_plan_id":"cebpf4jnsgd1na2vs0mg"},{"bike_id":"27e06f8a-e2f6-4cbd-a4ac-9fdf14794b4c","system_id":"levelo_inurba_marseille","lat":43.28408,"lon":5.37517,"is_reserved":false,"is_disabled":false,"rental_uris":{"android":"levelo://app?vid=27e06f8a-e2f6-4cbd-a4ac-9fdf14794b4c","ios":"levelo://app?vid=27e06f8a-e2f6-4cbd-a4ac-9fdf14794b4c"},"vehicle_type_id":"4","last_reported":1749817235,"current_range_meters":6800,"station_id":"ce4bh412rcd13ifvqds0","pricing_plan_id":"cebpf4jnsgd1na2vs0mg"},{"bike_id":"3764332d-fd53-47b0-81ae-e1de90b6d8ae","system_id":"levelo_inurba_marseille","lat":43.27373,"lon":5.36257,"is_reserved":false,"is_disabled":false,"rental_uris":{"android":"levelo://app?vid=3764332d-fd53-47b0-81ae-e1de90b6d8ae","ios":"levelo://app?vid=3764332d-fd53-47b0-81ae-e1de90b6d8ae"},"vehicle_type_id":"4","last_reported":1749817235,"current_range_meters":6800,"station_id":"ce4bhbh2rcd13ifvqeo0","pricing_plan_id":"cebpf4jnsgd1na2vs0mg"},{"bike_id":"ead1f6c6-3753-43b0-beff-a2456127e3d0","system_id":"levelo_inurba_marseille","lat":43.27169,"lon":5.40989,"is_reserved":false,"is_disabled":false,"rental_uris":{"android":"levelo://app?vid=ead1f6c6-3753-43b0-beff-a2456127e3d0","ios":"levelo://app?vid=ead1f6c6-3753-43b0-beff-a2456127e3d0"},"vehicle_type_id":"4","last_reported":1749817235,"current_range_meters":6800,"station_id":"ce4bhl12rcd13ifvqgf0","pricing_plan_id":"cebpf4jnsgd1na2vs0mg"},{"bike_id":"04da508e-bd77-4dbb-9edd-2e930e2877f4","system_id":"levelo_inurba_marseille","lat":43.28719,"lon":5.36104,"is_reserved":false,"is_disabled":false,"rental_uris":{"android":"levelo://app?vid=04da508e-bd77-4dbb-9edd-2e930e2877f4","ios":"levelo://app?vid=04da508e-bd77-4dbb-9edd-2e930e2877f4"},"vehicle_type_id":"4","last_reported":1749817235,"current_range_meters":6800,"station_id":"cki0cbj6b192h4jlfktg","pricing_plan_id":"cebpf4jnsgd1na2vs0mg"},{"bike_id":"60d5a232-cd20-4948-a588-d507dd2f3b2e","system_id":"levelo_inurba_marseille","lat":43.24166,"lon":5.36391,"is_reserved":false,"is_disabled":false,"rental_uris":{"android":"levelo://app?vid=60d5a232-cd20-4948-a588-d507dd2f3b2e","ios":"levelo://app?vid=60d5a232-cd20-4948-a588-d507dd2f3b2e"},"vehicle_type_id":"4","last_reported":1749817235,"current_range_meters":6800,"station_id":"cpo36qri1sfpv3e86is0","pricing_plan_id":"cebpf4jnsgd1na2vs0mg"},{"bike_id":"a426bcb6-9733-433a-b425-ccc13f254a65","system_id":"levelo_inurba_marseille","lat":43.29569,"lon":5.4424,"is_reserved":false,"is_disabled":false,"rental_uris":{"android":"levelo://app?vid=a426bcb6-9733-433a-b425-ccc13f254a65","ios":"levelo://app?vid=a426bcb6-9733-433a-b425-ccc13f254a65"},"vehicle_type_id":"4","last_reported":1749817235,"current_range_meters":7200,"station_id":"","pricing_plan_id":"cebpf4jnsgd1na2vs0mg"},{"bike_id":"6fb157cb-73ed-4644-bf6c-5f456e4ed879","system_id":"levelo_inurba_marseille","lat":43.3054,"lon":5.36549,"is_reserved":false,"is_disabled":false,"rental_uris":{"android":"levelo://app?vid=6fb157cb-73ed-4644-bf6c-5f456e4ed879","ios":"levelo://app?vid=6fb157cb-73ed-4644-bf6c-5f456e4ed879"},"vehicle_type_id":"4","last_reported":1749817235,"current_range_meters":7200,"station_id":"ce4bgs12rcd13ifvqcag","pricing_plan_id":"cebpf4jnsgd1na2vs0mg"},{"bike_id":"d4d8baed-2a13-49a0-9fc1-90249afdd58f","system_id":"levelo_inurba_marseille","lat":43.292703,"lon":5.384379,"is_reserved":false,"is_disabled":false,"rental_uris":{"android":"levelo://app?vid=d4d8baed-2a13-49a0-9fc1-90249afdd58f","ios":"levelo://app?vid=d4d8baed-2a13-49a0-9fc1-90249afdd58f"},"vehicle_type_id":"4","last_reported":1749817235,"current_range_meters":8000,"station_id":"","pricing_plan_id":"cebpf4jnsgd1na2vs0mg"},{"bike_id":"501fe5cc-ec9f-4031-8e12-9c9a87dfd25d","system_id":"levelo_inurba_marseille","lat":43.31816,"lon":5.40589,"is_reserved":false,"is_disabled":false,"rental_uris":{"android":"levelo://app?vid=501fe5cc-ec9f-4031-8e12-9c9a87dfd25d","ios":"levelo://app?vid=501fe5cc-ec9f-4031-8e12-9c9a87dfd25d"},"vehicle_type_id":"4","last_reported":1749817235,"current_range_meters":8000,"station_id":"","pricing_plan_id":"cebpf4jnsgd1na2vs0mg"},{"bike_id":"a25b84b4-c252-4eda-97fb-1a1f22303c5d","system_id":"levelo_inurba_marseille","lat":43.31413,"lon":5.37445,"is_reserved":false,"is_disabled":false,"rental_uris":{"android":"levelo://app?vid=a25b84b4-c252-4eda-97fb-1a1f22303c5d","ios":"levelo://app?vid=a25b84b4-c252-4eda-97fb-1a1f22303c5d"},"vehicle_type_id":"4","last_reported":1749817235,"current_range_meters":8000,"station_id":"","pricing_plan_id":"cebpf4jnsgd1na2vs0mg"},{"bike_id":"e8d68184-ca13-457e-8092-2110dd0bce19","system_id":"levelo_inurba_marseille","lat":43.273751,"lon":5.36262,"is_reserved":false,"is_disabled":false,"rental_uris":{"android":"levelo://app?vid=e8d68184-ca13-457e-8092-2110dd0bce19","ios":"levelo://app?vid=e8d68184-ca13-457e-8092-2110dd0bce19"},"vehicle_type_id":"4","last_reported":1749817235,"current_range_meters":8000,"station_id":"ce4bhbh2rcd13ifvqeo0","pricing_plan_id":"cebpf4jnsgd1na2vs0mg"},{"bike_id":"cb2b0097-51d3-4704-9421-d9658a88f287","system_id":"levelo_inurba_marseille","lat":43.28359,"lon":5.38633,"is_reserved":false,"is_disabled":false,"rental_uris":{"android":"levelo://app?vid=cb2b0097-51d3-4704-9421-d9658a88f287","ios":"levelo://app?vid=cb2b0097-51d3-4704-9421-d9658a88f287"},"vehicle_type_id":"4","last_reported":1749817235,"current_range_meters":8400,"station_id":"ce4bh492rcd13ifvqdvg","pricing_plan_id":"cebpf4jnsgd1na2vs0mg"},{"bike_id":"97421c04-2630-4fc1-9da9-b17d88602c5f","system_id":"levelo_inurba_marseille","lat":43.337599,"lon":5.374395,"is_reserved":false,"is_disabled":false,"rental_uris":{"android":"levelo://app?vid=97421c04-2630-4fc1-9da9-b17d88602c5f","ios":"levelo://app?vid=97421c04-2630-4fc1-9da9-b17d88602c5f"},"vehicle_type_id":"4","last_reported":1749817235,"current_range_meters":8800,"station_id":"","pricing_plan_id":"cebpf4jnsgd1na2vs0mg"},{"bike_id":"8d60347d-541c-40fb-90ca-203bf6bd520a","system_id":"levelo_inurba_marseille","lat":43.27123,"lon":5.36397,"is_reserved":false,"is_disabled":false,"rental_uris":{"android":"levelo://app?vid=8d60347d-541c-40fb-90ca-203bf6bd520a","ios":"levelo://app?vid=8d60347d-541c-40fb-90ca-203bf6bd520a"},"vehicle_type_id":"4","last_reported":1749817235,"current_range_meters":8800,"station_id":"","pricing_plan_id":"cebpf4jnsgd1na2vs0mg"},{"bike_id":"eaf05cf6-fd6d-4ec4-b87d-090b09bae228","system_id":"levelo_inurba_marseille","lat":43.28991,"lon":5.35621,"is_reserved":false,"is_disabled":false,"rental_uris":{"android":"levelo://app?vid=eaf05cf6-fd6d-4ec4-b87d-090b09bae228","ios":"levelo://app?vid=eaf05cf6-fd6d-4ec4-b87d-090b09bae228"},"vehicle_type_id":"4","last_reported":1749817235,"current_range_meters":8800,"station_id":"ce4bhb92rcd13ifvqen0","pricing_plan_id":"cebpf4jnsgd1na2vs0mg"},{"bike_id":"7d78fa50-3202-491d-bbd3-41dcac5e64c9","system_id":"levelo_inurba_marseille","lat":43.25933,"lon":5.40907,"is_reserved":false,"is_disabled":false,"rental_uris":{"android":"levelo://app?vid=7d78fa50-3202-491d-bbd3-41dcac5e64c9","ios":"levelo://app?vid=7d78fa50-3202-491d-bbd3-41dcac5e64c9"},"vehicle_type_id":"4","last_reported":1749817235,"current_range_meters":8800,"station_id":"ce4bhm92rcd13ifvqglg","pricing_plan_id":"cebpf4jnsgd1na2vs0mg"},{"bike_id":"5483a6ed-e98e-4aea-afc7-c257bc156e52","system_id":"levelo_inurba_marseille","lat":43.2119,"lon":5.35069,"is_reserved":false,"is_disabled":false,"rental_uris":{"android":"levelo://app?vid=5483a6ed-e98e-4aea-afc7-c257bc156e52","ios":"levelo://app?vid=5483a6ed-e98e-4aea-afc7-c257bc156e52"},"vehicle_type_id":"4","last_reported":1749817235,"current_range_meters":8800,"station_id":"st_cvj6sg6p6f1abm77japg","pricing_plan_id":"cebpf4jnsgd1na2vs0mg"},{"bike_id":"1268e070-f02d-4537-93df-0bfd5c4daa05","system_id":"levelo_inurba_marseille","lat":43.32702,"lon":5.37635,"is_reserved":false,"is_disabled":false,"rental_uris":{"android":"levelo://app?vid=1268e070-f02d-4537-93df-0bfd5c4daa05","ios":"levelo://app?vid=1268e070-f02d-4537-93df-0bfd5c4daa05"},"vehicle_type_id":"4","last_reported":1749817235,"current_range_meters":9200,"station_id":"","pricing_plan_id":"cebpf4jnsgd1na2vs0mg"},{"bike_id":"c922a152-9637-4d7c-a0cf-e9f34485b232","system_id":"levelo_inurba_marseille","lat":43.27909,"lon":5.38319,"is_reserved":false,"is_disabled":false,"rental_uris":{"android":"levelo://app?vid=c922a152-9637-4d7c-a0cf-e9f34485b232","ios":"levelo://app?vid=c922a152-9637-4d7c-a0cf-e9f34485b232"},"vehicle_type_id":"4","last_reported":1749817235,"current_range_meters":9200,"station_id":"","pricing_plan_id":"cebpf4jnsgd1na2vs0mg"},{"bike_id":"5d712546-4b6e-4375-8a9a-bb4bba1a65dc","system_id":"levelo_inurba_marseille","lat":43.29703,"lon":5.36616,"is_reserved":false,"is_disabled":false,"rental_uris":{"android":"levelo://app?vid=5d712546-4b6e-4375-8a9a-bb4bba1a65dc","ios":"levelo://app?vid=5d712546-4b6e-4375-8a9a-bb4bba1a65dc"},"vehicle_type_id":"4","last_reported":1749817235,"current_range_meters":9200,"station_id":"ce4bgn12rcd13ifvqbt0","pricing_plan_id":"cebpf4jnsgd1na2vs0mg"},{"bike_id":"2ae3497c-45b2-474e-a61b-246541dfb5a5","system_id":"levelo_inurba_marseille","lat":43.31347,"lon":5.36731,"is_reserved":false,"is_disabled":false,"rental_uris":{"android":"levelo://app?vid=2ae3497c-45b2-474e-a61b-246541dfb5a5","ios":"levelo://app?vid=2ae3497c-45b2-474e-a61b-246541dfb5a5"},"vehicle_type_id":"4","last_reported":1749817235,"current_range_meters":9200,"station_id":"ce4bgr92rcd13ifvqc6g","pricing_plan_id":"cebpf4jnsgd1na2vs0mg"},{"bike_id":"d37798cc-4905-4ac4-b76f-b756d8f4a069","system_id":"levelo_inurba_marseille","lat":43.2815,"lon":5.42639,"is_reserved":false,"is_disabled":false,"rental_uris":{"android":"levelo://app?vid=d37798cc-4905-4ac4-b76f-b756d8f4a069","ios":"levelo://app?vid=d37798cc-4905-4ac4-b76f-b756d8f4a069"},"vehicle_type_id":"4","last_reported":1749817235,"current_range_meters":9200,"station_id":"ce4bhnh2rcd13ifvqgug","pricing_plan_id":"cebpf4jnsgd1na2vs0mg"},{"bike_id":"0765c6f1-8d5c-4d50-8c10-1b89ae08b9ed","system_id":"levelo_inurba_marseille","lat":43.217435,"lon":5.346003,"is_reserved":false,"is_disabled":false,"rental_uris":{"android":"levelo://app?vid=0765c6f1-8d5c-4d50-8c10-1b89ae08b9ed","ios":"levelo://app?vid=0765c6f1-8d5c-4d50-8c10-1b89ae08b9ed"},"vehicle_type_id":"4","last_reported":1749817235,"current_range_meters":9200,"station_id":"st_cvj6r9ubvosntc0bgbag","pricing_plan_id":"cebpf4jnsgd1na2vs0mg"},{"bike_id":"c34bbb0b-dbee-4ba1-afcd-fd1087748bfe","system_id":"levelo_inurba_marseille","lat":43.25475,"lon":5.37667,"is_reserved":false,"is_disabled":false,"rental_uris":{"android":"levelo://app?vid=c34bbb0b-dbee-4ba1-afcd-fd1087748bfe","ios":"levelo://app?vid=c34bbb0b-dbee-4ba1-afcd-fd1087748bfe"},"vehicle_type_id":"4","last_reported":1749817235,"current_range_meters":9600,"station_id":"ce4bhh12rcd13ifvqff0","pricing_plan_id":"cebpf4jnsgd1na2vs0mg"},{"bike_id":"c9a22d40-0047-4dbb-b618-401fb2f91248","system_id":"levelo_inurba_marseille","lat":43.28701,"lon":5.39983,"is_reserved":false,"is_disabled":false,"rental_uris":{"android":"levelo://app?vid=c9a22d40-0047-4dbb-b618-401fb2f91248","ios":"levelo://app?vid=c9a22d40-0047-4dbb-b618-401fb2f91248"},"vehicle_type_id":"4","last_reported":1749817235,"current_range_meters":9600,"station_id":"ce4bho92rcd13ifvqh3g","pricing_plan_id":"cebpf4jnsgd1na2vs0mg"},{"bike_id":"3a11c5a8-e636-4a8e-97c5-5f95a0b7cfbb","system_id":"levelo_inurba_marseille","lat":43.3377,"lon":5.39203,"is_reserved":false,"is_disabled":false,"rental_uris":{"android":"levelo://app?vid=3a11c5a8-e636-4a8e-97c5-5f95a0b7cfbb","ios":"levelo://app?vid=3a11c5a8-e636-4a8e-97c5-5f95a0b7cfbb"},"vehicle_type_id":"4","last_reported":1749817235,"current_range_meters":10000,"station_id":"","pricing_plan_id":"cebpf4jnsgd1na2vs0mg"},{"bike_id":"d868bd62-3c5e-4130-a7d2-3bd9b314843a","system_id":"levelo_inurba_marseille","lat":43.27006,"lon":5.42818,"is_reserved":false,"is_disabled":false,"rental_uris":{"android":"levelo://app?vid=d868bd62-3c5e-4130-a7d2-3bd9b314843a","ios":"levelo://app?vid=d868bd62-3c5e-4130-a7d2-3bd9b314843a"},"vehicle_type_id":"4","last_reported":1749817235,"current_range_meters":10000,"station_id":"","pricing_plan_id":"cebpf4jnsgd1na2vs0mg"},{"bike_id":"063eff84-b62e-4128-85ed-5896eed2f5f4","system_id":"levelo_inurba_marseille","lat":43.31318,"lon":5.37504,"is_reserved":false,"is_disabled":false,"rental_uris":{"android":"levelo://app?vid=063eff84-b62e-4128-85ed-5896eed2f5f4","ios":"levelo://app?vid=063eff84-b62e-4128-85ed-5896eed2f5f4"},"vehicle_type_id":"4","last_reported":1749817235,"current_range_meters":10000,"station_id":"","pricing_plan_id":"cebpf4jnsgd1na2vs0mg"},{"bike_id":"efef7ea9-dfe7-4a71-9a42-eb2cee9bc37e","system_id":"levelo_inurba_marseille","lat":43.31194,"lon":5.37243,"is_reserved":false,"is_disabled":false,"rental_uris":{"android":"levelo://app?vid=efef7ea9-dfe7-4a71-9a42-eb2cee9bc37e","ios":"levelo://app?vid=efef7ea9-dfe7-4a71-9a42-eb2cee9bc37e"},"vehicle_type_id":"4","last_reported":1749817235,"current_range_meters":10000,"station_id":"","pricing_plan_id":"cebpf4jnsgd1na2vs0mg"},{"bike_id":"e5ef7447-82af-477b-846f-d44631249354","system_id":"levelo_inurba_marseille","lat":43.32491,"lon":5.38821,"is_reserved":false,"is_disabled":false,"rental_uris":{"android":"levelo://app?vid=e5ef7447-82af-477b-846f-d44631249354","ios":"levelo://app?vid=e5ef7447-82af-477b-846f-d44631249354"},"vehicle_type_id":"4","last_reported":1749817235,"current_range_meters":10000,"station_id":"","pricing_plan_id":"cebpf4jnsgd1na2vs0mg"},{"bike_id":"7393fe38-3094-4607-82de-1e075d77d589","system_id":"levelo_inurba_marseille","lat":43.29707,"lon":5.37697,"is_reserved":false,"is_disabled":false,"rental_uris":{"android":"levelo://app?vid=7393fe38-3094-4607-82de-1e075d77d589","ios":"levelo://app?vid=7393fe38-3094-4607-82de-1e075d77d589"},"vehicle_type_id":"4","last_reported":1749817235,"current_range_meters":10000,"station_id":"ce4bgkh2rcd13ifvqbl0","pricing_plan_id":"cebpf4jnsgd1na2vs0mg"},{"bike_id":"24fa9b70-0dd8-4a41-a7df-5d717033a831","system_id":"levelo_inurba_marseille","lat":43.299743,"lon":5.371765,"is_reserved":false,"is_disabled":false,"rental_uris":{"android":"levelo://app?vid=24fa9b70-0dd8-4a41-a7df-5d717033a831","ios":"levelo://app?vid=24fa9b70-0dd8-4a41-a7df-5d717033a831"},"vehicle_type_id":"4","last_reported":1749817235,"current_range_meters":10000,"station_id":"ce4bgr92rcd13ifvqc7g","pricing_plan_id":"cebpf4jnsgd1na2vs0mg"},{"bike_id":"d3912b54-1a66-479c-8ef2-68cb60917b07","system_id":"levelo_inurba_marseille","lat":43.23195,"lon":5.35555,"is_reserved":false,"is_disabled":false,"rental_uris":{"android":"levelo://app?vid=d3912b54-1a66-479c-8ef2-68cb60917b07","ios":"levelo://app?vid=d3912b54-1a66-479c-8ef2-68cb60917b07"},"vehicle_type_id":"4","last_reported":1749817235,"current_range_meters":10000,"station_id":"ce4bhu92rcd13ifvqi70","pricing_plan_id":"cebpf4jnsgd1na2vs0mg"},{"bike_id":"0a46e738-d974-4c4b-a91f-d0e226ddf71d","system_id":"levelo_inurba_marseille","lat":43.26807,"lon":5.40267,"is_reserved":false,"is_disabled":false,"rental_uris":{"android":"levelo://app?vid=0a46e738-d974-4c4b-a91f-d0e226ddf71d","ios":"levelo://app?vid=0a46e738-d974-4c4b-a91f-d0e226ddf71d"},"vehicle_type_id":"4","last_reported":1749817235,"current_range_meters":10000,"station_id":"ce501612rcd8frsf0b60","pricing_plan_id":"cebpf4jnsgd1na2vs0mg"},{"bike_id":"380a16a6-d2d7-42f7-9003-ec4f6def8fe3","system_id":"levelo_inurba_marseille","lat":43.25583,"lon":5.38227,"is_reserved":false,"is_disabled":false,"rental_uris":{"android":"levelo://app?vid=380a16a6-d2d7-42f7-9003-ec4f6def8fe3","ios":"levelo://app?vid=380a16a6-d2d7-42f7-9003-ec4f6def8fe3"},"vehicle_type_id":"4","last_reported":1749817235,"current_range_meters":10800,"station_id":"ce4bhih2rcd13ifvqfs0","pricing_plan_id":"cebpf4jnsgd1na2vs0mg"},{"bike_id":"f0181827-086b-4bed-9128-f01f8fa6e2d5","system_id":"levelo_inurba_marseille","lat":43.27176,"lon":5.4099,"is_reserved":false,"is_disabled":false,"rental_uris":{"android":"levelo://app?vid=f0181827-086b-4bed-9128-f01f8fa6e2d5","ios":"levelo://app?vid=f0181827-086b-4bed-9128-f01f8fa6e2d5"},"vehicle_type_id":"4","last_reported":1749817235,"current_range_meters":10800,"station_id":"ce4bhl12rcd13ifvqgf0","pricing_plan_id":"cebpf4jnsgd1na2vs0mg"},{"bike_id":"1dc71bc6-2732-4abf-837b-9b3999428cf6","system_id":"levelo_inurba_marseille","lat":43.23183,"lon":5.39988,"is_reserved":false,"is_disabled":false,"rental_uris":{"android":"levelo://app?vid=1dc71bc6-2732-4abf-837b-9b3999428cf6","ios":"levelo://app?vid=1dc71bc6-2732-4abf-837b-9b3999428cf6"},"vehicle_type_id":"4","last_reported":1749817235,"current_range_meters":10800,"station_id":"ce4bhn12rcd13ifvqgqg","pricing_plan_id":"cebpf4jnsgd1na2vs0mg"},{"bike_id":"cac16850-0e6d-465a-bbca-79973376e09f","system_id":"levelo_inurba_marseille","lat":43.27458,"lon":5.39007,"is_reserved":false,"is_disabled":false,"rental_uris":{"android":"levelo://app?vid=cac16850-0e6d-465a-bbca-79973376e09f","ios":"levelo://app?vid=cac16850-0e6d-465a-bbca-79973376e09f"},"vehicle_type_id":"4","last_reported":1749817235,"current_range_meters":11200,"station_id":"","pricing_plan_id":"cebpf4jnsgd1na2vs0mg"},{"bike_id":"377aad32-31b2-4504-9dc6-1e758b0730bd","system_id":"levelo_inurba_marseille","lat":43.30599,"lon":5.37232,"is_reserved":false,"is_disabled":false,"rental_uris":{"android":"levelo://app?vid=377aad32-31b2-4504-9dc6-1e758b0730bd","ios":"levelo://app?vid=377aad32-31b2-4504-9dc6-1e758b0730bd"},"vehicle_type_id":"4","last_reported":1749817235,"current_range_meters":11200,"station_id":"ce4bgqh2rcd13ifvqc4g","pricing_plan_id":"cebpf4jnsgd1na2vs0mg"},{"bike_id":"10edcc86-2f37-44b5-8038-6012b393b448","system_id":"levelo_inurba_marseille","lat":43.282635,"lon":5.350595,"is_reserved":false,"is_disabled":false,"rental_uris":{"android":"levelo://app?vid=10edcc86-2f37-44b5-8038-6012b393b448","ios":"levelo://app?vid=10edcc86-2f37-44b5-8038-6012b393b448"},"vehicle_type_id":"4","last_reported":1749817235,"current_range_meters":11200,"station_id":"ce4bhbp2rcd13ifvqerg","pricing_plan_id":"cebpf4jnsgd1na2vs0mg"},{"bike_id":"e3090e73-608d-49d7-917c-b0d225170417","system_id":"levelo_inurba_marseille","lat":43.29278,"lon":5.36835,"is_reserved":false,"is_disabled":false,"rental_uris":{"android":"levelo://app?vid=e3090e73-608d-49d7-917c-b0d225170417","ios":"levelo://app?vid=e3090e73-608d-49d7-917c-b0d225170417"},"vehicle_type_id":"4","last_reported":1749817235,"current_range_meters":11200,"station_id":"ce4bhbp2rcd13ifvqesg","pricing_plan_id":"cebpf4jnsgd1na2vs0mg"},{"bike_id":"1a5bde47-bf3b-4cd4-b091-da658f66aa67","system_id":"levelo_inurba_marseille","lat":43.32552,"lon":5.41469,"is_reserved":false,"is_disabled":false,"rental_uris":{"android":"levelo://app?vid=1a5bde47-bf3b-4cd4-b091-da658f66aa67","ios":"levelo://app?vid=1a5bde47-bf3b-4cd4-b091-da658f66aa67"},"vehicle_type_id":"4","last_reported":1749817235,"current_range_meters":11200,"station_id":"ce4bhq12rcd13ifvqhhg","pricing_plan_id":"cebpf4jnsgd1na2vs0mg"},{"bike_id":"41902e46-3363-402b-89a9-77321257c96b","system_id":"levelo_inurba_marseille","lat":43.3235,"lon":5.36568,"is_reserved":false,"is_disabled":false,"rental_uris":{"android":"levelo://app?vid=41902e46-3363-402b-89a9-77321257c96b","ios":"levelo://app?vid=41902e46-3363-402b-89a9-77321257c96b"},"vehicle_type_id":"4","last_reported":1749817235,"current_range_meters":11200,"station_id":"ce4bhs12rcd13ifvqhvg","pricing_plan_id":"cebpf4jnsgd1na2vs0mg"},{"bike_id":"78e4331f-c67f-4812-a1cf-4af0acc5e2d6","system_id":"levelo_inurba_marseille","lat":43.32363,"lon":5.3678,"is_reserved":false,"is_disabled":false,"rental_uris":{"android":"levelo://app?vid=78e4331f-c67f-4812-a1cf-4af0acc5e2d6","ios":"levelo://app?vid=78e4331f-c67f-4812-a1cf-4af0acc5e2d6"},"vehicle_type_id":"4","last_reported":1749817235,"current_range_meters":11200,"station_id":"ce4bhsh2rcd13ifvqi2g","pricing_plan_id":"cebpf4jnsgd1na2vs0mg"},{"bike_id":"8bca9568-3ad8-4b04-a52d-0210c5555d25","system_id":"levelo_inurba_marseille","lat":43.32114,"lon":5.36836,"is_reserved":false,"is_disabled":false,"rental_uris":{"android":"levelo://app?vid=8bca9568-3ad8-4b04-a52d-0210c5555d25","ios":"levelo://app?vid=8bca9568-3ad8-4b04-a52d-0210c5555d25"},"vehicle_type_id":"4","last_reported":1749817235,"current_range_meters":11600,"station_id":"","pricing_plan_id":"cebpf4jnsgd1na2vs0mg"},{"bike_id":"cc4b28ba-35ca-44c6-b0f6-b018989c24e2","system_id":"levelo_inurba_marseille","lat":43.26022,"lon":5.4175,"is_reserved":false,"is_disabled":false,"rental_uris":{"android":"levelo://app?vid=cc4b28ba-35ca-44c6-b0f6-b018989c24e2","ios":"levelo://app?vid=cc4b28ba-35ca-44c6-b0f6-b018989c24e2"},"vehicle_type_id":"4","last_reported":1749817235,"current_range_meters":11600,"station_id":"","pricing_plan_id":"cebpf4jnsgd1na2vs0mg"},{"bike_id":"cfd09837-860a-4251-af61-7281ce9f1f49","system_id":"levelo_inurba_marseille","lat":43.301036,"lon":5.390852,"is_reserved":false,"is_disabled":false,"rental_uris":{"android":"levelo://app?vid=cfd09837-860a-4251-af61-7281ce9f1f49","ios":"levelo://app?vid=cfd09837-860a-4251-af61-7281ce9f1f49"},"vehicle_type_id":"4","last_reported":1749817235,"current_range_meters":11600,"station_id":"ce4bh192rcd13ifvqdb0","pricing_plan_id":"cebpf4jnsgd1na2vs0mg"},{"bike_id":"633ea480-1d6d-4179-93b9-270d05ac0330","system_id":"levelo_inurba_marseille","lat":43.27381,"lon":5.36256,"is_reserved":false,"is_disabled":false,"rental_uris":{"android":"levelo://app?vid=633ea480-1d6d-4179-93b9-270d05ac0330","ios":"levelo://app?vid=633ea480-1d6d-4179-93b9-270d05ac0330"},"vehicle_type_id":"4","last_reported":1749817235,"current_range_meters":11600,"station_id":"ce4bhbh2rcd13ifvqeo0","pricing_plan_id":"cebpf4jnsgd1na2vs0mg"},{"bike_id":"346f3f80-6b15-4406-b905-bb78596f5bac","system_id":"levelo_inurba_marseille","lat":43.32367,"lon":5.3675,"is_reserved":false,"is_disabled":false,"rental_uris":{"android":"levelo://app?vid=346f3f80-6b15-4406-b905-bb78596f5bac","ios":"levelo://app?vid=346f3f80-6b15-4406-b905-bb78596f5bac"},"vehicle_type_id":"4","last_reported":1749817235,"current_range_meters":11600,"station_id":"ce4bhsh2rcd13ifvqi2g","pricing_plan_id":"cebpf4jnsgd1na2vs0mg"},{"bike_id":"bf1f4d1f-337d-4a04-9deb-c2ed421b7d2e","system_id":"levelo_inurba_marseille","lat":43.30546,"lon":5.36553,"is_reserved":false,"is_disabled":false,"rental_uris":{"android":"levelo://app?vid=bf1f4d1f-337d-4a04-9deb-c2ed421b7d2e","ios":"levelo://app?vid=bf1f4d1f-337d-4a04-9deb-c2ed421b7d2e"},"vehicle_type_id":"4","last_reported":1749817235,"current_range_meters":12000,"station_id":"ce4bgs12rcd13ifvqcag","pricing_plan_id":"cebpf4jnsgd1na2vs0mg"},{"bike_id":"d3c2c15d-1fc6-4b22-a13e-ddd837cdf627","system_id":"levelo_inurba_marseille","lat":43.25491,"lon":5.37652,"is_reserved":false,"is_disabled":false,"rental_uris":{"android":"levelo://app?vid=d3c2c15d-1fc6-4b22-a13e-ddd837cdf627","ios":"levelo://app?vid=d3c2c15d-1fc6-4b22-a13e-ddd837cdf627"},"vehicle_type_id":"4","last_reported":1749817235,"current_range_meters":12000,"station_id":"ce4bhh12rcd13ifvqff0","pricing_plan_id":"cebpf4jnsgd1na2vs0mg"},{"bike_id":"6fdeb730-fdbc-47cd-bd24-e8dbe003b234","system_id":"levelo_inurba_marseille","lat":43.24534,"lon":5.39524,"is_reserved":false,"is_disabled":false,"rental_uris":{"android":"levelo://app?vid=6fdeb730-fdbc-47cd-bd24-e8dbe003b234","ios":"levelo://app?vid=6fdeb730-fdbc-47cd-bd24-e8dbe003b234"},"vehicle_type_id":"4","last_reported":1749817235,"current_range_meters":12000,"station_id":"ce4bhlp2rcd13ifvqgjg","pricing_plan_id":"cebpf4jnsgd1na2vs0mg"},{"bike_id":"5e921d9c-18f1-482e-8cc4-4cb430ed8e49","system_id":"levelo_inurba_marseille","lat":43.30157,"lon":5.37419,"is_reserved":false,"is_disabled":false,"rental_uris":{"android":"levelo://app?vid=5e921d9c-18f1-482e-8cc4-4cb430ed8e49","ios":"levelo://app?vid=5e921d9c-18f1-482e-8cc4-4cb430ed8e49"},"vehicle_type_id":"4","last_reported":1749817235,"current_range_meters":12400,"station_id":"ce4bgs92rcd13ifvqcc0","pricing_plan_id":"cebpf4jnsgd1na2vs0mg"},{"bike_id":"7d13827d-8e00-44a1-9825-7566be2e3442","system_id":"levelo_inurba_marseille","lat":43.28422,"lon":5.34976,"is_reserved":false,"is_disabled":false,"rental_uris":{"android":"levelo://app?vid=7d13827d-8e00-44a1-9825-7566be2e3442","ios":"levelo://app?vid=7d13827d-8e00-44a1-9825-7566be2e3442"},"vehicle_type_id":"4","last_reported":1749817235,"current_range_meters":12400,"station_id":"ce4bhbh2rcd13ifvqepg","pricing_plan_id":"cebpf4jnsgd1na2vs0mg"},{"bike_id":"7d7d917e-0418-4f57-baa6-f67eac0faca9","system_id":"levelo_inurba_marseille","lat":43.29554,"lon":5.42296,"is_reserved":false,"is_disabled":false,"rental_uris":{"android":"levelo://app?vid=7d7d917e-0418-4f57-baa6-f67eac0faca9","ios":"levelo://app?vid=7d7d917e-0418-4f57-baa6-f67eac0faca9"},"vehicle_type_id":"4","last_reported":1749817235,"current_range_meters":12400,"station_id":"ce4bhph2rcd13ifvqhdg","pricing_plan_id":"cebpf4jnsgd1na2vs0mg"},{"bike_id":"5b0c3ff8-247c-4928-97e1-b79badce49c8","system_id":"levelo_inurba_marseille","lat":43.32675,"lon":5.40979,"is_reserved":false,"is_disabled":false,"rental_uris":{"android":"levelo://app?vid=5b0c3ff8-247c-4928-97e1-b79badce49c8","ios":"levelo://app?vid=5b0c3ff8-247c-4928-97e1-b79badce49c8"},"vehicle_type_id":"4","last_reported":1749817235,"current_range_meters":12400,"station_id":"ce4bhpp2rcd13ifvqhgg","pricing_plan_id":"cebpf4jnsgd1na2vs0mg"},{"bike_id":"72a332f0-5a00-4445-9fb4-522ab9efec7b","system_id":"levelo_inurba_marseille","lat":43.21809,"lon":5.3455,"is_reserved":false,"is_disabled":false,"rental_uris":{"android":"levelo://app?vid=72a332f0-5a00-4445-9fb4-522ab9efec7b","ios":"levelo://app?vid=72a332f0-5a00-4445-9fb4-522ab9efec7b"},"vehicle_type_id":"4","last_reported":1749817235,"current_range_meters":12800,"station_id":"","pricing_plan_id":"cebpf4jnsgd1na2vs0mg"},{"bike_id":"4d6b56ce-cfe3-43fa-80de-35b0db4d61b9","system_id":"levelo_inurba_marseille","lat":43.29884,"lon":5.38894,"is_reserved":false,"is_disabled":false,"rental_uris":{"android":"levelo://app?vid=4d6b56ce-cfe3-43fa-80de-35b0db4d61b9","ios":"levelo://app?vid=4d6b56ce-cfe3-43fa-80de-35b0db4d61b9"},"vehicle_type_id":"4","last_reported":1749817235,"current_range_meters":12800,"station_id":"ce4bh392rcd13ifvqdl0","pricing_plan_id":"cebpf4jnsgd1na2vs0mg"},{"bike_id":"5f977929-ccb4-449a-8fdc-f2bf323c78e2","system_id":"levelo_inurba_marseille","lat":43.337444,"lon":5.374475,"is_reserved":false,"is_disabled":false,"rental_uris":{"android":"levelo://app?vid=5f977929-ccb4-449a-8fdc-f2bf323c78e2","ios":"levelo://app?vid=5f977929-ccb4-449a-8fdc-f2bf323c78e2"},"vehicle_type_id":"4","last_reported":1749817235,"current_range_meters":13600,"station_id":"","pricing_plan_id":"cebpf4jnsgd1na2vs0mg"},{"bike_id":"6facbc0d-f1b5-4dc3-86d4-5c1204834925","system_id":"levelo_inurba_marseille","lat":43.28055,"lon":5.3479,"is_reserved":false,"is_disabled":false,"rental_uris":{"android":"levelo://app?vid=6facbc0d-f1b5-4dc3-86d4-5c1204834925","ios":"levelo://app?vid=6facbc0d-f1b5-4dc3-86d4-5c1204834925"},"vehicle_type_id":"4","last_reported":1749817235,"current_range_meters":13600,"station_id":"","pricing_plan_id":"cebpf4jnsgd1na2vs0mg"},{"bike_id":"326cc913-bdbc-48c2-9a88-414846f09512","system_id":"levelo_inurba_marseille","lat":43.32363,"lon":5.36751,"is_reserved":false,"is_disabled":false,"rental_uris":{"android":"levelo://app?vid=326cc913-bdbc-48c2-9a88-414846f09512","ios":"levelo://app?vid=326cc913-bdbc-48c2-9a88-414846f09512"},"vehicle_type_id":"4","last_reported":1749817235,"current_range_meters":14000,"station_id":"ce4bhsh2rcd13ifvqi2g","pricing_plan_id":"cebpf4jnsgd1na2vs0mg"},{"bike_id":"4befabab-b2ad-40ca-8a59-2e8290dfa17a","system_id":"levelo_inurba_marseille","lat":43.30156,"lon":5.37442,"is_reserved":false,"is_disabled":false,"rental_uris":{"android":"levelo://app?vid=4befabab-b2ad-40ca-8a59-2e8290dfa17a","ios":"levelo://app?vid=4befabab-b2ad-40ca-8a59-2e8290dfa17a"},"vehicle_type_id":"4","last_reported":1749817235,"current_range_meters":14400,"station_id":"ce4bgs92rcd13ifvqcc0","pricing_plan_id":"cebpf4jnsgd1na2vs0mg"},{"bike_id":"4b15a2c0-e04a-461e-921d-0d6a428da66f","system_id":"levelo_inurba_marseille","lat":43.26552,"lon":5.37286,"is_reserved":false,"is_disabled":false,"rental_uris":{"android":"levelo://app?vid=4b15a2c0-e04a-461e-921d-0d6a428da66f","ios":"levelo://app?vid=4b15a2c0-e04a-461e-921d-0d6a428da66f"},"vehicle_type_id":"4","last_reported":1749817235,"current_range_meters":14400,"station_id":"ce4bhg12rcd13ifvqf70","pricing_plan_id":"cebpf4jnsgd1na2vs0mg"},{"bike_id":"dd2386cc-17e7-42e5-a57d-bad35c3a3019","system_id":"levelo_inurba_marseille","lat":43.25002,"lon":5.38922,"is_reserved":false,"is_disabled":false,"rental_uris":{"android":"levelo://app?vid=dd2386cc-17e7-42e5-a57d-bad35c3a3019","ios":"levelo://app?vid=dd2386cc-17e7-42e5-a57d-bad35c3a3019"},"vehicle_type_id":"4","last_reported":1749817235,"current_range_meters":14400,"station_id":"ce4bhgp2rcd13ifvqfd0","pricing_plan_id":"cebpf4jnsgd1na2vs0mg"},{"bike_id":"c0bd4251-d527-48a7-9378-e4e80c1c274f","system_id":"levelo_inurba_marseille","lat":43.31862,"lon":5.37361,"is_reserved":false,"is_disabled":false,"rental_uris":{"android":"levelo://app?vid=c0bd4251-d527-48a7-9378-e4e80c1c274f","ios":"levelo://app?vid=c0bd4251-d527-48a7-9378-e4e80c1c274f"},"vehicle_type_id":"4","last_reported":1749817235,"current_range_meters":14800,"station_id":"","pricing_plan_id":"cebpf4jnsgd1na2vs0mg"},{"bike_id":"be317173-fd1e-4ab1-80d6-09c6134dc3ab","system_id":"levelo_inurba_marseille","lat":43.293444,"lon":5.379532,"is_reserved":false,"is_disabled":false,"rental_uris":{"android":"levelo://app?vid=be317173-fd1e-4ab1-80d6-09c6134dc3ab","ios":"levelo://app?vid=be317173-fd1e-4ab1-80d6-09c6134dc3ab"},"vehicle_type_id":"4","last_reported":1749817235,"current_range_meters":14800,"station_id":"ce4bh512rcd13ifvqe2g","pricing_plan_id":"cebpf4jnsgd1na2vs0mg"},{"bike_id":"1cdcee42-9bb0-4aec-a136-79bace70428b","system_id":"levelo_inurba_marseille","lat":43.21731,"lon":5.34639,"is_reserved":false,"is_disabled":false,"rental_uris":{"android":"levelo://app?vid=1cdcee42-9bb0-4aec-a136-79bace70428b","ios":"levelo://app?vid=1cdcee42-9bb0-4aec-a136-79bace70428b"},"vehicle_type_id":"4","last_reported":1749817235,"current_range_meters":14800,"station_id":"st_cvj6r9ubvosntc0bgbag","pricing_plan_id":"cebpf4jnsgd1na2vs0mg"},{"bike_id":"7835a476-bf82-41b7-87e3-950cf4d733b9","system_id":"levelo_inurba_marseille","lat":43.28099,"lon":5.35689,"is_reserved":false,"is_disabled":false,"rental_uris":{"android":"levelo://app?vid=7835a476-bf82-41b7-87e3-950cf4d733b9","ios":"levelo://app?vid=7835a476-bf82-41b7-87e3-950cf4d733b9"},"vehicle_type_id":"4","last_reported":1749817235,"current_range_meters":15200,"station_id":"","pricing_plan_id":"cebpf4jnsgd1na2vs0mg"},{"bike_id":"e91bacb7-eb88-454c-b11b-e5ea3e9cf61b","system_id":"levelo_inurba_marseille","lat":43.29872,"lon":5.39735,"is_reserved":false,"is_disabled":false,"rental_uris":{"android":"levelo://app?vid=e91bacb7-eb88-454c-b11b-e5ea3e9cf61b","ios":"levelo://app?vid=e91bacb7-eb88-454c-b11b-e5ea3e9cf61b"},"vehicle_type_id":"4","last_reported":1749817235,"current_range_meters":15200,"station_id":"ce4bh0h2rcd13ifvqd50","pricing_plan_id":"cebpf4jnsgd1na2vs0mg"},{"bike_id":"b669d0bc-f067-4aa2-ac7a-a762005081a7","system_id":"levelo_inurba_marseille","lat":43.29885,"lon":5.38904,"is_reserved":false,"is_disabled":false,"rental_uris":{"android":"levelo://app?vid=b669d0bc-f067-4aa2-ac7a-a762005081a7","ios":"levelo://app?vid=b669d0bc-f067-4aa2-ac7a-a762005081a7"},"vehicle_type_id":"4","last_reported":1749817235,"current_range_meters":15200,"station_id":"ce4bh392rcd13ifvqdl0","pricing_plan_id":"cebpf4jnsgd1na2vs0mg"},{"bike_id":"e8d32338-1864-4c49-960f-437874704365","system_id":"levelo_inurba_marseille","lat":43.24387,"lon":5.37055,"is_reserved":false,"is_disabled":false,"rental_uris":{"android":"levelo://app?vid=e8d32338-1864-4c49-960f-437874704365","ios":"levelo://app?vid=e8d32338-1864-4c49-960f-437874704365"},"vehicle_type_id":"4","last_reported":1749817235,"current_range_meters":15200,"station_id":"ce4bhhh2rcd13ifvqfk0","pricing_plan_id":"cebpf4jnsgd1na2vs0mg"},{"bike_id":"3e3f6e00-5fe6-4477-ab13-cf58088b4f71","system_id":"levelo_inurba_marseille","lat":43.25706,"lon":5.41062,"is_reserved":false,"is_disabled":false,"rental_uris":{"android":"levelo://app?vid=3e3f6e00-5fe6-4477-ab13-cf58088b4f71","ios":"levelo://app?vid=3e3f6e00-5fe6-4477-ab13-cf58088b4f71"},"vehicle_type_id":"4","last_reported":1749817235,"current_range_meters":15200,"station_id":"ce4bhkp2rcd13ifvqgd0","pricing_plan_id":"cebpf4jnsgd1na2vs0mg"},{"bike_id":"3b2851dc-cdc3-4c74-bb7a-6b50ea5674bc","system_id":"levelo_inurba_marseille","lat":43.30173,"lon":5.38067,"is_reserved":false,"is_disabled":false,"rental_uris":{"android":"levelo://app?vid=3b2851dc-cdc3-4c74-bb7a-6b50ea5674bc","ios":"levelo://app?vid=3b2851dc-cdc3-4c74-bb7a-6b50ea5674bc"},"vehicle_type_id":"4","last_reported":1749817235,"current_range_meters":16000,"station_id":"ce4bgjp2rcd13ifvqbh0","pricing_plan_id":"cebpf4jnsgd1na2vs0mg"},{"bike_id":"35585711-6693-4a8c-b72e-cb89318a5b92","system_id":"levelo_inurba_marseille","lat":43.30297,"lon":5.39206,"is_reserved":false,"is_disabled":false,"rental_uris":{"android":"levelo://app?vid=35585711-6693-4a8c-b72e-cb89318a5b92","ios":"levelo://app?vid=35585711-6693-4a8c-b72e-cb89318a5b92"},"vehicle_type_id":"4","last_reported":1749817235,"current_range_meters":16000,"station_id":"ce4bgkh2rcd13ifvqbk0","pricing_plan_id":"cebpf4jnsgd1na2vs0mg"},{"bike_id":"23f45385-b4b0-4659-a25f-eab06b5cff2d","system_id":"levelo_inurba_marseille","lat":43.29846,"lon":5.36292,"is_reserved":false,"is_disabled":false,"rental_uris":{"android":"levelo://app?vid=23f45385-b4b0-4659-a25f-eab06b5cff2d","ios":"levelo://app?vid=23f45385-b4b0-4659-a25f-eab06b5cff2d"},"vehicle_type_id":"4","last_reported":1749817235,"current_range_meters":16000,"station_id":"ce4bgpp2rcd13ifvqc3g","pricing_plan_id":"cebpf4jnsgd1na2vs0mg"},{"bike_id":"f81c0113-809d-44be-a82f-abd859fa7928","system_id":"levelo_inurba_marseille","lat":43.305392,"lon":5.365515,"is_reserved":false,"is_disabled":false,"rental_uris":{"android":"levelo://app?vid=f81c0113-809d-44be-a82f-abd859fa7928","ios":"levelo://app?vid=f81c0113-809d-44be-a82f-abd859fa7928"},"vehicle_type_id":"4","last_reported":1749817235,"current_range_meters":16000,"station_id":"ce4bgs12rcd13ifvqcag","pricing_plan_id":"cebpf4jnsgd1na2vs0mg"},{"bike_id":"486435f3-1d9e-4176-9895-6956898c1cb0","system_id":"levelo_inurba_marseille","lat":43.30479,"lon":5.37904,"is_reserved":false,"is_disabled":false,"rental_uris":{"android":"levelo://app?vid=486435f3-1d9e-4176-9895-6956898c1cb0","ios":"levelo://app?vid=486435f3-1d9e-4176-9895-6956898c1cb0"},"vehicle_type_id":"4","last_reported":1749817235,"current_range_meters":16000,"station_id":"ce4bgup2rcd13ifvqcn0","pricing_plan_id":"cebpf4jnsgd1na2vs0mg"},{"bike_id":"cdd28daa-8c10-44b2-8c1b-404e46c9a547","system_id":"levelo_inurba_marseille","lat":43.28561,"lon":5.39511,"is_reserved":false,"is_disabled":false,"rental_uris":{"android":"levelo://app?vid=cdd28daa-8c10-44b2-8c1b-404e46c9a547","ios":"levelo://app?vid=cdd28daa-8c10-44b2-8c1b-404e46c9a547"},"vehicle_type_id":"4","last_reported":1749817235,"current_range_meters":16000,"station_id":"ce4bh292rcd13ifvqdg0","pricing_plan_id":"cebpf4jnsgd1na2vs0mg"},{"bike_id":"94502b14-ff48-4cde-b2d3-edd6d6e7a52e","system_id":"levelo_inurba_marseille","lat":43.28415,"lon":5.34991,"is_reserved":false,"is_disabled":false,"rental_uris":{"android":"levelo://app?vid=94502b14-ff48-4cde-b2d3-edd6d6e7a52e","ios":"levelo://app?vid=94502b14-ff48-4cde-b2d3-edd6d6e7a52e"},"vehicle_type_id":"4","last_reported":1749817235,"current_range_meters":16000,"station_id":"ce4bhbh2rcd13ifvqepg","pricing_plan_id":"cebpf4jnsgd1na2vs0mg"},{"bike_id":"4748cfb4-a996-4e4d-8dbe-3ebc04c76736","system_id":"levelo_inurba_marseille","lat":43.30603,"lon":5.37231,"is_reserved":false,"is_disabled":false,"rental_uris":{"android":"levelo://app?vid=4748cfb4-a996-4e4d-8dbe-3ebc04c76736","ios":"levelo://app?vid=4748cfb4-a996-4e4d-8dbe-3ebc04c76736"},"vehicle_type_id":"4","last_reported":1749817235,"current_range_meters":16400,"station_id":"ce4bgqh2rcd13ifvqc4g","pricing_plan_id":"cebpf4jnsgd1na2vs0mg"},{"bike_id":"70df8237-a926-490c-9e52-1eea642da848","system_id":"levelo_inurba_marseille","lat":43.30142,"lon":5.37418,"is_reserved":false,"is_disabled":false,"rental_uris":{"android":"levelo://app?vid=70df8237-a926-490c-9e52-1eea642da848","ios":"levelo://app?vid=70df8237-a926-490c-9e52-1eea642da848"},"vehicle_type_id":"4","last_reported":1749817235,"current_range_meters":16400,"station_id":"ce4bgs92rcd13ifvqcc0","pricing_plan_id":"cebpf4jnsgd1na2vs0mg"},{"bike_id":"da886163-25de-4c99-96a6-226e4837502d","system_id":"levelo_inurba_marseille","lat":43.30458,"lon":5.37897,"is_reserved":false,"is_disabled":false,"rental_uris":{"android":"levelo://app?vid=da886163-25de-4c99-96a6-226e4837502d","ios":"levelo://app?vid=da886163-25de-4c99-96a6-226e4837502d"},"vehicle_type_id":"4","last_reported":1749817235,"current_range_meters":16400,"station_id":"ce4bgup2rcd13ifvqcn0","pricing_plan_id":"cebpf4jnsgd1na2vs0mg"},{"bike_id":"0ceb12fb-6a0c-469a-900d-92e39cd79341","system_id":"levelo_inurba_marseille","lat":43.29268,"lon":5.384409,"is_reserved":false,"is_disabled":false,"rental_uris":{"android":"levelo://app?vid=0ceb12fb-6a0c-469a-900d-92e39cd79341","ios":"levelo://app?vid=0ceb12fb-6a0c-469a-900d-92e39cd79341"},"vehicle_type_id":"4","last_reported":1749817235,"current_range_meters":16400,"station_id":"ce4bh692rcd13ifvqea0","pricing_plan_id":"cebpf4jnsgd1na2vs0mg"},{"bike_id":"5ddb0811-53da-44f9-ae1e-d1522d60f10e","system_id":"levelo_inurba_marseille","lat":43.26194,"lon":5.37436,"is_reserved":false,"is_disabled":false,"rental_uris":{"android":"levelo://app?vid=5ddb0811-53da-44f9-ae1e-d1522d60f10e","ios":"levelo://app?vid=5ddb0811-53da-44f9-ae1e-d1522d60f10e"},"vehicle_type_id":"4","last_reported":1749817235,"current_range_meters":16400,"station_id":"ce4bhgp2rcd13ifvqfc0","pricing_plan_id":"cebpf4jnsgd1na2vs0mg"},{"bike_id":"6137d120-4667-4c4e-8081-f9096b86c519","system_id":"levelo_inurba_marseille","lat":43.26929,"lon":5.38918,"is_reserved":false,"is_disabled":false,"rental_uris":{"android":"levelo://app?vid=6137d120-4667-4c4e-8081-f9096b86c519","ios":"levelo://app?vid=6137d120-4667-4c4e-8081-f9096b86c519"},"vehicle_type_id":"4","last_reported":1749817235,"current_range_meters":16400,"station_id":"ce4bhhh2rcd13ifvqfl0","pricing_plan_id":"cebpf4jnsgd1na2vs0mg"},{"bike_id":"ba0042d0-63d3-4ad7-809b-aef890f577cf","system_id":"levelo_inurba_marseille","lat":43.25931,"lon":5.40886,"is_reserved":false,"is_disabled":false,"rental_uris":{"android":"levelo://app?vid=ba0042d0-63d3-4ad7-809b-aef890f577cf","ios":"levelo://app?vid=ba0042d0-63d3-4ad7-809b-aef890f577cf"},"vehicle_type_id":"4","last_reported":1749817235,"current_range_meters":16400,"station_id":"ce4bhm92rcd13ifvqglg","pricing_plan_id":"cebpf4jnsgd1na2vs0mg"},{"bike_id":"2ab31527-f915-4286-b3a0-0beafd2cdd50","system_id":"levelo_inurba_marseille","lat":43.29989,"lon":5.37028,"is_reserved":false,"is_disabled":false,"rental_uris":{"android":"levelo://app?vid=2ab31527-f915-4286-b3a0-0beafd2cdd50","ios":"levelo://app?vid=2ab31527-f915-4286-b3a0-0beafd2cdd50"},"vehicle_type_id":"4","last_reported":1749817235,"current_range_meters":16800,"station_id":"","pricing_plan_id":"cebpf4jnsgd1na2vs0mg"},{"bike_id":"80f019d5-2f82-45f2-9396-8e774bf21f94","system_id":"levelo_inurba_marseille","lat":43.28275,"lon":5.35061,"is_reserved":false,"is_disabled":false,"rental_uris":{"android":"levelo://app?vid=80f019d5-2f82-45f2-9396-8e774bf21f94","ios":"levelo://app?vid=80f019d5-2f82-45f2-9396-8e774bf21f94"},"vehicle_type_id":"4","last_reported":1749817235,"current_range_meters":16800,"station_id":"ce4bhbp2rcd13ifvqerg","pricing_plan_id":"cebpf4jnsgd1na2vs0mg"},{"bike_id":"715478fd-76c6-4ef8-b993-75b351929d64","system_id":"levelo_inurba_marseille","lat":43.28262,"lon":5.35067,"is_reserved":false,"is_disabled":false,"rental_uris":{"android":"levelo://app?vid=715478fd-76c6-4ef8-b993-75b351929d64","ios":"levelo://app?vid=715478fd-76c6-4ef8-b993-75b351929d64"},"vehicle_type_id":"4","last_reported":1749817235,"current_range_meters":16800,"station_id":"ce4bhbp2rcd13ifvqerg","pricing_plan_id":"cebpf4jnsgd1na2vs0mg"},{"bike_id":"90e6ec47-1ec1-496f-a1f6-8183b247fedd","system_id":"levelo_inurba_marseille","lat":43.25493,"lon":5.37645,"is_reserved":false,"is_disabled":false,"rental_uris":{"android":"levelo://app?vid=90e6ec47-1ec1-496f-a1f6-8183b247fedd","ios":"levelo://app?vid=90e6ec47-1ec1-496f-a1f6-8183b247fedd"},"vehicle_type_id":"4","last_reported":1749817235,"current_range_meters":16800,"station_id":"ce4bhh12rcd13ifvqff0","pricing_plan_id":"cebpf4jnsgd1na2vs0mg"},{"bike_id":"6412aa43-fa93-4a49-8418-53ab5733564b","system_id":"levelo_inurba_marseille","lat":43.27052,"lon":5.40278,"is_reserved":false,"is_disabled":false,"rental_uris":{"android":"levelo://app?vid=6412aa43-fa93-4a49-8418-53ab5733564b","ios":"levelo://app?vid=6412aa43-fa93-4a49-8418-53ab5733564b"},"vehicle_type_id":"4","last_reported":1749817235,"current_range_meters":16800,"station_id":"ce4bhk92rcd13ifvqgc0","pricing_plan_id":"cebpf4jnsgd1na2vs0mg"},{"bike_id":"be09a8fa-b149-4153-97a9-be37d10481c8","system_id":"levelo_inurba_marseille","lat":43.24179,"lon":5.39718,"is_reserved":false,"is_disabled":false,"rental_uris":{"android":"levelo://app?vid=be09a8fa-b149-4153-97a9-be37d10481c8","ios":"levelo://app?vid=be09a8fa-b149-4153-97a9-be37d10481c8"},"vehicle_type_id":"4","last_reported":1749817235,"current_range_meters":16800,"station_id":"ce4bhn12rcd13ifvqgpg","pricing_plan_id":"cebpf4jnsgd1na2vs0mg"},{"bike_id":"f3ec16b2-8afd-4ecb-8d58-15a6a90ff603","system_id":"levelo_inurba_marseille","lat":43.32373,"lon":5.36658,"is_reserved":false,"is_disabled":false,"rental_uris":{"android":"levelo://app?vid=f3ec16b2-8afd-4ecb-8d58-15a6a90ff603","ios":"levelo://app?vid=f3ec16b2-8afd-4ecb-8d58-15a6a90ff603"},"vehicle_type_id":"4","last_reported":1749817235,"current_range_meters":17200,"station_id":"","pricing_plan_id":"cebpf4jnsgd1na2vs0mg"},{"bike_id":"50066f08-e3cd-4dc9-8337-960096f79cd7","system_id":"levelo_inurba_marseille","lat":43.29861,"lon":5.36342,"is_reserved":false,"is_disabled":false,"rental_uris":{"android":"levelo://app?vid=50066f08-e3cd-4dc9-8337-960096f79cd7","ios":"levelo://app?vid=50066f08-e3cd-4dc9-8337-960096f79cd7"},"vehicle_type_id":"4","last_reported":1749817235,"current_range_meters":17200,"station_id":"","pricing_plan_id":"cebpf4jnsgd1na2vs0mg"},{"bike_id":"189ffa26-a8a7-479b-a91f-709cf7567885","system_id":"levelo_inurba_marseille","lat":43.29865,"lon":5.36277,"is_reserved":false,"is_disabled":false,"rental_uris":{"android":"levelo://app?vid=189ffa26-a8a7-479b-a91f-709cf7567885","ios":"levelo://app?vid=189ffa26-a8a7-479b-a91f-709cf7567885"},"vehicle_type_id":"4","last_reported":1749817235,"current_range_meters":17200,"station_id":"ce4bgpp2rcd13ifvqc3g","pricing_plan_id":"cebpf4jnsgd1na2vs0mg"},{"bike_id":"a3d8ed61-ad96-4794-9377-3745ebafc863","system_id":"levelo_inurba_marseille","lat":43.29105,"lon":5.38112,"is_reserved":false,"is_disabled":false,"rental_uris":{"android":"levelo://app?vid=a3d8ed61-ad96-4794-9377-3745ebafc863","ios":"levelo://app?vid=a3d8ed61-ad96-4794-9377-3745ebafc863"},"vehicle_type_id":"4","last_reported":1749817235,"current_range_meters":17200,"station_id":"ce4bh512rcd13ifvqe2g","pricing_plan_id":"cebpf4jnsgd1na2vs0mg"},{"bike_id":"9ee26169-5cbb-468c-9840-4a3d83bc9467","system_id":"levelo_inurba_marseille","lat":43.29035,"lon":5.37563,"is_reserved":false,"is_disabled":false,"rental_uris":{"android":"levelo://app?vid=9ee26169-5cbb-468c-9840-4a3d83bc9467","ios":"levelo://app?vid=9ee26169-5cbb-468c-9840-4a3d83bc9467"},"vehicle_type_id":"4","last_reported":1749817235,"current_range_meters":17200,"station_id":"ce4bh692rcd13ifvqe90","pricing_plan_id":"cebpf4jnsgd1na2vs0mg"},{"bike_id":"55320cc0-62bc-4ffa-9cae-d59e56c72fe6","system_id":"levelo_inurba_marseille","lat":43.21741,"lon":5.34606,"is_reserved":false,"is_disabled":false,"rental_uris":{"android":"levelo://app?vid=55320cc0-62bc-4ffa-9cae-d59e56c72fe6","ios":"levelo://app?vid=55320cc0-62bc-4ffa-9cae-d59e56c72fe6"},"vehicle_type_id":"4","last_reported":1749817235,"current_range_meters":17200,"station_id":"st_cvj6r9ubvosntc0bgbag","pricing_plan_id":"cebpf4jnsgd1na2vs0mg"},{"bike_id":"a950bb0c-2e27-46b4-858a-9d51802ee1f2","system_id":"levelo_inurba_marseille","lat":43.29913,"lon":5.3749,"is_reserved":false,"is_disabled":false,"rental_uris":{"android":"levelo://app?vid=a950bb0c-2e27-46b4-858a-9d51802ee1f2","ios":"levelo://app?vid=a950bb0c-2e27-46b4-858a-9d51802ee1f2"},"vehicle_type_id":"4","last_reported":1749817235,"current_range_meters":17600,"station_id":"ce4bgjh2rcd13ifvqbg0","pricing_plan_id":"cebpf4jnsgd1na2vs0mg"},{"bike_id":"5bdec04b-d460-4bc4-bc31-1d4a02a9b652","system_id":"levelo_inurba_marseille","lat":43.28982,"lon":5.37835,"is_reserved":false,"is_disabled":false,"rental_uris":{"android":"levelo://app?vid=5bdec04b-d460-4bc4-bc31-1d4a02a9b652","ios":"levelo://app?vid=5bdec04b-d460-4bc4-bc31-1d4a02a9b652"},"vehicle_type_id":"4","last_reported":1749817235,"current_range_meters":17600,"station_id":"ce4bh9p2rcd13ifvqed0","pricing_plan_id":"cebpf4jnsgd1na2vs0mg"},{"bike_id":"131f0ef8-dde0-4337-9435-7c1914a6206b","system_id":"levelo_inurba_marseille","lat":43.27375,"lon":5.36269,"is_reserved":false,"is_disabled":false,"rental_uris":{"android":"levelo://app?vid=131f0ef8-dde0-4337-9435-7c1914a6206b","ios":"levelo://app?vid=131f0ef8-dde0-4337-9435-7c1914a6206b"},"vehicle_type_id":"4","last_reported":1749817235,"current_range_meters":17600,"station_id":"ce4bhbh2rcd13ifvqeo0","pricing_plan_id":"cebpf4jnsgd1na2vs0mg"},{"bike_id":"b38c2ce9-b3f2-42c7-b3bd-8d7c007a7ce1","system_id":"levelo_inurba_marseille","lat":43.23964,"lon":5.3664,"is_reserved":false,"is_disabled":false,"rental_uris":{"android":"levelo://app?vid=b38c2ce9-b3f2-42c7-b3bd-8d7c007a7ce1","ios":"levelo://app?vid=b38c2ce9-b3f2-42c7-b3bd-8d7c007a7ce1"},"vehicle_type_id":"4","last_reported":1749817235,"current_range_meters":17600,"station_id":"ce4bhi12rcd13ifvqfp0","pricing_plan_id":"cebpf4jnsgd1na2vs0mg"},{"bike_id":"033f15e1-5ed0-4098-a7ec-2a49aba179ae","system_id":"levelo_inurba_marseille","lat":43.28522,"lon":5.35371,"is_reserved":false,"is_disabled":false,"rental_uris":{"android":"levelo://app?vid=033f15e1-5ed0-4098-a7ec-2a49aba179ae","ios":"levelo://app?vid=033f15e1-5ed0-4098-a7ec-2a49aba179ae"},"vehicle_type_id":"4","last_reported":1749817235,"current_range_meters":18000,"station_id":"","pricing_plan_id":"cebpf4jnsgd1na2vs0mg"},{"bike_id":"33008d1f-82fc-46d7-bc22-7402cd98b5ac","system_id":"levelo_inurba_marseille","lat":43.29249,"lon":5.37626,"is_reserved":false,"is_disabled":false,"rental_uris":{"android":"levelo://app?vid=33008d1f-82fc-46d7-bc22-7402cd98b5ac","ios":"levelo://app?vid=33008d1f-82fc-46d7-bc22-7402cd98b5ac"},"vehicle_type_id":"4","last_reported":1749817235,"current_range_meters":18000,"station_id":"ce4bgi12rcd13ifvqb80","pricing_plan_id":"cebpf4jnsgd1na2vs0mg"},{"bike_id":"9584ae3b-0294-4d57-8bc9-a04a9dda4093","system_id":"levelo_inurba_marseille","lat":43.29526,"lon":5.39391,"is_reserved":false,"is_disabled":false,"rental_uris":{"android":"levelo://app?vid=9584ae3b-0294-4d57-8bc9-a04a9dda4093","ios":"levelo://app?vid=9584ae3b-0294-4d57-8bc9-a04a9dda4093"},"vehicle_type_id":"4","last_reported":1749817235,"current_range_meters":18000,"station_id":"ce4bh292rcd13ifvqdf0","pricing_plan_id":"cebpf4jnsgd1na2vs0mg"},{"bike_id":"fd3bdc03-dfac-4aa8-9107-75aee4f97e4f","system_id":"levelo_inurba_marseille","lat":43.282646,"lon":5.350608,"is_reserved":false,"is_disabled":false,"rental_uris":{"android":"levelo://app?vid=fd3bdc03-dfac-4aa8-9107-75aee4f97e4f","ios":"levelo://app?vid=fd3bdc03-dfac-4aa8-9107-75aee4f97e4f"},"vehicle_type_id":"4","last_reported":1749817235,"current_range_meters":18000,"station_id":"ce4bhbp2rcd13ifvqerg","pricing_plan_id":"cebpf4jnsgd1na2vs0mg"},{"bike_id":"28c69188-821e-4d21-b20f-ad352a3cb410","system_id":"levelo_inurba_marseille","lat":43.28629,"lon":5.35083,"is_reserved":false,"is_disabled":false,"rental_uris":{"android":"levelo://app?vid=28c69188-821e-4d21-b20f-ad352a3cb410","ios":"levelo://app?vid=28c69188-821e-4d21-b20f-ad352a3cb410"},"vehicle_type_id":"4","last_reported":1749817235,"current_range_meters":18000,"station_id":"ce4bhch2rcd13ifvqeug","pricing_plan_id":"cebpf4jnsgd1na2vs0mg"},{"bike_id":"b4eaa219-6eb5-4a58-b0c7-04e029cac587","system_id":"levelo_inurba_marseille","lat":43.28612,"lon":5.35108,"is_reserved":false,"is_disabled":false,"rental_uris":{"android":"levelo://app?vid=b4eaa219-6eb5-4a58-b0c7-04e029cac587","ios":"levelo://app?vid=b4eaa219-6eb5-4a58-b0c7-04e029cac587"},"vehicle_type_id":"4","last_reported":1749817235,"current_range_meters":18000,"station_id":"ce4bhch2rcd13ifvqeug","pricing_plan_id":"cebpf4jnsgd1na2vs0mg"},{"bike_id":"5463c000-a319-4d2d-b6d4-5ca8a2a489f4","system_id":"levelo_inurba_marseille","lat":43.26565,"lon":5.39001,"is_reserved":false,"is_disabled":false,"rental_uris":{"android":"levelo://app?vid=5463c000-a319-4d2d-b6d4-5ca8a2a489f4","ios":"levelo://app?vid=5463c000-a319-4d2d-b6d4-5ca8a2a489f4"},"vehicle_type_id":"4","last_reported":1749817235,"current_range_meters":18000,"station_id":"ce4bhe12rcd13ifvqf30","pricing_plan_id":"cebpf4jnsgd1na2vs0mg"},{"bike_id":"f89563c0-707f-496c-8949-aa9d8bc90895","system_id":"levelo_inurba_marseille","lat":43.25503,"lon":5.37651,"is_reserved":false,"is_disabled":false,"rental_uris":{"android":"levelo://app?vid=f89563c0-707f-496c-8949-aa9d8bc90895","ios":"levelo://app?vid=f89563c0-707f-496c-8949-aa9d8bc90895"},"vehicle_type_id":"4","last_reported":1749817235,"current_range_meters":18000,"station_id":"ce4bhh12rcd13ifvqff0","pricing_plan_id":"cebpf4jnsgd1na2vs0mg"},{"bike_id":"af6eb8df-ddad-43f9-9627-5abe366850b6","system_id":"levelo_inurba_marseille","lat":43.34128,"lon":5.40898,"is_reserved":false,"is_disabled":false,"rental_uris":{"android":"levelo://app?vid=af6eb8df-ddad-43f9-9627-5abe366850b6","ios":"levelo://app?vid=af6eb8df-ddad-43f9-9627-5abe366850b6"},"vehicle_type_id":"4","last_reported":1749817235,"current_range_meters":18000,"station_id":"ce4bhqh2rcd13ifvqhlg","pricing_plan_id":"cebpf4jnsgd1na2vs0mg"},{"bike_id":"ddb7ab3e-6913-457f-8e28-e356869c1b1c","system_id":"levelo_inurba_marseille","lat":43.32475,"lon":5.36579,"is_reserved":false,"is_disabled":false,"rental_uris":{"android":"levelo://app?vid=ddb7ab3e-6913-457f-8e28-e356869c1b1c","ios":"levelo://app?vid=ddb7ab3e-6913-457f-8e28-e356869c1b1c"},"vehicle_type_id":"4","last_reported":1749817235,"current_range_meters":18000,"station_id":"ce4bhs12rcd13ifvqhvg","pricing_plan_id":"cebpf4jnsgd1na2vs0mg"},{"bike_id":"d0e0617d-5016-40ba-b4c5-1a83d3add731","system_id":"levelo_inurba_marseille","lat":43.323623,"lon":5.367535,"is_reserved":false,"is_disabled":false,"rental_uris":{"android":"levelo://app?vid=d0e0617d-5016-40ba-b4c5-1a83d3add731","ios":"levelo://app?vid=d0e0617d-5016-40ba-b4c5-1a83d3add731"},"vehicle_type_id":"4","last_reported":1749817235,"current_range_meters":18800,"station_id":"","pricing_plan_id":"cebpf4jnsgd1na2vs0mg"},{"bike_id":"74299b71-4ddb-4d25-8494-52326c3cf126","system_id":"levelo_inurba_marseille","lat":43.30941,"lon":5.40152,"is_reserved":false,"is_disabled":false,"rental_uris":{"android":"levelo://app?vid=74299b71-4ddb-4d25-8494-52326c3cf126","ios":"levelo://app?vid=74299b71-4ddb-4d25-8494-52326c3cf126"},"vehicle_type_id":"4","last_reported":1749817235,"current_range_meters":18800,"station_id":"ce4bgvp2rcd13ifvqct0","pricing_plan_id":"cebpf4jnsgd1na2vs0mg"},{"bike_id":"94fa3be5-3e6d-4e28-9941-ccba80b351d1","system_id":"levelo_inurba_marseille","lat":43.28675,"lon":5.38656,"is_reserved":false,"is_disabled":false,"rental_uris":{"android":"levelo://app?vid=94fa3be5-3e6d-4e28-9941-ccba80b351d1","ios":"levelo://app?vid=94fa3be5-3e6d-4e28-9941-ccba80b351d1"},"vehicle_type_id":"4","last_reported":1749817235,"current_range_meters":18800,"station_id":"ce4bh492rcd13ifvqdug","pricing_plan_id":"cebpf4jnsgd1na2vs0mg"},{"bike_id":"c4189b43-1560-425f-b30c-d663b218bdce","system_id":"levelo_inurba_marseille","lat":43.27374,"lon":5.36256,"is_reserved":false,"is_disabled":false,"rental_uris":{"android":"levelo://app?vid=c4189b43-1560-425f-b30c-d663b218bdce","ios":"levelo://app?vid=c4189b43-1560-425f-b30c-d663b218bdce"},"vehicle_type_id":"4","last_reported":1749817235,"current_range_meters":18800,"station_id":"ce4bhbh2rcd13ifvqeo0","pricing_plan_id":"cebpf4jnsgd1na2vs0mg"},{"bike_id":"cd025a14-4cd2-46a5-a985-3c4f1cf4ec81","system_id":"levelo_inurba_marseille","lat":43.25582,"lon":5.38229,"is_reserved":false,"is_disabled":false,"rental_uris":{"android":"levelo://app?vid=cd025a14-4cd2-46a5-a985-3c4f1cf4ec81","ios":"levelo://app?vid=cd025a14-4cd2-46a5-a985-3c4f1cf4ec81"},"vehicle_type_id":"4","last_reported":1749817235,"current_range_meters":18800,"station_id":"ce4bhih2rcd13ifvqfs0","pricing_plan_id":"cebpf4jnsgd1na2vs0mg"},{"bike_id":"27ecb323-f9e0-4da5-8e96-1cd261b1fb70","system_id":"levelo_inurba_marseille","lat":43.24173,"lon":5.39734,"is_reserved":false,"is_disabled":false,"rental_uris":{"android":"levelo://app?vid=27ecb323-f9e0-4da5-8e96-1cd261b1fb70","ios":"levelo://app?vid=27ecb323-f9e0-4da5-8e96-1cd261b1fb70"},"vehicle_type_id":"4","last_reported":1749817235,"current_range_meters":18800,"station_id":"ce4bhn12rcd13ifvqgpg","pricing_plan_id":"cebpf4jnsgd1na2vs0mg"},{"bike_id":"7b0e3572-04df-4d39-9593-c46ae9d71417","system_id":"levelo_inurba_marseille","lat":43.28706,"lon":5.39999,"is_reserved":false,"is_disabled":false,"rental_uris":{"android":"levelo://app?vid=7b0e3572-04df-4d39-9593-c46ae9d71417","ios":"levelo://app?vid=7b0e3572-04df-4d39-9593-c46ae9d71417"},"vehicle_type_id":"4","last_reported":1749817235,"current_range_meters":18800,"station_id":"ce4bho92rcd13ifvqh3g","pricing_plan_id":"cebpf4jnsgd1na2vs0mg"},{"bike_id":"ccb9975b-34a8-47da-b755-e17344ae18d3","system_id":"levelo_inurba_marseille","lat":43.23188,"lon":5.3557,"is_reserved":false,"is_disabled":false,"rental_uris":{"android":"levelo://app?vid=ccb9975b-34a8-47da-b755-e17344ae18d3","ios":"levelo://app?vid=ccb9975b-34a8-47da-b755-e17344ae18d3"},"vehicle_type_id":"4","last_reported":1749817235,"current_range_meters":18800,"station_id":"ce4bhu92rcd13ifvqi70","pricing_plan_id":"cebpf4jnsgd1na2vs0mg"},{"bike_id":"4ee97cf1-7f69-4ef0-81f5-7b013aa88d5c","system_id":"levelo_inurba_marseille","lat":43.23194,"lon":5.35552,"is_reserved":false,"is_disabled":false,"rental_uris":{"android":"levelo://app?vid=4ee97cf1-7f69-4ef0-81f5-7b013aa88d5c","ios":"levelo://app?vid=4ee97cf1-7f69-4ef0-81f5-7b013aa88d5c"},"vehicle_type_id":"4","last_reported":1749817235,"current_range_meters":18800,"station_id":"ce4bhu92rcd13ifvqi70","pricing_plan_id":"cebpf4jnsgd1na2vs0mg"},{"bike_id":"fa293a98-dbc9-422d-8932-7f418e765cbe","system_id":"levelo_inurba_marseille","lat":43.3015,"lon":5.38073,"is_reserved":false,"is_disabled":false,"rental_uris":{"android":"levelo://app?vid=fa293a98-dbc9-422d-8932-7f418e765cbe","ios":"levelo://app?vid=fa293a98-dbc9-422d-8932-7f418e765cbe"},"vehicle_type_id":"4","last_reported":1749817235,"current_range_meters":19200,"station_id":"ce4bgjp2rcd13ifvqbh0","pricing_plan_id":"cebpf4jnsgd1na2vs0mg"},{"bike_id":"03c873a3-949c-4ab3-8a86-30eb8f4fa8db","system_id":"levelo_inurba_marseille","lat":43.29733,"lon":5.37714,"is_reserved":false,"is_disabled":false,"rental_uris":{"android":"levelo://app?vid=03c873a3-949c-4ab3-8a86-30eb8f4fa8db","ios":"levelo://app?vid=03c873a3-949c-4ab3-8a86-30eb8f4fa8db"},"vehicle_type_id":"4","last_reported":1749817235,"current_range_meters":19200,"station_id":"ce4bgkh2rcd13ifvqbl0","pricing_plan_id":"cebpf4jnsgd1na2vs0mg"},{"bike_id":"1c4199e0-5bcd-409e-9cf0-35284941d2c5","system_id":"levelo_inurba_marseille","lat":43.29855,"lon":5.36285,"is_reserved":false,"is_disabled":false,"rental_uris":{"android":"levelo://app?vid=1c4199e0-5bcd-409e-9cf0-35284941d2c5","ios":"levelo://app?vid=1c4199e0-5bcd-409e-9cf0-35284941d2c5"},"vehicle_type_id":"4","last_reported":1749817235,"current_range_meters":19200,"station_id":"ce4bgpp2rcd13ifvqc3g","pricing_plan_id":"cebpf4jnsgd1na2vs0mg"},{"bike_id":"008a42d3-ad5e-40e8-9ce0-f5aaf72eaf4e","system_id":"levelo_inurba_marseille","lat":43.279091,"lon":5.38017,"is_reserved":false,"is_disabled":false,"rental_uris":{"android":"levelo://app?vid=008a42d3-ad5e-40e8-9ce0-f5aaf72eaf4e","ios":"levelo://app?vid=008a42d3-ad5e-40e8-9ce0-f5aaf72eaf4e"},"vehicle_type_id":"4","last_reported":1749817235,"current_range_meters":19200,"station_id":"ce4bhf92rcd13ifvqf50","pricing_plan_id":"cebpf4jnsgd1na2vs0mg"},{"bike_id":"7dd867b8-8b4a-4f11-8a7a-1450143d4b8d","system_id":"levelo_inurba_marseille","lat":43.27833,"lon":5.39211,"is_reserved":false,"is_disabled":false,"rental_uris":{"android":"levelo://app?vid=7dd867b8-8b4a-4f11-8a7a-1450143d4b8d","ios":"levelo://app?vid=7dd867b8-8b4a-4f11-8a7a-1450143d4b8d"},"vehicle_type_id":"4","last_reported":1749817235,"current_range_meters":19200,"station_id":"ce4bhjp2rcd13ifvqga0","pricing_plan_id":"cebpf4jnsgd1na2vs0mg"},{"bike_id":"a8c1e400-fb5d-421d-923c-ac0e31852cde","system_id":"levelo_inurba_marseille","lat":43.25864,"lon":5.39894,"is_reserved":false,"is_disabled":false,"rental_uris":{"android":"levelo://app?vid=a8c1e400-fb5d-421d-923c-ac0e31852cde","ios":"levelo://app?vid=a8c1e400-fb5d-421d-923c-ac0e31852cde"},"vehicle_type_id":"4","last_reported":1749817235,"current_range_meters":19200,"station_id":"ce4bhl92rcd13ifvqghg","pricing_plan_id":"cebpf4jnsgd1na2vs0mg"},{"bike_id":"28545b2b-1175-4676-a1f2-99933972671d","system_id":"levelo_inurba_marseille","lat":43.30352,"lon":5.41876,"is_reserved":false,"is_disabled":false,"rental_uris":{"android":"levelo://app?vid=28545b2b-1175-4676-a1f2-99933972671d","ios":"levelo://app?vid=28545b2b-1175-4676-a1f2-99933972671d"},"vehicle_type_id":"4","last_reported":1749817235,"current_range_meters":19200,"station_id":"ce4bhop2rcd13ifvqh7g","pricing_plan_id":"cebpf4jnsgd1na2vs0mg"},{"bike_id":"38801550-04a3-4e56-b4c0-6e717f52d1a3","system_id":"levelo_inurba_marseille","lat":43.21747,"lon":5.34617,"is_reserved":false,"is_disabled":false,"rental_uris":{"android":"levelo://app?vid=38801550-04a3-4e56-b4c0-6e717f52d1a3","ios":"levelo://app?vid=38801550-04a3-4e56-b4c0-6e717f52d1a3"},"vehicle_type_id":"4","last_reported":1749817235,"current_range_meters":19200,"station_id":"st_cvj6r9ubvosntc0bgbag","pricing_plan_id":"cebpf4jnsgd1na2vs0mg"},{"bike_id":"ea50c5d4-71f4-4641-bd6a-b207283ed0e7","system_id":"levelo_inurba_marseille","lat":43.30311,"lon":5.36888,"is_reserved":false,"is_disabled":false,"rental_uris":{"android":"levelo://app?vid=ea50c5d4-71f4-4641-bd6a-b207283ed0e7","ios":"levelo://app?vid=ea50c5d4-71f4-4641-bd6a-b207283ed0e7"},"vehicle_type_id":"4","last_reported":1749817235,"current_range_meters":19600,"station_id":"ce4bgqh2rcd13ifvqc5g","pricing_plan_id":"cebpf4jnsgd1na2vs0mg"},{"bike_id":"a419b8ff-7300-4eb4-b9e4-286faaf8c8fd","system_id":"levelo_inurba_marseille","lat":43.30548,"lon":5.36715,"is_reserved":false,"is_disabled":false,"rental_uris":{"android":"levelo://app?vid=a419b8ff-7300-4eb4-b9e4-286faaf8c8fd","ios":"levelo://app?vid=a419b8ff-7300-4eb4-b9e4-286faaf8c8fd"},"vehicle_type_id":"4","last_reported":1749817235,"current_range_meters":19600,"station_id":"ce4bgrp2rcd13ifvqc9g","pricing_plan_id":"cebpf4jnsgd1na2vs0mg"},{"bike_id":"c08a4e60-4de0-497c-b9cd-8ac734283f03","system_id":"levelo_inurba_marseille","lat":43.28037,"lon":5.36949,"is_reserved":false,"is_disabled":false,"rental_uris":{"android":"levelo://app?vid=c08a4e60-4de0-497c-b9cd-8ac734283f03","ios":"levelo://app?vid=c08a4e60-4de0-497c-b9cd-8ac734283f03"},"vehicle_type_id":"4","last_reported":1749817235,"current_range_meters":19600,"station_id":"ce4bha12rcd13ifvqef0","pricing_plan_id":"cebpf4jnsgd1na2vs0mg"},{"bike_id":"b0607603-c136-407c-b181-b741a4ff3e0e","system_id":"levelo_inurba_marseille","lat":43.27373,"lon":5.36257,"is_reserved":false,"is_disabled":false,"rental_uris":{"android":"levelo://app?vid=b0607603-c136-407c-b181-b741a4ff3e0e","ios":"levelo://app?vid=b0607603-c136-407c-b181-b741a4ff3e0e"},"vehicle_type_id":"4","last_reported":1749817235,"current_range_meters":19600,"station_id":"ce4bhbh2rcd13ifvqeo0","pricing_plan_id":"cebpf4jnsgd1na2vs0mg"},{"bike_id":"167313e6-5103-4164-96f0-0483a224c37c","system_id":"levelo_inurba_marseille","lat":43.2666,"lon":5.38316,"is_reserved":false,"is_disabled":false,"rental_uris":{"android":"levelo://app?vid=167313e6-5103-4164-96f0-0483a224c37c","ios":"levelo://app?vid=167313e6-5103-4164-96f0-0483a224c37c"},"vehicle_type_id":"4","last_reported":1749817235,"current_range_meters":19600,"station_id":"ce4bhg92rcd13ifvqf90","pricing_plan_id":"cebpf4jnsgd1na2vs0mg"},{"bike_id":"eebcea0a-fd68-432a-8a41-df7ed970d787","system_id":"levelo_inurba_marseille","lat":43.245772,"lon":5.393552,"is_reserved":false,"is_disabled":false,"rental_uris":{"android":"levelo://app?vid=eebcea0a-fd68-432a-8a41-df7ed970d787","ios":"levelo://app?vid=eebcea0a-fd68-432a-8a41-df7ed970d787"},"vehicle_type_id":"4","last_reported":1749817235,"current_range_meters":19600,"station_id":"ce4bhlp2rcd13ifvqgjg","pricing_plan_id":"cebpf4jnsgd1na2vs0mg"},{"bike_id":"a025437d-d905-4581-a812-0c2f72b00469","system_id":"levelo_inurba_marseille","lat":43.32661,"lon":5.40989,"is_reserved":false,"is_disabled":false,"rental_uris":{"android":"levelo://app?vid=a025437d-d905-4581-a812-0c2f72b00469","ios":"levelo://app?vid=a025437d-d905-4581-a812-0c2f72b00469"},"vehicle_type_id":"4","last_reported":1749817235,"current_range_meters":19600,"station_id":"ce4bhpp2rcd13ifvqhgg","pricing_plan_id":"cebpf4jnsgd1na2vs0mg"},{"bike_id":"4a7e7441-42a1-432b-953d-2c6fdc5c80ad","system_id":"levelo_inurba_marseille","lat":43.32102,"lon":5.36773,"is_reserved":false,"is_disabled":false,"rental_uris":{"android":"levelo://app?vid=4a7e7441-42a1-432b-953d-2c6fdc5c80ad","ios":"levelo://app?vid=4a7e7441-42a1-432b-953d-2c6fdc5c80ad"},"vehicle_type_id":"4","last_reported":1749817235,"current_range_meters":19600,"station_id":"ce4bhrh2rcd13ifvqhug","pricing_plan_id":"cebpf4jnsgd1na2vs0mg"},{"bike_id":"a89cb948-989f-4863-a75b-e1ca319e412e","system_id":"levelo_inurba_marseille","lat":43.22942,"lon":5.354,"is_reserved":false,"is_disabled":false,"rental_uris":{"android":"levelo://app?vid=a89cb948-989f-4863-a75b-e1ca319e412e","ios":"levelo://app?vid=a89cb948-989f-4863-a75b-e1ca319e412e"},"vehicle_type_id":"4","last_reported":1749817235,"current_range_meters":19600,"station_id":"cpo3532slgdg3j2ikp40","pricing_plan_id":"cebpf4jnsgd1na2vs0mg"},{"bike_id":"558cd456-1017-4899-a5e0-10f264e95a8c","system_id":"levelo_inurba_marseille","lat":43.32225,"lon":5.38095,"is_reserved":false,"is_disabled":false,"rental_uris":{"android":"levelo://app?vid=558cd456-1017-4899-a5e0-10f264e95a8c","ios":"levelo://app?vid=558cd456-1017-4899-a5e0-10f264e95a8c"},"vehicle_type_id":"4","last_reported":1749817235,"current_range_meters":20000,"station_id":"","pricing_plan_id":"cebpf4jnsgd1na2vs0mg"},{"bike_id":"04555eec-d3c1-491a-bbf9-4e3f1729735f","system_id":"levelo_inurba_marseille","lat":43.28569,"lon":5.39496,"is_reserved":false,"is_disabled":false,"rental_uris":{"android":"levelo://app?vid=04555eec-d3c1-491a-bbf9-4e3f1729735f","ios":"levelo://app?vid=04555eec-d3c1-491a-bbf9-4e3f1729735f"},"vehicle_type_id":"4","last_reported":1749817235,"current_range_meters":20000,"station_id":"ce4bh292rcd13ifvqdg0","pricing_plan_id":"cebpf4jnsgd1na2vs0mg"},{"bike_id":"d1fa1b15-a85b-4d5a-b3b3-fa2ce33a2569","system_id":"levelo_inurba_marseille","lat":43.28847,"lon":5.35863,"is_reserved":false,"is_disabled":false,"rental_uris":{"android":"levelo://app?vid=d1fa1b15-a85b-4d5a-b3b3-fa2ce33a2569","ios":"levelo://app?vid=d1fa1b15-a85b-4d5a-b3b3-fa2ce33a2569"},"vehicle_type_id":"4","last_reported":1749817235,"current_range_meters":20000,"station_id":"ce4bhb12rcd13ifvqem0","pricing_plan_id":"cebpf4jnsgd1na2vs0mg"},{"bike_id":"e82ba042-aa2b-4f83-95bc-9d46f4c30361","system_id":"levelo_inurba_marseille","lat":43.27062,"lon":5.40259,"is_reserved":false,"is_disabled":false,"rental_uris":{"android":"levelo://app?vid=e82ba042-aa2b-4f83-95bc-9d46f4c30361","ios":"levelo://app?vid=e82ba042-aa2b-4f83-95bc-9d46f4c30361"},"vehicle_type_id":"4","last_reported":1749817235,"current_range_meters":20000,"station_id":"ce4bhk92rcd13ifvqgc0","pricing_plan_id":"cebpf4jnsgd1na2vs0mg"},{"bike_id":"1eaff9f9-c1cf-4cb3-b823-f1a01810ee89","system_id":"levelo_inurba_marseille","lat":43.30427,"lon":5.38906,"is_reserved":false,"is_disabled":false,"rental_uris":{"android":"levelo://app?vid=1eaff9f9-c1cf-4cb3-b823-f1a01810ee89","ios":"levelo://app?vid=1eaff9f9-c1cf-4cb3-b823-f1a01810ee89"},"vehicle_type_id":"4","last_reported":1749817235,"current_range_meters":20400,"station_id":"ce4bgk12rcd13ifvqbi0","pricing_plan_id":"cebpf4jnsgd1na2vs0mg"},{"bike_id":"b9eb24d0-62cf-40ae-9ec5-2dd11204861a","system_id":"levelo_inurba_marseille","lat":43.30527,"lon":5.36531,"is_reserved":false,"is_disabled":false,"rental_uris":{"android":"levelo://app?vid=b9eb24d0-62cf-40ae-9ec5-2dd11204861a","ios":"levelo://app?vid=b9eb24d0-62cf-40ae-9ec5-2dd11204861a"},"vehicle_type_id":"4","last_reported":1749817235,"current_range_meters":20400,"station_id":"ce4bgs12rcd13ifvqcag","pricing_plan_id":"cebpf4jnsgd1na2vs0mg"},{"bike_id":"b3399619-a9a1-48b5-a083-7e28ef066902","system_id":"levelo_inurba_marseille","lat":43.29097,"lon":5.38133,"is_reserved":false,"is_disabled":false,"rental_uris":{"android":"levelo://app?vid=b3399619-a9a1-48b5-a083-7e28ef066902","ios":"levelo://app?vid=b3399619-a9a1-48b5-a083-7e28ef066902"},"vehicle_type_id":"4","last_reported":1749817235,"current_range_meters":20400,"station_id":"ce4bh512rcd13ifvqe2g","pricing_plan_id":"cebpf4jnsgd1na2vs0mg"},{"bike_id":"cacbb0d8-9ffa-4e4e-98fe-95e2a2da511f","system_id":"levelo_inurba_marseille","lat":43.27056,"lon":5.40261,"is_reserved":false,"is_disabled":false,"rental_uris":{"android":"levelo://app?vid=cacbb0d8-9ffa-4e4e-98fe-95e2a2da511f","ios":"levelo://app?vid=cacbb0d8-9ffa-4e4e-98fe-95e2a2da511f"},"vehicle_type_id":"4","last_reported":1749817235,"current_range_meters":20400,"station_id":"ce4bhk92rcd13ifvqgc0","pricing_plan_id":"cebpf4jnsgd1na2vs0mg"},{"bike_id":"a8db9155-b312-4734-b66f-3a302315d7e5","system_id":"levelo_inurba_marseille","lat":43.281523,"lon":5.426394,"is_reserved":false,"is_disabled":false,"rental_uris":{"android":"levelo://app?vid=a8db9155-b312-4734-b66f-3a302315d7e5","ios":"levelo://app?vid=a8db9155-b312-4734-b66f-3a302315d7e5"},"vehicle_type_id":"4","last_reported":1749817235,"current_range_meters":20400,"station_id":"ce4bhnh2rcd13ifvqgug","pricing_plan_id":"cebpf4jnsgd1na2vs0mg"},{"bike_id":"7240a984-bb6d-4c3b-ab8d-aef55ac0bce8","system_id":"levelo_inurba_marseille","lat":43.2119,"lon":5.35114,"is_reserved":false,"is_disabled":false,"rental_uris":{"android":"levelo://app?vid=7240a984-bb6d-4c3b-ab8d-aef55ac0bce8","ios":"levelo://app?vid=7240a984-bb6d-4c3b-ab8d-aef55ac0bce8"},"vehicle_type_id":"4","last_reported":1749817235,"current_range_meters":20400,"station_id":"st_cvj6sg6p6f1abm77japg","pricing_plan_id":"cebpf4jnsgd1na2vs0mg"},{"bike_id":"679d881d-2dfe-4ec2-babb-8b09d0832382","system_id":"levelo_inurba_marseille","lat":43.32776,"lon":5.39151,"is_reserved":false,"is_disabled":false,"rental_uris":{"android":"levelo://app?vid=679d881d-2dfe-4ec2-babb-8b09d0832382","ios":"levelo://app?vid=679d881d-2dfe-4ec2-babb-8b09d0832382"},"vehicle_type_id":"4","last_reported":1749817235,"current_range_meters":20800,"station_id":"","pricing_plan_id":"cebpf4jnsgd1na2vs0mg"},{"bike_id":"c77c07ee-5cfb-492e-b420-bb5743e0f9d8","system_id":"levelo_inurba_marseille","lat":43.29271,"lon":5.37644,"is_reserved":false,"is_disabled":false,"rental_uris":{"android":"levelo://app?vid=c77c07ee-5cfb-492e-b420-bb5743e0f9d8","ios":"levelo://app?vid=c77c07ee-5cfb-492e-b420-bb5743e0f9d8"},"vehicle_type_id":"4","last_reported":1749817235,"current_range_meters":20800,"station_id":"ce4bgi12rcd13ifvqb80","pricing_plan_id":"cebpf4jnsgd1na2vs0mg"},{"bike_id":"8f85e694-02f9-40ad-a596-d0fc4c75e52c","system_id":"levelo_inurba_marseille","lat":43.29029,"lon":5.3758,"is_reserved":false,"is_disabled":false,"rental_uris":{"android":"levelo://app?vid=8f85e694-02f9-40ad-a596-d0fc4c75e52c","ios":"levelo://app?vid=8f85e694-02f9-40ad-a596-d0fc4c75e52c"},"vehicle_type_id":"4","last_reported":1749817235,"current_range_meters":20800,"station_id":"ce4bh692rcd13ifvqe90","pricing_plan_id":"cebpf4jnsgd1na2vs0mg"},{"bike_id":"050ece5f-4363-443d-8a0c-92fe19ba58a0","system_id":"levelo_inurba_marseille","lat":43.276793,"lon":5.388632,"is_reserved":false,"is_disabled":false,"rental_uris":{"android":"levelo://app?vid=050ece5f-4363-443d-8a0c-92fe19ba58a0","ios":"levelo://app?vid=050ece5f-4363-443d-8a0c-92fe19ba58a0"},"vehicle_type_id":"4","last_reported":1749817235,"current_range_meters":20800,"station_id":"ce4bhi12rcd13ifvqfo0","pricing_plan_id":"cebpf4jnsgd1na2vs0mg"},{"bike_id":"9067c4d6-8256-41b1-b2fe-f21fd431fd22","system_id":"levelo_inurba_marseille","lat":43.2175,"lon":5.34601,"is_reserved":false,"is_disabled":false,"rental_uris":{"android":"levelo://app?vid=9067c4d6-8256-41b1-b2fe-f21fd431fd22","ios":"levelo://app?vid=9067c4d6-8256-41b1-b2fe-f21fd431fd22"},"vehicle_type_id":"4","last_reported":1749817235,"current_range_meters":20800,"station_id":"st_cvj6r9ubvosntc0bgbag","pricing_plan_id":"cebpf4jnsgd1na2vs0mg"},{"bike_id":"c82f75f2-635c-40da-9f67-77d82cb74c97","system_id":"levelo_inurba_marseille","lat":43.21193,"lon":5.35111,"is_reserved":false,"is_disabled":false,"rental_uris":{"android":"levelo://app?vid=c82f75f2-635c-40da-9f67-77d82cb74c97","ios":"levelo://app?vid=c82f75f2-635c-40da-9f67-77d82cb74c97"},"vehicle_type_id":"4","last_reported":1749817235,"current_range_meters":20800,"station_id":"st_cvj6sg6p6f1abm77japg","pricing_plan_id":"cebpf4jnsgd1na2vs0mg"},{"bike_id":"3cb1ab5f-a430-435f-8754-7f862f5f06b4","system_id":"levelo_inurba_marseille","lat":43.28571,"lon":5.39496,"is_reserved":false,"is_disabled":false,"rental_uris":{"android":"levelo://app?vid=3cb1ab5f-a430-435f-8754-7f862f5f06b4","ios":"levelo://app?vid=3cb1ab5f-a430-435f-8754-7f862f5f06b4"},"vehicle_type_id":"4","last_reported":1749817235,"current_range_meters":21600,"station_id":"ce4bh292rcd13ifvqdg0","pricing_plan_id":"cebpf4jnsgd1na2vs0mg"},{"bike_id":"8f3a7d29-a4ed-4332-95fc-62f9d08d73fb","system_id":"levelo_inurba_marseille","lat":43.28463,"lon":5.35895,"is_reserved":false,"is_disabled":false,"rental_uris":{"android":"levelo://app?vid=8f3a7d29-a4ed-4332-95fc-62f9d08d73fb","ios":"levelo://app?vid=8f3a7d29-a4ed-4332-95fc-62f9d08d73fb"},"vehicle_type_id":"4","last_reported":1749817235,"current_range_meters":21600,"station_id":"ce4bhah2rcd13ifvqei0","pricing_plan_id":"cebpf4jnsgd1na2vs0mg"},{"bike_id":"db50ea7b-e9e2-4cb7-bddf-236a2d004838","system_id":"levelo_inurba_marseille","lat":43.27371,"lon":5.36264,"is_reserved":false,"is_disabled":false,"rental_uris":{"android":"levelo://app?vid=db50ea7b-e9e2-4cb7-bddf-236a2d004838","ios":"levelo://app?vid=db50ea7b-e9e2-4cb7-bddf-236a2d004838"},"vehicle_type_id":"4","last_reported":1749817235,"current_range_meters":21600,"station_id":"ce4bhbh2rcd13ifvqeo0","pricing_plan_id":"cebpf4jnsgd1na2vs0mg"},{"bike_id":"ffa23bb6-262f-4db1-837b-0dad36d9093c","system_id":"levelo_inurba_marseille","lat":43.29277,"lon":5.3686,"is_reserved":false,"is_disabled":false,"rental_uris":{"android":"levelo://app?vid=ffa23bb6-262f-4db1-837b-0dad36d9093c","ios":"levelo://app?vid=ffa23bb6-262f-4db1-837b-0dad36d9093c"},"vehicle_type_id":"4","last_reported":1749817235,"current_range_meters":21600,"station_id":"ce4bhbp2rcd13ifvqesg","pricing_plan_id":"cebpf4jnsgd1na2vs0mg"},{"bike_id":"e07237e1-21e1-4c8e-89ec-d69e5cd00949","system_id":"levelo_inurba_marseille","lat":43.21746,"lon":5.34613,"is_reserved":false,"is_disabled":false,"rental_uris":{"android":"levelo://app?vid=e07237e1-21e1-4c8e-89ec-d69e5cd00949","ios":"levelo://app?vid=e07237e1-21e1-4c8e-89ec-d69e5cd00949"},"vehicle_type_id":"4","last_reported":1749817235,"current_range_meters":21600,"station_id":"st_cvj6r9ubvosntc0bgbag","pricing_plan_id":"cebpf4jnsgd1na2vs0mg"},{"bike_id":"810b6267-0dc6-4cdf-ba87-f72fc9f3bd3c","system_id":"levelo_inurba_marseille","lat":43.21766,"lon":5.34601,"is_reserved":false,"is_disabled":false,"rental_uris":{"android":"levelo://app?vid=810b6267-0dc6-4cdf-ba87-f72fc9f3bd3c","ios":"levelo://app?vid=810b6267-0dc6-4cdf-ba87-f72fc9f3bd3c"},"vehicle_type_id":"4","last_reported":1749817235,"current_range_meters":21600,"station_id":"st_cvj6r9ubvosntc0bgbag","pricing_plan_id":"cebpf4jnsgd1na2vs0mg"},{"bike_id":"f2c9af96-1c1f-4ce9-b7e8-1282fcb6fec2","system_id":"levelo_inurba_marseille","lat":43.24353,"lon":5.41155,"is_reserved":false,"is_disabled":false,"rental_uris":{"android":"levelo://app?vid=f2c9af96-1c1f-4ce9-b7e8-1282fcb6fec2","ios":"levelo://app?vid=f2c9af96-1c1f-4ce9-b7e8-1282fcb6fec2"},"vehicle_type_id":"4","last_reported":1749817235,"current_range_meters":22000,"station_id":"","pricing_plan_id":"cebpf4jnsgd1na2vs0mg"},{"bike_id":"b7de2daa-196c-4111-9244-8dff16c1dcca","system_id":"levelo_inurba_marseille","lat":43.321,"lon":5.36831,"is_reserved":false,"is_disabled":false,"rental_uris":{"android":"levelo://app?vid=b7de2daa-196c-4111-9244-8dff16c1dcca","ios":"levelo://app?vid=b7de2daa-196c-4111-9244-8dff16c1dcca"},"vehicle_type_id":"4","last_reported":1749817235,"current_range_meters":22000,"station_id":"","pricing_plan_id":"cebpf4jnsgd1na2vs0mg"},{"bike_id":"74ca1048-15a2-4975-91c6-97c5bef90d7c","system_id":"levelo_inurba_marseille","lat":43.28401,"lon":5.37511,"is_reserved":false,"is_disabled":false,"rental_uris":{"android":"levelo://app?vid=74ca1048-15a2-4975-91c6-97c5bef90d7c","ios":"levelo://app?vid=74ca1048-15a2-4975-91c6-97c5bef90d7c"},"vehicle_type_id":"4","last_reported":1749817235,"current_range_meters":22000,"station_id":"ce4bh412rcd13ifvqds0","pricing_plan_id":"cebpf4jnsgd1na2vs0mg"},{"bike_id":"d95131cc-e0fd-45ea-8802-4e98e1f40fa0","system_id":"levelo_inurba_marseille","lat":43.29009,"lon":5.35632,"is_reserved":false,"is_disabled":false,"rental_uris":{"android":"levelo://app?vid=d95131cc-e0fd-45ea-8802-4e98e1f40fa0","ios":"levelo://app?vid=d95131cc-e0fd-45ea-8802-4e98e1f40fa0"},"vehicle_type_id":"4","last_reported":1749817235,"current_range_meters":22000,"station_id":"ce4bhb92rcd13ifvqen0","pricing_plan_id":"cebpf4jnsgd1na2vs0mg"},{"bike_id":"e780748f-126b-4aac-a5e7-34ae2dbbe1e1","system_id":"levelo_inurba_marseille","lat":43.26029,"lon":5.3755,"is_reserved":false,"is_disabled":false,"rental_uris":{"android":"levelo://app?vid=e780748f-126b-4aac-a5e7-34ae2dbbe1e1","ios":"levelo://app?vid=e780748f-126b-4aac-a5e7-34ae2dbbe1e1"},"vehicle_type_id":"4","last_reported":1749817235,"current_range_meters":22000,"station_id":"ce4bhgh2rcd13ifvqfa0","pricing_plan_id":"cebpf4jnsgd1na2vs0mg"},{"bike_id":"ad556f7a-9be5-49c9-a4be-c97e2025239b","system_id":"levelo_inurba_marseille","lat":43.23962,"lon":5.36627,"is_reserved":false,"is_disabled":false,"rental_uris":{"android":"levelo://app?vid=ad556f7a-9be5-49c9-a4be-c97e2025239b","ios":"levelo://app?vid=ad556f7a-9be5-49c9-a4be-c97e2025239b"},"vehicle_type_id":"4","last_reported":1749817235,"current_range_meters":22000,"station_id":"ce4bhi12rcd13ifvqfp0","pricing_plan_id":"cebpf4jnsgd1na2vs0mg"},{"bike_id":"6dffafd5-1a4c-4101-bc3f-c64cd1754739","system_id":"levelo_inurba_marseille","lat":43.29565,"lon":5.42296,"is_reserved":false,"is_disabled":false,"rental_uris":{"android":"levelo://app?vid=6dffafd5-1a4c-4101-bc3f-c64cd1754739","ios":"levelo://app?vid=6dffafd5-1a4c-4101-bc3f-c64cd1754739"},"vehicle_type_id":"4","last_reported":1749817235,"current_range_meters":22000,"station_id":"ce4bhph2rcd13ifvqhdg","pricing_plan_id":"cebpf4jnsgd1na2vs0mg"},{"bike_id":"2e555dff-22c0-4d51-9ade-e3168fb145c7","system_id":"levelo_inurba_marseille","lat":43.24167,"lon":5.36389,"is_reserved":false,"is_disabled":false,"rental_uris":{"android":"levelo://app?vid=2e555dff-22c0-4d51-9ade-e3168fb145c7","ios":"levelo://app?vid=2e555dff-22c0-4d51-9ade-e3168fb145c7"},"vehicle_type_id":"4","last_reported":1749817235,"current_range_meters":22000,"station_id":"cpo36qri1sfpv3e86is0","pricing_plan_id":"cebpf4jnsgd1na2vs0mg"},{"bike_id":"d81ebef1-def3-4b3b-8a2c-e915262efa10","system_id":"levelo_inurba_marseille","lat":43.328676,"lon":5.391694,"is_reserved":false,"is_disabled":false,"rental_uris":{"android":"levelo://app?vid=d81ebef1-def3-4b3b-8a2c-e915262efa10","ios":"levelo://app?vid=d81ebef1-def3-4b3b-8a2c-e915262efa10"},"vehicle_type_id":"4","last_reported":1749817235,"current_range_meters":22400,"station_id":"","pricing_plan_id":"cebpf4jnsgd1na2vs0mg"},{"bike_id":"97d9226b-62d1-4c9e-acc3-5f48a13a8669","system_id":"levelo_inurba_marseille","lat":43.30303,"lon":5.36895,"is_reserved":false,"is_disabled":false,"rental_uris":{"android":"levelo://app?vid=97d9226b-62d1-4c9e-acc3-5f48a13a8669","ios":"levelo://app?vid=97d9226b-62d1-4c9e-acc3-5f48a13a8669"},"vehicle_type_id":"4","last_reported":1749817235,"current_range_meters":22400,"station_id":"ce4bgqh2rcd13ifvqc5g","pricing_plan_id":"cebpf4jnsgd1na2vs0mg"},{"bike_id":"d3a2675a-0128-488d-898e-7d472d016503","system_id":"levelo_inurba_marseille","lat":43.30546,"lon":5.36712,"is_reserved":false,"is_disabled":false,"rental_uris":{"android":"levelo://app?vid=d3a2675a-0128-488d-898e-7d472d016503","ios":"levelo://app?vid=d3a2675a-0128-488d-898e-7d472d016503"},