{"last_updated":1751353933,"ttl":60,"version":"2.2","data":{"bikes":[{"bike_id":"3da29fb8-fc97-44c6-b9ac-31dd456b2fd4","system_id":"levelo_inurba_marseille","lat":43.33771,"lon":5.37424,"is_reserved":false,"is_disabled":true,"rental_uris":{"android":"levelo://app?vid=3da29fb8-fc97-44c6-b9ac-31dd456b2fd4","ios":"levelo://app?vid=3da29fb8-fc97-44c6-b9ac-31dd456b2fd4"},"vehicle_type_id":"4","last_reported":1751353933,"current_range_meters":0,"station_id":"","pricing_plan_id":"cebpf4jnsgd1na2vs0mg"},{"bike_id":"01861ad8-a8d7-4be6-816e-651927c87584","system_id":"levelo_inurba_marseille","lat":43.33751,"lon":5.37456,"is_reserved":false,"is_disabled":true,"rental_uris":{"android":"levelo://app?vid=01861ad8-a8d7-4be6-816e-651927c87584","ios":"levelo://app?vid=01861ad8-a8d7-4be6-816e-651927c87584"},"vehicle_type_id":"4","last_reported":1751353933,"current_range_meters":0,"station_id":"","pricing_plan_id":"cebpf4jnsgd1na2vs0mg"},{"bike_id":"d5b5bc74-aaeb-40c0-b979-fb1a262527de","system_id":"levelo_inurba_marseille","lat":43.33206,"lon":5.35898,"is_reserved":false,"is_disabled":true,"rental_uris":{"android":"levelo://app?vid=d5b5bc74-aaeb-40c0-b979-fb1a262527de","ios":"levelo://app?vid=d5b5bc74-aaeb-40c0-b979-fb1a262527de"},"vehicle_type_id":"4","last_reported":1751353933,"current_range_meters":0,"station_id":"","pricing_plan_id":"cebpf4jnsgd1na2vs0mg"},{"bike_id":"3168b9fb-97d2-4a0e-b7ee-673bb8cf7525","system_id":"levelo_inurba_marseille","lat":43.277706,"lon":5.355756,"is_reserved":false,"is_disabled":true,"rental_uris":{"android":"levelo://app?vid=3168b9fb-97d2-4a0e-b7ee-673bb8cf7525","ios":"levelo://app?vid=3168b9fb-97d2-4a0e-b7ee-673bb8cf7525"},"vehicle_type_id":"4","last_reported":1751353933,"current_range_meters":0,"station_id":"","pricing_plan_id":"cebpf4jnsgd1na2vs0mg"},{"bike_id":"1444fdd8-4c4d-4d6b-8403-0fc59ba64e3f","system_id":"levelo_inurba_marseille","lat":43.26223,"lon":5.37466,"is_reserved":false,"is_disabled":true,"rental_uris":{"android":"levelo://app?vid=1444fdd8-4c4d-4d6b-8403-0fc59ba64e3f","ios":"levelo://app?vid=1444fdd8-4c4d-4d6b-8403-0fc59ba64e3f"},"vehicle_type_id":"4","last_reported":1751353933,"current_range_meters":0,"station_id":"","pricing_plan_id":"cebpf4jnsgd1na2vs0mg"},{"bike_id":"d9498861-0262-4f6c-893b-b89a66d1f008","system_id":"levelo_inurba_marseille","lat":43.345993,"lon":5.38166,"is_reserved":false,"is_disabled":true,"rental_uris":{"android":"levelo://app?vid=d9498861-0262-4f6c-893b-b89a66d1f008","ios":"levelo://app?vid=d9498861-0262-4f6c-893b-b89a66d1f008"},"vehicle_type_id":"4","last_reported":1751353933,"current_range_meters":0,"station_id":"","pricing_plan_id":"cebpf4jnsgd1na2vs0mg"},{"bike_id":"3378c13c-e4e0-45be-9bfe-f3a4bc2c600e","system_id":"levelo_inurba_marseille","lat":43.297614,"lon":5.460066,"is_reserved":false,"is_disabled":true,"rental_uris":{"android":"levelo://app?vid=3378c13c-e4e0-45be-9bfe-f3a4bc2c600e","ios":"levelo://app?vid=3378c13c-e4e0-45be-9bfe-f3a4bc2c600e"},"vehicle_type_id":"4","last_reported":1751353933,"current_range_meters":0,"station_id":"","pricing_plan_id":"cebpf4jnsgd1na2vs0mg"},{"bike_id":"c9700359-7f1e-4ea5-8eb5-d9c4ea1b8ef7","system_id":"levelo_inurba_marseille","lat":43.26293,"lon":5.37386,"is_reserved":false,"is_disabled":true,"rental_uris":{"android":"levelo://app?vid=c9700359-7f1e-4ea5-8eb5-d9c4ea1b8ef7","ios":"levelo://app?vid=c9700359-7f1e-4ea5-8eb5-d9c4ea1b8ef7"},"vehicle_type_id":"4","last_reported":1751353933,"current_range_meters":0,"station_id":"","pricing_plan_id":"cebpf4jnsgd1na2vs0mg"},{"bike_id":"58bbeff5-9e2c-48b9-b80e-1c460df567dc","system_id":"levelo_inurba_marseille","lat":43.29527,"lon":5.37503,"is_reserved":false,"is_disabled":true,"rental_uris":{"android":"levelo://app?vid=58bbeff5-9e2c-48b9-b80e-1c460df567dc","ios":"levelo://app?vid=58bbeff5-9e2c-48b9-b80e-1c460df567dc"},"vehicle_type_id":"4","last_reported":1751353933,"current_range_meters":0,"station_id":"ce4bgkp2rcd13ifvqbmg","pricing_plan_id":"cebpf4jnsgd1na2vs0mg"},{"bike_id":"e2445342-1b68-49c9-8b31-af881abcd568","system_id":"levelo_inurba_marseille","lat":43.30905,"lon":5.36847,"is_reserved":false,"is_disabled":true,"rental_uris":{"android":"levelo://app?vid=e2445342-1b68-49c9-8b31-af881abcd568","ios":"levelo://app?vid=e2445342-1b68-49c9-8b31-af881abcd568"},"vehicle_type_id":"4","last_reported":1751353933,"current_range_meters":0,"station_id":"ce4bgn92rcd13ifvqbvg","pricing_plan_id":"cebpf4jnsgd1na2vs0mg"},{"bike_id":"6d62d97b-621b-46be-89ff-9d1a08c2639a","system_id":"levelo_inurba_marseille","lat":43.31173,"lon":5.38716,"is_reserved":false,"is_disabled":true,"rental_uris":{"android":"levelo://app?vid=6d62d97b-621b-46be-89ff-9d1a08c2639a","ios":"levelo://app?vid=6d62d97b-621b-46be-89ff-9d1a08c2639a"},"vehicle_type_id":"4","last_reported":1751353933,"current_range_meters":0,"station_id":"ce4bgv12rcd13ifvqcp0","pricing_plan_id":"cebpf4jnsgd1na2vs0mg"},{"bike_id":"b897820f-43fd-4b1b-9dc8-153a18c5cc08","system_id":"levelo_inurba_marseille","lat":43.30929,"lon":5.4015,"is_reserved":false,"is_disabled":true,"rental_uris":{"android":"levelo://app?vid=b897820f-43fd-4b1b-9dc8-153a18c5cc08","ios":"levelo://app?vid=b897820f-43fd-4b1b-9dc8-153a18c5cc08"},"vehicle_type_id":"4","last_reported":1751353933,"current_range_meters":0,"station_id":"ce4bgvp2rcd13ifvqct0","pricing_plan_id":"cebpf4jnsgd1na2vs0mg"},{"bike_id":"81714c1b-3d8b-4aa6-ae3e-4bf8d2ce2849","system_id":"levelo_inurba_marseille","lat":43.30421,"lon":5.39761,"is_reserved":false,"is_disabled":true,"rental_uris":{"android":"levelo://app?vid=81714c1b-3d8b-4aa6-ae3e-4bf8d2ce2849","ios":"levelo://app?vid=81714c1b-3d8b-4aa6-ae3e-4bf8d2ce2849"},"vehicle_type_id":"4","last_reported":1751353933,"current_range_meters":0,"station_id":"ce4bh092rcd13ifvqd20","pricing_plan_id":"cebpf4jnsgd1na2vs0mg"},{"bike_id":"f57ce371-61a5-4884-befc-8ee8b489e513","system_id":"levelo_inurba_marseille","lat":43.30122,"lon":5.39108,"is_reserved":false,"is_disabled":true,"rental_uris":{"android":"levelo://app?vid=f57ce371-61a5-4884-befc-8ee8b489e513","ios":"levelo://app?vid=f57ce371-61a5-4884-befc-8ee8b489e513"},"vehicle_type_id":"4","last_reported":1751353933,"current_range_meters":0,"station_id":"ce4bh192rcd13ifvqdb0","pricing_plan_id":"cebpf4jnsgd1na2vs0mg"},{"bike_id":"2a74f141-fea7-422d-a10b-39d4678ac307","system_id":"levelo_inurba_marseille","lat":43.29422,"lon":5.38611,"is_reserved":false,"is_disabled":true,"rental_uris":{"android":"levelo://app?vid=2a74f141-fea7-422d-a10b-39d4678ac307","ios":"levelo://app?vid=2a74f141-fea7-422d-a10b-39d4678ac307"},"vehicle_type_id":"4","last_reported":1751353933,"current_range_meters":0,"station_id":"ce4bh2h2rcd13ifvqdh0","pricing_plan_id":"cebpf4jnsgd1na2vs0mg"},{"bike_id":"ee8fc862-c07a-4930-81da-ce720390e784","system_id":"levelo_inurba_marseille","lat":43.2828,"lon":5.35069,"is_reserved":false,"is_disabled":true,"rental_uris":{"android":"levelo://app?vid=ee8fc862-c07a-4930-81da-ce720390e784","ios":"levelo://app?vid=ee8fc862-c07a-4930-81da-ce720390e784"},"vehicle_type_id":"4","last_reported":1751353933,"current_range_meters":0,"station_id":"ce4bhbp2rcd13ifvqerg","pricing_plan_id":"cebpf4jnsgd1na2vs0mg"},{"bike_id":"8ca32261-a254-4a45-8ce4-cfcadfd6c250","system_id":"levelo_inurba_marseille","lat":43.26207,"lon":5.37436,"is_reserved":false,"is_disabled":true,"rental_uris":{"android":"levelo://app?vid=8ca32261-a254-4a45-8ce4-cfcadfd6c250","ios":"levelo://app?vid=8ca32261-a254-4a45-8ce4-cfcadfd6c250"},"vehicle_type_id":"4","last_reported":1751353933,"current_range_meters":0,"station_id":"ce4bhgp2rcd13ifvqfc0","pricing_plan_id":"cebpf4jnsgd1na2vs0mg"},{"bike_id":"d342d52a-cc1d-4e3c-9a20-d80e55961a56","system_id":"levelo_inurba_marseille","lat":43.23968,"lon":5.36633,"is_reserved":false,"is_disabled":true,"rental_uris":{"android":"levelo://app?vid=d342d52a-cc1d-4e3c-9a20-d80e55961a56","ios":"levelo://app?vid=d342d52a-cc1d-4e3c-9a20-d80e55961a56"},"vehicle_type_id":"4","last_reported":1751353933,"current_range_meters":0,"station_id":"ce4bhi12rcd13ifvqfp0","pricing_plan_id":"cebpf4jnsgd1na2vs0mg"},{"bike_id":"b960e694-deed-4f3b-ba05-2cac7ae8f3fe","system_id":"levelo_inurba_marseille","lat":43.24547,"lon":5.39519,"is_reserved":false,"is_disabled":true,"rental_uris":{"android":"levelo://app?vid=b960e694-deed-4f3b-ba05-2cac7ae8f3fe","ios":"levelo://app?vid=b960e694-deed-4f3b-ba05-2cac7ae8f3fe"},"vehicle_type_id":"4","last_reported":1751353933,"current_range_meters":0,"station_id":"ce4bhlp2rcd13ifvqgjg","pricing_plan_id":"cebpf4jnsgd1na2vs0mg"},{"bike_id":"630f4358-9cf5-4067-a1ae-dcddeeb4a0f5","system_id":"levelo_inurba_marseille","lat":43.24082,"lon":5.37744,"is_reserved":false,"is_disabled":true,"rental_uris":{"android":"levelo://app?vid=630f4358-9cf5-4067-a1ae-dcddeeb4a0f5","ios":"levelo://app?vid=630f4358-9cf5-4067-a1ae-dcddeeb4a0f5"},"vehicle_type_id":"4","last_reported":1751353933,"current_range_meters":0,"station_id":"ce4bhnp2rcd13ifvqgvg","pricing_plan_id":"cebpf4jnsgd1na2vs0mg"},{"bike_id":"b8f1161f-5beb-486b-9e35-073a95f19c62","system_id":"levelo_inurba_marseille","lat":43.2695,"lon":5.4026,"is_reserved":false,"is_disabled":true,"rental_uris":{"android":"levelo://app?vid=b8f1161f-5beb-486b-9e35-073a95f19c62","ios":"levelo://app?vid=b8f1161f-5beb-486b-9e35-073a95f19c62"},"vehicle_type_id":"4","last_reported":1751353933,"current_range_meters":0,"station_id":"cjm6bp8fraef2m0cb0m0","pricing_plan_id":"cebpf4jnsgd1na2vs0mg"},{"bike_id":"28225780-6c00-4435-8cde-b501bd568f8b","system_id":"levelo_inurba_marseille","lat":43.21762,"lon":5.34608,"is_reserved":false,"is_disabled":true,"rental_uris":{"android":"levelo://app?vid=28225780-6c00-4435-8cde-b501bd568f8b","ios":"levelo://app?vid=28225780-6c00-4435-8cde-b501bd568f8b"},"vehicle_type_id":"4","last_reported":1751353933,"current_range_meters":0,"station_id":"st_cvj6r9ubvosntc0bgbag","pricing_plan_id":"cebpf4jnsgd1na2vs0mg"},{"bike_id":"8233db61-1d36-41a5-a985-c98b6a5f0fb4","system_id":"levelo_inurba_marseille","lat":43.217464,"lon":5.346036,"is_reserved":false,"is_disabled":true,"rental_uris":{"android":"levelo://app?vid=8233db61-1d36-41a5-a985-c98b6a5f0fb4","ios":"levelo://app?vid=8233db61-1d36-41a5-a985-c98b6a5f0fb4"},"vehicle_type_id":"4","last_reported":1751353933,"current_range_meters":0,"station_id":"st_cvj6r9ubvosntc0bgbag","pricing_plan_id":"cebpf4jnsgd1na2vs0mg"},{"bike_id":"b8358384-5010-48ab-82ed-9476d2467db2","system_id":"levelo_inurba_marseille","lat":43.21765,"lon":5.34618,"is_reserved":false,"is_disabled":true,"rental_uris":{"android":"levelo://app?vid=b8358384-5010-48ab-82ed-9476d2467db2","ios":"levelo://app?vid=b8358384-5010-48ab-82ed-9476d2467db2"},"vehicle_type_id":"4","last_reported":1751353933,"current_range_meters":0,"station_id":"st_cvj6r9ubvosntc0bgbag","pricing_plan_id":"cebpf4jnsgd1na2vs0mg"},{"bike_id":"b17b6b88-306b-4f2c-a36d-f48dae83b114","system_id":"levelo_inurba_marseille","lat":43.21192,"lon":5.35077,"is_reserved":false,"is_disabled":true,"rental_uris":{"android":"levelo://app?vid=b17b6b88-306b-4f2c-a36d-f48dae83b114","ios":"levelo://app?vid=b17b6b88-306b-4f2c-a36d-f48dae83b114"},"vehicle_type_id":"4","last_reported":1751353933,"current_range_meters":0,"station_id":"st_cvj6sg6p6f1abm77japg","pricing_plan_id":"cebpf4jnsgd1na2vs0mg"},{"bike_id":"ca213c92-d4f0-4acc-b8ee-4a589739fa7e","system_id":"levelo_inurba_marseille","lat":43.29536,"lon":5.38547,"is_reserved":false,"is_disabled":true,"rental_uris":{"android":"levelo://app?vid=ca213c92-d4f0-4acc-b8ee-4a589739fa7e","ios":"levelo://app?vid=ca213c92-d4f0-4acc-b8ee-4a589739fa7e"},"vehicle_type_id":"4","last_reported":1751353933,"current_range_meters":400,"station_id":"ce4bgih2rcd13ifvqba0","pricing_plan_id":"cebpf4jnsgd1na2vs0mg"},{"bike_id":"cc7d2548-95d1-4c97-b51a-ec94bf578cd8","system_id":"levelo_inurba_marseille","lat":43.29199,"lon":5.39317,"is_reserved":false,"is_disabled":true,"rental_uris":{"android":"levelo://app?vid=cc7d2548-95d1-4c97-b51a-ec94bf578cd8","ios":"levelo://app?vid=cc7d2548-95d1-4c97-b51a-ec94bf578cd8"},"vehicle_type_id":"4","last_reported":1751353933,"current_range_meters":400,"station_id":"ce4bh192rcd13ifvqdd0","pricing_plan_id":"cebpf4jnsgd1na2vs0mg"},{"bike_id":"baf1f856-5066-4bcf-b81c-efb9daa4fcc6","system_id":"levelo_inurba_marseille","lat":43.28706,"lon":5.39976,"is_reserved":false,"is_disabled":true,"rental_uris":{"android":"levelo://app?vid=baf1f856-5066-4bcf-b81c-efb9daa4fcc6","ios":"levelo://app?vid=baf1f856-5066-4bcf-b81c-efb9daa4fcc6"},"vehicle_type_id":"4","last_reported":1751353933,"current_range_meters":400,"station_id":"ce4bho92rcd13ifvqh3g","pricing_plan_id":"cebpf4jnsgd1na2vs0mg"},{"bike_id":"e1eccc98-53d4-487b-bc31-6f08d4d54421","system_id":"levelo_inurba_marseille","lat":43.31984,"lon":5.38152,"is_reserved":false,"is_disabled":true,"rental_uris":{"android":"levelo://app?vid=e1eccc98-53d4-487b-bc31-6f08d4d54421","ios":"levelo://app?vid=e1eccc98-53d4-487b-bc31-6f08d4d54421"},"vehicle_type_id":"4","last_reported":1751353933,"current_range_meters":400,"station_id":"ce4bhr12rcd13ifvqhpg","pricing_plan_id":"cebpf4jnsgd1na2vs0mg"},{"bike_id":"21ad9776-ac39-4396-a874-a0c7647a1f34","system_id":"levelo_inurba_marseille","lat":43.31345,"lon":5.3672,"is_reserved":false,"is_disabled":true,"rental_uris":{"android":"levelo://app?vid=21ad9776-ac39-4396-a874-a0c7647a1f34","ios":"levelo://app?vid=21ad9776-ac39-4396-a874-a0c7647a1f34"},"vehicle_type_id":"4","last_reported":1751353933,"current_range_meters":800,"station_id":"ce4bgr92rcd13ifvqc6g","pricing_plan_id":"cebpf4jnsgd1na2vs0mg"},{"bike_id":"5e93cfd0-e5b8-44ae-9e1f-7f1dde75247f","system_id":"levelo_inurba_marseille","lat":43.304657,"lon":5.379074,"is_reserved":false,"is_disabled":true,"rental_uris":{"android":"levelo://app?vid=5e93cfd0-e5b8-44ae-9e1f-7f1dde75247f","ios":"levelo://app?vid=5e93cfd0-e5b8-44ae-9e1f-7f1dde75247f"},"vehicle_type_id":"4","last_reported":1751353933,"current_range_meters":800,"station_id":"ce4bgup2rcd13ifvqcn0","pricing_plan_id":"cebpf4jnsgd1na2vs0mg"},{"bike_id":"abb680f1-fc8d-4dcf-b2a3-e2aa151e342d","system_id":"levelo_inurba_marseille","lat":43.30589,"lon":5.39353,"is_reserved":false,"is_disabled":true,"rental_uris":{"android":"levelo://app?vid=abb680f1-fc8d-4dcf-b2a3-e2aa151e342d","ios":"levelo://app?vid=abb680f1-fc8d-4dcf-b2a3-e2aa151e342d"},"vehicle_type_id":"4","last_reported":1751353933,"current_range_meters":800,"station_id":"ce4bh0p2rcd13ifvqd80","pricing_plan_id":"cebpf4jnsgd1na2vs0mg"},{"bike_id":"2961d414-5670-4518-abcb-f92550bbd628","system_id":"levelo_inurba_marseille","lat":43.26785,"lon":5.39416,"is_reserved":false,"is_disabled":true,"rental_uris":{"android":"levelo://app?vid=2961d414-5670-4518-abcb-f92550bbd628","ios":"levelo://app?vid=2961d414-5670-4518-abcb-f92550bbd628"},"vehicle_type_id":"4","last_reported":1751353933,"current_range_meters":1200,"station_id":"ce4bhh12rcd13ifvqfg0","pricing_plan_id":"cebpf4jnsgd1na2vs0mg"},{"bike_id":"1e2c45e7-941e-4cc0-af32-e8f9e7ecaadf","system_id":"levelo_inurba_marseille","lat":43.31755,"lon":5.39015,"is_reserved":false,"is_disabled":true,"rental_uris":{"android":"levelo://app?vid=1e2c45e7-941e-4cc0-af32-e8f9e7ecaadf","ios":"levelo://app?vid=1e2c45e7-941e-4cc0-af32-e8f9e7ecaadf"},"vehicle_type_id":"4","last_reported":1751353933,"current_range_meters":1200,"station_id":"ce4bhqp2rcd13ifvqhng","pricing_plan_id":"cebpf4jnsgd1na2vs0mg"},{"bike_id":"87985e62-2823-4157-8a35-599ee9a377ab","system_id":"levelo_inurba_marseille","lat":43.21215,"lon":5.35067,"is_reserved":false,"is_disabled":true,"rental_uris":{"android":"levelo://app?vid=87985e62-2823-4157-8a35-599ee9a377ab","ios":"levelo://app?vid=87985e62-2823-4157-8a35-599ee9a377ab"},"vehicle_type_id":"4","last_reported":1751353933,"current_range_meters":1200,"station_id":"st_cvj6sg6p6f1abm77japg","pricing_plan_id":"cebpf4jnsgd1na2vs0mg"},{"bike_id":"d84c0c0a-d2c5-4d99-990e-744a724bf778","system_id":"levelo_inurba_marseille","lat":43.273749,"lon":5.362585,"is_reserved":false,"is_disabled":true,"rental_uris":{"android":"levelo://app?vid=d84c0c0a-d2c5-4d99-990e-744a724bf778","ios":"levelo://app?vid=d84c0c0a-d2c5-4d99-990e-744a724bf778"},"vehicle_type_id":"4","last_reported":1751353933,"current_range_meters":1600,"station_id":"","pricing_plan_id":"cebpf4jnsgd1na2vs0mg"},{"bike_id":"5771cae7-5cd1-448b-b6c7-99432c934d84","system_id":"levelo_inurba_marseille","lat":43.30554,"lon":5.36557,"is_reserved":false,"is_disabled":true,"rental_uris":{"android":"levelo://app?vid=5771cae7-5cd1-448b-b6c7-99432c934d84","ios":"levelo://app?vid=5771cae7-5cd1-448b-b6c7-99432c934d84"},"vehicle_type_id":"4","last_reported":1751353933,"current_range_meters":1600,"station_id":"ce4bgs12rcd13ifvqcag","pricing_plan_id":"cebpf4jnsgd1na2vs0mg"},{"bike_id":"1cc22b55-ae71-4186-8ae2-2ac7a2688bc4","system_id":"levelo_inurba_marseille","lat":43.2418,"lon":5.39729,"is_reserved":false,"is_disabled":true,"rental_uris":{"android":"levelo://app?vid=1cc22b55-ae71-4186-8ae2-2ac7a2688bc4","ios":"levelo://app?vid=1cc22b55-ae71-4186-8ae2-2ac7a2688bc4"},"vehicle_type_id":"4","last_reported":1751353933,"current_range_meters":1600,"station_id":"ce4bhn12rcd13ifvqgpg","pricing_plan_id":"cebpf4jnsgd1na2vs0mg"},{"bike_id":"3035be0e-7c3d-4f7d-a1cb-7a1af59e497b","system_id":"levelo_inurba_marseille","lat":43.29673,"lon":5.36016,"is_reserved":false,"is_disabled":true,"rental_uris":{"android":"levelo://app?vid=3035be0e-7c3d-4f7d-a1cb-7a1af59e497b","ios":"levelo://app?vid=3035be0e-7c3d-4f7d-a1cb-7a1af59e497b"},"vehicle_type_id":"4","last_reported":1751353933,"current_range_meters":2000,"station_id":"","pricing_plan_id":"cebpf4jnsgd1na2vs0mg"},{"bike_id":"1a0e6b83-d7f2-400a-8b2f-9c5f2c15de2d","system_id":"levelo_inurba_marseille","lat":43.31686,"lon":5.40474,"is_reserved":false,"is_disabled":true,"rental_uris":{"android":"levelo://app?vid=1a0e6b83-d7f2-400a-8b2f-9c5f2c15de2d","ios":"levelo://app?vid=1a0e6b83-d7f2-400a-8b2f-9c5f2c15de2d"},"vehicle_type_id":"4","last_reported":1751353933,"current_range_meters":2000,"station_id":"ce4bh012rcd13ifvqd00","pricing_plan_id":"cebpf4jnsgd1na2vs0mg"},{"bike_id":"25587962-b640-4a1c-a1bc-32afcf443760","system_id":"levelo_inurba_marseille","lat":43.28272,"lon":5.35076,"is_reserved":false,"is_disabled":true,"rental_uris":{"android":"levelo://app?vid=25587962-b640-4a1c-a1bc-32afcf443760","ios":"levelo://app?vid=25587962-b640-4a1c-a1bc-32afcf443760"},"vehicle_type_id":"4","last_reported":1751353933,"current_range_meters":2000,"station_id":"ce4bhbp2rcd13ifvqerg","pricing_plan_id":"cebpf4jnsgd1na2vs0mg"},{"bike_id":"709f06bc-031a-417b-a669-c5c92baf470e","system_id":"levelo_inurba_marseille","lat":43.25007,"lon":5.38917,"is_reserved":false,"is_disabled":true,"rental_uris":{"android":"levelo://app?vid=709f06bc-031a-417b-a669-c5c92baf470e","ios":"levelo://app?vid=709f06bc-031a-417b-a669-c5c92baf470e"},"vehicle_type_id":"4","last_reported":1751353933,"current_range_meters":2000,"station_id":"ce4bhgp2rcd13ifvqfd0","pricing_plan_id":"cebpf4jnsgd1na2vs0mg"},{"bike_id":"ec54e699-e539-4679-be8b-622eb7924bce","system_id":"levelo_inurba_marseille","lat":43.28571,"lon":5.39489,"is_reserved":false,"is_disabled":false,"rental_uris":{"android":"levelo://app?vid=ec54e699-e539-4679-be8b-622eb7924bce","ios":"levelo://app?vid=ec54e699-e539-4679-be8b-622eb7924bce"},"vehicle_type_id":"4","last_reported":1751353933,"current_range_meters":2800,"station_id":"ce4bh292rcd13ifvqdg0","pricing_plan_id":"cebpf4jnsgd1na2vs0mg"},{"bike_id":"d0163811-6ff0-4454-8ea5-cfb0f51bacd6","system_id":"levelo_inurba_marseille","lat":43.29033,"lon":5.37567,"is_reserved":false,"is_disabled":false,"rental_uris":{"android":"levelo://app?vid=d0163811-6ff0-4454-8ea5-cfb0f51bacd6","ios":"levelo://app?vid=d0163811-6ff0-4454-8ea5-cfb0f51bacd6"},"vehicle_type_id":"4","last_reported":1751353933,"current_range_meters":2800,"station_id":"ce4bh692rcd13ifvqe90","pricing_plan_id":"cebpf4jnsgd1na2vs0mg"},{"bike_id":"f04e5414-61cd-4945-a070-d5785996e2ef","system_id":"levelo_inurba_marseille","lat":43.29251,"lon":5.38428,"is_reserved":false,"is_disabled":false,"rental_uris":{"android":"levelo://app?vid=f04e5414-61cd-4945-a070-d5785996e2ef","ios":"levelo://app?vid=f04e5414-61cd-4945-a070-d5785996e2ef"},"vehicle_type_id":"4","last_reported":1751353933,"current_range_meters":2800,"station_id":"ce4bh692rcd13ifvqea0","pricing_plan_id":"cebpf4jnsgd1na2vs0mg"},{"bike_id":"9c5a69b7-2d96-49bc-933a-ef8b9ac4eb5b","system_id":"levelo_inurba_marseille","lat":43.24167,"lon":5.36393,"is_reserved":false,"is_disabled":false,"rental_uris":{"android":"levelo://app?vid=9c5a69b7-2d96-49bc-933a-ef8b9ac4eb5b","ios":"levelo://app?vid=9c5a69b7-2d96-49bc-933a-ef8b9ac4eb5b"},"vehicle_type_id":"4","last_reported":1751353933,"current_range_meters":2800,"station_id":"cpo36qri1sfpv3e86is0","pricing_plan_id":"cebpf4jnsgd1na2vs0mg"},{"bike_id":"11216eed-35c2-41d1-acf0-5b91801a6299","system_id":"levelo_inurba_marseille","lat":43.316924,"lon":5.404664,"is_reserved":false,"is_disabled":false,"rental_uris":{"android":"levelo://app?vid=11216eed-35c2-41d1-acf0-5b91801a6299","ios":"levelo://app?vid=11216eed-35c2-41d1-acf0-5b91801a6299"},"vehicle_type_id":"4","last_reported":1751353933,"current_range_meters":3200,"station_id":"ce4bh012rcd13ifvqd00","pricing_plan_id":"cebpf4jnsgd1na2vs0mg"},{"bike_id":"e64bbb1e-5cd8-459c-b41b-cb4456faa566","system_id":"levelo_inurba_marseille","lat":43.24172,"lon":5.39724,"is_reserved":false,"is_disabled":false,"rental_uris":{"android":"levelo://app?vid=e64bbb1e-5cd8-459c-b41b-cb4456faa566","ios":"levelo://app?vid=e64bbb1e-5cd8-459c-b41b-cb4456faa566"},"vehicle_type_id":"4","last_reported":1751353933,"current_range_meters":3200,"station_id":"ce4bhn12rcd13ifvqgpg","pricing_plan_id":"cebpf4jnsgd1na2vs0mg"},{"bike_id":"e4fa0959-a3e5-4007-aa26-1b6e485b0414","system_id":"levelo_inurba_marseille","lat":43.30588,"lon":5.39347,"is_reserved":false,"is_disabled":false,"rental_uris":{"android":"levelo://app?vid=e4fa0959-a3e5-4007-aa26-1b6e485b0414","ios":"levelo://app?vid=e4fa0959-a3e5-4007-aa26-1b6e485b0414"},"vehicle_type_id":"4","last_reported":1751353933,"current_range_meters":3600,"station_id":"ce4bh0p2rcd13ifvqd80","pricing_plan_id":"cebpf4jnsgd1na2vs0mg"},{"bike_id":"352a764a-9204-48cc-a088-a892c12fad65","system_id":"levelo_inurba_marseille","lat":43.27376,"lon":5.36274,"is_reserved":false,"is_disabled":false,"rental_uris":{"android":"levelo://app?vid=352a764a-9204-48cc-a088-a892c12fad65","ios":"levelo://app?vid=352a764a-9204-48cc-a088-a892c12fad65"},"vehicle_type_id":"4","last_reported":1751353933,"current_range_meters":3600,"station_id":"ce4bhbh2rcd13ifvqeo0","pricing_plan_id":"cebpf4jnsgd1na2vs0mg"},{"bike_id":"acd67651-af2d-4a43-b42d-8227200d0952","system_id":"levelo_inurba_marseille","lat":43.24664,"lon":5.38181,"is_reserved":false,"is_disabled":false,"rental_uris":{"android":"levelo://app?vid=acd67651-af2d-4a43-b42d-8227200d0952","ios":"levelo://app?vid=acd67651-af2d-4a43-b42d-8227200d0952"},"vehicle_type_id":"4","last_reported":1751353933,"current_range_meters":3600,"station_id":"ce4bhih2rcd13ifvqfr0","pricing_plan_id":"cebpf4jnsgd1na2vs0mg"},{"bike_id":"7547e1e4-2d85-4907-971d-6c8e5c4cb529","system_id":"levelo_inurba_marseille","lat":43.253625,"lon":5.375143,"is_reserved":false,"is_disabled":false,"rental_uris":{"android":"levelo://app?vid=7547e1e4-2d85-4907-971d-6c8e5c4cb529","ios":"levelo://app?vid=7547e1e4-2d85-4907-971d-6c8e5c4cb529"},"vehicle_type_id":"4","last_reported":1751353933,"current_range_meters":4800,"station_id":"","pricing_plan_id":"cebpf4jnsgd1na2vs0mg"},{"bike_id":"e5a91c12-a9d1-463a-8abe-d0dd37cf3197","system_id":"levelo_inurba_marseille","lat":43.29804,"lon":5.37751,"is_reserved":false,"is_disabled":false,"rental_uris":{"android":"levelo://app?vid=e5a91c12-a9d1-463a-8abe-d0dd37cf3197","ios":"levelo://app?vid=e5a91c12-a9d1-463a-8abe-d0dd37cf3197"},"vehicle_type_id":"4","last_reported":1751353933,"current_range_meters":4800,"station_id":"","pricing_plan_id":"cebpf4jnsgd1na2vs0mg"},{"bike_id":"1ce83c9a-b12c-4916-b177-77c68871947b","system_id":"levelo_inurba_marseille","lat":43.26798,"lon":5.39414,"is_reserved":false,"is_disabled":false,"rental_uris":{"android":"levelo://app?vid=1ce83c9a-b12c-4916-b177-77c68871947b","ios":"levelo://app?vid=1ce83c9a-b12c-4916-b177-77c68871947b"},"vehicle_type_id":"4","last_reported":1751353933,"current_range_meters":4800,"station_id":"ce4bhh12rcd13ifvqfg0","pricing_plan_id":"cebpf4jnsgd1na2vs0mg"},{"bike_id":"f32f1a60-342f-4807-837b-0b085cf233e4","system_id":"levelo_inurba_marseille","lat":43.276367,"lon":5.392155,"is_reserved":false,"is_disabled":false,"rental_uris":{"android":"levelo://app?vid=f32f1a60-342f-4807-837b-0b085cf233e4","ios":"levelo://app?vid=f32f1a60-342f-4807-837b-0b085cf233e4"},"vehicle_type_id":"4","last_reported":1751353933,"current_range_meters":6000,"station_id":"","pricing_plan_id":"cebpf4jnsgd1na2vs0mg"},{"bike_id":"f55ecb42-7a69-43e7-bc99-3535529b2f6c","system_id":"levelo_inurba_marseille","lat":43.312357,"lon":5.376421,"is_reserved":false,"is_disabled":false,"rental_uris":{"android":"levelo://app?vid=f55ecb42-7a69-43e7-bc99-3535529b2f6c","ios":"levelo://app?vid=f55ecb42-7a69-43e7-bc99-3535529b2f6c"},"vehicle_type_id":"4","last_reported":1751353933,"current_range_meters":6000,"station_id":"","pricing_plan_id":"cebpf4jnsgd1na2vs0mg"},{"bike_id":"3a0a5902-ad8d-4092-8a76-5ba45bcddddd","system_id":"levelo_inurba_marseille","lat":43.298404,"lon":5.362696,"is_reserved":false,"is_disabled":false,"rental_uris":{"android":"levelo://app?vid=3a0a5902-ad8d-4092-8a76-5ba45bcddddd","ios":"levelo://app?vid=3a0a5902-ad8d-4092-8a76-5ba45bcddddd"},"vehicle_type_id":"4","last_reported":1751353933,"current_range_meters":6000,"station_id":"ce4bgpp2rcd13ifvqc3g","pricing_plan_id":"cebpf4jnsgd1na2vs0mg"},{"bike_id":"e3aaa8cb-9131-4b8f-b0e3-f93ca93bbda4","system_id":"levelo_inurba_marseille","lat":43.26786,"lon":5.39421,"is_reserved":false,"is_disabled":false,"rental_uris":{"android":"levelo://app?vid=e3aaa8cb-9131-4b8f-b0e3-f93ca93bbda4","ios":"levelo://app?vid=e3aaa8cb-9131-4b8f-b0e3-f93ca93bbda4"},"vehicle_type_id":"4","last_reported":1751353933,"current_range_meters":6000,"station_id":"ce4bhh12rcd13ifvqfg0","pricing_plan_id":"cebpf4jnsgd1na2vs0mg"},{"bike_id":"2abb2dec-648b-428e-bd8a-3c258e338199","system_id":"levelo_inurba_marseille","lat":43.27055,"lon":5.40261,"is_reserved":false,"is_disabled":false,"rental_uris":{"android":"levelo://app?vid=2abb2dec-648b-428e-bd8a-3c258e338199","ios":"levelo://app?vid=2abb2dec-648b-428e-bd8a-3c258e338199"},"vehicle_type_id":"4","last_reported":1751353933,"current_range_meters":6000,"station_id":"ce4bhk92rcd13ifvqgc0","pricing_plan_id":"cebpf4jnsgd1na2vs0mg"},{"bike_id":"0239408c-68c4-426a-a86b-193a1481186d","system_id":"levelo_inurba_marseille","lat":43.25948,"lon":5.40881,"is_reserved":false,"is_disabled":false,"rental_uris":{"android":"levelo://app?vid=0239408c-68c4-426a-a86b-193a1481186d","ios":"levelo://app?vid=0239408c-68c4-426a-a86b-193a1481186d"},"vehicle_type_id":"4","last_reported":1751353933,"current_range_meters":6000,"station_id":"ce4bhm92rcd13ifvqglg","pricing_plan_id":"cebpf4jnsgd1na2vs0mg"},{"bike_id":"44137f48-347d-46ac-9a41-1bd7b90e57b4","system_id":"levelo_inurba_marseille","lat":43.2844,"lon":5.39208,"is_reserved":false,"is_disabled":false,"rental_uris":{"android":"levelo://app?vid=44137f48-347d-46ac-9a41-1bd7b90e57b4","ios":"levelo://app?vid=44137f48-347d-46ac-9a41-1bd7b90e57b4"},"vehicle_type_id":"4","last_reported":1751353933,"current_range_meters":6000,"station_id":"ce4bhoh2rcd13ifvqh5g","pricing_plan_id":"cebpf4jnsgd1na2vs0mg"},{"bike_id":"67bc5e07-d028-42fe-a505-bf4e05d8d948","system_id":"levelo_inurba_marseille","lat":43.2417,"lon":5.36398,"is_reserved":false,"is_disabled":false,"rental_uris":{"android":"levelo://app?vid=67bc5e07-d028-42fe-a505-bf4e05d8d948","ios":"levelo://app?vid=67bc5e07-d028-42fe-a505-bf4e05d8d948"},"vehicle_type_id":"4","last_reported":1751353933,"current_range_meters":6000,"station_id":"cpo36qri1sfpv3e86is0","pricing_plan_id":"cebpf4jnsgd1na2vs0mg"},{"bike_id":"9085864d-ad6b-4e51-b016-2c66a20d3b19","system_id":"levelo_inurba_marseille","lat":43.21194,"lon":5.35059,"is_reserved":false,"is_disabled":false,"rental_uris":{"android":"levelo://app?vid=9085864d-ad6b-4e51-b016-2c66a20d3b19","ios":"levelo://app?vid=9085864d-ad6b-4e51-b016-2c66a20d3b19"},"vehicle_type_id":"4","last_reported":1751353933,"current_range_meters":6000,"station_id":"st_cvj6sg6p6f1abm77japg","pricing_plan_id":"cebpf4jnsgd1na2vs0mg"},{"bike_id":"9c454583-7a51-40e0-b6c8-e30e7de8bacc","system_id":"levelo_inurba_marseille","lat":43.30147,"lon":5.381,"is_reserved":false,"is_disabled":false,"rental_uris":{"android":"levelo://app?vid=9c454583-7a51-40e0-b6c8-e30e7de8bacc","ios":"levelo://app?vid=9c454583-7a51-40e0-b6c8-e30e7de8bacc"},"vehicle_type_id":"4","last_reported":1751353933,"current_range_meters":6400,"station_id":"ce4bgjp2rcd13ifvqbh0","pricing_plan_id":"cebpf4jnsgd1na2vs0mg"},{"bike_id":"4c1fa6b1-a66b-4bad-be8e-21a631c1d90e","system_id":"levelo_inurba_marseille","lat":43.30191,"lon":5.3663,"is_reserved":false,"is_disabled":false,"rental_uris":{"android":"levelo://app?vid=4c1fa6b1-a66b-4bad-be8e-21a631c1d90e","ios":"levelo://app?vid=4c1fa6b1-a66b-4bad-be8e-21a631c1d90e"},"vehicle_type_id":"4","last_reported":1751353933,"current_range_meters":6400,"station_id":"ce4bgrh2rcd13ifvqc8g","pricing_plan_id":"cebpf4jnsgd1na2vs0mg"},{"bike_id":"9aab616a-aa8d-4495-bb58-ce2b60259ced","system_id":"levelo_inurba_marseille","lat":43.25502,"lon":5.37647,"is_reserved":false,"is_disabled":false,"rental_uris":{"android":"levelo://app?vid=9aab616a-aa8d-4495-bb58-ce2b60259ced","ios":"levelo://app?vid=9aab616a-aa8d-4495-bb58-ce2b60259ced"},"vehicle_type_id":"4","last_reported":1751353933,"current_range_meters":6400,"station_id":"ce4bhh12rcd13ifvqff0","pricing_plan_id":"cebpf4jnsgd1na2vs0mg"},{"bike_id":"7028c8ca-b652-47b0-89e0-1aa56361d228","system_id":"levelo_inurba_marseille","lat":43.21194,"lon":5.35071,"is_reserved":false,"is_disabled":false,"rental_uris":{"android":"levelo://app?vid=7028c8ca-b652-47b0-89e0-1aa56361d228","ios":"levelo://app?vid=7028c8ca-b652-47b0-89e0-1aa56361d228"},"vehicle_type_id":"4","last_reported":1751353933,"current_range_meters":6400,"station_id":"st_cvj6sg6p6f1abm77japg","pricing_plan_id":"cebpf4jnsgd1na2vs0mg"},{"bike_id":"59a074fc-769e-4d5d-a6d4-002d8e573dd6","system_id":"levelo_inurba_marseille","lat":43.211853,"lon":5.350626,"is_reserved":false,"is_disabled":false,"rental_uris":{"android":"levelo://app?vid=59a074fc-769e-4d5d-a6d4-002d8e573dd6","ios":"levelo://app?vid=59a074fc-769e-4d5d-a6d4-002d8e573dd6"},"vehicle_type_id":"4","last_reported":1751353933,"current_range_meters":6400,"station_id":"st_cvj6sg6p6f1abm77japg","pricing_plan_id":"cebpf4jnsgd1na2vs0mg"},{"bike_id":"8fc951ad-4ea5-4743-975b-3e5cd5a6f867","system_id":"levelo_inurba_marseille","lat":43.2968,"lon":5.37296,"is_reserved":false,"is_disabled":false,"rental_uris":{"android":"levelo://app?vid=8fc951ad-4ea5-4743-975b-3e5cd5a6f867","ios":"levelo://app?vid=8fc951ad-4ea5-4743-975b-3e5cd5a6f867"},"vehicle_type_id":"4","last_reported":1751353933,"current_range_meters":6800,"station_id":"ce4bgk12rcd13ifvqbj0","pricing_plan_id":"cebpf4jnsgd1na2vs0mg"},{"bike_id":"d0c4da29-f55b-429b-8fbc-1c1b39e0857b","system_id":"levelo_inurba_marseille","lat":43.30536,"lon":5.36712,"is_reserved":false,"is_disabled":false,"rental_uris":{"android":"levelo://app?vid=d0c4da29-f55b-429b-8fbc-1c1b39e0857b","ios":"levelo://app?vid=d0c4da29-f55b-429b-8fbc-1c1b39e0857b"},"vehicle_type_id":"4","last_reported":1751353933,"current_range_meters":6800,"station_id":"ce4bgrp2rcd13ifvqc9g","pricing_plan_id":"cebpf4jnsgd1na2vs0mg"},{"bike_id":"8ff7c3d6-8cdc-475a-be2b-0406ad87f419","system_id":"levelo_inurba_marseille","lat":43.305391,"lon":5.367287,"is_reserved":false,"is_disabled":false,"rental_uris":{"android":"levelo://app?vid=8ff7c3d6-8cdc-475a-be2b-0406ad87f419","ios":"levelo://app?vid=8ff7c3d6-8cdc-475a-be2b-0406ad87f419"},"vehicle_type_id":"4","last_reported":1751353933,"current_range_meters":6800,"station_id":"ce4bgrp2rcd13ifvqc9g","pricing_plan_id":"cebpf4jnsgd1na2vs0mg"},{"bike_id":"5b436e82-b953-4f2b-b7ba-1f8d3d45bd0b","system_id":"levelo_inurba_marseille","lat":43.30453,"lon":5.37916,"is_reserved":false,"is_disabled":false,"rental_uris":{"android":"levelo://app?vid=5b436e82-b953-4f2b-b7ba-1f8d3d45bd0b","ios":"levelo://app?vid=5b436e82-b953-4f2b-b7ba-1f8d3d45bd0b"},"vehicle_type_id":"4","last_reported":1751353933,"current_range_meters":6800,"station_id":"ce4bgup2rcd13ifvqcn0","pricing_plan_id":"cebpf4jnsgd1na2vs0mg"},{"bike_id":"a990ca87-3026-4132-b600-5c1d1290f085","system_id":"levelo_inurba_marseille","lat":43.237233,"lon":5.435728,"is_reserved":false,"is_disabled":false,"rental_uris":{"android":"levelo://app?vid=a990ca87-3026-4132-b600-5c1d1290f085","ios":"levelo://app?vid=a990ca87-3026-4132-b600-5c1d1290f085"},"vehicle_type_id":"4","last_reported":1751353933,"current_range_meters":6800,"station_id":"ce4bhmp2rcd13ifvqgog","pricing_plan_id":"cebpf4jnsgd1na2vs0mg"},{"bike_id":"f4c9e005-e232-4b3d-8825-bc763a0ec065","system_id":"levelo_inurba_marseille","lat":43.24174,"lon":5.39739,"is_reserved":false,"is_disabled":false,"rental_uris":{"android":"levelo://app?vid=f4c9e005-e232-4b3d-8825-bc763a0ec065","ios":"levelo://app?vid=f4c9e005-e232-4b3d-8825-bc763a0ec065"},"vehicle_type_id":"4","last_reported":1751353933,"current_range_meters":6800,"station_id":"ce4bhn12rcd13ifvqgpg","pricing_plan_id":"cebpf4jnsgd1na2vs0mg"},{"bike_id":"162af4e6-d224-4240-aeac-6cb0ae06de53","system_id":"levelo_inurba_marseille","lat":43.29933,"lon":5.37857,"is_reserved":false,"is_disabled":false,"rental_uris":{"android":"levelo://app?vid=162af4e6-d224-4240-aeac-6cb0ae06de53","ios":"levelo://app?vid=162af4e6-d224-4240-aeac-6cb0ae06de53"},"vehicle_type_id":"4","last_reported":1751353933,"current_range_meters":7200,"station_id":"","pricing_plan_id":"cebpf4jnsgd1na2vs0mg"},{"bike_id":"baf3ecf1-d461-4c3f-a3cf-8c3e80e5a3bf","system_id":"levelo_inurba_marseille","lat":43.30533,"lon":5.3654,"is_reserved":false,"is_disabled":false,"rental_uris":{"android":"levelo://app?vid=baf3ecf1-d461-4c3f-a3cf-8c3e80e5a3bf","ios":"levelo://app?vid=baf3ecf1-d461-4c3f-a3cf-8c3e80e5a3bf"},"vehicle_type_id":"4","last_reported":1751353933,"current_range_meters":7200,"station_id":"ce4bgs12rcd13ifvqcag","pricing_plan_id":"cebpf4jnsgd1na2vs0mg"},{"bike_id":"317645aa-d3af-44ab-9308-643bcc7713ac","system_id":"levelo_inurba_marseille","lat":43.24068,"lon":5.37766,"is_reserved":false,"is_disabled":false,"rental_uris":{"android":"levelo://app?vid=317645aa-d3af-44ab-9308-643bcc7713ac","ios":"levelo://app?vid=317645aa-d3af-44ab-9308-643bcc7713ac"},"vehicle_type_id":"4","last_reported":1751353933,"current_range_meters":7200,"station_id":"ce4bhnp2rcd13ifvqgvg","pricing_plan_id":"cebpf4jnsgd1na2vs0mg"},{"bike_id":"26079494-4db3-41d3-8e2d-33f9cfd4da3f","system_id":"levelo_inurba_marseille","lat":43.24169,"lon":5.36427,"is_reserved":false,"is_disabled":false,"rental_uris":{"android":"levelo://app?vid=26079494-4db3-41d3-8e2d-33f9cfd4da3f","ios":"levelo://app?vid=26079494-4db3-41d3-8e2d-33f9cfd4da3f"},"vehicle_type_id":"4","last_reported":1751353933,"current_range_meters":7200,"station_id":"cpo36qri1sfpv3e86is0","pricing_plan_id":"cebpf4jnsgd1na2vs0mg"},{"bike_id":"7d2ebbac-d26c-416a-b58e-5e3abed80858","system_id":"levelo_inurba_marseille","lat":43.21187,"lon":5.35066,"is_reserved":false,"is_disabled":false,"rental_uris":{"android":"levelo://app?vid=7d2ebbac-d26c-416a-b58e-5e3abed80858","ios":"levelo://app?vid=7d2ebbac-d26c-416a-b58e-5e3abed80858"},"vehicle_type_id":"4","last_reported":1751353933,"current_range_meters":7200,"station_id":"st_cvj6sg6p6f1abm77japg","pricing_plan_id":"cebpf4jnsgd1na2vs0mg"},{"bike_id":"414d6dde-a6f9-4c64-808d-d36b773a6494","system_id":"levelo_inurba_marseille","lat":43.30541,"lon":5.36539,"is_reserved":false,"is_disabled":false,"rental_uris":{"android":"levelo://app?vid=414d6dde-a6f9-4c64-808d-d36b773a6494","ios":"levelo://app?vid=414d6dde-a6f9-4c64-808d-d36b773a6494"},"vehicle_type_id":"4","last_reported":1751353933,"current_range_meters":8000,"station_id":"ce4bgs12rcd13ifvqcag","pricing_plan_id":"cebpf4jnsgd1na2vs0mg"},{"bike_id":"cdf6d572-66e9-4c84-b460-051bf77aa410","system_id":"levelo_inurba_marseille","lat":43.30781,"lon":5.3765,"is_reserved":false,"is_disabled":false,"rental_uris":{"android":"levelo://app?vid=cdf6d572-66e9-4c84-b460-051bf77aa410","ios":"levelo://app?vid=cdf6d572-66e9-4c84-b460-051bf77aa410"},"vehicle_type_id":"4","last_reported":1751353933,"current_range_meters":8000,"station_id":"ce4bgv92rcd13ifvqcq0","pricing_plan_id":"cebpf4jnsgd1na2vs0mg"},{"bike_id":"da0bb36a-b12b-47bc-8910-3b0cd98aa34e","system_id":"levelo_inurba_marseille","lat":43.26957,"lon":5.38635,"is_reserved":false,"is_disabled":false,"rental_uris":{"android":"levelo://app?vid=da0bb36a-b12b-47bc-8910-3b0cd98aa34e","ios":"levelo://app?vid=da0bb36a-b12b-47bc-8910-3b0cd98aa34e"},"vehicle_type_id":"4","last_reported":1751353933,"current_range_meters":8000,"station_id":"ce4bhh92rcd13ifvqfh0","pricing_plan_id":"cebpf4jnsgd1na2vs0mg"},{"bike_id":"e2e068ea-cc27-4e0c-acdb-58b70698c07f","system_id":"levelo_inurba_marseille","lat":43.26229,"lon":5.40456,"is_reserved":false,"is_disabled":false,"rental_uris":{"android":"levelo://app?vid=e2e068ea-cc27-4e0c-acdb-58b70698c07f","ios":"levelo://app?vid=e2e068ea-cc27-4e0c-acdb-58b70698c07f"},"vehicle_type_id":"4","last_reported":1751353933,"current_range_meters":8000,"station_id":"ce4bhmh2rcd13ifvqgmg","pricing_plan_id":"cebpf4jnsgd1na2vs0mg"},{"bike_id":"957048a7-a6c8-4097-ab92-9353782cf921","system_id":"levelo_inurba_marseille","lat":43.304233,"lon":5.397387,"is_reserved":false,"is_disabled":false,"rental_uris":{"android":"levelo://app?vid=957048a7-a6c8-4097-ab92-9353782cf921","ios":"levelo://app?vid=957048a7-a6c8-4097-ab92-9353782cf921"},"vehicle_type_id":"4","last_reported":1751353933,"current_range_meters":8400,"station_id":"","pricing_plan_id":"cebpf4jnsgd1na2vs0mg"},{"bike_id":"f5c16f07-bc6f-4121-91a7-5ad90eec4f34","system_id":"levelo_inurba_marseille","lat":43.311939,"lon":5.373407,"is_reserved":false,"is_disabled":false,"rental_uris":{"android":"levelo://app?vid=f5c16f07-bc6f-4121-91a7-5ad90eec4f34","ios":"levelo://app?vid=f5c16f07-bc6f-4121-91a7-5ad90eec4f34"},"vehicle_type_id":"4","last_reported":1751353933,"current_range_meters":8400,"station_id":"","pricing_plan_id":"cebpf4jnsgd1na2vs0mg"},{"bike_id":"411302cf-a405-49ca-8344-3b4f7262697e","system_id":"levelo_inurba_marseille","lat":43.30134,"lon":5.38077,"is_reserved":false,"is_disabled":false,"rental_uris":{"android":"levelo://app?vid=411302cf-a405-49ca-8344-3b4f7262697e","ios":"levelo://app?vid=411302cf-a405-49ca-8344-3b4f7262697e"},"vehicle_type_id":"4","last_reported":1751353933,"current_range_meters":8400,"station_id":"ce4bgjp2rcd13ifvqbh0","pricing_plan_id":"cebpf4jnsgd1na2vs0mg"},{"bike_id":"3999fc25-8803-4fea-bc81-835412602fad","system_id":"levelo_inurba_marseille","lat":43.30147,"lon":5.38089,"is_reserved":false,"is_disabled":false,"rental_uris":{"android":"levelo://app?vid=3999fc25-8803-4fea-bc81-835412602fad","ios":"levelo://app?vid=3999fc25-8803-4fea-bc81-835412602fad"},"vehicle_type_id":"4","last_reported":1751353933,"current_range_meters":8400,"station_id":"ce4bgjp2rcd13ifvqbh0","pricing_plan_id":"cebpf4jnsgd1na2vs0mg"},{"bike_id":"538d7253-e00e-4556-9bc9-089d9dbaca96","system_id":"levelo_inurba_marseille","lat":43.30541,"lon":5.36701,"is_reserved":false,"is_disabled":false,"rental_uris":{"android":"levelo://app?vid=538d7253-e00e-4556-9bc9-089d9dbaca96","ios":"levelo://app?vid=538d7253-e00e-4556-9bc9-089d9dbaca96"},"vehicle_type_id":"4","last_reported":1751353933,"current_range_meters":8400,"station_id":"ce4bgrp2rcd13ifvqc9g","pricing_plan_id":"cebpf4jnsgd1na2vs0mg"},{"bike_id":"1ae2d99c-4fe4-43b0-aa10-8997c1e474e0","system_id":"levelo_inurba_marseille","lat":43.304626,"lon":5.379186,"is_reserved":false,"is_disabled":false,"rental_uris":{"android":"levelo://app?vid=1ae2d99c-4fe4-43b0-aa10-8997c1e474e0","ios":"levelo://app?vid=1ae2d99c-4fe4-43b0-aa10-8997c1e474e0"},"vehicle_type_id":"4","last_reported":1751353933,"current_range_meters":8400,"station_id":"ce4bgup2rcd13ifvqcn0","pricing_plan_id":"cebpf4jnsgd1na2vs0mg"},{"bike_id":"c3267a70-3a5c-4c23-8ef7-fed297014bf5","system_id":"levelo_inurba_marseille","lat":43.30948,"lon":5.39035,"is_reserved":false,"is_disabled":false,"rental_uris":{"android":"levelo://app?vid=c3267a70-3a5c-4c23-8ef7-fed297014bf5","ios":"levelo://app?vid=c3267a70-3a5c-4c23-8ef7-fed297014bf5"},"vehicle_type_id":"4","last_reported":1751353933,"current_range_meters":8400,"station_id":"ce4bgup2rcd13ifvqco0","pricing_plan_id":"cebpf4jnsgd1na2vs0mg"},{"bike_id":"632ed6b7-4bcf-48d0-8039-2543c2e7bbdc","system_id":"levelo_inurba_marseille","lat":43.24172,"lon":5.39733,"is_reserved":false,"is_disabled":false,"rental_uris":{"android":"levelo://app?vid=632ed6b7-4bcf-48d0-8039-2543c2e7bbdc","ios":"levelo://app?vid=632ed6b7-4bcf-48d0-8039-2543c2e7bbdc"},"vehicle_type_id":"4","last_reported":1751353933,"current_range_meters":8400,"station_id":"ce4bhn12rcd13ifvqgpg","pricing_plan_id":"cebpf4jnsgd1na2vs0mg"},{"bike_id":"b100d3a7-bd01-47f3-8813-e7fbdebaccbe","system_id":"levelo_inurba_marseille","lat":43.2418,"lon":5.39723,"is_reserved":false,"is_disabled":false,"rental_uris":{"android":"levelo://app?vid=b100d3a7-bd01-47f3-8813-e7fbdebaccbe","ios":"levelo://app?vid=b100d3a7-bd01-47f3-8813-e7fbdebaccbe"},"vehicle_type_id":"4","last_reported":1751353933,"current_range_meters":8400,"station_id":"ce4bhn12rcd13ifvqgpg","pricing_plan_id":"cebpf4jnsgd1na2vs0mg"},{"bike_id":"fcf1fd91-618c-4a5f-a6f5-64ece337cb06","system_id":"levelo_inurba_marseille","lat":43.24194,"lon":5.39709,"is_reserved":false,"is_disabled":false,"rental_uris":{"android":"levelo://app?vid=fcf1fd91-618c-4a5f-a6f5-64ece337cb06","ios":"levelo://app?vid=fcf1fd91-618c-4a5f-a6f5-64ece337cb06"},"vehicle_type_id":"4","last_reported":1751353933,"current_range_meters":8400,"station_id":"ce4bhn12rcd13ifvqgpg","pricing_plan_id":"cebpf4jnsgd1na2vs0mg"},{"bike_id":"8eea1eb8-3f6b-4eb0-bb85-36fc9e5a23a2","system_id":"levelo_inurba_marseille","lat":43.33604,"lon":5.41032,"is_reserved":false,"is_disabled":false,"rental_uris":{"android":"levelo://app?vid=8eea1eb8-3f6b-4eb0-bb85-36fc9e5a23a2","ios":"levelo://app?vid=8eea1eb8-3f6b-4eb0-bb85-36fc9e5a23a2"},"vehicle_type_id":"4","last_reported":1751353933,"current_range_meters":8400,"station_id":"ce4bhqh2rcd13ifvqhmg","pricing_plan_id":"cebpf4jnsgd1na2vs0mg"},{"bike_id":"43fcb430-53f7-4349-b49c-62f8e6ea8db4","system_id":"levelo_inurba_marseille","lat":43.28473,"lon":5.43698,"is_reserved":false,"is_disabled":false,"rental_uris":{"android":"levelo://app?vid=43fcb430-53f7-4349-b49c-62f8e6ea8db4","ios":"levelo://app?vid=43fcb430-53f7-4349-b49c-62f8e6ea8db4"},"vehicle_type_id":"4","last_reported":1751353933,"current_range_meters":8800,"station_id":"","pricing_plan_id":"cebpf4jnsgd1na2vs0mg"},{"bike_id":"b05ac08d-847b-4f20-ac36-038a0d69d167","system_id":"levelo_inurba_marseille","lat":43.2815,"lon":5.35856,"is_reserved":false,"is_disabled":false,"rental_uris":{"android":"levelo://app?vid=b05ac08d-847b-4f20-ac36-038a0d69d167","ios":"levelo://app?vid=b05ac08d-847b-4f20-ac36-038a0d69d167"},"vehicle_type_id":"4","last_reported":1751353933,"current_range_meters":8800,"station_id":"","pricing_plan_id":"cebpf4jnsgd1na2vs0mg"},{"bike_id":"05844fab-ef30-4ee4-8eed-3619baac84fe","system_id":"levelo_inurba_marseille","lat":43.2962,"lon":5.37155,"is_reserved":false,"is_disabled":false,"rental_uris":{"android":"levelo://app?vid=05844fab-ef30-4ee4-8eed-3619baac84fe","ios":"levelo://app?vid=05844fab-ef30-4ee4-8eed-3619baac84fe"},"vehicle_type_id":"4","last_reported":1751353933,"current_range_meters":8800,"station_id":"ce4bgnh2rcd13ifvqc0g","pricing_plan_id":"cebpf4jnsgd1na2vs0mg"},{"bike_id":"8005a2c0-bf6e-4e7f-b653-f7129acd092c","system_id":"levelo_inurba_marseille","lat":43.30894,"lon":5.37186,"is_reserved":false,"is_disabled":false,"rental_uris":{"android":"levelo://app?vid=8005a2c0-bf6e-4e7f-b653-f7129acd092c","ios":"levelo://app?vid=8005a2c0-bf6e-4e7f-b653-f7129acd092c"},"vehicle_type_id":"4","last_reported":1751353933,"current_range_meters":8800,"station_id":"ce4bguh2rcd13ifvqckg","pricing_plan_id":"cebpf4jnsgd1na2vs0mg"},{"bike_id":"93c66058-dd54-4970-9cf9-5bfc52325a63","system_id":"levelo_inurba_marseille","lat":43.25921,"lon":5.40893,"is_reserved":false,"is_disabled":false,"rental_uris":{"android":"levelo://app?vid=93c66058-dd54-4970-9cf9-5bfc52325a63","ios":"levelo://app?vid=93c66058-dd54-4970-9cf9-5bfc52325a63"},"vehicle_type_id":"4","last_reported":1751353933,"current_range_meters":8800,"station_id":"ce4bhm92rcd13ifvqglg","pricing_plan_id":"cebpf4jnsgd1na2vs0mg"},{"bike_id":"860ecc02-a6d5-4fbe-ada6-b9197deada15","system_id":"levelo_inurba_marseille","lat":43.32564,"lon":5.38924,"is_reserved":false,"is_disabled":false,"rental_uris":{"android":"levelo://app?vid=860ecc02-a6d5-4fbe-ada6-b9197deada15","ios":"levelo://app?vid=860ecc02-a6d5-4fbe-ada6-b9197deada15"},"vehicle_type_id":"4","last_reported":1751353933,"current_range_meters":9600,"station_id":"","pricing_plan_id":"cebpf4jnsgd1na2vs0mg"},{"bike_id":"aaa86ae1-c78c-464a-bdfd-dbc6011e50c4","system_id":"levelo_inurba_marseille","lat":43.31331,"lon":5.3671,"is_reserved":false,"is_disabled":false,"rental_uris":{"android":"levelo://app?vid=aaa86ae1-c78c-464a-bdfd-dbc6011e50c4","ios":"levelo://app?vid=aaa86ae1-c78c-464a-bdfd-dbc6011e50c4"},"vehicle_type_id":"4","last_reported":1751353933,"current_range_meters":10000,"station_id":"ce4bgr92rcd13ifvqc6g","pricing_plan_id":"cebpf4jnsgd1na2vs0mg"},{"bike_id":"1d36edf3-3cf0-4673-82f9-02f99dfd5f25","system_id":"levelo_inurba_marseille","lat":43.31702,"lon":5.40455,"is_reserved":false,"is_disabled":false,"rental_uris":{"android":"levelo://app?vid=1d36edf3-3cf0-4673-82f9-02f99dfd5f25","ios":"levelo://app?vid=1d36edf3-3cf0-4673-82f9-02f99dfd5f25"},"vehicle_type_id":"4","last_reported":1751353933,"current_range_meters":10000,"station_id":"ce4bh012rcd13ifvqd00","pricing_plan_id":"cebpf4jnsgd1na2vs0mg"},{"bike_id":"f838e391-fa80-4ff2-af09-c66f9420182a","system_id":"levelo_inurba_marseille","lat":43.259365,"lon":5.409084,"is_reserved":false,"is_disabled":false,"rental_uris":{"android":"levelo://app?vid=f838e391-fa80-4ff2-af09-c66f9420182a","ios":"levelo://app?vid=f838e391-fa80-4ff2-af09-c66f9420182a"},"vehicle_type_id":"4","last_reported":1751353933,"current_range_meters":10000,"station_id":"ce4bhm92rcd13ifvqglg","pricing_plan_id":"cebpf4jnsgd1na2vs0mg"},{"bike_id":"c13c93ac-6b62-443c-9e36-caf61b27325a","system_id":"levelo_inurba_marseille","lat":43.211979,"lon":5.350799,"is_reserved":false,"is_disabled":false,"rental_uris":{"android":"levelo://app?vid=c13c93ac-6b62-443c-9e36-caf61b27325a","ios":"levelo://app?vid=c13c93ac-6b62-443c-9e36-caf61b27325a"},"vehicle_type_id":"4","last_reported":1751353933,"current_range_meters":10000,"station_id":"st_cvj6sg6p6f1abm77japg","pricing_plan_id":"cebpf4jnsgd1na2vs0mg"},{"bike_id":"ac4cf6bf-ae0d-49a1-afc8-485ee29ed51b","system_id":"levelo_inurba_marseille","lat":43.272673,"lon":5.411681,"is_reserved":false,"is_disabled":false,"rental_uris":{"android":"levelo://app?vid=ac4cf6bf-ae0d-49a1-afc8-485ee29ed51b","ios":"levelo://app?vid=ac4cf6bf-ae0d-49a1-afc8-485ee29ed51b"},"vehicle_type_id":"4","last_reported":1751353933,"current_range_meters":10800,"station_id":"","pricing_plan_id":"cebpf4jnsgd1na2vs0mg"},{"bike_id":"8252b44a-d048-4379-9209-2efa2e627825","system_id":"levelo_inurba_marseille","lat":43.29229,"lon":5.40576,"is_reserved":false,"is_disabled":false,"rental_uris":{"android":"levelo://app?vid=8252b44a-d048-4379-9209-2efa2e627825","ios":"levelo://app?vid=8252b44a-d048-4379-9209-2efa2e627825"},"vehicle_type_id":"4","last_reported":1751353933,"current_range_meters":10800,"station_id":"","pricing_plan_id":"cebpf4jnsgd1na2vs0mg"},{"bike_id":"2316b7bd-bd87-4362-8072-36754b233aab","system_id":"levelo_inurba_marseille","lat":43.30534,"lon":5.36533,"is_reserved":false,"is_disabled":false,"rental_uris":{"android":"levelo://app?vid=2316b7bd-bd87-4362-8072-36754b233aab","ios":"levelo://app?vid=2316b7bd-bd87-4362-8072-36754b233aab"},"vehicle_type_id":"4","last_reported":1751353933,"current_range_meters":10800,"station_id":"ce4bgs12rcd13ifvqcag","pricing_plan_id":"cebpf4jnsgd1na2vs0mg"},{"bike_id":"f5b47e73-2b85-411a-b629-99d41dca9239","system_id":"levelo_inurba_marseille","lat":43.30481,"lon":5.37902,"is_reserved":false,"is_disabled":false,"rental_uris":{"android":"levelo://app?vid=f5b47e73-2b85-411a-b629-99d41dca9239","ios":"levelo://app?vid=f5b47e73-2b85-411a-b629-99d41dca9239"},"vehicle_type_id":"4","last_reported":1751353933,"current_range_meters":10800,"station_id":"ce4bgup2rcd13ifvqcn0","pricing_plan_id":"cebpf4jnsgd1na2vs0mg"},{"bike_id":"d535a91b-c24a-4739-9546-fd636787defb","system_id":"levelo_inurba_marseille","lat":43.255,"lon":5.3765,"is_reserved":false,"is_disabled":false,"rental_uris":{"android":"levelo://app?vid=d535a91b-c24a-4739-9546-fd636787defb","ios":"levelo://app?vid=d535a91b-c24a-4739-9546-fd636787defb"},"vehicle_type_id":"4","last_reported":1751353933,"current_range_meters":10800,"station_id":"ce4bhh12rcd13ifvqff0","pricing_plan_id":"cebpf4jnsgd1na2vs0mg"},{"bike_id":"81f992a9-cae1-4d6e-9c4c-cba00bcbe721","system_id":"levelo_inurba_marseille","lat":43.25725,"lon":5.41111,"is_reserved":false,"is_disabled":false,"rental_uris":{"android":"levelo://app?vid=81f992a9-cae1-4d6e-9c4c-cba00bcbe721","ios":"levelo://app?vid=81f992a9-cae1-4d6e-9c4c-cba00bcbe721"},"vehicle_type_id":"4","last_reported":1751353933,"current_range_meters":10800,"station_id":"ce4bhkp2rcd13ifvqgd0","pricing_plan_id":"cebpf4jnsgd1na2vs0mg"},{"bike_id":"6c3cf52a-3e70-4dcb-939e-8a5b5361b3f4","system_id":"levelo_inurba_marseille","lat":43.25934,"lon":5.40893,"is_reserved":false,"is_disabled":false,"rental_uris":{"android":"levelo://app?vid=6c3cf52a-3e70-4dcb-939e-8a5b5361b3f4","ios":"levelo://app?vid=6c3cf52a-3e70-4dcb-939e-8a5b5361b3f4"},"vehicle_type_id":"4","last_reported":1751353933,"current_range_meters":10800,"station_id":"ce4bhm92rcd13ifvqglg","pricing_plan_id":"cebpf4jnsgd1na2vs0mg"},{"bike_id":"6b04a8db-f012-4ea9-88f5-d59ff3f24fd9","system_id":"levelo_inurba_marseille","lat":43.29897,"lon":5.43636,"is_reserved":false,"is_disabled":false,"rental_uris":{"android":"levelo://app?vid=6b04a8db-f012-4ea9-88f5-d59ff3f24fd9","ios":"levelo://app?vid=6b04a8db-f012-4ea9-88f5-d59ff3f24fd9"},"vehicle_type_id":"4","last_reported":1751353933,"current_range_meters":10800,"station_id":"ce4bhpp2rcd13ifvqhfg","pricing_plan_id":"cebpf4jnsgd1na2vs0mg"},{"bike_id":"aad466d4-9058-4038-a189-895fae6f1c28","system_id":"levelo_inurba_marseille","lat":43.21198,"lon":5.35067,"is_reserved":false,"is_disabled":false,"rental_uris":{"android":"levelo://app?vid=aad466d4-9058-4038-a189-895fae6f1c28","ios":"levelo://app?vid=aad466d4-9058-4038-a189-895fae6f1c28"},"vehicle_type_id":"4","last_reported":1751353933,"current_range_meters":10800,"station_id":"st_cvj6sg6p6f1abm77japg","pricing_plan_id":"cebpf4jnsgd1na2vs0mg"},{"bike_id":"77b28eda-e0a5-457b-9684-ebdf583390db","system_id":"levelo_inurba_marseille","lat":43.29574,"lon":5.37516,"is_reserved":false,"is_disabled":false,"rental_uris":{"android":"levelo://app?vid=77b28eda-e0a5-457b-9684-ebdf583390db","ios":"levelo://app?vid=77b28eda-e0a5-457b-9684-ebdf583390db"},"vehicle_type_id":"4","last_reported":1751353933,"current_range_meters":11200,"station_id":"ce4bgh92rcd13ifvqb50","pricing_plan_id":"cebpf4jnsgd1na2vs0mg"},{"bike_id":"0e8d89c6-2704-43b4-a05a-fa736dc63add","system_id":"levelo_inurba_marseille","lat":43.30143,"lon":5.38073,"is_reserved":false,"is_disabled":false,"rental_uris":{"android":"levelo://app?vid=0e8d89c6-2704-43b4-a05a-fa736dc63add","ios":"levelo://app?vid=0e8d89c6-2704-43b4-a05a-fa736dc63add"},"vehicle_type_id":"4","last_reported":1751353933,"current_range_meters":11200,"station_id":"ce4bgjp2rcd13ifvqbh0","pricing_plan_id":"cebpf4jnsgd1na2vs0mg"},{"bike_id":"ae62c775-c014-4582-9310-5778b9909680","system_id":"levelo_inurba_marseille","lat":43.30541,"lon":5.3655,"is_reserved":false,"is_disabled":false,"rental_uris":{"android":"levelo://app?vid=ae62c775-c014-4582-9310-5778b9909680","ios":"levelo://app?vid=ae62c775-c014-4582-9310-5778b9909680"},"vehicle_type_id":"4","last_reported":1751353933,"current_range_meters":11200,"station_id":"ce4bgs12rcd13ifvqcag","pricing_plan_id":"cebpf4jnsgd1na2vs0mg"},{"bike_id":"58bd3f83-8d43-432e-a389-948938190aea","system_id":"levelo_inurba_marseille","lat":43.275,"lon":5.4245,"is_reserved":false,"is_disabled":false,"rental_uris":{"android":"levelo://app?vid=58bd3f83-8d43-432e-a389-948938190aea","ios":"levelo://app?vid=58bd3f83-8d43-432e-a389-948938190aea"},"vehicle_type_id":"4","last_reported":1751353933,"current_range_meters":11200,"station_id":"ce4bhn92rcd13ifvqgrg","pricing_plan_id":"cebpf4jnsgd1na2vs0mg"},{"bike_id":"d8facb10-b967-4a32-9b5c-8cfed4bbd05b","system_id":"levelo_inurba_marseille","lat":43.321074,"lon":5.367651,"is_reserved":false,"is_disabled":false,"rental_uris":{"android":"levelo://app?vid=d8facb10-b967-4a32-9b5c-8cfed4bbd05b","ios":"levelo://app?vid=d8facb10-b967-4a32-9b5c-8cfed4bbd05b"},"vehicle_type_id":"4","last_reported":1751353933,"current_range_meters":11200,"station_id":"ce4bhrh2rcd13ifvqhug","pricing_plan_id":"cebpf4jnsgd1na2vs0mg"},{"bike_id":"7f8ab03b-5c15-4d81-90c1-cea0c2fd240a","system_id":"levelo_inurba_marseille","lat":43.31388,"lon":5.3671,"is_reserved":false,"is_disabled":false,"rental_uris":{"android":"levelo://app?vid=7f8ab03b-5c15-4d81-90c1-cea0c2fd240a","ios":"levelo://app?vid=7f8ab03b-5c15-4d81-90c1-cea0c2fd240a"},"vehicle_type_id":"4","last_reported":1751353933,"current_range_meters":11600,"station_id":"","pricing_plan_id":"cebpf4jnsgd1na2vs0mg"},{"bike_id":"22df8701-dcf5-4f29-8488-6cfd37fa2375","system_id":"levelo_inurba_marseille","lat":43.30454,"lon":5.37913,"is_reserved":false,"is_disabled":false,"rental_uris":{"android":"levelo://app?vid=22df8701-dcf5-4f29-8488-6cfd37fa2375","ios":"levelo://app?vid=22df8701-dcf5-4f29-8488-6cfd37fa2375"},"vehicle_type_id":"4","last_reported":1751353933,"current_range_meters":11600,"station_id":"ce4bgup2rcd13ifvqcn0","pricing_plan_id":"cebpf4jnsgd1na2vs0mg"},{"bike_id":"85444a7f-dc93-4f0d-b528-46644bd3f9ba","system_id":"levelo_inurba_marseille","lat":43.2418,"lon":5.3973,"is_reserved":false,"is_disabled":false,"rental_uris":{"android":"levelo://app?vid=85444a7f-dc93-4f0d-b528-46644bd3f9ba","ios":"levelo://app?vid=85444a7f-dc93-4f0d-b528-46644bd3f9ba"},"vehicle_type_id":"4","last_reported":1751353933,"current_range_meters":11600,"station_id":"ce4bhn12rcd13ifvqgpg","pricing_plan_id":"cebpf4jnsgd1na2vs0mg"},{"bike_id":"e56e31a2-29d3-4a56-9ddf-3ef6c73ecda8","system_id":"levelo_inurba_marseille","lat":43.24176,"lon":5.36391,"is_reserved":false,"is_disabled":false,"rental_uris":{"android":"levelo://app?vid=e56e31a2-29d3-4a56-9ddf-3ef6c73ecda8","ios":"levelo://app?vid=e56e31a2-29d3-4a56-9ddf-3ef6c73ecda8"},"vehicle_type_id":"4","last_reported":1751353933,"current_range_meters":11600,"station_id":"cpo36qri1sfpv3e86is0","pricing_plan_id":"cebpf4jnsgd1na2vs0mg"},{"bike_id":"8ceb2860-ca09-420a-8aab-fcf0c529a0d3","system_id":"levelo_inurba_marseille","lat":43.211914,"lon":5.350715,"is_reserved":false,"is_disabled":false,"rental_uris":{"android":"levelo://app?vid=8ceb2860-ca09-420a-8aab-fcf0c529a0d3","ios":"levelo://app?vid=8ceb2860-ca09-420a-8aab-fcf0c529a0d3"},"vehicle_type_id":"4","last_reported":1751353933,"current_range_meters":11600,"station_id":"st_cvj6sg6p6f1abm77japg","pricing_plan_id":"cebpf4jnsgd1na2vs0mg"},{"bike_id":"364f1628-9799-4f47-9592-bc5fb02beceb","system_id":"levelo_inurba_marseille","lat":43.29622,"lon":5.37164,"is_reserved":false,"is_disabled":false,"rental_uris":{"android":"levelo://app?vid=364f1628-9799-4f47-9592-bc5fb02beceb","ios":"levelo://app?vid=364f1628-9799-4f47-9592-bc5fb02beceb"},"vehicle_type_id":"4","last_reported":1751353933,"current_range_meters":12000,"station_id":"ce4bgnh2rcd13ifvqc0g","pricing_plan_id":"cebpf4jnsgd1na2vs0mg"},{"bike_id":"32c3f3bf-696a-4688-bb71-56a381c1c26b","system_id":"levelo_inurba_marseille","lat":43.29847,"lon":5.36278,"is_reserved":false,"is_disabled":false,"rental_uris":{"android":"levelo://app?vid=32c3f3bf-696a-4688-bb71-56a381c1c26b","ios":"levelo://app?vid=32c3f3bf-696a-4688-bb71-56a381c1c26b"},"vehicle_type_id":"4","last_reported":1751353933,"current_range_meters":12000,"station_id":"ce4bgpp2rcd13ifvqc3g","pricing_plan_id":"cebpf4jnsgd1na2vs0mg"},{"bike_id":"af178dc3-26c7-4c89-8614-309596c063cb","system_id":"levelo_inurba_marseille","lat":43.26783,"lon":5.39417,"is_reserved":false,"is_disabled":false,"rental_uris":{"android":"levelo://app?vid=af178dc3-26c7-4c89-8614-309596c063cb","ios":"levelo://app?vid=af178dc3-26c7-4c89-8614-309596c063cb"},"vehicle_type_id":"4","last_reported":1751353933,"current_range_meters":12000,"station_id":"ce4bhh12rcd13ifvqfg0","pricing_plan_id":"cebpf4jnsgd1na2vs0mg"},{"bike_id":"43eb0a95-a42b-4fb1-afa6-904af12c6e74","system_id":"levelo_inurba_marseille","lat":43.258395,"lon":5.408845,"is_reserved":false,"is_disabled":false,"rental_uris":{"android":"levelo://app?vid=43eb0a95-a42b-4fb1-afa6-904af12c6e74","ios":"levelo://app?vid=43eb0a95-a42b-4fb1-afa6-904af12c6e74"},"vehicle_type_id":"4","last_reported":1751353933,"current_range_meters":12000,"station_id":"ce4bhkp2rcd13ifvqgd0","pricing_plan_id":"cebpf4jnsgd1na2vs0mg"},{"bike_id":"f054c8c3-ff77-49df-8c8a-efbc8cd9c2b4","system_id":"levelo_inurba_marseille","lat":43.32367,"lon":5.38887,"is_reserved":false,"is_disabled":false,"rental_uris":{"android":"levelo://app?vid=f054c8c3-ff77-49df-8c8a-efbc8cd9c2b4","ios":"levelo://app?vid=f054c8c3-ff77-49df-8c8a-efbc8cd9c2b4"},"vehicle_type_id":"4","last_reported":1751353933,"current_range_meters":12000,"station_id":"ce4bhqp2rcd13ifvqhog","pricing_plan_id":"cebpf4jnsgd1na2vs0mg"},{"bike_id":"4f97e136-2006-43b5-84b8-8ce28f4647e9","system_id":"levelo_inurba_marseille","lat":43.211915,"lon":5.350763,"is_reserved":false,"is_disabled":false,"rental_uris":{"android":"levelo://app?vid=4f97e136-2006-43b5-84b8-8ce28f4647e9","ios":"levelo://app?vid=4f97e136-2006-43b5-84b8-8ce28f4647e9"},"vehicle_type_id":"4","last_reported":1751353933,"current_range_meters":12000,"station_id":"st_cvj6sg6p6f1abm77japg","pricing_plan_id":"cebpf4jnsgd1na2vs0mg"},{"bike_id":"cc00e40a-c5cc-4f6a-acb6-8fdcb4bdc87a","system_id":"levelo_inurba_marseille","lat":43.21193,"lon":5.35072,"is_reserved":false,"is_disabled":false,"rental_uris":{"android":"levelo://app?vid=cc00e40a-c5cc-4f6a-acb6-8fdcb4bdc87a","ios":"levelo://app?vid=cc00e40a-c5cc-4f6a-acb6-8fdcb4bdc87a"},"vehicle_type_id":"4","last_reported":1751353933,"current_range_meters":12000,"station_id":"st_cvj6sg6p6f1abm77japg","pricing_plan_id":"cebpf4jnsgd1na2vs0mg"},{"bike_id":"32c14760-28ef-4181-97d0-6af7a7c1d581","system_id":"levelo_inurba_marseille","lat":43.29579,"lon":5.36736,"is_reserved":false,"is_disabled":false,"rental_uris":{"android":"levelo://app?vid=32c14760-28ef-4181-97d0-6af7a7c1d581","ios":"levelo://app?vid=32c14760-28ef-4181-97d0-6af7a7c1d581"},"vehicle_type_id":"4","last_reported":1751353933,"current_range_meters":12400,"station_id":"ce4bgph2rcd13ifvqc2g","pricing_plan_id":"cebpf4jnsgd1na2vs0mg"},{"bike_id":"d5da5bd9-7c2a-48e5-92aa-fa21076cad13","system_id":"levelo_inurba_marseille","lat":43.2118,"lon":5.35067,"is_reserved":false,"is_disabled":false,"rental_uris":{"android":"levelo://app?vid=d5da5bd9-7c2a-48e5-92aa-fa21076cad13","ios":"levelo://app?vid=d5da5bd9-7c2a-48e5-92aa-fa21076cad13"},"vehicle_type_id":"4","last_reported":1751353933,"current_range_meters":12400,"station_id":"st_cvj6sg6p6f1abm77japg","pricing_plan_id":"cebpf4jnsgd1na2vs0mg"},{"bike_id":"e96c1f95-191e-4d59-ad27-91b7c1181a10","system_id":"levelo_inurba_marseille","lat":43.30547,"lon":5.36708,"is_reserved":false,"is_disabled":false,"rental_uris":{"android":"levelo://app?vid=e96c1f95-191e-4d59-ad27-91b7c1181a10","ios":"levelo://app?vid=e96c1f95-191e-4d59-ad27-91b7c1181a10"},"vehicle_type_id":"4","last_reported":1751353933,"current_range_meters":12800,"station_id":"ce4bgrp2rcd13ifvqc9g","pricing_plan_id":"cebpf4jnsgd1na2vs0mg"},{"bike_id":"267267a4-c51c-4d8c-95bd-5bee0206bdc4","system_id":"levelo_inurba_marseille","lat":43.27375,"lon":5.3626,"is_reserved":false,"is_disabled":false,"rental_uris":{"android":"levelo://app?vid=267267a4-c51c-4d8c-95bd-5bee0206bdc4","ios":"levelo://app?vid=267267a4-c51c-4d8c-95bd-5bee0206bdc4"},"vehicle_type_id":"4","last_reported":1751353933,"current_range_meters":12800,"station_id":"ce4bhbh2rcd13ifvqeo0","pricing_plan_id":"cebpf4jnsgd1na2vs0mg"},{"bike_id":"0f7e2eb7-a047-403a-bb07-715b7f2ea55f","system_id":"levelo_inurba_marseille","lat":43.26059,"lon":5.39401,"is_reserved":false,"is_disabled":false,"rental_uris":{"android":"levelo://app?vid=0f7e2eb7-a047-403a-bb07-715b7f2ea55f","ios":"levelo://app?vid=0f7e2eb7-a047-403a-bb07-715b7f2ea55f"},"vehicle_type_id":"4","last_reported":1751353933,"current_range_meters":12800,"station_id":"ce4bhh92rcd13ifvqfj0","pricing_plan_id":"cebpf4jnsgd1na2vs0mg"},{"bike_id":"c6f625a0-40d6-4fe8-abd6-56d3df241956","system_id":"levelo_inurba_marseille","lat":43.23964,"lon":5.36626,"is_reserved":false,"is_disabled":false,"rental_uris":{"android":"levelo://app?vid=c6f625a0-40d6-4fe8-abd6-56d3df241956","ios":"levelo://app?vid=c6f625a0-40d6-4fe8-abd6-56d3df241956"},"vehicle_type_id":"4","last_reported":1751353933,"current_range_meters":12800,"station_id":"ce4bhi12rcd13ifvqfp0","pricing_plan_id":"cebpf4jnsgd1na2vs0mg"},{"bike_id":"750f5cfa-157e-4240-9a5f-3afe50c900ac","system_id":"levelo_inurba_marseille","lat":43.25712,"lon":5.41842,"is_reserved":false,"is_disabled":false,"rental_uris":{"android":"levelo://app?vid=750f5cfa-157e-4240-9a5f-3afe50c900ac","ios":"levelo://app?vid=750f5cfa-157e-4240-9a5f-3afe50c900ac"},"vehicle_type_id":"4","last_reported":1751353933,"current_range_meters":13600,"station_id":"","pricing_plan_id":"cebpf4jnsgd1na2vs0mg"},{"bike_id":"bb05de53-6b5a-4f35-87d1-f69c43953ab2","system_id":"levelo_inurba_marseille","lat":43.28933,"lon":5.36643,"is_reserved":false,"is_disabled":false,"rental_uris":{"android":"levelo://app?vid=bb05de53-6b5a-4f35-87d1-f69c43953ab2","ios":"levelo://app?vid=bb05de53-6b5a-4f35-87d1-f69c43953ab2"},"vehicle_type_id":"4","last_reported":1751353933,"current_range_meters":13600,"station_id":"ce4bhap2rcd13ifvqek0","pricing_plan_id":"cebpf4jnsgd1na2vs0mg"},{"bike_id":"697b8b38-a055-4095-b362-1c9897492fc6","system_id":"levelo_inurba_marseille","lat":43.23149,"lon":5.43727,"is_reserved":false,"is_disabled":false,"rental_uris":{"android":"levelo://app?vid=697b8b38-a055-4095-b362-1c9897492fc6","ios":"levelo://app?vid=697b8b38-a055-4095-b362-1c9897492fc6"},"vehicle_type_id":"4","last_reported":1751353933,"current_range_meters":13600,"station_id":"ce4bhmp2rcd13ifvqgog","pricing_plan_id":"cebpf4jnsgd1na2vs0mg"},{"bike_id":"e552832c-7ca2-4106-b0f9-92bbabda27d1","system_id":"levelo_inurba_marseille","lat":43.21186,"lon":5.35067,"is_reserved":false,"is_disabled":false,"rental_uris":{"android":"levelo://app?vid=e552832c-7ca2-4106-b0f9-92bbabda27d1","ios":"levelo://app?vid=e552832c-7ca2-4106-b0f9-92bbabda27d1"},"vehicle_type_id":"4","last_reported":1751353933,"current_range_meters":13600,"station_id":"st_cvj6sg6p6f1abm77japg","pricing_plan_id":"cebpf4jnsgd1na2vs0mg"},{"bike_id":"cd1b72e5-0e44-48f3-b3ba-b4816514fc36","system_id":"levelo_inurba_marseille","lat":43.29719,"lon":5.37685,"is_reserved":false,"is_disabled":false,"rental_uris":{"android":"levelo://app?vid=cd1b72e5-0e44-48f3-b3ba-b4816514fc36","ios":"levelo://app?vid=cd1b72e5-0e44-48f3-b3ba-b4816514fc36"},"vehicle_type_id":"4","last_reported":1751353933,"current_range_meters":14000,"station_id":"ce4bgkh2rcd13ifvqbl0","pricing_plan_id":"cebpf4jnsgd1na2vs0mg"},{"bike_id":"5631c7ea-fb56-4ee9-8df0-6e0aa2f0ff30","system_id":"levelo_inurba_marseille","lat":43.24169,"lon":5.36398,"is_reserved":false,"is_disabled":false,"rental_uris":{"android":"levelo://app?vid=5631c7ea-fb56-4ee9-8df0-6e0aa2f0ff30","ios":"levelo://app?vid=5631c7ea-fb56-4ee9-8df0-6e0aa2f0ff30"},"vehicle_type_id":"4","last_reported":1751353933,"current_range_meters":14000,"station_id":"cpo36qri1sfpv3e86is0","pricing_plan_id":"cebpf4jnsgd1na2vs0mg"},{"bike_id":"b13877a6-4825-4d82-b46b-67fa8ad66c5d","system_id":"levelo_inurba_marseille","lat":43.211952,"lon":5.350697,"is_reserved":false,"is_disabled":false,"rental_uris":{"android":"levelo://app?vid=b13877a6-4825-4d82-b46b-67fa8ad66c5d","ios":"levelo://app?vid=b13877a6-4825-4d82-b46b-67fa8ad66c5d"},"vehicle_type_id":"4","last_reported":1751353933,"current_range_meters":14000,"station_id":"st_cvj6sg6p6f1abm77japg","pricing_plan_id":"cebpf4jnsgd1na2vs0mg"},{"bike_id":"b28aa0a0-791c-4a08-9a16-c7bf6ea0ed5a","system_id":"levelo_inurba_marseille","lat":43.22482,"lon":5.34809,"is_reserved":false,"is_disabled":false,"rental_uris":{"android":"levelo://app?vid=b28aa0a0-791c-4a08-9a16-c7bf6ea0ed5a","ios":"levelo://app?vid=b28aa0a0-791c-4a08-9a16-c7bf6ea0ed5a"},"vehicle_type_id":"4","last_reported":1751353933,"current_range_meters":14400,"station_id":"","pricing_plan_id":"cebpf4jnsgd1na2vs0mg"},{"bike_id":"4485862b-7665-4f66-b5ae-a415fa136b87","system_id":"levelo_inurba_marseille","lat":43.31234,"lon":5.36804,"is_reserved":false,"is_disabled":false,"rental_uris":{"android":"levelo://app?vid=4485862b-7665-4f66-b5ae-a415fa136b87","ios":"levelo://app?vid=4485862b-7665-4f66-b5ae-a415fa136b87"},"vehicle_type_id":"4","last_reported":1751353933,"current_range_meters":14400,"station_id":"ce4bgl92rcd13ifvqbq0","pricing_plan_id":"cebpf4jnsgd1na2vs0mg"},{"bike_id":"11c664f4-ce1a-4ba1-88d3-c0fe359ed757","system_id":"levelo_inurba_marseille","lat":43.31334,"lon":5.36704,"is_reserved":false,"is_disabled":false,"rental_uris":{"android":"levelo://app?vid=11c664f4-ce1a-4ba1-88d3-c0fe359ed757","ios":"levelo://app?vid=11c664f4-ce1a-4ba1-88d3-c0fe359ed757"},"vehicle_type_id":"4","last_reported":1751353933,"current_range_meters":14400,"station_id":"ce4bgr92rcd13ifvqc6g","pricing_plan_id":"cebpf4jnsgd1na2vs0mg"},{"bike_id":"c2b72fe0-bae6-4c7b-ad48-9e771b203dc8","system_id":"levelo_inurba_marseille","lat":43.313517,"lon":5.384639,"is_reserved":false,"is_disabled":false,"rental_uris":{"android":"levelo://app?vid=c2b72fe0-bae6-4c7b-ad48-9e771b203dc8","ios":"levelo://app?vid=c2b72fe0-bae6-4c7b-ad48-9e771b203dc8"},"vehicle_type_id":"4","last_reported":1751353933,"current_range_meters":14400,"station_id":"ce4bgt92rcd13ifvqcf0","pricing_plan_id":"cebpf4jnsgd1na2vs0mg"},{"bike_id":"a77592ac-a831-4519-aa67-bb6235003528","system_id":"levelo_inurba_marseille","lat":43.25002,"lon":5.3893,"is_reserved":false,"is_disabled":false,"rental_uris":{"android":"levelo://app?vid=a77592ac-a831-4519-aa67-bb6235003528","ios":"levelo://app?vid=a77592ac-a831-4519-aa67-bb6235003528"},"vehicle_type_id":"4","last_reported":1751353933,"current_range_meters":14400,"station_id":"ce4bhgp2rcd13ifvqfd0","pricing_plan_id":"cebpf4jnsgd1na2vs0mg"},{"bike_id":"af5eb792-09ad-43c0-ab1f-fd0a2e36b4da","system_id":"levelo_inurba_marseille","lat":43.26485,"lon":5.39597,"is_reserved":false,"is_disabled":false,"rental_uris":{"android":"levelo://app?vid=af5eb792-09ad-43c0-ab1f-fd0a2e36b4da","ios":"levelo://app?vid=af5eb792-09ad-43c0-ab1f-fd0a2e36b4da"},"vehicle_type_id":"4","last_reported":1751353933,"current_range_meters":14400,"station_id":"ce4bhi12rcd13ifvqfq0","pricing_plan_id":"cebpf4jnsgd1na2vs0mg"},{"bike_id":"18e303d7-3b1d-41e0-adaa-17db53b02e6d","system_id":"levelo_inurba_marseille","lat":43.25934,"lon":5.40901,"is_reserved":false,"is_disabled":false,"rental_uris":{"android":"levelo://app?vid=18e303d7-3b1d-41e0-adaa-17db53b02e6d","ios":"levelo://app?vid=18e303d7-3b1d-41e0-adaa-17db53b02e6d"},"vehicle_type_id":"4","last_reported":1751353933,"current_range_meters":14400,"station_id":"ce4bhm92rcd13ifvqglg","pricing_plan_id":"cebpf4jnsgd1na2vs0mg"},{"bike_id":"2e6dddb8-e6ee-46e1-ba76-e3217ed4d35e","system_id":"levelo_inurba_marseille","lat":43.25942,"lon":5.40902,"is_reserved":false,"is_disabled":false,"rental_uris":{"android":"levelo://app?vid=2e6dddb8-e6ee-46e1-ba76-e3217ed4d35e","ios":"levelo://app?vid=2e6dddb8-e6ee-46e1-ba76-e3217ed4d35e"},"vehicle_type_id":"4","last_reported":1751353933,"current_range_meters":14400,"station_id":"ce4bhm92rcd13ifvqglg","pricing_plan_id":"cebpf4jnsgd1na2vs0mg"},{"bike_id":"3c9dbbf3-6bd6-44f0-b0d4-bef99072566a","system_id":"levelo_inurba_marseille","lat":43.26219,"lon":5.40456,"is_reserved":false,"is_disabled":false,"rental_uris":{"android":"levelo://app?vid=3c9dbbf3-6bd6-44f0-b0d4-bef99072566a","ios":"levelo://app?vid=3c9dbbf3-6bd6-44f0-b0d4-bef99072566a"},"vehicle_type_id":"4","last_reported":1751353933,"current_range_meters":14400,"station_id":"ce4bhmh2rcd13ifvqgmg","pricing_plan_id":"cebpf4jnsgd1na2vs0mg"},{"bike_id":"85828be4-d4e0-4db4-ad15-f253475fa361","system_id":"levelo_inurba_marseille","lat":43.337444,"lon":5.374475,"is_reserved":false,"is_disabled":false,"rental_uris":{"android":"levelo://app?vid=85828be4-d4e0-4db4-ad15-f253475fa361","ios":"levelo://app?vid=85828be4-d4e0-4db4-ad15-f253475fa361"},"vehicle_type_id":"4","last_reported":1751353933,"current_range_meters":14800,"station_id":"","pricing_plan_id":"cebpf4jnsgd1na2vs0mg"},{"bike_id":"efee7f8c-95a9-489d-aa0e-fc8f747e287a","system_id":"levelo_inurba_marseille","lat":43.25727,"lon":5.41108,"is_reserved":false,"is_disabled":false,"rental_uris":{"android":"levelo://app?vid=efee7f8c-95a9-489d-aa0e-fc8f747e287a","ios":"levelo://app?vid=efee7f8c-95a9-489d-aa0e-fc8f747e287a"},"vehicle_type_id":"4","last_reported":1751353933,"current_range_meters":14800,"station_id":"ce4bhkp2rcd13ifvqgd0","pricing_plan_id":"cebpf4jnsgd1na2vs0mg"},{"bike_id":"f603f3aa-5bf7-4a19-a8a1-b47909f854c7","system_id":"levelo_inurba_marseille","lat":43.21193,"lon":5.35066,"is_reserved":false,"is_disabled":false,"rental_uris":{"android":"levelo://app?vid=f603f3aa-5bf7-4a19-a8a1-b47909f854c7","ios":"levelo://app?vid=f603f3aa-5bf7-4a19-a8a1-b47909f854c7"},"vehicle_type_id":"4","last_reported":1751353933,"current_range_meters":14800,"station_id":"st_cvj6sg6p6f1abm77japg","pricing_plan_id":"cebpf4jnsgd1na2vs0mg"},{"bike_id":"8e923139-733b-4731-8bfd-f5800f37e4a4","system_id":"levelo_inurba_marseille","lat":43.270568,"lon":5.402409,"is_reserved":false,"is_disabled":false,"rental_uris":{"android":"levelo://app?vid=8e923139-733b-4731-8bfd-f5800f37e4a4","ios":"levelo://app?vid=8e923139-733b-4731-8bfd-f5800f37e4a4"},"vehicle_type_id":"4","last_reported":1751353933,"current_range_meters":15200,"station_id":"","pricing_plan_id":"cebpf4jnsgd1na2vs0mg"},{"bike_id":"b3e41547-830d-41b6-857c-de4b8f5f6312","system_id":"levelo_inurba_marseille","lat":43.30187,"lon":5.38062,"is_reserved":false,"is_disabled":false,"rental_uris":{"android":"levelo://app?vid=b3e41547-830d-41b6-857c-de4b8f5f6312","ios":"levelo://app?vid=b3e41547-830d-41b6-857c-de4b8f5f6312"},"vehicle_type_id":"4","last_reported":1751353933,"current_range_meters":15200,"station_id":"","pricing_plan_id":"cebpf4jnsgd1na2vs0mg"},{"bike_id":"855ca964-5abf-4311-8086-44fe54406fea","system_id":"levelo_inurba_marseille","lat":43.30912,"lon":5.3685,"is_reserved":false,"is_disabled":false,"rental_uris":{"android":"levelo://app?vid=855ca964-5abf-4311-8086-44fe54406fea","ios":"levelo://app?vid=855ca964-5abf-4311-8086-44fe54406fea"},"vehicle_type_id":"4","last_reported":1751353933,"current_range_meters":15200,"station_id":"ce4bgn92rcd13ifvqbvg","pricing_plan_id":"cebpf4jnsgd1na2vs0mg"},{"bike_id":"fc11fa1e-641e-4dde-912f-8fa9fdc1647a","system_id":"levelo_inurba_marseille","lat":43.30533,"lon":5.36706,"is_reserved":false,"is_disabled":false,"rental_uris":{"android":"levelo://app?vid=fc11fa1e-641e-4dde-912f-8fa9fdc1647a","ios":"levelo://app?vid=fc11fa1e-641e-4dde-912f-8fa9fdc1647a"},"vehicle_type_id":"4","last_reported":1751353933,"current_range_meters":15200,"station_id":"ce4bgrp2rcd13ifvqc9g","pricing_plan_id":"cebpf4jnsgd1na2vs0mg"},{"bike_id":"f7a6e636-cea0-4a5a-8210-c9baa8f6f21d","system_id":"levelo_inurba_marseille","lat":43.241863,"lon":5.39731,"is_reserved":false,"is_disabled":false,"rental_uris":{"android":"levelo://app?vid=f7a6e636-cea0-4a5a-8210-c9baa8f6f21d","ios":"levelo://app?vid=f7a6e636-cea0-4a5a-8210-c9baa8f6f21d"},"vehicle_type_id":"4","last_reported":1751353933,"current_range_meters":15200,"station_id":"ce4bhn12rcd13ifvqgpg","pricing_plan_id":"cebpf4jnsgd1na2vs0mg"},{"bike_id":"a2864fe7-1184-48ae-a023-a28908a07e8e","system_id":"levelo_inurba_marseille","lat":43.274964,"lon":5.424554,"is_reserved":false,"is_disabled":false,"rental_uris":{"android":"levelo://app?vid=a2864fe7-1184-48ae-a023-a28908a07e8e","ios":"levelo://app?vid=a2864fe7-1184-48ae-a023-a28908a07e8e"},"vehicle_type_id":"4","last_reported":1751353933,"current_range_meters":15200,"station_id":"ce4bhn92rcd13ifvqgrg","pricing_plan_id":"cebpf4jnsgd1na2vs0mg"},{"bike_id":"40d1df41-73d0-4cbc-b98f-a5348f7034a6","system_id":"levelo_inurba_marseille","lat":43.32289,"lon":5.38271,"is_reserved":false,"is_disabled":false,"rental_uris":{"android":"levelo://app?vid=40d1df41-73d0-4cbc-b98f-a5348f7034a6","ios":"levelo://app?vid=40d1df41-73d0-4cbc-b98f-a5348f7034a6"},"vehicle_type_id":"4","last_reported":1751353933,"current_range_meters":15200,"station_id":"ce4bhr12rcd13ifvqhqg","pricing_plan_id":"cebpf4jnsgd1na2vs0mg"},{"bike_id":"c0228700-5312-4a39-89af-ec53a5d729c5","system_id":"levelo_inurba_marseille","lat":43.28297,"lon":5.43241,"is_reserved":false,"is_disabled":false,"rental_uris":{"android":"levelo://app?vid=c0228700-5312-4a39-89af-ec53a5d729c5","ios":"levelo://app?vid=c0228700-5312-4a39-89af-ec53a5d729c5"},"vehicle_type_id":"4","last_reported":1751353933,"current_range_meters":16000,"station_id":"","pricing_plan_id":"cebpf4jnsgd1na2vs0mg"},{"bike_id":"c61036a9-1a66-4480-8bd4-cd2fb585b287","system_id":"levelo_inurba_marseille","lat":43.26965,"lon":5.405604,"is_reserved":false,"is_disabled":false,"rental_uris":{"android":"levelo://app?vid=c61036a9-1a66-4480-8bd4-cd2fb585b287","ios":"levelo://app?vid=c61036a9-1a66-4480-8bd4-cd2fb585b287"},"vehicle_type_id":"4","last_reported":1751353933,"current_range_meters":16000,"station_id":"","pricing_plan_id":"cebpf4jnsgd1na2vs0mg"},{"bike_id":"37d58dff-bf8b-41be-ac58-6cb0fa960b7f","system_id":"levelo_inurba_marseille","lat":43.2901,"lon":5.35793,"is_reserved":false,"is_disabled":false,"rental_uris":{"android":"levelo://app?vid=37d58dff-bf8b-41be-ac58-6cb0fa960b7f","ios":"levelo://app?vid=37d58dff-bf8b-41be-ac58-6cb0fa960b7f"},"vehicle_type_id":"4","last_reported":1751353933,"current_range_meters":16000,"station_id":"","pricing_plan_id":"cebpf4jnsgd1na2vs0mg"},{"bike_id":"64c35025-af08-442f-b59a-e22a65c55d07","system_id":"levelo_inurba_marseille","lat":43.30544,"lon":5.36558,"is_reserved":false,"is_disabled":false,"rental_uris":{"android":"levelo://app?vid=64c35025-af08-442f-b59a-e22a65c55d07","ios":"levelo://app?vid=64c35025-af08-442f-b59a-e22a65c55d07"},"vehicle_type_id":"4","last_reported":1751353933,"current_range_meters":16000,"station_id":"ce4bgs12rcd13ifvqcag","pricing_plan_id":"cebpf4jnsgd1na2vs0mg"},{"bike_id":"e916990a-eac4-4f88-83aa-a1d7b55a36db","system_id":"levelo_inurba_marseille","lat":43.30649,"lon":5.40101,"is_reserved":false,"is_disabled":false,"rental_uris":{"android":"levelo://app?vid=e916990a-eac4-4f88-83aa-a1d7b55a36db","ios":"levelo://app?vid=e916990a-eac4-4f88-83aa-a1d7b55a36db"},"vehicle_type_id":"4","last_reported":1751353933,"current_range_meters":16000,"station_id":"ce4bh112rcd13ifvqda0","pricing_plan_id":"cebpf4jnsgd1na2vs0mg"},{"bike_id":"f737e72f-6275-4c7a-9a5e-8d1906069737","system_id":"levelo_inurba_marseille","lat":43.24387,"lon":5.3706,"is_reserved":false,"is_disabled":false,"rental_uris":{"android":"levelo://app?vid=f737e72f-6275-4c7a-9a5e-8d1906069737","ios":"levelo://app?vid=f737e72f-6275-4c7a-9a5e-8d1906069737"},"vehicle_type_id":"4","last_reported":1751353933,"current_range_meters":16000,"station_id":"ce4bhhh2rcd13ifvqfk0","pricing_plan_id":"cebpf4jnsgd1na2vs0mg"},{"bike_id":"0a5a6df3-791d-4e1e-9f7c-cb1cf013a1c7","system_id":"levelo_inurba_marseille","lat":43.25701,"lon":5.41117,"is_reserved":false,"is_disabled":false,"rental_uris":{"android":"levelo://app?vid=0a5a6df3-791d-4e1e-9f7c-cb1cf013a1c7","ios":"levelo://app?vid=0a5a6df3-791d-4e1e-9f7c-cb1cf013a1c7"},"vehicle_type_id":"4","last_reported":1751353933,"current_range_meters":16000,"station_id":"ce4bhkp2rcd13ifvqgd0","pricing_plan_id":"cebpf4jnsgd1na2vs0mg"},{"bike_id":"8ad53220-e0dc-4223-912a-b0b7e0e87b8e","system_id":"levelo_inurba_marseille","lat":43.24528,"lon":5.39514,"is_reserved":false,"is_disabled":false,"rental_uris":{"android":"levelo://app?vid=8ad53220-e0dc-4223-912a-b0b7e0e87b8e","ios":"levelo://app?vid=8ad53220-e0dc-4223-912a-b0b7e0e87b8e"},"vehicle_type_id":"4","last_reported":1751353933,"current_range_meters":16000,"station_id":"ce4bhlp2rcd13ifvqgjg","pricing_plan_id":"cebpf4jnsgd1na2vs0mg"},{"bike_id":"9a406e73-3190-4b8a-854c-1ec656e8e6a4","system_id":"levelo_inurba_marseille","lat":43.259,"lon":5.40864,"is_reserved":false,"is_disabled":false,"rental_uris":{"android":"levelo://app?vid=9a406e73-3190-4b8a-854c-1ec656e8e6a4","ios":"levelo://app?vid=9a406e73-3190-4b8a-854c-1ec656e8e6a4"},"vehicle_type_id":"4","last_reported":1751353933,"current_range_meters":16000,"station_id":"ce4bhm92rcd13ifvqglg","pricing_plan_id":"cebpf4jnsgd1na2vs0mg"},{"bike_id":"619556f9-d690-41fc-bec7-102eac985518","system_id":"levelo_inurba_marseille","lat":43.34141,"lon":5.40907,"is_reserved":false,"is_disabled":false,"rental_uris":{"android":"levelo://app?vid=619556f9-d690-41fc-bec7-102eac985518","ios":"levelo://app?vid=619556f9-d690-41fc-bec7-102eac985518"},"vehicle_type_id":"4","last_reported":1751353933,"current_range_meters":16000,"station_id":"ce4bhqh2rcd13ifvqhlg","pricing_plan_id":"cebpf4jnsgd1na2vs0mg"},{"bike_id":"d67ecffe-4463-4724-8c61-0e1fce7455b0","system_id":"levelo_inurba_marseille","lat":43.323663,"lon":5.388858,"is_reserved":false,"is_disabled":false,"rental_uris":{"android":"levelo://app?vid=d67ecffe-4463-4724-8c61-0e1fce7455b0","ios":"levelo://app?vid=d67ecffe-4463-4724-8c61-0e1fce7455b0"},"vehicle_type_id":"4","last_reported":1751353933,"current_range_meters":16000,"station_id":"ce4bhqp2rcd13ifvqhog","pricing_plan_id":"cebpf4jnsgd1na2vs0mg"},{"bike_id":"5767b9e4-81ec-40bf-bccc-db289ba35b4e","system_id":"levelo_inurba_marseille","lat":43.273935,"lon":5.412252,"is_reserved":false,"is_disabled":false,"rental_uris":{"android":"levelo://app?vid=5767b9e4-81ec-40bf-bccc-db289ba35b4e","ios":"levelo://app?vid=5767b9e4-81ec-40bf-bccc-db289ba35b4e"},"vehicle_type_id":"4","last_reported":1751353933,"current_range_meters":16400,"station_id":"","pricing_plan_id":"cebpf4jnsgd1na2vs0mg"},{"bike_id":"35cc0109-3dcc-469c-ad64-af48ca0f7948","system_id":"levelo_inurba_marseille","lat":43.28443,"lon":5.392086,"is_reserved":false,"is_disabled":false,"rental_uris":{"android":"levelo://app?vid=35cc0109-3dcc-469c-ad64-af48ca0f7948","ios":"levelo://app?vid=35cc0109-3dcc-469c-ad64-af48ca0f7948"},"vehicle_type_id":"4","last_reported":1751353933,"current_range_meters":16400,"station_id":"ce4bhoh2rcd13ifvqh5g","pricing_plan_id":"cebpf4jnsgd1na2vs0mg"},{"bike_id":"1caca1fc-4911-4e37-9aeb-383803780faf","system_id":"levelo_inurba_marseille","lat":43.32109,"lon":5.36797,"is_reserved":false,"is_disabled":false,"rental_uris":{"android":"levelo://app?vid=1caca1fc-4911-4e37-9aeb-383803780faf","ios":"levelo://app?vid=1caca1fc-4911-4e37-9aeb-383803780faf"},"vehicle_type_id":"4","last_reported":1751353933,"current_range_meters":16400,"station_id":"ce4bhrh2rcd13ifvqhug","pricing_plan_id":"cebpf4jnsgd1na2vs0mg"},{"bike_id":"86fa6ce7-8cbe-47ff-b5d3-c2b4938fd05c","system_id":"levelo_inurba_marseille","lat":43.21169,"lon":5.34975,"is_reserved":false,"is_disabled":false,"rental_uris":{"android":"levelo://app?vid=86fa6ce7-8cbe-47ff-b5d3-c2b4938fd05c","ios":"levelo://app?vid=86fa6ce7-8cbe-47ff-b5d3-c2b4938fd05c"},"vehicle_type_id":"4","last_reported":1751353933,"current_range_meters":16800,"station_id":"","pricing_plan_id":"cebpf4jnsgd1na2vs0mg"},{"bike_id":"a0cef316-ad95-4855-8f78-a31341a2b90e","system_id":"levelo_inurba_marseille","lat":43.33094,"lon":5.37199,"is_reserved":false,"is_disabled":false,"rental_uris":{"android":"levelo://app?vid=a0cef316-ad95-4855-8f78-a31341a2b90e","ios":"levelo://app?vid=a0cef316-ad95-4855-8f78-a31341a2b90e"},"vehicle_type_id":"4","last_reported":1751353933,"current_range_meters":16800,"station_id":"","pricing_plan_id":"cebpf4jnsgd1na2vs0mg"},{"bike_id":"5a46c106-c1db-430d-9568-5f4bdc0c0dc4","system_id":"levelo_inurba_marseille","lat":43.29853,"lon":5.36281,"is_reserved":false,"is_disabled":false,"rental_uris":{"android":"levelo://app?vid=5a46c106-c1db-430d-9568-5f4bdc0c0dc4","ios":"levelo://app?vid=5a46c106-c1db-430d-9568-5f4bdc0c0dc4"},"vehicle_type_id":"4","last_reported":1751353933,"current_range_meters":16800,"station_id":"ce4bgpp2rcd13ifvqc3g","pricing_plan_id":"cebpf4jnsgd1na2vs0mg"},{"bike_id":"19bcfc68-34ab-47d9-88d5-6d38950ea76c","system_id":"levelo_inurba_marseille","lat":43.26065,"lon":5.39404,"is_reserved":false,"is_disabled":false,"rental_uris":{"android":"levelo://app?vid=19bcfc68-34ab-47d9-88d5-6d38950ea76c","ios":"levelo://app?vid=19bcfc68-34ab-47d9-88d5-6d38950ea76c"},"vehicle_type_id":"4","last_reported":1751353933,"current_range_meters":16800,"station_id":"ce4bhh92rcd13ifvqfj0","pricing_plan_id":"cebpf4jnsgd1na2vs0mg"},{"bike_id":"d511c51f-8937-4216-bba4-5a0c28873330","system_id":"levelo_inurba_marseille","lat":43.24171,"lon":5.39681,"is_reserved":false,"is_disabled":false,"rental_uris":{"android":"levelo://app?vid=d511c51f-8937-4216-bba4-5a0c28873330","ios":"levelo://app?vid=d511c51f-8937-4216-bba4-5a0c28873330"},"vehicle_type_id":"4","last_reported":1751353933,"current_range_meters":16800,"station_id":"ce4bhn12rcd13ifvqgpg","pricing_plan_id":"cebpf4jnsgd1na2vs0mg"},{"bike_id":"60aed5b4-04a7-4930-a9c4-5540cdbcfb8b","system_id":"levelo_inurba_marseille","lat":43.33746,"lon":5.37416,"is_reserved":false,"is_disabled":false,"rental_uris":{"android":"levelo://app?vid=60aed5b4-04a7-4930-a9c4-5540cdbcfb8b","ios":"levelo://app?vid=60aed5b4-04a7-4930-a9c4-5540cdbcfb8b"},"vehicle_type_id":"4","last_reported":1751353933,"current_range_meters":17200,"station_id":"","pricing_plan_id":"cebpf4jnsgd1na2vs0mg"},{"bike_id":"28f82bb1-42fa-42fe-b413-9a2b9de2728a","system_id":"levelo_inurba_marseille","lat":43.29249,"lon":5.37621,"is_reserved":false,"is_disabled":false,"rental_uris":{"android":"levelo://app?vid=28f82bb1-42fa-42fe-b413-9a2b9de2728a","ios":"levelo://app?vid=28f82bb1-42fa-42fe-b413-9a2b9de2728a"},"vehicle_type_id":"4","last_reported":1751353933,"current_range_meters":17200,"station_id":"ce4bgi12rcd13ifvqb80","pricing_plan_id":"cebpf4jnsgd1na2vs0mg"},{"bike_id":"adee5e5a-f89e-4c15-81b3-223b6edf027d","system_id":"levelo_inurba_marseille","lat":43.315,"lon":5.373,"is_reserved":false,"is_disabled":false,"rental_uris":{"android":"levelo://app?vid=adee5e5a-f89e-4c15-81b3-223b6edf027d","ios":"levelo://app?vid=adee5e5a-f89e-4c15-81b3-223b6edf027d"},"vehicle_type_id":"4","last_reported":1751353933,"current_range_meters":17200,"station_id":"ce4bgt12rcd13ifvqcd0","pricing_plan_id":"cebpf4jnsgd1na2vs0mg"},{"bike_id":"38d9a2ff-0be3-4f44-8b54-2799fb7949f3","system_id":"levelo_inurba_marseille","lat":43.24386,"lon":5.37063,"is_reserved":false,"is_disabled":false,"rental_uris":{"android":"levelo://app?vid=38d9a2ff-0be3-4f44-8b54-2799fb7949f3","ios":"levelo://app?vid=38d9a2ff-0be3-4f44-8b54-2799fb7949f3"},"vehicle_type_id":"4","last_reported":1751353933,"current_range_meters":17200,"station_id":"ce4bhhh2rcd13ifvqfk0","pricing_plan_id":"cebpf4jnsgd1na2vs0mg"},{"bike_id":"d2f72e45-6b0c-4b36-9924-deef3cd98510","system_id":"levelo_inurba_marseille","lat":43.27504,"lon":5.42465,"is_reserved":false,"is_disabled":false,"rental_uris":{"android":"levelo://app?vid=d2f72e45-6b0c-4b36-9924-deef3cd98510","ios":"levelo://app?vid=d2f72e45-6b0c-4b36-9924-deef3cd98510"},"vehicle_type_id":"4","last_reported":1751353933,"current_range_meters":17200,"station_id":"ce4bhn92rcd13ifvqgrg","pricing_plan_id":"cebpf4jnsgd1na2vs0mg"},{"bike_id":"3a33ebd2-49a2-4e39-92d7-f09d7dd08672","system_id":"levelo_inurba_marseille","lat":43.21175,"lon":5.35047,"is_reserved":false,"is_disabled":false,"rental_uris":{"android":"levelo://app?vid=3a33ebd2-49a2-4e39-92d7-f09d7dd08672","ios":"levelo://app?vid=3a33ebd2-49a2-4e39-92d7-f09d7dd08672"},"vehicle_type_id":"4","last_reported":1751353933,"current_range_meters":17200,"station_id":"st_cvj6sg6p6f1abm77japg","pricing_plan_id":"cebpf4jnsgd1na2vs0mg"},{"bike_id":"2bc25ca4-c28c-4335-a0aa-b132b20800b4","system_id":"levelo_inurba_marseille","lat":43.29418,"lon":5.37416,"is_reserved":false,"is_disabled":false,"rental_uris":{"android":"levelo://app?vid=2bc25ca4-c28c-4335-a0aa-b132b20800b4","ios":"levelo://app?vid=2bc25ca4-c28c-4335-a0aa-b132b20800b4"},"vehicle_type_id":"4","last_reported":1751353933,"current_range_meters":17600,"station_id":"","pricing_plan_id":"cebpf4jnsgd1na2vs0mg"},{"bike_id":"5ddf0d2e-ee6d-4f70-b3d5-741b8b537a51","system_id":"levelo_inurba_marseille","lat":43.307953,"lon":5.382688,"is_reserved":false,"is_disabled":false,"rental_uris":{"android":"levelo://app?vid=5ddf0d2e-ee6d-4f70-b3d5-741b8b537a51","ios":"levelo://app?vid=5ddf0d2e-ee6d-4f70-b3d5-741b8b537a51"},"vehicle_type_id":"4","last_reported":1751353933,"current_range_meters":17600,"station_id":"","pricing_plan_id":"cebpf4jnsgd1na2vs0mg"},{"bike_id":"1b1d2a55-7937-4e4f-8e1d-0772a66cddb7","system_id":"levelo_inurba_marseille","lat":43.28618,"lon":5.35097,"is_reserved":false,"is_disabled":false,"rental_uris":{"android":"levelo://app?vid=1b1d2a55-7937-4e4f-8e1d-0772a66cddb7","ios":"levelo://app?vid=1b1d2a55-7937-4e4f-8e1d-0772a66cddb7"},"vehicle_type_id":"4","last_reported":1751353933,"current_range_meters":17600,"station_id":"ce4bhch2rcd13ifvqeug","pricing_plan_id":"cebpf4jnsgd1na2vs0mg"},{"bike_id":"56a9936e-4abc-4d84-a695-0c441f64a3d8","system_id":"levelo_inurba_marseille","lat":43.27326,"lon":5.39089,"is_reserved":false,"is_disabled":false,"rental_uris":{"android":"levelo://app?vid=56a9936e-4abc-4d84-a695-0c441f64a3d8","ios":"levelo://app?vid=56a9936e-4abc-4d84-a695-0c441f64a3d8"},"vehicle_type_id":"4","last_reported":1751353933,"current_range_meters":17600,"station_id":"ce4bhgp2rcd13ifvqfe0","pricing_plan_id":"cebpf4jnsgd1na2vs0mg"},{"bike_id":"fc7e8355-f532-43ec-9e4c-45a0bcaf9efb","system_id":"levelo_inurba_marseille","lat":43.23149,"lon":5.43709,"is_reserved":false,"is_disabled":false,"rental_uris":{"android":"levelo://app?vid=fc7e8355-f532-43ec-9e4c-45a0bcaf9efb","ios":"levelo://app?vid=fc7e8355-f532-43ec-9e4c-45a0bcaf9efb"},"vehicle_type_id":"4","last_reported":1751353933,"current_range_meters":17600,"station_id":"ce4bhmp2rcd13ifvqgog","pricing_plan_id":"cebpf4jnsgd1na2vs0mg"},{"bike_id":"539ed013-9e80-448a-999f-a7819f54786a","system_id":"levelo_inurba_marseille","lat":43.290309,"lon":5.375668,"is_reserved":false,"is_disabled":false,"rental_uris":{"android":"levelo://app?vid=539ed013-9e80-448a-999f-a7819f54786a","ios":"levelo://app?vid=539ed013-9e80-448a-999f-a7819f54786a"},"vehicle_type_id":"4","last_reported":1751353933,"current_range_meters":18000,"station_id":"","pricing_plan_id":"cebpf4jnsgd1na2vs0mg"},{"bike_id":"87fc5543-3ec4-42b4-9a24-dd59e17f4f17","system_id":"levelo_inurba_marseille","lat":43.318229,"lon":5.38489,"is_reserved":false,"is_disabled":false,"rental_uris":{"android":"levelo://app?vid=87fc5543-3ec4-42b4-9a24-dd59e17f4f17","ios":"levelo://app?vid=87fc5543-3ec4-42b4-9a24-dd59e17f4f17"},"vehicle_type_id":"4","last_reported":1751353933,"current_range_meters":18000,"station_id":"","pricing_plan_id":"cebpf4jnsgd1na2vs0mg"},{"bike_id":"dfd706f7-c36b-4327-ae12-de27efbf2b48","system_id":"levelo_inurba_marseille","lat":43.25002,"lon":5.38927,"is_reserved":false,"is_disabled":false,"rental_uris":{"android":"levelo://app?vid=dfd706f7-c36b-4327-ae12-de27efbf2b48","ios":"levelo://app?vid=dfd706f7-c36b-4327-ae12-de27efbf2b48"},"vehicle_type_id":"4","last_reported":1751353933,"current_range_meters":18000,"station_id":"ce4bhgp2rcd13ifvqfd0","pricing_plan_id":"cebpf4jnsgd1na2vs0mg"},{"bike_id":"6237f4e8-2651-457b-a795-5f0b58a1dcbb","system_id":"levelo_inurba_marseille","lat":43.32363,"lon":5.389,"is_reserved":false,"is_disabled":false,"rental_uris":{"android":"levelo://app?vid=6237f4e8-2651-457b-a795-5f0b58a1dcbb","ios":"levelo://app?vid=6237f4e8-2651-457b-a795-5f0b58a1dcbb"},"vehicle_type_id":"4","last_reported":1751353933,"current_range_meters":18000,"station_id":"ce4bhqp2rcd13ifvqhog","pricing_plan_id":"cebpf4jnsgd1na2vs0mg"},{"bike_id":"0c1b4f74-5294-4b59-932d-b742ce647d9e","system_id":"levelo_inurba_marseille","lat":43.211923,"lon":5.35065,"is_reserved":false,"is_disabled":false,"rental_uris":{"android":"levelo://app?vid=0c1b4f74-5294-4b59-932d-b742ce647d9e","ios":"levelo://app?vid=0c1b4f74-5294-4b59-932d-b742ce647d9e"},"vehicle_type_id":"4","last_reported":1751353933,"current_range_meters":18000,"station_id":"st_cvj6sg6p6f1abm77japg","pricing_plan_id":"cebpf4jnsgd1na2vs0mg"},{"bike_id":"8a74f5cd-9efa-4362-bea7-a32db4dcc85c","system_id":"levelo_inurba_marseille","lat":43.211943,"lon":5.350719,"is_reserved":false,"is_disabled":false,"rental_uris":{"android":"levelo://app?vid=8a74f5cd-9efa-4362-bea7-a32db4dcc85c","ios":"levelo://app?vid=8a74f5cd-9efa-4362-bea7-a32db4dcc85c"},"vehicle_type_id":"4","last_reported":1751353933,"current_range_meters":18000,"station_id":"st_cvj6sg6p6f1abm77japg","pricing_plan_id":"cebpf4jnsgd1na2vs0mg"},{"bike_id":"49d6cdd2-de1a-4037-8e83-22ca7bcfc325","system_id":"levelo_inurba_marseille","lat":43.25518,"lon":5.37473,"is_reserved":false,"is_disabled":false,"rental_uris":{"android":"levelo://app?vid=49d6cdd2-de1a-4037-8e83-22ca7bcfc325","ios":"levelo://app?vid=49d6cdd2-de1a-4037-8e83-22ca7bcfc325"},"vehicle_type_id":"4","last_reported":1751353933,"current_range_meters":18800,"station_id":"","pricing_plan_id":"cebpf4jnsgd1na2vs0mg"},{"bike_id":"934beea3-881e-4441-a5ff-95e7b68ba97b","system_id":"levelo_inurba_marseille","lat":43.344259,"lon":5.359664,"is_reserved":false,"is_disabled":false,"rental_uris":{"android":"levelo://app?vid=934beea3-881e-4441-a5ff-95e7b68ba97b","ios":"levelo://app?vid=934beea3-881e-4441-a5ff-95e7b68ba97b"},"vehicle_type_id":"4","last_reported":1751353933,"current_range_meters":18800,"station_id":"","pricing_plan_id":"cebpf4jnsgd1na2vs0mg"},{"bike_id":"d2fe2280-9dda-4f08-822f-aa45767453bf","system_id":"levelo_inurba_marseille","lat":43.31359,"lon":5.36754,"is_reserved":false,"is_disabled":false,"rental_uris":{"android":"levelo://app?vid=d2fe2280-9dda-4f08-822f-aa45767453bf","ios":"levelo://app?vid=d2fe2280-9dda-4f08-822f-aa45767453bf"},"vehicle_type_id":"4","last_reported":1751353933,"current_range_meters":18800,"station_id":"ce4bgr92rcd13ifvqc6g","pricing_plan_id":"cebpf4jnsgd1na2vs0mg"},{"bike_id":"e95b9fb1-3e4d-4a82-beb3-1a44b6cb7cd4","system_id":"levelo_inurba_marseille","lat":43.30187,"lon":5.36626,"is_reserved":false,"is_disabled":false,"rental_uris":{"android":"levelo://app?vid=e95b9fb1-3e4d-4a82-beb3-1a44b6cb7cd4","ios":"levelo://app?vid=e95b9fb1-3e4d-4a82-beb3-1a44b6cb7cd4"},"vehicle_type_id":"4","last_reported":1751353933,"current_range_meters":18800,"station_id":"ce4bgrh2rcd13ifvqc8g","pricing_plan_id":"cebpf4jnsgd1na2vs0mg"},{"bike_id":"05fb024d-da69-460a-97a4-64585b00ede4","system_id":"levelo_inurba_marseille","lat":43.30947,"lon":5.39037,"is_reserved":false,"is_disabled":false,"rental_uris":{"android":"levelo://app?vid=05fb024d-da69-460a-97a4-64585b00ede4","ios":"levelo://app?vid=05fb024d-da69-460a-97a4-64585b00ede4"},"vehicle_type_id":"4","last_reported":1751353933,"current_range_meters":18800,"station_id":"ce4bgup2rcd13ifvqco0","pricing_plan_id":"cebpf4jnsgd1na2vs0mg"},{"bike_id":"91598fa1-9ce2-4da0-9424-e1bba320503d","system_id":"levelo_inurba_marseille","lat":43.31699,"lon":5.40473,"is_reserved":false,"is_disabled":false,"rental_uris":{"android":"levelo://app?vid=91598fa1-9ce2-4da0-9424-e1bba320503d","ios":"levelo://app?vid=91598fa1-9ce2-4da0-9424-e1bba320503d"},"vehicle_type_id":"4","last_reported":1751353933,"current_range_meters":18800,"station_id":"ce4bh012rcd13ifvqd00","pricing_plan_id":"cebpf4jnsgd1na2vs0mg"},{"bike_id":"c2cc3873-3136-4ba7-984d-6514f2a6bcc2","system_id":"levelo_inurba_marseille","lat":43.26692,"lon":5.3827,"is_reserved":false,"is_disabled":false,"rental_uris":{"android":"levelo://app?vid=c2cc3873-3136-4ba7-984d-6514f2a6bcc2","ios":"levelo://app?vid=c2cc3873-3136-4ba7-984d-6514f2a6bcc2"},"vehicle_type_id":"4","last_reported":1751353933,"current_range_meters":18800,"station_id":"ce4bhg92rcd13ifvqf90","pricing_plan_id":"cebpf4jnsgd1na2vs0mg"},{"bike_id":"adaf6da9-8a3f-43a0-9a23-672b81d3b2f9","system_id":"levelo_inurba_marseille","lat":43.259363,"lon":5.398556,"is_reserved":false,"is_disabled":false,"rental_uris":{"android":"levelo://app?vid=adaf6da9-8a3f-43a0-9a23-672b81d3b2f9","ios":"levelo://app?vid=adaf6da9-8a3f-43a0-9a23-672b81d3b2f9"},"vehicle_type_id":"4","last_reported":1751353933,"current_range_meters":18800,"station_id":"ce4bhl92rcd13ifvqghg","pricing_plan_id":"cebpf4jnsgd1na2vs0mg"},{"bike_id":"4ab4ef41-0136-4387-8340-6ca6efc57796","system_id":"levelo_inurba_marseille","lat":43.25937,"lon":5.40903,"is_reserved":false,"is_disabled":false,"rental_uris":{"android":"levelo://app?vid=4ab4ef41-0136-4387-8340-6ca6efc57796","ios":"levelo://app?vid=4ab4ef41-0136-4387-8340-6ca6efc57796"},"vehicle_type_id":"4","last_reported":1751353933,"current_range_meters":18800,"station_id":"ce4bhm92rcd13ifvqglg","pricing_plan_id":"cebpf4jnsgd1na2vs0mg"},{"bike_id":"71aa4e0e-bd3c-4f4d-8b5a-4e875f4be5f7","system_id":"levelo_inurba_marseille","lat":43.23152,"lon":5.43704,"is_reserved":false,"is_disabled":false,"rental_uris":{"android":"levelo://app?vid=71aa4e0e-bd3c-4f4d-8b5a-4e875f4be5f7","ios":"levelo://app?vid=71aa4e0e-bd3c-4f4d-8b5a-4e875f4be5f7"},"vehicle_type_id":"4","last_reported":1751353933,"current_range_meters":18800,"station_id":"ce4bhmp2rcd13ifvqgog","pricing_plan_id":"cebpf4jnsgd1na2vs0mg"},{"bike_id":"9129c1cb-171c-44e3-a25d-267650254388","system_id":"levelo_inurba_marseille","lat":43.2418,"lon":5.39724,"is_reserved":false,"is_disabled":false,"rental_uris":{"android":"levelo://app?vid=9129c1cb-171c-44e3-a25d-267650254388","ios":"levelo://app?vid=9129c1cb-171c-44e3-a25d-267650254388"},"vehicle_type_id":"4","last_reported":1751353933,"current_range_meters":18800,"station_id":"ce4bhn12rcd13ifvqgpg","pricing_plan_id":"cebpf4jnsgd1na2vs0mg"},{"bike_id":"34c1f271-445e-4382-9172-52190bc6a97c","system_id":"levelo_inurba_marseille","lat":43.32072,"lon":5.36827,"is_reserved":false,"is_disabled":false,"rental_uris":{"android":"levelo://app?vid=34c1f271-445e-4382-9172-52190bc6a97c","ios":"levelo://app?vid=34c1f271-445e-4382-9172-52190bc6a97c"},"vehicle_type_id":"4","last_reported":1751353933,"current_range_meters":19200,"station_id":"","pricing_plan_id":"cebpf4jnsgd1na2vs0mg"},{"bike_id":"fdcc33b3-b27b-4fd9-90cb-c9421efe9db6","system_id":"levelo_inurba_marseille","lat":43.27805,"lon":5.4144,"is_reserved":false,"is_disabled":false,"rental_uris":{"android":"levelo://app?vid=fdcc33b3-b27b-4fd9-90cb-c9421efe9db6","ios":"levelo://app?vid=fdcc33b3-b27b-4fd9-90cb-c9421efe9db6"},"vehicle_type_id":"4","last_reported":1751353933,"current_range_meters":19200,"station_id":"","pricing_plan_id":"cebpf4jnsgd1na2vs0mg"},{"bike_id":"e377ad73-929d-4530-a078-18d48c0aea73","system_id":"levelo_inurba_marseille","lat":43.3134,"lon":5.36725,"is_reserved":false,"is_disabled":false,"rental_uris":{"android":"levelo://app?vid=e377ad73-929d-4530-a078-18d48c0aea73","ios":"levelo://app?vid=e377ad73-929d-4530-a078-18d48c0aea73"},"vehicle_type_id":"4","last_reported":1751353933,"current_range_meters":19200,"station_id":"ce4bgr92rcd13ifvqc6g","pricing_plan_id":"cebpf4jnsgd1na2vs0mg"},{"bike_id":"b81d87f9-7b0e-48e3-a236-5dd119a75aba","system_id":"levelo_inurba_marseille","lat":43.29636,"lon":5.40591,"is_reserved":false,"is_disabled":false,"rental_uris":{"android":"levelo://app?vid=b81d87f9-7b0e-48e3-a236-5dd119a75aba","ios":"levelo://app?vid=b81d87f9-7b0e-48e3-a236-5dd119a75aba"},"vehicle_type_id":"4","last_reported":1751353933,"current_range_meters":19200,"station_id":"ce4bh0h2rcd13ifvqd60","pricing_plan_id":"cebpf4jnsgd1na2vs0mg"},{"bike_id":"aa2ced8d-0bcf-49a5-b4aa-832ffefb17b0","system_id":"levelo_inurba_marseille","lat":43.26969,"lon":5.38647,"is_reserved":false,"is_disabled":false,"rental_uris":{"android":"levelo://app?vid=aa2ced8d-0bcf-49a5-b4aa-832ffefb17b0","ios":"levelo://app?vid=aa2ced8d-0bcf-49a5-b4aa-832ffefb17b0"},"vehicle_type_id":"4","last_reported":1751353933,"current_range_meters":19200,"station_id":"ce4bhh92rcd13ifvqfh0","pricing_plan_id":"cebpf4jnsgd1na2vs0mg"},{"bike_id":"afb78327-cc2c-423c-9e7b-9e6a58647879","system_id":"levelo_inurba_marseille","lat":43.336825,"lon":5.392235,"is_reserved":false,"is_disabled":false,"rental_uris":{"android":"levelo://app?vid=afb78327-cc2c-423c-9e7b-9e6a58647879","ios":"levelo://app?vid=afb78327-cc2c-423c-9e7b-9e6a58647879"},"vehicle_type_id":"4","last_reported":1751353933,"current_range_meters":19200,"station_id":"ce4bhr92rcd13ifvqhsg","pricing_plan_id":"cebpf4jnsgd1na2vs0mg"},{"bike_id":"1e819c9f-b15e-4fb3-9d36-42728b7c5953","system_id":"levelo_inurba_marseille","lat":43.295202,"lon":5.37497,"is_reserved":false,"is_disabled":false,"rental_uris":{"android":"levelo://app?vid=1e819c9f-b15e-4fb3-9d36-42728b7c5953","ios":"levelo://app?vid=1e819c9f-b15e-4fb3-9d36-42728b7c5953"},"vehicle_type_id":"4","last_reported":1751353933,"current_range_meters":19600,"station_id":"","pricing_plan_id":"cebpf4jnsgd1na2vs0mg"},{"bike_id":"f00e3044-9bd1-48b5-b342-151af21b34fa","system_id":"levelo_inurba_marseille","lat":43.29972,"lon":5.37418,"is_reserved":false,"is_disabled":false,"rental_uris":{"android":"levelo://app?vid=f00e3044-9bd1-48b5-b342-151af21b34fa","ios":"levelo://app?vid=f00e3044-9bd1-48b5-b342-151af21b34fa"},"vehicle_type_id":"4","last_reported":1751353933,"current_range_meters":19600,"station_id":"","pricing_plan_id":"cebpf4jnsgd1na2vs0mg"},{"bike_id":"24f49446-878f-4d89-8632-bc3f566303ac","system_id":"levelo_inurba_marseille","lat":43.29801,"lon":5.40399,"is_reserved":false,"is_disabled":false,"rental_uris":{"android":"levelo://app?vid=24f49446-878f-4d89-8632-bc3f566303ac","ios":"levelo://app?vid=24f49446-878f-4d89-8632-bc3f566303ac"},"vehicle_type_id":"4","last_reported":1751353933,"current_range_meters":19600,"station_id":"ce4bh112rcd13ifvqd90","pricing_plan_id":"cebpf4jnsgd1na2vs0mg"},{"bike_id":"8b90ef18-13e8-4441-b1c5-b55de6a43ef3","system_id":"levelo_inurba_marseille","lat":43.25003,"lon":5.38904,"is_reserved":false,"is_disabled":false,"rental_uris":{"android":"levelo://app?vid=8b90ef18-13e8-4441-b1c5-b55de6a43ef3","ios":"levelo://app?vid=8b90ef18-13e8-4441-b1c5-b55de6a43ef3"},"vehicle_type_id":"4","last_reported":1751353933,"current_range_meters":19600,"station_id":"ce4bhgp2rcd13ifvqfd0","pricing_plan_id":"cebpf4jnsgd1na2vs0mg"},{"bike_id":"bfff55ec-c042-41ae-9609-61acc7995c24","system_id":"levelo_inurba_marseille","lat":43.25701,"lon":5.4111,"is_reserved":false,"is_disabled":false,"rental_uris":{"android":"levelo://app?vid=bfff55ec-c042-41ae-9609-61acc7995c24","ios":"levelo://app?vid=bfff55ec-c042-41ae-9609-61acc7995c24"},"vehicle_type_id":"4","last_reported":1751353933,"current_range_meters":19600,"station_id":"ce4bhkp2rcd13ifvqgd0","pricing_plan_id":"cebpf4jnsgd1na2vs0mg"},{"bike_id":"e31e836f-4d78-4150-991d-733312dc62de","system_id":"levelo_inurba_marseille","lat":43.23152,"lon":5.43709,"is_reserved":false,"is_disabled":false,"rental_uris":{"android":"levelo://app?vid=e31e836f-4d78-4150-991d-733312dc62de","ios":"levelo://app?vid=e31e836f-4d78-4150-991d-733312dc62de"},