{"last_updated":1678658777,"ttl":30,"version":"2.2","data":{"bikes":[{"bike_id":"88d825bd-1084-41a2-8fcf-bb17e4c9bc74","system_id":"levelo_inurba_marseille","lat":43.312238,"lon":5.368548,"is_reserved":false,"is_disabled":false,"rental_uris":{"android":"levelo://app?vid=88d825bd-1084-41a2-8fcf-bb17e4c9bc74","ios":"levelo://app?vid=88d825bd-1084-41a2-8fcf-bb17e4c9bc74"},"vehicle_type_id":"4","last_reported":1678658778,"current_range_meters":0,"station_id":"ce4bgl92rcd13ifvqbq0","pricing_plan_id":"free"},{"bike_id":"4d15af71-ce92-48ba-89d4-4637f9e6765e","system_id":"levelo_inurba_marseille","lat":43.30903,"lon":5.36852,"is_reserved":false,"is_disabled":false,"rental_uris":{"android":"levelo://app?vid=4d15af71-ce92-48ba-89d4-4637f9e6765e","ios":"levelo://app?vid=4d15af71-ce92-48ba-89d4-4637f9e6765e"},"vehicle_type_id":"4","last_reported":1678658778,"current_range_meters":6000,"station_id":"ce4bgn92rcd13ifvqbvg","pricing_plan_id":"free"},{"bike_id":"7872cf87-b7b6-446d-9d6e-0ec9109b7d30","system_id":"levelo_inurba_marseille","lat":43.314811,"lon":5.373103,"is_reserved":false,"is_disabled":false,"rental_uris":{"android":"levelo://app?vid=7872cf87-b7b6-446d-9d6e-0ec9109b7d30","ios":"levelo://app?vid=7872cf87-b7b6-446d-9d6e-0ec9109b7d30"},"vehicle_type_id":"4","last_reported":1678658778,"current_range_meters":21200,"station_id":"ce4bgt12rcd13ifvqcd0","pricing_plan_id":"free"},{"bike_id":"2e3fbdd5-03d0-4fa9-8229-c7c24b251619","system_id":"levelo_inurba_marseille","lat":43.314811,"lon":5.373103,"is_reserved":false,"is_disabled":false,"rental_uris":{"android":"levelo://app?vid=2e3fbdd5-03d0-4fa9-8229-c7c24b251619","ios":"levelo://app?vid=2e3fbdd5-03d0-4fa9-8229-c7c24b251619"},"vehicle_type_id":"4","last_reported":1678658778,"current_range_meters":1600,"station_id":"ce4bgt12rcd13ifvqcd0","pricing_plan_id":"free"},{"bike_id":"38276e06-da52-4027-9485-99eee2c18dfc","system_id":"levelo_inurba_marseille","lat":43.308614,"lon":5.372098,"is_reserved":false,"is_disabled":false,"rental_uris":{"android":"levelo://app?vid=38276e06-da52-4027-9485-99eee2c18dfc","ios":"levelo://app?vid=38276e06-da52-4027-9485-99eee2c18dfc"},"vehicle_type_id":"4","last_reported":1678658778,"current_range_meters":6000,"station_id":"ce4bguh2rcd13ifvqckg","pricing_plan_id":"free"},{"bike_id":"f3ace9cc-c937-4870-8f6b-3d624cc6a846","system_id":"levelo_inurba_marseille","lat":43.30901,"lon":5.37198,"is_reserved":false,"is_disabled":false,"rental_uris":{"android":"levelo://app?vid=f3ace9cc-c937-4870-8f6b-3d624cc6a846","ios":"levelo://app?vid=f3ace9cc-c937-4870-8f6b-3d624cc6a846"},"vehicle_type_id":"4","last_reported":1678658778,"current_range_meters":29200,"station_id":"","pricing_plan_id":"free"},{"bike_id":"90fd7cfc-4968-43ec-b84d-5b4461fc4ba8","system_id":"levelo_inurba_marseille","lat":43.308614,"lon":5.372098,"is_reserved":false,"is_disabled":false,"rental_uris":{"android":"levelo://app?vid=90fd7cfc-4968-43ec-b84d-5b4461fc4ba8","ios":"levelo://app?vid=90fd7cfc-4968-43ec-b84d-5b4461fc4ba8"},"vehicle_type_id":"4","last_reported":1678658778,"current_range_meters":7200,"station_id":"ce4bguh2rcd13ifvqckg","pricing_plan_id":"free"},{"bike_id":"d3b7500b-b7b5-4e02-a9b7-083c4c02fb64","system_id":"levelo_inurba_marseille","lat":43.30888,"lon":5.371855,"is_reserved":false,"is_disabled":false,"rental_uris":{"android":"levelo://app?vid=d3b7500b-b7b5-4e02-a9b7-083c4c02fb64","ios":"levelo://app?vid=d3b7500b-b7b5-4e02-a9b7-083c4c02fb64"},"vehicle_type_id":"4","last_reported":1678658778,"current_range_meters":21200,"station_id":"","pricing_plan_id":"free"},{"bike_id":"bdd507db-2926-48ef-bd6d-701810ae1d44","system_id":"levelo_inurba_marseille","lat":43.309014,"lon":5.372148,"is_reserved":false,"is_disabled":false,"rental_uris":{"android":"levelo://app?vid=bdd507db-2926-48ef-bd6d-701810ae1d44","ios":"levelo://app?vid=bdd507db-2926-48ef-bd6d-701810ae1d44"},"vehicle_type_id":"4","last_reported":1678658778,"current_range_meters":0,"station_id":"","pricing_plan_id":"free"},{"bike_id":"c9fe639e-ea51-4057-92d6-ce33a5612b04","system_id":"levelo_inurba_marseille","lat":43.305989,"lon":5.37225,"is_reserved":false,"is_disabled":false,"rental_uris":{"android":"levelo://app?vid=c9fe639e-ea51-4057-92d6-ce33a5612b04","ios":"levelo://app?vid=c9fe639e-ea51-4057-92d6-ce33a5612b04"},"vehicle_type_id":"4","last_reported":1678658778,"current_range_meters":3200,"station_id":"ce4bgqh2rcd13ifvqc4g","pricing_plan_id":"free"},{"bike_id":"b21be7c1-a5dc-4735-90e7-f4f4fdc9540b","system_id":"levelo_inurba_marseille","lat":43.305989,"lon":5.37225,"is_reserved":false,"is_disabled":false,"rental_uris":{"android":"levelo://app?vid=b21be7c1-a5dc-4735-90e7-f4f4fdc9540b","ios":"levelo://app?vid=b21be7c1-a5dc-4735-90e7-f4f4fdc9540b"},"vehicle_type_id":"4","last_reported":1678658778,"current_range_meters":24400,"station_id":"ce4bgqh2rcd13ifvqc4g","pricing_plan_id":"free"},{"bike_id":"4ec4a2b4-1fa1-4ded-8a52-5888f3e9051a","system_id":"levelo_inurba_marseille","lat":43.305989,"lon":5.37225,"is_reserved":false,"is_disabled":false,"rental_uris":{"android":"levelo://app?vid=4ec4a2b4-1fa1-4ded-8a52-5888f3e9051a","ios":"levelo://app?vid=4ec4a2b4-1fa1-4ded-8a52-5888f3e9051a"},"vehicle_type_id":"4","last_reported":1678658778,"current_range_meters":21200,"station_id":"ce4bgqh2rcd13ifvqc4g","pricing_plan_id":"free"},{"bike_id":"07aa4c72-b98a-4b43-ad03-6b55343b427a","system_id":"levelo_inurba_marseille","lat":43.305989,"lon":5.37225,"is_reserved":false,"is_disabled":false,"rental_uris":{"android":"levelo://app?vid=07aa4c72-b98a-4b43-ad03-6b55343b427a","ios":"levelo://app?vid=07aa4c72-b98a-4b43-ad03-6b55343b427a"},"vehicle_type_id":"4","last_reported":1678658778,"current_range_meters":2800,"station_id":"ce4bgqh2rcd13ifvqc4g","pricing_plan_id":"free"},{"bike_id":"5d28e191-68a2-4d9b-93f2-9df0ef9c4637","system_id":"levelo_inurba_marseille","lat":43.317075,"lon":5.377367,"is_reserved":false,"is_disabled":false,"rental_uris":{"android":"levelo://app?vid=5d28e191-68a2-4d9b-93f2-9df0ef9c4637","ios":"levelo://app?vid=5d28e191-68a2-4d9b-93f2-9df0ef9c4637"},"vehicle_type_id":"4","last_reported":1678658778,"current_range_meters":9600,"station_id":"ce4bgth2rcd13ifvqch0","pricing_plan_id":"free"},{"bike_id":"d90fac98-62fd-41cc-947b-3496fb0495c1","system_id":"levelo_inurba_marseille","lat":43.30342,"lon":5.37255,"is_reserved":false,"is_disabled":false,"rental_uris":{"android":"levelo://app?vid=d90fac98-62fd-41cc-947b-3496fb0495c1","ios":"levelo://app?vid=d90fac98-62fd-41cc-947b-3496fb0495c1"},"vehicle_type_id":"4","last_reported":1678658778,"current_range_meters":0,"station_id":"","pricing_plan_id":"free"},{"bike_id":"0a79e296-b562-44fd-a1ac-48a8973b0aa0","system_id":"levelo_inurba_marseille","lat":43.301939,"lon":5.366286,"is_reserved":false,"is_disabled":false,"rental_uris":{"android":"levelo://app?vid=0a79e296-b562-44fd-a1ac-48a8973b0aa0","ios":"levelo://app?vid=0a79e296-b562-44fd-a1ac-48a8973b0aa0"},"vehicle_type_id":"4","last_reported":1678658778,"current_range_meters":18400,"station_id":"ce4bgrh2rcd13ifvqc8g","pricing_plan_id":"free"},{"bike_id":"1f199f43-2485-47a6-ba50-d4f8a8743855","system_id":"levelo_inurba_marseille","lat":43.301939,"lon":5.366286,"is_reserved":false,"is_disabled":false,"rental_uris":{"android":"levelo://app?vid=1f199f43-2485-47a6-ba50-d4f8a8743855","ios":"levelo://app?vid=1f199f43-2485-47a6-ba50-d4f8a8743855"},"vehicle_type_id":"4","last_reported":1678658778,"current_range_meters":18400,"station_id":"ce4bgrh2rcd13ifvqc8g","pricing_plan_id":"free"},{"bike_id":"827affda-5a6e-44f0-b754-8589d81dec5b","system_id":"levelo_inurba_marseille","lat":43.30811,"lon":5.38162,"is_reserved":false,"is_disabled":false,"rental_uris":{"android":"levelo://app?vid=827affda-5a6e-44f0-b754-8589d81dec5b","ios":"levelo://app?vid=827affda-5a6e-44f0-b754-8589d81dec5b"},"vehicle_type_id":"4","last_reported":1678658778,"current_range_meters":22800,"station_id":"ce4bgt12rcd13ifvqce0","pricing_plan_id":"free"},{"bike_id":"1ad7add5-bb89-47b4-bf53-c060f93b0059","system_id":"levelo_inurba_marseille","lat":43.30811,"lon":5.38165,"is_reserved":false,"is_disabled":false,"rental_uris":{"android":"levelo://app?vid=1ad7add5-bb89-47b4-bf53-c060f93b0059","ios":"levelo://app?vid=1ad7add5-bb89-47b4-bf53-c060f93b0059"},"vehicle_type_id":"4","last_reported":1678658778,"current_range_meters":16000,"station_id":"ce4bgt12rcd13ifvqce0","pricing_plan_id":"free"},{"bike_id":"2ce14192-c235-45fb-b918-af1c8a56fbc3","system_id":"levelo_inurba_marseille","lat":43.3081,"lon":5.38172,"is_reserved":false,"is_disabled":false,"rental_uris":{"android":"levelo://app?vid=2ce14192-c235-45fb-b918-af1c8a56fbc3","ios":"levelo://app?vid=2ce14192-c235-45fb-b918-af1c8a56fbc3"},"vehicle_type_id":"4","last_reported":1678658778,"current_range_meters":22400,"station_id":"ce4bgt12rcd13ifvqce0","pricing_plan_id":"free"},{"bike_id":"e14b6ff8-df08-408b-ac46-2487556abe2c","system_id":"levelo_inurba_marseille","lat":43.313571,"lon":5.384829,"is_reserved":false,"is_disabled":false,"rental_uris":{"android":"levelo://app?vid=e14b6ff8-df08-408b-ac46-2487556abe2c","ios":"levelo://app?vid=e14b6ff8-df08-408b-ac46-2487556abe2c"},"vehicle_type_id":"4","last_reported":1678658778,"current_range_meters":18000,"station_id":"ce4bgt92rcd13ifvqcf0","pricing_plan_id":"free"},{"bike_id":"aad19918-d929-4ad6-8493-923dd236651c","system_id":"levelo_inurba_marseille","lat":43.313571,"lon":5.384829,"is_reserved":false,"is_disabled":false,"rental_uris":{"android":"levelo://app?vid=aad19918-d929-4ad6-8493-923dd236651c","ios":"levelo://app?vid=aad19918-d929-4ad6-8493-923dd236651c"},"vehicle_type_id":"4","last_reported":1678658778,"current_range_meters":11200,"station_id":"ce4bgt92rcd13ifvqcf0","pricing_plan_id":"free"},{"bike_id":"e2ee1247-3ed7-4e87-a5c6-d7dc46f09e62","system_id":"levelo_inurba_marseille","lat":43.313571,"lon":5.384829,"is_reserved":false,"is_disabled":false,"rental_uris":{"android":"levelo://app?vid=e2ee1247-3ed7-4e87-a5c6-d7dc46f09e62","ios":"levelo://app?vid=e2ee1247-3ed7-4e87-a5c6-d7dc46f09e62"},"vehicle_type_id":"4","last_reported":1678658778,"current_range_meters":8800,"station_id":"ce4bgt92rcd13ifvqcf0","pricing_plan_id":"free"},{"bike_id":"0e65b366-b800-4614-a4f2-a9c098a81eb2","system_id":"levelo_inurba_marseille","lat":43.313571,"lon":5.384829,"is_reserved":false,"is_disabled":false,"rental_uris":{"android":"levelo://app?vid=0e65b366-b800-4614-a4f2-a9c098a81eb2","ios":"levelo://app?vid=0e65b366-b800-4614-a4f2-a9c098a81eb2"},"vehicle_type_id":"4","last_reported":1678658778,"current_range_meters":24000,"station_id":"ce4bgt92rcd13ifvqcf0","pricing_plan_id":"free"},{"bike_id":"1a559376-67e8-4cec-8f39-fc556a884b4c","system_id":"levelo_inurba_marseille","lat":43.298433,"lon":5.362774,"is_reserved":false,"is_disabled":false,"rental_uris":{"android":"levelo://app?vid=1a559376-67e8-4cec-8f39-fc556a884b4c","ios":"levelo://app?vid=1a559376-67e8-4cec-8f39-fc556a884b4c"},"vehicle_type_id":"4","last_reported":1678658778,"current_range_meters":8400,"station_id":"ce4bgpp2rcd13ifvqc3g","pricing_plan_id":"free"},{"bike_id":"2bf9db1d-7d87-4449-81e5-c1cf8cac5160","system_id":"levelo_inurba_marseille","lat":43.298433,"lon":5.362774,"is_reserved":false,"is_disabled":false,"rental_uris":{"android":"levelo://app?vid=2bf9db1d-7d87-4449-81e5-c1cf8cac5160","ios":"levelo://app?vid=2bf9db1d-7d87-4449-81e5-c1cf8cac5160"},"vehicle_type_id":"4","last_reported":1678658778,"current_range_meters":12800,"station_id":"ce4bgpp2rcd13ifvqc3g","pricing_plan_id":"free"},{"bike_id":"e9a9a892-9d80-432c-a9dd-992c3df74f98","system_id":"levelo_inurba_marseille","lat":43.311722,"lon":5.387247,"is_reserved":false,"is_disabled":false,"rental_uris":{"android":"levelo://app?vid=e9a9a892-9d80-432c-a9dd-992c3df74f98","ios":"levelo://app?vid=e9a9a892-9d80-432c-a9dd-992c3df74f98"},"vehicle_type_id":"4","last_reported":1678658778,"current_range_meters":19200,"station_id":"ce4bgv12rcd13ifvqcp0","pricing_plan_id":"free"},{"bike_id":"9cc133f7-327f-4994-8273-3a226184bf40","system_id":"levelo_inurba_marseille","lat":43.311692,"lon":5.38716,"is_reserved":false,"is_disabled":false,"rental_uris":{"android":"levelo://app?vid=9cc133f7-327f-4994-8273-3a226184bf40","ios":"levelo://app?vid=9cc133f7-327f-4994-8273-3a226184bf40"},"vehicle_type_id":"4","last_reported":1678658778,"current_range_meters":0,"station_id":"","pricing_plan_id":"free"},{"bike_id":"de4a2d43-6a9f-4970-afcc-f987a53efc04","system_id":"levelo_inurba_marseille","lat":43.311722,"lon":5.387247,"is_reserved":false,"is_disabled":false,"rental_uris":{"android":"levelo://app?vid=de4a2d43-6a9f-4970-afcc-f987a53efc04","ios":"levelo://app?vid=de4a2d43-6a9f-4970-afcc-f987a53efc04"},"vehicle_type_id":"4","last_reported":1678658778,"current_range_meters":31600,"station_id":"ce4bgv12rcd13ifvqcp0","pricing_plan_id":"free"},{"bike_id":"ca3f983f-206a-480d-8649-e5152dd816ce","system_id":"levelo_inurba_marseille","lat":43.311722,"lon":5.387247,"is_reserved":false,"is_disabled":false,"rental_uris":{"android":"levelo://app?vid=ca3f983f-206a-480d-8649-e5152dd816ce","ios":"levelo://app?vid=ca3f983f-206a-480d-8649-e5152dd816ce"},"vehicle_type_id":"4","last_reported":1678658778,"current_range_meters":8400,"station_id":"ce4bgv12rcd13ifvqcp0","pricing_plan_id":"free"},{"bike_id":"14648f7f-ed02-42a0-b115-fed06cf8dbf1","system_id":"levelo_inurba_marseille","lat":43.311722,"lon":5.387247,"is_reserved":false,"is_disabled":false,"rental_uris":{"android":"levelo://app?vid=14648f7f-ed02-42a0-b115-fed06cf8dbf1","ios":"levelo://app?vid=14648f7f-ed02-42a0-b115-fed06cf8dbf1"},"vehicle_type_id":"4","last_reported":1678658778,"current_range_meters":10400,"station_id":"ce4bgv12rcd13ifvqcp0","pricing_plan_id":"free"},{"bike_id":"1fe30448-3bdf-49de-aff0-8ded9c348ec8","system_id":"levelo_inurba_marseille","lat":43.32833,"lon":5.36686,"is_reserved":false,"is_disabled":false,"rental_uris":{"android":"levelo://app?vid=1fe30448-3bdf-49de-aff0-8ded9c348ec8","ios":"levelo://app?vid=1fe30448-3bdf-49de-aff0-8ded9c348ec8"},"vehicle_type_id":"4","last_reported":1678658778,"current_range_meters":0,"station_id":"ce4bhs92rcd13ifvqi0g","pricing_plan_id":"free"},{"bike_id":"31009286-c3ec-4f48-90b7-5c126cb222ef","system_id":"levelo_inurba_marseille","lat":43.328371,"lon":5.366909,"is_reserved":false,"is_disabled":false,"rental_uris":{"android":"levelo://app?vid=31009286-c3ec-4f48-90b7-5c126cb222ef","ios":"levelo://app?vid=31009286-c3ec-4f48-90b7-5c126cb222ef"},"vehicle_type_id":"4","last_reported":1678658778,"current_range_meters":400,"station_id":"ce4bhs92rcd13ifvqi0g","pricing_plan_id":"free"},{"bike_id":"c162ef4e-5cf7-4f6e-bfb4-6f85474bf401","system_id":"levelo_inurba_marseille","lat":43.29582,"lon":5.36753,"is_reserved":false,"is_disabled":false,"rental_uris":{"android":"levelo://app?vid=c162ef4e-5cf7-4f6e-bfb4-6f85474bf401","ios":"levelo://app?vid=c162ef4e-5cf7-4f6e-bfb4-6f85474bf401"},"vehicle_type_id":"4","last_reported":1678658778,"current_range_meters":12800,"station_id":"ce4bgph2rcd13ifvqc2g","pricing_plan_id":"free"},{"bike_id":"c6319ee4-bb1d-4bed-942c-4ba248b86a60","system_id":"levelo_inurba_marseille","lat":43.297363,"lon":5.376693,"is_reserved":false,"is_disabled":false,"rental_uris":{"android":"levelo://app?vid=c6319ee4-bb1d-4bed-942c-4ba248b86a60","ios":"levelo://app?vid=c6319ee4-bb1d-4bed-942c-4ba248b86a60"},"vehicle_type_id":"4","last_reported":1678658778,"current_range_meters":0,"station_id":"","pricing_plan_id":"free"},{"bike_id":"1674f8b6-33e1-4edc-bed3-f74dd8766953","system_id":"levelo_inurba_marseille","lat":43.30955,"lon":5.39037,"is_reserved":false,"is_disabled":false,"rental_uris":{"android":"levelo://app?vid=1674f8b6-33e1-4edc-bed3-f74dd8766953","ios":"levelo://app?vid=1674f8b6-33e1-4edc-bed3-f74dd8766953"},"vehicle_type_id":"4","last_reported":1678658778,"current_range_meters":24800,"station_id":"","pricing_plan_id":"free"},{"bike_id":"f1d9fa47-0da2-420a-b670-44d03b836bbb","system_id":"levelo_inurba_marseille","lat":43.298037,"lon":5.381066,"is_reserved":false,"is_disabled":false,"rental_uris":{"android":"levelo://app?vid=f1d9fa47-0da2-420a-b670-44d03b836bbb","ios":"levelo://app?vid=f1d9fa47-0da2-420a-b670-44d03b836bbb"},"vehicle_type_id":"4","last_reported":1678658778,"current_range_meters":400,"station_id":"ce4bgip2rcd13ifvqbb0","pricing_plan_id":"free"},{"bike_id":"c925a46b-304c-48fd-970d-f1dfe031248f","system_id":"levelo_inurba_marseille","lat":43.295807,"lon":5.374984,"is_reserved":false,"is_disabled":false,"rental_uris":{"android":"levelo://app?vid=c925a46b-304c-48fd-970d-f1dfe031248f","ios":"levelo://app?vid=c925a46b-304c-48fd-970d-f1dfe031248f"},"vehicle_type_id":"4","last_reported":1678658778,"current_range_meters":0,"station_id":"ce4bgh92rcd13ifvqb50","pricing_plan_id":"free"},{"bike_id":"d57938ba-8ac7-4bdf-81f6-f308d021fab4","system_id":"levelo_inurba_marseille","lat":43.29794,"lon":5.38115,"is_reserved":false,"is_disabled":false,"rental_uris":{"android":"levelo://app?vid=d57938ba-8ac7-4bdf-81f6-f308d021fab4","ios":"levelo://app?vid=d57938ba-8ac7-4bdf-81f6-f308d021fab4"},"vehicle_type_id":"4","last_reported":1678658778,"current_range_meters":0,"station_id":"ce4bgip2rcd13ifvqbb0","pricing_plan_id":"free"},{"bike_id":"4ef5ec1e-1177-44ac-a225-0ff4bfd021df","system_id":"levelo_inurba_marseille","lat":43.30427,"lon":5.388854,"is_reserved":false,"is_disabled":false,"rental_uris":{"android":"levelo://app?vid=4ef5ec1e-1177-44ac-a225-0ff4bfd021df","ios":"levelo://app?vid=4ef5ec1e-1177-44ac-a225-0ff4bfd021df"},"vehicle_type_id":"4","last_reported":1678658778,"current_range_meters":0,"station_id":"ce4bgk12rcd13ifvqbi0","pricing_plan_id":"free"},{"bike_id":"fd1acb51-0994-4ecf-aab4-e96fa687d58e","system_id":"levelo_inurba_marseille","lat":43.29526,"lon":5.374944,"is_reserved":false,"is_disabled":false,"rental_uris":{"android":"levelo://app?vid=fd1acb51-0994-4ecf-aab4-e96fa687d58e","ios":"levelo://app?vid=fd1acb51-0994-4ecf-aab4-e96fa687d58e"},"vehicle_type_id":"4","last_reported":1678658778,"current_range_meters":15200,"station_id":"ce4bgkp2rcd13ifvqbmg","pricing_plan_id":"free"},{"bike_id":"cb298282-bb7b-46f6-961f-17d4b907ee73","system_id":"levelo_inurba_marseille","lat":43.32367,"lon":5.388836,"is_reserved":false,"is_disabled":false,"rental_uris":{"android":"levelo://app?vid=cb298282-bb7b-46f6-961f-17d4b907ee73","ios":"levelo://app?vid=cb298282-bb7b-46f6-961f-17d4b907ee73"},"vehicle_type_id":"4","last_reported":1678658778,"current_range_meters":25600,"station_id":"ce4bhqp2rcd13ifvqhog","pricing_plan_id":"free"},{"bike_id":"b20c0648-4cf3-44fa-ba1a-61d9b53669a7","system_id":"levelo_inurba_marseille","lat":43.31282,"lon":5.39423,"is_reserved":false,"is_disabled":false,"rental_uris":{"android":"levelo://app?vid=b20c0648-4cf3-44fa-ba1a-61d9b53669a7","ios":"levelo://app?vid=b20c0648-4cf3-44fa-ba1a-61d9b53669a7"},"vehicle_type_id":"4","last_reported":1678658778,"current_range_meters":0,"station_id":"","pricing_plan_id":"free"},{"bike_id":"bcbd3f11-3661-4e17-84d8-589c949eabd3","system_id":"levelo_inurba_marseille","lat":43.305994,"lon":5.393687,"is_reserved":false,"is_disabled":false,"rental_uris":{"android":"levelo://app?vid=bcbd3f11-3661-4e17-84d8-589c949eabd3","ios":"levelo://app?vid=bcbd3f11-3661-4e17-84d8-589c949eabd3"},"vehicle_type_id":"4","last_reported":1678658778,"current_range_meters":400,"station_id":"ce4bh0p2rcd13ifvqd80","pricing_plan_id":"free"},{"bike_id":"ef0187a9-ae8b-43c5-926a-4f2de05596b5","system_id":"levelo_inurba_marseille","lat":43.305994,"lon":5.393687,"is_reserved":false,"is_disabled":false,"rental_uris":{"android":"levelo://app?vid=ef0187a9-ae8b-43c5-926a-4f2de05596b5","ios":"levelo://app?vid=ef0187a9-ae8b-43c5-926a-4f2de05596b5"},"vehicle_type_id":"4","last_reported":1678658778,"current_range_meters":24000,"station_id":"ce4bh0p2rcd13ifvqd80","pricing_plan_id":"free"},{"bike_id":"0b16f875-ed34-468c-b0f3-93a1297b0ee5","system_id":"levelo_inurba_marseille","lat":43.29889,"lon":5.38912,"is_reserved":false,"is_disabled":false,"rental_uris":{"android":"levelo://app?vid=0b16f875-ed34-468c-b0f3-93a1297b0ee5","ios":"levelo://app?vid=0b16f875-ed34-468c-b0f3-93a1297b0ee5"},"vehicle_type_id":"4","last_reported":1678658778,"current_range_meters":0,"station_id":"ce4bh392rcd13ifvqdl0","pricing_plan_id":"free"},{"bike_id":"3a771b79-d6f3-4a4a-96d9-be8b54710e4c","system_id":"levelo_inurba_marseille","lat":43.298764,"lon":5.388973,"is_reserved":false,"is_disabled":false,"rental_uris":{"android":"levelo://app?vid=3a771b79-d6f3-4a4a-96d9-be8b54710e4c","ios":"levelo://app?vid=3a771b79-d6f3-4a4a-96d9-be8b54710e4c"},"vehicle_type_id":"4","last_reported":1678658778,"current_range_meters":22400,"station_id":"ce4bh392rcd13ifvqdl0","pricing_plan_id":"free"},{"bike_id":"4bdac975-863f-4b76-8dd2-c75ed327716e","system_id":"levelo_inurba_marseille","lat":43.298764,"lon":5.388973,"is_reserved":false,"is_disabled":false,"rental_uris":{"android":"levelo://app?vid=4bdac975-863f-4b76-8dd2-c75ed327716e","ios":"levelo://app?vid=4bdac975-863f-4b76-8dd2-c75ed327716e"},"vehicle_type_id":"4","last_reported":1678658778,"current_range_meters":7200,"station_id":"ce4bh392rcd13ifvqdl0","pricing_plan_id":"free"},{"bike_id":"54ce20dc-20c7-471c-992a-581595d2d760","system_id":"levelo_inurba_marseille","lat":43.298764,"lon":5.388973,"is_reserved":false,"is_disabled":false,"rental_uris":{"android":"levelo://app?vid=54ce20dc-20c7-471c-992a-581595d2d760","ios":"levelo://app?vid=54ce20dc-20c7-471c-992a-581595d2d760"},"vehicle_type_id":"4","last_reported":1678658778,"current_range_meters":20400,"station_id":"ce4bh392rcd13ifvqdl0","pricing_plan_id":"free"},{"bike_id":"8499c6f7-153f-469a-8c3f-b9614d854a4c","system_id":"levelo_inurba_marseille","lat":43.31333,"lon":5.39691,"is_reserved":false,"is_disabled":false,"rental_uris":{"android":"levelo://app?vid=8499c6f7-153f-469a-8c3f-b9614d854a4c","ios":"levelo://app?vid=8499c6f7-153f-469a-8c3f-b9614d854a4c"},"vehicle_type_id":"4","last_reported":1678658778,"current_range_meters":400,"station_id":"ce4bgvp2rcd13ifvqcu0","pricing_plan_id":"free"},{"bike_id":"3122a4c6-4d14-4f69-8a29-8e548ef87b52","system_id":"levelo_inurba_marseille","lat":43.3133,"lon":5.39693,"is_reserved":false,"is_disabled":false,"rental_uris":{"android":"levelo://app?vid=3122a4c6-4d14-4f69-8a29-8e548ef87b52","ios":"levelo://app?vid=3122a4c6-4d14-4f69-8a29-8e548ef87b52"},"vehicle_type_id":"4","last_reported":1678658778,"current_range_meters":21200,"station_id":"","pricing_plan_id":"free"},{"bike_id":"e637d885-ea85-4bc1-a5c3-d7510e1e280c","system_id":"levelo_inurba_marseille","lat":43.31331,"lon":5.39693,"is_reserved":false,"is_disabled":false,"rental_uris":{"android":"levelo://app?vid=e637d885-ea85-4bc1-a5c3-d7510e1e280c","ios":"levelo://app?vid=e637d885-ea85-4bc1-a5c3-d7510e1e280c"},"vehicle_type_id":"4","last_reported":1678658778,"current_range_meters":5600,"station_id":"","pricing_plan_id":"free"},{"bike_id":"73bc0b3f-b6a0-40ce-adf2-b8e25c2e3543","system_id":"levelo_inurba_marseille","lat":43.31329,"lon":5.39697,"is_reserved":false,"is_disabled":false,"rental_uris":{"android":"levelo://app?vid=73bc0b3f-b6a0-40ce-adf2-b8e25c2e3543","ios":"levelo://app?vid=73bc0b3f-b6a0-40ce-adf2-b8e25c2e3543"},"vehicle_type_id":"4","last_reported":1678658778,"current_range_meters":0,"station_id":"ce4bgvp2rcd13ifvqcu0","pricing_plan_id":"free"},{"bike_id":"e2223600-9271-41ab-860a-a127b8796444","system_id":"levelo_inurba_marseille","lat":43.290779,"lon":5.371482,"is_reserved":false,"is_disabled":false,"rental_uris":{"android":"levelo://app?vid=e2223600-9271-41ab-860a-a127b8796444","ios":"levelo://app?vid=e2223600-9271-41ab-860a-a127b8796444"},"vehicle_type_id":"4","last_reported":1678658778,"current_range_meters":27600,"station_id":"ce4bh5p2rcd13ifvqe4g","pricing_plan_id":"free"},{"bike_id":"e89d50d2-8283-4889-b497-71e03a356244","system_id":"levelo_inurba_marseille","lat":43.2938,"lon":5.38403,"is_reserved":false,"is_disabled":false,"rental_uris":{"android":"levelo://app?vid=e89d50d2-8283-4889-b497-71e03a356244","ios":"levelo://app?vid=e89d50d2-8283-4889-b497-71e03a356244"},"vehicle_type_id":"4","last_reported":1678658778,"current_range_meters":9600,"station_id":"","pricing_plan_id":"free"},{"bike_id":"4ae5bf9c-f3a0-4d96-90dc-4330f683b2be","system_id":"levelo_inurba_marseille","lat":43.290624,"lon":5.359245,"is_reserved":false,"is_disabled":false,"rental_uris":{"android":"levelo://app?vid=4ae5bf9c-f3a0-4d96-90dc-4330f683b2be","ios":"levelo://app?vid=4ae5bf9c-f3a0-4d96-90dc-4330f683b2be"},"vehicle_type_id":"4","last_reported":1678658778,"current_range_meters":6400,"station_id":"ce4bha92rcd13ifvqeg0","pricing_plan_id":"free"},{"bike_id":"502b969f-9179-4102-93db-491ee164fbd2","system_id":"levelo_inurba_marseille","lat":43.290624,"lon":5.359245,"is_reserved":false,"is_disabled":false,"rental_uris":{"android":"levelo://app?vid=502b969f-9179-4102-93db-491ee164fbd2","ios":"levelo://app?vid=502b969f-9179-4102-93db-491ee164fbd2"},"vehicle_type_id":"4","last_reported":1678658778,"current_range_meters":28000,"station_id":"ce4bha92rcd13ifvqeg0","pricing_plan_id":"free"},{"bike_id":"4a07890b-9d43-483e-965c-dfc4ca6b05d8","system_id":"levelo_inurba_marseille","lat":43.290624,"lon":5.359245,"is_reserved":false,"is_disabled":false,"rental_uris":{"android":"levelo://app?vid=4a07890b-9d43-483e-965c-dfc4ca6b05d8","ios":"levelo://app?vid=4a07890b-9d43-483e-965c-dfc4ca6b05d8"},"vehicle_type_id":"4","last_reported":1678658778,"current_range_meters":12000,"station_id":"ce4bha92rcd13ifvqeg0","pricing_plan_id":"free"},{"bike_id":"8aa44149-304c-474c-819a-8ad36cac9be2","system_id":"levelo_inurba_marseille","lat":43.289184,"lon":5.366408,"is_reserved":false,"is_disabled":false,"rental_uris":{"android":"levelo://app?vid=8aa44149-304c-474c-819a-8ad36cac9be2","ios":"levelo://app?vid=8aa44149-304c-474c-819a-8ad36cac9be2"},"vehicle_type_id":"4","last_reported":1678658778,"current_range_meters":8800,"station_id":"ce4bhap2rcd13ifvqek0","pricing_plan_id":"free"},{"bike_id":"6adf67fe-983e-4c3b-b37a-2982cb10603b","system_id":"levelo_inurba_marseille","lat":43.289184,"lon":5.366408,"is_reserved":false,"is_disabled":false,"rental_uris":{"android":"levelo://app?vid=6adf67fe-983e-4c3b-b37a-2982cb10603b","ios":"levelo://app?vid=6adf67fe-983e-4c3b-b37a-2982cb10603b"},"vehicle_type_id":"4","last_reported":1678658778,"current_range_meters":28800,"station_id":"ce4bhap2rcd13ifvqek0","pricing_plan_id":"free"},{"bike_id":"5bbf4f11-2e2e-4d80-ae29-886cada9e8b1","system_id":"levelo_inurba_marseille","lat":43.28941,"lon":5.36397,"is_reserved":false,"is_disabled":false,"rental_uris":{"android":"levelo://app?vid=5bbf4f11-2e2e-4d80-ae29-886cada9e8b1","ios":"levelo://app?vid=5bbf4f11-2e2e-4d80-ae29-886cada9e8b1"},"vehicle_type_id":"4","last_reported":1678658778,"current_range_meters":27600,"station_id":"","pricing_plan_id":"free"},{"bike_id":"03b8c4ad-6ec8-4f00-bffb-a135a9399191","system_id":"levelo_inurba_marseille","lat":43.28936,"lon":5.36383,"is_reserved":false,"is_disabled":false,"rental_uris":{"android":"levelo://app?vid=03b8c4ad-6ec8-4f00-bffb-a135a9399191","ios":"levelo://app?vid=03b8c4ad-6ec8-4f00-bffb-a135a9399191"},"vehicle_type_id":"4","last_reported":1678658778,"current_range_meters":17200,"station_id":"ce4bhc92rcd13ifvqetg","pricing_plan_id":"free"},{"bike_id":"117f2a25-f9fc-4f1d-aade-29d673483f61","system_id":"levelo_inurba_marseille","lat":43.330442,"lon":5.389148,"is_reserved":false,"is_disabled":false,"rental_uris":{"android":"levelo://app?vid=117f2a25-f9fc-4f1d-aade-29d673483f61","ios":"levelo://app?vid=117f2a25-f9fc-4f1d-aade-29d673483f61"},"vehicle_type_id":"4","last_reported":1678658778,"current_range_meters":3200,"station_id":"ce4bhr92rcd13ifvqhrg","pricing_plan_id":"free"},{"bike_id":"5c542135-b9b7-4319-b13c-ce6b620b43d2","system_id":"levelo_inurba_marseille","lat":43.330442,"lon":5.389148,"is_reserved":false,"is_disabled":false,"rental_uris":{"android":"levelo://app?vid=5c542135-b9b7-4319-b13c-ce6b620b43d2","ios":"levelo://app?vid=5c542135-b9b7-4319-b13c-ce6b620b43d2"},"vehicle_type_id":"4","last_reported":1678658778,"current_range_meters":11200,"station_id":"ce4bhr92rcd13ifvqhrg","pricing_plan_id":"free"},{"bike_id":"962d5882-0756-47c3-9ed5-66b3463704b9","system_id":"levelo_inurba_marseille","lat":43.330442,"lon":5.389148,"is_reserved":false,"is_disabled":false,"rental_uris":{"android":"levelo://app?vid=962d5882-0756-47c3-9ed5-66b3463704b9","ios":"levelo://app?vid=962d5882-0756-47c3-9ed5-66b3463704b9"},"vehicle_type_id":"4","last_reported":1678658778,"current_range_meters":0,"station_id":"ce4bhr92rcd13ifvqhrg","pricing_plan_id":"free"},{"bike_id":"ec867014-d7c3-49d0-a94e-f547d31edc02","system_id":"levelo_inurba_marseille","lat":43.330457,"lon":5.3892,"is_reserved":false,"is_disabled":false,"rental_uris":{"android":"levelo://app?vid=ec867014-d7c3-49d0-a94e-f547d31edc02","ios":"levelo://app?vid=ec867014-d7c3-49d0-a94e-f547d31edc02"},"vehicle_type_id":"4","last_reported":1678658778,"current_range_meters":0,"station_id":"","pricing_plan_id":"free"},{"bike_id":"436d82e8-87b1-43b0-b50d-e185417984bf","system_id":"levelo_inurba_marseille","lat":43.290104,"lon":5.356111,"is_reserved":false,"is_disabled":false,"rental_uris":{"android":"levelo://app?vid=436d82e8-87b1-43b0-b50d-e185417984bf","ios":"levelo://app?vid=436d82e8-87b1-43b0-b50d-e185417984bf"},"vehicle_type_id":"4","last_reported":1678658778,"current_range_meters":0,"station_id":"ce4bhb92rcd13ifvqen0","pricing_plan_id":"free"},{"bike_id":"ae32ec26-9f34-426f-b4b2-02957ba0e17f","system_id":"levelo_inurba_marseille","lat":43.290104,"lon":5.356111,"is_reserved":false,"is_disabled":false,"rental_uris":{"android":"levelo://app?vid=ae32ec26-9f34-426f-b4b2-02957ba0e17f","ios":"levelo://app?vid=ae32ec26-9f34-426f-b4b2-02957ba0e17f"},"vehicle_type_id":"4","last_reported":1678658778,"current_range_meters":10800,"station_id":"ce4bhb92rcd13ifvqen0","pricing_plan_id":"free"},{"bike_id":"2ff2ef3a-07d2-42ee-874d-ad1e13c7a30d","system_id":"levelo_inurba_marseille","lat":43.290962,"lon":5.381465,"is_reserved":false,"is_disabled":false,"rental_uris":{"android":"levelo://app?vid=2ff2ef3a-07d2-42ee-874d-ad1e13c7a30d","ios":"levelo://app?vid=2ff2ef3a-07d2-42ee-874d-ad1e13c7a30d"},"vehicle_type_id":"4","last_reported":1678658778,"current_range_meters":0,"station_id":"ce4bh512rcd13ifvqe2g","pricing_plan_id":"free"},{"bike_id":"43e0cae9-fc12-4d18-8df7-c501fb0d0316","system_id":"levelo_inurba_marseille","lat":43.29091,"lon":5.38139,"is_reserved":false,"is_disabled":false,"rental_uris":{"android":"levelo://app?vid=43e0cae9-fc12-4d18-8df7-c501fb0d0316","ios":"levelo://app?vid=43e0cae9-fc12-4d18-8df7-c501fb0d0316"},"vehicle_type_id":"4","last_reported":1678658778,"current_range_meters":17200,"station_id":"ce4bh512rcd13ifvqe2g","pricing_plan_id":"free"},{"bike_id":"ab038d84-b8e2-4d12-8588-b66cc924b8b7","system_id":"levelo_inurba_marseille","lat":43.28982,"lon":5.37825,"is_reserved":false,"is_disabled":false,"rental_uris":{"android":"levelo://app?vid=ab038d84-b8e2-4d12-8588-b66cc924b8b7","ios":"levelo://app?vid=ab038d84-b8e2-4d12-8588-b66cc924b8b7"},"vehicle_type_id":"4","last_reported":1678658778,"current_range_meters":25600,"station_id":"ce4bh9p2rcd13ifvqed0","pricing_plan_id":"free"},{"bike_id":"3c5a2b77-eea9-4b72-8bd0-5483ae50962f","system_id":"levelo_inurba_marseille","lat":43.295169,"lon":5.390426,"is_reserved":false,"is_disabled":false,"rental_uris":{"android":"levelo://app?vid=3c5a2b77-eea9-4b72-8bd0-5483ae50962f","ios":"levelo://app?vid=3c5a2b77-eea9-4b72-8bd0-5483ae50962f"},"vehicle_type_id":"4","last_reported":1678658778,"current_range_meters":17600,"station_id":"ce4bh3p2rcd13ifvqdp0","pricing_plan_id":"free"},{"bike_id":"beb7f694-aff9-4bfd-a276-bef8cb87b233","system_id":"levelo_inurba_marseille","lat":43.295169,"lon":5.390426,"is_reserved":false,"is_disabled":false,"rental_uris":{"android":"levelo://app?vid=beb7f694-aff9-4bfd-a276-bef8cb87b233","ios":"levelo://app?vid=beb7f694-aff9-4bfd-a276-bef8cb87b233"},"vehicle_type_id":"4","last_reported":1678658778,"current_range_meters":32000,"station_id":"ce4bh3p2rcd13ifvqdp0","pricing_plan_id":"free"},{"bike_id":"7ec322c6-f8b9-4f82-ae38-798351da813c","system_id":"levelo_inurba_marseille","lat":43.288528,"lon":5.358463,"is_reserved":false,"is_disabled":false,"rental_uris":{"android":"levelo://app?vid=7ec322c6-f8b9-4f82-ae38-798351da813c","ios":"levelo://app?vid=7ec322c6-f8b9-4f82-ae38-798351da813c"},"vehicle_type_id":"4","last_reported":1678658778,"current_range_meters":5200,"station_id":"ce4bhb12rcd13ifvqem0","pricing_plan_id":"free"},{"bike_id":"668bfe00-daa4-4575-869a-2cdfaff24d6a","system_id":"levelo_inurba_marseille","lat":43.30642,"lon":5.401031,"is_reserved":false,"is_disabled":false,"rental_uris":{"android":"levelo://app?vid=668bfe00-daa4-4575-869a-2cdfaff24d6a","ios":"levelo://app?vid=668bfe00-daa4-4575-869a-2cdfaff24d6a"},"vehicle_type_id":"4","last_reported":1678658778,"current_range_meters":6400,"station_id":"ce4bh112rcd13ifvqda0","pricing_plan_id":"free"},{"bike_id":"6785c485-fde6-4128-b5fb-56d98af1442f","system_id":"levelo_inurba_marseille","lat":43.30642,"lon":5.401031,"is_reserved":false,"is_disabled":false,"rental_uris":{"android":"levelo://app?vid=6785c485-fde6-4128-b5fb-56d98af1442f","ios":"levelo://app?vid=6785c485-fde6-4128-b5fb-56d98af1442f"},"vehicle_type_id":"4","last_reported":1678658778,"current_range_meters":12800,"station_id":"ce4bh112rcd13ifvqda0","pricing_plan_id":"free"},{"bike_id":"8b15a270-d728-4e18-b715-6f54bcb9cdb6","system_id":"levelo_inurba_marseille","lat":43.30642,"lon":5.401031,"is_reserved":false,"is_disabled":false,"rental_uris":{"android":"levelo://app?vid=8b15a270-d728-4e18-b715-6f54bcb9cdb6","ios":"levelo://app?vid=8b15a270-d728-4e18-b715-6f54bcb9cdb6"},"vehicle_type_id":"4","last_reported":1678658778,"current_range_meters":23200,"station_id":"ce4bh112rcd13ifvqda0","pricing_plan_id":"free"},{"bike_id":"f759bb27-4162-4568-8260-e181267a6c55","system_id":"levelo_inurba_marseille","lat":43.301117,"lon":5.398795,"is_reserved":false,"is_disabled":false,"rental_uris":{"android":"levelo://app?vid=f759bb27-4162-4568-8260-e181267a6c55","ios":"levelo://app?vid=f759bb27-4162-4568-8260-e181267a6c55"},"vehicle_type_id":"4","last_reported":1678658778,"current_range_meters":19200,"station_id":"ce4bh0h2rcd13ifvqd40","pricing_plan_id":"free"},{"bike_id":"e2144990-68b3-46fe-acab-46f272ff8c7f","system_id":"levelo_inurba_marseille","lat":43.298681,"lon":5.397225,"is_reserved":false,"is_disabled":false,"rental_uris":{"android":"levelo://app?vid=e2144990-68b3-46fe-acab-46f272ff8c7f","ios":"levelo://app?vid=e2144990-68b3-46fe-acab-46f272ff8c7f"},"vehicle_type_id":"4","last_reported":1678658778,"current_range_meters":30800,"station_id":"ce4bh0h2rcd13ifvqd50","pricing_plan_id":"free"},{"bike_id":"b65eead5-6de8-4edf-a837-cf8d0954dd58","system_id":"levelo_inurba_marseille","lat":43.286593,"lon":5.363346,"is_reserved":false,"is_disabled":false,"rental_uris":{"android":"levelo://app?vid=b65eead5-6de8-4edf-a837-cf8d0954dd58","ios":"levelo://app?vid=b65eead5-6de8-4edf-a837-cf8d0954dd58"},"vehicle_type_id":"4","last_reported":1678658778,"current_range_meters":0,"station_id":"ce4bhah2rcd13ifvqej0","pricing_plan_id":"free"},{"bike_id":"f0adb541-1343-4fcf-a961-58067645773a","system_id":"levelo_inurba_marseille","lat":43.286593,"lon":5.363346,"is_reserved":false,"is_disabled":false,"rental_uris":{"android":"levelo://app?vid=f0adb541-1343-4fcf-a961-58067645773a","ios":"levelo://app?vid=f0adb541-1343-4fcf-a961-58067645773a"},"vehicle_type_id":"4","last_reported":1678658778,"current_range_meters":800,"station_id":"ce4bhah2rcd13ifvqej0","pricing_plan_id":"free"},{"bike_id":"44bc1d77-8cdc-421f-b68a-c1fa10da1014","system_id":"levelo_inurba_marseille","lat":43.298681,"lon":5.397225,"is_reserved":false,"is_disabled":false,"rental_uris":{"android":"levelo://app?vid=44bc1d77-8cdc-421f-b68a-c1fa10da1014","ios":"levelo://app?vid=44bc1d77-8cdc-421f-b68a-c1fa10da1014"},"vehicle_type_id":"4","last_reported":1678658778,"current_range_meters":10800,"station_id":"ce4bh0h2rcd13ifvqd50","pricing_plan_id":"free"},{"bike_id":"678b6dc3-5d97-45bd-b4da-800a42622684","system_id":"levelo_inurba_marseille","lat":43.29512,"lon":5.39396,"is_reserved":false,"is_disabled":false,"rental_uris":{"android":"levelo://app?vid=678b6dc3-5d97-45bd-b4da-800a42622684","ios":"levelo://app?vid=678b6dc3-5d97-45bd-b4da-800a42622684"},"vehicle_type_id":"4","last_reported":1678658778,"current_range_meters":23200,"station_id":"ce4bh212rcd13ifvqde0","pricing_plan_id":"free"},{"bike_id":"4cb2f82e-9bf8-4dbe-acd3-284268f214fe","system_id":"levelo_inurba_marseille","lat":43.29517,"lon":5.39406,"is_reserved":false,"is_disabled":false,"rental_uris":{"android":"levelo://app?vid=4cb2f82e-9bf8-4dbe-acd3-284268f214fe","ios":"levelo://app?vid=4cb2f82e-9bf8-4dbe-acd3-284268f214fe"},"vehicle_type_id":"4","last_reported":1678658778,"current_range_meters":1600,"station_id":"ce4bh212rcd13ifvqde0","pricing_plan_id":"free"},{"bike_id":"1bbbb34b-9fa0-48d5-ae27-bd59b50aebfb","system_id":"levelo_inurba_marseille","lat":43.302759,"lon":5.400793,"is_reserved":false,"is_disabled":false,"rental_uris":{"android":"levelo://app?vid=1bbbb34b-9fa0-48d5-ae27-bd59b50aebfb","ios":"levelo://app?vid=1bbbb34b-9fa0-48d5-ae27-bd59b50aebfb"},"vehicle_type_id":"4","last_reported":1678658778,"current_range_meters":14400,"station_id":"ce4bgvh2rcd13ifvqcs0","pricing_plan_id":"free"},{"bike_id":"6e439261-4db9-460c-8c38-cc2139739253","system_id":"levelo_inurba_marseille","lat":43.302759,"lon":5.400793,"is_reserved":false,"is_disabled":false,"rental_uris":{"android":"levelo://app?vid=6e439261-4db9-460c-8c38-cc2139739253","ios":"levelo://app?vid=6e439261-4db9-460c-8c38-cc2139739253"},"vehicle_type_id":"4","last_reported":1678658778,"current_range_meters":25600,"station_id":"ce4bgvh2rcd13ifvqcs0","pricing_plan_id":"free"},{"bike_id":"00961260-2784-4c64-8ac7-13be9e79efcf","system_id":"levelo_inurba_marseille","lat":43.290325,"lon":5.38642,"is_reserved":false,"is_disabled":false,"rental_uris":{"android":"levelo://app?vid=00961260-2784-4c64-8ac7-13be9e79efcf","ios":"levelo://app?vid=00961260-2784-4c64-8ac7-13be9e79efcf"},"vehicle_type_id":"4","last_reported":1678658778,"current_range_meters":0,"station_id":"","pricing_plan_id":"free"},{"bike_id":"9892a04e-2bbd-493d-bd7c-dc8cea87a7ce","system_id":"levelo_inurba_marseille","lat":43.29033,"lon":5.386455,"is_reserved":false,"is_disabled":false,"rental_uris":{"android":"levelo://app?vid=9892a04e-2bbd-493d-bd7c-dc8cea87a7ce","ios":"levelo://app?vid=9892a04e-2bbd-493d-bd7c-dc8cea87a7ce"},"vehicle_type_id":"4","last_reported":1678658778,"current_range_meters":26400,"station_id":"ce4bh4p2rcd13ifvqe0g","pricing_plan_id":"free"},{"bike_id":"522b6ed9-5c94-430c-b396-6ce99ea00cf5","system_id":"levelo_inurba_marseille","lat":43.302759,"lon":5.400793,"is_reserved":false,"is_disabled":false,"rental_uris":{"android":"levelo://app?vid=522b6ed9-5c94-430c-b396-6ce99ea00cf5","ios":"levelo://app?vid=522b6ed9-5c94-430c-b396-6ce99ea00cf5"},"vehicle_type_id":"4","last_reported":1678658778,"current_range_meters":4000,"station_id":"ce4bgvh2rcd13ifvqcs0","pricing_plan_id":"free"},{"bike_id":"a1c2a6b7-054f-4bd4-b36b-3bd14bea6bcc","system_id":"levelo_inurba_marseille","lat":43.302759,"lon":5.400793,"is_reserved":false,"is_disabled":false,"rental_uris":{"android":"levelo://app?vid=a1c2a6b7-054f-4bd4-b36b-3bd14bea6bcc","ios":"levelo://app?vid=a1c2a6b7-054f-4bd4-b36b-3bd14bea6bcc"},"vehicle_type_id":"4","last_reported":1678658778,"current_range_meters":8400,"station_id":"ce4bgvh2rcd13ifvqcs0","pricing_plan_id":"free"},{"bike_id":"67a7ba44-7953-48b5-85af-9f3005e692ef","system_id":"levelo_inurba_marseille","lat":43.29027,"lon":5.38647,"is_reserved":false,"is_disabled":false,"rental_uris":{"android":"levelo://app?vid=67a7ba44-7953-48b5-85af-9f3005e692ef","ios":"levelo://app?vid=67a7ba44-7953-48b5-85af-9f3005e692ef"},"vehicle_type_id":"4","last_reported":1678658778,"current_range_meters":28400,"station_id":"ce4bh4p2rcd13ifvqe0g","pricing_plan_id":"free"},{"bike_id":"934c6068-2377-4ddc-8555-985a0e03aeee","system_id":"levelo_inurba_marseille","lat":43.290221,"lon":5.386393,"is_reserved":false,"is_disabled":false,"rental_uris":{"android":"levelo://app?vid=934c6068-2377-4ddc-8555-985a0e03aeee","ios":"levelo://app?vid=934c6068-2377-4ddc-8555-985a0e03aeee"},"vehicle_type_id":"4","last_reported":1678658778,"current_range_meters":20000,"station_id":"ce4bh4p2rcd13ifvqe0g","pricing_plan_id":"free"},{"bike_id":"fac0a16e-ee50-4f09-a8b5-3f19285763af","system_id":"levelo_inurba_marseille","lat":43.286039,"lon":5.370681,"is_reserved":false,"is_disabled":false,"rental_uris":{"android":"levelo://app?vid=fac0a16e-ee50-4f09-a8b5-3f19285763af","ios":"levelo://app?vid=fac0a16e-ee50-4f09-a8b5-3f19285763af"},"vehicle_type_id":"4","last_reported":1678658778,"current_range_meters":0,"station_id":"ce4bht12rcd13ifvqi60","pricing_plan_id":"free"},{"bike_id":"f14ea414-65ba-4880-b800-7fbc82d692bf","system_id":"levelo_inurba_marseille","lat":43.28722,"lon":5.37931,"is_reserved":false,"is_disabled":false,"rental_uris":{"android":"levelo://app?vid=f14ea414-65ba-4880-b800-7fbc82d692bf","ios":"levelo://app?vid=f14ea414-65ba-4880-b800-7fbc82d692bf"},"vehicle_type_id":"4","last_reported":1678658778,"current_range_meters":0,"station_id":"ce4bh9p2rcd13ifvqec0","pricing_plan_id":"free"},{"bike_id":"da49e252-a807-4b3f-8e7a-89a8f7e80b16","system_id":"levelo_inurba_marseille","lat":43.316517,"lon":5.404375,"is_reserved":false,"is_disabled":false,"rental_uris":{"android":"levelo://app?vid=da49e252-a807-4b3f-8e7a-89a8f7e80b16","ios":"levelo://app?vid=da49e252-a807-4b3f-8e7a-89a8f7e80b16"},"vehicle_type_id":"4","last_reported":1678658778,"current_range_meters":0,"station_id":"ce4bh012rcd13ifvqd00","pricing_plan_id":"free"},{"bike_id":"2c392f95-7b8e-4557-b0c0-b421da857efe","system_id":"levelo_inurba_marseille","lat":43.284534,"lon":5.358662,"is_reserved":false,"is_disabled":false,"rental_uris":{"android":"levelo://app?vid=2c392f95-7b8e-4557-b0c0-b421da857efe","ios":"levelo://app?vid=2c392f95-7b8e-4557-b0c0-b421da857efe"},"vehicle_type_id":"4","last_reported":1678658778,"current_range_meters":13600,"station_id":"ce4bhah2rcd13ifvqei0","pricing_plan_id":"free"},{"bike_id":"3e2126ee-0211-4208-802b-f2fbad65e601","system_id":"levelo_inurba_marseille","lat":43.284534,"lon":5.358662,"is_reserved":false,"is_disabled":false,"rental_uris":{"android":"levelo://app?vid=3e2126ee-0211-4208-802b-f2fbad65e601","ios":"levelo://app?vid=3e2126ee-0211-4208-802b-f2fbad65e601"},"vehicle_type_id":"4","last_reported":1678658778,"current_range_meters":10400,"station_id":"ce4bhah2rcd13ifvqei0","pricing_plan_id":"free"},{"bike_id":"b1ef9f17-6a37-4609-9316-0d29903e6c7c","system_id":"levelo_inurba_marseille","lat":43.284534,"lon":5.358662,"is_reserved":false,"is_disabled":false,"rental_uris":{"android":"levelo://app?vid=b1ef9f17-6a37-4609-9316-0d29903e6c7c","ios":"levelo://app?vid=b1ef9f17-6a37-4609-9316-0d29903e6c7c"},"vehicle_type_id":"4","last_reported":1678658778,"current_range_meters":3200,"station_id":"ce4bhah2rcd13ifvqei0","pricing_plan_id":"free"},{"bike_id":"757265b1-f2f1-4ba0-a638-29463a108660","system_id":"levelo_inurba_marseille","lat":43.284621,"lon":5.358883,"is_reserved":false,"is_disabled":false,"rental_uris":{"android":"levelo://app?vid=757265b1-f2f1-4ba0-a638-29463a108660","ios":"levelo://app?vid=757265b1-f2f1-4ba0-a638-29463a108660"},"vehicle_type_id":"4","last_reported":1678658778,"current_range_meters":4000,"station_id":"ce4bhah2rcd13ifvqei0","pricing_plan_id":"free"},{"bike_id":"c52b960e-682f-487e-b0c8-8b4cb43ae427","system_id":"levelo_inurba_marseille","lat":43.295713,"lon":5.399639,"is_reserved":false,"is_disabled":false,"rental_uris":{"android":"levelo://app?vid=c52b960e-682f-487e-b0c8-8b4cb43ae427","ios":"levelo://app?vid=c52b960e-682f-487e-b0c8-8b4cb43ae427"},"vehicle_type_id":"4","last_reported":1678658778,"current_range_meters":2000,"station_id":"ce4bh312rcd13ifvqdj0","pricing_plan_id":"free"},{"bike_id":"cf4565bb-0682-4a7c-9d4d-838579306db7","system_id":"levelo_inurba_marseille","lat":43.286595,"lon":5.386795,"is_reserved":false,"is_disabled":false,"rental_uris":{"android":"levelo://app?vid=cf4565bb-0682-4a7c-9d4d-838579306db7","ios":"levelo://app?vid=cf4565bb-0682-4a7c-9d4d-838579306db7"},"vehicle_type_id":"4","last_reported":1678658778,"current_range_meters":0,"station_id":"ce4bh492rcd13ifvqdug","pricing_plan_id":"free"},{"bike_id":"9196ea05-ab85-4a9b-9eae-4fc7651b621f","system_id":"levelo_inurba_marseille","lat":43.284793,"lon":5.384119,"is_reserved":false,"is_disabled":false,"rental_uris":{"android":"levelo://app?vid=9196ea05-ab85-4a9b-9eae-4fc7651b621f","ios":"levelo://app?vid=9196ea05-ab85-4a9b-9eae-4fc7651b621f"},"vehicle_type_id":"4","last_reported":1678658778,"current_range_meters":0,"station_id":"ce4bh512rcd13ifvqe3g","pricing_plan_id":"free"},{"bike_id":"f389488b-00c7-4564-ac95-727af7a75f77","system_id":"levelo_inurba_marseille","lat":43.32343,"lon":5.40627,"is_reserved":false,"is_disabled":false,"rental_uris":{"android":"levelo://app?vid=f389488b-00c7-4564-ac95-727af7a75f77","ios":"levelo://app?vid=f389488b-00c7-4564-ac95-727af7a75f77"},"vehicle_type_id":"4","last_reported":1678658778,"current_range_meters":11600,"station_id":"","pricing_plan_id":"free"},{"bike_id":"3e5fdd79-897d-484c-b748-5f23973f5e2b","system_id":"levelo_inurba_marseille","lat":43.270721,"lon":5.422764,"is_reserved":false,"is_disabled":false,"rental_uris":{"android":"levelo://app?vid=3e5fdd79-897d-484c-b748-5f23973f5e2b","ios":"levelo://app?vid=3e5fdd79-897d-484c-b748-5f23973f5e2b"},"vehicle_type_id":"4","last_reported":1678658778,"current_range_meters":17200,"station_id":"ce4bhk92rcd13ifvqgb0","pricing_plan_id":"free"},{"bike_id":"ddbbbbff-4a04-40a5-96f7-8aaeeaeab9a2","system_id":"levelo_inurba_marseille","lat":43.289363,"lon":5.396322,"is_reserved":false,"is_disabled":false,"rental_uris":{"android":"levelo://app?vid=ddbbbbff-4a04-40a5-96f7-8aaeeaeab9a2","ios":"levelo://app?vid=ddbbbbff-4a04-40a5-96f7-8aaeeaeab9a2"},"vehicle_type_id":"4","last_reported":1678658778,"current_range_meters":0,"station_id":"ce4bh3h2rcd13ifvqdn0","pricing_plan_id":"free"},{"bike_id":"839f49f5-fd83-4049-b414-dedf35410c8b","system_id":"levelo_inurba_marseille","lat":43.289363,"lon":5.396322,"is_reserved":false,"is_disabled":false,"rental_uris":{"android":"levelo://app?vid=839f49f5-fd83-4049-b414-dedf35410c8b","ios":"levelo://app?vid=839f49f5-fd83-4049-b414-dedf35410c8b"},"vehicle_type_id":"4","last_reported":1678658778,"current_range_meters":13600,"station_id":"ce4bh3h2rcd13ifvqdn0","pricing_plan_id":"free"},{"bike_id":"02a6ccb8-5282-4ed4-a5b4-a424c051515d","system_id":"levelo_inurba_marseille","lat":43.292724,"lon":5.401131,"is_reserved":false,"is_disabled":false,"rental_uris":{"android":"levelo://app?vid=02a6ccb8-5282-4ed4-a5b4-a424c051515d","ios":"levelo://app?vid=02a6ccb8-5282-4ed4-a5b4-a424c051515d"},"vehicle_type_id":"4","last_reported":1678658778,"current_range_meters":7600,"station_id":"ce4bh312rcd13ifvqdk0","pricing_plan_id":"free"},{"bike_id":"515ff452-ae9b-4050-b17f-41093d4b8871","system_id":"levelo_inurba_marseille","lat":43.28285,"lon":5.35073,"is_reserved":false,"is_disabled":false,"rental_uris":{"android":"levelo://app?vid=515ff452-ae9b-4050-b17f-41093d4b8871","ios":"levelo://app?vid=515ff452-ae9b-4050-b17f-41093d4b8871"},"vehicle_type_id":"4","last_reported":1678658778,"current_range_meters":14800,"station_id":"ce4bhbp2rcd13ifvqerg","pricing_plan_id":"free"},{"bike_id":"c8a8b826-e413-4d63-9b36-d7ad4903083f","system_id":"levelo_inurba_marseille","lat":43.292724,"lon":5.401131,"is_reserved":false,"is_disabled":false,"rental_uris":{"android":"levelo://app?vid=c8a8b826-e413-4d63-9b36-d7ad4903083f","ios":"levelo://app?vid=c8a8b826-e413-4d63-9b36-d7ad4903083f"},"vehicle_type_id":"4","last_reported":1678658778,"current_range_meters":6800,"station_id":"ce4bh312rcd13ifvqdk0","pricing_plan_id":"free"},{"bike_id":"7d66fb51-8c7c-4ac0-9d63-acbf066dc94e","system_id":"levelo_inurba_marseille","lat":43.282686,"lon":5.350575,"is_reserved":false,"is_disabled":false,"rental_uris":{"android":"levelo://app?vid=7d66fb51-8c7c-4ac0-9d63-acbf066dc94e","ios":"levelo://app?vid=7d66fb51-8c7c-4ac0-9d63-acbf066dc94e"},"vehicle_type_id":"4","last_reported":1678658778,"current_range_meters":22000,"station_id":"","pricing_plan_id":"free"},{"bike_id":"8bdb4c29-b9e6-4b9e-9152-7de14c0eb705","system_id":"levelo_inurba_marseille","lat":43.28039,"lon":5.369297,"is_reserved":false,"is_disabled":false,"rental_uris":{"android":"levelo://app?vid=8bdb4c29-b9e6-4b9e-9152-7de14c0eb705","ios":"levelo://app?vid=8bdb4c29-b9e6-4b9e-9152-7de14c0eb705"},"vehicle_type_id":"4","last_reported":1678658778,"current_range_meters":26800,"station_id":"ce4bha12rcd13ifvqef0","pricing_plan_id":"free"},{"bike_id":"32da4d79-7e2e-452d-9fb2-2cf72e4506c1","system_id":"levelo_inurba_marseille","lat":43.280382,"lon":5.369291,"is_reserved":false,"is_disabled":false,"rental_uris":{"android":"levelo://app?vid=32da4d79-7e2e-452d-9fb2-2cf72e4506c1","ios":"levelo://app?vid=32da4d79-7e2e-452d-9fb2-2cf72e4506c1"},"vehicle_type_id":"4","last_reported":1678658778,"current_range_meters":400,"station_id":"ce4bha12rcd13ifvqef0","pricing_plan_id":"free"},{"bike_id":"20e537ba-5d14-429c-95c7-e3387a0b4f94","system_id":"levelo_inurba_marseille","lat":43.292724,"lon":5.401131,"is_reserved":false,"is_disabled":false,"rental_uris":{"android":"levelo://app?vid=20e537ba-5d14-429c-95c7-e3387a0b4f94","ios":"levelo://app?vid=20e537ba-5d14-429c-95c7-e3387a0b4f94"},"vehicle_type_id":"4","last_reported":1678658778,"current_range_meters":20000,"station_id":"ce4bh312rcd13ifvqdk0","pricing_plan_id":"free"},{"bike_id":"e3d1ca6d-224b-4a7a-b35b-9999fb7c29c6","system_id":"levelo_inurba_marseille","lat":43.283543,"lon":5.386513,"is_reserved":false,"is_disabled":false,"rental_uris":{"android":"levelo://app?vid=e3d1ca6d-224b-4a7a-b35b-9999fb7c29c6","ios":"levelo://app?vid=e3d1ca6d-224b-4a7a-b35b-9999fb7c29c6"},"vehicle_type_id":"4","last_reported":1678658778,"current_range_meters":31200,"station_id":"ce4bhg12rcd13ifvqf80","pricing_plan_id":"free"},{"bike_id":"5b7c8769-ff77-4ca8-8319-0dc70f192bb4","system_id":"levelo_inurba_marseille","lat":43.281083,"lon":5.378297,"is_reserved":false,"is_disabled":false,"rental_uris":{"android":"levelo://app?vid=5b7c8769-ff77-4ca8-8319-0dc70f192bb4","ios":"levelo://app?vid=5b7c8769-ff77-4ca8-8319-0dc70f192bb4"},"vehicle_type_id":"4","last_reported":1678658778,"current_range_meters":13200,"station_id":"ce4bha12rcd13ifvqee0","pricing_plan_id":"free"},{"bike_id":"0cd36548-0cb8-4333-bc36-fb5b85c22d38","system_id":"levelo_inurba_marseille","lat":43.28107,"lon":5.37836,"is_reserved":false,"is_disabled":false,"rental_uris":{"android":"levelo://app?vid=0cd36548-0cb8-4333-bc36-fb5b85c22d38","ios":"levelo://app?vid=0cd36548-0cb8-4333-bc36-fb5b85c22d38"},"vehicle_type_id":"4","last_reported":1678658778,"current_range_meters":0,"station_id":"","pricing_plan_id":"free"},{"bike_id":"37e09805-e12f-4d24-9ec9-152a8fc34efa","system_id":"levelo_inurba_marseille","lat":43.28108,"lon":5.37842,"is_reserved":false,"is_disabled":false,"rental_uris":{"android":"levelo://app?vid=37e09805-e12f-4d24-9ec9-152a8fc34efa","ios":"levelo://app?vid=37e09805-e12f-4d24-9ec9-152a8fc34efa"},"vehicle_type_id":"4","last_reported":1678658778,"current_range_meters":0,"station_id":"","pricing_plan_id":"free"},{"bike_id":"f43302ed-a77d-47db-b901-2a6e6f6449d4","system_id":"levelo_inurba_marseille","lat":43.28108,"lon":5.37847,"is_reserved":false,"is_disabled":false,"rental_uris":{"android":"levelo://app?vid=f43302ed-a77d-47db-b901-2a6e6f6449d4","ios":"levelo://app?vid=f43302ed-a77d-47db-b901-2a6e6f6449d4"},"vehicle_type_id":"4","last_reported":1678658778,"current_range_meters":6400,"station_id":"ce4bha12rcd13ifvqee0","pricing_plan_id":"free"},{"bike_id":"05c3e4d6-3a7c-4be0-a589-8659a05819a3","system_id":"levelo_inurba_marseille","lat":43.296263,"lon":5.40601,"is_reserved":false,"is_disabled":false,"rental_uris":{"android":"levelo://app?vid=05c3e4d6-3a7c-4be0-a589-8659a05819a3","ios":"levelo://app?vid=05c3e4d6-3a7c-4be0-a589-8659a05819a3"},"vehicle_type_id":"4","last_reported":1678658778,"current_range_meters":8400,"station_id":"ce4bh0h2rcd13ifvqd60","pricing_plan_id":"free"},{"bike_id":"d1270b0d-a04f-4ea1-bf54-d8c728217dd5","system_id":"levelo_inurba_marseille","lat":43.28106,"lon":5.37848,"is_reserved":false,"is_disabled":false,"rental_uris":{"android":"levelo://app?vid=d1270b0d-a04f-4ea1-bf54-d8c728217dd5","ios":"levelo://app?vid=d1270b0d-a04f-4ea1-bf54-d8c728217dd5"},"vehicle_type_id":"4","last_reported":1678658778,"current_range_meters":1600,"station_id":"","pricing_plan_id":"free"},{"bike_id":"75cab41a-ebdb-4532-bb45-cfdf6145332a","system_id":"levelo_inurba_marseille","lat":43.296263,"lon":5.40601,"is_reserved":false,"is_disabled":false,"rental_uris":{"android":"levelo://app?vid=75cab41a-ebdb-4532-bb45-cfdf6145332a","ios":"levelo://app?vid=75cab41a-ebdb-4532-bb45-cfdf6145332a"},"vehicle_type_id":"4","last_reported":1678658778,"current_range_meters":13600,"station_id":"ce4bh0h2rcd13ifvqd60","pricing_plan_id":"free"},{"bike_id":"df2b700b-7bba-4568-8776-f5cf3e525c39","system_id":"levelo_inurba_marseille","lat":43.28453,"lon":5.39193,"is_reserved":false,"is_disabled":false,"rental_uris":{"android":"levelo://app?vid=df2b700b-7bba-4568-8776-f5cf3e525c39","ios":"levelo://app?vid=df2b700b-7bba-4568-8776-f5cf3e525c39"},"vehicle_type_id":"4","last_reported":1678658778,"current_range_meters":18800,"station_id":"ce4bhoh2rcd13ifvqh5g","pricing_plan_id":"free"},{"bike_id":"6392fec6-7ed0-457d-9ddf-5adbbee8be9c","system_id":"levelo_inurba_marseille","lat":43.30422,"lon":5.41287,"is_reserved":false,"is_disabled":false,"rental_uris":{"android":"levelo://app?vid=6392fec6-7ed0-457d-9ddf-5adbbee8be9c","ios":"levelo://app?vid=6392fec6-7ed0-457d-9ddf-5adbbee8be9c"},"vehicle_type_id":"4","last_reported":1678658778,"current_range_meters":2400,"station_id":"","pricing_plan_id":"free"},{"bike_id":"b49c3750-ee75-4112-a88d-a26cf7a97fb1","system_id":"levelo_inurba_marseille","lat":43.287154,"lon":5.399979,"is_reserved":false,"is_disabled":false,"rental_uris":{"android":"levelo://app?vid=b49c3750-ee75-4112-a88d-a26cf7a97fb1","ios":"levelo://app?vid=b49c3750-ee75-4112-a88d-a26cf7a97fb1"},"vehicle_type_id":"4","last_reported":1678658778,"current_range_meters":12400,"station_id":"ce4bho92rcd13ifvqh3g","pricing_plan_id":"free"},{"bike_id":"7338855e-370c-4f82-898c-ad89c88d900f","system_id":"levelo_inurba_marseille","lat":43.287154,"lon":5.399979,"is_reserved":false,"is_disabled":false,"rental_uris":{"android":"levelo://app?vid=7338855e-370c-4f82-898c-ad89c88d900f","ios":"levelo://app?vid=7338855e-370c-4f82-898c-ad89c88d900f"},"vehicle_type_id":"4","last_reported":1678658778,"current_range_meters":31600,"station_id":"ce4bho92rcd13ifvqh3g","pricing_plan_id":"free"},{"bike_id":"6830e293-3654-4199-83dc-34d621a7da4b","system_id":"levelo_inurba_marseille","lat":43.320483,"lon":5.415597,"is_reserved":false,"is_disabled":false,"rental_uris":{"android":"levelo://app?vid=6830e293-3654-4199-83dc-34d621a7da4b","ios":"levelo://app?vid=6830e293-3654-4199-83dc-34d621a7da4b"},"vehicle_type_id":"4","last_reported":1678658778,"current_range_meters":0,"station_id":"","pricing_plan_id":"free"},{"bike_id":"77f1547a-62c9-4b6f-8a30-2fe90ffd46c5","system_id":"levelo_inurba_marseille","lat":43.29261,"lon":5.40901,"is_reserved":false,"is_disabled":false,"rental_uris":{"android":"levelo://app?vid=77f1547a-62c9-4b6f-8a30-2fe90ffd46c5","ios":"levelo://app?vid=77f1547a-62c9-4b6f-8a30-2fe90ffd46c5"},"vehicle_type_id":"4","last_reported":1678658778,"current_range_meters":13200,"station_id":"","pricing_plan_id":"free"},{"bike_id":"8b15ab4a-9f26-40ee-b30a-7d1049be1f0b","system_id":"levelo_inurba_marseille","lat":43.292569,"lon":5.409107,"is_reserved":false,"is_disabled":false,"rental_uris":{"android":"levelo://app?vid=8b15ab4a-9f26-40ee-b30a-7d1049be1f0b","ios":"levelo://app?vid=8b15ab4a-9f26-40ee-b30a-7d1049be1f0b"},"vehicle_type_id":"4","last_reported":1678658778,"current_range_meters":22400,"station_id":"ce4bh192rcd13ifvqdc0","pricing_plan_id":"free"},{"bike_id":"7cdd874f-0476-4a50-a778-0239c61f9aa8","system_id":"levelo_inurba_marseille","lat":43.292557,"lon":5.409023,"is_reserved":false,"is_disabled":false,"rental_uris":{"android":"levelo://app?vid=7cdd874f-0476-4a50-a778-0239c61f9aa8","ios":"levelo://app?vid=7cdd874f-0476-4a50-a778-0239c61f9aa8"},"vehicle_type_id":"4","last_reported":1678658778,"current_range_meters":14400,"station_id":"ce4bh192rcd13ifvqdc0","pricing_plan_id":"free"},{"bike_id":"ff1c4517-a98c-4797-9124-a96a8310019f","system_id":"levelo_inurba_marseille","lat":43.276643,"lon":5.357753,"is_reserved":false,"is_disabled":false,"rental_uris":{"android":"levelo://app?vid=ff1c4517-a98c-4797-9124-a96a8310019f","ios":"levelo://app?vid=ff1c4517-a98c-4797-9124-a96a8310019f"},"vehicle_type_id":"4","last_reported":1678658778,"current_range_meters":0,"station_id":"","pricing_plan_id":"free"},{"bike_id":"95df217f-be48-4ded-87ff-33de22d94118","system_id":"levelo_inurba_marseille","lat":43.292569,"lon":5.409107,"is_reserved":false,"is_disabled":false,"rental_uris":{"android":"levelo://app?vid=95df217f-be48-4ded-87ff-33de22d94118","ios":"levelo://app?vid=95df217f-be48-4ded-87ff-33de22d94118"},"vehicle_type_id":"4","last_reported":1678658778,"current_range_meters":1600,"station_id":"ce4bh192rcd13ifvqdc0","pricing_plan_id":"free"},{"bike_id":"6faefa24-4e72-487d-a2da-e198a15882be","system_id":"levelo_inurba_marseille","lat":43.292569,"lon":5.409107,"is_reserved":false,"is_disabled":false,"rental_uris":{"android":"levelo://app?vid=6faefa24-4e72-487d-a2da-e198a15882be","ios":"levelo://app?vid=6faefa24-4e72-487d-a2da-e198a15882be"},"vehicle_type_id":"4","last_reported":1678658778,"current_range_meters":2000,"station_id":"ce4bh192rcd13ifvqdc0","pricing_plan_id":"free"},{"bike_id":"6a3b843b-b04b-4d5b-85eb-ea9ea1481fc5","system_id":"levelo_inurba_marseille","lat":43.292569,"lon":5.409107,"is_reserved":false,"is_disabled":false,"rental_uris":{"android":"levelo://app?vid=6a3b843b-b04b-4d5b-85eb-ea9ea1481fc5","ios":"levelo://app?vid=6a3b843b-b04b-4d5b-85eb-ea9ea1481fc5"},"vehicle_type_id":"4","last_reported":1678658778,"current_range_meters":6400,"station_id":"ce4bh192rcd13ifvqdc0","pricing_plan_id":"free"},{"bike_id":"168ab727-63d0-4118-a0df-08aa4433a039","system_id":"levelo_inurba_marseille","lat":43.292569,"lon":5.409107,"is_reserved":false,"is_disabled":false,"rental_uris":{"android":"levelo://app?vid=168ab727-63d0-4118-a0df-08aa4433a039","ios":"levelo://app?vid=168ab727-63d0-4118-a0df-08aa4433a039"},"vehicle_type_id":"4","last_reported":1678658778,"current_range_meters":800,"station_id":"ce4bh192rcd13ifvqdc0","pricing_plan_id":"free"},{"bike_id":"cc341f43-f836-4396-a48e-30b0bce61b7f","system_id":"levelo_inurba_marseille","lat":43.325243,"lon":5.414326,"is_reserved":false,"is_disabled":false,"rental_uris":{"android":"levelo://app?vid=cc341f43-f836-4396-a48e-30b0bce61b7f","ios":"levelo://app?vid=cc341f43-f836-4396-a48e-30b0bce61b7f"},"vehicle_type_id":"4","last_reported":1678658778,"current_range_meters":24400,"station_id":"ce4bhq12rcd13ifvqhhg","pricing_plan_id":"free"},{"bike_id":"bb828ed2-18b0-4da1-9c5c-61691fc20733","system_id":"levelo_inurba_marseille","lat":43.280784,"lon":5.396622,"is_reserved":false,"is_disabled":false,"rental_uris":{"android":"levelo://app?vid=bb828ed2-18b0-4da1-9c5c-61691fc20733","ios":"levelo://app?vid=bb828ed2-18b0-4da1-9c5c-61691fc20733"},"vehicle_type_id":"4","last_reported":1678658778,"current_range_meters":400,"station_id":"ce4bho12rcd13ifvqh2g","pricing_plan_id":"free"},{"bike_id":"afd5f434-5135-405c-9971-08d68cd8384c","system_id":"levelo_inurba_marseille","lat":43.33516,"lon":5.41038,"is_reserved":false,"is_disabled":false,"rental_uris":{"android":"levelo://app?vid=afd5f434-5135-405c-9971-08d68cd8384c","ios":"levelo://app?vid=afd5f434-5135-405c-9971-08d68cd8384c"},"vehicle_type_id":"4","last_reported":1678658778,"current_range_meters":10400,"station_id":"","pricing_plan_id":"free"},{"bike_id":"b18672b0-138e-4866-83b0-1e5e31f8fe29","system_id":"levelo_inurba_marseille","lat":43.33612,"lon":5.410321,"is_reserved":false,"is_disabled":false,"rental_uris":{"android":"levelo://app?vid=b18672b0-138e-4866-83b0-1e5e31f8fe29","ios":"levelo://app?vid=b18672b0-138e-4866-83b0-1e5e31f8fe29"},"vehicle_type_id":"4","last_reported":1678658778,"current_range_meters":0,"station_id":"ce4bhqh2rcd13ifvqhmg","pricing_plan_id":"free"},{"bike_id":"72573125-7a1e-4237-8011-233294fc93f7","system_id":"levelo_inurba_marseille","lat":43.29815,"lon":5.418047,"is_reserved":false,"is_disabled":false,"rental_uris":{"android":"levelo://app?vid=72573125-7a1e-4237-8011-233294fc93f7","ios":"levelo://app?vid=72573125-7a1e-4237-8011-233294fc93f7"},"vehicle_type_id":"4","last_reported":1678658778,"current_range_meters":21200,"station_id":"","pricing_plan_id":"free"},{"bike_id":"e02d7976-862a-4ea8-bbdd-e4266c905e02","system_id":"levelo_inurba_marseille","lat":43.31723,"lon":5.42396,"is_reserved":false,"is_disabled":false,"rental_uris":{"android":"levelo://app?vid=e02d7976-862a-4ea8-bbdd-e4266c905e02","ios":"levelo://app?vid=e02d7976-862a-4ea8-bbdd-e4266c905e02"},"vehicle_type_id":"4","last_reported":1678658778,"current_range_meters":2400,"station_id":"ce4bhp92rcd13ifvqhbg","pricing_plan_id":"free"},{"bike_id":"7e950919-70cd-49eb-88ef-a1aa9e3f473d","system_id":"levelo_inurba_marseille","lat":43.317121,"lon":5.423936,"is_reserved":false,"is_disabled":false,"rental_uris":{"android":"levelo://app?vid=7e950919-70cd-49eb-88ef-a1aa9e3f473d","ios":"levelo://app?vid=7e950919-70cd-49eb-88ef-a1aa9e3f473d"},"vehicle_type_id":"4","last_reported":1678658778,"current_range_meters":28000,"station_id":"ce4bhp92rcd13ifvqhbg","pricing_plan_id":"free"},{"bike_id":"d1ecd035-ad86-44f9-a0ca-9817e86b1643","system_id":"levelo_inurba_marseille","lat":43.27946,"lon":5.40432,"is_reserved":false,"is_disabled":false,"rental_uris":{"android":"levelo://app?vid=d1ecd035-ad86-44f9-a0ca-9817e86b1643","ios":"levelo://app?vid=d1ecd035-ad86-44f9-a0ca-9817e86b1643"},"vehicle_type_id":"4","last_reported":1678658778,"current_range_meters":17600,"station_id":"","pricing_plan_id":"free"},{"bike_id":"8ba4f3ab-cbaf-4e38-89ce-9b0ed0e06913","system_id":"levelo_inurba_marseille","lat":43.27309,"lon":5.39081,"is_reserved":false,"is_disabled":false,"rental_uris":{"android":"levelo://app?vid=8ba4f3ab-cbaf-4e38-89ce-9b0ed0e06913","ios":"levelo://app?vid=8ba4f3ab-cbaf-4e38-89ce-9b0ed0e06913"},"vehicle_type_id":"4","last_reported":1678658778,"current_range_meters":2000,"station_id":"","pricing_plan_id":"free"},{"bike_id":"d2223ce4-5d7f-49b5-9cd5-9199dbd3d671","system_id":"levelo_inurba_marseille","lat":43.304096,"lon":5.425385,"is_reserved":false,"is_disabled":false,"rental_uris":{"android":"levelo://app?vid=d2223ce4-5d7f-49b5-9cd5-9199dbd3d671","ios":"levelo://app?vid=d2223ce4-5d7f-49b5-9cd5-9199dbd3d671"},"vehicle_type_id":"4","last_reported":1678658778,"current_range_meters":13200,"station_id":"ce4bhoh2rcd13ifvqh6g","pricing_plan_id":"free"},{"bike_id":"09d1b7e1-107f-4e1f-993e-9bbf4b29caf5","system_id":"levelo_inurba_marseille","lat":43.29559,"lon":5.4228,"is_reserved":false,"is_disabled":false,"rental_uris":{"android":"levelo://app?vid=09d1b7e1-107f-4e1f-993e-9bbf4b29caf5","ios":"levelo://app?vid=09d1b7e1-107f-4e1f-993e-9bbf4b29caf5"},"vehicle_type_id":"4","last_reported":1678658778,"current_range_meters":26400,"station_id":"ce4bhph2rcd13ifvqhdg","pricing_plan_id":"free"},{"bike_id":"25c5a0cd-a2cd-4182-8cb5-43299ab1b8d6","system_id":"levelo_inurba_marseille","lat":43.295526,"lon":5.422808,"is_reserved":false,"is_disabled":false,"rental_uris":{"android":"levelo://app?vid=25c5a0cd-a2cd-4182-8cb5-43299ab1b8d6","ios":"levelo://app?vid=25c5a0cd-a2cd-4182-8cb5-43299ab1b8d6"},"vehicle_type_id":"4","last_reported":1678658778,"current_range_meters":5600,"station_id":"","pricing_plan_id":"free"},{"bike_id":"8bcee478-b047-4545-bc9a-f2ae418c9659","system_id":"levelo_inurba_marseille","lat":43.295523,"lon":5.422926,"is_reserved":false,"is_disabled":false,"rental_uris":{"android":"levelo://app?vid=8bcee478-b047-4545-bc9a-f2ae418c9659","ios":"levelo://app?vid=8bcee478-b047-4545-bc9a-f2ae418c9659"},"vehicle_type_id":"4","last_reported":1678658778,"current_range_meters":18800,"station_id":"ce4bhph2rcd13ifvqhdg","pricing_plan_id":"free"},{"bike_id":"cdc0256b-b55e-4797-bd8e-442bc2063f0f","system_id":"levelo_inurba_marseille","lat":43.295523,"lon":5.422926,"is_reserved":false,"is_disabled":false,"rental_uris":{"android":"levelo://app?vid=cdc0256b-b55e-4797-bd8e-442bc2063f0f","ios":"levelo://app?vid=cdc0256b-b55e-4797-bd8e-442bc2063f0f"},"vehicle_type_id":"4","last_reported":1678658778,"current_range_meters":20000,"station_id":"ce4bhph2rcd13ifvqhdg","pricing_plan_id":"free"},{"bike_id":"0d59d3c1-4e2f-45c5-91da-86fa742ad0f6","system_id":"levelo_inurba_marseille","lat":43.29552,"lon":5.42283,"is_reserved":false,"is_disabled":false,"rental_uris":{"android":"levelo://app?vid=0d59d3c1-4e2f-45c5-91da-86fa742ad0f6","ios":"levelo://app?vid=0d59d3c1-4e2f-45c5-91da-86fa742ad0f6"},"vehicle_type_id":"4","last_reported":1678658778,"current_range_meters":24800,"station_id":"","pricing_plan_id":"free"},{"bike_id":"2c293236-5ccd-462a-be3f-d68c4578fa49","system_id":"levelo_inurba_marseille","lat":43.29551,"lon":5.42285,"is_reserved":false,"is_disabled":false,"rental_uris":{"android":"levelo://app?vid=2c293236-5ccd-462a-be3f-d68c4578fa49","ios":"levelo://app?vid=2c293236-5ccd-462a-be3f-d68c4578fa49"},"vehicle_type_id":"4","last_reported":1678658778,"current_range_meters":22000,"station_id":"","pricing_plan_id":"free"},{"bike_id":"cb8fda6d-cd77-4bb1-9d8c-ccc580981c90","system_id":"levelo_inurba_marseille","lat":43.295523,"lon":5.422926,"is_reserved":false,"is_disabled":false,"rental_uris":{"android":"levelo://app?vid=cb8fda6d-cd77-4bb1-9d8c-ccc580981c90","ios":"levelo://app?vid=cb8fda6d-cd77-4bb1-9d8c-ccc580981c90"},"vehicle_type_id":"4","last_reported":1678658778,"current_range_meters":22800,"station_id":"ce4bhph2rcd13ifvqhdg","pricing_plan_id":"free"},{"bike_id":"67dc6dbb-1c34-4f73-8cd6-e42763cf071a","system_id":"levelo_inurba_marseille","lat":43.2955,"lon":5.42286,"is_reserved":false,"is_disabled":false,"rental_uris":{"android":"levelo://app?vid=67dc6dbb-1c34-4f73-8cd6-e42763cf071a","ios":"levelo://app?vid=67dc6dbb-1c34-4f73-8cd6-e42763cf071a"},"vehicle_type_id":"4","last_reported":1678658778,"current_range_meters":27600,"station_id":"ce4bhph2rcd13ifvqhdg","pricing_plan_id":"free"},{"bike_id":"4028fe9e-f710-45f6-bb21-f1a603ddb96a","system_id":"levelo_inurba_marseille","lat":43.269319,"lon":5.389397,"is_reserved":false,"is_disabled":false,"rental_uris":{"android":"levelo://app?vid=4028fe9e-f710-45f6-bb21-f1a603ddb96a","ios":"levelo://app?vid=4028fe9e-f710-45f6-bb21-f1a603ddb96a"},"vehicle_type_id":"4","last_reported":1678658778,"current_range_meters":0,"station_id":"ce4bhhh2rcd13ifvqfl0","pricing_plan_id":"free"},{"bike_id":"6059926d-eba3-4de5-8062-4f0787686765","system_id":"levelo_inurba_marseille","lat":43.26686,"lon":5.3827,"is_reserved":false,"is_disabled":false,"rental_uris":{"android":"levelo://app?vid=6059926d-eba3-4de5-8062-4f0787686765","ios":"levelo://app?vid=6059926d-eba3-4de5-8062-4f0787686765"},"vehicle_type_id":"4","last_reported":1678658778,"current_range_meters":13600,"station_id":"ce4bhg92rcd13ifvqf90","pricing_plan_id":"free"},{"bike_id":"84bd6496-7a4b-4f42-afdb-9dbd91f37b53","system_id":"levelo_inurba_marseille","lat":43.28002,"lon":5.416603,"is_reserved":false,"is_disabled":false,"rental_uris":{"android":"levelo://app?vid=84bd6496-7a4b-4f42-afdb-9dbd91f37b53","ios":"levelo://app?vid=84bd6496-7a4b-4f42-afdb-9dbd91f37b53"},"vehicle_type_id":"4","last_reported":1678658778,"current_range_meters":27200,"station_id":"","pricing_plan_id":"free"},{"bike_id":"1424b4ec-7257-401c-9fcd-ebf407232e35","system_id":"levelo_inurba_marseille","lat":43.279948,"lon":5.416575,"is_reserved":false,"is_disabled":false,"rental_uris":{"android":"levelo://app?vid=1424b4ec-7257-401c-9fcd-ebf407232e35","ios":"levelo://app?vid=1424b4ec-7257-401c-9fcd-ebf407232e35"},"vehicle_type_id":"4","last_reported":1678658778,"current_range_meters":29200,"station_id":"ce4bho12rcd13ifvqh1g","pricing_plan_id":"free"},{"bike_id":"0a98bea4-1dcf-4758-b988-0c2a1c0a0253","system_id":"levelo_inurba_marseille","lat":43.27996,"lon":5.41661,"is_reserved":false,"is_disabled":false,"rental_uris":{"android":"levelo://app?vid=0a98bea4-1dcf-4758-b988-0c2a1c0a0253","ios":"levelo://app?vid=0a98bea4-1dcf-4758-b988-0c2a1c0a0253"},"vehicle_type_id":"4","last_reported":1678658778,"current_range_meters":18400,"station_id":"ce4bho12rcd13ifvqh1g","pricing_plan_id":"free"},{"bike_id":"a9f1c301-b8bd-4345-8b57-177ab0156b11","system_id":"levelo_inurba_marseille","lat":43.27996,"lon":5.416624,"is_reserved":false,"is_disabled":false,"rental_uris":{"android":"levelo://app?vid=a9f1c301-b8bd-4345-8b57-177ab0156b11","ios":"levelo://app?vid=a9f1c301-b8bd-4345-8b57-177ab0156b11"},"vehicle_type_id":"4","last_reported":1678658778,"current_range_meters":14800,"station_id":"ce4bho12rcd13ifvqh1g","pricing_plan_id":"free"},{"bike_id":"7fad437e-5acf-494b-a3da-3c8b1f73d4ac","system_id":"levelo_inurba_marseille","lat":43.27996,"lon":5.416624,"is_reserved":false,"is_disabled":false,"rental_uris":{"android":"levelo://app?vid=7fad437e-5acf-494b-a3da-3c8b1f73d4ac","ios":"levelo://app?vid=7fad437e-5acf-494b-a3da-3c8b1f73d4ac"},"vehicle_type_id":"4","last_reported":1678658778,"current_range_meters":10000,"station_id":"ce4bho12rcd13ifvqh1g","pricing_plan_id":"free"},{"bike_id":"87472abf-01b2-4445-b22d-7054e8aa8d14","system_id":"levelo_inurba_marseille","lat":43.279897,"lon":5.416555,"is_reserved":false,"is_disabled":false,"rental_uris":{"android":"levelo://app?vid=87472abf-01b2-4445-b22d-7054e8aa8d14","ios":"levelo://app?vid=87472abf-01b2-4445-b22d-7054e8aa8d14"},"vehicle_type_id":"4","last_reported":1678658778,"current_range_meters":26400,"station_id":"ce4bho12rcd13ifvqh1g","pricing_plan_id":"free"},{"bike_id":"ce2ae1fc-0e03-459c-8133-6e1687f3cc71","system_id":"levelo_inurba_marseille","lat":43.27996,"lon":5.416624,"is_reserved":false,"is_disabled":false,"rental_uris":{"android":"levelo://app?vid=ce2ae1fc-0e03-459c-8133-6e1687f3cc71","ios":"levelo://app?vid=ce2ae1fc-0e03-459c-8133-6e1687f3cc71"},"vehicle_type_id":"4","last_reported":1678658778,"current_range_meters":7200,"station_id":"ce4bho12rcd13ifvqh1g","pricing_plan_id":"free"},{"bike_id":"a1b0b731-caea-4580-b5c6-a31b045b415c","system_id":"levelo_inurba_marseille","lat":43.27996,"lon":5.416624,"is_reserved":false,"is_disabled":false,"rental_uris":{"android":"levelo://app?vid=a1b0b731-caea-4580-b5c6-a31b045b415c","ios":"levelo://app?vid=a1b0b731-caea-4580-b5c6-a31b045b415c"},"vehicle_type_id":"4","last_reported":1678658778,"current_range_meters":11600,"station_id":"ce4bho12rcd13ifvqh1g","pricing_plan_id":"free"},{"bike_id":"c13f31eb-b018-47eb-9416-3a8a57c3831e","system_id":"levelo_inurba_marseille","lat":43.27996,"lon":5.416624,"is_reserved":false,"is_disabled":false,"rental_uris":{"android":"levelo://app?vid=c13f31eb-b018-47eb-9416-3a8a57c3831e","ios":"levelo://app?vid=c13f31eb-b018-47eb-9416-3a8a57c3831e"},"vehicle_type_id":"4","last_reported":1678658778,"current_range_meters":6400,"station_id":"ce4bho12rcd13ifvqh1g","pricing_plan_id":"free"},{"bike_id":"6722b8f4-a1b8-43d5-b1f6-fc13fef1039f","system_id":"levelo_inurba_marseille","lat":43.27996,"lon":5.416624,"is_reserved":false,"is_disabled":false,"rental_uris":{"android":"levelo://app?vid=6722b8f4-a1b8-43d5-b1f6-fc13fef1039f","ios":"levelo://app?vid=6722b8f4-a1b8-43d5-b1f6-fc13fef1039f"},"vehicle_type_id":"4","last_reported":1678658778,"current_range_meters":18000,"station_id":"ce4bho12rcd13ifvqh1g","pricing_plan_id":"free"},{"bike_id":"7452a54f-9512-404b-a470-e1f94f8c63a3","system_id":"levelo_inurba_marseille","lat":43.308051,"lon":5.43527,"is_reserved":false,"is_disabled":false,"rental_uris":{"android":"levelo://app?vid=7452a54f-9512-404b-a470-e1f94f8c63a3","ios":"levelo://app?vid=7452a54f-9512-404b-a470-e1f94f8c63a3"},"vehicle_type_id":"4","last_reported":1678658778,"current_range_meters":4000,"station_id":"ce4bhph2rcd13ifvqheg","pricing_plan_id":"free"},{"bike_id":"4d5dbde2-b494-499e-96d8-f8febe9156c9","system_id":"levelo_inurba_marseille","lat":43.317104,"lon":5.436818,"is_reserved":false,"is_disabled":false,"rental_uris":{"android":"levelo://app?vid=4d5dbde2-b494-499e-96d8-f8febe9156c9","ios":"levelo://app?vid=4d5dbde2-b494-499e-96d8-f8febe9156c9"},"vehicle_type_id":"4","last_reported":1678658778,"current_range_meters":4400,"station_id":"ce4bhp92rcd13ifvqhcg","pricing_plan_id":"free"},{"bike_id":"4e2a87d4-bf65-438b-a3fa-e49ea097d41a","system_id":"levelo_inurba_marseille","lat":43.317104,"lon":5.436818,"is_reserved":false,"is_disabled":false,"rental_uris":{"android":"levelo://app?vid=4e2a87d4-bf65-438b-a3fa-e49ea097d41a","ios":"levelo://app?vid=4e2a87d4-bf65-438b-a3fa-e49ea097d41a"},"vehicle_type_id":"4","last_reported":1678658778,"current_range_meters":5600,"station_id":"ce4bhp92rcd13ifvqhcg","pricing_plan_id":"free"},{"bike_id":"5ce92140-64d1-4739-81d8-e978a68c68ee","system_id":"levelo_inurba_marseille","lat":43.317104,"lon":5.436818,"is_reserved":false,"is_disabled":false,"rental_uris":{"android":"levelo://app?vid=5ce92140-64d1-4739-81d8-e978a68c68ee","ios":"levelo://app?vid=5ce92140-64d1-4739-81d8-e978a68c68ee"},"vehicle_type_id":"4","last_reported":1678658778,"current_range_meters":18400,"station_id":"ce4bhp92rcd13ifvqhcg","pricing_plan_id":"free"},{"bike_id":"e68185ae-37f9-4f22-9254-720d19af31a5","system_id":"levelo_inurba_marseille","lat":43.317104,"lon":5.436818,"is_reserved":false,"is_disabled":false,"rental_uris":{"android":"levelo://app?vid=e68185ae-37f9-4f22-9254-720d19af31a5","ios":"levelo://app?vid=e68185ae-37f9-4f22-9254-720d19af31a5"},"vehicle_type_id":"4","last_reported":1678658778,"current_range_meters":23200,"station_id":"ce4bhp92rcd13ifvqhcg","pricing_plan_id":"free"},{"bike_id":"fcb2b9bc-0372-43d6-a7e5-85da4bfbfba0","system_id":"levelo_inurba_marseille","lat":43.317104,"lon":5.436818,"is_reserved":false,"is_disabled":false,"rental_uris":{"android":"levelo://app?vid=fcb2b9bc-0372-43d6-a7e5-85da4bfbfba0","ios":"levelo://app?vid=fcb2b9bc-0372-43d6-a7e5-85da4bfbfba0"},"vehicle_type_id":"4","last_reported":1678658778,"current_range_meters":0,"station_id":"ce4bhp92rcd13ifvqhcg","pricing_plan_id":"free"},{"bike_id":"825cb316-a7bb-44fc-9675-33908465224f","system_id":"levelo_inurba_marseille","lat":43.260219,"lon":5.37546,"is_reserved":false,"is_disabled":false,"rental_uris":{"android":"levelo://app?vid=825cb316-a7bb-44fc-9675-33908465224f","ios":"levelo://app?vid=825cb316-a7bb-44fc-9675-33908465224f"},"vehicle_type_id":"4","last_reported":1678658778,"current_range_meters":11200,"station_id":"ce4bhgh2rcd13ifvqfa0","pricing_plan_id":"free"},{"bike_id":"f481e9b1-9120-4adb-a107-fca35f1e3fc5","system_id":"levelo_inurba_marseille","lat":43.26027,"lon":5.37549,"is_reserved":false,"is_disabled":false,"rental_uris":{"android":"levelo://app?vid=f481e9b1-9120-4adb-a107-fca35f1e3fc5","ios":"levelo://app?vid=f481e9b1-9120-4adb-a107-fca35f1e3fc5"},"vehicle_type_id":"4","last_reported":1678658778,"current_range_meters":21600,"station_id":"","pricing_plan_id":"free"},{"bike_id":"792d5bac-bd65-4789-9564-e20ceab48421","system_id":"levelo_inurba_marseille","lat":43.260909,"lon":5.397591,"is_reserved":false,"is_disabled":false,"rental_uris":{"android":"levelo://app?vid=792d5bac-bd65-4789-9564-e20ceab48421","ios":"levelo://app?vid=792d5bac-bd65-4789-9564-e20ceab48421"},"vehicle_type_id":"4","last_reported":1678658778,"current_range_meters":10000,"station_id":"ce4bhi12rcd13ifvqfq0","pricing_plan_id":"free"},{"bike_id":"26e80a9a-36cd-423c-a3cb-995b2e63904c","system_id":"levelo_inurba_marseille","lat":43.255756,"lon":5.382303,"is_reserved":false,"is_disabled":false,"rental_uris":{"android":"levelo://app?vid=26e80a9a-36cd-423c-a3cb-995b2e63904c","ios":"levelo://app?vid=26e80a9a-36cd-423c-a3cb-995b2e63904c"},"vehicle_type_id":"4","last_reported":1678658778,"current_range_meters":4400,"station_id":"ce4bhih2rcd13ifvqfs0","pricing_plan_id":"free"},{"bike_id":"78fcdea4-a08d-41a6-b985-c2a3475d240a","system_id":"levelo_inurba_marseille","lat":43.255756,"lon":5.382303,"is_reserved":false,"is_disabled":false,"rental_uris":{"android":"levelo://app?vid=78fcdea4-a08d-41a6-b985-c2a3475d240a","ios":"levelo://app?vid=78fcdea4-a08d-41a6-b985-c2a3475d240a"},"vehicle_type_id":"4","last_reported":1678658778,"current_range_meters":6000,"station_id":"ce4bhih2rcd13ifvqfs0","pricing_plan_id":"free"},{"bike_id":"6a7b88e4-af62-471b-a004-f88c9153461b","system_id":"levelo_inurba_marseille","lat":43.255756,"lon":5.382303,"is_reserved":false,"is_disabled":false,"rental_uris":{"android":"levelo://app?vid=6a7b88e4-af62-471b-a004-f88c9153461b","ios":"levelo://app?vid=6a7b88e4-af62-471b-a004-f88c9153461b"},"vehicle_type_id":"4","last_reported":1678658778,"current_range_meters":12800,"station_id":"ce4bhih2rcd13ifvqfs0","pricing_plan_id":"free"},{"bike_id":"0beef71e-5964-45f7-91cb-b37e6365162a","system_id":"levelo_inurba_marseille","lat":43.270721,"lon":5.422764,"is_reserved":false,"is_disabled":false,"rental_uris":{"android":"levelo://app?vid=0beef71e-5964-45f7-91cb-b37e6365162a","ios":"levelo://app?vid=0beef71e-5964-45f7-91cb-b37e6365162a"},"vehicle_type_id":"4","last_reported":1678658778,"current_range_meters":0,"station_id":"ce4bhk92rcd13ifvqgb0","pricing_plan_id":"free"},{"bike_id":"7f00de8c-8367-4d4b-bab3-b4e74097f4e3","system_id":"levelo_inurba_marseille","lat":43.270721,"lon":5.422764,"is_reserved":false,"is_disabled":false,"rental_uris":{"android":"levelo://app?vid=7f00de8c-8367-4d4b-bab3-b4e74097f4e3","ios":"levelo://app?vid=7f00de8c-8367-4d4b-bab3-b4e74097f4e3"},"vehicle_type_id":"4","last_reported":1678658778,"current_range_meters":23200,"station_id":"ce4bhk92rcd13ifvqgb0","pricing_plan_id":"free"},{"bike_id":"45490877-4370-448a-9239-e85debfc83ff","system_id":"levelo_inurba_marseille","lat":43.270721,"lon":5.422764,"is_reserved":false,"is_disabled":false,"rental_uris":{"android":"levelo://app?vid=45490877-4370-448a-9239-e85debfc83ff","ios":"levelo://app?vid=45490877-4370-448a-9239-e85debfc83ff"},"vehicle_type_id":"4","last_reported":1678658778,"current_range_meters":20400,"station_id":"ce4bhk92rcd13ifvqgb0","pricing_plan_id":"free"},{"bike_id":"5afb75cc-ebb1-4519-a22d-4b07569f93cb","system_id":"levelo_inurba_marseille","lat":43.270721,"lon":5.422764,"is_reserved":false,"is_disabled":false,"rental_uris":{"android":"levelo://app?vid=5afb75cc-ebb1-4519-a22d-4b07569f93cb","ios":"levelo://app?vid=5afb75cc-ebb1-4519-a22d-4b07569f93cb"},"vehicle_type_id":"4","last_reported":1678658778,"current_range_meters":6000,"station_id":"ce4bhk92rcd13ifvqgb0","pricing_plan_id":"free"},{"bike_id":"45f912ee-5b29-42fe-81ed-3e9fb3369dd0","system_id":"levelo_inurba_marseille","lat":43.270721,"lon":5.422764,"is_reserved":false,"is_disabled":false,"rental_uris":{"android":"levelo://app?vid=45f912ee-5b29-42fe-81ed-3e9fb3369dd0","ios":"levelo://app?vid=45f912ee-5b29-42fe-81ed-3e9fb3369dd0"},"vehicle_type_id":"4","last_reported":1678658778,"current_range_meters":18800,"station_id":"ce4bhk92rcd13ifvqgb0","pricing_plan_id":"free"},{"bike_id":"f41a01e9-01d5-4f02-a4b3-9346bd2ae727","system_id":"levelo_inurba_marseille","lat":43.29507,"lon":5.44408,"is_reserved":false,"is_disabled":false,"rental_uris":{"android":"levelo://app?vid=f41a01e9-01d5-4f02-a4b3-9346bd2ae727","ios":"levelo://app?vid=f41a01e9-01d5-4f02-a4b3-9346bd2ae727"},"vehicle_type_id":"4","last_reported":1678658778,"current_range_meters":3600,"station_id":"","pricing_plan_id":"free"},{"bike_id":"15fa8b08-0646-4610-acd9-343bcd2d9232","system_id":"levelo_inurba_marseille","lat":43.250023,"lon":5.38919,"is_reserved":false,"is_disabled":false,"rental_uris":{"android":"levelo://app?vid=15fa8b08-0646-4610-acd9-343bcd2d9232","ios":"levelo://app?vid=15fa8b08-0646-4610-acd9-343bcd2d9232"},"vehicle_type_id":"4","last_reported":1678658778,"current_range_meters":1200,"station_id":"ce4bhgp2rcd13ifvqfd0","pricing_plan_id":"free"},{"bike_id":"9f9eadba-a84e-4742-8c57-42345462b30f","system_id":"levelo_inurba_marseille","lat":43.24814,"lon":5.37462,"is_reserved":false,"is_disabled":false,"rental_uris":{"android":"levelo://app?vid=9f9eadba-a84e-4742-8c57-42345462b30f","ios":"levelo://app?vid=9f9eadba-a84e-4742-8c57-42345462b30f"},"vehicle_type_id":"4","last_reported":1678658778,"current_range_meters":30000,"station_id":"ce4bhgh2rcd13ifvqfb0","pricing_plan_id":"free"},{"bike_id":"db9673e9-9598-4654-8d0d-6b51dc683c4d","system_id":"levelo_inurba_marseille","lat":43.2479,"lon":5.374457,"is_reserved":false,"is_disabled":false,"rental_uris":{"android":"levelo://app?vid=db9673e9-9598-4654-8d0d-6b51dc683c4d","ios":"levelo://app?vid=db9673e9-9598-4654-8d0d-6b51dc683c4d"},"vehicle_type_id":"4","last_reported":1678658778,"current_range_meters":10400,"station_id":"ce4bhgh2rcd13ifvqfb0","pricing_plan_id":"free"},{"bike_id":"5f0b4892-af08-4bd3-ba2a-fd3be7e38514","system_id":"levelo_inurba_marseille","lat":43.2479,"lon":5.374457,"is_reserved":false,"is_disabled":false,"rental_uris":{"android":"levelo://app?vid=5f0b4892-af08-4bd3-ba2a-fd3be7e38514","ios":"levelo://app?vid=5f0b4892-af08-4bd3-ba2a-fd3be7e38514"},"vehicle_type_id":"4","last_reported":1678658778,"current_range_meters":0,"station_id":"ce4bhgh2rcd13ifvqfb0","pricing_plan_id":"free"},{"bike_id":"d1b09801-f117-4fbc-bce8-3b4e6615f3fd","system_id":"levelo_inurba_marseille","lat":43.250887,"lon":5.395145,"is_reserved":false,"is_disabled":false,"rental_uris":{"android":"levelo://app?vid=d1b09801-f117-4fbc-bce8-3b4e6615f3fd","ios":"levelo://app?vid=d1b09801-f117-4fbc-bce8-3b4e6615f3fd"},"vehicle_type_id":"4","last_reported":1678658778,"current_range_meters":8000,"station_id":"ce4bhm12rcd13ifvqgkg","pricing_plan_id":"free"},{"bike_id":"24b5a86f-edfc-47b4-9de9-7be22d74ddd7","system_id":"levelo_inurba_marseille","lat":43.25088,"lon":5.39527,"is_reserved":false,"is_disabled":false,"rental_uris":{"android":"levelo://app?vid=24b5a86f-edfc-47b4-9de9-7be22d74ddd7","ios":"levelo://app?vid=24b5a86f-edfc-47b4-9de9-7be22d74ddd7"},"vehicle_type_id":"4","last_reported":1678658778,"current_range_meters":16000,"station_id":"","pricing_plan_id":"free"},{"bike_id":"cd654933-bcc6-4bca-add0-94bc9e334724","system_id":"levelo_inurba_marseille","lat":43.25085,"lon":5.395255,"is_reserved":false,"is_disabled":false,"rental_uris":{"android":"levelo://app?vid=cd654933-bcc6-4bca-add0-94bc9e334724","ios":"levelo://app?vid=cd654933-bcc6-4bca-add0-94bc9e334724"},"vehicle_type_id":"4","last_reported":1678658778,"current_range_meters":9200,"station_id":"","pricing_plan_id":"free"},{"bike_id":"f8386ed7-fef6-4ff7-940c-4bb2a6bbcad0","system_id":"levelo_inurba_marseille","lat":43.24693,"lon":5.382096,"is_reserved":false,"is_disabled":false,"rental_uris":{"android":"levelo://app?vid=f8386ed7-fef6-4ff7-940c-4bb2a6bbcad0","ios":"levelo://app?vid=f8386ed7-fef6-4ff7-940c-4bb2a6bbcad0"},"vehicle_type_id":"4","last_reported":1678658778,"current_range_meters":17200,"station_id":"ce4bhih2rcd13ifvqfr0","pricing_plan_id":"free"},{"bike_id":"b9390e61-80e8-4f16-b426-70750fff31a7","system_id":"levelo_inurba_marseille","lat":43.25102,"lon":5.403214,"is_reserved":false,"is_disabled":false,"rental_uris":{"android":"levelo://app?vid=b9390e61-80e8-4f16-b426-70750fff31a7","ios":"levelo://app?vid=b9390e61-80e8-4f16-b426-70750fff31a7"},"vehicle_type_id":"4","last_reported":1678658778,"current_range_meters":14800,"station_id":"ce4bhlh2rcd13ifvqgig","pricing_plan_id":"free"},{"bike_id":"919e3fb1-9703-4704-adb8-f90448cfe040","system_id":"levelo_inurba_marseille","lat":43.24693,"lon":5.382096,"is_reserved":false,"is_disabled":false,"rental_uris":{"android":"levelo://app?vid=919e3fb1-9703-4704-adb8-f90448cfe040","ios":"levelo://app?vid=919e3fb1-9703-4704-adb8-f90448cfe040"},"vehicle_type_id":"4","last_reported":1678658778,"current_range_meters":6400,"station_id":"ce4bhih2rcd13ifvqfr0","pricing_plan_id":"free"},{"bike_id":"6aebd98b-6ca8-49d7-940a-2bb4242dea64","system_id":"levelo_inurba_marseille","lat":43.25102,"lon":5.403214,"is_reserved":false,"is_disabled":false,"rental_uris":{"android":"levelo://app?vid=6aebd98b-6ca8-49d7-940a-2bb4242dea64","ios":"levelo://app?vid=6aebd98b-6ca8-49d7-940a-2bb4242dea64"},"vehicle_type_id":"4","last_reported":1678658778,"current_range_meters":16800,"station_id":"ce4bhlh2rcd13ifvqgig","pricing_plan_id":"free"},{"bike_id":"d208a100-e544-4239-b3f0-e7bad5479899","system_id":"levelo_inurba_marseille","lat":43.24693,"lon":5.382096,"is_reserved":false,"is_disabled":false,"rental_uris":{"android":"levelo://app?vid=d208a100-e544-4239-b3f0-e7bad5479899","ios":"levelo://app?vid=d208a100-e544-4239-b3f0-e7bad5479899"},"vehicle_type_id":"4","last_reported":1678658778,"current_range_meters":23200,"station_id":"ce4bhih2rcd13ifvqfr0","pricing_plan_id":"free"},{"bike_id":"35483b97-8ac9-42d1-a43c-21b0367a5ae2","system_id":"levelo_inurba_marseille","lat":43.25102,"lon":5.403214,"is_reserved":false,"is_disabled":false,"rental_uris":{"android":"levelo://app?vid=35483b97-8ac9-42d1-a43c-21b0367a5ae2","ios":"levelo://app?vid=35483b97-8ac9-42d1-a43c-21b0367a5ae2"},"vehicle_type_id":"4","last_reported":1678658778,"current_range_meters":19200,"station_id":"ce4bhlh2rcd13ifvqgig","pricing_plan_id":"free"},{"bike_id":"223b4ae0-24c1-4d5b-9807-42f0ec13826e","system_id":"levelo_inurba_marseille","lat":43.24693,"lon":5.382096,"is_reserved":false,"is_disabled":false,"rental_uris":{"android":"levelo://app?vid=223b4ae0-24c1-4d5b-9807-42f0ec13826e","ios":"levelo://app?vid=223b4ae0-24c1-4d5b-9807-42f0ec13826e"},"vehicle_type_id":"4","last_reported":1678658778,"current_range_meters":21600,"station_id":"ce4bhih2rcd13ifvqfr0","pricing_plan_id":"free"},{"bike_id":"eb96a0e7-dcc7-4ed8-bdb0-95594f69ee3a","system_id":"levelo_inurba_marseille","lat":43.25102,"lon":5.403214,"is_reserved":false,"is_disabled":false,"rental_uris":{"android":"levelo://app?vid=eb96a0e7-dcc7-4ed8-bdb0-95594f69ee3a","ios":"levelo://app?vid=eb96a0e7-dcc7-4ed8-bdb0-95594f69ee3a"},"vehicle_type_id":"4","last_reported":1678658778,"current_range_meters":24000,"station_id":"ce4bhlh2rcd13ifvqgig","pricing_plan_id":"free"},{"bike_id":"4a6c2ee5-a6da-44fd-aa83-2407b339cc08","system_id":"levelo_inurba_marseille","lat":43.25102,"lon":5.403214,"is_reserved":false,"is_disabled":false,"rental_uris":{"android":"levelo://app?vid=4a6c2ee5-a6da-44fd-aa83-2407b339cc08","ios":"levelo://app?vid=4a6c2ee5-a6da-44fd-aa83-2407b339cc08"},"vehicle_type_id":"4","last_reported":1678658778,"current_range_meters":25200,"station_id":"ce4bhlh2rcd13ifvqgig","pricing_plan_id":"free"},{"bike_id":"2a9ff34d-91d5-4e1a-a370-2d47bb10a1a2","system_id":"levelo_inurba_marseille","lat":43.25102,"lon":5.403214,"is_reserved":false,"is_disabled":false,"rental_uris":{"android":"levelo://app?vid=2a9ff34d-91d5-4e1a-a370-2d47bb10a1a2","ios":"levelo://app?vid=2a9ff34d-91d5-4e1a-a370-2d47bb10a1a2"},"vehicle_type_id":"4","last_reported":1678658778,"current_range_meters":27200,"station_id":"ce4bhlh2rcd13ifvqgig","pricing_plan_id":"free"},{"bike_id":"e5f39677-050d-4ec2-8300-33bd02845126","system_id":"levelo_inurba_marseille","lat":43.246479,"lon":5.38894,"is_reserved":false,"is_disabled":false,"rental_uris":{"android":"levelo://app?vid=e5f39677-050d-4ec2-8300-33bd02845126","ios":"levelo://app?vid=e5f39677-050d-4ec2-8300-33bd02845126"},"vehicle_type_id":"4","last_reported":1678658778,"current_range_meters":0,"station_id":"","pricing_plan_id":"free"},{"bike_id":"028081c9-41c7-4211-bd40-d3e66fce686a","system_id":"levelo_inurba_marseille","lat":43.243884,"lon":5.370736,"is_reserved":false,"is_disabled":false,"rental_uris":{"android":"levelo://app?vid=028081c9-41c7-4211-bd40-d3e66fce686a","ios":"levelo://app?vid=028081c9-41c7-4211-bd40-d3e66fce686a"},"vehicle_type_id":"4","last_reported":1678658778,"current_range_meters":0,"station_id":"ce4bhhh2rcd13ifvqfk0","pricing_plan_id":"free"},{"bike_id":"46cad8a0-e271-4307-a09e-1cc252223738","system_id":"levelo_inurba_marseille","lat":43.243914,"lon":5.370658,"is_reserved":false,"is_disabled":false,"rental_uris":{"android":"levelo://app?vid=46cad8a0-e271-4307-a09e-1cc252223738","ios":"levelo://app?vid=46cad8a0-e271-4307-a09e-1cc252223738"},"vehicle_type_id":"4","last_reported":1678658778,"current_range_meters":18000,"station_id":"ce4bhhh2rcd13ifvqfk0","pricing_plan_id":"free"},{"bike_id":"0b4a6575-e5fa-4466-b415-2992db6875d9","system_id":"levelo_inurba_marseille","lat":43.243884,"lon":5.370736,"is_reserved":false,"is_disabled":false,"rental_uris":{"android":"levelo://app?vid=0b4a6575-e5fa-4466-b415-2992db6875d9","ios":"levelo://app?vid=0b4a6575-e5fa-4466-b415-2992db6875d9"},"vehicle_type_id":"4","last_reported":1678658778,"current_range_meters":22400,"station_id":"ce4bhhh2rcd13ifvqfk0","pricing_plan_id":"free"},{"bike_id":"40aacce8-ef0f-47e3-b896-f1c02e850cbf","system_id":"levelo_inurba_marseille","lat":43.243884,"lon":5.370736,"is_reserved":false,"is_disabled":false,"rental_uris":{"android":"levelo://app?vid=40aacce8-ef0f-47e3-b896-f1c02e850cbf","ios":"levelo://app?vid=40aacce8-ef0f-47e3-b896-f1c02e850cbf"},"vehicle_type_id":"4","last_reported":1678658778,"current_range_meters":1600,"station_id":"ce4bhhh2rcd13ifvqfk0","pricing_plan_id":"free"},{"bike_id":"0534e2fc-635f-49be-9da8-8b314d0d2f63","system_id":"levelo_inurba_marseille","lat":43.243884,"lon":5.370736,"is_reserved":false,"is_disabled":false,"rental_uris":{"android":"levelo://app?vid=0534e2fc-635f-49be-9da8-8b314d0d2f63","ios":"levelo://app?vid=0534e2fc-635f-49be-9da8-8b314d0d2f63"},"vehicle_type_id":"4","last_reported":1678658778,"current_range_meters":24000,"station_id":"ce4bhhh2rcd13ifvqfk0","pricing_plan_id":"free"},{"bike_id":"bfdc8c45-adb3-48f3-afc8-470e36d97db1","system_id":"levelo_inurba_marseille","lat":43.245581,"lon":5.395069,"is_reserved":false,"is_disabled":false,"rental_uris":{"android":"levelo://app?vid=bfdc8c45-adb3-48f3-afc8-470e36d97db1","ios":"levelo://app?vid=bfdc8c45-adb3-48f3-afc8-470e36d97db1"},"vehicle_type_id":"4","last_reported":1678658778,"current_range_meters":21200,"station_id":"ce4bhlp2rcd13ifvqgjg","pricing_plan_id":"free"},{"bike_id":"f4723e59-459c-4963-a0f8-cbaabf5dc93a","system_id":"levelo_inurba_marseille","lat":43.240623,"lon":5.377642,"is_reserved":false,"is_disabled":false,"rental_uris":{"android":"levelo://app?vid=f4723e59-459c-4963-a0f8-cbaabf5dc93a","ios":"levelo://app?vid=f4723e59-459c-4963-a0f8-cbaabf5dc93a"},"vehicle_type_id":"4","last_reported":1678658778,"current_range_meters":5600,"station_id":"ce4bhnp2rcd13ifvqgvg","pricing_plan_id":"free"},{"bike_id":"37e78b9a-93b8-4f8c-9eb4-8f0ce71656bf","system_id":"levelo_inurba_marseille","lat":43.23968,"lon":5.36631,"is_reserved":false,"is_disabled":false,"rental_uris":{"android":"levelo://app?vid=37e78b9a-93b8-4f8c-9eb4-8f0ce71656bf","ios":"levelo://app?vid=37e78b9a-93b8-4f8c-9eb4-8f0ce71656bf"},"vehicle_type_id":"4","last_reported":1678658778,"current_range_meters":13200,"station_id":"ce4bhi12rcd13ifvqfp0","pricing_plan_id":"free"},{"bike_id":"1038d62c-782e-4f02-9770-410800809917","system_id":"levelo_inurba_marseille","lat":43.239588,"lon":5.366238,"is_reserved":false,"is_disabled":false,"rental_uris":{"android":"levelo://app?vid=1038d62c-782e-4f02-9770-410800809917","ios":"levelo://app?vid=1038d62c-782e-4f02-9770-410800809917"},"vehicle_type_id":"4","last_reported":1678658778,"current_range_meters":10400,"station_id":"ce4bhi12rcd13ifvqfp0","pricing_plan_id":"free"},{"bike_id":"11ed159f-6451-4be4-be76-812ea4822cd8","system_id":"levelo_inurba_marseille","lat":43.239618,"lon":5.3663,"is_reserved":false,"is_disabled":false,"rental_uris":{"android":"levelo://app?vid=11ed159f-6451-4be4-be76-812ea4822cd8","ios":"levelo://app?vid=11ed159f-6451-4be4-be76-812ea4822cd8"},"vehicle_type_id":"4","last_reported":1678658778,"current_range_meters":16400,"station_id":"","pricing_plan_id":"free"},{"bike_id":"17ae78ca-7a1a-4f51-92cf-cfc30d53db14","system_id":"levelo_inurba_marseille","lat":43.231919,"lon":5.355532,"is_reserved":false,"is_disabled":false,"rental_uris":{"android":"levelo://app?vid=17ae78ca-7a1a-4f51-92cf-cfc30d53db14","ios":"levelo://app?vid=17ae78ca-7a1a-4f51-92cf-cfc30d53db14"},"vehicle_type_id":"4","last_reported":1678658778,"current_range_meters":15600,"station_id":"ce4bhu92rcd13ifvqi70","pricing_plan_id":"free"},{"bike_id":"7834a285-4642-44c8-aa3d-c5cce2cf1bd7","system_id":"levelo_inurba_marseille","lat":43.231919,"lon":5.355532,"is_reserved":false,"is_disabled":false,"rental_uris":{"android":"levelo://app?vid=7834a285-4642-44c8-aa3d-c5cce2cf1bd7","ios":"levelo://app?vid=7834a285-4642-44c8-aa3d-c5cce2cf1bd7"},"vehicle_type_id":"4","last_reported":1678658778,"current_range_meters":20800,"station_id":"ce4bhu92rcd13ifvqi70","pricing_plan_id":"free"},{"bike_id":"38fda486-076c-4e50-aeb1-141cf66e82ff","system_id":"levelo_inurba_marseille","lat":43.231956,"lon":5.355532,"is_reserved":false,"is_disabled":false,"rental_uris":{"android":"levelo://app?vid=38fda486-076c-4e50-aeb1-141cf66e82ff","ios":"levelo://app?vid=38fda486-076c-4e50-aeb1-141cf66e82ff"},"vehicle_type_id":"4","last_reported":1678658778,"current_range_meters":4800,"station_id":"ce4bhu92rcd13ifvqi70","pricing_plan_id":"free"},{"bike_id":"22e1dbc3-a88e-4aa1-bdcc-05359ab588fc","system_id":"levelo_inurba_marseille","lat":43.231919,"lon":5.355532,"is_reserved":false,"is_disabled":false,"rental_uris":{"android":"levelo://app?vid=22e1dbc3-a88e-4aa1-bdcc-05359ab588fc","ios":"levelo://app?vid=22e1dbc3-a88e-4aa1-bdcc-05359ab588fc"},"vehicle_type_id":"4","last_reported":1678658778,"current_range_meters":28800,"station_id":"ce4bhu92rcd13ifvqi70","pricing_plan_id":"free"},{"bike_id":"1ebc095d-fae3-4a1b-8f0b-5027a4c5bd4d","system_id":"levelo_inurba_marseille","lat":43.231923,"lon":5.355545,"is_reserved":false,"is_disabled":false,"rental_uris":{"android":"levelo://app?vid=1ebc095d-fae3-4a1b-8f0b-5027a4c5bd4d","ios":"levelo://app?vid=1ebc095d-fae3-4a1b-8f0b-5027a4c5bd4d"},"vehicle_type_id":"4","last_reported":1678658778,"current_range_meters":25600,"station_id":"ce4bhu92rcd13ifvqi70","pricing_plan_id":"free"},{"bike_id":"020dd0c7-e711-41bb-99da-ea1cfe769f92","system_id":"levelo_inurba_marseille","lat":43.23192,"lon":5.35554,"is_reserved":false,"is_disabled":false,"rental_uris":{"android":"levelo://app?vid=020dd0c7-e711-41bb-99da-ea1cfe769f92","ios":"levelo://app?vid=020dd0c7-e711-41bb-99da-ea1cfe769f92"},"vehicle_type_id":"4","last_reported":1678658778,"current_range_meters":10400,"station_id":"ce4bhu92rcd13ifvqi70","pricing_plan_id":"free"}]}}