{"last_updated":1713546427,"ttl":30,"version":"2.2","data":{"bikes":[{"bike_id":"9c37e7a6-5004-44a0-b9fa-192c123ba962","system_id":"levelo_inurba_marseille","lat":43.311125,"lon":5.377624,"is_reserved":false,"is_disabled":false,"rental_uris":{"android":"levelo://app?vid=9c37e7a6-5004-44a0-b9fa-192c123ba962","ios":"levelo://app?vid=9c37e7a6-5004-44a0-b9fa-192c123ba962"},"vehicle_type_id":"4","last_reported":1713546427,"current_range_meters":18800,"station_id":"ce4bgt92rcd13ifvqcg0","pricing_plan_id":"cebpf4jnsgd1na2vs0mg"},{"bike_id":"84976816-7e03-4540-b524-0338de515213","system_id":"levelo_inurba_marseille","lat":43.31485,"lon":5.37309,"is_reserved":false,"is_disabled":false,"rental_uris":{"android":"levelo://app?vid=84976816-7e03-4540-b524-0338de515213","ios":"levelo://app?vid=84976816-7e03-4540-b524-0338de515213"},"vehicle_type_id":"4","last_reported":1713546427,"current_range_meters":0,"station_id":"ce4bgt12rcd13ifvqcd0","pricing_plan_id":"cebpf4jnsgd1na2vs0mg"},{"bike_id":"5759bd8a-8112-4560-81d5-f15af6b6b9e4","system_id":"levelo_inurba_marseille","lat":43.31499,"lon":5.37307,"is_reserved":false,"is_disabled":false,"rental_uris":{"android":"levelo://app?vid=5759bd8a-8112-4560-81d5-f15af6b6b9e4","ios":"levelo://app?vid=5759bd8a-8112-4560-81d5-f15af6b6b9e4"},"vehicle_type_id":"4","last_reported":1713546427,"current_range_meters":0,"station_id":"ce4bgt12rcd13ifvqcd0","pricing_plan_id":"cebpf4jnsgd1na2vs0mg"},{"bike_id":"63713dd1-6d54-42df-adaa-e625458f4fb2","system_id":"levelo_inurba_marseille","lat":43.314973,"lon":5.373152,"is_reserved":false,"is_disabled":false,"rental_uris":{"android":"levelo://app?vid=63713dd1-6d54-42df-adaa-e625458f4fb2","ios":"levelo://app?vid=63713dd1-6d54-42df-adaa-e625458f4fb2"},"vehicle_type_id":"4","last_reported":1713546427,"current_range_meters":0,"station_id":"ce4bgt12rcd13ifvqcd0","pricing_plan_id":"cebpf4jnsgd1na2vs0mg"},{"bike_id":"bd73efee-bfb7-4e71-8e74-45d91629b0b0","system_id":"levelo_inurba_marseille","lat":43.309039,"lon":5.371797,"is_reserved":false,"is_disabled":false,"rental_uris":{"android":"levelo://app?vid=bd73efee-bfb7-4e71-8e74-45d91629b0b0","ios":"levelo://app?vid=bd73efee-bfb7-4e71-8e74-45d91629b0b0"},"vehicle_type_id":"4","last_reported":1713546427,"current_range_meters":15200,"station_id":"ce4bguh2rcd13ifvqckg","pricing_plan_id":"cebpf4jnsgd1na2vs0mg"},{"bike_id":"67b684a1-eb7d-4bda-9e36-b4f4638d42da","system_id":"levelo_inurba_marseille","lat":43.309034,"lon":5.371783,"is_reserved":false,"is_disabled":false,"rental_uris":{"android":"levelo://app?vid=67b684a1-eb7d-4bda-9e36-b4f4638d42da","ios":"levelo://app?vid=67b684a1-eb7d-4bda-9e36-b4f4638d42da"},"vehicle_type_id":"4","last_reported":1713546427,"current_range_meters":5600,"station_id":"ce4bguh2rcd13ifvqckg","pricing_plan_id":"cebpf4jnsgd1na2vs0mg"},{"bike_id":"c8632417-0b85-476a-8187-4a2f4e483226","system_id":"levelo_inurba_marseille","lat":43.306277,"lon":5.365915,"is_reserved":false,"is_disabled":false,"rental_uris":{"android":"levelo://app?vid=c8632417-0b85-476a-8187-4a2f4e483226","ios":"levelo://app?vid=c8632417-0b85-476a-8187-4a2f4e483226"},"vehicle_type_id":"4","last_reported":1713546427,"current_range_meters":18800,"station_id":"ce4bgs12rcd13ifvqcag","pricing_plan_id":"cebpf4jnsgd1na2vs0mg"},{"bike_id":"a5f53060-991a-4413-91db-3155d802e26a","system_id":"levelo_inurba_marseille","lat":43.305368,"lon":5.367343,"is_reserved":false,"is_disabled":false,"rental_uris":{"android":"levelo://app?vid=a5f53060-991a-4413-91db-3155d802e26a","ios":"levelo://app?vid=a5f53060-991a-4413-91db-3155d802e26a"},"vehicle_type_id":"4","last_reported":1713546427,"current_range_meters":16800,"station_id":"ce4bgrp2rcd13ifvqc9g","pricing_plan_id":"cebpf4jnsgd1na2vs0mg"},{"bike_id":"52f22b5a-486d-4c62-a4ac-137bfb2f235e","system_id":"levelo_inurba_marseille","lat":43.30554,"lon":5.36534,"is_reserved":false,"is_disabled":false,"rental_uris":{"android":"levelo://app?vid=52f22b5a-486d-4c62-a4ac-137bfb2f235e","ios":"levelo://app?vid=52f22b5a-486d-4c62-a4ac-137bfb2f235e"},"vehicle_type_id":"4","last_reported":1713546427,"current_range_meters":25200,"station_id":"","pricing_plan_id":"cebpf4jnsgd1na2vs0mg"},{"bike_id":"6ac5c0c2-4e59-4e17-8b9e-b18e39c72a58","system_id":"levelo_inurba_marseille","lat":43.30548,"lon":5.36553,"is_reserved":false,"is_disabled":false,"rental_uris":{"android":"levelo://app?vid=6ac5c0c2-4e59-4e17-8b9e-b18e39c72a58","ios":"levelo://app?vid=6ac5c0c2-4e59-4e17-8b9e-b18e39c72a58"},"vehicle_type_id":"4","last_reported":1713546427,"current_range_meters":25200,"station_id":"ce4bgs12rcd13ifvqcag","pricing_plan_id":"cebpf4jnsgd1na2vs0mg"},{"bike_id":"940f70c6-bb3b-436c-8a79-e40fb085be45","system_id":"levelo_inurba_marseille","lat":43.30533,"lon":5.36553,"is_reserved":false,"is_disabled":false,"rental_uris":{"android":"levelo://app?vid=940f70c6-bb3b-436c-8a79-e40fb085be45","ios":"levelo://app?vid=940f70c6-bb3b-436c-8a79-e40fb085be45"},"vehicle_type_id":"4","last_reported":1713546427,"current_range_meters":0,"station_id":"ce4bgs12rcd13ifvqcag","pricing_plan_id":"cebpf4jnsgd1na2vs0mg"},{"bike_id":"fc9f4bff-0e63-4f2b-acad-295c45ae0dda","system_id":"levelo_inurba_marseille","lat":43.305989,"lon":5.37225,"is_reserved":false,"is_disabled":false,"rental_uris":{"android":"levelo://app?vid=fc9f4bff-0e63-4f2b-acad-295c45ae0dda","ios":"levelo://app?vid=fc9f4bff-0e63-4f2b-acad-295c45ae0dda"},"vehicle_type_id":"4","last_reported":1713546427,"current_range_meters":16400,"station_id":"ce4bgqh2rcd13ifvqc4g","pricing_plan_id":"cebpf4jnsgd1na2vs0mg"},{"bike_id":"172de154-2ae3-40cf-b9c2-5f54ac343f05","system_id":"levelo_inurba_marseille","lat":43.305989,"lon":5.37225,"is_reserved":false,"is_disabled":false,"rental_uris":{"android":"levelo://app?vid=172de154-2ae3-40cf-b9c2-5f54ac343f05","ios":"levelo://app?vid=172de154-2ae3-40cf-b9c2-5f54ac343f05"},"vehicle_type_id":"4","last_reported":1713546427,"current_range_meters":17600,"station_id":"ce4bgqh2rcd13ifvqc4g","pricing_plan_id":"cebpf4jnsgd1na2vs0mg"},{"bike_id":"4d5dcc8e-e029-4b41-8e1e-26515477e18b","system_id":"levelo_inurba_marseille","lat":43.309371,"lon":5.401449,"is_reserved":false,"is_disabled":false,"rental_uris":{"android":"levelo://app?vid=4d5dcc8e-e029-4b41-8e1e-26515477e18b","ios":"levelo://app?vid=4d5dcc8e-e029-4b41-8e1e-26515477e18b"},"vehicle_type_id":"4","last_reported":1713546427,"current_range_meters":9200,"station_id":"ce4bgvp2rcd13ifvqct0","pricing_plan_id":"cebpf4jnsgd1na2vs0mg"},{"bike_id":"b841d6e5-8e77-45c5-8b67-3768ce2dafdf","system_id":"levelo_inurba_marseille","lat":43.307945,"lon":5.376487,"is_reserved":false,"is_disabled":false,"rental_uris":{"android":"levelo://app?vid=b841d6e5-8e77-45c5-8b67-3768ce2dafdf","ios":"levelo://app?vid=b841d6e5-8e77-45c5-8b67-3768ce2dafdf"},"vehicle_type_id":"4","last_reported":1713546427,"current_range_meters":11200,"station_id":"ce4bgv92rcd13ifvqcq0","pricing_plan_id":"cebpf4jnsgd1na2vs0mg"},{"bike_id":"3e583769-723d-4947-9a0b-a9692b182a88","system_id":"levelo_inurba_marseille","lat":43.307945,"lon":5.376487,"is_reserved":false,"is_disabled":false,"rental_uris":{"android":"levelo://app?vid=3e583769-723d-4947-9a0b-a9692b182a88","ios":"levelo://app?vid=3e583769-723d-4947-9a0b-a9692b182a88"},"vehicle_type_id":"4","last_reported":1713546427,"current_range_meters":6000,"station_id":"ce4bgv92rcd13ifvqcq0","pricing_plan_id":"cebpf4jnsgd1na2vs0mg"},{"bike_id":"b01a09c2-a4b2-4838-80c3-a98d974b080e","system_id":"levelo_inurba_marseille","lat":43.31695,"lon":5.377429,"is_reserved":false,"is_disabled":false,"rental_uris":{"android":"levelo://app?vid=b01a09c2-a4b2-4838-80c3-a98d974b080e","ios":"levelo://app?vid=b01a09c2-a4b2-4838-80c3-a98d974b080e"},"vehicle_type_id":"4","last_reported":1713546427,"current_range_meters":12800,"station_id":"ce4bgth2rcd13ifvqch0","pricing_plan_id":"cebpf4jnsgd1na2vs0mg"},{"bike_id":"a3d5937e-1363-4a04-84e9-758581cd15bb","system_id":"levelo_inurba_marseille","lat":43.317001,"lon":5.3774,"is_reserved":false,"is_disabled":false,"rental_uris":{"android":"levelo://app?vid=a3d5937e-1363-4a04-84e9-758581cd15bb","ios":"levelo://app?vid=a3d5937e-1363-4a04-84e9-758581cd15bb"},"vehicle_type_id":"4","last_reported":1713546427,"current_range_meters":16400,"station_id":"ce4bgth2rcd13ifvqch0","pricing_plan_id":"cebpf4jnsgd1na2vs0mg"},{"bike_id":"b0f5fe6c-f46f-4c86-a118-adf7169f5934","system_id":"levelo_inurba_marseille","lat":43.31713,"lon":5.37732,"is_reserved":false,"is_disabled":false,"rental_uris":{"android":"levelo://app?vid=b0f5fe6c-f46f-4c86-a118-adf7169f5934","ios":"levelo://app?vid=b0f5fe6c-f46f-4c86-a118-adf7169f5934"},"vehicle_type_id":"4","last_reported":1713546427,"current_range_meters":28000,"station_id":"ce4bgth2rcd13ifvqch0","pricing_plan_id":"cebpf4jnsgd1na2vs0mg"},{"bike_id":"daac2763-46e9-4478-98a6-ea6276013499","system_id":"levelo_inurba_marseille","lat":43.289184,"lon":5.366408,"is_reserved":false,"is_disabled":false,"rental_uris":{"android":"levelo://app?vid=daac2763-46e9-4478-98a6-ea6276013499","ios":"levelo://app?vid=daac2763-46e9-4478-98a6-ea6276013499"},"vehicle_type_id":"4","last_reported":1713546427,"current_range_meters":24400,"station_id":"ce4bhap2rcd13ifvqek0","pricing_plan_id":"cebpf4jnsgd1na2vs0mg"},{"bike_id":"611a3563-0851-4db4-8e81-1ccbb8b6f00c","system_id":"levelo_inurba_marseille","lat":43.303046,"lon":5.368981,"is_reserved":false,"is_disabled":false,"rental_uris":{"android":"levelo://app?vid=611a3563-0851-4db4-8e81-1ccbb8b6f00c","ios":"levelo://app?vid=611a3563-0851-4db4-8e81-1ccbb8b6f00c"},"vehicle_type_id":"4","last_reported":1713546427,"current_range_meters":0,"station_id":"ce4bgqh2rcd13ifvqc5g","pricing_plan_id":"cebpf4jnsgd1na2vs0mg"},{"bike_id":"f025d658-348b-42f9-affa-8cae220e76c3","system_id":"levelo_inurba_marseille","lat":43.308012,"lon":5.381511,"is_reserved":false,"is_disabled":false,"rental_uris":{"android":"levelo://app?vid=f025d658-348b-42f9-affa-8cae220e76c3","ios":"levelo://app?vid=f025d658-348b-42f9-affa-8cae220e76c3"},"vehicle_type_id":"4","last_reported":1713546427,"current_range_meters":400,"station_id":"ce4bgt12rcd13ifvqce0","pricing_plan_id":"cebpf4jnsgd1na2vs0mg"},{"bike_id":"7086da03-058a-41fa-9b71-02340a6cbffe","system_id":"levelo_inurba_marseille","lat":43.308012,"lon":5.381511,"is_reserved":false,"is_disabled":false,"rental_uris":{"android":"levelo://app?vid=7086da03-058a-41fa-9b71-02340a6cbffe","ios":"levelo://app?vid=7086da03-058a-41fa-9b71-02340a6cbffe"},"vehicle_type_id":"4","last_reported":1713546427,"current_range_meters":0,"station_id":"ce4bgt12rcd13ifvqce0","pricing_plan_id":"cebpf4jnsgd1na2vs0mg"},{"bike_id":"37137163-7454-422f-9fe9-8c44dd3850a2","system_id":"levelo_inurba_marseille","lat":43.308012,"lon":5.381511,"is_reserved":false,"is_disabled":false,"rental_uris":{"android":"levelo://app?vid=37137163-7454-422f-9fe9-8c44dd3850a2","ios":"levelo://app?vid=37137163-7454-422f-9fe9-8c44dd3850a2"},"vehicle_type_id":"4","last_reported":1713546427,"current_range_meters":10400,"station_id":"ce4bgt12rcd13ifvqce0","pricing_plan_id":"cebpf4jnsgd1na2vs0mg"},{"bike_id":"a6500d02-51db-44f0-91f0-2c0ec5299a58","system_id":"levelo_inurba_marseille","lat":43.308012,"lon":5.381511,"is_reserved":false,"is_disabled":false,"rental_uris":{"android":"levelo://app?vid=a6500d02-51db-44f0-91f0-2c0ec5299a58","ios":"levelo://app?vid=a6500d02-51db-44f0-91f0-2c0ec5299a58"},"vehicle_type_id":"4","last_reported":1713546427,"current_range_meters":3200,"station_id":"ce4bgt12rcd13ifvqce0","pricing_plan_id":"cebpf4jnsgd1na2vs0mg"},{"bike_id":"6b4cd217-3e66-4bb2-96c5-5e25e4fba88d","system_id":"levelo_inurba_marseille","lat":43.304606,"lon":5.379026,"is_reserved":false,"is_disabled":false,"rental_uris":{"android":"levelo://app?vid=6b4cd217-3e66-4bb2-96c5-5e25e4fba88d","ios":"levelo://app?vid=6b4cd217-3e66-4bb2-96c5-5e25e4fba88d"},"vehicle_type_id":"4","last_reported":1713546427,"current_range_meters":14000,"station_id":"ce4bgup2rcd13ifvqcn0","pricing_plan_id":"cebpf4jnsgd1na2vs0mg"},{"bike_id":"4a4eba72-220b-4107-8513-c313a69b6994","system_id":"levelo_inurba_marseille","lat":43.30464,"lon":5.37899,"is_reserved":false,"is_disabled":false,"rental_uris":{"android":"levelo://app?vid=4a4eba72-220b-4107-8513-c313a69b6994","ios":"levelo://app?vid=4a4eba72-220b-4107-8513-c313a69b6994"},"vehicle_type_id":"4","last_reported":1713546427,"current_range_meters":0,"station_id":"ce4bgup2rcd13ifvqcn0","pricing_plan_id":"cebpf4jnsgd1na2vs0mg"},{"bike_id":"3cfebed2-56ce-40be-970a-a87794507a33","system_id":"levelo_inurba_marseille","lat":43.304606,"lon":5.379026,"is_reserved":false,"is_disabled":false,"rental_uris":{"android":"levelo://app?vid=3cfebed2-56ce-40be-970a-a87794507a33","ios":"levelo://app?vid=3cfebed2-56ce-40be-970a-a87794507a33"},"vehicle_type_id":"4","last_reported":1713546427,"current_range_meters":3200,"station_id":"ce4bgup2rcd13ifvqcn0","pricing_plan_id":"cebpf4jnsgd1na2vs0mg"},{"bike_id":"29cd64e6-8b02-4075-aa61-69c927818982","system_id":"levelo_inurba_marseille","lat":43.304606,"lon":5.379026,"is_reserved":false,"is_disabled":false,"rental_uris":{"android":"levelo://app?vid=29cd64e6-8b02-4075-aa61-69c927818982","ios":"levelo://app?vid=29cd64e6-8b02-4075-aa61-69c927818982"},"vehicle_type_id":"4","last_reported":1713546427,"current_range_meters":4000,"station_id":"ce4bgup2rcd13ifvqcn0","pricing_plan_id":"cebpf4jnsgd1na2vs0mg"},{"bike_id":"01ff4d6e-a902-4220-8355-bfd608d1d760","system_id":"levelo_inurba_marseille","lat":43.324771,"lon":5.36557,"is_reserved":false,"is_disabled":false,"rental_uris":{"android":"levelo://app?vid=01ff4d6e-a902-4220-8355-bfd608d1d760","ios":"levelo://app?vid=01ff4d6e-a902-4220-8355-bfd608d1d760"},"vehicle_type_id":"4","last_reported":1713546427,"current_range_meters":19600,"station_id":"ce4bhs12rcd13ifvqhvg","pricing_plan_id":"cebpf4jnsgd1na2vs0mg"},{"bike_id":"bd6fabbf-2ead-43a8-a6f7-0dbf8305d3f1","system_id":"levelo_inurba_marseille","lat":43.32482,"lon":5.3657,"is_reserved":false,"is_disabled":false,"rental_uris":{"android":"levelo://app?vid=bd6fabbf-2ead-43a8-a6f7-0dbf8305d3f1","ios":"levelo://app?vid=bd6fabbf-2ead-43a8-a6f7-0dbf8305d3f1"},"vehicle_type_id":"4","last_reported":1713546427,"current_range_meters":12000,"station_id":"","pricing_plan_id":"cebpf4jnsgd1na2vs0mg"},{"bike_id":"f589283c-4bdf-4f5c-8246-409b96033461","system_id":"levelo_inurba_marseille","lat":43.310804,"lon":5.38359,"is_reserved":false,"is_disabled":false,"rental_uris":{"android":"levelo://app?vid=f589283c-4bdf-4f5c-8246-409b96033461","ios":"levelo://app?vid=f589283c-4bdf-4f5c-8246-409b96033461"},"vehicle_type_id":"4","last_reported":1713546427,"current_range_meters":27200,"station_id":"ce4bgv92rcd13ifvqcr0","pricing_plan_id":"cebpf4jnsgd1na2vs0mg"},{"bike_id":"11af8a7d-70d9-4b46-ba83-670e27833eed","system_id":"levelo_inurba_marseille","lat":43.324771,"lon":5.36557,"is_reserved":false,"is_disabled":false,"rental_uris":{"android":"levelo://app?vid=11af8a7d-70d9-4b46-ba83-670e27833eed","ios":"levelo://app?vid=11af8a7d-70d9-4b46-ba83-670e27833eed"},"vehicle_type_id":"4","last_reported":1713546427,"current_range_meters":7200,"station_id":"ce4bhs12rcd13ifvqhvg","pricing_plan_id":"cebpf4jnsgd1na2vs0mg"},{"bike_id":"e4e0753e-4b94-4857-9924-ddedf1c13729","system_id":"levelo_inurba_marseille","lat":43.324771,"lon":5.36557,"is_reserved":false,"is_disabled":false,"rental_uris":{"android":"levelo://app?vid=e4e0753e-4b94-4857-9924-ddedf1c13729","ios":"levelo://app?vid=e4e0753e-4b94-4857-9924-ddedf1c13729"},"vehicle_type_id":"4","last_reported":1713546427,"current_range_meters":0,"station_id":"ce4bhs12rcd13ifvqhvg","pricing_plan_id":"cebpf4jnsgd1na2vs0mg"},{"bike_id":"23c87026-c912-417b-b00d-b71752d366b2","system_id":"levelo_inurba_marseille","lat":43.302784,"lon":5.377158,"is_reserved":false,"is_disabled":false,"rental_uris":{"android":"levelo://app?vid=23c87026-c912-417b-b00d-b71752d366b2","ios":"levelo://app?vid=23c87026-c912-417b-b00d-b71752d366b2"},"vehicle_type_id":"4","last_reported":1713546427,"current_range_meters":0,"station_id":"ce4bguh2rcd13ifvqcj0","pricing_plan_id":"cebpf4jnsgd1na2vs0mg"},{"bike_id":"89d908c1-c500-4548-99cb-233221c3fb7d","system_id":"levelo_inurba_marseille","lat":43.310804,"lon":5.38359,"is_reserved":false,"is_disabled":false,"rental_uris":{"android":"levelo://app?vid=89d908c1-c500-4548-99cb-233221c3fb7d","ios":"levelo://app?vid=89d908c1-c500-4548-99cb-233221c3fb7d"},"vehicle_type_id":"4","last_reported":1713546427,"current_range_meters":10800,"station_id":"ce4bgv92rcd13ifvqcr0","pricing_plan_id":"cebpf4jnsgd1na2vs0mg"},{"bike_id":"eaa2eba9-5116-4ce7-aff4-e30a8927cd85","system_id":"levelo_inurba_marseille","lat":43.310804,"lon":5.38359,"is_reserved":false,"is_disabled":false,"rental_uris":{"android":"levelo://app?vid=eaa2eba9-5116-4ce7-aff4-e30a8927cd85","ios":"levelo://app?vid=eaa2eba9-5116-4ce7-aff4-e30a8927cd85"},"vehicle_type_id":"4","last_reported":1713546427,"current_range_meters":1200,"station_id":"ce4bgv92rcd13ifvqcr0","pricing_plan_id":"cebpf4jnsgd1na2vs0mg"},{"bike_id":"d10cf3df-bd12-4dd5-b6c7-d1bae9d72b94","system_id":"levelo_inurba_marseille","lat":43.310804,"lon":5.38359,"is_reserved":false,"is_disabled":false,"rental_uris":{"android":"levelo://app?vid=d10cf3df-bd12-4dd5-b6c7-d1bae9d72b94","ios":"levelo://app?vid=d10cf3df-bd12-4dd5-b6c7-d1bae9d72b94"},"vehicle_type_id":"4","last_reported":1713546427,"current_range_meters":7200,"station_id":"ce4bgv92rcd13ifvqcr0","pricing_plan_id":"cebpf4jnsgd1na2vs0mg"},{"bike_id":"38203943-4b6d-4cba-a4a1-6f8cbd774f57","system_id":"levelo_inurba_marseille","lat":43.304716,"lon":5.379743,"is_reserved":false,"is_disabled":false,"rental_uris":{"android":"levelo://app?vid=38203943-4b6d-4cba-a4a1-6f8cbd774f57","ios":"levelo://app?vid=38203943-4b6d-4cba-a4a1-6f8cbd774f57"},"vehicle_type_id":"4","last_reported":1713546427,"current_range_meters":0,"station_id":"ce4bgup2rcd13ifvqcn0","pricing_plan_id":"cebpf4jnsgd1na2vs0mg"},{"bike_id":"bde7ef10-2897-4522-ae63-fcae4e3d4d64","system_id":"levelo_inurba_marseille","lat":43.299243,"lon":5.37481,"is_reserved":false,"is_disabled":false,"rental_uris":{"android":"levelo://app?vid=bde7ef10-2897-4522-ae63-fcae4e3d4d64","ios":"levelo://app?vid=bde7ef10-2897-4522-ae63-fcae4e3d4d64"},"vehicle_type_id":"4","last_reported":1713546427,"current_range_meters":8400,"station_id":"ce4bgjh2rcd13ifvqbg0","pricing_plan_id":"cebpf4jnsgd1na2vs0mg"},{"bike_id":"dc01fe6b-34b2-486b-bb68-cfc431179529","system_id":"levelo_inurba_marseille","lat":43.302784,"lon":5.377158,"is_reserved":false,"is_disabled":false,"rental_uris":{"android":"levelo://app?vid=dc01fe6b-34b2-486b-bb68-cfc431179529","ios":"levelo://app?vid=dc01fe6b-34b2-486b-bb68-cfc431179529"},"vehicle_type_id":"4","last_reported":1713546427,"current_range_meters":5200,"station_id":"ce4bguh2rcd13ifvqcj0","pricing_plan_id":"cebpf4jnsgd1na2vs0mg"},{"bike_id":"71cf26d6-2800-48dd-ae6e-8eda1eae26de","system_id":"levelo_inurba_marseille","lat":43.305395,"lon":5.380968,"is_reserved":false,"is_disabled":false,"rental_uris":{"android":"levelo://app?vid=71cf26d6-2800-48dd-ae6e-8eda1eae26de","ios":"levelo://app?vid=71cf26d6-2800-48dd-ae6e-8eda1eae26de"},"vehicle_type_id":"4","last_reported":1713546427,"current_range_meters":20400,"station_id":"","pricing_plan_id":"cebpf4jnsgd1na2vs0mg"},{"bike_id":"334e3407-4f9b-4b57-a5ef-39033f25d948","system_id":"levelo_inurba_marseille","lat":43.319935,"lon":5.381699,"is_reserved":false,"is_disabled":false,"rental_uris":{"android":"levelo://app?vid=334e3407-4f9b-4b57-a5ef-39033f25d948","ios":"levelo://app?vid=334e3407-4f9b-4b57-a5ef-39033f25d948"},"vehicle_type_id":"4","last_reported":1713546427,"current_range_meters":11600,"station_id":"ce4bhr12rcd13ifvqhpg","pricing_plan_id":"cebpf4jnsgd1na2vs0mg"},{"bike_id":"d212c281-3522-420a-b06f-b80966290c73","system_id":"levelo_inurba_marseille","lat":43.319935,"lon":5.381699,"is_reserved":false,"is_disabled":false,"rental_uris":{"android":"levelo://app?vid=d212c281-3522-420a-b06f-b80966290c73","ios":"levelo://app?vid=d212c281-3522-420a-b06f-b80966290c73"},"vehicle_type_id":"4","last_reported":1713546427,"current_range_meters":15200,"station_id":"ce4bhr12rcd13ifvqhpg","pricing_plan_id":"cebpf4jnsgd1na2vs0mg"},{"bike_id":"30d617ff-4f74-4992-b3e5-455e6c9e9129","system_id":"levelo_inurba_marseille","lat":43.319935,"lon":5.381699,"is_reserved":false,"is_disabled":false,"rental_uris":{"android":"levelo://app?vid=30d617ff-4f74-4992-b3e5-455e6c9e9129","ios":"levelo://app?vid=30d617ff-4f74-4992-b3e5-455e6c9e9129"},"vehicle_type_id":"4","last_reported":1713546427,"current_range_meters":25200,"station_id":"ce4bhr12rcd13ifvqhpg","pricing_plan_id":"cebpf4jnsgd1na2vs0mg"},{"bike_id":"87324649-aa34-44ed-aa0d-d640005af1bc","system_id":"levelo_inurba_marseille","lat":43.319935,"lon":5.381699,"is_reserved":false,"is_disabled":false,"rental_uris":{"android":"levelo://app?vid=87324649-aa34-44ed-aa0d-d640005af1bc","ios":"levelo://app?vid=87324649-aa34-44ed-aa0d-d640005af1bc"},"vehicle_type_id":"4","last_reported":1713546427,"current_range_meters":7200,"station_id":"ce4bhr12rcd13ifvqhpg","pricing_plan_id":"cebpf4jnsgd1na2vs0mg"},{"bike_id":"950d0fd1-ab69-4f49-a758-89a7c877ce50","system_id":"levelo_inurba_marseille","lat":43.319935,"lon":5.381699,"is_reserved":false,"is_disabled":false,"rental_uris":{"android":"levelo://app?vid=950d0fd1-ab69-4f49-a758-89a7c877ce50","ios":"levelo://app?vid=950d0fd1-ab69-4f49-a758-89a7c877ce50"},"vehicle_type_id":"4","last_reported":1713546427,"current_range_meters":9200,"station_id":"ce4bhr12rcd13ifvqhpg","pricing_plan_id":"cebpf4jnsgd1na2vs0mg"},{"bike_id":"81cd3364-cbaa-4a6d-bce2-b96b82017f0b","system_id":"levelo_inurba_marseille","lat":43.313571,"lon":5.384829,"is_reserved":false,"is_disabled":false,"rental_uris":{"android":"levelo://app?vid=81cd3364-cbaa-4a6d-bce2-b96b82017f0b","ios":"levelo://app?vid=81cd3364-cbaa-4a6d-bce2-b96b82017f0b"},"vehicle_type_id":"4","last_reported":1713546427,"current_range_meters":6400,"station_id":"ce4bgt92rcd13ifvqcf0","pricing_plan_id":"cebpf4jnsgd1na2vs0mg"},{"bike_id":"e91a43f2-fd5b-4c11-aea8-faeea8359a23","system_id":"levelo_inurba_marseille","lat":43.299222,"lon":5.365554,"is_reserved":false,"is_disabled":false,"rental_uris":{"android":"levelo://app?vid=e91a43f2-fd5b-4c11-aea8-faeea8359a23","ios":"levelo://app?vid=e91a43f2-fd5b-4c11-aea8-faeea8359a23"},"vehicle_type_id":"4","last_reported":1713546427,"current_range_meters":0,"station_id":"ce4bgm92rcd13ifvqbr0","pricing_plan_id":"cebpf4jnsgd1na2vs0mg"},{"bike_id":"3ffa4cf4-094f-4073-ad39-e0d82ee43212","system_id":"levelo_inurba_marseille","lat":43.299222,"lon":5.365554,"is_reserved":false,"is_disabled":false,"rental_uris":{"android":"levelo://app?vid=3ffa4cf4-094f-4073-ad39-e0d82ee43212","ios":"levelo://app?vid=3ffa4cf4-094f-4073-ad39-e0d82ee43212"},"vehicle_type_id":"4","last_reported":1713546427,"current_range_meters":0,"station_id":"ce4bgm92rcd13ifvqbr0","pricing_plan_id":"cebpf4jnsgd1na2vs0mg"},{"bike_id":"9d17d159-8623-405a-b07c-98ebb465aa99","system_id":"levelo_inurba_marseille","lat":43.305364,"lon":5.384119,"is_reserved":false,"is_disabled":false,"rental_uris":{"android":"levelo://app?vid=9d17d159-8623-405a-b07c-98ebb465aa99","ios":"levelo://app?vid=9d17d159-8623-405a-b07c-98ebb465aa99"},"vehicle_type_id":"4","last_reported":1713546427,"current_range_meters":19200,"station_id":"ce4bgg92rcd13ifvqb30","pricing_plan_id":"cebpf4jnsgd1na2vs0mg"},{"bike_id":"84562a56-8682-49d9-9780-67f998fa42fd","system_id":"levelo_inurba_marseille","lat":43.305364,"lon":5.384119,"is_reserved":false,"is_disabled":false,"rental_uris":{"android":"levelo://app?vid=84562a56-8682-49d9-9780-67f998fa42fd","ios":"levelo://app?vid=84562a56-8682-49d9-9780-67f998fa42fd"},"vehicle_type_id":"4","last_reported":1713546427,"current_range_meters":12000,"station_id":"ce4bgg92rcd13ifvqb30","pricing_plan_id":"cebpf4jnsgd1na2vs0mg"},{"bike_id":"1c2626f4-cb8a-49c6-aba6-c659b1cd8155","system_id":"levelo_inurba_marseille","lat":43.311722,"lon":5.387247,"is_reserved":false,"is_disabled":false,"rental_uris":{"android":"levelo://app?vid=1c2626f4-cb8a-49c6-aba6-c659b1cd8155","ios":"levelo://app?vid=1c2626f4-cb8a-49c6-aba6-c659b1cd8155"},"vehicle_type_id":"4","last_reported":1713546427,"current_range_meters":0,"station_id":"ce4bgv12rcd13ifvqcp0","pricing_plan_id":"cebpf4jnsgd1na2vs0mg"},{"bike_id":"a18a6afb-52f5-4f98-95ce-4cef3dcd53c8","system_id":"levelo_inurba_marseille","lat":43.298433,"lon":5.362774,"is_reserved":false,"is_disabled":false,"rental_uris":{"android":"levelo://app?vid=a18a6afb-52f5-4f98-95ce-4cef3dcd53c8","ios":"levelo://app?vid=a18a6afb-52f5-4f98-95ce-4cef3dcd53c8"},"vehicle_type_id":"4","last_reported":1713546427,"current_range_meters":10800,"station_id":"ce4bgpp2rcd13ifvqc3g","pricing_plan_id":"cebpf4jnsgd1na2vs0mg"},{"bike_id":"e9d6acab-3dc1-4163-b84e-6cfeeb370aa0","system_id":"levelo_inurba_marseille","lat":43.305364,"lon":5.384119,"is_reserved":false,"is_disabled":false,"rental_uris":{"android":"levelo://app?vid=e9d6acab-3dc1-4163-b84e-6cfeeb370aa0","ios":"levelo://app?vid=e9d6acab-3dc1-4163-b84e-6cfeeb370aa0"},"vehicle_type_id":"4","last_reported":1713546427,"current_range_meters":16400,"station_id":"ce4bgg92rcd13ifvqb30","pricing_plan_id":"cebpf4jnsgd1na2vs0mg"},{"bike_id":"f44abfeb-1ab3-4d65-a4ab-9a6c77bdf6e4","system_id":"levelo_inurba_marseille","lat":43.297794,"lon":5.370888,"is_reserved":false,"is_disabled":false,"rental_uris":{"android":"levelo://app?vid=f44abfeb-1ab3-4d65-a4ab-9a6c77bdf6e4","ios":"levelo://app?vid=f44abfeb-1ab3-4d65-a4ab-9a6c77bdf6e4"},"vehicle_type_id":"4","last_reported":1713546427,"current_range_meters":24400,"station_id":"ce4bgop2rcd13ifvqc1g","pricing_plan_id":"cebpf4jnsgd1na2vs0mg"},{"bike_id":"f02710d2-1fee-4866-a021-12fd915ee40b","system_id":"levelo_inurba_marseille","lat":43.322872,"lon":5.382756,"is_reserved":false,"is_disabled":false,"rental_uris":{"android":"levelo://app?vid=f02710d2-1fee-4866-a021-12fd915ee40b","ios":"levelo://app?vid=f02710d2-1fee-4866-a021-12fd915ee40b"},"vehicle_type_id":"4","last_reported":1713546427,"current_range_meters":13200,"station_id":"ce4bhr12rcd13ifvqhqg","pricing_plan_id":"cebpf4jnsgd1na2vs0mg"},{"bike_id":"d37c1300-16b8-430c-97e7-be7153b1d766","system_id":"levelo_inurba_marseille","lat":43.322872,"lon":5.382756,"is_reserved":false,"is_disabled":false,"rental_uris":{"android":"levelo://app?vid=d37c1300-16b8-430c-97e7-be7153b1d766","ios":"levelo://app?vid=d37c1300-16b8-430c-97e7-be7153b1d766"},"vehicle_type_id":"4","last_reported":1713546427,"current_range_meters":0,"station_id":"ce4bhr12rcd13ifvqhqg","pricing_plan_id":"cebpf4jnsgd1na2vs0mg"},{"bike_id":"59c296c1-c1af-4a71-9e20-fa9c7f8757f9","system_id":"levelo_inurba_marseille","lat":43.322872,"lon":5.382756,"is_reserved":false,"is_disabled":false,"rental_uris":{"android":"levelo://app?vid=59c296c1-c1af-4a71-9e20-fa9c7f8757f9","ios":"levelo://app?vid=59c296c1-c1af-4a71-9e20-fa9c7f8757f9"},"vehicle_type_id":"4","last_reported":1713546427,"current_range_meters":31600,"station_id":"ce4bhr12rcd13ifvqhqg","pricing_plan_id":"cebpf4jnsgd1na2vs0mg"},{"bike_id":"b1c9170a-6a31-47d1-8e62-5b624c342910","system_id":"levelo_inurba_marseille","lat":43.322872,"lon":5.382756,"is_reserved":false,"is_disabled":false,"rental_uris":{"android":"levelo://app?vid=b1c9170a-6a31-47d1-8e62-5b624c342910","ios":"levelo://app?vid=b1c9170a-6a31-47d1-8e62-5b624c342910"},"vehicle_type_id":"4","last_reported":1713546427,"current_range_meters":13600,"station_id":"ce4bhr12rcd13ifvqhqg","pricing_plan_id":"cebpf4jnsgd1na2vs0mg"},{"bike_id":"6a9bcf40-c5f9-44a4-a58e-664576d7b299","system_id":"levelo_inurba_marseille","lat":43.322872,"lon":5.382756,"is_reserved":false,"is_disabled":false,"rental_uris":{"android":"levelo://app?vid=6a9bcf40-c5f9-44a4-a58e-664576d7b299","ios":"levelo://app?vid=6a9bcf40-c5f9-44a4-a58e-664576d7b299"},"vehicle_type_id":"4","last_reported":1713546427,"current_range_meters":20800,"station_id":"ce4bhr12rcd13ifvqhqg","pricing_plan_id":"cebpf4jnsgd1na2vs0mg"},{"bike_id":"aa38acc2-91cb-407c-ac8c-05b08cc96e3e","system_id":"levelo_inurba_marseille","lat":43.322872,"lon":5.382756,"is_reserved":false,"is_disabled":false,"rental_uris":{"android":"levelo://app?vid=aa38acc2-91cb-407c-ac8c-05b08cc96e3e","ios":"levelo://app?vid=aa38acc2-91cb-407c-ac8c-05b08cc96e3e"},"vehicle_type_id":"4","last_reported":1713546427,"current_range_meters":31600,"station_id":"ce4bhr12rcd13ifvqhqg","pricing_plan_id":"cebpf4jnsgd1na2vs0mg"},{"bike_id":"e5df68f6-b1ff-4d0a-b7e9-c02ca9b8210e","system_id":"levelo_inurba_marseille","lat":43.322872,"lon":5.382756,"is_reserved":false,"is_disabled":false,"rental_uris":{"android":"levelo://app?vid=e5df68f6-b1ff-4d0a-b7e9-c02ca9b8210e","ios":"levelo://app?vid=e5df68f6-b1ff-4d0a-b7e9-c02ca9b8210e"},"vehicle_type_id":"4","last_reported":1713546427,"current_range_meters":31600,"station_id":"ce4bhr12rcd13ifvqhqg","pricing_plan_id":"cebpf4jnsgd1na2vs0mg"},{"bike_id":"76931112-13b2-4ce1-aed6-6fa548f70599","system_id":"levelo_inurba_marseille","lat":43.322872,"lon":5.382756,"is_reserved":false,"is_disabled":false,"rental_uris":{"android":"levelo://app?vid=76931112-13b2-4ce1-aed6-6fa548f70599","ios":"levelo://app?vid=76931112-13b2-4ce1-aed6-6fa548f70599"},"vehicle_type_id":"4","last_reported":1713546427,"current_range_meters":30400,"station_id":"ce4bhr12rcd13ifvqhqg","pricing_plan_id":"cebpf4jnsgd1na2vs0mg"},{"bike_id":"3a777aae-0d2a-4638-8c09-6f1de81534e0","system_id":"levelo_inurba_marseille","lat":43.322872,"lon":5.382756,"is_reserved":false,"is_disabled":false,"rental_uris":{"android":"levelo://app?vid=3a777aae-0d2a-4638-8c09-6f1de81534e0","ios":"levelo://app?vid=3a777aae-0d2a-4638-8c09-6f1de81534e0"},"vehicle_type_id":"4","last_reported":1713546427,"current_range_meters":28800,"station_id":"ce4bhr12rcd13ifvqhqg","pricing_plan_id":"cebpf4jnsgd1na2vs0mg"},{"bike_id":"a4e08546-6278-4fec-a3f5-ea17e1bddef5","system_id":"levelo_inurba_marseille","lat":43.322872,"lon":5.382756,"is_reserved":false,"is_disabled":false,"rental_uris":{"android":"levelo://app?vid=a4e08546-6278-4fec-a3f5-ea17e1bddef5","ios":"levelo://app?vid=a4e08546-6278-4fec-a3f5-ea17e1bddef5"},"vehicle_type_id":"4","last_reported":1713546427,"current_range_meters":12800,"station_id":"ce4bhr12rcd13ifvqhqg","pricing_plan_id":"cebpf4jnsgd1na2vs0mg"},{"bike_id":"c1c913df-b844-406e-83f7-dff5f43f7dc5","system_id":"levelo_inurba_marseille","lat":43.322872,"lon":5.382756,"is_reserved":false,"is_disabled":false,"rental_uris":{"android":"levelo://app?vid=c1c913df-b844-406e-83f7-dff5f43f7dc5","ios":"levelo://app?vid=c1c913df-b844-406e-83f7-dff5f43f7dc5"},"vehicle_type_id":"4","last_reported":1713546427,"current_range_meters":31600,"station_id":"ce4bhr12rcd13ifvqhqg","pricing_plan_id":"cebpf4jnsgd1na2vs0mg"},{"bike_id":"6e3bb171-b47f-4a0c-8942-d8f85aba909b","system_id":"levelo_inurba_marseille","lat":43.305706,"lon":5.365654,"is_reserved":false,"is_disabled":false,"rental_uris":{"android":"levelo://app?vid=6e3bb171-b47f-4a0c-8942-d8f85aba909b","ios":"levelo://app?vid=6e3bb171-b47f-4a0c-8942-d8f85aba909b"},"vehicle_type_id":"4","last_reported":1713546427,"current_range_meters":800,"station_id":"ce4bgs12rcd13ifvqcag","pricing_plan_id":"cebpf4jnsgd1na2vs0mg"},{"bike_id":"9adb2a75-ea30-4eec-beff-4a9cb5790920","system_id":"levelo_inurba_marseille","lat":43.29711,"lon":5.36612,"is_reserved":false,"is_disabled":false,"rental_uris":{"android":"levelo://app?vid=9adb2a75-ea30-4eec-beff-4a9cb5790920","ios":"levelo://app?vid=9adb2a75-ea30-4eec-beff-4a9cb5790920"},"vehicle_type_id":"4","last_reported":1713546427,"current_range_meters":0,"station_id":"ce4bgn12rcd13ifvqbt0","pricing_plan_id":"cebpf4jnsgd1na2vs0mg"},{"bike_id":"b519841a-2865-47fc-bde2-e02beec9ea30","system_id":"levelo_inurba_marseille","lat":43.296131,"lon":5.370791,"is_reserved":false,"is_disabled":false,"rental_uris":{"android":"levelo://app?vid=b519841a-2865-47fc-bde2-e02beec9ea30","ios":"levelo://app?vid=b519841a-2865-47fc-bde2-e02beec9ea30"},"vehicle_type_id":"4","last_reported":1713546427,"current_range_meters":800,"station_id":"ce4bgnh2rcd13ifvqc0g","pricing_plan_id":"cebpf4jnsgd1na2vs0mg"},{"bike_id":"28cbde4e-50a4-49cf-bec7-9d09af8a9743","system_id":"levelo_inurba_marseille","lat":43.29573,"lon":5.367355,"is_reserved":false,"is_disabled":false,"rental_uris":{"android":"levelo://app?vid=28cbde4e-50a4-49cf-bec7-9d09af8a9743","ios":"levelo://app?vid=28cbde4e-50a4-49cf-bec7-9d09af8a9743"},"vehicle_type_id":"4","last_reported":1713546427,"current_range_meters":800,"station_id":"ce4bgph2rcd13ifvqc2g","pricing_plan_id":"cebpf4jnsgd1na2vs0mg"},{"bike_id":"ee74d5f0-1bd5-4299-9c60-935ed07cc8cf","system_id":"levelo_inurba_marseille","lat":43.29573,"lon":5.367355,"is_reserved":false,"is_disabled":false,"rental_uris":{"android":"levelo://app?vid=ee74d5f0-1bd5-4299-9c60-935ed07cc8cf","ios":"levelo://app?vid=ee74d5f0-1bd5-4299-9c60-935ed07cc8cf"},"vehicle_type_id":"4","last_reported":1713546427,"current_range_meters":4000,"station_id":"ce4bgph2rcd13ifvqc2g","pricing_plan_id":"cebpf4jnsgd1na2vs0mg"},{"bike_id":"ec81e8a3-c993-4fec-83e3-b4d8ae98651b","system_id":"levelo_inurba_marseille","lat":43.297338,"lon":5.376981,"is_reserved":false,"is_disabled":false,"rental_uris":{"android":"levelo://app?vid=ec81e8a3-c993-4fec-83e3-b4d8ae98651b","ios":"levelo://app?vid=ec81e8a3-c993-4fec-83e3-b4d8ae98651b"},"vehicle_type_id":"4","last_reported":1713546427,"current_range_meters":0,"station_id":"ce4bgkh2rcd13ifvqbl0","pricing_plan_id":"cebpf4jnsgd1na2vs0mg"},{"bike_id":"fc0a4964-2b09-49b9-9dba-fdbe43fe31e8","system_id":"levelo_inurba_marseille","lat":43.321318,"lon":5.387367,"is_reserved":false,"is_disabled":false,"rental_uris":{"android":"levelo://app?vid=fc0a4964-2b09-49b9-9dba-fdbe43fe31e8","ios":"levelo://app?vid=fc0a4964-2b09-49b9-9dba-fdbe43fe31e8"},"vehicle_type_id":"4","last_reported":1713546427,"current_range_meters":31200,"station_id":"","pricing_plan_id":"cebpf4jnsgd1na2vs0mg"},{"bike_id":"f237ae0e-104a-4224-9025-c0bea3131beb","system_id":"levelo_inurba_marseille","lat":43.299028,"lon":5.381509,"is_reserved":false,"is_disabled":false,"rental_uris":{"android":"levelo://app?vid=f237ae0e-104a-4224-9025-c0bea3131beb","ios":"levelo://app?vid=f237ae0e-104a-4224-9025-c0bea3131beb"},"vehicle_type_id":"4","last_reported":1713546427,"current_range_meters":18400,"station_id":"ce4bgj12rcd13ifvqbc0","pricing_plan_id":"cebpf4jnsgd1na2vs0mg"},{"bike_id":"734574ec-2d8c-4372-bc4e-a1172c9a2efa","system_id":"levelo_inurba_marseille","lat":43.28573,"lon":5.394992,"is_reserved":false,"is_disabled":false,"rental_uris":{"android":"levelo://app?vid=734574ec-2d8c-4372-bc4e-a1172c9a2efa","ios":"levelo://app?vid=734574ec-2d8c-4372-bc4e-a1172c9a2efa"},"vehicle_type_id":"4","last_reported":1713546427,"current_range_meters":0,"station_id":"ce4bh292rcd13ifvqdg0","pricing_plan_id":"cebpf4jnsgd1na2vs0mg"},{"bike_id":"4c7e1cac-9f40-4304-b5f7-a28308ddce6e","system_id":"levelo_inurba_marseille","lat":43.309597,"lon":5.390337,"is_reserved":false,"is_disabled":false,"rental_uris":{"android":"levelo://app?vid=4c7e1cac-9f40-4304-b5f7-a28308ddce6e","ios":"levelo://app?vid=4c7e1cac-9f40-4304-b5f7-a28308ddce6e"},"vehicle_type_id":"4","last_reported":1713546427,"current_range_meters":0,"station_id":"ce4bgup2rcd13ifvqco0","pricing_plan_id":"cebpf4jnsgd1na2vs0mg"},{"bike_id":"530c74cc-8fd7-4d19-ba18-099a6ad1f4db","system_id":"levelo_inurba_marseille","lat":43.309508,"lon":5.390408,"is_reserved":false,"is_disabled":false,"rental_uris":{"android":"levelo://app?vid=530c74cc-8fd7-4d19-ba18-099a6ad1f4db","ios":"levelo://app?vid=530c74cc-8fd7-4d19-ba18-099a6ad1f4db"},"vehicle_type_id":"4","last_reported":1713546427,"current_range_meters":0,"station_id":"ce4bgup2rcd13ifvqco0","pricing_plan_id":"cebpf4jnsgd1na2vs0mg"},{"bike_id":"05317c25-2e4a-42e6-8f5d-edd35631985d","system_id":"levelo_inurba_marseille","lat":43.309589,"lon":5.390258,"is_reserved":false,"is_disabled":false,"rental_uris":{"android":"levelo://app?vid=05317c25-2e4a-42e6-8f5d-edd35631985d","ios":"levelo://app?vid=05317c25-2e4a-42e6-8f5d-edd35631985d"},"vehicle_type_id":"4","last_reported":1713546427,"current_range_meters":2400,"station_id":"ce4bgup2rcd13ifvqco0","pricing_plan_id":"cebpf4jnsgd1na2vs0mg"},{"bike_id":"02849443-3ff0-4f6b-b548-a4672c13a2fb","system_id":"levelo_inurba_marseille","lat":43.317557,"lon":5.390173,"is_reserved":false,"is_disabled":false,"rental_uris":{"android":"levelo://app?vid=02849443-3ff0-4f6b-b548-a4672c13a2fb","ios":"levelo://app?vid=02849443-3ff0-4f6b-b548-a4672c13a2fb"},"vehicle_type_id":"4","last_reported":1713546427,"current_range_meters":30000,"station_id":"ce4bhqp2rcd13ifvqhng","pricing_plan_id":"cebpf4jnsgd1na2vs0mg"},{"bike_id":"3049929b-f63d-4610-b205-8a1d00486e13","system_id":"levelo_inurba_marseille","lat":43.295877,"lon":5.374943,"is_reserved":false,"is_disabled":false,"rental_uris":{"android":"levelo://app?vid=3049929b-f63d-4610-b205-8a1d00486e13","ios":"levelo://app?vid=3049929b-f63d-4610-b205-8a1d00486e13"},"vehicle_type_id":"4","last_reported":1713546427,"current_range_meters":0,"station_id":"ce4bgh92rcd13ifvqb50","pricing_plan_id":"cebpf4jnsgd1na2vs0mg"},{"bike_id":"10f213f7-9c43-4053-a37e-a6d813d767ec","system_id":"levelo_inurba_marseille","lat":43.298037,"lon":5.381066,"is_reserved":false,"is_disabled":false,"rental_uris":{"android":"levelo://app?vid=10f213f7-9c43-4053-a37e-a6d813d767ec","ios":"levelo://app?vid=10f213f7-9c43-4053-a37e-a6d813d767ec"},"vehicle_type_id":"4","last_reported":1713546427,"current_range_meters":6400,"station_id":"ce4bgip2rcd13ifvqbb0","pricing_plan_id":"cebpf4jnsgd1na2vs0mg"},{"bike_id":"125dda17-51aa-4cca-85f7-a8e880d240d7","system_id":"levelo_inurba_marseille","lat":43.304278,"lon":5.388868,"is_reserved":false,"is_disabled":false,"rental_uris":{"android":"levelo://app?vid=125dda17-51aa-4cca-85f7-a8e880d240d7","ios":"levelo://app?vid=125dda17-51aa-4cca-85f7-a8e880d240d7"},"vehicle_type_id":"4","last_reported":1713546427,"current_range_meters":2400,"station_id":"ce4bgk12rcd13ifvqbi0","pricing_plan_id":"cebpf4jnsgd1na2vs0mg"},{"bike_id":"78c5f987-7485-4774-be75-5e9b8a2d0aca","system_id":"levelo_inurba_marseille","lat":43.29578,"lon":5.37514,"is_reserved":false,"is_disabled":false,"rental_uris":{"android":"levelo://app?vid=78c5f987-7485-4774-be75-5e9b8a2d0aca","ios":"levelo://app?vid=78c5f987-7485-4774-be75-5e9b8a2d0aca"},"vehicle_type_id":"4","last_reported":1713546427,"current_range_meters":0,"station_id":"ce4bgh92rcd13ifvqb50","pricing_plan_id":"cebpf4jnsgd1na2vs0mg"},{"bike_id":"14a65404-46d3-4d8d-8d88-3259f694a026","system_id":"levelo_inurba_marseille","lat":43.298037,"lon":5.381066,"is_reserved":false,"is_disabled":false,"rental_uris":{"android":"levelo://app?vid=14a65404-46d3-4d8d-8d88-3259f694a026","ios":"levelo://app?vid=14a65404-46d3-4d8d-8d88-3259f694a026"},"vehicle_type_id":"4","last_reported":1713546427,"current_range_meters":400,"station_id":"ce4bgip2rcd13ifvqbb0","pricing_plan_id":"cebpf4jnsgd1na2vs0mg"},{"bike_id":"8415dee2-5146-4c71-addb-85fa5391d5bb","system_id":"levelo_inurba_marseille","lat":43.295748,"lon":5.37522,"is_reserved":false,"is_disabled":false,"rental_uris":{"android":"levelo://app?vid=8415dee2-5146-4c71-addb-85fa5391d5bb","ios":"levelo://app?vid=8415dee2-5146-4c71-addb-85fa5391d5bb"},"vehicle_type_id":"4","last_reported":1713546427,"current_range_meters":0,"station_id":"ce4bgh92rcd13ifvqb50","pricing_plan_id":"cebpf4jnsgd1na2vs0mg"},{"bike_id":"85ecc164-fd26-453a-b928-baa17ddb3f78","system_id":"levelo_inurba_marseille","lat":43.296263,"lon":5.377094,"is_reserved":false,"is_disabled":false,"rental_uris":{"android":"levelo://app?vid=85ecc164-fd26-453a-b928-baa17ddb3f78","ios":"levelo://app?vid=85ecc164-fd26-453a-b928-baa17ddb3f78"},"vehicle_type_id":"4","last_reported":1713546427,"current_range_meters":800,"station_id":"ce4bgi92rcd13ifvqb90","pricing_plan_id":"cebpf4jnsgd1na2vs0mg"},{"bike_id":"6898e87d-6eab-4535-ada0-e85ce589988d","system_id":"levelo_inurba_marseille","lat":43.30447,"lon":5.38896,"is_reserved":false,"is_disabled":false,"rental_uris":{"android":"levelo://app?vid=6898e87d-6eab-4535-ada0-e85ce589988d","ios":"levelo://app?vid=6898e87d-6eab-4535-ada0-e85ce589988d"},"vehicle_type_id":"4","last_reported":1713546427,"current_range_meters":0,"station_id":"ce4bgk12rcd13ifvqbi0","pricing_plan_id":"cebpf4jnsgd1na2vs0mg"},{"bike_id":"1dfb617b-d82a-4a1d-9046-88a7f9c6a906","system_id":"levelo_inurba_marseille","lat":43.30437,"lon":5.38891,"is_reserved":false,"is_disabled":false,"rental_uris":{"android":"levelo://app?vid=1dfb617b-d82a-4a1d-9046-88a7f9c6a906","ios":"levelo://app?vid=1dfb617b-d82a-4a1d-9046-88a7f9c6a906"},"vehicle_type_id":"4","last_reported":1713546427,"current_range_meters":0,"station_id":"ce4bgk12rcd13ifvqbi0","pricing_plan_id":"cebpf4jnsgd1na2vs0mg"},{"bike_id":"5900836e-43e2-4c9d-8ac8-4a5040f29b9e","system_id":"levelo_inurba_marseille","lat":43.298037,"lon":5.381066,"is_reserved":false,"is_disabled":false,"rental_uris":{"android":"levelo://app?vid=5900836e-43e2-4c9d-8ac8-4a5040f29b9e","ios":"levelo://app?vid=5900836e-43e2-4c9d-8ac8-4a5040f29b9e"},"vehicle_type_id":"4","last_reported":1713546427,"current_range_meters":18800,"station_id":"ce4bgip2rcd13ifvqbb0","pricing_plan_id":"cebpf4jnsgd1na2vs0mg"},{"bike_id":"1c979fa4-a3b1-42a1-a9f0-5eda78092337","system_id":"levelo_inurba_marseille","lat":43.304274,"lon":5.388873,"is_reserved":false,"is_disabled":false,"rental_uris":{"android":"levelo://app?vid=1c979fa4-a3b1-42a1-a9f0-5eda78092337","ios":"levelo://app?vid=1c979fa4-a3b1-42a1-a9f0-5eda78092337"},"vehicle_type_id":"4","last_reported":1713546427,"current_range_meters":4000,"station_id":"ce4bgk12rcd13ifvqbi0","pricing_plan_id":"cebpf4jnsgd1na2vs0mg"},{"bike_id":"f2536414-4943-4ec8-becd-900a2e313634","system_id":"levelo_inurba_marseille","lat":43.300045,"lon":5.385329,"is_reserved":false,"is_disabled":false,"rental_uris":{"android":"levelo://app?vid=f2536414-4943-4ec8-becd-900a2e313634","ios":"levelo://app?vid=f2536414-4943-4ec8-becd-900a2e313634"},"vehicle_type_id":"4","last_reported":1713546427,"current_range_meters":0,"station_id":"ce4bgj92rcd13ifvqbd0","pricing_plan_id":"cebpf4jnsgd1na2vs0mg"},{"bike_id":"7b520163-8ac8-4ea2-88a3-1879f8b1e235","system_id":"levelo_inurba_marseille","lat":43.290336,"lon":5.386425,"is_reserved":false,"is_disabled":false,"rental_uris":{"android":"levelo://app?vid=7b520163-8ac8-4ea2-88a3-1879f8b1e235","ios":"levelo://app?vid=7b520163-8ac8-4ea2-88a3-1879f8b1e235"},"vehicle_type_id":"4","last_reported":1713546427,"current_range_meters":7600,"station_id":"ce4bh4p2rcd13ifvqe0g","pricing_plan_id":"cebpf4jnsgd1na2vs0mg"},{"bike_id":"fe9271d5-2cb2-4e5f-a468-95b4dce3758d","system_id":"levelo_inurba_marseille","lat":43.298764,"lon":5.388973,"is_reserved":false,"is_disabled":false,"rental_uris":{"android":"levelo://app?vid=fe9271d5-2cb2-4e5f-a468-95b4dce3758d","ios":"levelo://app?vid=fe9271d5-2cb2-4e5f-a468-95b4dce3758d"},"vehicle_type_id":"4","last_reported":1713546427,"current_range_meters":14400,"station_id":"ce4bh392rcd13ifvqdl0","pricing_plan_id":"cebpf4jnsgd1na2vs0mg"},{"bike_id":"73595d24-2426-4714-8639-170262dab623","system_id":"levelo_inurba_marseille","lat":43.312239,"lon":5.368562,"is_reserved":false,"is_disabled":false,"rental_uris":{"android":"levelo://app?vid=73595d24-2426-4714-8639-170262dab623","ios":"levelo://app?vid=73595d24-2426-4714-8639-170262dab623"},"vehicle_type_id":"4","last_reported":1713546427,"current_range_meters":14800,"station_id":"ce4bgl92rcd13ifvqbq0","pricing_plan_id":"cebpf4jnsgd1na2vs0mg"},{"bike_id":"3896c664-50fa-42db-9a2c-2d55be44e9c6","system_id":"levelo_inurba_marseille","lat":43.32365,"lon":5.38874,"is_reserved":false,"is_disabled":false,"rental_uris":{"android":"levelo://app?vid=3896c664-50fa-42db-9a2c-2d55be44e9c6","ios":"levelo://app?vid=3896c664-50fa-42db-9a2c-2d55be44e9c6"},"vehicle_type_id":"4","last_reported":1713546427,"current_range_meters":14800,"station_id":"ce4bhqp2rcd13ifvqhog","pricing_plan_id":"cebpf4jnsgd1na2vs0mg"},{"bike_id":"ef5c7ff1-5df6-42d6-bf82-48d7daec79c9","system_id":"levelo_inurba_marseille","lat":43.32361,"lon":5.38884,"is_reserved":false,"is_disabled":false,"rental_uris":{"android":"levelo://app?vid=ef5c7ff1-5df6-42d6-bf82-48d7daec79c9","ios":"levelo://app?vid=ef5c7ff1-5df6-42d6-bf82-48d7daec79c9"},"vehicle_type_id":"4","last_reported":1713546427,"current_range_meters":21600,"station_id":"ce4bhqp2rcd13ifvqhog","pricing_plan_id":"cebpf4jnsgd1na2vs0mg"},{"bike_id":"470eea51-aead-41d2-a69f-d91d26ec2d19","system_id":"levelo_inurba_marseille","lat":43.323672,"lon":5.388785,"is_reserved":false,"is_disabled":false,"rental_uris":{"android":"levelo://app?vid=470eea51-aead-41d2-a69f-d91d26ec2d19","ios":"levelo://app?vid=470eea51-aead-41d2-a69f-d91d26ec2d19"},"vehicle_type_id":"4","last_reported":1713546427,"current_range_meters":26000,"station_id":"","pricing_plan_id":"cebpf4jnsgd1na2vs0mg"},{"bike_id":"10bd876b-372c-48b6-9eea-48946bb81dd8","system_id":"levelo_inurba_marseille","lat":43.32367,"lon":5.388836,"is_reserved":false,"is_disabled":false,"rental_uris":{"android":"levelo://app?vid=10bd876b-372c-48b6-9eea-48946bb81dd8","ios":"levelo://app?vid=10bd876b-372c-48b6-9eea-48946bb81dd8"},"vehicle_type_id":"4","last_reported":1713546427,"current_range_meters":12000,"station_id":"ce4bhqp2rcd13ifvqhog","pricing_plan_id":"cebpf4jnsgd1na2vs0mg"},{"bike_id":"91c8bb2c-2c0b-4328-8df0-ccc16be8fc53","system_id":"levelo_inurba_marseille","lat":43.32367,"lon":5.388836,"is_reserved":false,"is_disabled":false,"rental_uris":{"android":"levelo://app?vid=91c8bb2c-2c0b-4328-8df0-ccc16be8fc53","ios":"levelo://app?vid=91c8bb2c-2c0b-4328-8df0-ccc16be8fc53"},"vehicle_type_id":"4","last_reported":1713546427,"current_range_meters":18800,"station_id":"ce4bhqp2rcd13ifvqhog","pricing_plan_id":"cebpf4jnsgd1na2vs0mg"},{"bike_id":"8aca1d23-abc6-4429-a74e-bc9d5a37916b","system_id":"levelo_inurba_marseille","lat":43.30537,"lon":5.367345,"is_reserved":false,"is_disabled":false,"rental_uris":{"android":"levelo://app?vid=8aca1d23-abc6-4429-a74e-bc9d5a37916b","ios":"levelo://app?vid=8aca1d23-abc6-4429-a74e-bc9d5a37916b"},"vehicle_type_id":"4","last_reported":1713546427,"current_range_meters":0,"station_id":"ce4bgrp2rcd13ifvqc9g","pricing_plan_id":"cebpf4jnsgd1na2vs0mg"},{"bike_id":"14c0b9c1-097e-4289-b02f-d535f508fe2a","system_id":"levelo_inurba_marseille","lat":43.32367,"lon":5.388836,"is_reserved":false,"is_disabled":false,"rental_uris":{"android":"levelo://app?vid=14c0b9c1-097e-4289-b02f-d535f508fe2a","ios":"levelo://app?vid=14c0b9c1-097e-4289-b02f-d535f508fe2a"},"vehicle_type_id":"4","last_reported":1713546427,"current_range_meters":22800,"station_id":"ce4bhqp2rcd13ifvqhog","pricing_plan_id":"cebpf4jnsgd1na2vs0mg"},{"bike_id":"a730cd16-45c9-4eac-9f20-d9ef2d8cd53f","system_id":"levelo_inurba_marseille","lat":43.32367,"lon":5.388836,"is_reserved":false,"is_disabled":false,"rental_uris":{"android":"levelo://app?vid=a730cd16-45c9-4eac-9f20-d9ef2d8cd53f","ios":"levelo://app?vid=a730cd16-45c9-4eac-9f20-d9ef2d8cd53f"},"vehicle_type_id":"4","last_reported":1713546427,"current_range_meters":30400,"station_id":"ce4bhqp2rcd13ifvqhog","pricing_plan_id":"cebpf4jnsgd1na2vs0mg"},{"bike_id":"ec3b84dd-a863-4f78-aeb0-dee9498f4259","system_id":"levelo_inurba_marseille","lat":43.32367,"lon":5.388836,"is_reserved":false,"is_disabled":false,"rental_uris":{"android":"levelo://app?vid=ec3b84dd-a863-4f78-aeb0-dee9498f4259","ios":"levelo://app?vid=ec3b84dd-a863-4f78-aeb0-dee9498f4259"},"vehicle_type_id":"4","last_reported":1713546427,"current_range_meters":17200,"station_id":"ce4bhqp2rcd13ifvqhog","pricing_plan_id":"cebpf4jnsgd1na2vs0mg"},{"bike_id":"42ed3647-19be-4c84-a479-dde7bed9f72b","system_id":"levelo_inurba_marseille","lat":43.32367,"lon":5.388836,"is_reserved":false,"is_disabled":false,"rental_uris":{"android":"levelo://app?vid=42ed3647-19be-4c84-a479-dde7bed9f72b","ios":"levelo://app?vid=42ed3647-19be-4c84-a479-dde7bed9f72b"},"vehicle_type_id":"4","last_reported":1713546427,"current_range_meters":29200,"station_id":"ce4bhqp2rcd13ifvqhog","pricing_plan_id":"cebpf4jnsgd1na2vs0mg"},{"bike_id":"39312e16-2fa3-44b7-9083-c3c96d4b38f8","system_id":"levelo_inurba_marseille","lat":43.295023,"lon":5.378437,"is_reserved":false,"is_disabled":false,"rental_uris":{"android":"levelo://app?vid=39312e16-2fa3-44b7-9083-c3c96d4b38f8","ios":"levelo://app?vid=39312e16-2fa3-44b7-9083-c3c96d4b38f8"},"vehicle_type_id":"4","last_reported":1713546427,"current_range_meters":12000,"station_id":"ce4bh2h2rcd13ifvqdh0","pricing_plan_id":"cebpf4jnsgd1na2vs0mg"},{"bike_id":"0ac8c75b-4af4-4e50-8520-b1a30781d136","system_id":"levelo_inurba_marseille","lat":43.292749,"lon":5.368402,"is_reserved":false,"is_disabled":false,"rental_uris":{"android":"levelo://app?vid=0ac8c75b-4af4-4e50-8520-b1a30781d136","ios":"levelo://app?vid=0ac8c75b-4af4-4e50-8520-b1a30781d136"},"vehicle_type_id":"4","last_reported":1713546427,"current_range_meters":6000,"station_id":"ce4bhbp2rcd13ifvqesg","pricing_plan_id":"cebpf4jnsgd1na2vs0mg"},{"bike_id":"2f934264-2561-4d0e-9160-df161d38c992","system_id":"levelo_inurba_marseille","lat":43.293249,"lon":5.371578,"is_reserved":false,"is_disabled":false,"rental_uris":{"android":"levelo://app?vid=2f934264-2561-4d0e-9160-df161d38c992","ios":"levelo://app?vid=2f934264-2561-4d0e-9160-df161d38c992"},"vehicle_type_id":"4","last_reported":1713546427,"current_range_meters":18000,"station_id":"ce4bgh92rcd13ifvqb40","pricing_plan_id":"cebpf4jnsgd1na2vs0mg"},{"bike_id":"69a3a725-bb23-45a5-9e81-ea5192f70a54","system_id":"levelo_inurba_marseille","lat":43.293259,"lon":5.371586,"is_reserved":false,"is_disabled":false,"rental_uris":{"android":"levelo://app?vid=69a3a725-bb23-45a5-9e81-ea5192f70a54","ios":"levelo://app?vid=69a3a725-bb23-45a5-9e81-ea5192f70a54"},"vehicle_type_id":"4","last_reported":1713546427,"current_range_meters":28000,"station_id":"ce4bgh92rcd13ifvqb40","pricing_plan_id":"cebpf4jnsgd1na2vs0mg"},{"bike_id":"1a79430f-07d8-48b6-885f-ed71d3d3e1eb","system_id":"levelo_inurba_marseille","lat":43.292749,"lon":5.368402,"is_reserved":false,"is_disabled":false,"rental_uris":{"android":"levelo://app?vid=1a79430f-07d8-48b6-885f-ed71d3d3e1eb","ios":"levelo://app?vid=1a79430f-07d8-48b6-885f-ed71d3d3e1eb"},"vehicle_type_id":"4","last_reported":1713546427,"current_range_meters":11600,"station_id":"ce4bhbp2rcd13ifvqesg","pricing_plan_id":"cebpf4jnsgd1na2vs0mg"},{"bike_id":"bfe17d78-c106-4f1f-8477-6e24634af760","system_id":"levelo_inurba_marseille","lat":43.29276,"lon":5.36839,"is_reserved":false,"is_disabled":false,"rental_uris":{"android":"levelo://app?vid=bfe17d78-c106-4f1f-8477-6e24634af760","ios":"levelo://app?vid=bfe17d78-c106-4f1f-8477-6e24634af760"},"vehicle_type_id":"4","last_reported":1713546427,"current_range_meters":0,"station_id":"ce4bhbp2rcd13ifvqesg","pricing_plan_id":"cebpf4jnsgd1na2vs0mg"},{"bike_id":"4f5adea0-e99e-43cf-902b-107a2747fd88","system_id":"levelo_inurba_marseille","lat":43.284219,"lon":5.3497,"is_reserved":false,"is_disabled":false,"rental_uris":{"android":"levelo://app?vid=4f5adea0-e99e-43cf-902b-107a2747fd88","ios":"levelo://app?vid=4f5adea0-e99e-43cf-902b-107a2747fd88"},"vehicle_type_id":"4","last_reported":1713546427,"current_range_meters":14400,"station_id":"ce4bhbh2rcd13ifvqepg","pricing_plan_id":"cebpf4jnsgd1na2vs0mg"},{"bike_id":"21c023ce-badb-4080-b3da-5cd2006bab00","system_id":"levelo_inurba_marseille","lat":43.293249,"lon":5.371578,"is_reserved":false,"is_disabled":false,"rental_uris":{"android":"levelo://app?vid=21c023ce-badb-4080-b3da-5cd2006bab00","ios":"levelo://app?vid=21c023ce-badb-4080-b3da-5cd2006bab00"},"vehicle_type_id":"4","last_reported":1713546427,"current_range_meters":29200,"station_id":"ce4bgh92rcd13ifvqb40","pricing_plan_id":"cebpf4jnsgd1na2vs0mg"},{"bike_id":"1c1893eb-ca58-46d0-a72e-6d5f1de36498","system_id":"levelo_inurba_marseille","lat":43.29274,"lon":5.36847,"is_reserved":false,"is_disabled":false,"rental_uris":{"android":"levelo://app?vid=1c1893eb-ca58-46d0-a72e-6d5f1de36498","ios":"levelo://app?vid=1c1893eb-ca58-46d0-a72e-6d5f1de36498"},"vehicle_type_id":"4","last_reported":1713546427,"current_range_meters":0,"station_id":"ce4bhbp2rcd13ifvqesg","pricing_plan_id":"cebpf4jnsgd1na2vs0mg"},{"bike_id":"018af7a1-175d-4e78-b8ec-6b1a3e9e935c","system_id":"levelo_inurba_marseille","lat":43.305994,"lon":5.393687,"is_reserved":false,"is_disabled":false,"rental_uris":{"android":"levelo://app?vid=018af7a1-175d-4e78-b8ec-6b1a3e9e935c","ios":"levelo://app?vid=018af7a1-175d-4e78-b8ec-6b1a3e9e935c"},"vehicle_type_id":"4","last_reported":1713546427,"current_range_meters":4000,"station_id":"ce4bh0p2rcd13ifvqd80","pricing_plan_id":"cebpf4jnsgd1na2vs0mg"},{"bike_id":"3d22231f-b807-4735-9812-ee82e63115d5","system_id":"levelo_inurba_marseille","lat":43.305994,"lon":5.393687,"is_reserved":false,"is_disabled":false,"rental_uris":{"android":"levelo://app?vid=3d22231f-b807-4735-9812-ee82e63115d5","ios":"levelo://app?vid=3d22231f-b807-4735-9812-ee82e63115d5"},"vehicle_type_id":"4","last_reported":1713546427,"current_range_meters":4400,"station_id":"ce4bh0p2rcd13ifvqd80","pricing_plan_id":"cebpf4jnsgd1na2vs0mg"},{"bike_id":"ff365e54-76a2-46a2-801f-3e1f7adc8cce","system_id":"levelo_inurba_marseille","lat":43.30595,"lon":5.39358,"is_reserved":false,"is_disabled":false,"rental_uris":{"android":"levelo://app?vid=ff365e54-76a2-46a2-801f-3e1f7adc8cce","ios":"levelo://app?vid=ff365e54-76a2-46a2-801f-3e1f7adc8cce"},"vehicle_type_id":"4","last_reported":1713546427,"current_range_meters":16800,"station_id":"ce4bh0p2rcd13ifvqd80","pricing_plan_id":"cebpf4jnsgd1na2vs0mg"},{"bike_id":"5b5cd26f-428a-46d0-9df5-8e3528177928","system_id":"levelo_inurba_marseille","lat":43.305903,"lon":5.393563,"is_reserved":false,"is_disabled":false,"rental_uris":{"android":"levelo://app?vid=5b5cd26f-428a-46d0-9df5-8e3528177928","ios":"levelo://app?vid=5b5cd26f-428a-46d0-9df5-8e3528177928"},"vehicle_type_id":"4","last_reported":1713546427,"current_range_meters":2800,"station_id":"ce4bh0p2rcd13ifvqd80","pricing_plan_id":"cebpf4jnsgd1na2vs0mg"},{"bike_id":"7951cada-3b22-42fc-b7a7-7499fec02c88","system_id":"levelo_inurba_marseille","lat":43.305994,"lon":5.393687,"is_reserved":false,"is_disabled":false,"rental_uris":{"android":"levelo://app?vid=7951cada-3b22-42fc-b7a7-7499fec02c88","ios":"levelo://app?vid=7951cada-3b22-42fc-b7a7-7499fec02c88"},"vehicle_type_id":"4","last_reported":1713546427,"current_range_meters":14000,"station_id":"ce4bh0p2rcd13ifvqd80","pricing_plan_id":"cebpf4jnsgd1na2vs0mg"},{"bike_id":"7e8c44e5-99d1-441d-8294-33db72f24e3a","system_id":"levelo_inurba_marseille","lat":43.293009,"lon":5.374584,"is_reserved":false,"is_disabled":false,"rental_uris":{"android":"levelo://app?vid=7e8c44e5-99d1-441d-8294-33db72f24e3a","ios":"levelo://app?vid=7e8c44e5-99d1-441d-8294-33db72f24e3a"},"vehicle_type_id":"4","last_reported":1713546427,"current_range_meters":24800,"station_id":"ce4bgi12rcd13ifvqb70","pricing_plan_id":"cebpf4jnsgd1na2vs0mg"},{"bike_id":"958a3c91-cb4b-45a8-ac1b-4674959c43db","system_id":"levelo_inurba_marseille","lat":43.293009,"lon":5.374584,"is_reserved":false,"is_disabled":false,"rental_uris":{"android":"levelo://app?vid=958a3c91-cb4b-45a8-ac1b-4674959c43db","ios":"levelo://app?vid=958a3c91-cb4b-45a8-ac1b-4674959c43db"},"vehicle_type_id":"4","last_reported":1713546427,"current_range_meters":16400,"station_id":"ce4bgi12rcd13ifvqb70","pricing_plan_id":"cebpf4jnsgd1na2vs0mg"},{"bike_id":"4570d589-9d20-45bb-a808-edbf0781bb54","system_id":"levelo_inurba_marseille","lat":43.2936,"lon":5.37835,"is_reserved":false,"is_disabled":false,"rental_uris":{"android":"levelo://app?vid=4570d589-9d20-45bb-a808-edbf0781bb54","ios":"levelo://app?vid=4570d589-9d20-45bb-a808-edbf0781bb54"},"vehicle_type_id":"4","last_reported":1713546427,"current_range_meters":0,"station_id":"ce4bgjh2rcd13ifvqbf0","pricing_plan_id":"cebpf4jnsgd1na2vs0mg"},{"bike_id":"4342aaa9-0d71-4347-8013-c39d9a1e6283","system_id":"levelo_inurba_marseille","lat":43.2936,"lon":5.37835,"is_reserved":false,"is_disabled":false,"rental_uris":{"android":"levelo://app?vid=4342aaa9-0d71-4347-8013-c39d9a1e6283","ios":"levelo://app?vid=4342aaa9-0d71-4347-8013-c39d9a1e6283"},"vehicle_type_id":"4","last_reported":1713546427,"current_range_meters":4400,"station_id":"ce4bgjh2rcd13ifvqbf0","pricing_plan_id":"cebpf4jnsgd1na2vs0mg"},{"bike_id":"06d871ef-42a7-4d16-a487-d702abb238a5","system_id":"levelo_inurba_marseille","lat":43.2936,"lon":5.37835,"is_reserved":false,"is_disabled":false,"rental_uris":{"android":"levelo://app?vid=06d871ef-42a7-4d16-a487-d702abb238a5","ios":"levelo://app?vid=06d871ef-42a7-4d16-a487-d702abb238a5"},"vehicle_type_id":"4","last_reported":1713546427,"current_range_meters":6800,"station_id":"ce4bgjh2rcd13ifvqbf0","pricing_plan_id":"cebpf4jnsgd1na2vs0mg"},{"bike_id":"be1232c4-f2a8-4af1-bbea-f0e6f9d33a59","system_id":"levelo_inurba_marseille","lat":43.300852,"lon":5.390859,"is_reserved":false,"is_disabled":false,"rental_uris":{"android":"levelo://app?vid=be1232c4-f2a8-4af1-bbea-f0e6f9d33a59","ios":"levelo://app?vid=be1232c4-f2a8-4af1-bbea-f0e6f9d33a59"},"vehicle_type_id":"4","last_reported":1713546427,"current_range_meters":8000,"station_id":"ce4bh192rcd13ifvqdb0","pricing_plan_id":"cebpf4jnsgd1na2vs0mg"},{"bike_id":"7309f970-7a4e-49f7-a17f-732c6edc9d42","system_id":"levelo_inurba_marseille","lat":43.292311,"lon":5.360731,"is_reserved":false,"is_disabled":false,"rental_uris":{"android":"levelo://app?vid=7309f970-7a4e-49f7-a17f-732c6edc9d42","ios":"levelo://app?vid=7309f970-7a4e-49f7-a17f-732c6edc9d42"},"vehicle_type_id":"4","last_reported":1713546427,"current_range_meters":9600,"station_id":"ce4bhbh2rcd13ifvqeqg","pricing_plan_id":"cebpf4jnsgd1na2vs0mg"},{"bike_id":"2855bda6-a1bf-4b54-b80a-529cbbf1653b","system_id":"levelo_inurba_marseille","lat":43.303002,"lon":5.392142,"is_reserved":false,"is_disabled":false,"rental_uris":{"android":"levelo://app?vid=2855bda6-a1bf-4b54-b80a-529cbbf1653b","ios":"levelo://app?vid=2855bda6-a1bf-4b54-b80a-529cbbf1653b"},"vehicle_type_id":"4","last_reported":1713546427,"current_range_meters":2800,"station_id":"ce4bgkh2rcd13ifvqbk0","pricing_plan_id":"cebpf4jnsgd1na2vs0mg"},{"bike_id":"d9fa47c4-baed-483e-80c4-dba1c3f70742","system_id":"levelo_inurba_marseille","lat":43.292311,"lon":5.360731,"is_reserved":false,"is_disabled":false,"rental_uris":{"android":"levelo://app?vid=d9fa47c4-baed-483e-80c4-dba1c3f70742","ios":"levelo://app?vid=d9fa47c4-baed-483e-80c4-dba1c3f70742"},"vehicle_type_id":"4","last_reported":1713546427,"current_range_meters":8800,"station_id":"ce4bhbh2rcd13ifvqeqg","pricing_plan_id":"cebpf4jnsgd1na2vs0mg"},{"bike_id":"2b3fdc67-3832-4eec-bcad-db267ee2d835","system_id":"levelo_inurba_marseille","lat":43.292253,"lon":5.360607,"is_reserved":false,"is_disabled":false,"rental_uris":{"android":"levelo://app?vid=2b3fdc67-3832-4eec-bcad-db267ee2d835","ios":"levelo://app?vid=2b3fdc67-3832-4eec-bcad-db267ee2d835"},"vehicle_type_id":"4","last_reported":1713546427,"current_range_meters":400,"station_id":"ce4bhbh2rcd13ifvqeqg","pricing_plan_id":"cebpf4jnsgd1na2vs0mg"},{"bike_id":"0f8474f8-8dec-418d-ad7c-c8672396e925","system_id":"levelo_inurba_marseille","lat":43.292311,"lon":5.360731,"is_reserved":false,"is_disabled":false,"rental_uris":{"android":"levelo://app?vid=0f8474f8-8dec-418d-ad7c-c8672396e925","ios":"levelo://app?vid=0f8474f8-8dec-418d-ad7c-c8672396e925"},"vehicle_type_id":"4","last_reported":1713546427,"current_range_meters":0,"station_id":"ce4bhbh2rcd13ifvqeqg","pricing_plan_id":"cebpf4jnsgd1na2vs0mg"},{"bike_id":"c07ceff1-2ebc-4475-93df-80809f6cebd2","system_id":"levelo_inurba_marseille","lat":43.292311,"lon":5.360731,"is_reserved":false,"is_disabled":false,"rental_uris":{"android":"levelo://app?vid=c07ceff1-2ebc-4475-93df-80809f6cebd2","ios":"levelo://app?vid=c07ceff1-2ebc-4475-93df-80809f6cebd2"},"vehicle_type_id":"4","last_reported":1713546427,"current_range_meters":1200,"station_id":"ce4bhbh2rcd13ifvqeqg","pricing_plan_id":"cebpf4jnsgd1na2vs0mg"},{"bike_id":"c2babe9f-afe0-4c57-ab44-f4837e0deb88","system_id":"levelo_inurba_marseille","lat":43.292005,"lon":5.357875,"is_reserved":false,"is_disabled":false,"rental_uris":{"android":"levelo://app?vid=c2babe9f-afe0-4c57-ab44-f4837e0deb88","ios":"levelo://app?vid=c2babe9f-afe0-4c57-ab44-f4837e0deb88"},"vehicle_type_id":"4","last_reported":1713546427,"current_range_meters":16000,"station_id":"ce4bhb12rcd13ifvqel0","pricing_plan_id":"cebpf4jnsgd1na2vs0mg"},{"bike_id":"05214f0e-8605-4207-a8db-02b0d6e0c5bb","system_id":"levelo_inurba_marseille","lat":43.297794,"lon":5.370888,"is_reserved":false,"is_disabled":false,"rental_uris":{"android":"levelo://app?vid=05214f0e-8605-4207-a8db-02b0d6e0c5bb","ios":"levelo://app?vid=05214f0e-8605-4207-a8db-02b0d6e0c5bb"},"vehicle_type_id":"4","last_reported":1713546427,"current_range_meters":4400,"station_id":"ce4bgop2rcd13ifvqc1g","pricing_plan_id":"cebpf4jnsgd1na2vs0mg"},{"bike_id":"b9de5670-10d0-42aa-8d68-b413c4ad9267","system_id":"levelo_inurba_marseille","lat":43.29873,"lon":5.38888,"is_reserved":false,"is_disabled":false,"rental_uris":{"android":"levelo://app?vid=b9de5670-10d0-42aa-8d68-b413c4ad9267","ios":"levelo://app?vid=b9de5670-10d0-42aa-8d68-b413c4ad9267"},"vehicle_type_id":"4","last_reported":1713546427,"current_range_meters":6400,"station_id":"ce4bgkh2rcd13ifvqbl0","pricing_plan_id":"cebpf4jnsgd1na2vs0mg"},{"bike_id":"86df35e9-56c8-45d0-8acd-5ee44d83a4d6","system_id":"levelo_inurba_marseille","lat":43.298764,"lon":5.388973,"is_reserved":false,"is_disabled":false,"rental_uris":{"android":"levelo://app?vid=86df35e9-56c8-45d0-8acd-5ee44d83a4d6","ios":"levelo://app?vid=86df35e9-56c8-45d0-8acd-5ee44d83a4d6"},"vehicle_type_id":"4","last_reported":1713546427,"current_range_meters":28000,"station_id":"ce4bh392rcd13ifvqdl0","pricing_plan_id":"cebpf4jnsgd1na2vs0mg"},{"bike_id":"755c7207-d129-4541-af30-05f1bac0fe42","system_id":"levelo_inurba_marseille","lat":43.298764,"lon":5.388973,"is_reserved":false,"is_disabled":false,"rental_uris":{"android":"levelo://app?vid=755c7207-d129-4541-af30-05f1bac0fe42","ios":"levelo://app?vid=755c7207-d129-4541-af30-05f1bac0fe42"},"vehicle_type_id":"4","last_reported":1713546427,"current_range_meters":5200,"station_id":"ce4bh392rcd13ifvqdl0","pricing_plan_id":"cebpf4jnsgd1na2vs0mg"},{"bike_id":"ccc74f5d-3f64-4817-be17-169c2cd01f5f","system_id":"levelo_inurba_marseille","lat":43.298764,"lon":5.388973,"is_reserved":false,"is_disabled":false,"rental_uris":{"android":"levelo://app?vid=ccc74f5d-3f64-4817-be17-169c2cd01f5f","ios":"levelo://app?vid=ccc74f5d-3f64-4817-be17-169c2cd01f5f"},"vehicle_type_id":"4","last_reported":1713546427,"current_range_meters":9600,"station_id":"ce4bh392rcd13ifvqdl0","pricing_plan_id":"cebpf4jnsgd1na2vs0mg"},{"bike_id":"3c9dafc4-daec-4e87-8f93-90e383db242c","system_id":"levelo_inurba_marseille","lat":43.291671,"lon":5.371575,"is_reserved":false,"is_disabled":false,"rental_uris":{"android":"levelo://app?vid=3c9dafc4-daec-4e87-8f93-90e383db242c","ios":"levelo://app?vid=3c9dafc4-daec-4e87-8f93-90e383db242c"},"vehicle_type_id":"4","last_reported":1713546427,"current_range_meters":800,"station_id":"ce4bha92rcd13ifvqeh0","pricing_plan_id":"cebpf4jnsgd1na2vs0mg"},{"bike_id":"ea41cfe7-530a-486a-acc1-548bcd4db49b","system_id":"levelo_inurba_marseille","lat":43.292005,"lon":5.357875,"is_reserved":false,"is_disabled":false,"rental_uris":{"android":"levelo://app?vid=ea41cfe7-530a-486a-acc1-548bcd4db49b","ios":"levelo://app?vid=ea41cfe7-530a-486a-acc1-548bcd4db49b"},"vehicle_type_id":"4","last_reported":1713546427,"current_range_meters":9200,"station_id":"ce4bhb12rcd13ifvqel0","pricing_plan_id":"cebpf4jnsgd1na2vs0mg"},{"bike_id":"9e1da337-143c-46c6-b55f-204e19fb3dab","system_id":"levelo_inurba_marseille","lat":43.291994,"lon":5.357886,"is_reserved":false,"is_disabled":false,"rental_uris":{"android":"levelo://app?vid=9e1da337-143c-46c6-b55f-204e19fb3dab","ios":"levelo://app?vid=9e1da337-143c-46c6-b55f-204e19fb3dab"},"vehicle_type_id":"4","last_reported":1713546427,"current_range_meters":0,"station_id":"ce4bhb12rcd13ifvqel0","pricing_plan_id":"cebpf4jnsgd1na2vs0mg"},{"bike_id":"6141367f-d4a8-4222-aebf-04ee1bf3efc4","system_id":"levelo_inurba_marseille","lat":43.291994,"lon":5.357886,"is_reserved":false,"is_disabled":false,"rental_uris":{"android":"levelo://app?vid=6141367f-d4a8-4222-aebf-04ee1bf3efc4","ios":"levelo://app?vid=6141367f-d4a8-4222-aebf-04ee1bf3efc4"},"vehicle_type_id":"4","last_reported":1713546427,"current_range_meters":4000,"station_id":"ce4bhb12rcd13ifvqel0","pricing_plan_id":"cebpf4jnsgd1na2vs0mg"},{"bike_id":"1ef462cd-e4c3-487c-8b52-e767c4230bdb","system_id":"levelo_inurba_marseille","lat":43.292005,"lon":5.357875,"is_reserved":false,"is_disabled":false,"rental_uris":{"android":"levelo://app?vid=1ef462cd-e4c3-487c-8b52-e767c4230bdb","ios":"levelo://app?vid=1ef462cd-e4c3-487c-8b52-e767c4230bdb"},"vehicle_type_id":"4","last_reported":1713546427,"current_range_meters":9200,"station_id":"ce4bhb12rcd13ifvqel0","pricing_plan_id":"cebpf4jnsgd1na2vs0mg"},{"bike_id":"5f85a3a7-f2a1-4eda-9d1f-71baae64ef04","system_id":"levelo_inurba_marseille","lat":43.291994,"lon":5.357886,"is_reserved":false,"is_disabled":false,"rental_uris":{"android":"levelo://app?vid=5f85a3a7-f2a1-4eda-9d1f-71baae64ef04","ios":"levelo://app?vid=5f85a3a7-f2a1-4eda-9d1f-71baae64ef04"},"vehicle_type_id":"4","last_reported":1713546427,"current_range_meters":19600,"station_id":"ce4bhb12rcd13ifvqel0","pricing_plan_id":"cebpf4jnsgd1na2vs0mg"},{"bike_id":"c76bbdf3-6740-4c27-a5ed-e4d826d05d83","system_id":"levelo_inurba_marseille","lat":43.31329,"lon":5.3969,"is_reserved":false,"is_disabled":false,"rental_uris":{"android":"levelo://app?vid=c76bbdf3-6740-4c27-a5ed-e4d826d05d83","ios":"levelo://app?vid=c76bbdf3-6740-4c27-a5ed-e4d826d05d83"},"vehicle_type_id":"4","last_reported":1713546427,"current_range_meters":0,"station_id":"ce4bgvp2rcd13ifvqcu0","pricing_plan_id":"cebpf4jnsgd1na2vs0mg"},{"bike_id":"3ba06c92-dbac-4f72-96ec-66589620d5e0","system_id":"levelo_inurba_marseille","lat":43.31331,"lon":5.39692,"is_reserved":false,"is_disabled":false,"rental_uris":{"android":"levelo://app?vid=3ba06c92-dbac-4f72-96ec-66589620d5e0","ios":"levelo://app?vid=3ba06c92-dbac-4f72-96ec-66589620d5e0"},"vehicle_type_id":"4","last_reported":1713546427,"current_range_meters":400,"station_id":"ce4bgvp2rcd13ifvqcu0","pricing_plan_id":"cebpf4jnsgd1na2vs0mg"},{"bike_id":"5a3b4be6-8391-4061-81e6-b23f7623f21c","system_id":"levelo_inurba_marseille","lat":43.291994,"lon":5.357886,"is_reserved":false,"is_disabled":false,"rental_uris":{"android":"levelo://app?vid=5a3b4be6-8391-4061-81e6-b23f7623f21c","ios":"levelo://app?vid=5a3b4be6-8391-4061-81e6-b23f7623f21c"},"vehicle_type_id":"4","last_reported":1713546427,"current_range_meters":19600,"station_id":"ce4bhb12rcd13ifvqel0","pricing_plan_id":"cebpf4jnsgd1na2vs0mg"},{"bike_id":"ffc83026-7b35-496b-b555-dab2be34d277","system_id":"levelo_inurba_marseille","lat":43.31328,"lon":5.39698,"is_reserved":false,"is_disabled":false,"rental_uris":{"android":"levelo://app?vid=ffc83026-7b35-496b-b555-dab2be34d277","ios":"levelo://app?vid=ffc83026-7b35-496b-b555-dab2be34d277"},"vehicle_type_id":"4","last_reported":1713546427,"current_range_meters":0,"station_id":"ce4bgvp2rcd13ifvqcu0","pricing_plan_id":"cebpf4jnsgd1na2vs0mg"},{"bike_id":"c8c262b1-28e7-4a03-a3f7-65c0e5740c2d","system_id":"levelo_inurba_marseille","lat":43.31332,"lon":5.39699,"is_reserved":false,"is_disabled":false,"rental_uris":{"android":"levelo://app?vid=c8c262b1-28e7-4a03-a3f7-65c0e5740c2d","ios":"levelo://app?vid=c8c262b1-28e7-4a03-a3f7-65c0e5740c2d"},"vehicle_type_id":"4","last_reported":1713546427,"current_range_meters":13600,"station_id":"ce4bgvp2rcd13ifvqcu0","pricing_plan_id":"cebpf4jnsgd1na2vs0mg"},{"bike_id":"f657b2c8-7427-48b2-abaa-0d13b5c70c29","system_id":"levelo_inurba_marseille","lat":43.29529,"lon":5.385581,"is_reserved":false,"is_disabled":false,"rental_uris":{"android":"levelo://app?vid=f657b2c8-7427-48b2-abaa-0d13b5c70c29","ios":"levelo://app?vid=f657b2c8-7427-48b2-abaa-0d13b5c70c29"},"vehicle_type_id":"4","last_reported":1713546427,"current_range_meters":0,"station_id":"ce4bgih2rcd13ifvqba0","pricing_plan_id":"cebpf4jnsgd1na2vs0mg"},{"bike_id":"45ae0d51-c475-4ff3-a9de-bd04e861c2dd","system_id":"levelo_inurba_marseille","lat":43.309038,"lon":5.396546,"is_reserved":false,"is_disabled":false,"rental_uris":{"android":"levelo://app?vid=45ae0d51-c475-4ff3-a9de-bd04e861c2dd","ios":"levelo://app?vid=45ae0d51-c475-4ff3-a9de-bd04e861c2dd"},"vehicle_type_id":"4","last_reported":1713546427,"current_range_meters":15600,"station_id":"ce4bh012rcd13ifvqcv0","pricing_plan_id":"cebpf4jnsgd1na2vs0mg"},{"bike_id":"ce55e034-c9f4-4406-bc55-effa9e31a007","system_id":"levelo_inurba_marseille","lat":43.29529,"lon":5.385581,"is_reserved":false,"is_disabled":false,"rental_uris":{"android":"levelo://app?vid=ce55e034-c9f4-4406-bc55-effa9e31a007","ios":"levelo://app?vid=ce55e034-c9f4-4406-bc55-effa9e31a007"},"vehicle_type_id":"4","last_reported":1713546427,"current_range_meters":2000,"station_id":"ce4bgih2rcd13ifvqba0","pricing_plan_id":"cebpf4jnsgd1na2vs0mg"},{"bike_id":"307d9f1c-1f74-497e-a7ae-c771984fc732","system_id":"levelo_inurba_marseille","lat":43.295355,"lon":5.385375,"is_reserved":false,"is_disabled":false,"rental_uris":{"android":"levelo://app?vid=307d9f1c-1f74-497e-a7ae-c771984fc732","ios":"levelo://app?vid=307d9f1c-1f74-497e-a7ae-c771984fc732"},"vehicle_type_id":"4","last_reported":1713546427,"current_range_meters":0,"station_id":"","pricing_plan_id":"cebpf4jnsgd1na2vs0mg"},{"bike_id":"e8b49f65-68f2-4b3e-80ab-b38118a3d679","system_id":"levelo_inurba_marseille","lat":43.29538,"lon":5.38545,"is_reserved":false,"is_disabled":false,"rental_uris":{"android":"levelo://app?vid=e8b49f65-68f2-4b3e-80ab-b38118a3d679","ios":"levelo://app?vid=e8b49f65-68f2-4b3e-80ab-b38118a3d679"},"vehicle_type_id":"4","last_reported":1713546427,"current_range_meters":14400,"station_id":"ce4bgih2rcd13ifvqba0","pricing_plan_id":"cebpf4jnsgd1na2vs0mg"},{"bike_id":"000ce342-9c44-4040-8581-f098f40db77c","system_id":"levelo_inurba_marseille","lat":43.29529,"lon":5.385581,"is_reserved":false,"is_disabled":false,"rental_uris":{"android":"levelo://app?vid=000ce342-9c44-4040-8581-f098f40db77c","ios":"levelo://app?vid=000ce342-9c44-4040-8581-f098f40db77c"},"vehicle_type_id":"4","last_reported":1713546427,"current_range_meters":9200,"station_id":"ce4bgih2rcd13ifvqba0","pricing_plan_id":"cebpf4jnsgd1na2vs0mg"},{"bike_id":"0cd760fc-a750-4ec6-8947-36730810792d","system_id":"levelo_inurba_marseille","lat":43.29536,"lon":5.38547,"is_reserved":false,"is_disabled":false,"rental_uris":{"android":"levelo://app?vid=0cd760fc-a750-4ec6-8947-36730810792d","ios":"levelo://app?vid=0cd760fc-a750-4ec6-8947-36730810792d"},"vehicle_type_id":"4","last_reported":1713546427,"current_range_meters":0,"station_id":"ce4bgih2rcd13ifvqba0","pricing_plan_id":"cebpf4jnsgd1na2vs0mg"},{"bike_id":"8705f553-95b7-4759-ab8f-5adedb8cc9c0","system_id":"levelo_inurba_marseille","lat":43.29529,"lon":5.385581,"is_reserved":false,"is_disabled":false,"rental_uris":{"android":"levelo://app?vid=8705f553-95b7-4759-ab8f-5adedb8cc9c0","ios":"levelo://app?vid=8705f553-95b7-4759-ab8f-5adedb8cc9c0"},"vehicle_type_id":"4","last_reported":1713546427,"current_range_meters":10400,"station_id":"ce4bgih2rcd13ifvqba0","pricing_plan_id":"cebpf4jnsgd1na2vs0mg"},{"bike_id":"4accd940-3454-4a9c-9669-5fabafd9f6d0","system_id":"levelo_inurba_marseille","lat":43.29529,"lon":5.385581,"is_reserved":false,"is_disabled":false,"rental_uris":{"android":"levelo://app?vid=4accd940-3454-4a9c-9669-5fabafd9f6d0","ios":"levelo://app?vid=4accd940-3454-4a9c-9669-5fabafd9f6d0"},"vehicle_type_id":"4","last_reported":1713546427,"current_range_meters":3600,"station_id":"ce4bgih2rcd13ifvqba0","pricing_plan_id":"cebpf4jnsgd1na2vs0mg"},{"bike_id":"19a045b0-a58d-420e-980e-79aa373ce378","system_id":"levelo_inurba_marseille","lat":43.29529,"lon":5.385581,"is_reserved":false,"is_disabled":false,"rental_uris":{"android":"levelo://app?vid=19a045b0-a58d-420e-980e-79aa373ce378","ios":"levelo://app?vid=19a045b0-a58d-420e-980e-79aa373ce378"},"vehicle_type_id":"4","last_reported":1713546427,"current_range_meters":14000,"station_id":"ce4bgih2rcd13ifvqba0","pricing_plan_id":"cebpf4jnsgd1na2vs0mg"},{"bike_id":"6bd24c3c-efee-4409-b004-9ca3d61e085b","system_id":"levelo_inurba_marseille","lat":43.29529,"lon":5.385581,"is_reserved":false,"is_disabled":false,"rental_uris":{"android":"levelo://app?vid=6bd24c3c-efee-4409-b004-9ca3d61e085b","ios":"levelo://app?vid=6bd24c3c-efee-4409-b004-9ca3d61e085b"},"vehicle_type_id":"4","last_reported":1713546427,"current_range_meters":2800,"station_id":"ce4bgih2rcd13ifvqba0","pricing_plan_id":"cebpf4jnsgd1na2vs0mg"},{"bike_id":"478d0ff6-e662-4abf-ae85-9f2f0636e2c7","system_id":"levelo_inurba_marseille","lat":43.29529,"lon":5.385581,"is_reserved":false,"is_disabled":false,"rental_uris":{"android":"levelo://app?vid=478d0ff6-e662-4abf-ae85-9f2f0636e2c7","ios":"levelo://app?vid=478d0ff6-e662-4abf-ae85-9f2f0636e2c7"},"vehicle_type_id":"4","last_reported":1713546427,"current_range_meters":9600,"station_id":"ce4bgih2rcd13ifvqba0","pricing_plan_id":"cebpf4jnsgd1na2vs0mg"},{"bike_id":"b612372c-649b-44f2-a583-33b11d83fd74","system_id":"levelo_inurba_marseille","lat":43.29529,"lon":5.385581,"is_reserved":false,"is_disabled":false,"rental_uris":{"android":"levelo://app?vid=b612372c-649b-44f2-a583-33b11d83fd74","ios":"levelo://app?vid=b612372c-649b-44f2-a583-33b11d83fd74"},"vehicle_type_id":"4","last_reported":1713546427,"current_range_meters":16000,"station_id":"ce4bgih2rcd13ifvqba0","pricing_plan_id":"cebpf4jnsgd1na2vs0mg"},{"bike_id":"d76d079a-f3f2-4f48-9585-b612d947b5a4","system_id":"levelo_inurba_marseille","lat":43.302123,"lon":5.39469,"is_reserved":false,"is_disabled":false,"rental_uris":{"android":"levelo://app?vid=d76d079a-f3f2-4f48-9585-b612d947b5a4","ios":"levelo://app?vid=d76d079a-f3f2-4f48-9585-b612d947b5a4"},"vehicle_type_id":"4","last_reported":1713546427,"current_range_meters":0,"station_id":"ce4bh0p2rcd13ifvqd70","pricing_plan_id":"cebpf4jnsgd1na2vs0mg"},{"bike_id":"38082dac-15e0-436e-b32d-ad3da7ff2163","system_id":"levelo_inurba_marseille","lat":43.302008,"lon":5.394694,"is_reserved":false,"is_disabled":false,"rental_uris":{"android":"levelo://app?vid=38082dac-15e0-436e-b32d-ad3da7ff2163","ios":"levelo://app?vid=38082dac-15e0-436e-b32d-ad3da7ff2163"},"vehicle_type_id":"4","last_reported":1713546427,"current_range_meters":1200,"station_id":"ce4bh0p2rcd13ifvqd70","pricing_plan_id":"cebpf4jnsgd1na2vs0mg"},{"bike_id":"0e9a4158-2a57-4551-8627-d97f7a7e3aad","system_id":"levelo_inurba_marseille","lat":43.289184,"lon":5.366408,"is_reserved":false,"is_disabled":false,"rental_uris":{"android":"levelo://app?vid=0e9a4158-2a57-4551-8627-d97f7a7e3aad","ios":"levelo://app?vid=0e9a4158-2a57-4551-8627-d97f7a7e3aad"},"vehicle_type_id":"4","last_reported":1713546427,"current_range_meters":14400,"station_id":"ce4bhap2rcd13ifvqek0","pricing_plan_id":"cebpf4jnsgd1na2vs0mg"},{"bike_id":"21de2563-407a-4df5-ab1c-0b204deaa9d3","system_id":"levelo_inurba_marseille","lat":43.294301,"lon":5.386199,"is_reserved":false,"is_disabled":false,"rental_uris":{"android":"levelo://app?vid=21de2563-407a-4df5-ab1c-0b204deaa9d3","ios":"levelo://app?vid=21de2563-407a-4df5-ab1c-0b204deaa9d3"},"vehicle_type_id":"4","last_reported":1713546427,"current_range_meters":6000,"station_id":"ce4bh2h2rcd13ifvqdh0","pricing_plan_id":"cebpf4jnsgd1na2vs0mg"},{"bike_id":"69a4a413-aad9-4df4-b007-380e10d86870","system_id":"levelo_inurba_marseille","lat":43.29425,"lon":5.38611,"is_reserved":false,"is_disabled":false,"rental_uris":{"android":"levelo://app?vid=69a4a413-aad9-4df4-b007-380e10d86870","ios":"levelo://app?vid=69a4a413-aad9-4df4-b007-380e10d86870"},"vehicle_type_id":"4","last_reported":1713546427,"current_range_meters":6000,"station_id":"ce4bh2h2rcd13ifvqdh0","pricing_plan_id":"cebpf4jnsgd1na2vs0mg"},{"bike_id":"13ed2bcb-685d-40cd-8e72-56e484608cb8","system_id":"levelo_inurba_marseille","lat":43.29426,"lon":5.38614,"is_reserved":false,"is_disabled":false,"rental_uris":{"android":"levelo://app?vid=13ed2bcb-685d-40cd-8e72-56e484608cb8","ios":"levelo://app?vid=13ed2bcb-685d-40cd-8e72-56e484608cb8"},"vehicle_type_id":"4","last_reported":1713546427,"current_range_meters":25600,"station_id":"ce4bh2h2rcd13ifvqdh0","pricing_plan_id":"cebpf4jnsgd1na2vs0mg"},{"bike_id":"95ae7c49-4bd3-4ba9-9d16-82625ebf1978","system_id":"levelo_inurba_marseille","lat":43.290631,"lon":5.359244,"is_reserved":false,"is_disabled":false,"rental_uris":{"android":"levelo://app?vid=95ae7c49-4bd3-4ba9-9d16-82625ebf1978","ios":"levelo://app?vid=95ae7c49-4bd3-4ba9-9d16-82625ebf1978"},"vehicle_type_id":"4","last_reported":1713546427,"current_range_meters":22800,"station_id":"ce4bha92rcd13ifvqeg0","pricing_plan_id":"cebpf4jnsgd1na2vs0mg"},{"bike_id":"6a492c66-6802-47c0-a938-56a36bb3aea9","system_id":"levelo_inurba_marseille","lat":43.29424,"lon":5.38615,"is_reserved":false,"is_disabled":false,"rental_uris":{"android":"levelo://app?vid=6a492c66-6802-47c0-a938-56a36bb3aea9","ios":"levelo://app?vid=6a492c66-6802-47c0-a938-56a36bb3aea9"},"vehicle_type_id":"4","last_reported":1713546427,"current_range_meters":9600,"station_id":"ce4bh2h2rcd13ifvqdh0","pricing_plan_id":"cebpf4jnsgd1na2vs0mg"},{"bike_id":"ac4d8fd8-ecb8-4ff4-85b9-d30d9ec2adc7","system_id":"levelo_inurba_marseille","lat":43.29421,"lon":5.38611,"is_reserved":false,"is_disabled":false,"rental_uris":{"android":"levelo://app?vid=ac4d8fd8-ecb8-4ff4-85b9-d30d9ec2adc7","ios":"levelo://app?vid=ac4d8fd8-ecb8-4ff4-85b9-d30d9ec2adc7"},"vehicle_type_id":"4","last_reported":1713546427,"current_range_meters":20400,"station_id":"ce4bh2h2rcd13ifvqdh0","pricing_plan_id":"cebpf4jnsgd1na2vs0mg"},{"bike_id":"ba49b61d-f369-42db-bcdf-c10a4c3689cf","system_id":"levelo_inurba_marseille","lat":43.29424,"lon":5.38619,"is_reserved":false,"is_disabled":false,"rental_uris":{"android":"levelo://app?vid=ba49b61d-f369-42db-bcdf-c10a4c3689cf","ios":"levelo://app?vid=ba49b61d-f369-42db-bcdf-c10a4c3689cf"},"vehicle_type_id":"4","last_reported":1713546427,"current_range_meters":26400,"station_id":"ce4bh2h2rcd13ifvqdh0","pricing_plan_id":"cebpf4jnsgd1na2vs0mg"},{"bike_id":"656828fa-b15d-4c23-8b65-c2b21a808449","system_id":"levelo_inurba_marseille","lat":43.29424,"lon":5.38622,"is_reserved":false,"is_disabled":false,"rental_uris":{"android":"levelo://app?vid=656828fa-b15d-4c23-8b65-c2b21a808449","ios":"levelo://app?vid=656828fa-b15d-4c23-8b65-c2b21a808449"},"vehicle_type_id":"4","last_reported":1713546427,"current_range_meters":8000,"station_id":"ce4bh2h2rcd13ifvqdh0","pricing_plan_id":"cebpf4jnsgd1na2vs0mg"},{"bike_id":"83e9c6f2-7013-46d7-b247-69d5fb96172c","system_id":"levelo_inurba_marseille","lat":43.29422,"lon":5.38619,"is_reserved":false,"is_disabled":false,"rental_uris":{"android":"levelo://app?vid=83e9c6f2-7013-46d7-b247-69d5fb96172c","ios":"levelo://app?vid=83e9c6f2-7013-46d7-b247-69d5fb96172c"},"vehicle_type_id":"4","last_reported":1713546427,"current_range_meters":9600,"station_id":"ce4bh2h2rcd13ifvqdh0","pricing_plan_id":"cebpf4jnsgd1na2vs0mg"},{"bike_id":"7e628a6b-105e-440f-af65-261b4077baf9","system_id":"levelo_inurba_marseille","lat":43.294245,"lon":5.386237,"is_reserved":false,"is_disabled":false,"rental_uris":{"android":"levelo://app?vid=7e628a6b-105e-440f-af65-261b4077baf9","ios":"levelo://app?vid=7e628a6b-105e-440f-af65-261b4077baf9"},"vehicle_type_id":"4","last_reported":1713546427,"current_range_meters":29200,"station_id":"ce4bh2h2rcd13ifvqdh0","pricing_plan_id":"cebpf4jnsgd1na2vs0mg"},{"bike_id":"720251b4-6693-4974-a3f1-e45f713aff06","system_id":"levelo_inurba_marseille","lat":43.29425,"lon":5.38626,"is_reserved":false,"is_disabled":false,"rental_uris":{"android":"levelo://app?vid=720251b4-6693-4974-a3f1-e45f713aff06","ios":"levelo://app?vid=720251b4-6693-4974-a3f1-e45f713aff06"},"vehicle_type_id":"4","last_reported":1713546427,"current_range_meters":4400,"station_id":"ce4bh2h2rcd13ifvqdh0","pricing_plan_id":"cebpf4jnsgd1na2vs0mg"},{"bike_id":"69c60cf4-a295-4352-afdb-87de819db95f","system_id":"levelo_inurba_marseille","lat":43.29422,"lon":5.38622,"is_reserved":false,"is_disabled":false,"rental_uris":{"android":"levelo://app?vid=69c60cf4-a295-4352-afdb-87de819db95f","ios":"levelo://app?vid=69c60cf4-a295-4352-afdb-87de819db95f"},"vehicle_type_id":"4","last_reported":1713546427,"current_range_meters":14800,"station_id":"ce4bh2h2rcd13ifvqdh0","pricing_plan_id":"cebpf4jnsgd1na2vs0mg"},{"bike_id":"3ea76b96-c4e5-46e1-b872-1b5baf2b9d81","system_id":"levelo_inurba_marseille","lat":43.294073,"lon":5.385956,"is_reserved":false,"is_disabled":false,"rental_uris":{"android":"levelo://app?vid=3ea76b96-c4e5-46e1-b872-1b5baf2b9d81","ios":"levelo://app?vid=3ea76b96-c4e5-46e1-b872-1b5baf2b9d81"},"vehicle_type_id":"4","last_reported":1713546427,"current_range_meters":2000,"station_id":"ce4bh2h2rcd13ifvqdh0","pricing_plan_id":"cebpf4jnsgd1na2vs0mg"},{"bike_id":"84052364-5722-4c2f-b1f8-3d7d479f19f2","system_id":"levelo_inurba_marseille","lat":43.29422,"lon":5.38624,"is_reserved":false,"is_disabled":false,"rental_uris":{"android":"levelo://app?vid=84052364-5722-4c2f-b1f8-3d7d479f19f2","ios":"levelo://app?vid=84052364-5722-4c2f-b1f8-3d7d479f19f2"},"vehicle_type_id":"4","last_reported":1713546427,"current_range_meters":2800,"station_id":"ce4bh2h2rcd13ifvqdh0","pricing_plan_id":"cebpf4jnsgd1na2vs0mg"},{"bike_id":"b02d5805-7fdf-4fb0-8965-7452ba7623d9","system_id":"levelo_inurba_marseille","lat":43.29419,"lon":5.38619,"is_reserved":false,"is_disabled":false,"rental_uris":{"android":"levelo://app?vid=b02d5805-7fdf-4fb0-8965-7452ba7623d9","ios":"levelo://app?vid=b02d5805-7fdf-4fb0-8965-7452ba7623d9"},"vehicle_type_id":"4","last_reported":1713546427,"current_range_meters":3200,"station_id":"ce4bh2h2rcd13ifvqdh0","pricing_plan_id":"cebpf4jnsgd1na2vs0mg"},{"bike_id":"5742be2f-e347-4d70-ae21-40f5cfa4cddf","system_id":"levelo_inurba_marseille","lat":43.29421,"lon":5.38624,"is_reserved":false,"is_disabled":false,"rental_uris":{"android":"levelo://app?vid=5742be2f-e347-4d70-ae21-40f5cfa4cddf","ios":"levelo://app?vid=5742be2f-e347-4d70-ae21-40f5cfa4cddf"},"vehicle_type_id":"4","last_reported":1713546427,"current_range_meters":0,"station_id":"ce4bh2h2rcd13ifvqdh0","pricing_plan_id":"cebpf4jnsgd1na2vs0mg"},{"bike_id":"d77d5585-2550-4658-a994-4898cf5f9c17","system_id":"levelo_inurba_marseille","lat":43.29419,"lon":5.38621,"is_reserved":false,"is_disabled":false,"rental_uris":{"android":"levelo://app?vid=d77d5585-2550-4658-a994-4898cf5f9c17","ios":"levelo://app?vid=d77d5585-2550-4658-a994-4898cf5f9c17"},"vehicle_type_id":"4","last_reported":1713546427,"current_range_meters":13600,"station_id":"ce4bh2h2rcd13ifvqdh0","pricing_plan_id":"cebpf4jnsgd1na2vs0mg"},{"bike_id":"f59d9b1a-3639-49c5-b51e-df58bc300c21","system_id":"levelo_inurba_marseille","lat":43.29419,"lon":5.38621,"is_reserved":false,"is_disabled":false,"rental_uris":{"android":"levelo://app?vid=f59d9b1a-3639-49c5-b51e-df58bc300c21","ios":"levelo://app?vid=f59d9b1a-3639-49c5-b51e-df58bc300c21"},"vehicle_type_id":"4","last_reported":1713546427,"current_range_meters":4800,"station_id":"ce4bh2h2rcd13ifvqdh0","pricing_plan_id":"cebpf4jnsgd1na2vs0mg"},{"bike_id":"2e7c2209-e51f-4d8f-921a-274ae49a7b1b","system_id":"levelo_inurba_marseille","lat":43.29418,"lon":5.38621,"is_reserved":false,"is_disabled":false,"rental_uris":{"android":"levelo://app?vid=2e7c2209-e51f-4d8f-921a-274ae49a7b1b","ios":"levelo://app?vid=2e7c2209-e51f-4d8f-921a-274ae49a7b1b"},"vehicle_type_id":"4","last_reported":1713546427,"current_range_meters":2800,"station_id":"ce4bh2h2rcd13ifvqdh0","pricing_plan_id":"cebpf4jnsgd1na2vs0mg"},{"bike_id":"61480f51-67e7-42ed-8ccb-8927715da270","system_id":"levelo_inurba_marseille","lat":43.2942,"lon":5.38627,"is_reserved":false,"is_disabled":false,"rental_uris":{"android":"levelo://app?vid=61480f51-67e7-42ed-8ccb-8927715da270","ios":"levelo://app?vid=61480f51-67e7-42ed-8ccb-8927715da270"},"vehicle_type_id":"4","last_reported":1713546427,"current_range_meters":18800,"station_id":"ce4bh2h2rcd13ifvqdh0","pricing_plan_id":"cebpf4jnsgd1na2vs0mg"},{"bike_id":"46670f5c-ae4a-45b1-b21a-05ac85a28f7e","system_id":"levelo_inurba_marseille","lat":43.29417,"lon":5.38628,"is_reserved":false,"is_disabled":false,"rental_uris":{"android":"levelo://app?vid=46670f5c-ae4a-45b1-b21a-05ac85a28f7e","ios":"levelo://app?vid=46670f5c-ae4a-45b1-b21a-05ac85a28f7e"},"vehicle_type_id":"4","last_reported":1713546427,"current_range_meters":6800,"station_id":"ce4bh2h2rcd13ifvqdh0","pricing_plan_id":"cebpf4jnsgd1na2vs0mg"},{"bike_id":"9a1ff11a-463c-4293-b820-7d2b69023f76","system_id":"levelo_inurba_marseille","lat":43.289184,"lon":5.366408,"is_reserved":false,"is_disabled":false,"rental_uris":{"android":"levelo://app?vid=9a1ff11a-463c-4293-b820-7d2b69023f76","ios":"levelo://app?vid=9a1ff11a-463c-4293-b820-7d2b69023f76"},"vehicle_type_id":"4","last_reported":1713546427,"current_range_meters":2400,"station_id":"ce4bhap2rcd13ifvqek0","pricing_plan_id":"cebpf4jnsgd1na2vs0mg"},{"bike_id":"244f3303-5188-4e6f-8df5-24c2ca7565b2","system_id":"levelo_inurba_marseille","lat":43.289468,"lon":5.363719,"is_reserved":false,"is_disabled":false,"rental_uris":{"android":"levelo://app?vid=244f3303-5188-4e6f-8df5-24c2ca7565b2","ios":"levelo://app?vid=244f3303-5188-4e6f-8df5-24c2ca7565b2"},"vehicle_type_id":"4","last_reported":1713546427,"current_range_meters":0,"station_id":"ce4bhc92rcd13ifvqetg","pricing_plan_id":"cebpf4jnsgd1na2vs0mg"},{"bike_id":"f6228829-2ae2-4ac7-aa86-8ac7caaa69b2","system_id":"levelo_inurba_marseille","lat":43.289468,"lon":5.363719,"is_reserved":false,"is_disabled":false,"rental_uris":{"android":"levelo://app?vid=f6228829-2ae2-4ac7-aa86-8ac7caaa69b2","ios":"levelo://app?vid=f6228829-2ae2-4ac7-aa86-8ac7caaa69b2"},"vehicle_type_id":"4","last_reported":1713546427,"current_range_meters":14000,"station_id":"ce4bhc92rcd13ifvqetg","pricing_plan_id":"cebpf4jnsgd1na2vs0mg"},{"bike_id":"57dbc058-40b3-40b2-840c-a0de945adc33","system_id":"levelo_inurba_marseille","lat":43.28942,"lon":5.36397,"is_reserved":false,"is_disabled":false,"rental_uris":{"android":"levelo://app?vid=57dbc058-40b3-40b2-840c-a0de945adc33","ios":"levelo://app?vid=57dbc058-40b3-40b2-840c-a0de945adc33"},"vehicle_type_id":"4","last_reported":1713546427,"current_range_meters":0,"station_id":"ce4bhc92rcd13ifvqetg","pricing_plan_id":"cebpf4jnsgd1na2vs0mg"},{"bike_id":"00d82b15-8028-4321-b733-0b0228e5dfff","system_id":"levelo_inurba_marseille","lat":43.28932,"lon":5.36648,"is_reserved":false,"is_disabled":false,"rental_uris":{"android":"levelo://app?vid=00d82b15-8028-4321-b733-0b0228e5dfff","ios":"levelo://app?vid=00d82b15-8028-4321-b733-0b0228e5dfff"},"vehicle_type_id":"4","last_reported":1713546427,"current_range_meters":16400,"station_id":"ce4bhap2rcd13ifvqek0","pricing_plan_id":"cebpf4jnsgd1na2vs0mg"},{"bike_id":"00553bbf-17e2-44f3-a972-cd9026d76e94","system_id":"levelo_inurba_marseille","lat":43.289184,"lon":5.366408,"is_reserved":false,"is_disabled":false,"rental_uris":{"android":"levelo://app?vid=00553bbf-17e2-44f3-a972-cd9026d76e94","ios":"levelo://app?vid=00553bbf-17e2-44f3-a972-cd9026d76e94"},"vehicle_type_id":"4","last_reported":1713546427,"current_range_meters":14000,"station_id":"ce4bhap2rcd13ifvqek0","pricing_plan_id":"cebpf4jnsgd1na2vs0mg"},{"bike_id":"f390ccb1-adda-4c9e-ad4d-c4831ec305f1","system_id":"levelo_inurba_marseille","lat":43.292644,"lon":5.384257,"is_reserved":false,"is_disabled":false,"rental_uris":{"android":"levelo://app?vid=f390ccb1-adda-4c9e-ad4d-c4831ec305f1","ios":"levelo://app?vid=f390ccb1-adda-4c9e-ad4d-c4831ec305f1"},"vehicle_type_id":"4","last_reported":1713546427,"current_range_meters":6400,"station_id":"ce4bh692rcd13ifvqea0","pricing_plan_id":"cebpf4jnsgd1na2vs0mg"},{"bike_id":"39736c65-9d40-4d59-b828-67057617ea52","system_id":"levelo_inurba_marseille","lat":43.29279,"lon":5.384309,"is_reserved":false,"is_disabled":false,"rental_uris":{"android":"levelo://app?vid=39736c65-9d40-4d59-b828-67057617ea52","ios":"levelo://app?vid=39736c65-9d40-4d59-b828-67057617ea52"},"vehicle_type_id":"4","last_reported":1713546427,"current_range_meters":15600,"station_id":"ce4bh692rcd13ifvqea0","pricing_plan_id":"cebpf4jnsgd1na2vs0mg"},{"bike_id":"b3705acd-51cb-4187-889a-63e84d6e9b37","system_id":"levelo_inurba_marseille","lat":43.29276,"lon":5.38427,"is_reserved":false,"is_disabled":false,"rental_uris":{"android":"levelo://app?vid=b3705acd-51cb-4187-889a-63e84d6e9b37","ios":"levelo://app?vid=b3705acd-51cb-4187-889a-63e84d6e9b37"},"vehicle_type_id":"4","last_reported":1713546427,"current_range_meters":24800,"station_id":"ce4bh692rcd13ifvqea0","pricing_plan_id":"cebpf4jnsgd1na2vs0mg"},{"bike_id":"7d61cffb-6666-4cf6-b8c0-65c3d6d67d39","system_id":"levelo_inurba_marseille","lat":43.281044,"lon":5.378308,"is_reserved":false,"is_disabled":false,"rental_uris":{"android":"levelo://app?vid=7d61cffb-6666-4cf6-b8c0-65c3d6d67d39","ios":"levelo://app?vid=7d61cffb-6666-4cf6-b8c0-65c3d6d67d39"},"vehicle_type_id":"4","last_reported":1713546427,"current_range_meters":14000,"station_id":"ce4bha12rcd13ifvqee0","pricing_plan_id":"cebpf4jnsgd1na2vs0mg"},{"bike_id":"fcf5d41d-cbdf-406e-b70b-876341dffa47","system_id":"levelo_inurba_marseille","lat":43.29273,"lon":5.38434,"is_reserved":false,"is_disabled":false,"rental_uris":{"android":"levelo://app?vid=fcf5d41d-cbdf-406e-b70b-876341dffa47","ios":"levelo://app?vid=fcf5d41d-cbdf-406e-b70b-876341dffa47"},"vehicle_type_id":"4","last_reported":1713546427,"current_range_meters":400,"station_id":"ce4bh692rcd13ifvqea0","pricing_plan_id":"cebpf4jnsgd1na2vs0mg"},{"bike_id":"6e87decd-7a70-427e-b638-73986097b284","system_id":"levelo_inurba_marseille","lat":43.29271,"lon":5.38434,"is_reserved":false,"is_disabled":false,"rental_uris":{"android":"levelo://app?vid=6e87decd-7a70-427e-b638-73986097b284","ios":"levelo://app?vid=6e87decd-7a70-427e-b638-73986097b284"},"vehicle_type_id":"4","last_reported":1713546427,"current_range_meters":5600,"station_id":"ce4bh692rcd13ifvqea0","pricing_plan_id":"cebpf4jnsgd1na2vs0mg"},{"bike_id":"54d3e35e-770c-4204-b8cb-1b72a7088bfd","system_id":"levelo_inurba_marseille","lat":43.29271,"lon":5.38437,"is_reserved":false,"is_disabled":false,"rental_uris":{"android":"levelo://app?vid=54d3e35e-770c-4204-b8cb-1b72a7088bfd","ios":"levelo://app?vid=54d3e35e-770c-4204-b8cb-1b72a7088bfd"},"vehicle_type_id":"4","last_reported":1713546427,"current_range_meters":6800,"station_id":"ce4bh692rcd13ifvqea0","pricing_plan_id":"cebpf4jnsgd1na2vs0mg"},{"bike_id":"16f3a46a-c312-4e26-8e27-8bce362beac1","system_id":"levelo_inurba_marseille","lat":43.292685,"lon":5.384375,"is_reserved":false,"is_disabled":false,"rental_uris":{"android":"levelo://app?vid=16f3a46a-c312-4e26-8e27-8bce362beac1","ios":"levelo://app?vid=16f3a46a-c312-4e26-8e27-8bce362beac1"},"vehicle_type_id":"4","last_reported":1713546427,"current_range_meters":18400,"station_id":"ce4bh692rcd13ifvqea0","pricing_plan_id":"cebpf4jnsgd1na2vs0mg"},{"bike_id":"224d76d4-ea66-46bf-9c65-3f9798bfacdb","system_id":"levelo_inurba_marseille","lat":43.292644,"lon":5.384257,"is_reserved":false,"is_disabled":false,"rental_uris":{"android":"levelo://app?vid=224d76d4-ea66-46bf-9c65-3f9798bfacdb","ios":"levelo://app?vid=224d76d4-ea66-46bf-9c65-3f9798bfacdb"},"vehicle_type_id":"4","last_reported":1713546427,"current_range_meters":4000,"station_id":"ce4bh692rcd13ifvqea0","pricing_plan_id":"cebpf4jnsgd1na2vs0mg"},{"bike_id":"bb28f617-d4ee-4aa0-a6e1-92307b3eb523","system_id":"levelo_inurba_marseille","lat":43.29268,"lon":5.38438,"is_reserved":false,"is_disabled":false,"rental_uris":{"android":"levelo://app?vid=bb28f617-d4ee-4aa0-a6e1-92307b3eb523","ios":"levelo://app?vid=bb28f617-d4ee-4aa0-a6e1-92307b3eb523"},"vehicle_type_id":"4","last_reported":1713546427,"current_range_meters":1600,"station_id":"ce4bh692rcd13ifvqea0","pricing_plan_id":"cebpf4jnsgd1na2vs0mg"},{"bike_id":"3ee826e8-25af-427f-8572-163e6dd68763","system_id":"levelo_inurba_marseille","lat":43.292644,"lon":5.384257,"is_reserved":false,"is_disabled":false,"rental_uris":{"android":"levelo://app?vid=3ee826e8-25af-427f-8572-163e6dd68763","ios":"levelo://app?vid=3ee826e8-25af-427f-8572-163e6dd68763"},"vehicle_type_id":"4","last_reported":1713546427,"current_range_meters":24800,"station_id":"ce4bh692rcd13ifvqea0","pricing_plan_id":"cebpf4jnsgd1na2vs0mg"},{"bike_id":"8e35ecb4-157a-457c-b653-bd7eb834998f","system_id":"levelo_inurba_marseille","lat":43.2927,"lon":5.38445,"is_reserved":false,"is_disabled":false,"rental_uris":{"android":"levelo://app?vid=8e35ecb4-157a-457c-b653-bd7eb834998f","ios":"levelo://app?vid=8e35ecb4-157a-457c-b653-bd7eb834998f"},"vehicle_type_id":"4","last_reported":1713546427,"current_range_meters":10800,"station_id":"ce4bh692rcd13ifvqea0","pricing_plan_id":"cebpf4jnsgd1na2vs0mg"},{"bike_id":"91d46cec-58e6-4ffb-b744-205f9c70e2ec","system_id":"levelo_inurba_marseille","lat":43.29265,"lon":5.38436,"is_reserved":false,"is_disabled":false,"rental_uris":{"android":"levelo://app?vid=91d46cec-58e6-4ffb-b744-205f9c70e2ec","ios":"levelo://app?vid=91d46cec-58e6-4ffb-b744-205f9c70e2ec"},"vehicle_type_id":"4","last_reported":1713546427,"current_range_meters":1200,"station_id":"ce4bh692rcd13ifvqea0","pricing_plan_id":"cebpf4jnsgd1na2vs0mg"},{"bike_id":"ea7dfd01-8ed8-4a36-9bc2-3c748854a945","system_id":"levelo_inurba_marseille","lat":43.29266,"lon":5.3844,"is_reserved":false,"is_disabled":false,"rental_uris":{"android":"levelo://app?vid=ea7dfd01-8ed8-4a36-9bc2-3c748854a945","ios":"levelo://app?vid=ea7dfd01-8ed8-4a36-9bc2-3c748854a945"},"vehicle_type_id":"4","last_reported":1713546427,"current_range_meters":10800,"station_id":"ce4bh692rcd13ifvqea0","pricing_plan_id":"cebpf4jnsgd1na2vs0mg"},{"bike_id":"0903ed41-76dd-4dab-8e94-00d0ed5c14c4","system_id":"levelo_inurba_marseille","lat":43.292644,"lon":5.384257,"is_reserved":false,"is_disabled":false,"rental_uris":{"android":"levelo://app?vid=0903ed41-76dd-4dab-8e94-00d0ed5c14c4","ios":"levelo://app?vid=0903ed41-76dd-4dab-8e94-00d0ed5c14c4"},"vehicle_type_id":"4","last_reported":1713546427,"current_range_meters":19200,"station_id":"ce4bh692rcd13ifvqea0","pricing_plan_id":"cebpf4jnsgd1na2vs0mg"},{"bike_id":"22fcae69-f94e-4419-8bb8-adbe478e1812","system_id":"levelo_inurba_marseille","lat":43.29259,"lon":5.38438,"is_reserved":false,"is_disabled":false,"rental_uris":{"android":"levelo://app?vid=22fcae69-f94e-4419-8bb8-adbe478e1812","ios":"levelo://app?vid=22fcae69-f94e-4419-8bb8-adbe478e1812"},"vehicle_type_id":"4","last_reported":1713546427,"current_range_meters":0,"station_id":"ce4bh692rcd13ifvqea0","pricing_plan_id":"cebpf4jnsgd1na2vs0mg"},{"bike_id":"ca5bddce-689c-4183-8241-776f1d0318ef","system_id":"levelo_inurba_marseille","lat":43.292644,"lon":5.384257,"is_reserved":false,"is_disabled":false,"rental_uris":{"android":"levelo://app?vid=ca5bddce-689c-4183-8241-776f1d0318ef","ios":"levelo://app?vid=ca5bddce-689c-4183-8241-776f1d0318ef"},"vehicle_type_id":"4","last_reported":1713546427,"current_range_meters":20800,"station_id":"ce4bh692rcd13ifvqea0","pricing_plan_id":"cebpf4jnsgd1na2vs0mg"},{"bike_id":"b974344a-360b-426e-a813-230566d7bf81","system_id":"levelo_inurba_marseille","lat":43.290104,"lon":5.356111,"is_reserved":false,"is_disabled":false,"rental_uris":{"android":"levelo://app?vid=b974344a-360b-426e-a813-230566d7bf81","ios":"levelo://app?vid=b974344a-360b-426e-a813-230566d7bf81"},"vehicle_type_id":"4","last_reported":1713546427,"current_range_meters":15600,"station_id":"ce4bhb92rcd13ifvqen0","pricing_plan_id":"cebpf4jnsgd1na2vs0mg"},{"bike_id":"a443e495-58da-4e6b-8b08-c3324aa14e2e","system_id":"levelo_inurba_marseille","lat":43.290104,"lon":5.356111,"is_reserved":false,"is_disabled":false,"rental_uris":{"android":"levelo://app?vid=a443e495-58da-4e6b-8b08-c3324aa14e2e","ios":"levelo://app?vid=a443e495-58da-4e6b-8b08-c3324aa14e2e"},"vehicle_type_id":"4","last_reported":1713546427,"current_range_meters":28000,"station_id":"ce4bhb92rcd13ifvqen0","pricing_plan_id":"cebpf4jnsgd1na2vs0mg"},{"bike_id":"900b2be6-df32-4d19-9e3b-7b60a5d385cc","system_id":"levelo_inurba_marseille","lat":43.290104,"lon":5.356111,"is_reserved":false,"is_disabled":false,"rental_uris":{"android":"levelo://app?vid=900b2be6-df32-4d19-9e3b-7b60a5d385cc","ios":"levelo://app?vid=900b2be6-df32-4d19-9e3b-7b60a5d385cc"},"vehicle_type_id":"4","last_reported":1713546427,"current_range_meters":12800,"station_id":"ce4bhb92rcd13ifvqen0","pricing_plan_id":"cebpf4jnsgd1na2vs0mg"},{"bike_id":"d94abfbb-d5ae-463e-b843-a0fb15cf8df1","system_id":"levelo_inurba_marseille","lat":43.290103,"lon":5.356114,"is_reserved":false,"is_disabled":false,"rental_uris":{"android":"levelo://app?vid=d94abfbb-d5ae-463e-b843-a0fb15cf8df1","ios":"levelo://app?vid=d94abfbb-d5ae-463e-b843-a0fb15cf8df1"},"vehicle_type_id":"4","last_reported":1713546427,"current_range_meters":7600,"station_id":"ce4bhb92rcd13ifvqen0","pricing_plan_id":"cebpf4jnsgd1na2vs0mg"},{"bike_id":"1ae7edf6-d225-4708-8165-47a025004948","system_id":"levelo_inurba_marseille","lat":43.29009,"lon":5.35609,"is_reserved":false,"is_disabled":false,"rental_uris":{"android":"levelo://app?vid=1ae7edf6-d225-4708-8165-47a025004948","ios":"levelo://app?vid=1ae7edf6-d225-4708-8165-47a025004948"},"vehicle_type_id":"4","last_reported":1713546427,"current_range_meters":10400,"station_id":"ce4bhb92rcd13ifvqen0","pricing_plan_id":"cebpf4jnsgd1na2vs0mg"},{"bike_id":"f8ca59d4-c8e7-4d0b-8b56-ea30ef943617","system_id":"levelo_inurba_marseille","lat":43.29008,"lon":5.35611,"is_reserved":false,"is_disabled":false,"rental_uris":{"android":"levelo://app?vid=f8ca59d4-c8e7-4d0b-8b56-ea30ef943617","ios":"levelo://app?vid=f8ca59d4-c8e7-4d0b-8b56-ea30ef943617"},"vehicle_type_id":"4","last_reported":1713546427,"current_range_meters":0,"station_id":"ce4bhb92rcd13ifvqen0","pricing_plan_id":"cebpf4jnsgd1na2vs0mg"},{"bike_id":"d5de37a3-76bc-46da-b159-fe394a06f8a4","system_id":"levelo_inurba_marseille","lat":43.290104,"lon":5.356111,"is_reserved":false,"is_disabled":false,"rental_uris":{"android":"levelo://app?vid=d5de37a3-76bc-46da-b159-fe394a06f8a4","ios":"levelo://app?vid=d5de37a3-76bc-46da-b159-fe394a06f8a4"},"vehicle_type_id":"4","last_reported":1713546427,"current_range_meters":6400,"station_id":"ce4bhb92rcd13ifvqen0","pricing_plan_id":"cebpf4jnsgd1na2vs0mg"},{"bike_id":"86d4fcd2-2bcc-4411-8f79-e61384ebd362","system_id":"levelo_inurba_marseille","lat":43.290104,"lon":5.356111,"is_reserved":false,"is_disabled":false,"rental_uris":{"android":"levelo://app?vid=86d4fcd2-2bcc-4411-8f79-e61384ebd362","ios":"levelo://app?vid=86d4fcd2-2bcc-4411-8f79-e61384ebd362"},"vehicle_type_id":"4","last_reported":1713546427,"current_range_meters":800,"station_id":"ce4bhb92rcd13ifvqen0","pricing_plan_id":"cebpf4jnsgd1na2vs0mg"},{"bike_id":"cd74ade1-4c1a-451b-825d-3812c5fb1169","system_id":"levelo_inurba_marseille","lat":43.290995,"lon":5.381361,"is_reserved":false,"is_disabled":false,"rental_uris":{"android":"levelo://app?vid=cd74ade1-4c1a-451b-825d-3812c5fb1169","ios":"levelo://app?vid=cd74ade1-4c1a-451b-825d-3812c5fb1169"},"vehicle_type_id":"4","last_reported":1713546427,"current_range_meters":12800,"station_id":"ce4bh512rcd13ifvqe2g","pricing_plan_id":"cebpf4jnsgd1na2vs0mg"},{"bike_id":"a388f23c-bbca-4020-98a9-5ba81f79758b","system_id":"levelo_inurba_marseille","lat":43.29102,"lon":5.38122,"is_reserved":false,"is_disabled":false,"rental_uris":{"android":"levelo://app?vid=a388f23c-bbca-4020-98a9-5ba81f79758b","ios":"levelo://app?vid=a388f23c-bbca-4020-98a9-5ba81f79758b"},"vehicle_type_id":"4","last_reported":1713546427,"current_range_meters":0,"station_id":"ce4bh512rcd13ifvqe2g","pricing_plan_id":"cebpf4jnsgd1na2vs0mg"},{"bike_id":"420183fc-48ad-4265-b669-8918fb2d8427","system_id":"levelo_inurba_marseille","lat":43.290995,"lon":5.381361,"is_reserved":false,"is_disabled":false,"rental_uris":{"android":"levelo://app?vid=420183fc-48ad-4265-b669-8918fb2d8427","ios":"levelo://app?vid=420183fc-48ad-4265-b669-8918fb2d8427"},