{"last_updated":1753290804,"ttl":60,"version":"2.2","data":{"bikes":[{"bike_id":"88b141b5-99f1-4d14-acc3-693630e7a165","system_id":"levelo_inurba_marseille","lat":43.28857,"lon":5.39308,"is_reserved":false,"is_disabled":false,"rental_uris":{"android":"levelo://app?vid=88b141b5-99f1-4d14-acc3-693630e7a165","ios":"levelo://app?vid=88b141b5-99f1-4d14-acc3-693630e7a165"},"vehicle_type_id":"4","last_reported":1753290804,"current_range_meters":2000,"station_id":"ce4bh2p2rcd13ifvqdi0","pricing_plan_id":"cebpf4jnsgd1na2vs0mg"},{"bike_id":"42413a25-16d1-4419-b44a-45580e0c6ac6","system_id":"levelo_inurba_marseille","lat":43.33775,"lon":5.37531,"is_reserved":false,"is_disabled":false,"rental_uris":{"android":"levelo://app?vid=42413a25-16d1-4419-b44a-45580e0c6ac6","ios":"levelo://app?vid=42413a25-16d1-4419-b44a-45580e0c6ac6"},"vehicle_type_id":"4","last_reported":1753290804,"current_range_meters":2800,"station_id":"","pricing_plan_id":"cebpf4jnsgd1na2vs0mg"},{"bike_id":"d8ad38c0-65af-4159-a81b-12c3f50d5036","system_id":"levelo_inurba_marseille","lat":43.301685,"lon":5.375069,"is_reserved":false,"is_disabled":false,"rental_uris":{"android":"levelo://app?vid=d8ad38c0-65af-4159-a81b-12c3f50d5036","ios":"levelo://app?vid=d8ad38c0-65af-4159-a81b-12c3f50d5036"},"vehicle_type_id":"4","last_reported":1753290804,"current_range_meters":2800,"station_id":"ce4bguh2rcd13ifvqcj0","pricing_plan_id":"cebpf4jnsgd1na2vs0mg"},{"bike_id":"145b0605-73ee-4933-aceb-94a20d36b208","system_id":"levelo_inurba_marseille","lat":43.24547,"lon":5.39521,"is_reserved":false,"is_disabled":false,"rental_uris":{"android":"levelo://app?vid=145b0605-73ee-4933-aceb-94a20d36b208","ios":"levelo://app?vid=145b0605-73ee-4933-aceb-94a20d36b208"},"vehicle_type_id":"4","last_reported":1753290804,"current_range_meters":2800,"station_id":"ce4bhlp2rcd13ifvqgjg","pricing_plan_id":"cebpf4jnsgd1na2vs0mg"},{"bike_id":"338d5c8c-c201-4687-b356-7cfe48872beb","system_id":"levelo_inurba_marseille","lat":43.28618,"lon":5.3512,"is_reserved":false,"is_disabled":true,"rental_uris":{"android":"levelo://app?vid=338d5c8c-c201-4687-b356-7cfe48872beb","ios":"levelo://app?vid=338d5c8c-c201-4687-b356-7cfe48872beb"},"vehicle_type_id":"4","last_reported":1753290804,"current_range_meters":2800,"station_id":"ce4bhch2rcd13ifvqeug","pricing_plan_id":"cebpf4jnsgd1na2vs0mg"},{"bike_id":"22fb3488-2087-4842-be83-b8dd1ad5e960","system_id":"levelo_inurba_marseille","lat":43.29532,"lon":5.38539,"is_reserved":false,"is_disabled":false,"rental_uris":{"android":"levelo://app?vid=22fb3488-2087-4842-be83-b8dd1ad5e960","ios":"levelo://app?vid=22fb3488-2087-4842-be83-b8dd1ad5e960"},"vehicle_type_id":"4","last_reported":1753290804,"current_range_meters":2800,"station_id":"ce4bgih2rcd13ifvqba0","pricing_plan_id":"cebpf4jnsgd1na2vs0mg"},{"bike_id":"79de6865-320f-4adc-871c-f84a9e58c799","system_id":"levelo_inurba_marseille","lat":43.28366,"lon":5.38626,"is_reserved":false,"is_disabled":false,"rental_uris":{"android":"levelo://app?vid=79de6865-320f-4adc-871c-f84a9e58c799","ios":"levelo://app?vid=79de6865-320f-4adc-871c-f84a9e58c799"},"vehicle_type_id":"4","last_reported":1753290804,"current_range_meters":2800,"station_id":"ce4bh492rcd13ifvqdvg","pricing_plan_id":"cebpf4jnsgd1na2vs0mg"},{"bike_id":"b8f1b888-b811-4b72-92d0-aab424152c94","system_id":"levelo_inurba_marseille","lat":43.26786,"lon":5.39407,"is_reserved":false,"is_disabled":false,"rental_uris":{"android":"levelo://app?vid=b8f1b888-b811-4b72-92d0-aab424152c94","ios":"levelo://app?vid=b8f1b888-b811-4b72-92d0-aab424152c94"},"vehicle_type_id":"4","last_reported":1753290804,"current_range_meters":2000,"station_id":"ce4bhh12rcd13ifvqfg0","pricing_plan_id":"cebpf4jnsgd1na2vs0mg"},{"bike_id":"a35e0d3b-7b45-4544-b22a-dfb6ea3016e8","system_id":"levelo_inurba_marseille","lat":43.29486,"lon":5.38183,"is_reserved":false,"is_disabled":false,"rental_uris":{"android":"levelo://app?vid=a35e0d3b-7b45-4544-b22a-dfb6ea3016e8","ios":"levelo://app?vid=a35e0d3b-7b45-4544-b22a-dfb6ea3016e8"},"vehicle_type_id":"4","last_reported":1753290804,"current_range_meters":3200,"station_id":"","pricing_plan_id":"cebpf4jnsgd1na2vs0mg"},{"bike_id":"9cb726da-72d0-44e4-830c-69a1c23bdf3c","system_id":"levelo_inurba_marseille","lat":43.29644,"lon":5.37126,"is_reserved":false,"is_disabled":true,"rental_uris":{"android":"levelo://app?vid=9cb726da-72d0-44e4-830c-69a1c23bdf3c","ios":"levelo://app?vid=9cb726da-72d0-44e4-830c-69a1c23bdf3c"},"vehicle_type_id":"4","last_reported":1753290804,"current_range_meters":3200,"station_id":"ce4bgnh2rcd13ifvqc0g","pricing_plan_id":"cebpf4jnsgd1na2vs0mg"},{"bike_id":"7c7473b3-3c62-4637-bb5d-902b86802b51","system_id":"levelo_inurba_marseille","lat":43.30951,"lon":5.39026,"is_reserved":false,"is_disabled":false,"rental_uris":{"android":"levelo://app?vid=7c7473b3-3c62-4637-bb5d-902b86802b51","ios":"levelo://app?vid=7c7473b3-3c62-4637-bb5d-902b86802b51"},"vehicle_type_id":"4","last_reported":1753290804,"current_range_meters":3600,"station_id":"ce4bgup2rcd13ifvqco0","pricing_plan_id":"cebpf4jnsgd1na2vs0mg"},{"bike_id":"ffe95e21-c026-490c-9633-31337312f75c","system_id":"levelo_inurba_marseille","lat":43.29534,"lon":5.38547,"is_reserved":false,"is_disabled":true,"rental_uris":{"android":"levelo://app?vid=ffe95e21-c026-490c-9633-31337312f75c","ios":"levelo://app?vid=ffe95e21-c026-490c-9633-31337312f75c"},"vehicle_type_id":"4","last_reported":1753290804,"current_range_meters":3600,"station_id":"ce4bgih2rcd13ifvqba0","pricing_plan_id":"cebpf4jnsgd1na2vs0mg"},{"bike_id":"d2348285-4ebf-4e30-8841-8eebd86d7384","system_id":"levelo_inurba_marseille","lat":43.24781,"lon":5.37461,"is_reserved":false,"is_disabled":false,"rental_uris":{"android":"levelo://app?vid=d2348285-4ebf-4e30-8841-8eebd86d7384","ios":"levelo://app?vid=d2348285-4ebf-4e30-8841-8eebd86d7384"},"vehicle_type_id":"4","last_reported":1753290804,"current_range_meters":6000,"station_id":"","pricing_plan_id":"cebpf4jnsgd1na2vs0mg"},{"bike_id":"76824a63-c6bd-4828-a120-608cd261fd5c","system_id":"levelo_inurba_marseille","lat":43.26795,"lon":5.39411,"is_reserved":false,"is_disabled":false,"rental_uris":{"android":"levelo://app?vid=76824a63-c6bd-4828-a120-608cd261fd5c","ios":"levelo://app?vid=76824a63-c6bd-4828-a120-608cd261fd5c"},"vehicle_type_id":"4","last_reported":1753290804,"current_range_meters":4000,"station_id":"ce4bhh12rcd13ifvqfg0","pricing_plan_id":"cebpf4jnsgd1na2vs0mg"},{"bike_id":"c277c820-e55b-4e6b-8d34-1d54063c1705","system_id":"levelo_inurba_marseille","lat":43.29036,"lon":5.3996,"is_reserved":false,"is_disabled":false,"rental_uris":{"android":"levelo://app?vid=c277c820-e55b-4e6b-8d34-1d54063c1705","ios":"levelo://app?vid=c277c820-e55b-4e6b-8d34-1d54063c1705"},"vehicle_type_id":"4","last_reported":1753290804,"current_range_meters":4400,"station_id":"ce4bh392rcd13ifvqdm0","pricing_plan_id":"cebpf4jnsgd1na2vs0mg"},{"bike_id":"1ed41307-b0f3-4d4c-9b54-4ef9864c062d","system_id":"levelo_inurba_marseille","lat":43.28003,"lon":5.41646,"is_reserved":false,"is_disabled":false,"rental_uris":{"android":"levelo://app?vid=1ed41307-b0f3-4d4c-9b54-4ef9864c062d","ios":"levelo://app?vid=1ed41307-b0f3-4d4c-9b54-4ef9864c062d"},"vehicle_type_id":"4","last_reported":1753290804,"current_range_meters":4400,"station_id":"ce4bho12rcd13ifvqh1g","pricing_plan_id":"cebpf4jnsgd1na2vs0mg"},{"bike_id":"bb49e83d-d41d-4ce2-bb79-0a528a1d343e","system_id":"levelo_inurba_marseille","lat":43.28575,"lon":5.39485,"is_reserved":false,"is_disabled":false,"rental_uris":{"android":"levelo://app?vid=bb49e83d-d41d-4ce2-bb79-0a528a1d343e","ios":"levelo://app?vid=bb49e83d-d41d-4ce2-bb79-0a528a1d343e"},"vehicle_type_id":"4","last_reported":1753290804,"current_range_meters":4400,"station_id":"ce4bh292rcd13ifvqdg0","pricing_plan_id":"cebpf4jnsgd1na2vs0mg"},{"bike_id":"6573b61a-5757-4e5d-9494-3604cdfe1b67","system_id":"levelo_inurba_marseille","lat":43.289368,"lon":5.366497,"is_reserved":false,"is_disabled":false,"rental_uris":{"android":"levelo://app?vid=6573b61a-5757-4e5d-9494-3604cdfe1b67","ios":"levelo://app?vid=6573b61a-5757-4e5d-9494-3604cdfe1b67"},"vehicle_type_id":"4","last_reported":1753290804,"current_range_meters":4400,"station_id":"ce4bhap2rcd13ifvqek0","pricing_plan_id":"cebpf4jnsgd1na2vs0mg"},{"bike_id":"3654b7f6-8e7a-4caa-9041-108ee788994c","system_id":"levelo_inurba_marseille","lat":43.265652,"lon":5.390096,"is_reserved":false,"is_disabled":false,"rental_uris":{"android":"levelo://app?vid=3654b7f6-8e7a-4caa-9041-108ee788994c","ios":"levelo://app?vid=3654b7f6-8e7a-4caa-9041-108ee788994c"},"vehicle_type_id":"4","last_reported":1753290804,"current_range_meters":4800,"station_id":"ce4bhe12rcd13ifvqf30","pricing_plan_id":"cebpf4jnsgd1na2vs0mg"},{"bike_id":"3f82c6de-6496-42f8-a7ba-b2c271197e44","system_id":"levelo_inurba_marseille","lat":43.28003,"lon":5.41664,"is_reserved":false,"is_disabled":false,"rental_uris":{"android":"levelo://app?vid=3f82c6de-6496-42f8-a7ba-b2c271197e44","ios":"levelo://app?vid=3f82c6de-6496-42f8-a7ba-b2c271197e44"},"vehicle_type_id":"4","last_reported":1753290804,"current_range_meters":4800,"station_id":"ce4bho12rcd13ifvqh1g","pricing_plan_id":"cebpf4jnsgd1na2vs0mg"},{"bike_id":"d1e4f31a-f7af-4f41-8a33-8b0782cbd059","system_id":"levelo_inurba_marseille","lat":43.21742,"lon":5.34602,"is_reserved":false,"is_disabled":false,"rental_uris":{"android":"levelo://app?vid=d1e4f31a-f7af-4f41-8a33-8b0782cbd059","ios":"levelo://app?vid=d1e4f31a-f7af-4f41-8a33-8b0782cbd059"},"vehicle_type_id":"4","last_reported":1753290804,"current_range_meters":4800,"station_id":"st_cvj6r9ubvosntc0bgbag","pricing_plan_id":"cebpf4jnsgd1na2vs0mg"},{"bike_id":"7bcafd57-2b08-4740-a5cc-29e82d6d3cd7","system_id":"levelo_inurba_marseille","lat":43.32,"lon":5.38161,"is_reserved":false,"is_disabled":false,"rental_uris":{"android":"levelo://app?vid=7bcafd57-2b08-4740-a5cc-29e82d6d3cd7","ios":"levelo://app?vid=7bcafd57-2b08-4740-a5cc-29e82d6d3cd7"},"vehicle_type_id":"4","last_reported":1753290804,"current_range_meters":4800,"station_id":"ce4bhr12rcd13ifvqhpg","pricing_plan_id":"cebpf4jnsgd1na2vs0mg"},{"bike_id":"3d2230a6-5a1a-4a71-befb-0af19af6de29","system_id":"levelo_inurba_marseille","lat":43.23194,"lon":5.39985,"is_reserved":false,"is_disabled":false,"rental_uris":{"android":"levelo://app?vid=3d2230a6-5a1a-4a71-befb-0af19af6de29","ios":"levelo://app?vid=3d2230a6-5a1a-4a71-befb-0af19af6de29"},"vehicle_type_id":"4","last_reported":1753290804,"current_range_meters":4800,"station_id":"ce4bhn12rcd13ifvqgqg","pricing_plan_id":"cebpf4jnsgd1na2vs0mg"},{"bike_id":"5cccb452-224d-486f-8f55-ab6f9fb0d289","system_id":"levelo_inurba_marseille","lat":43.3013,"lon":5.3972,"is_reserved":false,"is_disabled":false,"rental_uris":{"android":"levelo://app?vid=5cccb452-224d-486f-8f55-ab6f9fb0d289","ios":"levelo://app?vid=5cccb452-224d-486f-8f55-ab6f9fb0d289"},"vehicle_type_id":"4","last_reported":1753290804,"current_range_meters":4800,"station_id":"","pricing_plan_id":"cebpf4jnsgd1na2vs0mg"},{"bike_id":"3c9678bd-8534-4cad-9adf-0a76d5e5d5cd","system_id":"levelo_inurba_marseille","lat":43.3176,"lon":5.39012,"is_reserved":false,"is_disabled":false,"rental_uris":{"android":"levelo://app?vid=3c9678bd-8534-4cad-9adf-0a76d5e5d5cd","ios":"levelo://app?vid=3c9678bd-8534-4cad-9adf-0a76d5e5d5cd"},"vehicle_type_id":"4","last_reported":1753290804,"current_range_meters":5600,"station_id":"ce4bhqp2rcd13ifvqhng","pricing_plan_id":"cebpf4jnsgd1na2vs0mg"},{"bike_id":"87bebdd7-6a49-4757-b696-1b72361214be","system_id":"levelo_inurba_marseille","lat":43.29538,"lon":5.3937,"is_reserved":false,"is_disabled":false,"rental_uris":{"android":"levelo://app?vid=87bebdd7-6a49-4757-b696-1b72361214be","ios":"levelo://app?vid=87bebdd7-6a49-4757-b696-1b72361214be"},"vehicle_type_id":"4","last_reported":1753290804,"current_range_meters":5600,"station_id":"ce4bh9p2rcd13ifvqed0","pricing_plan_id":"cebpf4jnsgd1na2vs0mg"},{"bike_id":"25b6bca2-eed4-4ac3-a0b1-8fb92263809a","system_id":"levelo_inurba_marseille","lat":43.290271,"lon":5.386399,"is_reserved":false,"is_disabled":false,"rental_uris":{"android":"levelo://app?vid=25b6bca2-eed4-4ac3-a0b1-8fb92263809a","ios":"levelo://app?vid=25b6bca2-eed4-4ac3-a0b1-8fb92263809a"},"vehicle_type_id":"4","last_reported":1753290804,"current_range_meters":5600,"station_id":"ce4bh4p2rcd13ifvqe0g","pricing_plan_id":"cebpf4jnsgd1na2vs0mg"},{"bike_id":"8e606cd5-247c-49a0-8e6b-e0ba9a5515df","system_id":"levelo_inurba_marseille","lat":43.28944,"lon":5.36427,"is_reserved":false,"is_disabled":false,"rental_uris":{"android":"levelo://app?vid=8e606cd5-247c-49a0-8e6b-e0ba9a5515df","ios":"levelo://app?vid=8e606cd5-247c-49a0-8e6b-e0ba9a5515df"},"vehicle_type_id":"4","last_reported":1753290804,"current_range_meters":6000,"station_id":"ce4bhc92rcd13ifvqetg","pricing_plan_id":"cebpf4jnsgd1na2vs0mg"},{"bike_id":"89320886-cb94-4b8c-ade2-8e8bd12ba125","system_id":"levelo_inurba_marseille","lat":43.28694,"lon":5.37367,"is_reserved":false,"is_disabled":false,"rental_uris":{"android":"levelo://app?vid=89320886-cb94-4b8c-ade2-8e8bd12ba125","ios":"levelo://app?vid=89320886-cb94-4b8c-ade2-8e8bd12ba125"},"vehicle_type_id":"4","last_reported":1753290804,"current_range_meters":6000,"station_id":"ce4bh3p2rcd13ifvqdq0","pricing_plan_id":"cebpf4jnsgd1na2vs0mg"},{"bike_id":"2e00a6f2-0061-4be8-b21f-84f507be0d6c","system_id":"levelo_inurba_marseille","lat":43.29847,"lon":5.36275,"is_reserved":false,"is_disabled":false,"rental_uris":{"android":"levelo://app?vid=2e00a6f2-0061-4be8-b21f-84f507be0d6c","ios":"levelo://app?vid=2e00a6f2-0061-4be8-b21f-84f507be0d6c"},"vehicle_type_id":"4","last_reported":1753290804,"current_range_meters":6000,"station_id":"ce4bgpp2rcd13ifvqc3g","pricing_plan_id":"cebpf4jnsgd1na2vs0mg"},{"bike_id":"3abd8507-8041-43e0-94d8-8ce31d6d2d32","system_id":"levelo_inurba_marseille","lat":43.2963,"lon":5.40589,"is_reserved":false,"is_disabled":false,"rental_uris":{"android":"levelo://app?vid=3abd8507-8041-43e0-94d8-8ce31d6d2d32","ios":"levelo://app?vid=3abd8507-8041-43e0-94d8-8ce31d6d2d32"},"vehicle_type_id":"4","last_reported":1753290804,"current_range_meters":6000,"station_id":"ce4bh0h2rcd13ifvqd60","pricing_plan_id":"cebpf4jnsgd1na2vs0mg"},{"bike_id":"47c53d14-f845-48e1-9acd-9da76b808689","system_id":"levelo_inurba_marseille","lat":43.27564,"lon":5.38407,"is_reserved":false,"is_disabled":false,"rental_uris":{"android":"levelo://app?vid=47c53d14-f845-48e1-9acd-9da76b808689","ios":"levelo://app?vid=47c53d14-f845-48e1-9acd-9da76b808689"},"vehicle_type_id":"4","last_reported":1753290804,"current_range_meters":6400,"station_id":"ce4bhh92rcd13ifvqfi0","pricing_plan_id":"cebpf4jnsgd1na2vs0mg"},{"bike_id":"8c3466f5-9e6b-42c6-8075-c37965fb4db6","system_id":"levelo_inurba_marseille","lat":43.29518,"lon":5.39392,"is_reserved":false,"is_disabled":true,"rental_uris":{"android":"levelo://app?vid=8c3466f5-9e6b-42c6-8075-c37965fb4db6","ios":"levelo://app?vid=8c3466f5-9e6b-42c6-8075-c37965fb4db6"},"vehicle_type_id":"4","last_reported":1753290804,"current_range_meters":6400,"station_id":"ce4bh292rcd13ifvqdf0","pricing_plan_id":"cebpf4jnsgd1na2vs0mg"},{"bike_id":"e2e4671b-949b-40e0-baac-d8ec855603ca","system_id":"levelo_inurba_marseille","lat":43.28946,"lon":5.3663,"is_reserved":false,"is_disabled":false,"rental_uris":{"android":"levelo://app?vid=e2e4671b-949b-40e0-baac-d8ec855603ca","ios":"levelo://app?vid=e2e4671b-949b-40e0-baac-d8ec855603ca"},"vehicle_type_id":"4","last_reported":1753290804,"current_range_meters":6400,"station_id":"ce4bhap2rcd13ifvqek0","pricing_plan_id":"cebpf4jnsgd1na2vs0mg"},{"bike_id":"b7d503ca-10ca-47f1-9a76-4f714692f0ed","system_id":"levelo_inurba_marseille","lat":43.298427,"lon":5.362691,"is_reserved":false,"is_disabled":false,"rental_uris":{"android":"levelo://app?vid=b7d503ca-10ca-47f1-9a76-4f714692f0ed","ios":"levelo://app?vid=b7d503ca-10ca-47f1-9a76-4f714692f0ed"},"vehicle_type_id":"4","last_reported":1753290804,"current_range_meters":6400,"station_id":"ce4bgpp2rcd13ifvqc3g","pricing_plan_id":"cebpf4jnsgd1na2vs0mg"},{"bike_id":"83766871-d64f-4fc8-9d3b-2ceaf03b1036","system_id":"levelo_inurba_marseille","lat":43.21201,"lon":5.35065,"is_reserved":false,"is_disabled":false,"rental_uris":{"android":"levelo://app?vid=83766871-d64f-4fc8-9d3b-2ceaf03b1036","ios":"levelo://app?vid=83766871-d64f-4fc8-9d3b-2ceaf03b1036"},"vehicle_type_id":"4","last_reported":1753290804,"current_range_meters":6400,"station_id":"st_cvj6sg6p6f1abm77japg","pricing_plan_id":"cebpf4jnsgd1na2vs0mg"},{"bike_id":"5f06fd94-75e3-411e-9893-5b4e4bc06348","system_id":"levelo_inurba_marseille","lat":43.23188,"lon":5.39979,"is_reserved":false,"is_disabled":false,"rental_uris":{"android":"levelo://app?vid=5f06fd94-75e3-411e-9893-5b4e4bc06348","ios":"levelo://app?vid=5f06fd94-75e3-411e-9893-5b4e4bc06348"},"vehicle_type_id":"4","last_reported":1753290804,"current_range_meters":6800,"station_id":"ce4bhn12rcd13ifvqgqg","pricing_plan_id":"cebpf4jnsgd1na2vs0mg"},{"bike_id":"757e9c88-9b7f-4a4e-bde7-0a93b2f632f2","system_id":"levelo_inurba_marseille","lat":43.302881,"lon":5.376892,"is_reserved":false,"is_disabled":false,"rental_uris":{"android":"levelo://app?vid=757e9c88-9b7f-4a4e-bde7-0a93b2f632f2","ios":"levelo://app?vid=757e9c88-9b7f-4a4e-bde7-0a93b2f632f2"},"vehicle_type_id":"4","last_reported":1753290804,"current_range_meters":6800,"station_id":"ce4bguh2rcd13ifvqcj0","pricing_plan_id":"cebpf4jnsgd1na2vs0mg"},{"bike_id":"ec0adf83-6184-4d63-a8bd-8a4c46331101","system_id":"levelo_inurba_marseille","lat":43.26072,"lon":5.39383,"is_reserved":false,"is_disabled":true,"rental_uris":{"android":"levelo://app?vid=ec0adf83-6184-4d63-a8bd-8a4c46331101","ios":"levelo://app?vid=ec0adf83-6184-4d63-a8bd-8a4c46331101"},"vehicle_type_id":"4","last_reported":1753290804,"current_range_meters":6800,"station_id":"ce4bhh92rcd13ifvqfj0","pricing_plan_id":"cebpf4jnsgd1na2vs0mg"},{"bike_id":"4cb28976-6e2d-46c7-b56e-4769744b3ce7","system_id":"levelo_inurba_marseille","lat":43.290312,"lon":5.386483,"is_reserved":false,"is_disabled":false,"rental_uris":{"android":"levelo://app?vid=4cb28976-6e2d-46c7-b56e-4769744b3ce7","ios":"levelo://app?vid=4cb28976-6e2d-46c7-b56e-4769744b3ce7"},"vehicle_type_id":"4","last_reported":1753290804,"current_range_meters":6800,"station_id":"ce4bh4p2rcd13ifvqe0g","pricing_plan_id":"cebpf4jnsgd1na2vs0mg"},{"bike_id":"4936f3c2-7dfd-4e78-8d08-f7fc0316708d","system_id":"levelo_inurba_marseille","lat":43.25828,"lon":5.39435,"is_reserved":false,"is_disabled":false,"rental_uris":{"android":"levelo://app?vid=4936f3c2-7dfd-4e78-8d08-f7fc0316708d","ios":"levelo://app?vid=4936f3c2-7dfd-4e78-8d08-f7fc0316708d"},"vehicle_type_id":"4","last_reported":1753290804,"current_range_meters":7200,"station_id":"ce4bhip2rcd13ifvqft0","pricing_plan_id":"cebpf4jnsgd1na2vs0mg"},{"bike_id":"49dafb26-818f-47e5-a9eb-0fe326ece423","system_id":"levelo_inurba_marseille","lat":43.32336,"lon":5.40621,"is_reserved":false,"is_disabled":false,"rental_uris":{"android":"levelo://app?vid=49dafb26-818f-47e5-a9eb-0fe326ece423","ios":"levelo://app?vid=49dafb26-818f-47e5-a9eb-0fe326ece423"},"vehicle_type_id":"4","last_reported":1753290804,"current_range_meters":7200,"station_id":"ce4bhq92rcd13ifvqhjg","pricing_plan_id":"cebpf4jnsgd1na2vs0mg"},{"bike_id":"6276a6c2-7b74-4d17-93e7-4e3ecbcf5009","system_id":"levelo_inurba_marseille","lat":43.30956,"lon":5.39017,"is_reserved":false,"is_disabled":false,"rental_uris":{"android":"levelo://app?vid=6276a6c2-7b74-4d17-93e7-4e3ecbcf5009","ios":"levelo://app?vid=6276a6c2-7b74-4d17-93e7-4e3ecbcf5009"},"vehicle_type_id":"4","last_reported":1753290804,"current_range_meters":6800,"station_id":"ce4bgup2rcd13ifvqco0","pricing_plan_id":"cebpf4jnsgd1na2vs0mg"},{"bike_id":"6664b110-6024-4d10-904c-70f0e732d65e","system_id":"levelo_inurba_marseille","lat":43.262075,"lon":5.374448,"is_reserved":false,"is_disabled":true,"rental_uris":{"android":"levelo://app?vid=6664b110-6024-4d10-904c-70f0e732d65e","ios":"levelo://app?vid=6664b110-6024-4d10-904c-70f0e732d65e"},"vehicle_type_id":"4","last_reported":1753290804,"current_range_meters":7200,"station_id":"","pricing_plan_id":"cebpf4jnsgd1na2vs0mg"},{"bike_id":"90453e97-3f83-4fe1-a0bc-7082065159ee","system_id":"levelo_inurba_marseille","lat":43.29787,"lon":5.39336,"is_reserved":false,"is_disabled":false,"rental_uris":{"android":"levelo://app?vid=90453e97-3f83-4fe1-a0bc-7082065159ee","ios":"levelo://app?vid=90453e97-3f83-4fe1-a0bc-7082065159ee"},"vehicle_type_id":"4","last_reported":1753290804,"current_range_meters":7200,"station_id":"chh1huq6cuj3fo74tm60","pricing_plan_id":"cebpf4jnsgd1na2vs0mg"},{"bike_id":"ce976055-cd0e-4773-8a5c-62630b98b142","system_id":"levelo_inurba_marseille","lat":43.32346,"lon":5.40606,"is_reserved":false,"is_disabled":false,"rental_uris":{"android":"levelo://app?vid=ce976055-cd0e-4773-8a5c-62630b98b142","ios":"levelo://app?vid=ce976055-cd0e-4773-8a5c-62630b98b142"},"vehicle_type_id":"4","last_reported":1753290804,"current_range_meters":7200,"station_id":"ce4bhq92rcd13ifvqhjg","pricing_plan_id":"cebpf4jnsgd1na2vs0mg"},{"bike_id":"43cc271a-5319-47bf-a3fd-63b724c96320","system_id":"levelo_inurba_marseille","lat":43.28851,"lon":5.35856,"is_reserved":false,"is_disabled":false,"rental_uris":{"android":"levelo://app?vid=43cc271a-5319-47bf-a3fd-63b724c96320","ios":"levelo://app?vid=43cc271a-5319-47bf-a3fd-63b724c96320"},"vehicle_type_id":"4","last_reported":1753290804,"current_range_meters":7200,"station_id":"ce4bhb12rcd13ifvqem0","pricing_plan_id":"cebpf4jnsgd1na2vs0mg"},{"bike_id":"9ae7d50c-a3ea-4136-8080-315c191e000a","system_id":"levelo_inurba_marseille","lat":43.28769,"lon":5.384097,"is_reserved":false,"is_disabled":false,"rental_uris":{"android":"levelo://app?vid=9ae7d50c-a3ea-4136-8080-315c191e000a","ios":"levelo://app?vid=9ae7d50c-a3ea-4136-8080-315c191e000a"},"vehicle_type_id":"4","last_reported":1753290804,"current_range_meters":8000,"station_id":"","pricing_plan_id":"cebpf4jnsgd1na2vs0mg"},{"bike_id":"246a6d93-5b27-4179-91cd-5e53b4d6152d","system_id":"levelo_inurba_marseille","lat":43.2951,"lon":5.37474,"is_reserved":false,"is_disabled":false,"rental_uris":{"android":"levelo://app?vid=246a6d93-5b27-4179-91cd-5e53b4d6152d","ios":"levelo://app?vid=246a6d93-5b27-4179-91cd-5e53b4d6152d"},"vehicle_type_id":"4","last_reported":1753290804,"current_range_meters":8000,"station_id":"ce4bgkp2rcd13ifvqbmg","pricing_plan_id":"cebpf4jnsgd1na2vs0mg"},{"bike_id":"81f48beb-cba8-4a10-929a-d7834448108c","system_id":"levelo_inurba_marseille","lat":43.332833,"lon":5.398943,"is_reserved":false,"is_disabled":false,"rental_uris":{"android":"levelo://app?vid=81f48beb-cba8-4a10-929a-d7834448108c","ios":"levelo://app?vid=81f48beb-cba8-4a10-929a-d7834448108c"},"vehicle_type_id":"4","last_reported":1753290804,"current_range_meters":8000,"station_id":"","pricing_plan_id":"cebpf4jnsgd1na2vs0mg"},{"bike_id":"e5454f48-7b71-48eb-8ba4-aeebe430cdad","system_id":"levelo_inurba_marseille","lat":43.29007,"lon":5.356071,"is_reserved":false,"is_disabled":false,"rental_uris":{"android":"levelo://app?vid=e5454f48-7b71-48eb-8ba4-aeebe430cdad","ios":"levelo://app?vid=e5454f48-7b71-48eb-8ba4-aeebe430cdad"},"vehicle_type_id":"4","last_reported":1753290804,"current_range_meters":8000,"station_id":"ce4bhb92rcd13ifvqen0","pricing_plan_id":"cebpf4jnsgd1na2vs0mg"},{"bike_id":"d82c29ad-6c9f-431d-95d3-a721d4a07cb6","system_id":"levelo_inurba_marseille","lat":43.29937,"lon":5.36546,"is_reserved":false,"is_disabled":false,"rental_uris":{"android":"levelo://app?vid=d82c29ad-6c9f-431d-95d3-a721d4a07cb6","ios":"levelo://app?vid=d82c29ad-6c9f-431d-95d3-a721d4a07cb6"},"vehicle_type_id":"4","last_reported":1753290804,"current_range_meters":8400,"station_id":"ce4bgm92rcd13ifvqbr0","pricing_plan_id":"cebpf4jnsgd1na2vs0mg"},{"bike_id":"d07f0755-aca6-4050-807e-9c5aaf0dd619","system_id":"levelo_inurba_marseille","lat":43.296823,"lon":5.372723,"is_reserved":false,"is_disabled":true,"rental_uris":{"android":"levelo://app?vid=d07f0755-aca6-4050-807e-9c5aaf0dd619","ios":"levelo://app?vid=d07f0755-aca6-4050-807e-9c5aaf0dd619"},"vehicle_type_id":"4","last_reported":1753290804,"current_range_meters":8400,"station_id":"ce4bgk12rcd13ifvqbj0","pricing_plan_id":"cebpf4jnsgd1na2vs0mg"},{"bike_id":"a9864b22-419d-4a03-b71c-9b5cd2886d5e","system_id":"levelo_inurba_marseille","lat":43.29224,"lon":5.36081,"is_reserved":false,"is_disabled":false,"rental_uris":{"android":"levelo://app?vid=a9864b22-419d-4a03-b71c-9b5cd2886d5e","ios":"levelo://app?vid=a9864b22-419d-4a03-b71c-9b5cd2886d5e"},"vehicle_type_id":"4","last_reported":1753290804,"current_range_meters":8400,"station_id":"ce4bhbh2rcd13ifvqeqg","pricing_plan_id":"cebpf4jnsgd1na2vs0mg"},{"bike_id":"c040651f-a6e6-4a31-8152-4a9c138dca45","system_id":"levelo_inurba_marseille","lat":43.28108,"lon":5.37835,"is_reserved":false,"is_disabled":false,"rental_uris":{"android":"levelo://app?vid=c040651f-a6e6-4a31-8152-4a9c138dca45","ios":"levelo://app?vid=c040651f-a6e6-4a31-8152-4a9c138dca45"},"vehicle_type_id":"4","last_reported":1753290804,"current_range_meters":8400,"station_id":"ce4bha12rcd13ifvqee0","pricing_plan_id":"cebpf4jnsgd1na2vs0mg"},{"bike_id":"92977477-a981-433a-9104-22425ed0cff4","system_id":"levelo_inurba_marseille","lat":43.30314,"lon":5.39222,"is_reserved":false,"is_disabled":false,"rental_uris":{"android":"levelo://app?vid=92977477-a981-433a-9104-22425ed0cff4","ios":"levelo://app?vid=92977477-a981-433a-9104-22425ed0cff4"},"vehicle_type_id":"4","last_reported":1753290804,"current_range_meters":8800,"station_id":"ce4bgkh2rcd13ifvqbk0","pricing_plan_id":"cebpf4jnsgd1na2vs0mg"},{"bike_id":"8e85d5a7-b71f-46fd-a757-a329adf20ca9","system_id":"levelo_inurba_marseille","lat":43.29637,"lon":5.40588,"is_reserved":false,"is_disabled":false,"rental_uris":{"android":"levelo://app?vid=8e85d5a7-b71f-46fd-a757-a329adf20ca9","ios":"levelo://app?vid=8e85d5a7-b71f-46fd-a757-a329adf20ca9"},"vehicle_type_id":"4","last_reported":1753290804,"current_range_meters":8800,"station_id":"ce4bh0h2rcd13ifvqd60","pricing_plan_id":"cebpf4jnsgd1na2vs0mg"},{"bike_id":"9fb848e4-6b95-4c66-a449-f3c55be64ec1","system_id":"levelo_inurba_marseille","lat":43.29259,"lon":5.3843,"is_reserved":false,"is_disabled":false,"rental_uris":{"android":"levelo://app?vid=9fb848e4-6b95-4c66-a449-f3c55be64ec1","ios":"levelo://app?vid=9fb848e4-6b95-4c66-a449-f3c55be64ec1"},"vehicle_type_id":"4","last_reported":1753290804,"current_range_meters":8800,"station_id":"ce4bh692rcd13ifvqea0","pricing_plan_id":"cebpf4jnsgd1na2vs0mg"},{"bike_id":"da59ed8d-f777-41a3-861f-79d423aa2e07","system_id":"levelo_inurba_marseille","lat":43.28843,"lon":5.39328,"is_reserved":false,"is_disabled":false,"rental_uris":{"android":"levelo://app?vid=da59ed8d-f777-41a3-861f-79d423aa2e07","ios":"levelo://app?vid=da59ed8d-f777-41a3-861f-79d423aa2e07"},"vehicle_type_id":"4","last_reported":1753290804,"current_range_meters":8400,"station_id":"ce4bh2p2rcd13ifvqdi0","pricing_plan_id":"cebpf4jnsgd1na2vs0mg"},{"bike_id":"120c5a4e-be47-4a14-9914-a417224c2dc1","system_id":"levelo_inurba_marseille","lat":43.30813,"lon":5.3815,"is_reserved":false,"is_disabled":true,"rental_uris":{"android":"levelo://app?vid=120c5a4e-be47-4a14-9914-a417224c2dc1","ios":"levelo://app?vid=120c5a4e-be47-4a14-9914-a417224c2dc1"},"vehicle_type_id":"4","last_reported":1753290804,"current_range_meters":8800,"station_id":"ce4bgt12rcd13ifvqce0","pricing_plan_id":"cebpf4jnsgd1na2vs0mg"},{"bike_id":"1446c12b-eff8-441a-b7f0-3d30c44571b3","system_id":"levelo_inurba_marseille","lat":43.290423,"lon":5.399629,"is_reserved":false,"is_disabled":false,"rental_uris":{"android":"levelo://app?vid=1446c12b-eff8-441a-b7f0-3d30c44571b3","ios":"levelo://app?vid=1446c12b-eff8-441a-b7f0-3d30c44571b3"},"vehicle_type_id":"4","last_reported":1753290804,"current_range_meters":8800,"station_id":"ce4bh392rcd13ifvqdm0","pricing_plan_id":"cebpf4jnsgd1na2vs0mg"},{"bike_id":"2a7dd72f-bdf3-4547-90e6-34b8049722b6","system_id":"levelo_inurba_marseille","lat":43.22514,"lon":5.3477,"is_reserved":false,"is_disabled":false,"rental_uris":{"android":"levelo://app?vid=2a7dd72f-bdf3-4547-90e6-34b8049722b6","ios":"levelo://app?vid=2a7dd72f-bdf3-4547-90e6-34b8049722b6"},"vehicle_type_id":"4","last_reported":1753290804,"current_range_meters":8800,"station_id":"st_cvj5dfep6f1abm77gieg","pricing_plan_id":"cebpf4jnsgd1na2vs0mg"},{"bike_id":"a5f1f0d6-c678-45f4-9b29-96eaa29a3e36","system_id":"levelo_inurba_marseille","lat":43.25177,"lon":5.37294,"is_reserved":false,"is_disabled":true,"rental_uris":{"android":"levelo://app?vid=a5f1f0d6-c678-45f4-9b29-96eaa29a3e36","ios":"levelo://app?vid=a5f1f0d6-c678-45f4-9b29-96eaa29a3e36"},"vehicle_type_id":"4","last_reported":1753290804,"current_range_meters":8800,"station_id":"","pricing_plan_id":"cebpf4jnsgd1na2vs0mg"},{"bike_id":"bf86b154-3523-4f2f-8021-40d1677ad531","system_id":"levelo_inurba_marseille","lat":43.290304,"lon":5.386513,"is_reserved":false,"is_disabled":false,"rental_uris":{"android":"levelo://app?vid=bf86b154-3523-4f2f-8021-40d1677ad531","ios":"levelo://app?vid=bf86b154-3523-4f2f-8021-40d1677ad531"},"vehicle_type_id":"4","last_reported":1753290804,"current_range_meters":9200,"station_id":"ce4bh4p2rcd13ifvqe0g","pricing_plan_id":"cebpf4jnsgd1na2vs0mg"},{"bike_id":"aaa16a2c-2421-4c83-8b33-819599d26581","system_id":"levelo_inurba_marseille","lat":43.23959,"lon":5.3663,"is_reserved":false,"is_disabled":false,"rental_uris":{"android":"levelo://app?vid=aaa16a2c-2421-4c83-8b33-819599d26581","ios":"levelo://app?vid=aaa16a2c-2421-4c83-8b33-819599d26581"},"vehicle_type_id":"4","last_reported":1753290804,"current_range_meters":9200,"station_id":"ce4bhi12rcd13ifvqfp0","pricing_plan_id":"cebpf4jnsgd1na2vs0mg"},{"bike_id":"e4761578-ae86-4dfa-b146-0428e5d8cca7","system_id":"levelo_inurba_marseille","lat":43.2417,"lon":5.36386,"is_reserved":false,"is_disabled":true,"rental_uris":{"android":"levelo://app?vid=e4761578-ae86-4dfa-b146-0428e5d8cca7","ios":"levelo://app?vid=e4761578-ae86-4dfa-b146-0428e5d8cca7"},"vehicle_type_id":"4","last_reported":1753290804,"current_range_meters":9200,"station_id":"cpo36qri1sfpv3e86is0","pricing_plan_id":"cebpf4jnsgd1na2vs0mg"},{"bike_id":"900aa4aa-63b6-4eb6-aeb5-581c27a21b59","system_id":"levelo_inurba_marseille","lat":43.29621,"lon":5.3715,"is_reserved":false,"is_disabled":false,"rental_uris":{"android":"levelo://app?vid=900aa4aa-63b6-4eb6-aeb5-581c27a21b59","ios":"levelo://app?vid=900aa4aa-63b6-4eb6-aeb5-581c27a21b59"},"vehicle_type_id":"4","last_reported":1753290804,"current_range_meters":9200,"station_id":"ce4bgnh2rcd13ifvqc0g","pricing_plan_id":"cebpf4jnsgd1na2vs0mg"},{"bike_id":"7676b39d-4c43-480f-9e8a-cf916a495a25","system_id":"levelo_inurba_marseille","lat":43.30223,"lon":5.39464,"is_reserved":false,"is_disabled":false,"rental_uris":{"android":"levelo://app?vid=7676b39d-4c43-480f-9e8a-cf916a495a25","ios":"levelo://app?vid=7676b39d-4c43-480f-9e8a-cf916a495a25"},"vehicle_type_id":"4","last_reported":1753290804,"current_range_meters":9600,"station_id":"ce4bh0p2rcd13ifvqd70","pricing_plan_id":"cebpf4jnsgd1na2vs0mg"},{"bike_id":"43f4a383-8903-4814-955d-b4429b9bb7ac","system_id":"levelo_inurba_marseille","lat":43.30213,"lon":5.39471,"is_reserved":false,"is_disabled":false,"rental_uris":{"android":"levelo://app?vid=43f4a383-8903-4814-955d-b4429b9bb7ac","ios":"levelo://app?vid=43f4a383-8903-4814-955d-b4429b9bb7ac"},"vehicle_type_id":"4","last_reported":1753290804,"current_range_meters":9600,"station_id":"ce4bh0p2rcd13ifvqd70","pricing_plan_id":"cebpf4jnsgd1na2vs0mg"},{"bike_id":"a2496396-52eb-4eda-ae93-04a447ea5027","system_id":"levelo_inurba_marseille","lat":43.28937,"lon":5.36635,"is_reserved":false,"is_disabled":false,"rental_uris":{"android":"levelo://app?vid=a2496396-52eb-4eda-ae93-04a447ea5027","ios":"levelo://app?vid=a2496396-52eb-4eda-ae93-04a447ea5027"},"vehicle_type_id":"4","last_reported":1753290804,"current_range_meters":9600,"station_id":"ce4bhap2rcd13ifvqek0","pricing_plan_id":"cebpf4jnsgd1na2vs0mg"},{"bike_id":"a26f5db3-37c5-4bfa-af73-7d1f4c5115f6","system_id":"levelo_inurba_marseille","lat":43.28622,"lon":5.35064,"is_reserved":false,"is_disabled":false,"rental_uris":{"android":"levelo://app?vid=a26f5db3-37c5-4bfa-af73-7d1f4c5115f6","ios":"levelo://app?vid=a26f5db3-37c5-4bfa-af73-7d1f4c5115f6"},"vehicle_type_id":"4","last_reported":1753290804,"current_range_meters":9600,"station_id":"ce4bhch2rcd13ifvqeug","pricing_plan_id":"cebpf4jnsgd1na2vs0mg"},{"bike_id":"c9dbd36b-479c-4a5c-b200-3aa7673340d9","system_id":"levelo_inurba_marseille","lat":43.241448,"lon":5.363743,"is_reserved":false,"is_disabled":true,"rental_uris":{"android":"levelo://app?vid=c9dbd36b-479c-4a5c-b200-3aa7673340d9","ios":"levelo://app?vid=c9dbd36b-479c-4a5c-b200-3aa7673340d9"},"vehicle_type_id":"4","last_reported":1753290804,"current_range_meters":9600,"station_id":"","pricing_plan_id":"cebpf4jnsgd1na2vs0mg"},{"bike_id":"3c21b9e1-b296-4844-a6d5-b8d19c7f36c9","system_id":"levelo_inurba_marseille","lat":43.2918,"lon":5.38427,"is_reserved":false,"is_disabled":false,"rental_uris":{"android":"levelo://app?vid=3c21b9e1-b296-4844-a6d5-b8d19c7f36c9","ios":"levelo://app?vid=3c21b9e1-b296-4844-a6d5-b8d19c7f36c9"},"vehicle_type_id":"4","last_reported":1753290804,"current_range_meters":9600,"station_id":"","pricing_plan_id":"cebpf4jnsgd1na2vs0mg"},{"bike_id":"e2e9972b-6f0c-42fa-ba83-99fd2709d04d","system_id":"levelo_inurba_marseille","lat":43.28852,"lon":5.39312,"is_reserved":false,"is_disabled":false,"rental_uris":{"android":"levelo://app?vid=e2e9972b-6f0c-42fa-ba83-99fd2709d04d","ios":"levelo://app?vid=e2e9972b-6f0c-42fa-ba83-99fd2709d04d"},"vehicle_type_id":"4","last_reported":1753290804,"current_range_meters":9600,"station_id":"ce4bh2p2rcd13ifvqdi0","pricing_plan_id":"cebpf4jnsgd1na2vs0mg"},{"bike_id":"7a1ef1c2-c058-45b6-b788-86d261e4f088","system_id":"levelo_inurba_marseille","lat":43.29197,"lon":5.3929,"is_reserved":false,"is_disabled":true,"rental_uris":{"android":"levelo://app?vid=7a1ef1c2-c058-45b6-b788-86d261e4f088","ios":"levelo://app?vid=7a1ef1c2-c058-45b6-b788-86d261e4f088"},"vehicle_type_id":"4","last_reported":1753290804,"current_range_meters":9600,"station_id":"ce4bh192rcd13ifvqdd0","pricing_plan_id":"cebpf4jnsgd1na2vs0mg"},{"bike_id":"c14d0563-25d1-46ee-8153-eba7ff8256fc","system_id":"levelo_inurba_marseille","lat":43.29938,"lon":5.36553,"is_reserved":false,"is_disabled":false,"rental_uris":{"android":"levelo://app?vid=c14d0563-25d1-46ee-8153-eba7ff8256fc","ios":"levelo://app?vid=c14d0563-25d1-46ee-8153-eba7ff8256fc"},"vehicle_type_id":"4","last_reported":1753290804,"current_range_meters":9600,"station_id":"ce4bgm92rcd13ifvqbr0","pricing_plan_id":"cebpf4jnsgd1na2vs0mg"},{"bike_id":"aa5097b6-6968-4aec-b711-e7780938924b","system_id":"levelo_inurba_marseille","lat":43.32984,"lon":5.35887,"is_reserved":false,"is_disabled":false,"rental_uris":{"android":"levelo://app?vid=aa5097b6-6968-4aec-b711-e7780938924b","ios":"levelo://app?vid=aa5097b6-6968-4aec-b711-e7780938924b"},"vehicle_type_id":"4","last_reported":1753290804,"current_range_meters":9600,"station_id":"","pricing_plan_id":"cebpf4jnsgd1na2vs0mg"},{"bike_id":"22b9460e-b092-432c-9ba4-b5553b327bff","system_id":"levelo_inurba_marseille","lat":43.28436,"lon":5.39186,"is_reserved":false,"is_disabled":false,"rental_uris":{"android":"levelo://app?vid=22b9460e-b092-432c-9ba4-b5553b327bff","ios":"levelo://app?vid=22b9460e-b092-432c-9ba4-b5553b327bff"},"vehicle_type_id":"4","last_reported":1753290804,"current_range_meters":10000,"station_id":"ce4bhoh2rcd13ifvqh5g","pricing_plan_id":"cebpf4jnsgd1na2vs0mg"},{"bike_id":"f992bac4-0027-4789-89d9-9ef45421fe15","system_id":"levelo_inurba_marseille","lat":43.2512,"lon":5.40314,"is_reserved":false,"is_disabled":false,"rental_uris":{"android":"levelo://app?vid=f992bac4-0027-4789-89d9-9ef45421fe15","ios":"levelo://app?vid=f992bac4-0027-4789-89d9-9ef45421fe15"},"vehicle_type_id":"4","last_reported":1753290804,"current_range_meters":9600,"station_id":"ce4bhlh2rcd13ifvqgig","pricing_plan_id":"cebpf4jnsgd1na2vs0mg"},{"bike_id":"c4603661-acb1-4cdd-b34f-4a8d599b00ac","system_id":"levelo_inurba_marseille","lat":43.22932,"lon":5.3537,"is_reserved":false,"is_disabled":false,"rental_uris":{"android":"levelo://app?vid=c4603661-acb1-4cdd-b34f-4a8d599b00ac","ios":"levelo://app?vid=c4603661-acb1-4cdd-b34f-4a8d599b00ac"},"vehicle_type_id":"4","last_reported":1753290804,"current_range_meters":10000,"station_id":"cpo3532slgdg3j2ikp40","pricing_plan_id":"cebpf4jnsgd1na2vs0mg"},{"bike_id":"baca8154-7e82-4bd8-a0cb-6a4d79f767f0","system_id":"levelo_inurba_marseille","lat":43.29058,"lon":5.3717,"is_reserved":false,"is_disabled":false,"rental_uris":{"android":"levelo://app?vid=baca8154-7e82-4bd8-a0cb-6a4d79f767f0","ios":"levelo://app?vid=baca8154-7e82-4bd8-a0cb-6a4d79f767f0"},"vehicle_type_id":"4","last_reported":1753290804,"current_range_meters":10000,"station_id":"ce4bgh92rcd13ifvqb40","pricing_plan_id":"cebpf4jnsgd1na2vs0mg"},{"bike_id":"4b4fe4dd-9e5e-4608-9342-8c9a4aaf5e16","system_id":"levelo_inurba_marseille","lat":43.30422,"lon":5.39741,"is_reserved":false,"is_disabled":false,"rental_uris":{"android":"levelo://app?vid=4b4fe4dd-9e5e-4608-9342-8c9a4aaf5e16","ios":"levelo://app?vid=4b4fe4dd-9e5e-4608-9342-8c9a4aaf5e16"},"vehicle_type_id":"4","last_reported":1753290804,"current_range_meters":10000,"station_id":"ce4bh092rcd13ifvqd20","pricing_plan_id":"cebpf4jnsgd1na2vs0mg"},{"bike_id":"b43e88a8-f987-49d6-a5e8-47e9a48de909","system_id":"levelo_inurba_marseille","lat":43.29499,"lon":5.38654,"is_reserved":false,"is_disabled":false,"rental_uris":{"android":"levelo://app?vid=b43e88a8-f987-49d6-a5e8-47e9a48de909","ios":"levelo://app?vid=b43e88a8-f987-49d6-a5e8-47e9a48de909"},"vehicle_type_id":"4","last_reported":1753290804,"current_range_meters":10800,"station_id":"ce4bgk12rcd13ifvqbj0","pricing_plan_id":"cebpf4jnsgd1na2vs0mg"},{"bike_id":"92327879-b070-4de4-98e9-e2c0a0618afb","system_id":"levelo_inurba_marseille","lat":43.30421,"lon":5.41274,"is_reserved":false,"is_disabled":false,"rental_uris":{"android":"levelo://app?vid=92327879-b070-4de4-98e9-e2c0a0618afb","ios":"levelo://app?vid=92327879-b070-4de4-98e9-e2c0a0618afb"},"vehicle_type_id":"4","last_reported":1753290804,"current_range_meters":10800,"station_id":"ce4bhop2rcd13ifvqh8g","pricing_plan_id":"cebpf4jnsgd1na2vs0mg"},{"bike_id":"585c58bb-a9a8-48c2-b0aa-f4f92d2a0bb1","system_id":"levelo_inurba_marseille","lat":43.30305,"lon":5.39213,"is_reserved":false,"is_disabled":false,"rental_uris":{"android":"levelo://app?vid=585c58bb-a9a8-48c2-b0aa-f4f92d2a0bb1","ios":"levelo://app?vid=585c58bb-a9a8-48c2-b0aa-f4f92d2a0bb1"},"vehicle_type_id":"4","last_reported":1753290804,"current_range_meters":10800,"station_id":"ce4bgkh2rcd13ifvqbk0","pricing_plan_id":"cebpf4jnsgd1na2vs0mg"},{"bike_id":"f2104320-fc33-4c2c-8c0d-c1304a66328b","system_id":"levelo_inurba_marseille","lat":43.31215,"lon":5.396154,"is_reserved":false,"is_disabled":false,"rental_uris":{"android":"levelo://app?vid=f2104320-fc33-4c2c-8c0d-c1304a66328b","ios":"levelo://app?vid=f2104320-fc33-4c2c-8c0d-c1304a66328b"},"vehicle_type_id":"4","last_reported":1753290804,"current_range_meters":10800,"station_id":"ce4bgvp2rcd13ifvqcu0","pricing_plan_id":"cebpf4jnsgd1na2vs0mg"},{"bike_id":"8840f639-7015-4fb1-87b7-2d2f8dbda102","system_id":"levelo_inurba_marseille","lat":43.30432,"lon":5.39747,"is_reserved":false,"is_disabled":false,"rental_uris":{"android":"levelo://app?vid=8840f639-7015-4fb1-87b7-2d2f8dbda102","ios":"levelo://app?vid=8840f639-7015-4fb1-87b7-2d2f8dbda102"},"vehicle_type_id":"4","last_reported":1753290804,"current_range_meters":10800,"station_id":"ce4bh092rcd13ifvqd20","pricing_plan_id":"cebpf4jnsgd1na2vs0mg"},{"bike_id":"2da13ae6-8774-42be-8b44-4fc9f0fe9aac","system_id":"levelo_inurba_marseille","lat":43.30739,"lon":5.42447,"is_reserved":false,"is_disabled":false,"rental_uris":{"android":"levelo://app?vid=2da13ae6-8774-42be-8b44-4fc9f0fe9aac","ios":"levelo://app?vid=2da13ae6-8774-42be-8b44-4fc9f0fe9aac"},"vehicle_type_id":"4","last_reported":1753290804,"current_range_meters":11200,"station_id":"st_cvj6ca6bvosntc0bfgr0","pricing_plan_id":"cebpf4jnsgd1na2vs0mg"},{"bike_id":"24b70b12-17bd-4d2c-972e-08608798dd01","system_id":"levelo_inurba_marseille","lat":43.3013,"lon":5.38778,"is_reserved":false,"is_disabled":false,"rental_uris":{"android":"levelo://app?vid=24b70b12-17bd-4d2c-972e-08608798dd01","ios":"levelo://app?vid=24b70b12-17bd-4d2c-972e-08608798dd01"},"vehicle_type_id":"4","last_reported":1753290804,"current_range_meters":11200,"station_id":"ce4bghh2rcd13ifvqb60","pricing_plan_id":"cebpf4jnsgd1na2vs0mg"},{"bike_id":"c3b4c842-89f1-49ff-abb9-fc4b30df4519","system_id":"levelo_inurba_marseille","lat":43.25583,"lon":5.38209,"is_reserved":false,"is_disabled":false,"rental_uris":{"android":"levelo://app?vid=c3b4c842-89f1-49ff-abb9-fc4b30df4519","ios":"levelo://app?vid=c3b4c842-89f1-49ff-abb9-fc4b30df4519"},"vehicle_type_id":"4","last_reported":1753290804,"current_range_meters":11200,"station_id":"ce4bhih2rcd13ifvqfs0","pricing_plan_id":"cebpf4jnsgd1na2vs0mg"},{"bike_id":"476b0911-1973-4ec3-9fc8-9abf006b38b5","system_id":"levelo_inurba_marseille","lat":43.29462,"lon":5.39745,"is_reserved":false,"is_disabled":false,"rental_uris":{"android":"levelo://app?vid=476b0911-1973-4ec3-9fc8-9abf006b38b5","ios":"levelo://app?vid=476b0911-1973-4ec3-9fc8-9abf006b38b5"},"vehicle_type_id":"4","last_reported":1753290804,"current_range_meters":11200,"station_id":"ce4bh3h2rcd13ifvqdo0","pricing_plan_id":"cebpf4jnsgd1na2vs0mg"},{"bike_id":"55b8f44e-0041-42f4-95f9-27ed9d1d4c5d","system_id":"levelo_inurba_marseille","lat":43.31117,"lon":5.37774,"is_reserved":false,"is_disabled":false,"rental_uris":{"android":"levelo://app?vid=55b8f44e-0041-42f4-95f9-27ed9d1d4c5d","ios":"levelo://app?vid=55b8f44e-0041-42f4-95f9-27ed9d1d4c5d"},"vehicle_type_id":"4","last_reported":1753290804,"current_range_meters":10800,"station_id":"ce4bgt92rcd13ifvqcg0","pricing_plan_id":"cebpf4jnsgd1na2vs0mg"},{"bike_id":"a1f5ffeb-e657-4c61-bc08-d64d828bedce","system_id":"levelo_inurba_marseille","lat":43.25872,"lon":5.39896,"is_reserved":false,"is_disabled":false,"rental_uris":{"android":"levelo://app?vid=a1f5ffeb-e657-4c61-bc08-d64d828bedce","ios":"levelo://app?vid=a1f5ffeb-e657-4c61-bc08-d64d828bedce"},"vehicle_type_id":"4","last_reported":1753290804,"current_range_meters":11600,"station_id":"ce4bhl92rcd13ifvqghg","pricing_plan_id":"cebpf4jnsgd1na2vs0mg"},{"bike_id":"aa0e8290-9c02-445d-90b1-c18723a44c21","system_id":"levelo_inurba_marseille","lat":43.29636,"lon":5.40668,"is_reserved":false,"is_disabled":false,"rental_uris":{"android":"levelo://app?vid=aa0e8290-9c02-445d-90b1-c18723a44c21","ios":"levelo://app?vid=aa0e8290-9c02-445d-90b1-c18723a44c21"},"vehicle_type_id":"4","last_reported":1753290804,"current_range_meters":11600,"station_id":"ce4bh0h2rcd13ifvqd60","pricing_plan_id":"cebpf4jnsgd1na2vs0mg"},{"bike_id":"77d276c4-073b-43d0-9c45-418693f1b7e0","system_id":"levelo_inurba_marseille","lat":43.29926,"lon":5.36526,"is_reserved":false,"is_disabled":false,"rental_uris":{"android":"levelo://app?vid=77d276c4-073b-43d0-9c45-418693f1b7e0","ios":"levelo://app?vid=77d276c4-073b-43d0-9c45-418693f1b7e0"},"vehicle_type_id":"4","last_reported":1753290804,"current_range_meters":11600,"station_id":"ce4bgm92rcd13ifvqbr0","pricing_plan_id":"cebpf4jnsgd1na2vs0mg"},{"bike_id":"f9062784-0417-4840-bb15-81c56a64826f","system_id":"levelo_inurba_marseille","lat":43.22504,"lon":5.3478,"is_reserved":false,"is_disabled":false,"rental_uris":{"android":"levelo://app?vid=f9062784-0417-4840-bb15-81c56a64826f","ios":"levelo://app?vid=f9062784-0417-4840-bb15-81c56a64826f"},"vehicle_type_id":"4","last_reported":1753290804,"current_range_meters":11600,"station_id":"","pricing_plan_id":"cebpf4jnsgd1na2vs0mg"},{"bike_id":"4f4f81f1-cbbd-431c-b831-1e9d34b51205","system_id":"levelo_inurba_marseille","lat":43.29641,"lon":5.3715,"is_reserved":false,"is_disabled":false,"rental_uris":{"android":"levelo://app?vid=4f4f81f1-cbbd-431c-b831-1e9d34b51205","ios":"levelo://app?vid=4f4f81f1-cbbd-431c-b831-1e9d34b51205"},"vehicle_type_id":"4","last_reported":1753290804,"current_range_meters":11600,"station_id":"ce4bgnh2rcd13ifvqc0g","pricing_plan_id":"cebpf4jnsgd1na2vs0mg"},{"bike_id":"a684465f-73af-453c-9923-b66b864b77c5","system_id":"levelo_inurba_marseille","lat":43.29636,"lon":5.40598,"is_reserved":false,"is_disabled":false,"rental_uris":{"android":"levelo://app?vid=a684465f-73af-453c-9923-b66b864b77c5","ios":"levelo://app?vid=a684465f-73af-453c-9923-b66b864b77c5"},"vehicle_type_id":"4","last_reported":1753290804,"current_range_meters":11600,"station_id":"ce4bh0h2rcd13ifvqd60","pricing_plan_id":"cebpf4jnsgd1na2vs0mg"},{"bike_id":"7d71566b-c0ac-4012-8c0f-c905406eaeaf","system_id":"levelo_inurba_marseille","lat":43.29303,"lon":5.37452,"is_reserved":false,"is_disabled":false,"rental_uris":{"android":"levelo://app?vid=7d71566b-c0ac-4012-8c0f-c905406eaeaf","ios":"levelo://app?vid=7d71566b-c0ac-4012-8c0f-c905406eaeaf"},"vehicle_type_id":"4","last_reported":1753290804,"current_range_meters":12800,"station_id":"ce4bgi12rcd13ifvqb70","pricing_plan_id":"cebpf4jnsgd1na2vs0mg"},{"bike_id":"040db66b-f86b-4ab3-b73a-1afacf84668d","system_id":"levelo_inurba_marseille","lat":43.28095,"lon":5.37854,"is_reserved":false,"is_disabled":false,"rental_uris":{"android":"levelo://app?vid=040db66b-f86b-4ab3-b73a-1afacf84668d","ios":"levelo://app?vid=040db66b-f86b-4ab3-b73a-1afacf84668d"},"vehicle_type_id":"4","last_reported":1753290804,"current_range_meters":11600,"station_id":"ce4bha12rcd13ifvqee0","pricing_plan_id":"cebpf4jnsgd1na2vs0mg"},{"bike_id":"e3661337-60ae-4d16-a9bd-587825e7bd56","system_id":"levelo_inurba_marseille","lat":43.31112,"lon":5.37766,"is_reserved":false,"is_disabled":false,"rental_uris":{"android":"levelo://app?vid=e3661337-60ae-4d16-a9bd-587825e7bd56","ios":"levelo://app?vid=e3661337-60ae-4d16-a9bd-587825e7bd56"},"vehicle_type_id":"4","last_reported":1753290804,"current_range_meters":11600,"station_id":"ce4bgt92rcd13ifvqcg0","pricing_plan_id":"cebpf4jnsgd1na2vs0mg"},{"bike_id":"1438b3a3-1640-437f-9bfb-d0a525dbe067","system_id":"levelo_inurba_marseille","lat":43.320446,"lon":5.415373,"is_reserved":false,"is_disabled":false,"rental_uris":{"android":"levelo://app?vid=1438b3a3-1640-437f-9bfb-d0a525dbe067","ios":"levelo://app?vid=1438b3a3-1640-437f-9bfb-d0a525dbe067"},"vehicle_type_id":"4","last_reported":1753290804,"current_range_meters":11600,"station_id":"ce4bhq92rcd13ifvqhkg","pricing_plan_id":"cebpf4jnsgd1na2vs0mg"},{"bike_id":"b74ac4f4-c1ec-4e84-bec5-190d1baf68e4","system_id":"levelo_inurba_marseille","lat":43.304291,"lon":5.397383,"is_reserved":false,"is_disabled":false,"rental_uris":{"android":"levelo://app?vid=b74ac4f4-c1ec-4e84-bec5-190d1baf68e4","ios":"levelo://app?vid=b74ac4f4-c1ec-4e84-bec5-190d1baf68e4"},"vehicle_type_id":"4","last_reported":1753290804,"current_range_meters":12000,"station_id":"ce4bh092rcd13ifvqd20","pricing_plan_id":"cebpf4jnsgd1na2vs0mg"},{"bike_id":"95c75a94-9961-4c45-9255-8f174a719848","system_id":"levelo_inurba_marseille","lat":43.292679,"lon":5.38434,"is_reserved":false,"is_disabled":false,"rental_uris":{"android":"levelo://app?vid=95c75a94-9961-4c45-9255-8f174a719848","ios":"levelo://app?vid=95c75a94-9961-4c45-9255-8f174a719848"},"vehicle_type_id":"4","last_reported":1753290804,"current_range_meters":12000,"station_id":"ce4bh692rcd13ifvqea0","pricing_plan_id":"cebpf4jnsgd1na2vs0mg"},{"bike_id":"ce875978-00a0-439e-8f5e-111c30c736e0","system_id":"levelo_inurba_marseille","lat":43.290294,"lon":5.386513,"is_reserved":false,"is_disabled":false,"rental_uris":{"android":"levelo://app?vid=ce875978-00a0-439e-8f5e-111c30c736e0","ios":"levelo://app?vid=ce875978-00a0-439e-8f5e-111c30c736e0"},"vehicle_type_id":"4","last_reported":1753290804,"current_range_meters":12000,"station_id":"ce4bh4p2rcd13ifvqe0g","pricing_plan_id":"cebpf4jnsgd1na2vs0mg"},{"bike_id":"a2167b42-5557-4a97-baf9-ceaa81af4e45","system_id":"levelo_inurba_marseille","lat":43.29619,"lon":5.37148,"is_reserved":false,"is_disabled":false,"rental_uris":{"android":"levelo://app?vid=a2167b42-5557-4a97-baf9-ceaa81af4e45","ios":"levelo://app?vid=a2167b42-5557-4a97-baf9-ceaa81af4e45"},"vehicle_type_id":"4","last_reported":1753290804,"current_range_meters":12000,"station_id":"ce4bgnh2rcd13ifvqc0g","pricing_plan_id":"cebpf4jnsgd1na2vs0mg"},{"bike_id":"c4ab8b6f-b9e7-4d47-91c0-82fcf9196b75","system_id":"levelo_inurba_marseille","lat":43.3024,"lon":5.40073,"is_reserved":false,"is_disabled":true,"rental_uris":{"android":"levelo://app?vid=c4ab8b6f-b9e7-4d47-91c0-82fcf9196b75","ios":"levelo://app?vid=c4ab8b6f-b9e7-4d47-91c0-82fcf9196b75"},"vehicle_type_id":"4","last_reported":1753290804,"current_range_meters":12000,"station_id":"ce4bgvh2rcd13ifvqcs0","pricing_plan_id":"cebpf4jnsgd1na2vs0mg"},{"bike_id":"c045ae57-ee9f-40b1-8190-5fee81cb5632","system_id":"levelo_inurba_marseille","lat":43.29266,"lon":5.3844,"is_reserved":false,"is_disabled":false,"rental_uris":{"android":"levelo://app?vid=c045ae57-ee9f-40b1-8190-5fee81cb5632","ios":"levelo://app?vid=c045ae57-ee9f-40b1-8190-5fee81cb5632"},"vehicle_type_id":"4","last_reported":1753290804,"current_range_meters":12000,"station_id":"ce4bh692rcd13ifvqea0","pricing_plan_id":"cebpf4jnsgd1na2vs0mg"},{"bike_id":"1eedde4a-43b2-4c9b-84d6-924e0504f20f","system_id":"levelo_inurba_marseille","lat":43.29019,"lon":5.38644,"is_reserved":false,"is_disabled":false,"rental_uris":{"android":"levelo://app?vid=1eedde4a-43b2-4c9b-84d6-924e0504f20f","ios":"levelo://app?vid=1eedde4a-43b2-4c9b-84d6-924e0504f20f"},"vehicle_type_id":"4","last_reported":1753290804,"current_range_meters":12000,"station_id":"ce4bh4p2rcd13ifvqe0g","pricing_plan_id":"cebpf4jnsgd1na2vs0mg"},{"bike_id":"5f510aec-82c6-454d-956c-835dadff7f42","system_id":"levelo_inurba_marseille","lat":43.3009,"lon":5.39075,"is_reserved":false,"is_disabled":false,"rental_uris":{"android":"levelo://app?vid=5f510aec-82c6-454d-956c-835dadff7f42","ios":"levelo://app?vid=5f510aec-82c6-454d-956c-835dadff7f42"},"vehicle_type_id":"4","last_reported":1753290804,"current_range_meters":12000,"station_id":"ce4bh192rcd13ifvqdb0","pricing_plan_id":"cebpf4jnsgd1na2vs0mg"},{"bike_id":"4162cd3f-5d1e-4515-8d8e-9236cb37fc18","system_id":"levelo_inurba_marseille","lat":43.27564,"lon":5.38417,"is_reserved":false,"is_disabled":false,"rental_uris":{"android":"levelo://app?vid=4162cd3f-5d1e-4515-8d8e-9236cb37fc18","ios":"levelo://app?vid=4162cd3f-5d1e-4515-8d8e-9236cb37fc18"},"vehicle_type_id":"4","last_reported":1753290804,"current_range_meters":12000,"station_id":"ce4bhh92rcd13ifvqfi0","pricing_plan_id":"cebpf4jnsgd1na2vs0mg"},{"bike_id":"072249e0-6b31-4d65-814c-3886177b7a41","system_id":"levelo_inurba_marseille","lat":43.31765,"lon":5.38999,"is_reserved":false,"is_disabled":false,"rental_uris":{"android":"levelo://app?vid=072249e0-6b31-4d65-814c-3886177b7a41","ios":"levelo://app?vid=072249e0-6b31-4d65-814c-3886177b7a41"},"vehicle_type_id":"4","last_reported":1753290804,"current_range_meters":12000,"station_id":"ce4bhqp2rcd13ifvqhng","pricing_plan_id":"cebpf4jnsgd1na2vs0mg"},{"bike_id":"cc926983-7496-48df-9677-b8723ddc96b9","system_id":"levelo_inurba_marseille","lat":43.22941,"lon":5.35378,"is_reserved":false,"is_disabled":false,"rental_uris":{"android":"levelo://app?vid=cc926983-7496-48df-9677-b8723ddc96b9","ios":"levelo://app?vid=cc926983-7496-48df-9677-b8723ddc96b9"},"vehicle_type_id":"4","last_reported":1753290804,"current_range_meters":12400,"station_id":"cpo3532slgdg3j2ikp40","pricing_plan_id":"cebpf4jnsgd1na2vs0mg"},{"bike_id":"a83393b5-7f2a-4631-9d31-43ae6ef4e195","system_id":"levelo_inurba_marseille","lat":43.29968,"lon":5.38494,"is_reserved":false,"is_disabled":false,"rental_uris":{"android":"levelo://app?vid=a83393b5-7f2a-4631-9d31-43ae6ef4e195","ios":"levelo://app?vid=a83393b5-7f2a-4631-9d31-43ae6ef4e195"},"vehicle_type_id":"4","last_reported":1753290804,"current_range_meters":12400,"station_id":"ce4bgj92rcd13ifvqbd0","pricing_plan_id":"cebpf4jnsgd1na2vs0mg"},{"bike_id":"11e65287-2e98-45e3-a461-7c76035c4fa2","system_id":"levelo_inurba_marseille","lat":43.28727,"lon":5.3609,"is_reserved":false,"is_disabled":false,"rental_uris":{"android":"levelo://app?vid=11e65287-2e98-45e3-a461-7c76035c4fa2","ios":"levelo://app?vid=11e65287-2e98-45e3-a461-7c76035c4fa2"},"vehicle_type_id":"4","last_reported":1753290804,"current_range_meters":12400,"station_id":"cki0cbj6b192h4jlfktg","pricing_plan_id":"cebpf4jnsgd1na2vs0mg"},{"bike_id":"db4f7d16-4447-4752-b9fa-314b60a317e8","system_id":"levelo_inurba_marseille","lat":43.29892,"lon":5.37914,"is_reserved":false,"is_disabled":false,"rental_uris":{"android":"levelo://app?vid=db4f7d16-4447-4752-b9fa-314b60a317e8","ios":"levelo://app?vid=db4f7d16-4447-4752-b9fa-314b60a317e8"},"vehicle_type_id":"4","last_reported":1753290804,"current_range_meters":12400,"station_id":"","pricing_plan_id":"cebpf4jnsgd1na2vs0mg"},{"bike_id":"d8d96eac-8597-4b19-9d87-66881fe438d9","system_id":"levelo_inurba_marseille","lat":43.25601,"lon":5.38213,"is_reserved":false,"is_disabled":false,"rental_uris":{"android":"levelo://app?vid=d8d96eac-8597-4b19-9d87-66881fe438d9","ios":"levelo://app?vid=d8d96eac-8597-4b19-9d87-66881fe438d9"},"vehicle_type_id":"4","last_reported":1753290804,"current_range_meters":12400,"station_id":"ce4bhih2rcd13ifvqfs0","pricing_plan_id":"cebpf4jnsgd1na2vs0mg"},{"bike_id":"bb1e0b24-cc3a-4971-8f25-d2b4937249a2","system_id":"levelo_inurba_marseille","lat":43.29523,"lon":5.39038,"is_reserved":false,"is_disabled":false,"rental_uris":{"android":"levelo://app?vid=bb1e0b24-cc3a-4971-8f25-d2b4937249a2","ios":"levelo://app?vid=bb1e0b24-cc3a-4971-8f25-d2b4937249a2"},"vehicle_type_id":"4","last_reported":1753290804,"current_range_meters":12400,"station_id":"ce4bh3p2rcd13ifvqdp0","pricing_plan_id":"cebpf4jnsgd1na2vs0mg"},{"bike_id":"6b8f8b24-6a29-4ea3-86c9-2a8a22cc757b","system_id":"levelo_inurba_marseille","lat":43.25587,"lon":5.38238,"is_reserved":false,"is_disabled":false,"rental_uris":{"android":"levelo://app?vid=6b8f8b24-6a29-4ea3-86c9-2a8a22cc757b","ios":"levelo://app?vid=6b8f8b24-6a29-4ea3-86c9-2a8a22cc757b"},"vehicle_type_id":"4","last_reported":1753290804,"current_range_meters":12400,"station_id":"ce4bhih2rcd13ifvqfs0","pricing_plan_id":"cebpf4jnsgd1na2vs0mg"},{"bike_id":"658bc35b-3cce-43c4-a7ba-18320ddc1bdc","system_id":"levelo_inurba_marseille","lat":43.29975,"lon":5.38488,"is_reserved":false,"is_disabled":false,"rental_uris":{"android":"levelo://app?vid=658bc35b-3cce-43c4-a7ba-18320ddc1bdc","ios":"levelo://app?vid=658bc35b-3cce-43c4-a7ba-18320ddc1bdc"},"vehicle_type_id":"4","last_reported":1753290804,"current_range_meters":12400,"station_id":"ce4bgj92rcd13ifvqbd0","pricing_plan_id":"cebpf4jnsgd1na2vs0mg"},{"bike_id":"5ea636b6-7db1-45f7-ab7b-2f73f0e49681","system_id":"levelo_inurba_marseille","lat":43.21192,"lon":5.35074,"is_reserved":false,"is_disabled":false,"rental_uris":{"android":"levelo://app?vid=5ea636b6-7db1-45f7-ab7b-2f73f0e49681","ios":"levelo://app?vid=5ea636b6-7db1-45f7-ab7b-2f73f0e49681"},"vehicle_type_id":"4","last_reported":1753290804,"current_range_meters":12400,"station_id":"st_cvj6sg6p6f1abm77japg","pricing_plan_id":"cebpf4jnsgd1na2vs0mg"},{"bike_id":"f6f45b5d-d7d8-4f78-9ced-feece8d621d6","system_id":"levelo_inurba_marseille","lat":43.29166,"lon":5.37159,"is_reserved":false,"is_disabled":false,"rental_uris":{"android":"levelo://app?vid=f6f45b5d-d7d8-4f78-9ced-feece8d621d6","ios":"levelo://app?vid=f6f45b5d-d7d8-4f78-9ced-feece8d621d6"},"vehicle_type_id":"4","last_reported":1753290804,"current_range_meters":12800,"station_id":"ce4bha92rcd13ifvqeh0","pricing_plan_id":"cebpf4jnsgd1na2vs0mg"},{"bike_id":"26d3f15a-d77e-4212-b8d8-1eda0c96d54e","system_id":"levelo_inurba_marseille","lat":43.30206,"lon":5.39456,"is_reserved":false,"is_disabled":false,"rental_uris":{"android":"levelo://app?vid=26d3f15a-d77e-4212-b8d8-1eda0c96d54e","ios":"levelo://app?vid=26d3f15a-d77e-4212-b8d8-1eda0c96d54e"},"vehicle_type_id":"4","last_reported":1753290804,"current_range_meters":12800,"station_id":"ce4bh0p2rcd13ifvqd70","pricing_plan_id":"cebpf4jnsgd1na2vs0mg"},{"bike_id":"f72126d3-64e3-4672-9e05-33bedf88042a","system_id":"levelo_inurba_marseille","lat":43.29533,"lon":5.39036,"is_reserved":false,"is_disabled":false,"rental_uris":{"android":"levelo://app?vid=f72126d3-64e3-4672-9e05-33bedf88042a","ios":"levelo://app?vid=f72126d3-64e3-4672-9e05-33bedf88042a"},"vehicle_type_id":"4","last_reported":1753290804,"current_range_meters":12800,"station_id":"ce4bh3p2rcd13ifvqdp0","pricing_plan_id":"cebpf4jnsgd1na2vs0mg"},{"bike_id":"bc08bb8d-47a4-4c39-a921-7efc5981175a","system_id":"levelo_inurba_marseille","lat":43.27496,"lon":5.42451,"is_reserved":false,"is_disabled":false,"rental_uris":{"android":"levelo://app?vid=bc08bb8d-47a4-4c39-a921-7efc5981175a","ios":"levelo://app?vid=bc08bb8d-47a4-4c39-a921-7efc5981175a"},"vehicle_type_id":"4","last_reported":1753290804,"current_range_meters":12800,"station_id":"ce4bhn92rcd13ifvqgrg","pricing_plan_id":"cebpf4jnsgd1na2vs0mg"},{"bike_id":"bbc2b271-396f-4875-9f1d-0fcc163d87b6","system_id":"levelo_inurba_marseille","lat":43.2909,"lon":5.39881,"is_reserved":false,"is_disabled":false,"rental_uris":{"android":"levelo://app?vid=bbc2b271-396f-4875-9f1d-0fcc163d87b6","ios":"levelo://app?vid=bbc2b271-396f-4875-9f1d-0fcc163d87b6"},"vehicle_type_id":"4","last_reported":1753290804,"current_range_meters":13600,"station_id":"","pricing_plan_id":"cebpf4jnsgd1na2vs0mg"},{"bike_id":"3cd75047-aa00-4aaf-aea9-8cc2ab40feec","system_id":"levelo_inurba_marseille","lat":43.29032,"lon":5.38643,"is_reserved":false,"is_disabled":false,"rental_uris":{"android":"levelo://app?vid=3cd75047-aa00-4aaf-aea9-8cc2ab40feec","ios":"levelo://app?vid=3cd75047-aa00-4aaf-aea9-8cc2ab40feec"},"vehicle_type_id":"4","last_reported":1753290804,"current_range_meters":13600,"station_id":"ce4bh4p2rcd13ifvqe0g","pricing_plan_id":"cebpf4jnsgd1na2vs0mg"},{"bike_id":"85e2d4af-84d1-4ddd-9a62-16455e3f4479","system_id":"levelo_inurba_marseille","lat":43.27559,"lon":5.38403,"is_reserved":false,"is_disabled":false,"rental_uris":{"android":"levelo://app?vid=85e2d4af-84d1-4ddd-9a62-16455e3f4479","ios":"levelo://app?vid=85e2d4af-84d1-4ddd-9a62-16455e3f4479"},"vehicle_type_id":"4","last_reported":1753290804,"current_range_meters":13600,"station_id":"ce4bhh92rcd13ifvqfi0","pricing_plan_id":"cebpf4jnsgd1na2vs0mg"},{"bike_id":"a55b0110-48c5-4f1c-bf3b-4e5329bfd385","system_id":"levelo_inurba_marseille","lat":43.29529,"lon":5.38565,"is_reserved":false,"is_disabled":false,"rental_uris":{"android":"levelo://app?vid=a55b0110-48c5-4f1c-bf3b-4e5329bfd385","ios":"levelo://app?vid=a55b0110-48c5-4f1c-bf3b-4e5329bfd385"},"vehicle_type_id":"4","last_reported":1753290804,"current_range_meters":13600,"station_id":"ce4bgih2rcd13ifvqba0","pricing_plan_id":"cebpf4jnsgd1na2vs0mg"},{"bike_id":"de63d755-de3c-4c15-83c0-8d820fe1e544","system_id":"levelo_inurba_marseille","lat":43.24167,"lon":5.36391,"is_reserved":false,"is_disabled":false,"rental_uris":{"android":"levelo://app?vid=de63d755-de3c-4c15-83c0-8d820fe1e544","ios":"levelo://app?vid=de63d755-de3c-4c15-83c0-8d820fe1e544"},"vehicle_type_id":"4","last_reported":1753290804,"current_range_meters":13600,"station_id":"cpo36qri1sfpv3e86is0","pricing_plan_id":"cebpf4jnsgd1na2vs0mg"},{"bike_id":"396dbd6b-bd12-4fba-a413-85741f08daa2","system_id":"levelo_inurba_marseille","lat":43.23067,"lon":5.35489,"is_reserved":false,"is_disabled":false,"rental_uris":{"android":"levelo://app?vid=396dbd6b-bd12-4fba-a413-85741f08daa2","ios":"levelo://app?vid=396dbd6b-bd12-4fba-a413-85741f08daa2"},"vehicle_type_id":"4","last_reported":1753290804,"current_range_meters":13600,"station_id":"cpo3342slgdg3j2ifvpg","pricing_plan_id":"cebpf4jnsgd1na2vs0mg"},{"bike_id":"7729e778-4374-4049-b452-b59ab34aa6a0","system_id":"levelo_inurba_marseille","lat":43.31363,"lon":5.38482,"is_reserved":false,"is_disabled":false,"rental_uris":{"android":"levelo://app?vid=7729e778-4374-4049-b452-b59ab34aa6a0","ios":"levelo://app?vid=7729e778-4374-4049-b452-b59ab34aa6a0"},"vehicle_type_id":"4","last_reported":1753290804,"current_range_meters":14000,"station_id":"ce4bgt92rcd13ifvqcf0","pricing_plan_id":"cebpf4jnsgd1na2vs0mg"},{"bike_id":"31751b1d-7c8b-4b46-b364-69fc7e857342","system_id":"levelo_inurba_marseille","lat":43.28459,"lon":5.35889,"is_reserved":false,"is_disabled":false,"rental_uris":{"android":"levelo://app?vid=31751b1d-7c8b-4b46-b364-69fc7e857342","ios":"levelo://app?vid=31751b1d-7c8b-4b46-b364-69fc7e857342"},"vehicle_type_id":"4","last_reported":1753290804,"current_range_meters":14000,"station_id":"ce4bhah2rcd13ifvqei0","pricing_plan_id":"cebpf4jnsgd1na2vs0mg"},{"bike_id":"e5547459-05ca-478c-8259-ee1c4d55abc6","system_id":"levelo_inurba_marseille","lat":43.29227,"lon":5.36051,"is_reserved":false,"is_disabled":false,"rental_uris":{"android":"levelo://app?vid=e5547459-05ca-478c-8259-ee1c4d55abc6","ios":"levelo://app?vid=e5547459-05ca-478c-8259-ee1c4d55abc6"},"vehicle_type_id":"4","last_reported":1753290804,"current_range_meters":14000,"station_id":"ce4bhbh2rcd13ifvqeqg","pricing_plan_id":"cebpf4jnsgd1na2vs0mg"},{"bike_id":"3c8c8450-a767-4a89-b895-39c7e1d469a3","system_id":"levelo_inurba_marseille","lat":43.255,"lon":5.37653,"is_reserved":false,"is_disabled":false,"rental_uris":{"android":"levelo://app?vid=3c8c8450-a767-4a89-b895-39c7e1d469a3","ios":"levelo://app?vid=3c8c8450-a767-4a89-b895-39c7e1d469a3"},"vehicle_type_id":"4","last_reported":1753290804,"current_range_meters":14000,"station_id":"ce4bhh12rcd13ifvqff0","pricing_plan_id":"cebpf4jnsgd1na2vs0mg"},{"bike_id":"b18cc7c1-67b1-4639-8eb6-d4af1687a907","system_id":"levelo_inurba_marseille","lat":43.28857,"lon":5.35845,"is_reserved":false,"is_disabled":false,"rental_uris":{"android":"levelo://app?vid=b18cc7c1-67b1-4639-8eb6-d4af1687a907","ios":"levelo://app?vid=b18cc7c1-67b1-4639-8eb6-d4af1687a907"},"vehicle_type_id":"4","last_reported":1753290804,"current_range_meters":14400,"station_id":"ce4bhb12rcd13ifvqem0","pricing_plan_id":"cebpf4jnsgd1na2vs0mg"},{"bike_id":"5055da19-6222-4cdb-82d5-4be88f0cc834","system_id":"levelo_inurba_marseille","lat":43.29554,"lon":5.38571,"is_reserved":false,"is_disabled":false,"rental_uris":{"android":"levelo://app?vid=5055da19-6222-4cdb-82d5-4be88f0cc834","ios":"levelo://app?vid=5055da19-6222-4cdb-82d5-4be88f0cc834"},"vehicle_type_id":"4","last_reported":1753290804,"current_range_meters":14400,"station_id":"ce4bgih2rcd13ifvqba0","pricing_plan_id":"cebpf4jnsgd1na2vs0mg"},{"bike_id":"f90269e4-d95c-44ce-90d2-832cf830519f","system_id":"levelo_inurba_marseille","lat":43.29585,"lon":5.36743,"is_reserved":false,"is_disabled":false,"rental_uris":{"android":"levelo://app?vid=f90269e4-d95c-44ce-90d2-832cf830519f","ios":"levelo://app?vid=f90269e4-d95c-44ce-90d2-832cf830519f"},"vehicle_type_id":"4","last_reported":1753290804,"current_range_meters":14000,"station_id":"ce4bgph2rcd13ifvqc2g","pricing_plan_id":"cebpf4jnsgd1na2vs0mg"},{"bike_id":"fec3b07e-037a-4fea-a191-679ee2b99950","system_id":"levelo_inurba_marseille","lat":43.241633,"lon":5.363847,"is_reserved":false,"is_disabled":false,"rental_uris":{"android":"levelo://app?vid=fec3b07e-037a-4fea-a191-679ee2b99950","ios":"levelo://app?vid=fec3b07e-037a-4fea-a191-679ee2b99950"},"vehicle_type_id":"4","last_reported":1753290804,"current_range_meters":14400,"station_id":"cpo36qri1sfpv3e86is0","pricing_plan_id":"cebpf4jnsgd1na2vs0mg"},{"bike_id":"cf90de17-38b0-4d11-8694-8a0daa86be80","system_id":"levelo_inurba_marseille","lat":43.29436,"lon":5.39751,"is_reserved":false,"is_disabled":false,"rental_uris":{"android":"levelo://app?vid=cf90de17-38b0-4d11-8694-8a0daa86be80","ios":"levelo://app?vid=cf90de17-38b0-4d11-8694-8a0daa86be80"},"vehicle_type_id":"4","last_reported":1753290804,"current_range_meters":14400,"station_id":"ce4bh3h2rcd13ifvqdo0","pricing_plan_id":"cebpf4jnsgd1na2vs0mg"},{"bike_id":"541e3f7a-640b-4d8c-977d-949ca2a087ab","system_id":"levelo_inurba_marseille","lat":43.30796,"lon":5.379577,"is_reserved":false,"is_disabled":true,"rental_uris":{"android":"levelo://app?vid=541e3f7a-640b-4d8c-977d-949ca2a087ab","ios":"levelo://app?vid=541e3f7a-640b-4d8c-977d-949ca2a087ab"},"vehicle_type_id":"4","last_reported":1753290804,"current_range_meters":14400,"station_id":"ce4bgt12rcd13ifvqce0","pricing_plan_id":"cebpf4jnsgd1na2vs0mg"},{"bike_id":"7edced45-49e1-4abd-8579-b92aeda4ad2d","system_id":"levelo_inurba_marseille","lat":43.29875,"lon":5.39722,"is_reserved":false,"is_disabled":false,"rental_uris":{"android":"levelo://app?vid=7edced45-49e1-4abd-8579-b92aeda4ad2d","ios":"levelo://app?vid=7edced45-49e1-4abd-8579-b92aeda4ad2d"},"vehicle_type_id":"4","last_reported":1753290804,"current_range_meters":14000,"station_id":"ce4bh0h2rcd13ifvqd50","pricing_plan_id":"cebpf4jnsgd1na2vs0mg"},{"bike_id":"79f12e20-c8ae-4769-bb3d-e7445dfa339a","system_id":"levelo_inurba_marseille","lat":43.29875,"lon":5.39726,"is_reserved":false,"is_disabled":false,"rental_uris":{"android":"levelo://app?vid=79f12e20-c8ae-4769-bb3d-e7445dfa339a","ios":"levelo://app?vid=79f12e20-c8ae-4769-bb3d-e7445dfa339a"},"vehicle_type_id":"4","last_reported":1753290804,"current_range_meters":14400,"station_id":"ce4bh0h2rcd13ifvqd50","pricing_plan_id":"cebpf4jnsgd1na2vs0mg"},{"bike_id":"6ba8bf23-faf4-4e7f-a0da-6f0984da5df1","system_id":"levelo_inurba_marseille","lat":43.262112,"lon":5.374455,"is_reserved":false,"is_disabled":false,"rental_uris":{"android":"levelo://app?vid=6ba8bf23-faf4-4e7f-a0da-6f0984da5df1","ios":"levelo://app?vid=6ba8bf23-faf4-4e7f-a0da-6f0984da5df1"},"vehicle_type_id":"4","last_reported":1753290804,"current_range_meters":14400,"station_id":"ce4bhgp2rcd13ifvqfc0","pricing_plan_id":"cebpf4jnsgd1na2vs0mg"},{"bike_id":"b192f648-cd38-44be-8d4d-724542581c59","system_id":"levelo_inurba_marseille","lat":43.28443,"lon":5.39192,"is_reserved":false,"is_disabled":false,"rental_uris":{"android":"levelo://app?vid=b192f648-cd38-44be-8d4d-724542581c59","ios":"levelo://app?vid=b192f648-cd38-44be-8d4d-724542581c59"},"vehicle_type_id":"4","last_reported":1753290804,"current_range_meters":14800,"station_id":"ce4bhoh2rcd13ifvqh5g","pricing_plan_id":"cebpf4jnsgd1na2vs0mg"},{"bike_id":"f9c9ff83-8548-4acb-a33b-495af4adeef4","system_id":"levelo_inurba_marseille","lat":43.32329,"lon":5.36749,"is_reserved":false,"is_disabled":false,"rental_uris":{"android":"levelo://app?vid=f9c9ff83-8548-4acb-a33b-495af4adeef4","ios":"levelo://app?vid=f9c9ff83-8548-4acb-a33b-495af4adeef4"},"vehicle_type_id":"4","last_reported":1753290804,"current_range_meters":14800,"station_id":"ce4bhsh2rcd13ifvqi2g","pricing_plan_id":"cebpf4jnsgd1na2vs0mg"},{"bike_id":"8ebe434f-5d79-4aab-96e5-a8436d434fd7","system_id":"levelo_inurba_marseille","lat":43.32356,"lon":5.40627,"is_reserved":false,"is_disabled":false,"rental_uris":{"android":"levelo://app?vid=8ebe434f-5d79-4aab-96e5-a8436d434fd7","ios":"levelo://app?vid=8ebe434f-5d79-4aab-96e5-a8436d434fd7"},"vehicle_type_id":"4","last_reported":1753290804,"current_range_meters":14800,"station_id":"ce4bhq92rcd13ifvqhjg","pricing_plan_id":"cebpf4jnsgd1na2vs0mg"},{"bike_id":"2075ab8d-ffc1-4c04-9792-d8baa392b59c","system_id":"levelo_inurba_marseille","lat":43.29952,"lon":5.413152,"is_reserved":false,"is_disabled":false,"rental_uris":{"android":"levelo://app?vid=2075ab8d-ffc1-4c04-9792-d8baa392b59c","ios":"levelo://app?vid=2075ab8d-ffc1-4c04-9792-d8baa392b59c"},"vehicle_type_id":"4","last_reported":1753290804,"current_range_meters":14800,"station_id":"ce4bhp12rcd13ifvqh9g","pricing_plan_id":"cebpf4jnsgd1na2vs0mg"},{"bike_id":"f3217e35-0bb5-43ab-beb0-dd5e233a7114","system_id":"levelo_inurba_marseille","lat":43.25596,"lon":5.38222,"is_reserved":false,"is_disabled":false,"rental_uris":{"android":"levelo://app?vid=f3217e35-0bb5-43ab-beb0-dd5e233a7114","ios":"levelo://app?vid=f3217e35-0bb5-43ab-beb0-dd5e233a7114"},"vehicle_type_id":"4","last_reported":1753290804,"current_range_meters":15200,"station_id":"ce4bhih2rcd13ifvqfs0","pricing_plan_id":"cebpf4jnsgd1na2vs0mg"},{"bike_id":"386dc8d1-a96c-4c96-9dd6-8106d2a92127","system_id":"levelo_inurba_marseille","lat":43.24169,"lon":5.39722,"is_reserved":false,"is_disabled":false,"rental_uris":{"android":"levelo://app?vid=386dc8d1-a96c-4c96-9dd6-8106d2a92127","ios":"levelo://app?vid=386dc8d1-a96c-4c96-9dd6-8106d2a92127"},"vehicle_type_id":"4","last_reported":1753290804,"current_range_meters":15200,"station_id":"ce4bhn12rcd13ifvqgpg","pricing_plan_id":"cebpf4jnsgd1na2vs0mg"},{"bike_id":"b5ce8d93-17c0-45a5-b2b1-eefce45c2d79","system_id":"levelo_inurba_marseille","lat":43.31821,"lon":5.43524,"is_reserved":false,"is_disabled":false,"rental_uris":{"android":"levelo://app?vid=b5ce8d93-17c0-45a5-b2b1-eefce45c2d79","ios":"levelo://app?vid=b5ce8d93-17c0-45a5-b2b1-eefce45c2d79"},"vehicle_type_id":"4","last_reported":1753290804,"current_range_meters":15200,"station_id":"","pricing_plan_id":"cebpf4jnsgd1na2vs0mg"},{"bike_id":"a0de01aa-cd68-4a4d-8bab-65fa167b8610","system_id":"levelo_inurba_marseille","lat":43.2319,"lon":5.35548,"is_reserved":false,"is_disabled":false,"rental_uris":{"android":"levelo://app?vid=a0de01aa-cd68-4a4d-8bab-65fa167b8610","ios":"levelo://app?vid=a0de01aa-cd68-4a4d-8bab-65fa167b8610"},"vehicle_type_id":"4","last_reported":1753290804,"current_range_meters":15200,"station_id":"ce4bhu92rcd13ifvqi70","pricing_plan_id":"cebpf4jnsgd1na2vs0mg"},{"bike_id":"05d5c66f-02bb-4064-a6c8-71cb8639f525","system_id":"levelo_inurba_marseille","lat":43.3032,"lon":5.4043,"is_reserved":false,"is_disabled":false,"rental_uris":{"android":"levelo://app?vid=05d5c66f-02bb-4064-a6c8-71cb8639f525","ios":"levelo://app?vid=05d5c66f-02bb-4064-a6c8-71cb8639f525"},"vehicle_type_id":"4","last_reported":1753290804,"current_range_meters":15200,"station_id":"ce4bh012rcd13ifvqd10","pricing_plan_id":"cebpf4jnsgd1na2vs0mg"},{"bike_id":"5473d201-cf71-459c-8ad8-f1f9dee1095f","system_id":"levelo_inurba_marseille","lat":43.28447,"lon":5.39203,"is_reserved":false,"is_disabled":false,"rental_uris":{"android":"levelo://app?vid=5473d201-cf71-459c-8ad8-f1f9dee1095f","ios":"levelo://app?vid=5473d201-cf71-459c-8ad8-f1f9dee1095f"},"vehicle_type_id":"4","last_reported":1753290804,"current_range_meters":15200,"station_id":"ce4bhoh2rcd13ifvqh5g","pricing_plan_id":"cebpf4jnsgd1na2vs0mg"},{"bike_id":"a3640f8d-e562-4f12-8803-79ea76a806b7","system_id":"levelo_inurba_marseille","lat":43.26548,"lon":5.3726,"is_reserved":false,"is_disabled":false,"rental_uris":{"android":"levelo://app?vid=a3640f8d-e562-4f12-8803-79ea76a806b7","ios":"levelo://app?vid=a3640f8d-e562-4f12-8803-79ea76a806b7"},"vehicle_type_id":"4","last_reported":1753290804,"current_range_meters":15200,"station_id":"ce4bhg12rcd13ifvqf70","pricing_plan_id":"cebpf4jnsgd1na2vs0mg"},{"bike_id":"f8232130-db52-4ff5-b354-f78033a04c00","system_id":"levelo_inurba_marseille","lat":43.27961,"lon":5.410348,"is_reserved":false,"is_disabled":false,"rental_uris":{"android":"levelo://app?vid=f8232130-db52-4ff5-b354-f78033a04c00","ios":"levelo://app?vid=f8232130-db52-4ff5-b354-f78033a04c00"},"vehicle_type_id":"4","last_reported":1753290804,"current_range_meters":15200,"station_id":"ce4bhnp2rcd13ifvqh0g","pricing_plan_id":"cebpf4jnsgd1na2vs0mg"},{"bike_id":"9ce312f1-cb07-4159-91d6-c11a68a5ee71","system_id":"levelo_inurba_marseille","lat":43.21194,"lon":5.35086,"is_reserved":false,"is_disabled":false,"rental_uris":{"android":"levelo://app?vid=9ce312f1-cb07-4159-91d6-c11a68a5ee71","ios":"levelo://app?vid=9ce312f1-cb07-4159-91d6-c11a68a5ee71"},"vehicle_type_id":"4","last_reported":1753290804,"current_range_meters":15200,"station_id":"st_cvj6sg6p6f1abm77japg","pricing_plan_id":"cebpf4jnsgd1na2vs0mg"},{"bike_id":"654e789b-b71d-4a56-8e8c-bd2ae14d13fb","system_id":"levelo_inurba_marseille","lat":43.3372,"lon":5.3919,"is_reserved":false,"is_disabled":false,"rental_uris":{"android":"levelo://app?vid=654e789b-b71d-4a56-8e8c-bd2ae14d13fb","ios":"levelo://app?vid=654e789b-b71d-4a56-8e8c-bd2ae14d13fb"},"vehicle_type_id":"4","last_reported":1753290804,"current_range_meters":15200,"station_id":"ce4bhr92rcd13ifvqhsg","pricing_plan_id":"cebpf4jnsgd1na2vs0mg"},{"bike_id":"d4e5dd79-2b52-4d97-8cab-d2aa23e54cd3","system_id":"levelo_inurba_marseille","lat":43.29269,"lon":5.38443,"is_reserved":false,"is_disabled":false,"rental_uris":{"android":"levelo://app?vid=d4e5dd79-2b52-4d97-8cab-d2aa23e54cd3","ios":"levelo://app?vid=d4e5dd79-2b52-4d97-8cab-d2aa23e54cd3"},"vehicle_type_id":"4","last_reported":1753290804,"current_range_meters":16000,"station_id":"ce4bh692rcd13ifvqea0","pricing_plan_id":"cebpf4jnsgd1na2vs0mg"},{"bike_id":"4146a86d-1ed4-4812-9a5e-6ae6a5cae5b1","system_id":"levelo_inurba_marseille","lat":43.28618,"lon":5.35092,"is_reserved":false,"is_disabled":false,"rental_uris":{"android":"levelo://app?vid=4146a86d-1ed4-4812-9a5e-6ae6a5cae5b1","ios":"levelo://app?vid=4146a86d-1ed4-4812-9a5e-6ae6a5cae5b1"},"vehicle_type_id":"4","last_reported":1753290804,"current_range_meters":16000,"station_id":"ce4bhch2rcd13ifvqeug","pricing_plan_id":"cebpf4jnsgd1na2vs0mg"},{"bike_id":"65c77045-327a-4565-8b22-9bf5f90b0a39","system_id":"levelo_inurba_marseille","lat":43.27503,"lon":5.42453,"is_reserved":false,"is_disabled":false,"rental_uris":{"android":"levelo://app?vid=65c77045-327a-4565-8b22-9bf5f90b0a39","ios":"levelo://app?vid=65c77045-327a-4565-8b22-9bf5f90b0a39"},"vehicle_type_id":"4","last_reported":1753290804,"current_range_meters":16000,"station_id":"ce4bhn92rcd13ifvqgrg","pricing_plan_id":"cebpf4jnsgd1na2vs0mg"},{"bike_id":"58694015-16d0-48b2-b43d-dabb7c04f577","system_id":"levelo_inurba_marseille","lat":43.300089,"lon":5.385687,"is_reserved":false,"is_disabled":false,"rental_uris":{"android":"levelo://app?vid=58694015-16d0-48b2-b43d-dabb7c04f577","ios":"levelo://app?vid=58694015-16d0-48b2-b43d-dabb7c04f577"},"vehicle_type_id":"4","last_reported":1753290804,"current_range_meters":16000,"station_id":"","pricing_plan_id":"cebpf4jnsgd1na2vs0mg"},{"bike_id":"98804c64-e3b0-4947-8587-4b11a17d86f2","system_id":"levelo_inurba_marseille","lat":43.296197,"lon":5.377105,"is_reserved":false,"is_disabled":false,"rental_uris":{"android":"levelo://app?vid=98804c64-e3b0-4947-8587-4b11a17d86f2","ios":"levelo://app?vid=98804c64-e3b0-4947-8587-4b11a17d86f2"},"vehicle_type_id":"4","last_reported":1753290804,"current_range_meters":16000,"station_id":"ce4bgi92rcd13ifvqb90","pricing_plan_id":"cebpf4jnsgd1na2vs0mg"},{"bike_id":"8006020a-6cfe-4131-82ca-a6c8f07671d2","system_id":"levelo_inurba_marseille","lat":43.31177,"lon":5.37707,"is_reserved":false,"is_disabled":false,"rental_uris":{"android":"levelo://app?vid=8006020a-6cfe-4131-82ca-a6c8f07671d2","ios":"levelo://app?vid=8006020a-6cfe-4131-82ca-a6c8f07671d2"},"vehicle_type_id":"4","last_reported":1753290804,"current_range_meters":16000,"station_id":"","pricing_plan_id":"cebpf4jnsgd1na2vs0mg"},{"bike_id":"bfdf5600-46d1-482d-a946-eee4a4ce428b","system_id":"levelo_inurba_marseille","lat":43.28849,"lon":5.35868,"is_reserved":false,"is_disabled":false,"rental_uris":{"android":"levelo://app?vid=bfdf5600-46d1-482d-a946-eee4a4ce428b","ios":"levelo://app?vid=bfdf5600-46d1-482d-a946-eee4a4ce428b"},"vehicle_type_id":"4","last_reported":1753290804,"current_range_meters":16000,"station_id":"ce4bhb12rcd13ifvqem0","pricing_plan_id":"cebpf4jnsgd1na2vs0mg"},{"bike_id":"503f8290-780f-49ea-861a-c66cf79f7b47","system_id":"levelo_inurba_marseille","lat":43.30228,"lon":5.39473,"is_reserved":false,"is_disabled":false,"rental_uris":{"android":"levelo://app?vid=503f8290-780f-49ea-861a-c66cf79f7b47","ios":"levelo://app?vid=503f8290-780f-49ea-861a-c66cf79f7b47"},"vehicle_type_id":"4","last_reported":1753290804,"current_range_meters":16000,"station_id":"ce4bh0p2rcd13ifvqd70","pricing_plan_id":"cebpf4jnsgd1na2vs0mg"},{"bike_id":"9febf9ea-55fd-4a36-a9ac-86b81dd9a3f5","system_id":"levelo_inurba_marseille","lat":43.295331,"lon":5.385369,"is_reserved":false,"is_disabled":false,"rental_uris":{"android":"levelo://app?vid=9febf9ea-55fd-4a36-a9ac-86b81dd9a3f5","ios":"levelo://app?vid=9febf9ea-55fd-4a36-a9ac-86b81dd9a3f5"},"vehicle_type_id":"4","last_reported":1753290804,"current_range_meters":16000,"station_id":"","pricing_plan_id":"cebpf4jnsgd1na2vs0mg"},{"bike_id":"83f868a2-5d8e-48ef-ac82-40376bea65ae","system_id":"levelo_inurba_marseille","lat":43.25583,"lon":5.38222,"is_reserved":false,"is_disabled":false,"rental_uris":{"android":"levelo://app?vid=83f868a2-5d8e-48ef-ac82-40376bea65ae","ios":"levelo://app?vid=83f868a2-5d8e-48ef-ac82-40376bea65ae"},"vehicle_type_id":"4","last_reported":1753290804,"current_range_meters":16000,"station_id":"ce4bhih2rcd13ifvqfs0","pricing_plan_id":"cebpf4jnsgd1na2vs0mg"},{"bike_id":"ecf210ae-5256-4961-8931-0870e8bf0ee1","system_id":"levelo_inurba_marseille","lat":43.28621,"lon":5.35105,"is_reserved":false,"is_disabled":false,"rental_uris":{"android":"levelo://app?vid=ecf210ae-5256-4961-8931-0870e8bf0ee1","ios":"levelo://app?vid=ecf210ae-5256-4961-8931-0870e8bf0ee1"},"vehicle_type_id":"4","last_reported":1753290804,"current_range_meters":16000,"station_id":"ce4bhch2rcd13ifvqeug","pricing_plan_id":"cebpf4jnsgd1na2vs0mg"},{"bike_id":"872d6688-34e9-4e87-9a71-30f9e710a775","system_id":"levelo_inurba_marseille","lat":43.26571,"lon":5.37317,"is_reserved":false,"is_disabled":false,"rental_uris":{"android":"levelo://app?vid=872d6688-34e9-4e87-9a71-30f9e710a775","ios":"levelo://app?vid=872d6688-34e9-4e87-9a71-30f9e710a775"},"vehicle_type_id":"4","last_reported":1753290804,"current_range_meters":16000,"station_id":"ce4bhg12rcd13ifvqf70","pricing_plan_id":"cebpf4jnsgd1na2vs0mg"},{"bike_id":"75921511-23bf-408f-9470-1062209789d6","system_id":"levelo_inurba_marseille","lat":43.25591,"lon":5.38223,"is_reserved":false,"is_disabled":false,"rental_uris":{"android":"levelo://app?vid=75921511-23bf-408f-9470-1062209789d6","ios":"levelo://app?vid=75921511-23bf-408f-9470-1062209789d6"},"vehicle_type_id":"4","last_reported":1753290804,"current_range_meters":16400,"station_id":"ce4bhih2rcd13ifvqfs0","pricing_plan_id":"cebpf4jnsgd1na2vs0mg"},{"bike_id":"0fe5c2b0-d838-4892-81e4-82039a10ae61","system_id":"levelo_inurba_marseille","lat":43.28719,"lon":5.36089,"is_reserved":false,"is_disabled":false,"rental_uris":{"android":"levelo://app?vid=0fe5c2b0-d838-4892-81e4-82039a10ae61","ios":"levelo://app?vid=0fe5c2b0-d838-4892-81e4-82039a10ae61"},"vehicle_type_id":"4","last_reported":1753290804,"current_range_meters":16000,"station_id":"cki0cbj6b192h4jlfktg","pricing_plan_id":"cebpf4jnsgd1na2vs0mg"},{"bike_id":"da6b3b5b-2489-492a-88b6-1622f7a834d4","system_id":"levelo_inurba_marseille","lat":43.29884,"lon":5.3973,"is_reserved":false,"is_disabled":false,"rental_uris":{"android":"levelo://app?vid=da6b3b5b-2489-492a-88b6-1622f7a834d4","ios":"levelo://app?vid=da6b3b5b-2489-492a-88b6-1622f7a834d4"},"vehicle_type_id":"4","last_reported":1753290804,"current_range_meters":16400,"station_id":"ce4bh0h2rcd13ifvqd50","pricing_plan_id":"cebpf4jnsgd1na2vs0mg"},{"bike_id":"43a6da31-fb3f-4275-9b03-4561370638bf","system_id":"levelo_inurba_marseille","lat":43.28438,"lon":5.39182,"is_reserved":false,"is_disabled":false,"rental_uris":{"android":"levelo://app?vid=43a6da31-fb3f-4275-9b03-4561370638bf","ios":"levelo://app?vid=43a6da31-fb3f-4275-9b03-4561370638bf"},"vehicle_type_id":"4","last_reported":1753290804,"current_range_meters":16400,"station_id":"ce4bhoh2rcd13ifvqh5g","pricing_plan_id":"cebpf4jnsgd1na2vs0mg"},{"bike_id":"ccbcedb2-9dbc-4ee9-8baa-a4e195d13cdd","system_id":"levelo_inurba_marseille","lat":43.24175,"lon":5.36389,"is_reserved":false,"is_disabled":false,"rental_uris":{"android":"levelo://app?vid=ccbcedb2-9dbc-4ee9-8baa-a4e195d13cdd","ios":"levelo://app?vid=ccbcedb2-9dbc-4ee9-8baa-a4e195d13cdd"},"vehicle_type_id":"4","last_reported":1753290804,"current_range_meters":16400,"station_id":"cpo36qri1sfpv3e86is0","pricing_plan_id":"cebpf4jnsgd1na2vs0mg"},{"bike_id":"f6419716-c272-46b5-b908-d91a04b2b53d","system_id":"levelo_inurba_marseille","lat":43.28039,"lon":5.36923,"is_reserved":false,"is_disabled":false,"rental_uris":{"android":"levelo://app?vid=f6419716-c272-46b5-b908-d91a04b2b53d","ios":"levelo://app?vid=f6419716-c272-46b5-b908-d91a04b2b53d"},"vehicle_type_id":"4","last_reported":1753290804,"current_range_meters":16400,"station_id":"ce4bha12rcd13ifvqef0","pricing_plan_id":"cebpf4jnsgd1na2vs0mg"},{"bike_id":"0c1a2b41-8927-405d-88bc-502c9b38cec6","system_id":"levelo_inurba_marseille","lat":43.29233,"lon":5.38361,"is_reserved":false,"is_disabled":false,"rental_uris":{"android":"levelo://app?vid=0c1a2b41-8927-405d-88bc-502c9b38cec6","ios":"levelo://app?vid=0c1a2b41-8927-405d-88bc-502c9b38cec6"},"vehicle_type_id":"4","last_reported":1753290804,"current_range_meters":16400,"station_id":"","pricing_plan_id":"cebpf4jnsgd1na2vs0mg"},{"bike_id":"b2b7f5e4-9a64-46ef-9d20-104d4c275bfa","system_id":"levelo_inurba_marseille","lat":43.21191,"lon":5.350728,"is_reserved":false,"is_disabled":false,"rental_uris":{"android":"levelo://app?vid=b2b7f5e4-9a64-46ef-9d20-104d4c275bfa","ios":"levelo://app?vid=b2b7f5e4-9a64-46ef-9d20-104d4c275bfa"},"vehicle_type_id":"4","last_reported":1753290804,"current_range_meters":16400,"station_id":"st_cvj6sg6p6f1abm77japg","pricing_plan_id":"cebpf4jnsgd1na2vs0mg"},{"bike_id":"f493a3a9-7f6b-470e-bce7-7019418af039","system_id":"levelo_inurba_marseille","lat":43.27912,"lon":5.37996,"is_reserved":false,"is_disabled":false,"rental_uris":{"android":"levelo://app?vid=f493a3a9-7f6b-470e-bce7-7019418af039","ios":"levelo://app?vid=f493a3a9-7f6b-470e-bce7-7019418af039"},"vehicle_type_id":"4","last_reported":1753290804,"current_range_meters":16400,"station_id":"ce4bhf92rcd13ifvqf50","pricing_plan_id":"cebpf4jnsgd1na2vs0mg"},{"bike_id":"0a7e2862-d8ec-4c77-89d9-cfcdd51f8d75","system_id":"levelo_inurba_marseille","lat":43.31957,"lon":5.37283,"is_reserved":false,"is_disabled":false,"rental_uris":{"android":"levelo://app?vid=0a7e2862-d8ec-4c77-89d9-cfcdd51f8d75","ios":"levelo://app?vid=0a7e2862-d8ec-4c77-89d9-cfcdd51f8d75"},"vehicle_type_id":"4","last_reported":1753290804,"current_range_meters":16400,"station_id":"","pricing_plan_id":"cebpf4jnsgd1na2vs0mg"},{"bike_id":"b5ac6728-6e2d-40fd-b93a-9942150f3a95","system_id":"levelo_inurba_marseille","lat":43.29526,"lon":5.39046,"is_reserved":false,"is_disabled":false,"rental_uris":{"android":"levelo://app?vid=b5ac6728-6e2d-40fd-b93a-9942150f3a95","ios":"levelo://app?vid=b5ac6728-6e2d-40fd-b93a-9942150f3a95"},"vehicle_type_id":"4","last_reported":1753290804,"current_range_meters":16400,"station_id":"ce4bh3p2rcd13ifvqdp0","pricing_plan_id":"cebpf4jnsgd1na2vs0mg"},{"bike_id":"379642a0-6b0d-474b-a5e8-3fdc82f9154a","system_id":"levelo_inurba_marseille","lat":43.289386,"lon":5.366381,"is_reserved":false,"is_disabled":false,"rental_uris":{"android":"levelo://app?vid=379642a0-6b0d-474b-a5e8-3fdc82f9154a","ios":"levelo://app?vid=379642a0-6b0d-474b-a5e8-3fdc82f9154a"},"vehicle_type_id":"4","last_reported":1753290804,"current_range_meters":16800,"station_id":"ce4bhap2rcd13ifvqek0","pricing_plan_id":"cebpf4jnsgd1na2vs0mg"},{"bike_id":"5ac85406-65d0-4336-aa89-4b04b2e6689e","system_id":"levelo_inurba_marseille","lat":43.33274,"lon":5.41997,"is_reserved":false,"is_disabled":false,"rental_uris":{"android":"levelo://app?vid=5ac85406-65d0-4336-aa89-4b04b2e6689e","ios":"levelo://app?vid=5ac85406-65d0-4336-aa89-4b04b2e6689e"},"vehicle_type_id":"4","last_reported":1753290804,"current_range_meters":16800,"station_id":"","pricing_plan_id":"cebpf4jnsgd1na2vs0mg"},{"bike_id":"496cac02-0e91-4f64-97b9-cb34cf0ab931","system_id":"levelo_inurba_marseille","lat":43.22562,"lon":5.34749,"is_reserved":false,"is_disabled":false,"rental_uris":{"android":"levelo://app?vid=496cac02-0e91-4f64-97b9-cb34cf0ab931","ios":"levelo://app?vid=496cac02-0e91-4f64-97b9-cb34cf0ab931"},"vehicle_type_id":"4","last_reported":1753290804,"current_range_meters":16800,"station_id":"","pricing_plan_id":"cebpf4jnsgd1na2vs0mg"},{"bike_id":"200eafce-91c3-45c4-b765-a29eda91d9dc","system_id":"levelo_inurba_marseille","lat":43.29032,"lon":5.38639,"is_reserved":false,"is_disabled":false,"rental_uris":{"android":"levelo://app?vid=200eafce-91c3-45c4-b765-a29eda91d9dc","ios":"levelo://app?vid=200eafce-91c3-45c4-b765-a29eda91d9dc"},"vehicle_type_id":"4","last_reported":1753290804,"current_range_meters":16800,"station_id":"ce4bh4p2rcd13ifvqe0g","pricing_plan_id":"cebpf4jnsgd1na2vs0mg"},{"bike_id":"ae131367-d818-44a0-9e1d-4aa65dcdb16a","system_id":"levelo_inurba_marseille","lat":43.27519,"lon":5.39652,"is_reserved":false,"is_disabled":false,"rental_uris":{"android":"levelo://app?vid=ae131367-d818-44a0-9e1d-4aa65dcdb16a","ios":"levelo://app?vid=ae131367-d818-44a0-9e1d-4aa65dcdb16a"},"vehicle_type_id":"4","last_reported":1753290804,"current_range_meters":16800,"station_id":"","pricing_plan_id":"cebpf4jnsgd1na2vs0mg"},{"bike_id":"8db622a3-4cc9-48ef-a039-4d689e919b08","system_id":"levelo_inurba_marseille","lat":43.305287,"lon":5.367015,"is_reserved":false,"is_disabled":false,"rental_uris":{"android":"levelo://app?vid=8db622a3-4cc9-48ef-a039-4d689e919b08","ios":"levelo://app?vid=8db622a3-4cc9-48ef-a039-4d689e919b08"},"vehicle_type_id":"4","last_reported":1753290804,"current_range_meters":16800,"station_id":"ce4bgrp2rcd13ifvqc9g","pricing_plan_id":"cebpf4jnsgd1na2vs0mg"},{"bike_id":"0648eb3b-38dc-45ba-994e-ffad74a620d8","system_id":"levelo_inurba_marseille","lat":43.29024,"lon":5.3864,"is_reserved":false,"is_disabled":true,"rental_uris":{"android":"levelo://app?vid=0648eb3b-38dc-45ba-994e-ffad74a620d8","ios":"levelo://app?vid=0648eb3b-38dc-45ba-994e-ffad74a620d8"},"vehicle_type_id":"4","last_reported":1753290804,"current_range_meters":16800,"station_id":"ce4bh4p2rcd13ifvqe0g","pricing_plan_id":"cebpf4jnsgd1na2vs0mg"},{"bike_id":"b2190c11-837e-47f9-ad82-895f01070f26","system_id":"levelo_inurba_marseille","lat":43.302,"lon":5.36621,"is_reserved":false,"is_disabled":false,"rental_uris":{"android":"levelo://app?vid=b2190c11-837e-47f9-ad82-895f01070f26","ios":"levelo://app?vid=b2190c11-837e-47f9-ad82-895f01070f26"},"vehicle_type_id":"4","last_reported":1753290804,"current_range_meters":16800,"station_id":"ce4bgrh2rcd13ifvqc8g","pricing_plan_id":"cebpf4jnsgd1na2vs0mg"},{"bike_id":"3cd09fc8-9554-4236-8496-0931a7be09d1","system_id":"levelo_inurba_marseille","lat":43.21212,"lon":5.35048,"is_reserved":false,"is_disabled":false,"rental_uris":{"android":"levelo://app?vid=3cd09fc8-9554-4236-8496-0931a7be09d1","ios":"levelo://app?vid=3cd09fc8-9554-4236-8496-0931a7be09d1"},"vehicle_type_id":"4","last_reported":1753290804,"current_range_meters":16800,"station_id":"st_cvj6sg6p6f1abm77japg","pricing_plan_id":"cebpf4jnsgd1na2vs0mg"},{"bike_id":"bc464731-84e5-4d79-8404-44fc9b22647b","system_id":"levelo_inurba_marseille","lat":43.28592,"lon":5.35137,"is_reserved":false,"is_disabled":false,"rental_uris":{"android":"levelo://app?vid=bc464731-84e5-4d79-8404-44fc9b22647b","ios":"levelo://app?vid=bc464731-84e5-4d79-8404-44fc9b22647b"},"vehicle_type_id":"4","last_reported":1753290804,"current_range_meters":16800,"station_id":"ce4bhch2rcd13ifvqeug","pricing_plan_id":"cebpf4jnsgd1na2vs0mg"},{"bike_id":"6bb1f31c-9335-4f39-9585-31374a4775f9","system_id":"levelo_inurba_marseille","lat":43.325583,"lon":5.379059,"is_reserved":false,"is_disabled":false,"rental_uris":{"android":"levelo://app?vid=6bb1f31c-9335-4f39-9585-31374a4775f9","ios":"levelo://app?vid=6bb1f31c-9335-4f39-9585-31374a4775f9"},"vehicle_type_id":"4","last_reported":1753290804,"current_range_meters":16800,"station_id":"","pricing_plan_id":"cebpf4jnsgd1na2vs0mg"},{"bike_id":"b1450d90-cb1e-43a6-8867-37a7e6dcc89e","system_id":"levelo_inurba_marseille","lat":43.2511,"lon":5.40321,"is_reserved":false,"is_disabled":false,"rental_uris":{"android":"levelo://app?vid=b1450d90-cb1e-43a6-8867-37a7e6dcc89e","ios":"levelo://app?vid=b1450d90-cb1e-43a6-8867-37a7e6dcc89e"},"vehicle_type_id":"4","last_reported":1753290804,"current_range_meters":16800,"station_id":"ce4bhlh2rcd13ifvqgig","pricing_plan_id":"cebpf4jnsgd1na2vs0mg"},{"bike_id":"53c15f3f-9f6a-4154-b61d-26bc49f1eab5","system_id":"levelo_inurba_marseille","lat":43.313633,"lon":5.38497,"is_reserved":false,"is_disabled":false,"rental_uris":{"android":"levelo://app?vid=53c15f3f-9f6a-4154-b61d-26bc49f1eab5","ios":"levelo://app?vid=53c15f3f-9f6a-4154-b61d-26bc49f1eab5"},"vehicle_type_id":"4","last_reported":1753290804,"current_range_meters":16800,"station_id":"ce4bgt92rcd13ifvqcf0","pricing_plan_id":"cebpf4jnsgd1na2vs0mg"},{"bike_id":"1db81346-3af4-4bb2-bd8b-c5ca2f0a2122","system_id":"levelo_inurba_marseille","lat":43.28572,"lon":5.39486,"is_reserved":false,"is_disabled":false,"rental_uris":{"android":"levelo://app?vid=1db81346-3af4-4bb2-bd8b-c5ca2f0a2122","ios":"levelo://app?vid=1db81346-3af4-4bb2-bd8b-c5ca2f0a2122"},"vehicle_type_id":"4","last_reported":1753290804,"current_range_meters":16800,"station_id":"ce4bh292rcd13ifvqdg0","pricing_plan_id":"cebpf4jnsgd1na2vs0mg"},{"bike_id":"d29c6439-c482-4a90-9f2d-5e30c48a4e4b","system_id":"levelo_inurba_marseille","lat":43.28704,"lon":5.3739,"is_reserved":false,"is_disabled":false,"rental_uris":{"android":"levelo://app?vid=d29c6439-c482-4a90-9f2d-5e30c48a4e4b","ios":"levelo://app?vid=d29c6439-c482-4a90-9f2d-5e30c48a4e4b"},"vehicle_type_id":"4","last_reported":1753290804,"current_range_meters":16800,"station_id":"ce4bh3p2rcd13ifvqdq0","pricing_plan_id":"cebpf4jnsgd1na2vs0mg"},{"bike_id":"54943e91-61ee-496b-9667-a7c6c3a25bb5","system_id":"levelo_inurba_marseille","lat":43.26249,"lon":5.37436,"is_reserved":false,"is_disabled":false,"rental_uris":{"android":"levelo://app?vid=54943e91-61ee-496b-9667-a7c6c3a25bb5","ios":"levelo://app?vid=54943e91-61ee-496b-9667-a7c6c3a25bb5"},"vehicle_type_id":"4","last_reported":1753290804,"current_range_meters":16800,"station_id":"ce4bhgp2rcd13ifvqfc0","pricing_plan_id":"cebpf4jnsgd1na2vs0mg"},{"bike_id":"5f9f9d8b-6169-45ce-83b4-7d1b66d69a83","system_id":"levelo_inurba_marseille","lat":43.30148,"lon":5.39848,"is_reserved":false,"is_disabled":false,"rental_uris":{"android":"levelo://app?vid=5f9f9d8b-6169-45ce-83b4-7d1b66d69a83","ios":"levelo://app?vid=5f9f9d8b-6169-45ce-83b4-7d1b66d69a83"},"vehicle_type_id":"4","last_reported":1753290804,"current_range_meters":17200,"station_id":"ce4bh0h2rcd13ifvqd40","pricing_plan_id":"cebpf4jnsgd1na2vs0mg"},{"bike_id":"30185969-2d22-47fb-b701-00e41337a407","system_id":"levelo_inurba_marseille","lat":43.31466,"lon":5.39222,"is_reserved":false,"is_disabled":false,"rental_uris":{"android":"levelo://app?vid=30185969-2d22-47fb-b701-00e41337a407","ios":"levelo://app?vid=30185969-2d22-47fb-b701-00e41337a407"},"vehicle_type_id":"4","last_reported":1753290804,"current_range_meters":17200,"station_id":"","pricing_plan_id":"cebpf4jnsgd1na2vs0mg"},{"bike_id":"b6145854-29f3-4c7e-a86e-218868a13e7d","system_id":"levelo_inurba_marseille","lat":43.26935,"lon":5.38918,"is_reserved":false,"is_disabled":false,"rental_uris":{"android":"levelo://app?vid=b6145854-29f3-4c7e-a86e-218868a13e7d","ios":"levelo://app?vid=b6145854-29f3-4c7e-a86e-218868a13e7d"},"vehicle_type_id":"4","last_reported":1753290804,"current_range_meters":17200,"station_id":"ce4bhhh2rcd13ifvqfl0","pricing_plan_id":"cebpf4jnsgd1na2vs0mg"},{"bike_id":"c9c42728-477d-41f4-9073-dd9e5b90e393","system_id":"levelo_inurba_marseille","lat":43.29263,"lon":5.38443,"is_reserved":false,"is_disabled":false,"rental_uris":{"android":"levelo://app?vid=c9c42728-477d-41f4-9073-dd9e5b90e393","ios":"levelo://app?vid=c9c42728-477d-41f4-9073-dd9e5b90e393"},"vehicle_type_id":"4","last_reported":1753290804,"current_range_meters":17200,"station_id":"ce4bh692rcd13ifvqea0","pricing_plan_id":"cebpf4jnsgd1na2vs0mg"},{"bike_id":"c056311f-78c9-4e18-8685-91c659ddb125","system_id":"levelo_inurba_marseille","lat":43.31622,"lon":5.38967,"is_reserved":false,"is_disabled":false,"rental_uris":{"android":"levelo://app?vid=c056311f-78c9-4e18-8685-91c659ddb125","ios":"levelo://app?vid=c056311f-78c9-4e18-8685-91c659ddb125"},"vehicle_type_id":"4","last_reported":1753290804,"current_range_meters":17200,"station_id":"","pricing_plan_id":"cebpf4jnsgd1na2vs0mg"},{"bike_id":"70737bad-8214-4681-8a7d-fa98042cf105","system_id":"levelo_inurba_marseille","lat":43.290481,"lon":5.399996,"is_reserved":false,"is_disabled":false,"rental_uris":{"android":"levelo://app?vid=70737bad-8214-4681-8a7d-fa98042cf105","ios":"levelo://app?vid=70737bad-8214-4681-8a7d-fa98042cf105"},"vehicle_type_id":"4","last_reported":1753290804,"current_range_meters":17200,"station_id":"ce4bh392rcd13ifvqdm0","pricing_plan_id":"cebpf4jnsgd1na2vs0mg"},{"bike_id":"992f947c-d52f-4e93-bf70-d21ecab4a286","system_id":"levelo_inurba_marseille","lat":43.31357,"lon":5.38487,"is_reserved":false,"is_disabled":false,"rental_uris":{"android":"levelo://app?vid=992f947c-d52f-4e93-bf70-d21ecab4a286","ios":"levelo://app?vid=992f947c-d52f-4e93-bf70-d21ecab4a286"},"vehicle_type_id":"4","last_reported":1753290804,"current_range_meters":17200,"station_id":"ce4bgt92rcd13ifvqcf0","pricing_plan_id":"cebpf4jnsgd1na2vs0mg"},{"bike_id":"5d8ca27c-6653-4147-a9b6-fb59b053107e","system_id":"levelo_inurba_marseille","lat":43.24165,"lon":5.36402,"is_reserved":false,"is_disabled":false,"rental_uris":{"android":"levelo://app?vid=5d8ca27c-6653-4147-a9b6-fb59b053107e","ios":"levelo://app?vid=5d8ca27c-6653-4147-a9b6-fb59b053107e"},"vehicle_type_id":"4","last_reported":1753290804,"current_range_meters":17200,"station_id":"cpo36qri1sfpv3e86is0","pricing_plan_id":"cebpf4jnsgd1na2vs0mg"},{"bike_id":"b52e74cd-ff69-4417-b50e-80e0e49ad997","system_id":"levelo_inurba_marseille","lat":43.22539,"lon":5.34726,"is_reserved":false,"is_disabled":false,"rental_uris":{"android":"levelo://app?vid=b52e74cd-ff69-4417-b50e-80e0e49ad997","ios":"levelo://app?vid=b52e74cd-ff69-4417-b50e-80e0e49ad997"},"vehicle_type_id":"4","last_reported":1753290804,"current_range_meters":17200,"station_id":"st_cvj5dfep6f1abm77gieg","pricing_plan_id":"cebpf4jnsgd1na2vs0mg"},{"bike_id":"6a79a396-2f47-4b1c-9dce-b0d5464f72e4","system_id":"levelo_inurba_marseille","lat":43.22924,"lon":5.35387,"is_reserved":false,"is_disabled":false,"rental_uris":{"android":"levelo://app?vid=6a79a396-2f47-4b1c-9dce-b0d5464f72e4","ios":"levelo://app?vid=6a79a396-2f47-4b1c-9dce-b0d5464f72e4"},"vehicle_type_id":"4","last_reported":1753290804,"current_range_meters":17200,"station_id":"cpo3532slgdg3j2ikp40","pricing_plan_id":"cebpf4jnsgd1na2vs0mg"},{"bike_id":"b149ce64-5f5f-4194-8cde-a6eb3f41e10d","system_id":"levelo_inurba_marseille","lat":43.303145,"lon":5.393472,"is_reserved":false,"is_disabled":false,"rental_uris":{"android":"levelo://app?vid=b149ce64-5f5f-4194-8cde-a6eb3f41e10d","ios":"levelo://app?vid=b149ce64-5f5f-4194-8cde-a6eb3f41e10d"},"vehicle_type_id":"4","last_reported":1753290804,"current_range_meters":17200,"station_id":"ce4bh0p2rcd13ifvqd70","pricing_plan_id":"cebpf4jnsgd1na2vs0mg"},{"bike_id":"d33a195d-1aba-4725-a7a9-74d21f9597a0","system_id":"levelo_inurba_marseille","lat":43.26237,"lon":5.37431,"is_reserved":false,"is_disabled":false,"rental_uris":{"android":"levelo://app?vid=d33a195d-1aba-4725-a7a9-74d21f9597a0","ios":"levelo://app?vid=d33a195d-1aba-4725-a7a9-74d21f9597a0"},"vehicle_type_id":"4","last_reported":1753290804,"current_range_meters":17600,"station_id":"ce4bhgp2rcd13ifvqfc0","pricing_plan_id":"cebpf4jnsgd1na2vs0mg"},{"bike_id":"b1611388-74da-4bd8-aa35-2fd1ff7cb76e","system_id":"levelo_inurba_marseille","lat":43.270713,"lon":5.42277,"is_reserved":false,"is_disabled":false,"rental_uris":{"android":"levelo://app?vid=b1611388-74da-4bd8-aa35-2fd1ff7cb76e","ios":"levelo://app?vid=b1611388-74da-4bd8-aa35-2fd1ff7cb76e"},"vehicle_type_id":"4","last_reported":1753290804,"current_range_meters":17600,"station_id":"ce4bhk92rcd13ifvqgb0","pricing_plan_id":"cebpf4jnsgd1na2vs0mg"},{"bike_id":"d30f66f5-9995-4a0a-832b-41fe2c74d0c0","system_id":"levelo_inurba_marseille","lat":43.22528,"lon":5.34767,"is_reserved":false,"is_disabled":false,"rental_uris":{"android":"levelo://app?vid=d30f66f5-9995-4a0a-832b-41fe2c74d0c0","ios":"levelo://app?vid=d30f66f5-9995-4a0a-832b-41fe2c74d0c0"},"vehicle_type_id":"4","last_reported":1753290804,"current_range_meters":17600,"station_id":"st_cvj5dfep6f1abm77gieg","pricing_plan_id":"cebpf4jnsgd1na2vs0mg"},{"bike_id":"db3fb40d-76ba-4ec9-b03d-0f61db5be83d","system_id":"levelo_inurba_marseille","lat":43.28458,"lon":5.35872,"is_reserved":false,"is_disabled":false,"rental_uris":{"android":"levelo://app?vid=db3fb40d-76ba-4ec9-b03d-0f61db5be83d","ios":"levelo://app?vid=db3fb40d-76ba-4ec9-b03d-0f61db5be83d"},"vehicle_type_id":"4","last_reported":1753290804,"current_range_meters":17600,"station_id":"ce4bhah2rcd13ifvqei0","pricing_plan_id":"cebpf4jnsgd1na2vs0mg"},{"bike_id":"1699da3b-157a-4d07-ba4d-8fe9df7d93c7","system_id":"levelo_inurba_marseille","lat":43.30375,"lon":5.41931,"is_reserved":false,"is_disabled":false,"rental_uris":{"android":"levelo://app?vid=1699da3b-157a-4d07-ba4d-8fe9df7d93c7","ios":"levelo://app?vid=1699da3b-157a-4d07-ba4d-8fe9df7d93c7"},"vehicle_type_id":"4","last_reported":1753290804,"current_range_meters":17600,"station_id":"","pricing_plan_id":"cebpf4jnsgd1na2vs0mg"},{"bike_id":"18b86593-4f21-41ed-81b3-f3a5b378dc91","system_id":"levelo_inurba_marseille","lat":43.312339,"lon":5.381309,"is_reserved":false,"is_disabled":false,"rental_uris":{"android":"levelo://app?vid=18b86593-4f21-41ed-81b3-f3a5b378dc91","ios":"levelo://app?vid=18b86593-4f21-41ed-81b3-f3a5b378dc91"},"vehicle_type_id":"4","last_reported":1753290804,"current_range_meters":17600,"station_id":"","pricing_plan_id":"cebpf4jnsgd1na2vs0mg"},{"bike_id":"3df55160-52a0-4cc6-abbb-dca3fa01fb48","system_id":"levelo_inurba_marseille","lat":43.2693,"lon":5.38922,"is_reserved":false,"is_disabled":false,"rental_uris":{"android":"levelo://app?vid=3df55160-52a0-4cc6-abbb-dca3fa01fb48","ios":"levelo://app?vid=3df55160-52a0-4cc6-abbb-dca3fa01fb48"},"vehicle_type_id":"4","last_reported":1753290804,"current_range_meters":17200,"station_id":"ce4bhhh2rcd13ifvqfl0","pricing_plan_id":"cebpf4jnsgd1na2vs0mg"},{"bike_id":"cfcdb0a6-c10f-4fcd-a58c-77b0f4cb9414","system_id":"levelo_inurba_marseille","lat":43.29967,"lon":5.38495,"is_reserved":false,"is_disabled":false,"rental_uris":{"android":"levelo://app?vid=cfcdb0a6-c10f-4fcd-a58c-77b0f4cb9414","ios":"levelo://app?vid=cfcdb0a6-c10f-4fcd-a58c-77b0f4cb9414"},"vehicle_type_id":"4","last_reported":1753290804,"current_range_meters":17600,"station_id":"ce4bgj92rcd13ifvqbd0","pricing_plan_id":"cebpf4jnsgd1na2vs0mg"},{"bike_id":"d224f13d-a270-48c4-b2c5-5d96d38431dd","system_id":"levelo_inurba_marseille","lat":43.29964,"lon":5.38493,"is_reserved":false,"is_disabled":false,"rental_uris":{"android":"levelo://app?vid=d224f13d-a270-48c4-b2c5-5d96d38431dd","ios":"levelo://app?vid=d224f13d-a270-48c4-b2c5-5d96d38431dd"},"vehicle_type_id":"4","last_reported":1753290804,"current_range_meters":17600,"station_id":"ce4bgj92rcd13ifvqbd0","pricing_plan_id":"cebpf4jnsgd1na2vs0mg"},{"bike_id":"1ad257b5-7f83-42c1-867f-92635ff1abbf","system_id":"levelo_inurba_marseille","lat":43.22927,"lon":5.35392,"is_reserved":false,"is_disabled":false,"rental_uris":{"android":"levelo://app?vid=1ad257b5-7f83-42c1-867f-92635ff1abbf","ios":"levelo://app?vid=1ad257b5-7f83-42c1-867f-92635ff1abbf"},"vehicle_type_id":"4","last_reported":1753290804,"current_range_meters":17600,"station_id":"cpo3532slgdg3j2ikp40","pricing_plan_id":"cebpf4jnsgd1na2vs0mg"},{"bike_id":"61cb5b9a-9cee-4d3f-8bba-365148ee2e42","system_id":"levelo_inurba_marseille","lat":43.25874,"lon":5.39897,"is_reserved":false,"is_disabled":false,"rental_uris":{"android":"levelo://app?vid=61cb5b9a-9cee-4d3f-8bba-365148ee2e42","ios":"levelo://app?vid=61cb5b9a-9cee-4d3f-8bba-365148ee2e42"},"vehicle_type_id":"4","last_reported":1753290804,"current_range_meters":18000,"station_id":"ce4bhl92rcd13ifvqghg","pricing_plan_id":"cebpf4jnsgd1na2vs0mg"},{"bike_id":"aacd237f-7cc2-4023-acdd-438bc68d14fa","system_id":"levelo_inurba_marseille","lat":43.2841,"lon":5.37502,"is_reserved":false,"is_disabled":false,"rental_uris":{"android":"levelo://app?vid=aacd237f-7cc2-4023-acdd-438bc68d14fa","ios":"levelo://app?vid=aacd237f-7cc2-4023-acdd-438bc68d14fa"},