{"last_updated":1723406923,"ttl":30,"version":"2.2","data":{"bikes":[{"bike_id":"2ceb2221-184a-4445-8dd0-bc937f4dc788","system_id":"levelo_inurba_marseille","lat":43.313391,"lon":5.36706,"is_reserved":false,"is_disabled":false,"rental_uris":{"android":"levelo://app?vid=2ceb2221-184a-4445-8dd0-bc937f4dc788","ios":"levelo://app?vid=2ceb2221-184a-4445-8dd0-bc937f4dc788"},"vehicle_type_id":"4","last_reported":1723406923,"current_range_meters":17600,"station_id":"ce4bgr92rcd13ifvqc6g","pricing_plan_id":"cebpf4jnsgd1na2vs0mg"},{"bike_id":"27005b46-ef67-44e1-b9cf-d2592f00c375","system_id":"levelo_inurba_marseille","lat":43.312239,"lon":5.368562,"is_reserved":false,"is_disabled":false,"rental_uris":{"android":"levelo://app?vid=27005b46-ef67-44e1-b9cf-d2592f00c375","ios":"levelo://app?vid=27005b46-ef67-44e1-b9cf-d2592f00c375"},"vehicle_type_id":"4","last_reported":1723406923,"current_range_meters":4400,"station_id":"ce4bgl92rcd13ifvqbq0","pricing_plan_id":"cebpf4jnsgd1na2vs0mg"},{"bike_id":"9eef4fe4-832c-406c-a510-11c246bd995e","system_id":"levelo_inurba_marseille","lat":43.312239,"lon":5.368562,"is_reserved":false,"is_disabled":false,"rental_uris":{"android":"levelo://app?vid=9eef4fe4-832c-406c-a510-11c246bd995e","ios":"levelo://app?vid=9eef4fe4-832c-406c-a510-11c246bd995e"},"vehicle_type_id":"4","last_reported":1723406923,"current_range_meters":22400,"station_id":"ce4bgl92rcd13ifvqbq0","pricing_plan_id":"cebpf4jnsgd1na2vs0mg"},{"bike_id":"80ae8c7a-1126-428a-8d3a-9565de363b1d","system_id":"levelo_inurba_marseille","lat":43.309076,"lon":5.368465,"is_reserved":false,"is_disabled":false,"rental_uris":{"android":"levelo://app?vid=80ae8c7a-1126-428a-8d3a-9565de363b1d","ios":"levelo://app?vid=80ae8c7a-1126-428a-8d3a-9565de363b1d"},"vehicle_type_id":"4","last_reported":1723406923,"current_range_meters":20800,"station_id":"ce4bgn92rcd13ifvqbvg","pricing_plan_id":"cebpf4jnsgd1na2vs0mg"},{"bike_id":"db05d0a5-04e6-4fa7-a849-ffd919b3d823","system_id":"levelo_inurba_marseille","lat":43.309076,"lon":5.368465,"is_reserved":false,"is_disabled":false,"rental_uris":{"android":"levelo://app?vid=db05d0a5-04e6-4fa7-a849-ffd919b3d823","ios":"levelo://app?vid=db05d0a5-04e6-4fa7-a849-ffd919b3d823"},"vehicle_type_id":"4","last_reported":1723406923,"current_range_meters":14400,"station_id":"ce4bgn92rcd13ifvqbvg","pricing_plan_id":"cebpf4jnsgd1na2vs0mg"},{"bike_id":"475267f1-d54d-4f67-9fec-bc2f7800e2f3","system_id":"levelo_inurba_marseille","lat":43.314811,"lon":5.373103,"is_reserved":false,"is_disabled":false,"rental_uris":{"android":"levelo://app?vid=475267f1-d54d-4f67-9fec-bc2f7800e2f3","ios":"levelo://app?vid=475267f1-d54d-4f67-9fec-bc2f7800e2f3"},"vehicle_type_id":"4","last_reported":1723406923,"current_range_meters":24400,"station_id":"ce4bgt12rcd13ifvqcd0","pricing_plan_id":"cebpf4jnsgd1na2vs0mg"},{"bike_id":"46626f7b-62a8-426c-8744-f6d8a17e76c9","system_id":"levelo_inurba_marseille","lat":43.314811,"lon":5.373103,"is_reserved":false,"is_disabled":false,"rental_uris":{"android":"levelo://app?vid=46626f7b-62a8-426c-8744-f6d8a17e76c9","ios":"levelo://app?vid=46626f7b-62a8-426c-8744-f6d8a17e76c9"},"vehicle_type_id":"4","last_reported":1723406923,"current_range_meters":18800,"station_id":"ce4bgt12rcd13ifvqcd0","pricing_plan_id":"cebpf4jnsgd1na2vs0mg"},{"bike_id":"8a8d870a-175c-4110-ba81-fb3504614037","system_id":"levelo_inurba_marseille","lat":43.314811,"lon":5.373103,"is_reserved":false,"is_disabled":false,"rental_uris":{"android":"levelo://app?vid=8a8d870a-175c-4110-ba81-fb3504614037","ios":"levelo://app?vid=8a8d870a-175c-4110-ba81-fb3504614037"},"vehicle_type_id":"4","last_reported":1723406923,"current_range_meters":20400,"station_id":"ce4bgt12rcd13ifvqcd0","pricing_plan_id":"cebpf4jnsgd1na2vs0mg"},{"bike_id":"52e5ddd4-5d8d-4492-855a-aaa31a19570c","system_id":"levelo_inurba_marseille","lat":43.309034,"lon":5.371783,"is_reserved":false,"is_disabled":false,"rental_uris":{"android":"levelo://app?vid=52e5ddd4-5d8d-4492-855a-aaa31a19570c","ios":"levelo://app?vid=52e5ddd4-5d8d-4492-855a-aaa31a19570c"},"vehicle_type_id":"4","last_reported":1723406923,"current_range_meters":20800,"station_id":"ce4bguh2rcd13ifvqckg","pricing_plan_id":"cebpf4jnsgd1na2vs0mg"},{"bike_id":"c5a57dbc-e3dc-408b-9dba-ad1df57950cb","system_id":"levelo_inurba_marseille","lat":43.309039,"lon":5.371797,"is_reserved":false,"is_disabled":false,"rental_uris":{"android":"levelo://app?vid=c5a57dbc-e3dc-408b-9dba-ad1df57950cb","ios":"levelo://app?vid=c5a57dbc-e3dc-408b-9dba-ad1df57950cb"},"vehicle_type_id":"4","last_reported":1723406923,"current_range_meters":21200,"station_id":"ce4bguh2rcd13ifvqckg","pricing_plan_id":"cebpf4jnsgd1na2vs0mg"},{"bike_id":"0a0d1504-0816-45d1-a14b-7aedf3610e22","system_id":"levelo_inurba_marseille","lat":43.31462,"lon":5.37382,"is_reserved":false,"is_disabled":false,"rental_uris":{"android":"levelo://app?vid=0a0d1504-0816-45d1-a14b-7aedf3610e22","ios":"levelo://app?vid=0a0d1504-0816-45d1-a14b-7aedf3610e22"},"vehicle_type_id":"4","last_reported":1723406923,"current_range_meters":5200,"station_id":"","pricing_plan_id":"cebpf4jnsgd1na2vs0mg"},{"bike_id":"80f9f110-4ffc-4297-bf57-2bf2a710da39","system_id":"levelo_inurba_marseille","lat":43.31853,"lon":5.36778,"is_reserved":false,"is_disabled":false,"rental_uris":{"android":"levelo://app?vid=80f9f110-4ffc-4297-bf57-2bf2a710da39","ios":"levelo://app?vid=80f9f110-4ffc-4297-bf57-2bf2a710da39"},"vehicle_type_id":"4","last_reported":1723406923,"current_range_meters":12000,"station_id":"","pricing_plan_id":"cebpf4jnsgd1na2vs0mg"},{"bike_id":"b0522b6c-dfb9-4f3d-b4a2-76ae628fdbca","system_id":"levelo_inurba_marseille","lat":43.31372,"lon":5.37665,"is_reserved":false,"is_disabled":false,"rental_uris":{"android":"levelo://app?vid=b0522b6c-dfb9-4f3d-b4a2-76ae628fdbca","ios":"levelo://app?vid=b0522b6c-dfb9-4f3d-b4a2-76ae628fdbca"},"vehicle_type_id":"4","last_reported":1723406923,"current_range_meters":0,"station_id":"","pricing_plan_id":"cebpf4jnsgd1na2vs0mg"},{"bike_id":"cb9b1d85-3934-4636-ada7-9d58a1cac4b8","system_id":"levelo_inurba_marseille","lat":43.30537,"lon":5.367345,"is_reserved":false,"is_disabled":false,"rental_uris":{"android":"levelo://app?vid=cb9b1d85-3934-4636-ada7-9d58a1cac4b8","ios":"levelo://app?vid=cb9b1d85-3934-4636-ada7-9d58a1cac4b8"},"vehicle_type_id":"4","last_reported":1723406923,"current_range_meters":19600,"station_id":"ce4bgrp2rcd13ifvqc9g","pricing_plan_id":"cebpf4jnsgd1na2vs0mg"},{"bike_id":"c79bbdfc-d28d-48dc-80ba-5d87f64077c8","system_id":"levelo_inurba_marseille","lat":43.305368,"lon":5.367343,"is_reserved":false,"is_disabled":false,"rental_uris":{"android":"levelo://app?vid=c79bbdfc-d28d-48dc-80ba-5d87f64077c8","ios":"levelo://app?vid=c79bbdfc-d28d-48dc-80ba-5d87f64077c8"},"vehicle_type_id":"4","last_reported":1723406923,"current_range_meters":24800,"station_id":"ce4bgrp2rcd13ifvqc9g","pricing_plan_id":"cebpf4jnsgd1na2vs0mg"},{"bike_id":"e1dcbdd6-f4ce-43d9-b387-03ce4033f1b3","system_id":"levelo_inurba_marseille","lat":43.30537,"lon":5.367345,"is_reserved":false,"is_disabled":false,"rental_uris":{"android":"levelo://app?vid=e1dcbdd6-f4ce-43d9-b387-03ce4033f1b3","ios":"levelo://app?vid=e1dcbdd6-f4ce-43d9-b387-03ce4033f1b3"},"vehicle_type_id":"4","last_reported":1723406923,"current_range_meters":30400,"station_id":"ce4bgrp2rcd13ifvqc9g","pricing_plan_id":"cebpf4jnsgd1na2vs0mg"},{"bike_id":"db68a45b-692e-4e7e-9351-29a95b509c73","system_id":"levelo_inurba_marseille","lat":43.305368,"lon":5.367343,"is_reserved":false,"is_disabled":false,"rental_uris":{"android":"levelo://app?vid=db68a45b-692e-4e7e-9351-29a95b509c73","ios":"levelo://app?vid=db68a45b-692e-4e7e-9351-29a95b509c73"},"vehicle_type_id":"4","last_reported":1723406923,"current_range_meters":30400,"station_id":"ce4bgrp2rcd13ifvqc9g","pricing_plan_id":"cebpf4jnsgd1na2vs0mg"},{"bike_id":"c26784e4-6cef-451e-a908-42850c8f2c3e","system_id":"levelo_inurba_marseille","lat":43.305714,"lon":5.365633,"is_reserved":false,"is_disabled":false,"rental_uris":{"android":"levelo://app?vid=c26784e4-6cef-451e-a908-42850c8f2c3e","ios":"levelo://app?vid=c26784e4-6cef-451e-a908-42850c8f2c3e"},"vehicle_type_id":"4","last_reported":1723406923,"current_range_meters":16000,"station_id":"ce4bgs12rcd13ifvqcag","pricing_plan_id":"cebpf4jnsgd1na2vs0mg"},{"bike_id":"37ba90f7-f164-40e4-837c-7008f8319dde","system_id":"levelo_inurba_marseille","lat":43.305706,"lon":5.365654,"is_reserved":false,"is_disabled":false,"rental_uris":{"android":"levelo://app?vid=37ba90f7-f164-40e4-837c-7008f8319dde","ios":"levelo://app?vid=37ba90f7-f164-40e4-837c-7008f8319dde"},"vehicle_type_id":"4","last_reported":1723406923,"current_range_meters":14400,"station_id":"ce4bgs12rcd13ifvqcag","pricing_plan_id":"cebpf4jnsgd1na2vs0mg"},{"bike_id":"dde65a12-0062-4444-a22c-b8c54b32472c","system_id":"levelo_inurba_marseille","lat":43.30539,"lon":5.36947,"is_reserved":false,"is_disabled":false,"rental_uris":{"android":"levelo://app?vid=dde65a12-0062-4444-a22c-b8c54b32472c","ios":"levelo://app?vid=dde65a12-0062-4444-a22c-b8c54b32472c"},"vehicle_type_id":"4","last_reported":1723406923,"current_range_meters":800,"station_id":"","pricing_plan_id":"cebpf4jnsgd1na2vs0mg"},{"bike_id":"261fa5ee-2230-4771-aa1b-b3eda617880a","system_id":"levelo_inurba_marseille","lat":43.30611,"lon":5.37223,"is_reserved":false,"is_disabled":false,"rental_uris":{"android":"levelo://app?vid=261fa5ee-2230-4771-aa1b-b3eda617880a","ios":"levelo://app?vid=261fa5ee-2230-4771-aa1b-b3eda617880a"},"vehicle_type_id":"4","last_reported":1723406923,"current_range_meters":6800,"station_id":"ce4bgqh2rcd13ifvqc4g","pricing_plan_id":"cebpf4jnsgd1na2vs0mg"},{"bike_id":"9b6e96d2-4bcb-4f9b-89c8-7948cde44e5e","system_id":"levelo_inurba_marseille","lat":43.30609,"lon":5.37225,"is_reserved":false,"is_disabled":false,"rental_uris":{"android":"levelo://app?vid=9b6e96d2-4bcb-4f9b-89c8-7948cde44e5e","ios":"levelo://app?vid=9b6e96d2-4bcb-4f9b-89c8-7948cde44e5e"},"vehicle_type_id":"4","last_reported":1723406923,"current_range_meters":14800,"station_id":"ce4bgqh2rcd13ifvqc4g","pricing_plan_id":"cebpf4jnsgd1na2vs0mg"},{"bike_id":"c8de3224-80fa-436b-91f9-c6be2eea6260","system_id":"levelo_inurba_marseille","lat":43.30604,"lon":5.3723,"is_reserved":false,"is_disabled":false,"rental_uris":{"android":"levelo://app?vid=c8de3224-80fa-436b-91f9-c6be2eea6260","ios":"levelo://app?vid=c8de3224-80fa-436b-91f9-c6be2eea6260"},"vehicle_type_id":"4","last_reported":1723406923,"current_range_meters":26400,"station_id":"ce4bgqh2rcd13ifvqc4g","pricing_plan_id":"cebpf4jnsgd1na2vs0mg"},{"bike_id":"3e06251d-ee03-43b7-a97a-83d28a4ab613","system_id":"levelo_inurba_marseille","lat":43.311263,"lon":5.377625,"is_reserved":false,"is_disabled":false,"rental_uris":{"android":"levelo://app?vid=3e06251d-ee03-43b7-a97a-83d28a4ab613","ios":"levelo://app?vid=3e06251d-ee03-43b7-a97a-83d28a4ab613"},"vehicle_type_id":"4","last_reported":1723406923,"current_range_meters":31200,"station_id":"ce4bgt92rcd13ifvqcg0","pricing_plan_id":"cebpf4jnsgd1na2vs0mg"},{"bike_id":"f984d2c2-fa41-4f8e-8bd5-7a2389262ffa","system_id":"levelo_inurba_marseille","lat":43.311131,"lon":5.377651,"is_reserved":false,"is_disabled":false,"rental_uris":{"android":"levelo://app?vid=f984d2c2-fa41-4f8e-8bd5-7a2389262ffa","ios":"levelo://app?vid=f984d2c2-fa41-4f8e-8bd5-7a2389262ffa"},"vehicle_type_id":"4","last_reported":1723406923,"current_range_meters":400,"station_id":"ce4bgt92rcd13ifvqcg0","pricing_plan_id":"cebpf4jnsgd1na2vs0mg"},{"bike_id":"1d469ba5-7e2f-454a-8f99-6ba735bac2ed","system_id":"levelo_inurba_marseille","lat":43.305714,"lon":5.365633,"is_reserved":false,"is_disabled":false,"rental_uris":{"android":"levelo://app?vid=1d469ba5-7e2f-454a-8f99-6ba735bac2ed","ios":"levelo://app?vid=1d469ba5-7e2f-454a-8f99-6ba735bac2ed"},"vehicle_type_id":"4","last_reported":1723406923,"current_range_meters":30000,"station_id":"ce4bgs12rcd13ifvqcag","pricing_plan_id":"cebpf4jnsgd1na2vs0mg"},{"bike_id":"ec9d80e7-2b7c-4bac-abbc-e867be50ff92","system_id":"levelo_inurba_marseille","lat":43.317075,"lon":5.377367,"is_reserved":false,"is_disabled":false,"rental_uris":{"android":"levelo://app?vid=ec9d80e7-2b7c-4bac-abbc-e867be50ff92","ios":"levelo://app?vid=ec9d80e7-2b7c-4bac-abbc-e867be50ff92"},"vehicle_type_id":"4","last_reported":1723406923,"current_range_meters":29600,"station_id":"ce4bgth2rcd13ifvqch0","pricing_plan_id":"cebpf4jnsgd1na2vs0mg"},{"bike_id":"130a979b-31fe-4d17-a67b-010db4435d22","system_id":"levelo_inurba_marseille","lat":43.307945,"lon":5.376487,"is_reserved":false,"is_disabled":false,"rental_uris":{"android":"levelo://app?vid=130a979b-31fe-4d17-a67b-010db4435d22","ios":"levelo://app?vid=130a979b-31fe-4d17-a67b-010db4435d22"},"vehicle_type_id":"4","last_reported":1723406923,"current_range_meters":4000,"station_id":"ce4bgv92rcd13ifvqcq0","pricing_plan_id":"cebpf4jnsgd1na2vs0mg"},{"bike_id":"dd022c3d-6571-4a9e-a1f3-609f5dce65c2","system_id":"levelo_inurba_marseille","lat":43.317075,"lon":5.377367,"is_reserved":false,"is_disabled":false,"rental_uris":{"android":"levelo://app?vid=dd022c3d-6571-4a9e-a1f3-609f5dce65c2","ios":"levelo://app?vid=dd022c3d-6571-4a9e-a1f3-609f5dce65c2"},"vehicle_type_id":"4","last_reported":1723406923,"current_range_meters":19600,"station_id":"ce4bgth2rcd13ifvqch0","pricing_plan_id":"cebpf4jnsgd1na2vs0mg"},{"bike_id":"65c1c7dc-6aed-4321-ba02-9f68cd77245e","system_id":"levelo_inurba_marseille","lat":43.317075,"lon":5.377367,"is_reserved":false,"is_disabled":false,"rental_uris":{"android":"levelo://app?vid=65c1c7dc-6aed-4321-ba02-9f68cd77245e","ios":"levelo://app?vid=65c1c7dc-6aed-4321-ba02-9f68cd77245e"},"vehicle_type_id":"4","last_reported":1723406923,"current_range_meters":28400,"station_id":"ce4bgth2rcd13ifvqch0","pricing_plan_id":"cebpf4jnsgd1na2vs0mg"},{"bike_id":"78c8d586-f078-4816-b18b-7bd3ddfd330b","system_id":"levelo_inurba_marseille","lat":43.309922,"lon":5.37932,"is_reserved":false,"is_disabled":false,"rental_uris":{"android":"levelo://app?vid=78c8d586-f078-4816-b18b-7bd3ddfd330b","ios":"levelo://app?vid=78c8d586-f078-4816-b18b-7bd3ddfd330b"},"vehicle_type_id":"4","last_reported":1723406923,"current_range_meters":7600,"station_id":"","pricing_plan_id":"cebpf4jnsgd1na2vs0mg"},{"bike_id":"303137a6-ce0b-4306-b88e-00f89ba0a582","system_id":"levelo_inurba_marseille","lat":43.30319,"lon":5.36664,"is_reserved":false,"is_disabled":false,"rental_uris":{"android":"levelo://app?vid=303137a6-ce0b-4306-b88e-00f89ba0a582","ios":"levelo://app?vid=303137a6-ce0b-4306-b88e-00f89ba0a582"},"vehicle_type_id":"4","last_reported":1723406923,"current_range_meters":0,"station_id":"","pricing_plan_id":"cebpf4jnsgd1na2vs0mg"},{"bike_id":"3a11e91a-a613-4d01-83e7-c8271cb6599c","system_id":"levelo_inurba_marseille","lat":43.315289,"lon":5.380349,"is_reserved":false,"is_disabled":false,"rental_uris":{"android":"levelo://app?vid=3a11e91a-a613-4d01-83e7-c8271cb6599c","ios":"levelo://app?vid=3a11e91a-a613-4d01-83e7-c8271cb6599c"},"vehicle_type_id":"4","last_reported":1723406923,"current_range_meters":8800,"station_id":"ce4bhsp2rcd13ifvqi50","pricing_plan_id":"cebpf4jnsgd1na2vs0mg"},{"bike_id":"d1113433-f300-4aad-bfb2-05fe4eb95a62","system_id":"levelo_inurba_marseille","lat":43.315289,"lon":5.380349,"is_reserved":false,"is_disabled":false,"rental_uris":{"android":"levelo://app?vid=d1113433-f300-4aad-bfb2-05fe4eb95a62","ios":"levelo://app?vid=d1113433-f300-4aad-bfb2-05fe4eb95a62"},"vehicle_type_id":"4","last_reported":1723406923,"current_range_meters":12400,"station_id":"ce4bhsp2rcd13ifvqi50","pricing_plan_id":"cebpf4jnsgd1na2vs0mg"},{"bike_id":"ca224eb9-746a-4cda-9842-aff7e6644eca","system_id":"levelo_inurba_marseille","lat":43.301939,"lon":5.366286,"is_reserved":false,"is_disabled":false,"rental_uris":{"android":"levelo://app?vid=ca224eb9-746a-4cda-9842-aff7e6644eca","ios":"levelo://app?vid=ca224eb9-746a-4cda-9842-aff7e6644eca"},"vehicle_type_id":"4","last_reported":1723406923,"current_range_meters":17600,"station_id":"ce4bgrh2rcd13ifvqc8g","pricing_plan_id":"cebpf4jnsgd1na2vs0mg"},{"bike_id":"8c072ac3-e852-492e-a895-e5145580f4b3","system_id":"levelo_inurba_marseille","lat":43.301939,"lon":5.366286,"is_reserved":false,"is_disabled":false,"rental_uris":{"android":"levelo://app?vid=8c072ac3-e852-492e-a895-e5145580f4b3","ios":"levelo://app?vid=8c072ac3-e852-492e-a895-e5145580f4b3"},"vehicle_type_id":"4","last_reported":1723406923,"current_range_meters":6800,"station_id":"ce4bgrh2rcd13ifvqc8g","pricing_plan_id":"cebpf4jnsgd1na2vs0mg"},{"bike_id":"de12e3ae-e12b-4647-bf34-a67a98549560","system_id":"levelo_inurba_marseille","lat":43.308012,"lon":5.381511,"is_reserved":false,"is_disabled":false,"rental_uris":{"android":"levelo://app?vid=de12e3ae-e12b-4647-bf34-a67a98549560","ios":"levelo://app?vid=de12e3ae-e12b-4647-bf34-a67a98549560"},"vehicle_type_id":"4","last_reported":1723406923,"current_range_meters":24000,"station_id":"ce4bgt12rcd13ifvqce0","pricing_plan_id":"cebpf4jnsgd1na2vs0mg"},{"bike_id":"8c69a807-d9e0-4a36-8318-649835097ffd","system_id":"levelo_inurba_marseille","lat":43.304606,"lon":5.379026,"is_reserved":false,"is_disabled":false,"rental_uris":{"android":"levelo://app?vid=8c69a807-d9e0-4a36-8318-649835097ffd","ios":"levelo://app?vid=8c69a807-d9e0-4a36-8318-649835097ffd"},"vehicle_type_id":"4","last_reported":1723406923,"current_range_meters":5600,"station_id":"ce4bgup2rcd13ifvqcn0","pricing_plan_id":"cebpf4jnsgd1na2vs0mg"},{"bike_id":"31fd02e0-3bf4-4396-8f16-23f03ed80399","system_id":"levelo_inurba_marseille","lat":43.304606,"lon":5.379026,"is_reserved":false,"is_disabled":false,"rental_uris":{"android":"levelo://app?vid=31fd02e0-3bf4-4396-8f16-23f03ed80399","ios":"levelo://app?vid=31fd02e0-3bf4-4396-8f16-23f03ed80399"},"vehicle_type_id":"4","last_reported":1723406923,"current_range_meters":14400,"station_id":"ce4bgup2rcd13ifvqcn0","pricing_plan_id":"cebpf4jnsgd1na2vs0mg"},{"bike_id":"d1994d52-9125-48d2-a6f6-51724548f102","system_id":"levelo_inurba_marseille","lat":43.304606,"lon":5.379026,"is_reserved":false,"is_disabled":false,"rental_uris":{"android":"levelo://app?vid=d1994d52-9125-48d2-a6f6-51724548f102","ios":"levelo://app?vid=d1994d52-9125-48d2-a6f6-51724548f102"},"vehicle_type_id":"4","last_reported":1723406923,"current_range_meters":30800,"station_id":"ce4bgup2rcd13ifvqcn0","pricing_plan_id":"cebpf4jnsgd1na2vs0mg"},{"bike_id":"da8d3dd8-5bdf-4478-bce5-4f01601353c8","system_id":"levelo_inurba_marseille","lat":43.324923,"lon":5.366297,"is_reserved":false,"is_disabled":false,"rental_uris":{"android":"levelo://app?vid=da8d3dd8-5bdf-4478-bce5-4f01601353c8","ios":"levelo://app?vid=da8d3dd8-5bdf-4478-bce5-4f01601353c8"},"vehicle_type_id":"4","last_reported":1723406923,"current_range_meters":23200,"station_id":"","pricing_plan_id":"cebpf4jnsgd1na2vs0mg"},{"bike_id":"eb2ebe14-c3bd-4675-a842-6cb3312d3650","system_id":"levelo_inurba_marseille","lat":43.310804,"lon":5.38359,"is_reserved":false,"is_disabled":false,"rental_uris":{"android":"levelo://app?vid=eb2ebe14-c3bd-4675-a842-6cb3312d3650","ios":"levelo://app?vid=eb2ebe14-c3bd-4675-a842-6cb3312d3650"},"vehicle_type_id":"4","last_reported":1723406923,"current_range_meters":18400,"station_id":"ce4bgv92rcd13ifvqcr0","pricing_plan_id":"cebpf4jnsgd1na2vs0mg"},{"bike_id":"11e3b680-6f3d-4e0f-bc35-903c7829dd9b","system_id":"levelo_inurba_marseille","lat":43.310804,"lon":5.38359,"is_reserved":false,"is_disabled":false,"rental_uris":{"android":"levelo://app?vid=11e3b680-6f3d-4e0f-bc35-903c7829dd9b","ios":"levelo://app?vid=11e3b680-6f3d-4e0f-bc35-903c7829dd9b"},"vehicle_type_id":"4","last_reported":1723406923,"current_range_meters":31200,"station_id":"ce4bgv92rcd13ifvqcr0","pricing_plan_id":"cebpf4jnsgd1na2vs0mg"},{"bike_id":"bada29be-2fd0-4fa9-8318-f2a63f4ef032","system_id":"levelo_inurba_marseille","lat":43.30278,"lon":5.37707,"is_reserved":false,"is_disabled":false,"rental_uris":{"android":"levelo://app?vid=bada29be-2fd0-4fa9-8318-f2a63f4ef032","ios":"levelo://app?vid=bada29be-2fd0-4fa9-8318-f2a63f4ef032"},"vehicle_type_id":"4","last_reported":1723406923,"current_range_meters":30800,"station_id":"ce4bguh2rcd13ifvqcj0","pricing_plan_id":"cebpf4jnsgd1na2vs0mg"},{"bike_id":"6bda725c-2c54-4fdd-bf22-3ec5bbb23dd6","system_id":"levelo_inurba_marseille","lat":43.304606,"lon":5.379026,"is_reserved":false,"is_disabled":false,"rental_uris":{"android":"levelo://app?vid=6bda725c-2c54-4fdd-bf22-3ec5bbb23dd6","ios":"levelo://app?vid=6bda725c-2c54-4fdd-bf22-3ec5bbb23dd6"},"vehicle_type_id":"4","last_reported":1723406923,"current_range_meters":20400,"station_id":"ce4bgup2rcd13ifvqcn0","pricing_plan_id":"cebpf4jnsgd1na2vs0mg"},{"bike_id":"db8f5f3d-1278-4ae2-aba9-3d81e832cc94","system_id":"levelo_inurba_marseille","lat":43.3161,"lon":5.38388,"is_reserved":false,"is_disabled":false,"rental_uris":{"android":"levelo://app?vid=db8f5f3d-1278-4ae2-aba9-3d81e832cc94","ios":"levelo://app?vid=db8f5f3d-1278-4ae2-aba9-3d81e832cc94"},"vehicle_type_id":"4","last_reported":1723406923,"current_range_meters":6800,"station_id":"","pricing_plan_id":"cebpf4jnsgd1na2vs0mg"},{"bike_id":"93251842-21e4-4970-8026-f9acb9b172c9","system_id":"levelo_inurba_marseille","lat":43.319935,"lon":5.381699,"is_reserved":false,"is_disabled":false,"rental_uris":{"android":"levelo://app?vid=93251842-21e4-4970-8026-f9acb9b172c9","ios":"levelo://app?vid=93251842-21e4-4970-8026-f9acb9b172c9"},"vehicle_type_id":"4","last_reported":1723406923,"current_range_meters":13600,"station_id":"ce4bhr12rcd13ifvqhpg","pricing_plan_id":"cebpf4jnsgd1na2vs0mg"},{"bike_id":"057ccf9f-39fa-445b-aa8c-1553727eb8e1","system_id":"levelo_inurba_marseille","lat":43.319942,"lon":5.381511,"is_reserved":false,"is_disabled":false,"rental_uris":{"android":"levelo://app?vid=057ccf9f-39fa-445b-aa8c-1553727eb8e1","ios":"levelo://app?vid=057ccf9f-39fa-445b-aa8c-1553727eb8e1"},"vehicle_type_id":"4","last_reported":1723406923,"current_range_meters":29600,"station_id":"ce4bhr12rcd13ifvqhpg","pricing_plan_id":"cebpf4jnsgd1na2vs0mg"},{"bike_id":"dc8b43c1-dad1-434c-ae57-0ae222f13308","system_id":"levelo_inurba_marseille","lat":43.31991,"lon":5.38159,"is_reserved":false,"is_disabled":false,"rental_uris":{"android":"levelo://app?vid=dc8b43c1-dad1-434c-ae57-0ae222f13308","ios":"levelo://app?vid=dc8b43c1-dad1-434c-ae57-0ae222f13308"},"vehicle_type_id":"4","last_reported":1723406923,"current_range_meters":10400,"station_id":"ce4bhr12rcd13ifvqhpg","pricing_plan_id":"cebpf4jnsgd1na2vs0mg"},{"bike_id":"52eb169c-3428-4685-a12a-50b291fd0b04","system_id":"levelo_inurba_marseille","lat":43.319935,"lon":5.381699,"is_reserved":false,"is_disabled":false,"rental_uris":{"android":"levelo://app?vid=52eb169c-3428-4685-a12a-50b291fd0b04","ios":"levelo://app?vid=52eb169c-3428-4685-a12a-50b291fd0b04"},"vehicle_type_id":"4","last_reported":1723406923,"current_range_meters":26800,"station_id":"ce4bhr12rcd13ifvqhpg","pricing_plan_id":"cebpf4jnsgd1na2vs0mg"},{"bike_id":"beb52010-14f1-424b-a2bb-190e8ffb2b0c","system_id":"levelo_inurba_marseille","lat":43.319935,"lon":5.381699,"is_reserved":false,"is_disabled":false,"rental_uris":{"android":"levelo://app?vid=beb52010-14f1-424b-a2bb-190e8ffb2b0c","ios":"levelo://app?vid=beb52010-14f1-424b-a2bb-190e8ffb2b0c"},"vehicle_type_id":"4","last_reported":1723406923,"current_range_meters":10400,"station_id":"ce4bhr12rcd13ifvqhpg","pricing_plan_id":"cebpf4jnsgd1na2vs0mg"},{"bike_id":"72632507-7d6e-4b8c-b0ac-2d1c7b1f001c","system_id":"levelo_inurba_marseille","lat":43.313571,"lon":5.384829,"is_reserved":false,"is_disabled":false,"rental_uris":{"android":"levelo://app?vid=72632507-7d6e-4b8c-b0ac-2d1c7b1f001c","ios":"levelo://app?vid=72632507-7d6e-4b8c-b0ac-2d1c7b1f001c"},"vehicle_type_id":"4","last_reported":1723406923,"current_range_meters":28000,"station_id":"ce4bgt92rcd13ifvqcf0","pricing_plan_id":"cebpf4jnsgd1na2vs0mg"},{"bike_id":"c4151665-e44a-4f9a-a857-a95e6406f00e","system_id":"levelo_inurba_marseille","lat":43.299222,"lon":5.365554,"is_reserved":false,"is_disabled":false,"rental_uris":{"android":"levelo://app?vid=c4151665-e44a-4f9a-a857-a95e6406f00e","ios":"levelo://app?vid=c4151665-e44a-4f9a-a857-a95e6406f00e"},"vehicle_type_id":"4","last_reported":1723406923,"current_range_meters":7600,"station_id":"ce4bgm92rcd13ifvqbr0","pricing_plan_id":"cebpf4jnsgd1na2vs0mg"},{"bike_id":"169df4f7-7889-4620-aaca-273ad009ea53","system_id":"levelo_inurba_marseille","lat":43.29848,"lon":5.36293,"is_reserved":false,"is_disabled":false,"rental_uris":{"android":"levelo://app?vid=169df4f7-7889-4620-aaca-273ad009ea53","ios":"levelo://app?vid=169df4f7-7889-4620-aaca-273ad009ea53"},"vehicle_type_id":"4","last_reported":1723406923,"current_range_meters":8800,"station_id":"ce4bgpp2rcd13ifvqc3g","pricing_plan_id":"cebpf4jnsgd1na2vs0mg"},{"bike_id":"533c32b4-baff-4089-b00b-03abb72f70b7","system_id":"levelo_inurba_marseille","lat":43.31177,"lon":5.387043,"is_reserved":false,"is_disabled":false,"rental_uris":{"android":"levelo://app?vid=533c32b4-baff-4089-b00b-03abb72f70b7","ios":"levelo://app?vid=533c32b4-baff-4089-b00b-03abb72f70b7"},"vehicle_type_id":"4","last_reported":1723406923,"current_range_meters":31200,"station_id":"ce4bgv12rcd13ifvqcp0","pricing_plan_id":"cebpf4jnsgd1na2vs0mg"},{"bike_id":"ecc8dd0e-2c4f-4d6b-979e-2a00753609ab","system_id":"levelo_inurba_marseille","lat":43.3118,"lon":5.38719,"is_reserved":false,"is_disabled":false,"rental_uris":{"android":"levelo://app?vid=ecc8dd0e-2c4f-4d6b-979e-2a00753609ab","ios":"levelo://app?vid=ecc8dd0e-2c4f-4d6b-979e-2a00753609ab"},"vehicle_type_id":"4","last_reported":1723406923,"current_range_meters":0,"station_id":"","pricing_plan_id":"cebpf4jnsgd1na2vs0mg"},{"bike_id":"7a04e0ce-d317-4dea-9df5-27d682d1ecf7","system_id":"levelo_inurba_marseille","lat":43.311722,"lon":5.387247,"is_reserved":false,"is_disabled":false,"rental_uris":{"android":"levelo://app?vid=7a04e0ce-d317-4dea-9df5-27d682d1ecf7","ios":"levelo://app?vid=7a04e0ce-d317-4dea-9df5-27d682d1ecf7"},"vehicle_type_id":"4","last_reported":1723406923,"current_range_meters":31200,"station_id":"ce4bgv12rcd13ifvqcp0","pricing_plan_id":"cebpf4jnsgd1na2vs0mg"},{"bike_id":"9a20467f-8c7e-4302-83c7-d210be68290d","system_id":"levelo_inurba_marseille","lat":43.311722,"lon":5.387247,"is_reserved":false,"is_disabled":false,"rental_uris":{"android":"levelo://app?vid=9a20467f-8c7e-4302-83c7-d210be68290d","ios":"levelo://app?vid=9a20467f-8c7e-4302-83c7-d210be68290d"},"vehicle_type_id":"4","last_reported":1723406923,"current_range_meters":16000,"station_id":"ce4bgv12rcd13ifvqcp0","pricing_plan_id":"cebpf4jnsgd1na2vs0mg"},{"bike_id":"c0b4c7c8-fee4-4395-9b00-4db7ff3b3cc2","system_id":"levelo_inurba_marseille","lat":43.31165,"lon":5.38721,"is_reserved":false,"is_disabled":false,"rental_uris":{"android":"levelo://app?vid=c0b4c7c8-fee4-4395-9b00-4db7ff3b3cc2","ios":"levelo://app?vid=c0b4c7c8-fee4-4395-9b00-4db7ff3b3cc2"},"vehicle_type_id":"4","last_reported":1723406923,"current_range_meters":15600,"station_id":"","pricing_plan_id":"cebpf4jnsgd1na2vs0mg"},{"bike_id":"4f2cb878-4ccf-409d-8684-de54a86897dd","system_id":"levelo_inurba_marseille","lat":43.31169,"lon":5.38724,"is_reserved":false,"is_disabled":false,"rental_uris":{"android":"levelo://app?vid=4f2cb878-4ccf-409d-8684-de54a86897dd","ios":"levelo://app?vid=4f2cb878-4ccf-409d-8684-de54a86897dd"},"vehicle_type_id":"4","last_reported":1723406923,"current_range_meters":29200,"station_id":"ce4bgv12rcd13ifvqcp0","pricing_plan_id":"cebpf4jnsgd1na2vs0mg"},{"bike_id":"1f7b93ea-120d-4e07-9dda-b5fdac1fd64f","system_id":"levelo_inurba_marseille","lat":43.32264,"lon":5.38287,"is_reserved":false,"is_disabled":false,"rental_uris":{"android":"levelo://app?vid=1f7b93ea-120d-4e07-9dda-b5fdac1fd64f","ios":"levelo://app?vid=1f7b93ea-120d-4e07-9dda-b5fdac1fd64f"},"vehicle_type_id":"4","last_reported":1723406923,"current_range_meters":17600,"station_id":"ce4bhr12rcd13ifvqhqg","pricing_plan_id":"cebpf4jnsgd1na2vs0mg"},{"bike_id":"6d4f9ef2-7c08-444e-b984-891dabf10f0b","system_id":"levelo_inurba_marseille","lat":43.322872,"lon":5.382756,"is_reserved":false,"is_disabled":false,"rental_uris":{"android":"levelo://app?vid=6d4f9ef2-7c08-444e-b984-891dabf10f0b","ios":"levelo://app?vid=6d4f9ef2-7c08-444e-b984-891dabf10f0b"},"vehicle_type_id":"4","last_reported":1723406923,"current_range_meters":23200,"station_id":"ce4bhr12rcd13ifvqhqg","pricing_plan_id":"cebpf4jnsgd1na2vs0mg"},{"bike_id":"9db6941a-339a-467a-8c7d-e811acda7576","system_id":"levelo_inurba_marseille","lat":43.2968,"lon":5.37291,"is_reserved":false,"is_disabled":false,"rental_uris":{"android":"levelo://app?vid=9db6941a-339a-467a-8c7d-e811acda7576","ios":"levelo://app?vid=9db6941a-339a-467a-8c7d-e811acda7576"},"vehicle_type_id":"4","last_reported":1723406923,"current_range_meters":6400,"station_id":"ce4bgk12rcd13ifvqbj0","pricing_plan_id":"cebpf4jnsgd1na2vs0mg"},{"bike_id":"537a79a4-d050-4516-bbde-1c1a53b20cb1","system_id":"levelo_inurba_marseille","lat":43.296131,"lon":5.370791,"is_reserved":false,"is_disabled":false,"rental_uris":{"android":"levelo://app?vid=537a79a4-d050-4516-bbde-1c1a53b20cb1","ios":"levelo://app?vid=537a79a4-d050-4516-bbde-1c1a53b20cb1"},"vehicle_type_id":"4","last_reported":1723406923,"current_range_meters":10800,"station_id":"ce4bgnh2rcd13ifvqc0g","pricing_plan_id":"cebpf4jnsgd1na2vs0mg"},{"bike_id":"6e174f46-23f0-4054-90aa-3aa1af2200ae","system_id":"levelo_inurba_marseille","lat":43.296131,"lon":5.370773,"is_reserved":false,"is_disabled":false,"rental_uris":{"android":"levelo://app?vid=6e174f46-23f0-4054-90aa-3aa1af2200ae","ios":"levelo://app?vid=6e174f46-23f0-4054-90aa-3aa1af2200ae"},"vehicle_type_id":"4","last_reported":1723406923,"current_range_meters":0,"station_id":"ce4bgnh2rcd13ifvqc0g","pricing_plan_id":"cebpf4jnsgd1na2vs0mg"},{"bike_id":"772b5d73-9993-427c-895b-71f3534efe20","system_id":"levelo_inurba_marseille","lat":43.29584,"lon":5.3674,"is_reserved":false,"is_disabled":false,"rental_uris":{"android":"levelo://app?vid=772b5d73-9993-427c-895b-71f3534efe20","ios":"levelo://app?vid=772b5d73-9993-427c-895b-71f3534efe20"},"vehicle_type_id":"4","last_reported":1723406923,"current_range_meters":0,"station_id":"ce4bgph2rcd13ifvqc2g","pricing_plan_id":"cebpf4jnsgd1na2vs0mg"},{"bike_id":"3b83d15d-78f3-4d68-81c6-7bf871804c94","system_id":"levelo_inurba_marseille","lat":43.29615,"lon":5.37164,"is_reserved":false,"is_disabled":false,"rental_uris":{"android":"levelo://app?vid=3b83d15d-78f3-4d68-81c6-7bf871804c94","ios":"levelo://app?vid=3b83d15d-78f3-4d68-81c6-7bf871804c94"},"vehicle_type_id":"4","last_reported":1723406923,"current_range_meters":4000,"station_id":"ce4bgnh2rcd13ifvqc0g","pricing_plan_id":"cebpf4jnsgd1na2vs0mg"},{"bike_id":"c568f253-f437-40d7-91e0-8a0c20115011","system_id":"levelo_inurba_marseille","lat":43.322099,"lon":5.386843,"is_reserved":false,"is_disabled":false,"rental_uris":{"android":"levelo://app?vid=c568f253-f437-40d7-91e0-8a0c20115011","ios":"levelo://app?vid=c568f253-f437-40d7-91e0-8a0c20115011"},"vehicle_type_id":"4","last_reported":1723406923,"current_range_meters":12800,"station_id":"","pricing_plan_id":"cebpf4jnsgd1na2vs0mg"},{"bike_id":"ce8e5e79-d7d6-4f04-b895-e8d84d1ab902","system_id":"levelo_inurba_marseille","lat":43.299028,"lon":5.381509,"is_reserved":false,"is_disabled":false,"rental_uris":{"android":"levelo://app?vid=ce8e5e79-d7d6-4f04-b895-e8d84d1ab902","ios":"levelo://app?vid=ce8e5e79-d7d6-4f04-b895-e8d84d1ab902"},"vehicle_type_id":"4","last_reported":1723406923,"current_range_meters":4800,"station_id":"ce4bgj12rcd13ifvqbc0","pricing_plan_id":"cebpf4jnsgd1na2vs0mg"},{"bike_id":"b3a6d50e-fb9b-4d60-9b81-e39ae6354e7b","system_id":"levelo_inurba_marseille","lat":43.309589,"lon":5.390258,"is_reserved":false,"is_disabled":false,"rental_uris":{"android":"levelo://app?vid=b3a6d50e-fb9b-4d60-9b81-e39ae6354e7b","ios":"levelo://app?vid=b3a6d50e-fb9b-4d60-9b81-e39ae6354e7b"},"vehicle_type_id":"4","last_reported":1723406923,"current_range_meters":16400,"station_id":"ce4bgup2rcd13ifvqco0","pricing_plan_id":"cebpf4jnsgd1na2vs0mg"},{"bike_id":"77fa85f0-d993-4301-b7ed-38b06370819a","system_id":"levelo_inurba_marseille","lat":43.322591,"lon":5.386805,"is_reserved":false,"is_disabled":false,"rental_uris":{"android":"levelo://app?vid=77fa85f0-d993-4301-b7ed-38b06370819a","ios":"levelo://app?vid=77fa85f0-d993-4301-b7ed-38b06370819a"},"vehicle_type_id":"4","last_reported":1723406923,"current_range_meters":4800,"station_id":"","pricing_plan_id":"cebpf4jnsgd1na2vs0mg"},{"bike_id":"bc68d1fd-bfdc-477f-a7d3-4a3e52c29636","system_id":"levelo_inurba_marseille","lat":43.30923,"lon":5.39066,"is_reserved":false,"is_disabled":false,"rental_uris":{"android":"levelo://app?vid=bc68d1fd-bfdc-477f-a7d3-4a3e52c29636","ios":"levelo://app?vid=bc68d1fd-bfdc-477f-a7d3-4a3e52c29636"},"vehicle_type_id":"4","last_reported":1723406923,"current_range_meters":13600,"station_id":"","pricing_plan_id":"cebpf4jnsgd1na2vs0mg"},{"bike_id":"9a6b359e-356f-421f-99f3-f216d5e4b31e","system_id":"levelo_inurba_marseille","lat":43.317557,"lon":5.390173,"is_reserved":false,"is_disabled":false,"rental_uris":{"android":"levelo://app?vid=9a6b359e-356f-421f-99f3-f216d5e4b31e","ios":"levelo://app?vid=9a6b359e-356f-421f-99f3-f216d5e4b31e"},"vehicle_type_id":"4","last_reported":1723406923,"current_range_meters":24400,"station_id":"ce4bhqp2rcd13ifvqhng","pricing_plan_id":"cebpf4jnsgd1na2vs0mg"},{"bike_id":"15f9a7ff-76f9-4914-af1c-ff2f31f0337c","system_id":"levelo_inurba_marseille","lat":43.317557,"lon":5.390173,"is_reserved":false,"is_disabled":false,"rental_uris":{"android":"levelo://app?vid=15f9a7ff-76f9-4914-af1c-ff2f31f0337c","ios":"levelo://app?vid=15f9a7ff-76f9-4914-af1c-ff2f31f0337c"},"vehicle_type_id":"4","last_reported":1723406923,"current_range_meters":11200,"station_id":"ce4bhqp2rcd13ifvqhng","pricing_plan_id":"cebpf4jnsgd1na2vs0mg"},{"bike_id":"737c57ac-c03a-4a7b-8d73-68934788005e","system_id":"levelo_inurba_marseille","lat":43.317557,"lon":5.390173,"is_reserved":false,"is_disabled":false,"rental_uris":{"android":"levelo://app?vid=737c57ac-c03a-4a7b-8d73-68934788005e","ios":"levelo://app?vid=737c57ac-c03a-4a7b-8d73-68934788005e"},"vehicle_type_id":"4","last_reported":1723406923,"current_range_meters":18800,"station_id":"ce4bhqp2rcd13ifvqhng","pricing_plan_id":"cebpf4jnsgd1na2vs0mg"},{"bike_id":"e72d662b-0612-4b10-9d1c-4b34739b033f","system_id":"levelo_inurba_marseille","lat":43.317557,"lon":5.390173,"is_reserved":false,"is_disabled":false,"rental_uris":{"android":"levelo://app?vid=e72d662b-0612-4b10-9d1c-4b34739b033f","ios":"levelo://app?vid=e72d662b-0612-4b10-9d1c-4b34739b033f"},"vehicle_type_id":"4","last_reported":1723406923,"current_range_meters":28400,"station_id":"ce4bhqp2rcd13ifvqhng","pricing_plan_id":"cebpf4jnsgd1na2vs0mg"},{"bike_id":"b3c6f7e8-0b74-4440-8268-19a186ddc964","system_id":"levelo_inurba_marseille","lat":43.29578,"lon":5.37508,"is_reserved":false,"is_disabled":false,"rental_uris":{"android":"levelo://app?vid=b3c6f7e8-0b74-4440-8268-19a186ddc964","ios":"levelo://app?vid=b3c6f7e8-0b74-4440-8268-19a186ddc964"},"vehicle_type_id":"4","last_reported":1723406923,"current_range_meters":30000,"station_id":"ce4bgh92rcd13ifvqb50","pricing_plan_id":"cebpf4jnsgd1na2vs0mg"},{"bike_id":"3baed3b8-b878-43a3-96f0-532e98335b34","system_id":"levelo_inurba_marseille","lat":43.304274,"lon":5.388873,"is_reserved":false,"is_disabled":false,"rental_uris":{"android":"levelo://app?vid=3baed3b8-b878-43a3-96f0-532e98335b34","ios":"levelo://app?vid=3baed3b8-b878-43a3-96f0-532e98335b34"},"vehicle_type_id":"4","last_reported":1723406923,"current_range_meters":3600,"station_id":"ce4bgk12rcd13ifvqbi0","pricing_plan_id":"cebpf4jnsgd1na2vs0mg"},{"bike_id":"2caa202b-2a45-4b3b-be2c-d0c7019dd3b1","system_id":"levelo_inurba_marseille","lat":43.29575,"lon":5.37515,"is_reserved":false,"is_disabled":false,"rental_uris":{"android":"levelo://app?vid=2caa202b-2a45-4b3b-be2c-d0c7019dd3b1","ios":"levelo://app?vid=2caa202b-2a45-4b3b-be2c-d0c7019dd3b1"},"vehicle_type_id":"4","last_reported":1723406923,"current_range_meters":21200,"station_id":"ce4bgh92rcd13ifvqb50","pricing_plan_id":"cebpf4jnsgd1na2vs0mg"},{"bike_id":"ec463a99-a94b-4f7a-866d-0765b576ad67","system_id":"levelo_inurba_marseille","lat":43.295748,"lon":5.37522,"is_reserved":false,"is_disabled":false,"rental_uris":{"android":"levelo://app?vid=ec463a99-a94b-4f7a-866d-0765b576ad67","ios":"levelo://app?vid=ec463a99-a94b-4f7a-866d-0765b576ad67"},"vehicle_type_id":"4","last_reported":1723406923,"current_range_meters":22000,"station_id":"ce4bgh92rcd13ifvqb50","pricing_plan_id":"cebpf4jnsgd1na2vs0mg"},{"bike_id":"6710d687-f12c-4d60-88d4-788894918e00","system_id":"levelo_inurba_marseille","lat":43.299717,"lon":5.384845,"is_reserved":false,"is_disabled":false,"rental_uris":{"android":"levelo://app?vid=6710d687-f12c-4d60-88d4-788894918e00","ios":"levelo://app?vid=6710d687-f12c-4d60-88d4-788894918e00"},"vehicle_type_id":"4","last_reported":1723406923,"current_range_meters":8000,"station_id":"ce4bgj92rcd13ifvqbd0","pricing_plan_id":"cebpf4jnsgd1na2vs0mg"},{"bike_id":"0d168d84-3331-4963-99e2-547f0ffd3c67","system_id":"levelo_inurba_marseille","lat":43.304606,"lon":5.379026,"is_reserved":false,"is_disabled":false,"rental_uris":{"android":"levelo://app?vid=0d168d84-3331-4963-99e2-547f0ffd3c67","ios":"levelo://app?vid=0d168d84-3331-4963-99e2-547f0ffd3c67"},"vehicle_type_id":"4","last_reported":1723406923,"current_range_meters":26400,"station_id":"ce4bgup2rcd13ifvqcn0","pricing_plan_id":"cebpf4jnsgd1na2vs0mg"},{"bike_id":"310c1f72-4535-4d3f-afd6-f8ddbe4a7c0d","system_id":"levelo_inurba_marseille","lat":43.305364,"lon":5.384119,"is_reserved":false,"is_disabled":false,"rental_uris":{"android":"levelo://app?vid=310c1f72-4535-4d3f-afd6-f8ddbe4a7c0d","ios":"levelo://app?vid=310c1f72-4535-4d3f-afd6-f8ddbe4a7c0d"},"vehicle_type_id":"4","last_reported":1723406923,"current_range_meters":3600,"station_id":"ce4bgg92rcd13ifvqb30","pricing_plan_id":"cebpf4jnsgd1na2vs0mg"},{"bike_id":"60a1a0ca-e2a1-4730-9da2-80e3028e5e79","system_id":"levelo_inurba_marseille","lat":43.32367,"lon":5.388836,"is_reserved":false,"is_disabled":false,"rental_uris":{"android":"levelo://app?vid=60a1a0ca-e2a1-4730-9da2-80e3028e5e79","ios":"levelo://app?vid=60a1a0ca-e2a1-4730-9da2-80e3028e5e79"},"vehicle_type_id":"4","last_reported":1723406923,"current_range_meters":10400,"station_id":"ce4bhqp2rcd13ifvqhog","pricing_plan_id":"cebpf4jnsgd1na2vs0mg"},{"bike_id":"4c4c3818-8cdd-455d-b75d-0e920cc00d49","system_id":"levelo_inurba_marseille","lat":43.32367,"lon":5.388836,"is_reserved":false,"is_disabled":false,"rental_uris":{"android":"levelo://app?vid=4c4c3818-8cdd-455d-b75d-0e920cc00d49","ios":"levelo://app?vid=4c4c3818-8cdd-455d-b75d-0e920cc00d49"},"vehicle_type_id":"4","last_reported":1723406923,"current_range_meters":25600,"station_id":"ce4bhqp2rcd13ifvqhog","pricing_plan_id":"cebpf4jnsgd1na2vs0mg"},{"bike_id":"ba8eb948-0d02-469c-bbd8-0a9bd08fbed1","system_id":"levelo_inurba_marseille","lat":43.29602,"lon":5.381084,"is_reserved":false,"is_disabled":false,"rental_uris":{"android":"levelo://app?vid=ba8eb948-0d02-469c-bbd8-0a9bd08fbed1","ios":"levelo://app?vid=ba8eb948-0d02-469c-bbd8-0a9bd08fbed1"},"vehicle_type_id":"4","last_reported":1723406923,"current_range_meters":26000,"station_id":"ce4bgl12rcd13ifvqbo0","pricing_plan_id":"cebpf4jnsgd1na2vs0mg"},{"bike_id":"8ba14a7e-95e5-467a-b047-fe40aa0ee2e8","system_id":"levelo_inurba_marseille","lat":43.29602,"lon":5.381084,"is_reserved":false,"is_disabled":false,"rental_uris":{"android":"levelo://app?vid=8ba14a7e-95e5-467a-b047-fe40aa0ee2e8","ios":"levelo://app?vid=8ba14a7e-95e5-467a-b047-fe40aa0ee2e8"},"vehicle_type_id":"4","last_reported":1723406923,"current_range_meters":6000,"station_id":"ce4bgl12rcd13ifvqbo0","pricing_plan_id":"cebpf4jnsgd1na2vs0mg"},{"bike_id":"834da4a7-2421-40d9-9e29-45c17cfd4e01","system_id":"levelo_inurba_marseille","lat":43.29277,"lon":5.36841,"is_reserved":false,"is_disabled":false,"rental_uris":{"android":"levelo://app?vid=834da4a7-2421-40d9-9e29-45c17cfd4e01","ios":"levelo://app?vid=834da4a7-2421-40d9-9e29-45c17cfd4e01"},"vehicle_type_id":"4","last_reported":1723406923,"current_range_meters":0,"station_id":"ce4bhbp2rcd13ifvqesg","pricing_plan_id":"cebpf4jnsgd1na2vs0mg"},{"bike_id":"0a456c6e-69a6-4df6-88ba-7e003e45863e","system_id":"levelo_inurba_marseille","lat":43.29276,"lon":5.36838,"is_reserved":false,"is_disabled":false,"rental_uris":{"android":"levelo://app?vid=0a456c6e-69a6-4df6-88ba-7e003e45863e","ios":"levelo://app?vid=0a456c6e-69a6-4df6-88ba-7e003e45863e"},"vehicle_type_id":"4","last_reported":1723406923,"current_range_meters":0,"station_id":"ce4bhbp2rcd13ifvqesg","pricing_plan_id":"cebpf4jnsgd1na2vs0mg"},{"bike_id":"4d6fffa8-afb1-42c8-bf2a-04bbabf42bef","system_id":"levelo_inurba_marseille","lat":43.293259,"lon":5.371586,"is_reserved":false,"is_disabled":false,"rental_uris":{"android":"levelo://app?vid=4d6fffa8-afb1-42c8-bf2a-04bbabf42bef","ios":"levelo://app?vid=4d6fffa8-afb1-42c8-bf2a-04bbabf42bef"},"vehicle_type_id":"4","last_reported":1723406923,"current_range_meters":28400,"station_id":"ce4bgh92rcd13ifvqb40","pricing_plan_id":"cebpf4jnsgd1na2vs0mg"},{"bike_id":"2da82abf-640d-4d30-ab27-f3efdf311e74","system_id":"levelo_inurba_marseille","lat":43.292749,"lon":5.368402,"is_reserved":false,"is_disabled":false,"rental_uris":{"android":"levelo://app?vid=2da82abf-640d-4d30-ab27-f3efdf311e74","ios":"levelo://app?vid=2da82abf-640d-4d30-ab27-f3efdf311e74"},"vehicle_type_id":"4","last_reported":1723406923,"current_range_meters":4000,"station_id":"ce4bhbp2rcd13ifvqesg","pricing_plan_id":"cebpf4jnsgd1na2vs0mg"},{"bike_id":"919837ff-8669-4636-a5cf-b6b31941fec5","system_id":"levelo_inurba_marseille","lat":43.293259,"lon":5.371586,"is_reserved":false,"is_disabled":false,"rental_uris":{"android":"levelo://app?vid=919837ff-8669-4636-a5cf-b6b31941fec5","ios":"levelo://app?vid=919837ff-8669-4636-a5cf-b6b31941fec5"},"vehicle_type_id":"4","last_reported":1723406923,"current_range_meters":25600,"station_id":"ce4bgh92rcd13ifvqb40","pricing_plan_id":"cebpf4jnsgd1na2vs0mg"},{"bike_id":"1a308fda-724f-4330-ba27-ac1c82a8acbc","system_id":"levelo_inurba_marseille","lat":43.31844,"lon":5.39334,"is_reserved":false,"is_disabled":false,"rental_uris":{"android":"levelo://app?vid=1a308fda-724f-4330-ba27-ac1c82a8acbc","ios":"levelo://app?vid=1a308fda-724f-4330-ba27-ac1c82a8acbc"},"vehicle_type_id":"4","last_reported":1723406923,"current_range_meters":3200,"station_id":"","pricing_plan_id":"cebpf4jnsgd1na2vs0mg"},{"bike_id":"8d48545d-6e93-4bfb-a528-99ae0ffdb6c3","system_id":"levelo_inurba_marseille","lat":43.29272,"lon":5.36852,"is_reserved":false,"is_disabled":false,"rental_uris":{"android":"levelo://app?vid=8d48545d-6e93-4bfb-a528-99ae0ffdb6c3","ios":"levelo://app?vid=8d48545d-6e93-4bfb-a528-99ae0ffdb6c3"},"vehicle_type_id":"4","last_reported":1723406923,"current_range_meters":0,"station_id":"ce4bhbp2rcd13ifvqesg","pricing_plan_id":"cebpf4jnsgd1na2vs0mg"},{"bike_id":"b3f73f4d-6a24-410b-ba22-34b9c69922f4","system_id":"levelo_inurba_marseille","lat":43.298516,"lon":5.3865,"is_reserved":false,"is_disabled":false,"rental_uris":{"android":"levelo://app?vid=b3f73f4d-6a24-410b-ba22-34b9c69922f4","ios":"levelo://app?vid=b3f73f4d-6a24-410b-ba22-34b9c69922f4"},"vehicle_type_id":"4","last_reported":1723406923,"current_range_meters":30400,"station_id":"","pricing_plan_id":"cebpf4jnsgd1na2vs0mg"},{"bike_id":"65048e6a-3e1f-4c30-821f-899d77f13c38","system_id":"levelo_inurba_marseille","lat":43.29303,"lon":5.37452,"is_reserved":false,"is_disabled":false,"rental_uris":{"android":"levelo://app?vid=65048e6a-3e1f-4c30-821f-899d77f13c38","ios":"levelo://app?vid=65048e6a-3e1f-4c30-821f-899d77f13c38"},"vehicle_type_id":"4","last_reported":1723406923,"current_range_meters":26000,"station_id":"ce4bgi12rcd13ifvqb70","pricing_plan_id":"cebpf4jnsgd1na2vs0mg"},{"bike_id":"a918a4a8-e46f-4720-8044-560e6b4e2915","system_id":"levelo_inurba_marseille","lat":43.29302,"lon":5.37471,"is_reserved":false,"is_disabled":false,"rental_uris":{"android":"levelo://app?vid=a918a4a8-e46f-4720-8044-560e6b4e2915","ios":"levelo://app?vid=a918a4a8-e46f-4720-8044-560e6b4e2915"},"vehicle_type_id":"4","last_reported":1723406923,"current_range_meters":0,"station_id":"ce4bgi12rcd13ifvqb70","pricing_plan_id":"cebpf4jnsgd1na2vs0mg"},{"bike_id":"8d37495d-9961-45f8-ba67-ee81725ae3ae","system_id":"levelo_inurba_marseille","lat":43.29228,"lon":5.36363,"is_reserved":false,"is_disabled":false,"rental_uris":{"android":"levelo://app?vid=8d37495d-9961-45f8-ba67-ee81725ae3ae","ios":"levelo://app?vid=8d37495d-9961-45f8-ba67-ee81725ae3ae"},"vehicle_type_id":"4","last_reported":1723406923,"current_range_meters":4000,"station_id":"","pricing_plan_id":"cebpf4jnsgd1na2vs0mg"},{"bike_id":"df5d0429-6e4e-47f0-9803-9979893da200","system_id":"levelo_inurba_marseille","lat":43.29289,"lon":5.37468,"is_reserved":false,"is_disabled":false,"rental_uris":{"android":"levelo://app?vid=df5d0429-6e4e-47f0-9803-9979893da200","ios":"levelo://app?vid=df5d0429-6e4e-47f0-9803-9979893da200"},"vehicle_type_id":"4","last_reported":1723406923,"current_range_meters":11200,"station_id":"ce4bgi12rcd13ifvqb70","pricing_plan_id":"cebpf4jnsgd1na2vs0mg"},{"bike_id":"1b3d00ff-2a5e-4a41-97c4-c836077542be","system_id":"levelo_inurba_marseille","lat":43.29233,"lon":5.36172,"is_reserved":false,"is_disabled":false,"rental_uris":{"android":"levelo://app?vid=1b3d00ff-2a5e-4a41-97c4-c836077542be","ios":"levelo://app?vid=1b3d00ff-2a5e-4a41-97c4-c836077542be"},"vehicle_type_id":"4","last_reported":1723406923,"current_range_meters":0,"station_id":"","pricing_plan_id":"cebpf4jnsgd1na2vs0mg"},{"bike_id":"6d443f35-2ae8-4ae7-8341-f26d3484a3e3","system_id":"levelo_inurba_marseille","lat":43.292311,"lon":5.360731,"is_reserved":false,"is_disabled":false,"rental_uris":{"android":"levelo://app?vid=6d443f35-2ae8-4ae7-8341-f26d3484a3e3","ios":"levelo://app?vid=6d443f35-2ae8-4ae7-8341-f26d3484a3e3"},"vehicle_type_id":"4","last_reported":1723406923,"current_range_meters":26800,"station_id":"ce4bhbh2rcd13ifvqeqg","pricing_plan_id":"cebpf4jnsgd1na2vs0mg"},{"bike_id":"d570398b-1f5d-4784-8af0-7b6605886013","system_id":"levelo_inurba_marseille","lat":43.29498,"lon":5.38205,"is_reserved":false,"is_disabled":false,"rental_uris":{"android":"levelo://app?vid=d570398b-1f5d-4784-8af0-7b6605886013","ios":"levelo://app?vid=d570398b-1f5d-4784-8af0-7b6605886013"},"vehicle_type_id":"4","last_reported":1723406923,"current_range_meters":20400,"station_id":"","pricing_plan_id":"cebpf4jnsgd1na2vs0mg"},{"bike_id":"dae69b00-37d5-4787-b53f-f06715208080","system_id":"levelo_inurba_marseille","lat":43.30085,"lon":5.390856,"is_reserved":false,"is_disabled":false,"rental_uris":{"android":"levelo://app?vid=dae69b00-37d5-4787-b53f-f06715208080","ios":"levelo://app?vid=dae69b00-37d5-4787-b53f-f06715208080"},"vehicle_type_id":"4","last_reported":1723406923,"current_range_meters":0,"station_id":"ce4bh192rcd13ifvqdb0","pricing_plan_id":"cebpf4jnsgd1na2vs0mg"},{"bike_id":"9099b508-9b10-4c4f-af36-8e959adcd297","system_id":"levelo_inurba_marseille","lat":43.292311,"lon":5.360731,"is_reserved":false,"is_disabled":false,"rental_uris":{"android":"levelo://app?vid=9099b508-9b10-4c4f-af36-8e959adcd297","ios":"levelo://app?vid=9099b508-9b10-4c4f-af36-8e959adcd297"},"vehicle_type_id":"4","last_reported":1723406923,"current_range_meters":0,"station_id":"ce4bhbh2rcd13ifvqeqg","pricing_plan_id":"cebpf4jnsgd1na2vs0mg"},{"bike_id":"a05a3428-e539-453d-b2db-882641c601d9","system_id":"levelo_inurba_marseille","lat":43.29173,"lon":5.37173,"is_reserved":false,"is_disabled":false,"rental_uris":{"android":"levelo://app?vid=a05a3428-e539-453d-b2db-882641c601d9","ios":"levelo://app?vid=a05a3428-e539-453d-b2db-882641c601d9"},"vehicle_type_id":"4","last_reported":1723406923,"current_range_meters":31200,"station_id":"ce4bha92rcd13ifvqeh0","pricing_plan_id":"cebpf4jnsgd1na2vs0mg"},{"bike_id":"39d632a5-417c-42cb-8302-da12337a9ce6","system_id":"levelo_inurba_marseille","lat":43.291671,"lon":5.371575,"is_reserved":false,"is_disabled":false,"rental_uris":{"android":"levelo://app?vid=39d632a5-417c-42cb-8302-da12337a9ce6","ios":"levelo://app?vid=39d632a5-417c-42cb-8302-da12337a9ce6"},"vehicle_type_id":"4","last_reported":1723406923,"current_range_meters":18400,"station_id":"ce4bha92rcd13ifvqeh0","pricing_plan_id":"cebpf4jnsgd1na2vs0mg"},{"bike_id":"8669c215-f64f-4991-918a-38e605b47e3d","system_id":"levelo_inurba_marseille","lat":43.292876,"lon":5.355544,"is_reserved":false,"is_disabled":false,"rental_uris":{"android":"levelo://app?vid=8669c215-f64f-4991-918a-38e605b47e3d","ios":"levelo://app?vid=8669c215-f64f-4991-918a-38e605b47e3d"},"vehicle_type_id":"4","last_reported":1723406923,"current_range_meters":1600,"station_id":"","pricing_plan_id":"cebpf4jnsgd1na2vs0mg"},{"bike_id":"e7f548d5-6acd-48bc-be21-758fa702f9ce","system_id":"levelo_inurba_marseille","lat":43.31332,"lon":5.39688,"is_reserved":false,"is_disabled":false,"rental_uris":{"android":"levelo://app?vid=e7f548d5-6acd-48bc-be21-758fa702f9ce","ios":"levelo://app?vid=e7f548d5-6acd-48bc-be21-758fa702f9ce"},"vehicle_type_id":"4","last_reported":1723406923,"current_range_meters":3200,"station_id":"ce4bgvp2rcd13ifvqcu0","pricing_plan_id":"cebpf4jnsgd1na2vs0mg"},{"bike_id":"9d4b68a5-c93f-4844-a235-5ff4a055b660","system_id":"levelo_inurba_marseille","lat":43.292385,"lon":5.37767,"is_reserved":false,"is_disabled":false,"rental_uris":{"android":"levelo://app?vid=9d4b68a5-c93f-4844-a235-5ff4a055b660","ios":"levelo://app?vid=9d4b68a5-c93f-4844-a235-5ff4a055b660"},"vehicle_type_id":"4","last_reported":1723406923,"current_range_meters":6800,"station_id":"","pricing_plan_id":"cebpf4jnsgd1na2vs0mg"},{"bike_id":"5dae9e24-f5b1-4a55-948a-6ebd367c2027","system_id":"levelo_inurba_marseille","lat":43.309038,"lon":5.396546,"is_reserved":false,"is_disabled":false,"rental_uris":{"android":"levelo://app?vid=5dae9e24-f5b1-4a55-948a-6ebd367c2027","ios":"levelo://app?vid=5dae9e24-f5b1-4a55-948a-6ebd367c2027"},"vehicle_type_id":"4","last_reported":1723406923,"current_range_meters":29600,"station_id":"ce4bh012rcd13ifvqcv0","pricing_plan_id":"cebpf4jnsgd1na2vs0mg"},{"bike_id":"75c17765-75be-444c-b3fa-79d66c013906","system_id":"levelo_inurba_marseille","lat":43.29529,"lon":5.385581,"is_reserved":false,"is_disabled":false,"rental_uris":{"android":"levelo://app?vid=75c17765-75be-444c-b3fa-79d66c013906","ios":"levelo://app?vid=75c17765-75be-444c-b3fa-79d66c013906"},"vehicle_type_id":"4","last_reported":1723406923,"current_range_meters":4000,"station_id":"ce4bgih2rcd13ifvqba0","pricing_plan_id":"cebpf4jnsgd1na2vs0mg"},{"bike_id":"75316f4e-0b46-4357-a5dc-2f8e2463f71d","system_id":"levelo_inurba_marseille","lat":43.29529,"lon":5.385581,"is_reserved":false,"is_disabled":false,"rental_uris":{"android":"levelo://app?vid=75316f4e-0b46-4357-a5dc-2f8e2463f71d","ios":"levelo://app?vid=75316f4e-0b46-4357-a5dc-2f8e2463f71d"},"vehicle_type_id":"4","last_reported":1723406923,"current_range_meters":4400,"station_id":"ce4bgih2rcd13ifvqba0","pricing_plan_id":"cebpf4jnsgd1na2vs0mg"},{"bike_id":"29dc38e2-1037-479d-872f-980dff23b2ca","system_id":"levelo_inurba_marseille","lat":43.29529,"lon":5.385581,"is_reserved":false,"is_disabled":false,"rental_uris":{"android":"levelo://app?vid=29dc38e2-1037-479d-872f-980dff23b2ca","ios":"levelo://app?vid=29dc38e2-1037-479d-872f-980dff23b2ca"},"vehicle_type_id":"4","last_reported":1723406923,"current_range_meters":19200,"station_id":"ce4bgih2rcd13ifvqba0","pricing_plan_id":"cebpf4jnsgd1na2vs0mg"},{"bike_id":"cb5498ce-af1a-401b-9816-3142cff0035d","system_id":"levelo_inurba_marseille","lat":43.290779,"lon":5.371482,"is_reserved":false,"is_disabled":false,"rental_uris":{"android":"levelo://app?vid=cb5498ce-af1a-401b-9816-3142cff0035d","ios":"levelo://app?vid=cb5498ce-af1a-401b-9816-3142cff0035d"},"vehicle_type_id":"4","last_reported":1723406923,"current_range_meters":6800,"station_id":"ce4bh5p2rcd13ifvqe4g","pricing_plan_id":"cebpf4jnsgd1na2vs0mg"},{"bike_id":"1d9ffea0-863c-4db2-8b69-7c3969090a03","system_id":"levelo_inurba_marseille","lat":43.290779,"lon":5.371482,"is_reserved":false,"is_disabled":false,"rental_uris":{"android":"levelo://app?vid=1d9ffea0-863c-4db2-8b69-7c3969090a03","ios":"levelo://app?vid=1d9ffea0-863c-4db2-8b69-7c3969090a03"},"vehicle_type_id":"4","last_reported":1723406923,"current_range_meters":19200,"station_id":"ce4bh5p2rcd13ifvqe4g","pricing_plan_id":"cebpf4jnsgd1na2vs0mg"},{"bike_id":"f4dfcd60-ec51-4e86-b412-2d418acde67f","system_id":"levelo_inurba_marseille","lat":43.29344,"lon":5.3821,"is_reserved":false,"is_disabled":false,"rental_uris":{"android":"levelo://app?vid=f4dfcd60-ec51-4e86-b412-2d418acde67f","ios":"levelo://app?vid=f4dfcd60-ec51-4e86-b412-2d418acde67f"},"vehicle_type_id":"4","last_reported":1723406923,"current_range_meters":27600,"station_id":"","pricing_plan_id":"cebpf4jnsgd1na2vs0mg"},{"bike_id":"e62308b8-79db-49a2-865d-465f31942c31","system_id":"levelo_inurba_marseille","lat":43.290758,"lon":5.371828,"is_reserved":false,"is_disabled":false,"rental_uris":{"android":"levelo://app?vid=e62308b8-79db-49a2-865d-465f31942c31","ios":"levelo://app?vid=e62308b8-79db-49a2-865d-465f31942c31"},"vehicle_type_id":"4","last_reported":1723406923,"current_range_meters":0,"station_id":"ce4bh5p2rcd13ifvqe4g","pricing_plan_id":"cebpf4jnsgd1na2vs0mg"},{"bike_id":"b99589e5-bd46-4680-95b0-1aa3c55d9134","system_id":"levelo_inurba_marseille","lat":43.302008,"lon":5.394694,"is_reserved":false,"is_disabled":false,"rental_uris":{"android":"levelo://app?vid=b99589e5-bd46-4680-95b0-1aa3c55d9134","ios":"levelo://app?vid=b99589e5-bd46-4680-95b0-1aa3c55d9134"},"vehicle_type_id":"4","last_reported":1723406923,"current_range_meters":2800,"station_id":"ce4bh0p2rcd13ifvqd70","pricing_plan_id":"cebpf4jnsgd1na2vs0mg"},{"bike_id":"5c3663b8-33da-40a1-9e84-15e7a89de447","system_id":"levelo_inurba_marseille","lat":43.302008,"lon":5.394694,"is_reserved":false,"is_disabled":false,"rental_uris":{"android":"levelo://app?vid=5c3663b8-33da-40a1-9e84-15e7a89de447","ios":"levelo://app?vid=5c3663b8-33da-40a1-9e84-15e7a89de447"},"vehicle_type_id":"4","last_reported":1723406923,"current_range_meters":8000,"station_id":"ce4bh0p2rcd13ifvqd70","pricing_plan_id":"cebpf4jnsgd1na2vs0mg"},{"bike_id":"f487b378-cf2d-4387-b118-1081f1938911","system_id":"levelo_inurba_marseille","lat":43.292913,"lon":5.382577,"is_reserved":false,"is_disabled":false,"rental_uris":{"android":"levelo://app?vid=f487b378-cf2d-4387-b118-1081f1938911","ios":"levelo://app?vid=f487b378-cf2d-4387-b118-1081f1938911"},"vehicle_type_id":"4","last_reported":1723406923,"current_range_meters":400,"station_id":"","pricing_plan_id":"cebpf4jnsgd1na2vs0mg"},{"bike_id":"8913ace1-1d89-4934-8dbe-eea507af2139","system_id":"levelo_inurba_marseille","lat":43.294153,"lon":5.386305,"is_reserved":false,"is_disabled":false,"rental_uris":{"android":"levelo://app?vid=8913ace1-1d89-4934-8dbe-eea507af2139","ios":"levelo://app?vid=8913ace1-1d89-4934-8dbe-eea507af2139"},"vehicle_type_id":"4","last_reported":1723406923,"current_range_meters":25600,"station_id":"ce4bh2h2rcd13ifvqdh0","pricing_plan_id":"cebpf4jnsgd1na2vs0mg"},{"bike_id":"8dcc18b8-2beb-44e3-9934-e0d2ca243288","system_id":"levelo_inurba_marseille","lat":43.294153,"lon":5.386305,"is_reserved":false,"is_disabled":false,"rental_uris":{"android":"levelo://app?vid=8dcc18b8-2beb-44e3-9934-e0d2ca243288","ios":"levelo://app?vid=8dcc18b8-2beb-44e3-9934-e0d2ca243288"},"vehicle_type_id":"4","last_reported":1723406923,"current_range_meters":31200,"station_id":"ce4bh2h2rcd13ifvqdh0","pricing_plan_id":"cebpf4jnsgd1na2vs0mg"},{"bike_id":"a98f4057-8ccf-4217-a545-e8066d63cc83","system_id":"levelo_inurba_marseille","lat":43.295169,"lon":5.390426,"is_reserved":false,"is_disabled":false,"rental_uris":{"android":"levelo://app?vid=a98f4057-8ccf-4217-a545-e8066d63cc83","ios":"levelo://app?vid=a98f4057-8ccf-4217-a545-e8066d63cc83"},"vehicle_type_id":"4","last_reported":1723406923,"current_range_meters":30800,"station_id":"ce4bh3p2rcd13ifvqdp0","pricing_plan_id":"cebpf4jnsgd1na2vs0mg"},{"bike_id":"6133c9f0-eb89-4197-afaf-e9b9a54b4471","system_id":"levelo_inurba_marseille","lat":43.294153,"lon":5.386305,"is_reserved":false,"is_disabled":false,"rental_uris":{"android":"levelo://app?vid=6133c9f0-eb89-4197-afaf-e9b9a54b4471","ios":"levelo://app?vid=6133c9f0-eb89-4197-afaf-e9b9a54b4471"},"vehicle_type_id":"4","last_reported":1723406923,"current_range_meters":19200,"station_id":"ce4bh2h2rcd13ifvqdh0","pricing_plan_id":"cebpf4jnsgd1na2vs0mg"},{"bike_id":"af9ab4de-16fa-4bb1-bca3-0fc3eb9d72f1","system_id":"levelo_inurba_marseille","lat":43.29419,"lon":5.38622,"is_reserved":false,"is_disabled":false,"rental_uris":{"android":"levelo://app?vid=af9ab4de-16fa-4bb1-bca3-0fc3eb9d72f1","ios":"levelo://app?vid=af9ab4de-16fa-4bb1-bca3-0fc3eb9d72f1"},"vehicle_type_id":"4","last_reported":1723406923,"current_range_meters":30400,"station_id":"ce4bh2h2rcd13ifvqdh0","pricing_plan_id":"cebpf4jnsgd1na2vs0mg"},{"bike_id":"7e1b2dd0-4acc-4302-8fcf-af9ce2fe9b33","system_id":"levelo_inurba_marseille","lat":43.2942,"lon":5.38629,"is_reserved":false,"is_disabled":false,"rental_uris":{"android":"levelo://app?vid=7e1b2dd0-4acc-4302-8fcf-af9ce2fe9b33","ios":"levelo://app?vid=7e1b2dd0-4acc-4302-8fcf-af9ce2fe9b33"},"vehicle_type_id":"4","last_reported":1723406923,"current_range_meters":31200,"station_id":"ce4bh2h2rcd13ifvqdh0","pricing_plan_id":"cebpf4jnsgd1na2vs0mg"},{"bike_id":"db2cca24-5726-47d8-8e6b-33603af6a0f7","system_id":"levelo_inurba_marseille","lat":43.294153,"lon":5.386305,"is_reserved":false,"is_disabled":false,"rental_uris":{"android":"levelo://app?vid=db2cca24-5726-47d8-8e6b-33603af6a0f7","ios":"levelo://app?vid=db2cca24-5726-47d8-8e6b-33603af6a0f7"},"vehicle_type_id":"4","last_reported":1723406923,"current_range_meters":8400,"station_id":"ce4bh2h2rcd13ifvqdh0","pricing_plan_id":"cebpf4jnsgd1na2vs0mg"},{"bike_id":"fe5737ec-220a-4cc9-951f-f21cbd8f8e78","system_id":"levelo_inurba_marseille","lat":43.294147,"lon":5.386209,"is_reserved":false,"is_disabled":false,"rental_uris":{"android":"levelo://app?vid=fe5737ec-220a-4cc9-951f-f21cbd8f8e78","ios":"levelo://app?vid=fe5737ec-220a-4cc9-951f-f21cbd8f8e78"},"vehicle_type_id":"4","last_reported":1723406923,"current_range_meters":29600,"station_id":"ce4bh2h2rcd13ifvqdh0","pricing_plan_id":"cebpf4jnsgd1na2vs0mg"},{"bike_id":"bf18202e-f900-4ec9-b1ce-beca819e4958","system_id":"levelo_inurba_marseille","lat":43.29421,"lon":5.38634,"is_reserved":false,"is_disabled":false,"rental_uris":{"android":"levelo://app?vid=bf18202e-f900-4ec9-b1ce-beca819e4958","ios":"levelo://app?vid=bf18202e-f900-4ec9-b1ce-beca819e4958"},"vehicle_type_id":"4","last_reported":1723406923,"current_range_meters":28400,"station_id":"ce4bh2h2rcd13ifvqdh0","pricing_plan_id":"cebpf4jnsgd1na2vs0mg"},{"bike_id":"618ea3f8-a843-41f1-aa4f-3cd8ebba11c6","system_id":"levelo_inurba_marseille","lat":43.294153,"lon":5.386305,"is_reserved":false,"is_disabled":false,"rental_uris":{"android":"levelo://app?vid=618ea3f8-a843-41f1-aa4f-3cd8ebba11c6","ios":"levelo://app?vid=618ea3f8-a843-41f1-aa4f-3cd8ebba11c6"},"vehicle_type_id":"4","last_reported":1723406923,"current_range_meters":20000,"station_id":"ce4bh2h2rcd13ifvqdh0","pricing_plan_id":"cebpf4jnsgd1na2vs0mg"},{"bike_id":"7a7f3ed9-deee-4776-b642-5ca0d4031f69","system_id":"levelo_inurba_marseille","lat":43.29416,"lon":5.3863,"is_reserved":false,"is_disabled":false,"rental_uris":{"android":"levelo://app?vid=7a7f3ed9-deee-4776-b642-5ca0d4031f69","ios":"levelo://app?vid=7a7f3ed9-deee-4776-b642-5ca0d4031f69"},"vehicle_type_id":"4","last_reported":1723406923,"current_range_meters":30400,"station_id":"ce4bh2h2rcd13ifvqdh0","pricing_plan_id":"cebpf4jnsgd1na2vs0mg"},{"bike_id":"9c6eb698-9c80-4074-a060-8cdc07ccec6a","system_id":"levelo_inurba_marseille","lat":43.29027,"lon":5.37552,"is_reserved":false,"is_disabled":false,"rental_uris":{"android":"levelo://app?vid=9c6eb698-9c80-4074-a060-8cdc07ccec6a","ios":"levelo://app?vid=9c6eb698-9c80-4074-a060-8cdc07ccec6a"},"vehicle_type_id":"4","last_reported":1723406923,"current_range_meters":0,"station_id":"ce4bh692rcd13ifvqe90","pricing_plan_id":"cebpf4jnsgd1na2vs0mg"},{"bike_id":"07ddaee3-e8ab-4ea8-a7a0-9ec30f03cf24","system_id":"levelo_inurba_marseille","lat":43.28942,"lon":5.366273,"is_reserved":false,"is_disabled":false,"rental_uris":{"android":"levelo://app?vid=07ddaee3-e8ab-4ea8-a7a0-9ec30f03cf24","ios":"levelo://app?vid=07ddaee3-e8ab-4ea8-a7a0-9ec30f03cf24"},"vehicle_type_id":"4","last_reported":1723406923,"current_range_meters":0,"station_id":"ce4bhap2rcd13ifvqek0","pricing_plan_id":"cebpf4jnsgd1na2vs0mg"},{"bike_id":"49d43cca-dd51-4569-b348-4a6fd706380f","system_id":"levelo_inurba_marseille","lat":43.29416,"lon":5.38633,"is_reserved":false,"is_disabled":false,"rental_uris":{"android":"levelo://app?vid=49d43cca-dd51-4569-b348-4a6fd706380f","ios":"levelo://app?vid=49d43cca-dd51-4569-b348-4a6fd706380f"},"vehicle_type_id":"4","last_reported":1723406923,"current_range_meters":5600,"station_id":"ce4bh2h2rcd13ifvqdh0","pricing_plan_id":"cebpf4jnsgd1na2vs0mg"},{"bike_id":"799169c3-24bb-4fcb-affa-fe494629a75f","system_id":"levelo_inurba_marseille","lat":43.289468,"lon":5.363719,"is_reserved":false,"is_disabled":false,"rental_uris":{"android":"levelo://app?vid=799169c3-24bb-4fcb-affa-fe494629a75f","ios":"levelo://app?vid=799169c3-24bb-4fcb-affa-fe494629a75f"},"vehicle_type_id":"4","last_reported":1723406923,"current_range_meters":2000,"station_id":"ce4bhc92rcd13ifvqetg","pricing_plan_id":"cebpf4jnsgd1na2vs0mg"},{"bike_id":"fd08c09b-be43-4eda-83e2-7ec8ed76b681","system_id":"levelo_inurba_marseille","lat":43.29417,"lon":5.38637,"is_reserved":false,"is_disabled":false,"rental_uris":{"android":"levelo://app?vid=fd08c09b-be43-4eda-83e2-7ec8ed76b681","ios":"levelo://app?vid=fd08c09b-be43-4eda-83e2-7ec8ed76b681"},"vehicle_type_id":"4","last_reported":1723406923,"current_range_meters":3600,"station_id":"ce4bh2h2rcd13ifvqdh0","pricing_plan_id":"cebpf4jnsgd1na2vs0mg"},{"bike_id":"51933d49-f2d1-4a80-a496-dd8d84da2122","system_id":"levelo_inurba_marseille","lat":43.28938,"lon":5.36655,"is_reserved":false,"is_disabled":false,"rental_uris":{"android":"levelo://app?vid=51933d49-f2d1-4a80-a496-dd8d84da2122","ios":"levelo://app?vid=51933d49-f2d1-4a80-a496-dd8d84da2122"},"vehicle_type_id":"4","last_reported":1723406923,"current_range_meters":0,"station_id":"ce4bhap2rcd13ifvqek0","pricing_plan_id":"cebpf4jnsgd1na2vs0mg"},{"bike_id":"dcf7f8dd-1237-4444-b7e1-14b615ed6263","system_id":"levelo_inurba_marseille","lat":43.294127,"lon":5.38635,"is_reserved":false,"is_disabled":false,"rental_uris":{"android":"levelo://app?vid=dcf7f8dd-1237-4444-b7e1-14b615ed6263","ios":"levelo://app?vid=dcf7f8dd-1237-4444-b7e1-14b615ed6263"},"vehicle_type_id":"4","last_reported":1723406923,"current_range_meters":31200,"station_id":"ce4bh2h2rcd13ifvqdh0","pricing_plan_id":"cebpf4jnsgd1na2vs0mg"},{"bike_id":"4e51434b-d633-4f5f-bf01-dc14cb575fc1","system_id":"levelo_inurba_marseille","lat":43.289362,"lon":5.366418,"is_reserved":false,"is_disabled":false,"rental_uris":{"android":"levelo://app?vid=4e51434b-d633-4f5f-bf01-dc14cb575fc1","ios":"levelo://app?vid=4e51434b-d633-4f5f-bf01-dc14cb575fc1"},"vehicle_type_id":"4","last_reported":1723406923,"current_range_meters":22400,"station_id":"ce4bhap2rcd13ifvqek0","pricing_plan_id":"cebpf4jnsgd1na2vs0mg"},{"bike_id":"c2d70f30-5ae6-4cd5-86b4-9e6e24e68b21","system_id":"levelo_inurba_marseille","lat":43.29421,"lon":5.38677,"is_reserved":false,"is_disabled":false,"rental_uris":{"android":"levelo://app?vid=c2d70f30-5ae6-4cd5-86b4-9e6e24e68b21","ios":"levelo://app?vid=c2d70f30-5ae6-4cd5-86b4-9e6e24e68b21"},"vehicle_type_id":"4","last_reported":1723406923,"current_range_meters":6400,"station_id":"ce4bh2h2rcd13ifvqdh0","pricing_plan_id":"cebpf4jnsgd1na2vs0mg"},{"bike_id":"14e8b97e-80cd-4885-b32e-9d395a61c3de","system_id":"levelo_inurba_marseille","lat":43.29278,"lon":5.3846,"is_reserved":false,"is_disabled":false,"rental_uris":{"android":"levelo://app?vid=14e8b97e-80cd-4885-b32e-9d395a61c3de","ios":"levelo://app?vid=14e8b97e-80cd-4885-b32e-9d395a61c3de"},"vehicle_type_id":"4","last_reported":1723406923,"current_range_meters":0,"station_id":"ce4bh692rcd13ifvqea0","pricing_plan_id":"cebpf4jnsgd1na2vs0mg"},{"bike_id":"add2e469-8934-4f0b-84a3-2814128ef47e","system_id":"levelo_inurba_marseille","lat":43.292642,"lon":5.384254,"is_reserved":false,"is_disabled":false,"rental_uris":{"android":"levelo://app?vid=add2e469-8934-4f0b-84a3-2814128ef47e","ios":"levelo://app?vid=add2e469-8934-4f0b-84a3-2814128ef47e"},"vehicle_type_id":"4","last_reported":1723406923,"current_range_meters":19600,"station_id":"ce4bh692rcd13ifvqea0","pricing_plan_id":"cebpf4jnsgd1na2vs0mg"},{"bike_id":"3bc0a3f0-275b-4c0a-96ed-8e84b599aafc","system_id":"levelo_inurba_marseille","lat":43.29267,"lon":5.38441,"is_reserved":false,"is_disabled":false,"rental_uris":{"android":"levelo://app?vid=3bc0a3f0-275b-4c0a-96ed-8e84b599aafc","ios":"levelo://app?vid=3bc0a3f0-275b-4c0a-96ed-8e84b599aafc"},"vehicle_type_id":"4","last_reported":1723406923,"current_range_meters":0,"station_id":"ce4bh692rcd13ifvqea0","pricing_plan_id":"cebpf4jnsgd1na2vs0mg"},{"bike_id":"5cd56b4f-65cd-4bcd-9f24-343083d1198a","system_id":"levelo_inurba_marseille","lat":43.292644,"lon":5.384257,"is_reserved":false,"is_disabled":false,"rental_uris":{"android":"levelo://app?vid=5cd56b4f-65cd-4bcd-9f24-343083d1198a","ios":"levelo://app?vid=5cd56b4f-65cd-4bcd-9f24-343083d1198a"},"vehicle_type_id":"4","last_reported":1723406923,"current_range_meters":17200,"station_id":"ce4bh692rcd13ifvqea0","pricing_plan_id":"cebpf4jnsgd1na2vs0mg"},{"bike_id":"04031490-6bee-442c-ba5c-c7c83f59e115","system_id":"levelo_inurba_marseille","lat":43.292652,"lon":5.384446,"is_reserved":false,"is_disabled":false,"rental_uris":{"android":"levelo://app?vid=04031490-6bee-442c-ba5c-c7c83f59e115","ios":"levelo://app?vid=04031490-6bee-442c-ba5c-c7c83f59e115"},"vehicle_type_id":"4","last_reported":1723406923,"current_range_meters":0,"station_id":"ce4bh692rcd13ifvqea0","pricing_plan_id":"cebpf4jnsgd1na2vs0mg"},{"bike_id":"28d54d62-1fa9-4f0c-872a-257c6023a49e","system_id":"levelo_inurba_marseille","lat":43.292644,"lon":5.384257,"is_reserved":false,"is_disabled":false,"rental_uris":{"android":"levelo://app?vid=28d54d62-1fa9-4f0c-872a-257c6023a49e","ios":"levelo://app?vid=28d54d62-1fa9-4f0c-872a-257c6023a49e"},"vehicle_type_id":"4","last_reported":1723406923,"current_range_meters":0,"station_id":"ce4bh692rcd13ifvqea0","pricing_plan_id":"cebpf4jnsgd1na2vs0mg"},{"bike_id":"e00becbd-4529-4a6a-8223-bc561394d008","system_id":"levelo_inurba_marseille","lat":43.29262,"lon":5.38443,"is_reserved":false,"is_disabled":false,"rental_uris":{"android":"levelo://app?vid=e00becbd-4529-4a6a-8223-bc561394d008","ios":"levelo://app?vid=e00becbd-4529-4a6a-8223-bc561394d008"},"vehicle_type_id":"4","last_reported":1723406923,"current_range_meters":0,"station_id":"ce4bh692rcd13ifvqea0","pricing_plan_id":"cebpf4jnsgd1na2vs0mg"},{"bike_id":"0f2a7dff-a2d3-4118-8d1e-30fff54795af","system_id":"levelo_inurba_marseille","lat":43.304296,"lon":5.397513,"is_reserved":false,"is_disabled":false,"rental_uris":{"android":"levelo://app?vid=0f2a7dff-a2d3-4118-8d1e-30fff54795af","ios":"levelo://app?vid=0f2a7dff-a2d3-4118-8d1e-30fff54795af"},"vehicle_type_id":"4","last_reported":1723406923,"current_range_meters":20400,"station_id":"ce4bh092rcd13ifvqd20","pricing_plan_id":"cebpf4jnsgd1na2vs0mg"},{"bike_id":"d4e269cc-b17f-4f55-ac71-ff13bcd7c72c","system_id":"levelo_inurba_marseille","lat":43.292644,"lon":5.384257,"is_reserved":false,"is_disabled":false,"rental_uris":{"android":"levelo://app?vid=d4e269cc-b17f-4f55-ac71-ff13bcd7c72c","ios":"levelo://app?vid=d4e269cc-b17f-4f55-ac71-ff13bcd7c72c"},"vehicle_type_id":"4","last_reported":1723406923,"current_range_meters":15200,"station_id":"ce4bh692rcd13ifvqea0","pricing_plan_id":"cebpf4jnsgd1na2vs0mg"},{"bike_id":"76761a7e-9d61-4308-bd1c-c2c2aab7766f","system_id":"levelo_inurba_marseille","lat":43.29259,"lon":5.384475,"is_reserved":false,"is_disabled":false,"rental_uris":{"android":"levelo://app?vid=76761a7e-9d61-4308-bd1c-c2c2aab7766f","ios":"levelo://app?vid=76761a7e-9d61-4308-bd1c-c2c2aab7766f"},"vehicle_type_id":"4","last_reported":1723406923,"current_range_meters":5200,"station_id":"ce4bh692rcd13ifvqea0","pricing_plan_id":"cebpf4jnsgd1na2vs0mg"},{"bike_id":"ab8b5882-09c4-4a37-b819-c676ace6c351","system_id":"levelo_inurba_marseille","lat":43.29006,"lon":5.35608,"is_reserved":false,"is_disabled":false,"rental_uris":{"android":"levelo://app?vid=ab8b5882-09c4-4a37-b819-c676ace6c351","ios":"levelo://app?vid=ab8b5882-09c4-4a37-b819-c676ace6c351"},"vehicle_type_id":"4","last_reported":1723406923,"current_range_meters":0,"station_id":"ce4bhb92rcd13ifvqen0","pricing_plan_id":"cebpf4jnsgd1na2vs0mg"},{"bike_id":"74cf3615-0ad0-4a03-9ed2-2d7edd45946d","system_id":"levelo_inurba_marseille","lat":43.290995,"lon":5.381361,"is_reserved":false,"is_disabled":false,"rental_uris":{"android":"levelo://app?vid=74cf3615-0ad0-4a03-9ed2-2d7edd45946d","ios":"levelo://app?vid=74cf3615-0ad0-4a03-9ed2-2d7edd45946d"},"vehicle_type_id":"4","last_reported":1723406923,"current_range_meters":12800,"station_id":"ce4bh512rcd13ifvqe2g","pricing_plan_id":"cebpf4jnsgd1na2vs0mg"},{"bike_id":"790a2d56-dd7f-479a-afc5-eff775bc5b2e","system_id":"levelo_inurba_marseille","lat":43.290995,"lon":5.381361,"is_reserved":false,"is_disabled":false,"rental_uris":{"android":"levelo://app?vid=790a2d56-dd7f-479a-afc5-eff775bc5b2e","ios":"levelo://app?vid=790a2d56-dd7f-479a-afc5-eff775bc5b2e"},"vehicle_type_id":"4","last_reported":1723406923,"current_range_meters":29200,"station_id":"ce4bh512rcd13ifvqe2g","pricing_plan_id":"cebpf4jnsgd1na2vs0mg"},{"bike_id":"aa005a6e-973b-43b7-a62a-fccc9c8f00ec","system_id":"levelo_inurba_marseille","lat":43.290995,"lon":5.381361,"is_reserved":false,"is_disabled":false,"rental_uris":{"android":"levelo://app?vid=aa005a6e-973b-43b7-a62a-fccc9c8f00ec","ios":"levelo://app?vid=aa005a6e-973b-43b7-a62a-fccc9c8f00ec"},"vehicle_type_id":"4","last_reported":1723406923,"current_range_meters":0,"station_id":"ce4bh512rcd13ifvqe2g","pricing_plan_id":"cebpf4jnsgd1na2vs0mg"},{"bike_id":"60f8468a-3196-4127-8b87-f7d266c4535a","system_id":"levelo_inurba_marseille","lat":43.290943,"lon":5.381247,"is_reserved":false,"is_disabled":false,"rental_uris":{"android":"levelo://app?vid=60f8468a-3196-4127-8b87-f7d266c4535a","ios":"levelo://app?vid=60f8468a-3196-4127-8b87-f7d266c4535a"},"vehicle_type_id":"4","last_reported":1723406923,"current_range_meters":0,"station_id":"ce4bh512rcd13ifvqe2g","pricing_plan_id":"cebpf4jnsgd1na2vs0mg"},{"bike_id":"57ec3561-54d3-4349-a186-e712c73e150f","system_id":"levelo_inurba_marseille","lat":43.290995,"lon":5.381361,"is_reserved":false,"is_disabled":false,"rental_uris":{"android":"levelo://app?vid=57ec3561-54d3-4349-a186-e712c73e150f","ios":"levelo://app?vid=57ec3561-54d3-4349-a186-e712c73e150f"},"vehicle_type_id":"4","last_reported":1723406923,"current_range_meters":31200,"station_id":"ce4bh512rcd13ifvqe2g","pricing_plan_id":"cebpf4jnsgd1na2vs0mg"},{"bike_id":"c3c0333b-608e-455c-aba9-fbbc74f8c8f6","system_id":"levelo_inurba_marseille","lat":43.290995,"lon":5.381361,"is_reserved":false,"is_disabled":false,"rental_uris":{"android":"levelo://app?vid=c3c0333b-608e-455c-aba9-fbbc74f8c8f6","ios":"levelo://app?vid=c3c0333b-608e-455c-aba9-fbbc74f8c8f6"},"vehicle_type_id":"4","last_reported":1723406923,"current_range_meters":17600,"station_id":"ce4bh512rcd13ifvqe2g","pricing_plan_id":"cebpf4jnsgd1na2vs0mg"},{"bike_id":"0c823d3e-edb4-463b-8260-e1bf2ba878e4","system_id":"levelo_inurba_marseille","lat":43.290995,"lon":5.381361,"is_reserved":false,"is_disabled":false,"rental_uris":{"android":"levelo://app?vid=0c823d3e-edb4-463b-8260-e1bf2ba878e4","ios":"levelo://app?vid=0c823d3e-edb4-463b-8260-e1bf2ba878e4"},"vehicle_type_id":"4","last_reported":1723406923,"current_range_meters":25600,"station_id":"ce4bh512rcd13ifvqe2g","pricing_plan_id":"cebpf4jnsgd1na2vs0mg"},{"bike_id":"178ce673-9d55-4d75-b36e-6c6ef8124c49","system_id":"levelo_inurba_marseille","lat":43.290995,"lon":5.381361,"is_reserved":false,"is_disabled":false,"rental_uris":{"android":"levelo://app?vid=178ce673-9d55-4d75-b36e-6c6ef8124c49","ios":"levelo://app?vid=178ce673-9d55-4d75-b36e-6c6ef8124c49"},"vehicle_type_id":"4","last_reported":1723406923,"current_range_meters":20800,"station_id":"ce4bh512rcd13ifvqe2g","pricing_plan_id":"cebpf4jnsgd1na2vs0mg"},{"bike_id":"76a5c062-9332-4e37-9d80-6dad1e1c02a7","system_id":"levelo_inurba_marseille","lat":43.297807,"lon":5.393533,"is_reserved":false,"is_disabled":false,"rental_uris":{"android":"levelo://app?vid=76a5c062-9332-4e37-9d80-6dad1e1c02a7","ios":"levelo://app?vid=76a5c062-9332-4e37-9d80-6dad1e1c02a7"},"vehicle_type_id":"4","last_reported":1723406923,"current_range_meters":10000,"station_id":"chh1huq6cuj3fo74tm60","pricing_plan_id":"cebpf4jnsgd1na2vs0mg"},{"bike_id":"1447126a-cf80-4f56-8a49-281a2c5c8744","system_id":"levelo_inurba_marseille","lat":43.297815,"lon":5.393548,"is_reserved":false,"is_disabled":false,"rental_uris":{"android":"levelo://app?vid=1447126a-cf80-4f56-8a49-281a2c5c8744","ios":"levelo://app?vid=1447126a-cf80-4f56-8a49-281a2c5c8744"},"vehicle_type_id":"4","last_reported":1723406923,"current_range_meters":28400,"station_id":"chh1huq6cuj3fo74tm60","pricing_plan_id":"cebpf4jnsgd1na2vs0mg"},{"bike_id":"f5a30584-1494-4284-aaf1-718d4639cacb","system_id":"levelo_inurba_marseille","lat":43.295169,"lon":5.390426,"is_reserved":false,"is_disabled":false,"rental_uris":{"android":"levelo://app?vid=f5a30584-1494-4284-aaf1-718d4639cacb","ios":"levelo://app?vid=f5a30584-1494-4284-aaf1-718d4639cacb"},"vehicle_type_id":"4","last_reported":1723406923,"current_range_meters":15200,"station_id":"ce4bh3p2rcd13ifvqdp0","pricing_plan_id":"cebpf4jnsgd1na2vs0mg"},{"bike_id":"b2cf4397-84ac-4614-bcf6-0798066ef3b9","system_id":"levelo_inurba_marseille","lat":43.330442,"lon":5.389148,"is_reserved":false,"is_disabled":false,"rental_uris":{"android":"levelo://app?vid=b2cf4397-84ac-4614-bcf6-0798066ef3b9","ios":"levelo://app?vid=b2cf4397-84ac-4614-bcf6-0798066ef3b9"},"vehicle_type_id":"4","last_reported":1723406923,"current_range_meters":6000,"station_id":"ce4bhr92rcd13ifvqhrg","pricing_plan_id":"cebpf4jnsgd1na2vs0mg"},{"bike_id":"b8fe4fc7-815d-4b60-870c-d982e56575fa","system_id":"levelo_inurba_marseille","lat":43.330442,"lon":5.389148,"is_reserved":false,"is_disabled":false,"rental_uris":{"android":"levelo://app?vid=b8fe4fc7-815d-4b60-870c-d982e56575fa","ios":"levelo://app?vid=b8fe4fc7-815d-4b60-870c-d982e56575fa"},"vehicle_type_id":"4","last_reported":1723406923,"current_range_meters":10400,"station_id":"ce4bhr92rcd13ifvqhrg","pricing_plan_id":"cebpf4jnsgd1na2vs0mg"},{"bike_id":"88b94508-c34c-4cb3-9ec6-8d1abe7c2594","system_id":"levelo_inurba_marseille","lat":43.295169,"lon":5.390426,"is_reserved":false,"is_disabled":false,"rental_uris":{"android":"levelo://app?vid=88b94508-c34c-4cb3-9ec6-8d1abe7c2594","ios":"levelo://app?vid=88b94508-c34c-4cb3-9ec6-8d1abe7c2594"},"vehicle_type_id":"4","last_reported":1723406923,"current_range_meters":20400,"station_id":"ce4bh3p2rcd13ifvqdp0","pricing_plan_id":"cebpf4jnsgd1na2vs0mg"},{"bike_id":"027cbb86-d5f6-4a09-a599-3c6c56390272","system_id":"levelo_inurba_marseille","lat":43.330442,"lon":5.389148,"is_reserved":false,"is_disabled":false,"rental_uris":{"android":"levelo://app?vid=027cbb86-d5f6-4a09-a599-3c6c56390272","ios":"levelo://app?vid=027cbb86-d5f6-4a09-a599-3c6c56390272"},"vehicle_type_id":"4","last_reported":1723406923,"current_range_meters":4400,"station_id":"ce4bhr92rcd13ifvqhrg","pricing_plan_id":"cebpf4jnsgd1na2vs0mg"},{"bike_id":"1cb9ed88-9090-43fc-9d77-ffeaac3247c5","system_id":"levelo_inurba_marseille","lat":43.33002,"lon":5.39143,"is_reserved":false,"is_disabled":false,"rental_uris":{"android":"levelo://app?vid=1cb9ed88-9090-43fc-9d77-ffeaac3247c5","ios":"levelo://app?vid=1cb9ed88-9090-43fc-9d77-ffeaac3247c5"},"vehicle_type_id":"4","last_reported":1723406923,"current_range_meters":4800,"station_id":"","pricing_plan_id":"cebpf4jnsgd1na2vs0mg"},{"bike_id":"4dd3df97-f042-4ef0-9fba-47ec4b401346","system_id":"levelo_inurba_marseille","lat":43.2883,"lon":5.37357,"is_reserved":false,"is_disabled":false,"rental_uris":{"android":"levelo://app?vid=4dd3df97-f042-4ef0-9fba-47ec4b401346","ios":"levelo://app?vid=4dd3df97-f042-4ef0-9fba-47ec4b401346"},"vehicle_type_id":"4","last_reported":1723406923,"current_range_meters":19600,"station_id":"","pricing_plan_id":"cebpf4jnsgd1na2vs0mg"},{"bike_id":"b74ad5c6-9583-46c4-aa08-fdb082306848","system_id":"levelo_inurba_marseille","lat":43.28856,"lon":5.358371,"is_reserved":false,"is_disabled":false,"rental_uris":{"android":"levelo://app?vid=b74ad5c6-9583-46c4-aa08-fdb082306848","ios":"levelo://app?vid=b74ad5c6-9583-46c4-aa08-fdb082306848"},"vehicle_type_id":"4","last_reported":1723406923,"current_range_meters":14800,"station_id":"ce4bhb12rcd13ifvqem0","pricing_plan_id":"cebpf4jnsgd1na2vs0mg"},{"bike_id":"9a2a59a5-b12c-42f2-8b07-950e65ab4779","system_id":"levelo_inurba_marseille","lat":43.28856,"lon":5.358371,"is_reserved":false,"is_disabled":false,"rental_uris":{"android":"levelo://app?vid=9a2a59a5-b12c-42f2-8b07-950e65ab4779","ios":"levelo://app?vid=9a2a59a5-b12c-42f2-8b07-950e65ab4779"},"vehicle_type_id":"4","last_reported":1723406923,"current_range_meters":1200,"station_id":"ce4bhb12rcd13ifvqem0","pricing_plan_id":"cebpf4jnsgd1na2vs0mg"},{"bike_id":"35a6f187-ebaf-43a4-8c49-e361d382ffd5","system_id":"levelo_inurba_marseille","lat":43.312609,"lon":5.401662,"is_reserved":false,"is_disabled":false,"rental_uris":{"android":"levelo://app?vid=35a6f187-ebaf-43a4-8c49-e361d382ffd5","ios":"levelo://app?vid=35a6f187-ebaf-43a4-8c49-e361d382ffd5"},"vehicle_type_id":"4","last_reported":1723406923,"current_range_meters":1600,"station_id":"ce4bh092rcd13ifvqd30","pricing_plan_id":"cebpf4jnsgd1na2vs0mg"},{"bike_id":"c3cf305c-692c-41ed-b07c-7ebbc13f240d","system_id":"levelo_inurba_marseille","lat":43.337405,"lon":5.374624,"is_reserved":false,"is_disabled":false,"rental_uris":{"android":"levelo://app?vid=c3cf305c-692c-41ed-b07c-7ebbc13f240d","ios":"levelo://app?vid=c3cf305c-692c-41ed-b07c-7ebbc13f240d"},"vehicle_type_id":"4","last_reported":1723406923,"current_range_meters":14400,"station_id":"","pricing_plan_id":"cebpf4jnsgd1na2vs0mg"},{"bike_id":"43f21911-683d-4ba4-93d3-8a7e20e1c78c","system_id":"levelo_inurba_marseille","lat":43.337417,"lon":5.374637,"is_reserved":false,"is_disabled":false,"rental_uris":{"android":"levelo://app?vid=43f21911-683d-4ba4-93d3-8a7e20e1c78c","ios":"levelo://app?vid=43f21911-683d-4ba4-93d3-8a7e20e1c78c"},"vehicle_type_id":"4","last_reported":1723406923,"current_range_meters":26000,"station_id":"","pricing_plan_id":"cebpf4jnsgd1na2vs0mg"},{"bike_id":"ac75d8e5-5139-4e43-a64e-51e7994c2517","system_id":"levelo_inurba_marseille","lat":43.337444,"lon":5.374475,"is_reserved":false,"is_disabled":false,"rental_uris":{"android":"levelo://app?vid=ac75d8e5-5139-4e43-a64e-51e7994c2517","ios":"levelo://app?vid=ac75d8e5-5139-4e43-a64e-51e7994c2517"},"vehicle_type_id":"3","last_reported":1723406923,"current_range_meters":24800,"station_id":"","pricing_plan_id":"cebpf4jnsgd1na2vs0mg"},{"bike_id":"8b5f6228-3582-497c-9919-c849c8ef0c9b","system_id":"levelo_inurba_marseille","lat":43.337436,"lon":5.374589,"is_reserved":false,"is_disabled":false,"rental_uris":{"android":"levelo://app?vid=8b5f6228-3582-497c-9919-c849c8ef0c9b","ios":"levelo://app?vid=8b5f6228-3582-497c-9919-c849c8ef0c9b"},"vehicle_type_id":"4","last_reported":1723406923,"current_range_meters":0,"station_id":"","pricing_plan_id":"cebpf4jnsgd1na2vs0mg"},{"bike_id":"5a53da9d-435c-48eb-968f-a2cb07eabcff","system_id":"levelo_inurba_marseille","lat":43.312609,"lon":5.401662,"is_reserved":false,"is_disabled":false,"rental_uris":{"android":"levelo://app?vid=5a53da9d-435c-48eb-968f-a2cb07eabcff","ios":"levelo://app?vid=5a53da9d-435c-48eb-968f-a2cb07eabcff"},"vehicle_type_id":"4","last_reported":1723406923,"current_range_meters":24800,"station_id":"ce4bh092rcd13ifvqd30","pricing_plan_id":"cebpf4jnsgd1na2vs0mg"},{"bike_id":"6f8a75ef-cfde-4da5-99c7-85f9ae9b026b","system_id":"levelo_inurba_marseille","lat":43.3375,"lon":5.37431,"is_reserved":false,"is_disabled":false,"rental_uris":{"android":"levelo://app?vid=6f8a75ef-cfde-4da5-99c7-85f9ae9b026b","ios":"levelo://app?vid=6f8a75ef-cfde-4da5-99c7-85f9ae9b026b"},"vehicle_type_id":"4","last_reported":1723406923,"current_range_meters":19600,"station_id":"","pricing_plan_id":"cebpf4jnsgd1na2vs0mg"},{"bike_id":"a99690a8-3e4f-41a1-9b6a-5b43249a269f","system_id":"levelo_inurba_marseille","lat":43.33746,"lon":5.37457,"is_reserved":false,"is_disabled":false,"rental_uris":{"android":"levelo://app?vid=a99690a8-3e4f-41a1-9b6a-5b43249a269f","ios":"levelo://app?vid=a99690a8-3e4f-41a1-9b6a-5b43249a269f"},"vehicle_type_id":"4","last_reported":1723406923,"current_range_meters":0,"station_id":"","pricing_plan_id":"cebpf4jnsgd1na2vs0mg"},{"bike_id":"7553d7c6-8eef-4b21-9dca-534ec43256a6","system_id":"levelo_inurba_marseille","lat":43.33745,"lon":5.37467,"is_reserved":false,"is_disabled":false,"rental_uris":{"android":"levelo://app?vid=7553d7c6-8eef-4b21-9dca-534ec43256a6","ios":"levelo://app?vid=7553d7c6-8eef-4b21-9dca-534ec43256a6"},"vehicle_type_id":"4","last_reported":1723406923,"current_range_meters":8400,"station_id":"","pricing_plan_id":"cebpf4jnsgd1na2vs0mg"},{"bike_id":"6137b86e-8de9-4c4f-94ef-bfa372175031","system_id":"levelo_inurba_marseille","lat":43.337513,"lon":5.37454,"is_reserved":false,"is_disabled":false,"rental_uris":{"android":"levelo://app?vid=6137b86e-8de9-4c4f-94ef-bfa372175031","ios":"levelo://app?vid=6137b86e-8de9-4c4f-94ef-bfa372175031"},"vehicle_type_id":"4","last_reported":1723406923,"current_range_meters":10800,"station_id":"","pricing_plan_id":"cebpf4jnsgd1na2vs0mg"},{"bike_id":"1ece39e8-5ec5-465b-b0d5-bdea3554c74d","system_id":"levelo_inurba_marseille","lat":43.337573,"lon":5.37448,"is_reserved":false,"is_disabled":false,"rental_uris":{"android":"levelo://app?vid=1ece39e8-5ec5-465b-b0d5-bdea3554c74d","ios":"levelo://app?vid=1ece39e8-5ec5-465b-b0d5-bdea3554c74d"},"vehicle_type_id":"4","last_reported":1723406923,"current_range_meters":20000,"station_id":"","pricing_plan_id":"cebpf4jnsgd1na2vs0mg"},{"bike_id":"5cb0d0f3-eacc-40eb-a46e-542fc59e15f6","system_id":"levelo_inurba_marseille","lat":43.337557,"lon":5.374925,"is_reserved":false,"is_disabled":false,"rental_uris":{"android":"levelo://app?vid=5cb0d0f3-eacc-40eb-a46e-542fc59e15f6","ios":"levelo://app?vid=5cb0d0f3-eacc-40eb-a46e-542fc59e15f6"},"vehicle_type_id":"4","last_reported":1723406923,"current_range_meters":28400,"station_id":"","pricing_plan_id":"cebpf4jnsgd1na2vs0mg"},{"bike_id":"ea1cc1bc-b3f0-4093-8f5f-6dfff1fa63d9","system_id":"levelo_inurba_marseille","lat":43.337575,"lon":5.37485,"is_reserved":false,"is_disabled":false,"rental_uris":{"android":"levelo://app?vid=ea1cc1bc-b3f0-4093-8f5f-6dfff1fa63d9","ios":"levelo://app?vid=ea1cc1bc-b3f0-4093-8f5f-6dfff1fa63d9"},"vehicle_type_id":"4","last_reported":1723406923,"current_range_meters":30400,"station_id":"","pricing_plan_id":"cebpf4jnsgd1na2vs0mg"},{"bike_id":"e0da458e-1309-458b-956b-aab617b2ea05","system_id":"levelo_inurba_marseille","lat":43.3376,"lon":5.37473,"is_reserved":false,"is_disabled":false,"rental_uris":{"android":"levelo://app?vid=e0da458e-1309-458b-956b-aab617b2ea05","ios":"levelo://app?vid=e0da458e-1309-458b-956b-aab617b2ea05"},"vehicle_type_id":"4","last_reported":1723406923,"current_range_meters":22400,"station_id":"","pricing_plan_id":"cebpf4jnsgd1na2vs0mg"},{"bike_id":"a7e71684-8757-4c0e-98c0-cd5b05cd0ba7","system_id":"levelo_inurba_marseille","lat":43.337583,"lon":5.374932,"is_reserved":false,"is_disabled":false,"rental_uris":{"android":"levelo://app?vid=a7e71684-8757-4c0e-98c0-cd5b05cd0ba7","ios":"levelo://app?vid=a7e71684-8757-4c0e-98c0-cd5b05cd0ba7"},"vehicle_type_id":"4","last_reported":1723406923,"current_range_meters":28400,"station_id":"","pricing_plan_id":"cebpf4jnsgd1na2vs0mg"},{"bike_id":"475ed14f-5d86-4ce1-9e44-9d4d1bef7035","system_id":"levelo_inurba_marseille","lat":43.33765,"lon":5.37486,"is_reserved":false,"is_disabled":false,"rental_uris":{"android":"levelo://app?vid=475ed14f-5d86-4ce1-9e44-9d4d1bef7035","ios":"levelo://app?vid=475ed14f-5d86-4ce1-9e44-9d4d1bef7035"},"vehicle_type_id":"4","last_reported":1723406923,"current_range_meters":20800,"station_id":"","pricing_plan_id":"cebpf4jnsgd1na2vs0mg"},{"bike_id":"57da0337-159a-4148-be4f-fc6e9aca3c31","system_id":"levelo_inurba_marseille","lat":43.337142,"lon":5.355684,"is_reserved":false,"is_disabled":false,"rental_uris":{"android":"levelo://app?vid=57da0337-159a-4148-be4f-fc6e9aca3c31","ios":"levelo://app?vid=57da0337-159a-4148-be4f-fc6e9aca3c31"},"vehicle_type_id":"4","last_reported":1723406923,"current_range_meters":3600,"station_id":"","pricing_plan_id":"cebpf4jnsgd1na2vs0mg"},{"bike_id":"773de0a3-5782-4508-a98f-c7405e39c3fb","system_id":"levelo_inurba_marseille","lat":43.28667,"lon":5.36345,"is_reserved":false,"is_disabled":false,"rental_uris":{"android":"levelo://app?vid=773de0a3-5782-4508-a98f-c7405e39c3fb","ios":"levelo://app?vid=773de0a3-5782-4508-a98f-c7405e39c3fb"},"vehicle_type_id":"4","last_reported":1723406923,"current_range_meters":0,"station_id":"ce4bhah2rcd13ifvqej0","pricing_plan_id":"cebpf4jnsgd1na2vs0mg"},{"bike_id":"46eb8e26-1804-4f52-b1df-a11e0313533c","system_id":"levelo_inurba_marseille","lat":43.28702,"lon":5.37408,"is_reserved":false,"is_disabled":false,"rental_uris":{"android":"levelo://app?vid=46eb8e26-1804-4f52-b1df-a11e0313533c","ios":"levelo://app?vid=46eb8e26-1804-4f52-b1df-a11e0313533c"},"vehicle_type_id":"4","last_reported":1723406923,"current_range_meters":1600,"station_id":"ce4bh3p2rcd13ifvqdq0","pricing_plan_id":"cebpf4jnsgd1na2vs0mg"},{"bike_id":"5d036c8a-a120-4fc2-a610-3ea7fbf641c8","system_id":"levelo_inurba_marseille","lat":43.29863,"lon":5.39736,"is_reserved":false,"is_disabled":false,"rental_uris":{"android":"levelo://app?vid=5d036c8a-a120-4fc2-a610-3ea7fbf641c8","ios":"levelo://app?vid=5d036c8a-a120-4fc2-a610-3ea7fbf641c8"},"vehicle_type_id":"4","last_reported":1723406923,"current_range_meters":0,"station_id":"ce4bh0h2rcd13ifvqd50","pricing_plan_id":"cebpf4jnsgd1na2vs0mg"},{"bike_id":"059cc100-9dfe-446a-abf9-7d845f202363","system_id":"levelo_inurba_marseille","lat":43.2903,"lon":5.38639,"is_reserved":false,"is_disabled":false,"rental_uris":{"android":"levelo://app?vid=059cc100-9dfe-446a-abf9-7d845f202363","ios":"levelo://app?vid=059cc100-9dfe-446a-abf9-7d845f202363"},"vehicle_type_id":"4","last_reported":1723406923,"current_range_meters":22400,"station_id":"ce4bh4p2rcd13ifvqe0g","pricing_plan_id":"cebpf4jnsgd1na2vs0mg"},{"bike_id":"defcc37c-f7bf-4d93-9cbc-d1b42b4c5435","system_id":"levelo_inurba_marseille","lat":43.290336,"lon":5.386425,"is_reserved":false,"is_disabled":false,"rental_uris":{"android":"levelo://app?vid=defcc37c-f7bf-4d93-9cbc-d1b42b4c5435","ios":"levelo://app?vid=defcc37c-f7bf-4d93-9cbc-d1b42b4c5435"},"vehicle_type_id":"4","last_reported":1723406923,"current_range_meters":18400,"station_id":"ce4bh4p2rcd13ifvqe0g","pricing_plan_id":"cebpf4jnsgd1na2vs0mg"},{"bike_id":"a248b66c-bbc0-49c3-821d-5c1e2e71624d","system_id":"levelo_inurba_marseille","lat":43.29034,"lon":5.38654,"is_reserved":false,"is_disabled":false,"rental_uris":{"android":"levelo://app?vid=a248b66c-bbc0-49c3-821d-5c1e2e71624d","ios":"levelo://app?vid=a248b66c-bbc0-49c3-821d-5c1e2e71624d"},"vehicle_type_id":"4","last_reported":1723406923,"current_range_meters":27600,"station_id":"ce4bh4p2rcd13ifvqe0g","pricing_plan_id":"cebpf4jnsgd1na2vs0mg"},{"bike_id":"b996838d-6690-41d6-bd68-e3c4941e999e","system_id":"levelo_inurba_marseille","lat":43.29029,"lon":5.38654,"is_reserved":false,"is_disabled":false,"rental_uris":{"android":"levelo://app?vid=b996838d-6690-41d6-bd68-e3c4941e999e","ios":"levelo://app?vid=b996838d-6690-41d6-bd68-e3c4941e999e"},"vehicle_type_id":"4","last_reported":1723406923,"current_range_meters":0,"station_id":"ce4bh4p2rcd13ifvqe0g","pricing_plan_id":"cebpf4jnsgd1na2vs0mg"},{"bike_id":"d2b3fbc9-9cee-4603-9d2b-3e34f26f7ae6","system_id":"levelo_inurba_marseille","lat":43.31509,"lon":5.40365,"is_reserved":false,"is_disabled":false,"rental_uris":{"android":"levelo://app?vid=d2b3fbc9-9cee-4603-9d2b-3e34f26f7ae6","ios":"levelo://app?vid=d2b3fbc9-9cee-4603-9d2b-3e34f26f7ae6"},"vehicle_type_id":"4","last_reported":1723406923,"current_range_meters":17600,"station_id":"","pricing_plan_id":"cebpf4jnsgd1na2vs0mg"},{"bike_id":"996d9335-1178-45af-90fc-d6d4c239eba1","system_id":"levelo_inurba_marseille","lat":43.287191,"lon":5.379273,"is_reserved":false,"is_disabled":false,"rental_uris":{"android":"levelo://app?vid=996d9335-1178-45af-90fc-d6d4c239eba1","ios":"levelo://app?vid=996d9335-1178-45af-90fc-d6d4c239eba1"},"vehicle_type_id":"4","last_reported":1723406923,"current_range_meters":0,"station_id":"ce4bh9p2rcd13ifvqec0","pricing_plan_id":"cebpf4jnsgd1na2vs0mg"},{"bike_id":"5817b41e-ef98-4bb7-b5d1-d5f69dcd84d4","system_id":"levelo_inurba_marseille","lat":43.287184,"lon":5.37937,"is_reserved":false,"is_disabled":false,"rental_uris":{"android":"levelo://app?vid=5817b41e-ef98-4bb7-b5d1-d5f69dcd84d4","ios":"levelo://app?vid=5817b41e-ef98-4bb7-b5d1-d5f69dcd84d4"},"vehicle_type_id":"4","last_reported":1723406923,"current_range_meters":0,"station_id":"ce4bh9p2rcd13ifvqec0","pricing_plan_id":"cebpf4jnsgd1na2vs0mg"},{"bike_id":"89ae6b9b-806c-40e7-8848-035c040ae6fa","system_id":"levelo_inurba_marseille","lat":43.28718,"lon":5.37941,"is_reserved":false,"is_disabled":false,"rental_uris":{"android":"levelo://app?vid=89ae6b9b-806c-40e7-8848-035c040ae6fa","ios":"levelo://app?vid=89ae6b9b-806c-40e7-8848-035c040ae6fa"},"vehicle_type_id":"4","last_reported":1723406923,"current_range_meters":20800,"station_id":"ce4bh9p2rcd13ifvqec0","pricing_plan_id":"cebpf4jnsgd1na2vs0mg"},{"bike_id":"9ed4ad87-240e-44a8-849d-2ff13b977b34","system_id":"levelo_inurba_marseille","lat":43.287184,"lon":5.37937,"is_reserved":false,"is_disabled":false,"rental_uris":{"android":"levelo://app?vid=9ed4ad87-240e-44a8-849d-2ff13b977b34","ios":"levelo://app?vid=9ed4ad87-240e-44a8-849d-2ff13b977b34"},"vehicle_type_id":"4","last_reported":1723406923,"current_range_meters":12800,"station_id":"ce4bh9p2rcd13ifvqec0","pricing_plan_id":"cebpf4jnsgd1na2vs0mg"},{"bike_id":"3a5f84ad-7eef-41cc-bc83-5aa192392bfa","system_id":"levelo_inurba_marseille","lat":43.29199,"lon":5.39322,"is_reserved":false,"is_disabled":false,"rental_uris":{"android":"levelo://app?vid=3a5f84ad-7eef-41cc-bc83-5aa192392bfa","ios":"levelo://app?vid=3a5f84ad-7eef-41cc-bc83-5aa192392bfa"},"vehicle_type_id":"4","last_reported":1723406923,"current_range_meters":18400,"station_id":"ce4bh192rcd13ifvqdd0","pricing_plan_id":"cebpf4jnsgd1na2vs0mg"},{"bike_id":"d3081004-cc1e-4a3e-a242-aab6eea3f6e6","system_id":"levelo_inurba_marseille","lat":43.291994,"lon":5.392907,"is_reserved":false,"is_disabled":false,"rental_uris":{"android":"levelo://app?vid=d3081004-cc1e-4a3e-a242-aab6eea3f6e6","ios":"levelo://app?vid=d3081004-cc1e-4a3e-a242-aab6eea3f6e6"},"vehicle_type_id":"4","last_reported":1723406923,"current_range_meters":18400,"station_id":"ce4bh192rcd13ifvqdd0","pricing_plan_id":"cebpf4jnsgd1na2vs0mg"},{"bike_id":"5c522414-07f7-49f3-9bd7-58ec71f4df41","system_id":"levelo_inurba_marseille","lat":43.29191,"lon":5.39313,"is_reserved":false,"is_disabled":false,"rental_uris":{"android":"levelo://app?vid=5c522414-07f7-49f3-9bd7-58ec71f4df41","ios":"levelo://app?vid=5c522414-07f7-49f3-9bd7-58ec71f4df41"},"vehicle_type_id":"4","last_reported":1723406923,"current_range_meters":5600,"station_id":"ce4bh192rcd13ifvqdd0","pricing_plan_id":"cebpf4jnsgd1na2vs0mg"},{"bike_id":"61792e03-d29e-49da-a415-b61756c60be7","system_id":"levelo_inurba_marseille","lat":43.291994,"lon":5.392907,"is_reserved":false,"is_disabled":false,"rental_uris":{"android":"levelo://app?vid=61792e03-d29e-49da-a415-b61756c60be7","ios":"levelo://app?vid=61792e03-d29e-49da-a415-b61756c60be7"},"vehicle_type_id":"4","last_reported":1723406923,"current_range_meters":18800,"station_id":"ce4bh192rcd13ifvqdd0","pricing_plan_id":"cebpf4jnsgd1na2vs0mg"},{"bike_id":"4dd29048-99ba-4789-93db-d7906ae8dc14","system_id":"levelo_inurba_marseille","lat":43.29194,"lon":5.39321,"is_reserved":false,"is_disabled":false,"rental_uris":{"android":"levelo://app?vid=4dd29048-99ba-4789-93db-d7906ae8dc14","ios":"levelo://app?vid=4dd29048-99ba-4789-93db-d7906ae8dc14"},"vehicle_type_id":"4","last_reported":1723406923,"current_range_meters":2800,"station_id":"ce4bh192rcd13ifvqdd0","pricing_plan_id":"cebpf4jnsgd1na2vs0mg"},{"bike_id":"ebd6124d-7021-46ef-8cf2-b0f10ef190b1","system_id":"levelo_inurba_marseille","lat":43.29196,"lon":5.39325,"is_reserved":false,"is_disabled":false,"rental_uris":{"android":"levelo://app?vid=ebd6124d-7021-46ef-8cf2-b0f10ef190b1","ios":"levelo://app?vid=ebd6124d-7021-46ef-8cf2-b0f10ef190b1"},"vehicle_type_id":"4","last_reported":1723406923,"current_range_meters":17200,"station_id":"ce4bh192rcd13ifvqdd0","pricing_plan_id":"cebpf4jnsgd1na2vs0mg"},{"bike_id":"092f0a5f-bda5-415c-9cd4-11d7fa0638ae","system_id":"levelo_inurba_marseille","lat":43.291994,"lon":5.392907,"is_reserved":false,"is_disabled":false,"rental_uris":{"android":"levelo://app?vid=092f0a5f-bda5-415c-9cd4-11d7fa0638ae","ios":"levelo://app?vid=092f0a5f-bda5-415c-9cd4-11d7fa0638ae"},"vehicle_type_id":"4","last_reported":1723406923,"current_range_meters":5200,"station_id":"ce4bh192rcd13ifvqdd0","pricing_plan_id":"cebpf4jnsgd1na2vs0mg"},{"bike_id":"49c9048c-7d34-499f-a66a-87c240ed3226","system_id":"levelo_inurba_marseille","lat":43.291916,"lon":5.393295,"is_reserved":false,"is_disabled":false,"rental_uris":{"android":"levelo://app?vid=49c9048c-7d34-499f-a66a-87c240ed3226","ios":"levelo://app?vid=49c9048c-7d34-499f-a66a-87c240ed3226"},"vehicle_type_id":"4","last_reported":1723406923,"current_range_meters":26800,"station_id":"ce4bh192rcd13ifvqdd0","pricing_plan_id":"cebpf4jnsgd1na2vs0mg"},{"bike_id":"bd1be6c4-db81-4f49-9159-13c84aeec7b9","system_id":"levelo_inurba_marseille","lat":43.29187,"lon":5.39323,"is_reserved":false,"is_disabled":false,"rental_uris":{"android":"levelo://app?vid=bd1be6c4-db81-4f49-9159-13c84aeec7b9","ios":"levelo://app?vid=bd1be6c4-db81-4f49-9159-13c84aeec7b9"},"vehicle_type_id":"4","last_reported":1723406923,"current_range_meters":1200,"station_id":"ce4bh192rcd13ifvqdd0","pricing_plan_id":"cebpf4jnsgd1na2vs0mg"},{"bike_id":"9c9967ed-63f1-42b9-b96f-7add49fde005","system_id":"levelo_inurba_marseille","lat":43.284538,"lon":5.358657,"is_reserved":false,"is_disabled":false,"rental_uris":{"android":"levelo://app?vid=9c9967ed-63f1-42b9-b96f-7add49fde005","ios":"levelo://app?vid=9c9967ed-63f1-42b9-b96f-7add49fde005"},"vehicle_type_id":"4","last_reported":1723406923,"current_range_meters":1600,"station_id":"ce4bhah2rcd13ifvqei0","pricing_plan_id":"cebpf4jnsgd1na2vs0mg"},{"bike_id":"7af28132-4682-4eac-9d2f-8adab798ec82","system_id":"levelo_inurba_marseille","lat":43.294314,"lon":5.397498,"is_reserved":false,"is_disabled":false,"rental_uris":{"android":"levelo://app?vid=7af28132-4682-4eac-9d2f-8adab798ec82","ios":"levelo://app?vid=7af28132-4682-4eac-9d2f-8adab798ec82"},"vehicle_type_id":"4","last_reported":1723406923,"current_range_meters":23600,"station_id":"ce4bh3h2rcd13ifvqdo0","pricing_plan_id":"cebpf4jnsgd1na2vs0mg"},{"bike_id":"e49aee5c-ea81-4204-b29c-1b52791e6efe","system_id":"levelo_inurba_marseille","lat":43.29448,"lon":5.39752,"is_reserved":false,"is_disabled":false,"rental_uris":{"android":"levelo://app?vid=e49aee5c-ea81-4204-b29c-1b52791e6efe","ios":"levelo://app?vid=e49aee5c-ea81-4204-b29c-1b52791e6efe"},"vehicle_type_id":"4","last_reported":1723406923,"current_range_meters":0,"station_id":"ce4bh3h2rcd13ifvqdo0","pricing_plan_id":"cebpf4jnsgd1na2vs0mg"},{"bike_id":"2cce9533-6b6d-4442-ab73-f33923c2a2db","system_id":"levelo_inurba_marseille","lat":43.29719,"lon":5.40031,"is_reserved":false,"is_disabled":false,"rental_uris":{"android":"levelo://app?vid=2cce9533-6b6d-4442-ab73-f33923c2a2db","ios":"levelo://app?vid=2cce9533-6b6d-4442-ab73-f33923c2a2db"},"vehicle_type_id":"4","last_reported":1723406923,"current_range_meters":22000,"station_id":"","pricing_plan_id":"cebpf4jnsgd1na2vs0mg"},{"bike_id":"6d93a544-4c3d-4929-ad9d-3e73d76e39b4","system_id":"levelo_inurba_marseille","lat":43.29438,"lon":5.39761,"is_reserved":false,"is_disabled":false,"rental_uris":{"android":"levelo://app?vid=6d93a544-4c3d-4929-ad9d-3e73d76e39b4","ios":"levelo://app?vid=6d93a544-4c3d-4929-ad9d-3e73d76e39b4"},"vehicle_type_id":"4","last_reported":1723406923,"current_range_meters":0,"station_id":"ce4bh3h2rcd13ifvqdo0","pricing_plan_id":"cebpf4jnsgd1na2vs0mg"},{"bike_id":"656aaf4c-3afb-43e4-92af-8ba99bd629dd","system_id":"levelo_inurba_marseille","lat":43.28418,"lon":5.37518,"is_reserved":false,"is_disabled":false,"rental_uris":{"android":"levelo://app?vid=656aaf4c-3afb-43e4-92af-8ba99bd629dd","ios":"levelo://app?vid=656aaf4c-3afb-43e4-92af-8ba99bd629dd"},"vehicle_type_id":"4","last_reported":1723406923,"current_range_meters":0,"station_id":"ce4bh412rcd13ifvqds0","pricing_plan_id":"cebpf4jnsgd1na2vs0mg"},{"bike_id":"84eb9524-7277-442e-a40e-11a89388d5e7","system_id":"levelo_inurba_marseille","lat":43.28408,"lon":5.37506,"is_reserved":false,"is_disabled":false,"rental_uris":{"android":"levelo://app?vid=84eb9524-7277-442e-a40e-11a89388d5e7","ios":"levelo://app?vid=84eb9524-7277-442e-a40e-11a89388d5e7"},"vehicle_type_id":"4","last_reported":1723406923,"current_range_meters":9600,"station_id":"ce4bh412rcd13ifvqds0","pricing_plan_id":"cebpf4jnsgd1na2vs0mg"},{"bike_id":"70d23a3f-05aa-41a2-9fb3-9b7091ff29f9","system_id":"levelo_inurba_marseille","lat":43.283998,"lon":5.375062,"is_reserved":false,"is_disabled":false,"rental_uris":{"android":"levelo://app?vid=70d23a3f-05aa-41a2-9fb3-9b7091ff29f9","ios":"levelo://app?vid=70d23a3f-05aa-41a2-9fb3-9b7091ff29f9"},"vehicle_type_id":"4","last_reported":1723406923,"current_range_meters":7600,"station_id":"ce4bh412rcd13ifvqds0","pricing_plan_id":"cebpf4jnsgd1na2vs0mg"},{"bike_id":"4aa70c75-fcc6-4e12-a073-7ba1cb45a365","system_id":"levelo_inurba_marseille","lat":43.283998,"lon":5.375062,"is_reserved":false,"is_disabled":false,"rental_uris":{"android":"levelo://app?vid=4aa70c75-fcc6-4e12-a073-7ba1cb45a365","ios":"levelo://app?vid=4aa70c75-fcc6-4e12-a073-7ba1cb45a365"},"vehicle_type_id":"4","last_reported":1723406923,"current_range_meters":12800,"station_id":"ce4bh412rcd13ifvqds0","pricing_plan_id":"cebpf4jnsgd1na2vs0mg"},{"bike_id":"92fd6d0d-de13-4bbb-ae77-3f37d75cce25","system_id":"levelo_inurba_marseille","lat":43.283998,"lon":5.375062,"is_reserved":false,"is_disabled":false,"rental_uris":{"android":"levelo://app?vid=92fd6d0d-de13-4bbb-ae77-3f37d75cce25","ios":"levelo://app?vid=92fd6d0d-de13-4bbb-ae77-3f37d75cce25"},"vehicle_type_id":"4","last_reported":1723406923,"current_range_meters":19200,"station_id":"ce4bh412rcd13ifvqds0","pricing_plan_id":"cebpf4jnsgd1na2vs0mg"},{"bike_id":"ac7a3bc8-eac8-4372-8501-beafa774c88d","system_id":"levelo_inurba_marseille","lat":43.283998,"lon":5.375062,"is_reserved":false,"is_disabled":false,"rental_uris":{"android":"levelo://app?vid=ac7a3bc8-eac8-4372-8501-beafa774c88d","ios":"levelo://app?vid=ac7a3bc8-eac8-4372-8501-beafa774c88d"},"vehicle_type_id":"4","last_reported":1723406923,"current_range_meters":8400,"station_id":"ce4bh412rcd13ifvqds0","pricing_plan_id":"cebpf4jnsgd1na2vs0mg"},{"bike_id":"3d5c9997-dc7d-48d2-8d12-e46d9b7c3480","system_id":"levelo_inurba_marseille","lat":43.283998,"lon":5.375062,"is_reserved":false,"is_disabled":false,"rental_uris":{"android":"levelo://app?vid=3d5c9997-dc7d-48d2-8d12-e46d9b7c3480","ios":"levelo://app?vid=3d5c9997-dc7d-48d2-8d12-e46d9b7c3480"},"vehicle_type_id":"4","last_reported":1723406923,"current_range_meters":800,"station_id":"ce4bh412rcd13ifvqds0","pricing_plan_id":"cebpf4jnsgd1na2vs0mg"},