{"last_updated":1687899997,"ttl":30,"version":"2.2","data":{"bikes":[{"bike_id":"dfadf1ae-67ef-42f1-b9ad-e99140cffb3f","system_id":"levelo_inurba_marseille","lat":43.313391,"lon":5.36706,"is_reserved":false,"is_disabled":false,"rental_uris":{"android":"levelo://app?vid=dfadf1ae-67ef-42f1-b9ad-e99140cffb3f","ios":"levelo://app?vid=dfadf1ae-67ef-42f1-b9ad-e99140cffb3f"},"vehicle_type_id":"4","last_reported":1687899997,"current_range_meters":0,"station_id":"ce4bgr92rcd13ifvqc6g","pricing_plan_id":"free"},{"bike_id":"5e8d6ba0-caae-49d7-b991-e0002b75ad18","system_id":"levelo_inurba_marseille","lat":43.314811,"lon":5.373103,"is_reserved":false,"is_disabled":false,"rental_uris":{"android":"levelo://app?vid=5e8d6ba0-caae-49d7-b991-e0002b75ad18","ios":"levelo://app?vid=5e8d6ba0-caae-49d7-b991-e0002b75ad18"},"vehicle_type_id":"4","last_reported":1687899997,"current_range_meters":0,"station_id":"ce4bgt12rcd13ifvqcd0","pricing_plan_id":"free"},{"bike_id":"750c1700-30cc-496e-bb79-4160df914a29","system_id":"levelo_inurba_marseille","lat":43.314811,"lon":5.373103,"is_reserved":false,"is_disabled":false,"rental_uris":{"android":"levelo://app?vid=750c1700-30cc-496e-bb79-4160df914a29","ios":"levelo://app?vid=750c1700-30cc-496e-bb79-4160df914a29"},"vehicle_type_id":"4","last_reported":1687899997,"current_range_meters":18000,"station_id":"ce4bgt12rcd13ifvqcd0","pricing_plan_id":"free"},{"bike_id":"947fcf84-c636-4007-8607-690fa191dc37","system_id":"levelo_inurba_marseille","lat":43.31426,"lon":5.37336,"is_reserved":false,"is_disabled":false,"rental_uris":{"android":"levelo://app?vid=947fcf84-c636-4007-8607-690fa191dc37","ios":"levelo://app?vid=947fcf84-c636-4007-8607-690fa191dc37"},"vehicle_type_id":"4","last_reported":1687899997,"current_range_meters":25200,"station_id":"","pricing_plan_id":"free"},{"bike_id":"00cc89e5-952e-4528-b787-24291de76890","system_id":"levelo_inurba_marseille","lat":43.314811,"lon":5.373104,"is_reserved":false,"is_disabled":false,"rental_uris":{"android":"levelo://app?vid=00cc89e5-952e-4528-b787-24291de76890","ios":"levelo://app?vid=00cc89e5-952e-4528-b787-24291de76890"},"vehicle_type_id":"4","last_reported":1687899997,"current_range_meters":26400,"station_id":"ce4bgt12rcd13ifvqcd0","pricing_plan_id":"free"},{"bike_id":"19e472e1-f1fb-4066-b6c6-709357b23198","system_id":"levelo_inurba_marseille","lat":43.308614,"lon":5.372098,"is_reserved":false,"is_disabled":false,"rental_uris":{"android":"levelo://app?vid=19e472e1-f1fb-4066-b6c6-709357b23198","ios":"levelo://app?vid=19e472e1-f1fb-4066-b6c6-709357b23198"},"vehicle_type_id":"4","last_reported":1687899997,"current_range_meters":800,"station_id":"ce4bguh2rcd13ifvqckg","pricing_plan_id":"free"},{"bike_id":"f78816cd-c640-4b18-abb0-69fdd80c536f","system_id":"levelo_inurba_marseille","lat":43.30542,"lon":5.36531,"is_reserved":false,"is_disabled":false,"rental_uris":{"android":"levelo://app?vid=f78816cd-c640-4b18-abb0-69fdd80c536f","ios":"levelo://app?vid=f78816cd-c640-4b18-abb0-69fdd80c536f"},"vehicle_type_id":"4","last_reported":1687899997,"current_range_meters":0,"station_id":"ce4bgs12rcd13ifvqcag","pricing_plan_id":"free"},{"bike_id":"cb221e42-0a7f-44d8-b8b1-238e77124f3d","system_id":"levelo_inurba_marseille","lat":43.305989,"lon":5.37225,"is_reserved":false,"is_disabled":false,"rental_uris":{"android":"levelo://app?vid=cb221e42-0a7f-44d8-b8b1-238e77124f3d","ios":"levelo://app?vid=cb221e42-0a7f-44d8-b8b1-238e77124f3d"},"vehicle_type_id":"4","last_reported":1687899997,"current_range_meters":6800,"station_id":"ce4bgqh2rcd13ifvqc4g","pricing_plan_id":"free"},{"bike_id":"a532d61e-6305-40e8-9490-59f2878626e7","system_id":"levelo_inurba_marseille","lat":43.305989,"lon":5.37225,"is_reserved":false,"is_disabled":false,"rental_uris":{"android":"levelo://app?vid=a532d61e-6305-40e8-9490-59f2878626e7","ios":"levelo://app?vid=a532d61e-6305-40e8-9490-59f2878626e7"},"vehicle_type_id":"4","last_reported":1687899997,"current_range_meters":9600,"station_id":"ce4bgqh2rcd13ifvqc4g","pricing_plan_id":"free"},{"bike_id":"c35763eb-b34f-48e9-b588-f631f11b06b7","system_id":"levelo_inurba_marseille","lat":43.305989,"lon":5.37225,"is_reserved":false,"is_disabled":false,"rental_uris":{"android":"levelo://app?vid=c35763eb-b34f-48e9-b588-f631f11b06b7","ios":"levelo://app?vid=c35763eb-b34f-48e9-b588-f631f11b06b7"},"vehicle_type_id":"4","last_reported":1687899997,"current_range_meters":4000,"station_id":"ce4bgqh2rcd13ifvqc4g","pricing_plan_id":"free"},{"bike_id":"6460f425-efe3-4b78-83fa-c1a34ebb0b56","system_id":"levelo_inurba_marseille","lat":43.305989,"lon":5.37225,"is_reserved":false,"is_disabled":false,"rental_uris":{"android":"levelo://app?vid=6460f425-efe3-4b78-83fa-c1a34ebb0b56","ios":"levelo://app?vid=6460f425-efe3-4b78-83fa-c1a34ebb0b56"},"vehicle_type_id":"4","last_reported":1687899997,"current_range_meters":20000,"station_id":"ce4bgqh2rcd13ifvqc4g","pricing_plan_id":"free"},{"bike_id":"bc73ecea-ddb0-4e05-958b-0c2571d0bb9d","system_id":"levelo_inurba_marseille","lat":43.303046,"lon":5.368981,"is_reserved":false,"is_disabled":false,"rental_uris":{"android":"levelo://app?vid=bc73ecea-ddb0-4e05-958b-0c2571d0bb9d","ios":"levelo://app?vid=bc73ecea-ddb0-4e05-958b-0c2571d0bb9d"},"vehicle_type_id":"4","last_reported":1687899997,"current_range_meters":0,"station_id":"ce4bgqh2rcd13ifvqc5g","pricing_plan_id":"free"},{"bike_id":"a1ff5082-620b-4869-8d90-d7a203d9a3ec","system_id":"levelo_inurba_marseille","lat":43.303046,"lon":5.368981,"is_reserved":false,"is_disabled":false,"rental_uris":{"android":"levelo://app?vid=a1ff5082-620b-4869-8d90-d7a203d9a3ec","ios":"levelo://app?vid=a1ff5082-620b-4869-8d90-d7a203d9a3ec"},"vehicle_type_id":"4","last_reported":1687899997,"current_range_meters":2000,"station_id":"ce4bgqh2rcd13ifvqc5g","pricing_plan_id":"free"},{"bike_id":"367798e6-a0b4-4c3e-a431-75bc9846cae4","system_id":"levelo_inurba_marseille","lat":43.303046,"lon":5.368981,"is_reserved":false,"is_disabled":false,"rental_uris":{"android":"levelo://app?vid=367798e6-a0b4-4c3e-a431-75bc9846cae4","ios":"levelo://app?vid=367798e6-a0b4-4c3e-a431-75bc9846cae4"},"vehicle_type_id":"4","last_reported":1687899997,"current_range_meters":800,"station_id":"ce4bgqh2rcd13ifvqc5g","pricing_plan_id":"free"},{"bike_id":"35f3bd8e-e1af-4e0d-bcc1-791c5b926b78","system_id":"levelo_inurba_marseille","lat":43.30295,"lon":5.36864,"is_reserved":false,"is_disabled":false,"rental_uris":{"android":"levelo://app?vid=35f3bd8e-e1af-4e0d-bcc1-791c5b926b78","ios":"levelo://app?vid=35f3bd8e-e1af-4e0d-bcc1-791c5b926b78"},"vehicle_type_id":"4","last_reported":1687899997,"current_range_meters":19200,"station_id":"","pricing_plan_id":"free"},{"bike_id":"6a812bc8-2726-47e1-8a13-9d01554d771a","system_id":"levelo_inurba_marseille","lat":43.303046,"lon":5.368981,"is_reserved":false,"is_disabled":false,"rental_uris":{"android":"levelo://app?vid=6a812bc8-2726-47e1-8a13-9d01554d771a","ios":"levelo://app?vid=6a812bc8-2726-47e1-8a13-9d01554d771a"},"vehicle_type_id":"4","last_reported":1687899997,"current_range_meters":26000,"station_id":"ce4bgqh2rcd13ifvqc5g","pricing_plan_id":"free"},{"bike_id":"0cb784f1-566d-4f46-b9f0-75eb596b3813","system_id":"levelo_inurba_marseille","lat":43.315293,"lon":5.380349,"is_reserved":false,"is_disabled":false,"rental_uris":{"android":"levelo://app?vid=0cb784f1-566d-4f46-b9f0-75eb596b3813","ios":"levelo://app?vid=0cb784f1-566d-4f46-b9f0-75eb596b3813"},"vehicle_type_id":"4","last_reported":1687899997,"current_range_meters":16800,"station_id":"ce4bhsp2rcd13ifvqi50","pricing_plan_id":"free"},{"bike_id":"4ee15348-15e2-4f3c-9644-cacb33387e2c","system_id":"levelo_inurba_marseille","lat":43.315293,"lon":5.380349,"is_reserved":false,"is_disabled":false,"rental_uris":{"android":"levelo://app?vid=4ee15348-15e2-4f3c-9644-cacb33387e2c","ios":"levelo://app?vid=4ee15348-15e2-4f3c-9644-cacb33387e2c"},"vehicle_type_id":"4","last_reported":1687899997,"current_range_meters":7600,"station_id":"ce4bhsp2rcd13ifvqi50","pricing_plan_id":"free"},{"bike_id":"2affdab1-1605-4c10-b595-0ad4a97191ad","system_id":"levelo_inurba_marseille","lat":43.315293,"lon":5.380349,"is_reserved":false,"is_disabled":false,"rental_uris":{"android":"levelo://app?vid=2affdab1-1605-4c10-b595-0ad4a97191ad","ios":"levelo://app?vid=2affdab1-1605-4c10-b595-0ad4a97191ad"},"vehicle_type_id":"4","last_reported":1687899997,"current_range_meters":0,"station_id":"ce4bhsp2rcd13ifvqi50","pricing_plan_id":"free"},{"bike_id":"9f4f2f65-d7e8-4f5d-8fbe-3ea7d54ff45e","system_id":"levelo_inurba_marseille","lat":43.301939,"lon":5.366286,"is_reserved":false,"is_disabled":false,"rental_uris":{"android":"levelo://app?vid=9f4f2f65-d7e8-4f5d-8fbe-3ea7d54ff45e","ios":"levelo://app?vid=9f4f2f65-d7e8-4f5d-8fbe-3ea7d54ff45e"},"vehicle_type_id":"4","last_reported":1687899997,"current_range_meters":16000,"station_id":"ce4bgrh2rcd13ifvqc8g","pricing_plan_id":"free"},{"bike_id":"012e12f9-b717-4a2c-aca1-93c6c1bcd6ab","system_id":"levelo_inurba_marseille","lat":43.30797,"lon":5.38137,"is_reserved":false,"is_disabled":false,"rental_uris":{"android":"levelo://app?vid=012e12f9-b717-4a2c-aca1-93c6c1bcd6ab","ios":"levelo://app?vid=012e12f9-b717-4a2c-aca1-93c6c1bcd6ab"},"vehicle_type_id":"4","last_reported":1687899997,"current_range_meters":14400,"station_id":"ce4bgt12rcd13ifvqce0","pricing_plan_id":"free"},{"bike_id":"8b83bcaa-8ff4-4acd-bde6-377d032bcf8d","system_id":"levelo_inurba_marseille","lat":43.308012,"lon":5.381511,"is_reserved":false,"is_disabled":false,"rental_uris":{"android":"levelo://app?vid=8b83bcaa-8ff4-4acd-bde6-377d032bcf8d","ios":"levelo://app?vid=8b83bcaa-8ff4-4acd-bde6-377d032bcf8d"},"vehicle_type_id":"4","last_reported":1687899997,"current_range_meters":22400,"station_id":"ce4bgt12rcd13ifvqce0","pricing_plan_id":"free"},{"bike_id":"e05e7237-25e4-4606-be73-e49ac28435f7","system_id":"levelo_inurba_marseille","lat":43.30795,"lon":5.38148,"is_reserved":false,"is_disabled":false,"rental_uris":{"android":"levelo://app?vid=e05e7237-25e4-4606-be73-e49ac28435f7","ios":"levelo://app?vid=e05e7237-25e4-4606-be73-e49ac28435f7"},"vehicle_type_id":"4","last_reported":1687899997,"current_range_meters":14000,"station_id":"ce4bgt12rcd13ifvqce0","pricing_plan_id":"free"},{"bike_id":"3038bb4c-a8ee-4b41-8bb4-297ec350b62e","system_id":"levelo_inurba_marseille","lat":43.308012,"lon":5.381511,"is_reserved":false,"is_disabled":false,"rental_uris":{"android":"levelo://app?vid=3038bb4c-a8ee-4b41-8bb4-297ec350b62e","ios":"levelo://app?vid=3038bb4c-a8ee-4b41-8bb4-297ec350b62e"},"vehicle_type_id":"4","last_reported":1687899997,"current_range_meters":9200,"station_id":"ce4bgt12rcd13ifvqce0","pricing_plan_id":"free"},{"bike_id":"b5af0e6d-3863-47bb-9eee-bc41be14d774","system_id":"levelo_inurba_marseille","lat":43.30784,"lon":5.38151,"is_reserved":false,"is_disabled":false,"rental_uris":{"android":"levelo://app?vid=b5af0e6d-3863-47bb-9eee-bc41be14d774","ios":"levelo://app?vid=b5af0e6d-3863-47bb-9eee-bc41be14d774"},"vehicle_type_id":"4","last_reported":1687899997,"current_range_meters":24400,"station_id":"ce4bgt12rcd13ifvqce0","pricing_plan_id":"free"},{"bike_id":"1b8b9c89-05a5-4edf-b55c-ac090c55057d","system_id":"levelo_inurba_marseille","lat":43.311722,"lon":5.387247,"is_reserved":false,"is_disabled":false,"rental_uris":{"android":"levelo://app?vid=1b8b9c89-05a5-4edf-b55c-ac090c55057d","ios":"levelo://app?vid=1b8b9c89-05a5-4edf-b55c-ac090c55057d"},"vehicle_type_id":"4","last_reported":1687899997,"current_range_meters":9600,"station_id":"ce4bgv12rcd13ifvqcp0","pricing_plan_id":"free"},{"bike_id":"276d7646-73be-487a-a088-214eafd76eaa","system_id":"levelo_inurba_marseille","lat":43.30787,"lon":5.38167,"is_reserved":false,"is_disabled":false,"rental_uris":{"android":"levelo://app?vid=276d7646-73be-487a-a088-214eafd76eaa","ios":"levelo://app?vid=276d7646-73be-487a-a088-214eafd76eaa"},"vehicle_type_id":"4","last_reported":1687899997,"current_range_meters":8000,"station_id":"ce4bgt12rcd13ifvqce0","pricing_plan_id":"free"},{"bike_id":"f3505c6d-714e-4f14-b55b-af56c4212c96","system_id":"levelo_inurba_marseille","lat":43.304606,"lon":5.379026,"is_reserved":false,"is_disabled":false,"rental_uris":{"android":"levelo://app?vid=f3505c6d-714e-4f14-b55b-af56c4212c96","ios":"levelo://app?vid=f3505c6d-714e-4f14-b55b-af56c4212c96"},"vehicle_type_id":"4","last_reported":1687899997,"current_range_meters":31200,"station_id":"ce4bgup2rcd13ifvqcn0","pricing_plan_id":"free"},{"bike_id":"cbcd46ef-e826-4ad7-af9b-56046a0ea98a","system_id":"levelo_inurba_marseille","lat":43.304606,"lon":5.379026,"is_reserved":false,"is_disabled":false,"rental_uris":{"android":"levelo://app?vid=cbcd46ef-e826-4ad7-af9b-56046a0ea98a","ios":"levelo://app?vid=cbcd46ef-e826-4ad7-af9b-56046a0ea98a"},"vehicle_type_id":"4","last_reported":1687899997,"current_range_meters":31200,"station_id":"ce4bgup2rcd13ifvqcn0","pricing_plan_id":"free"},{"bike_id":"fe250cae-b771-4b52-bf61-525f2fae588e","system_id":"levelo_inurba_marseille","lat":43.30471,"lon":5.37903,"is_reserved":false,"is_disabled":false,"rental_uris":{"android":"levelo://app?vid=fe250cae-b771-4b52-bf61-525f2fae588e","ios":"levelo://app?vid=fe250cae-b771-4b52-bf61-525f2fae588e"},"vehicle_type_id":"4","last_reported":1687899997,"current_range_meters":12000,"station_id":"ce4bgup2rcd13ifvqcn0","pricing_plan_id":"free"},{"bike_id":"9abb8097-dedf-4de4-9be4-e8d60959d708","system_id":"levelo_inurba_marseille","lat":43.304606,"lon":5.379026,"is_reserved":false,"is_disabled":false,"rental_uris":{"android":"levelo://app?vid=9abb8097-dedf-4de4-9be4-e8d60959d708","ios":"levelo://app?vid=9abb8097-dedf-4de4-9be4-e8d60959d708"},"vehicle_type_id":"4","last_reported":1687899997,"current_range_meters":30000,"station_id":"ce4bgup2rcd13ifvqcn0","pricing_plan_id":"free"},{"bike_id":"36f1e1f7-1618-4d37-b0ef-451d133e8bee","system_id":"levelo_inurba_marseille","lat":43.30465,"lon":5.37898,"is_reserved":false,"is_disabled":false,"rental_uris":{"android":"levelo://app?vid=36f1e1f7-1618-4d37-b0ef-451d133e8bee","ios":"levelo://app?vid=36f1e1f7-1618-4d37-b0ef-451d133e8bee"},"vehicle_type_id":"4","last_reported":1687899997,"current_range_meters":29200,"station_id":"ce4bgup2rcd13ifvqcn0","pricing_plan_id":"free"},{"bike_id":"c6e3329a-a47e-4295-9446-638b06377dd6","system_id":"levelo_inurba_marseille","lat":43.304606,"lon":5.379026,"is_reserved":false,"is_disabled":false,"rental_uris":{"android":"levelo://app?vid=c6e3329a-a47e-4295-9446-638b06377dd6","ios":"levelo://app?vid=c6e3329a-a47e-4295-9446-638b06377dd6"},"vehicle_type_id":"4","last_reported":1687899997,"current_range_meters":2000,"station_id":"ce4bgup2rcd13ifvqcn0","pricing_plan_id":"free"},{"bike_id":"6fdb936a-e512-4f0f-a16e-70aa7eacd9c1","system_id":"levelo_inurba_marseille","lat":43.304606,"lon":5.379026,"is_reserved":false,"is_disabled":false,"rental_uris":{"android":"levelo://app?vid=6fdb936a-e512-4f0f-a16e-70aa7eacd9c1","ios":"levelo://app?vid=6fdb936a-e512-4f0f-a16e-70aa7eacd9c1"},"vehicle_type_id":"4","last_reported":1687899997,"current_range_meters":29600,"station_id":"ce4bgup2rcd13ifvqcn0","pricing_plan_id":"free"},{"bike_id":"4fbe4e81-c84e-486f-a829-7d1a92ed1530","system_id":"levelo_inurba_marseille","lat":43.304606,"lon":5.379026,"is_reserved":false,"is_disabled":false,"rental_uris":{"android":"levelo://app?vid=4fbe4e81-c84e-486f-a829-7d1a92ed1530","ios":"levelo://app?vid=4fbe4e81-c84e-486f-a829-7d1a92ed1530"},"vehicle_type_id":"4","last_reported":1687899997,"current_range_meters":31200,"station_id":"ce4bgup2rcd13ifvqcn0","pricing_plan_id":"free"},{"bike_id":"06e3420b-62f4-4ce1-baa7-ce27795884cb","system_id":"levelo_inurba_marseille","lat":43.30462,"lon":5.37903,"is_reserved":false,"is_disabled":false,"rental_uris":{"android":"levelo://app?vid=06e3420b-62f4-4ce1-baa7-ce27795884cb","ios":"levelo://app?vid=06e3420b-62f4-4ce1-baa7-ce27795884cb"},"vehicle_type_id":"4","last_reported":1687899997,"current_range_meters":19600,"station_id":"ce4bgup2rcd13ifvqcn0","pricing_plan_id":"free"},{"bike_id":"5aadbc62-ff5e-4534-83a3-ece7ae2a01a4","system_id":"levelo_inurba_marseille","lat":43.304606,"lon":5.379026,"is_reserved":false,"is_disabled":false,"rental_uris":{"android":"levelo://app?vid=5aadbc62-ff5e-4534-83a3-ece7ae2a01a4","ios":"levelo://app?vid=5aadbc62-ff5e-4534-83a3-ece7ae2a01a4"},"vehicle_type_id":"4","last_reported":1687899997,"current_range_meters":15200,"station_id":"ce4bgup2rcd13ifvqcn0","pricing_plan_id":"free"},{"bike_id":"bc0d9dd7-5fd3-43c9-9b15-3017e233aa7d","system_id":"levelo_inurba_marseille","lat":43.304606,"lon":5.379026,"is_reserved":false,"is_disabled":false,"rental_uris":{"android":"levelo://app?vid=bc0d9dd7-5fd3-43c9-9b15-3017e233aa7d","ios":"levelo://app?vid=bc0d9dd7-5fd3-43c9-9b15-3017e233aa7d"},"vehicle_type_id":"4","last_reported":1687899997,"current_range_meters":27600,"station_id":"ce4bgup2rcd13ifvqcn0","pricing_plan_id":"free"},{"bike_id":"72d6da0e-630e-4e9e-aa59-a25b831980b4","system_id":"levelo_inurba_marseille","lat":43.304606,"lon":5.379026,"is_reserved":false,"is_disabled":false,"rental_uris":{"android":"levelo://app?vid=72d6da0e-630e-4e9e-aa59-a25b831980b4","ios":"levelo://app?vid=72d6da0e-630e-4e9e-aa59-a25b831980b4"},"vehicle_type_id":"4","last_reported":1687899997,"current_range_meters":14800,"station_id":"ce4bgup2rcd13ifvqcn0","pricing_plan_id":"free"},{"bike_id":"13ad0de3-c848-4a2b-9d14-bc45110356bc","system_id":"levelo_inurba_marseille","lat":43.30141,"lon":5.37403,"is_reserved":false,"is_disabled":false,"rental_uris":{"android":"levelo://app?vid=13ad0de3-c848-4a2b-9d14-bc45110356bc","ios":"levelo://app?vid=13ad0de3-c848-4a2b-9d14-bc45110356bc"},"vehicle_type_id":"4","last_reported":1687899997,"current_range_meters":18400,"station_id":"ce4bgs92rcd13ifvqcc0","pricing_plan_id":"free"},{"bike_id":"c246705f-9268-4cc9-accd-b58b0b95b6d3","system_id":"levelo_inurba_marseille","lat":43.30142,"lon":5.37413,"is_reserved":false,"is_disabled":false,"rental_uris":{"android":"levelo://app?vid=c246705f-9268-4cc9-accd-b58b0b95b6d3","ios":"levelo://app?vid=c246705f-9268-4cc9-accd-b58b0b95b6d3"},"vehicle_type_id":"4","last_reported":1687899997,"current_range_meters":5200,"station_id":"ce4bgs92rcd13ifvqcc0","pricing_plan_id":"free"},{"bike_id":"e3ffbad8-9b94-4cdf-b094-f77e7df949c1","system_id":"levelo_inurba_marseille","lat":43.319935,"lon":5.381699,"is_reserved":false,"is_disabled":false,"rental_uris":{"android":"levelo://app?vid=e3ffbad8-9b94-4cdf-b094-f77e7df949c1","ios":"levelo://app?vid=e3ffbad8-9b94-4cdf-b094-f77e7df949c1"},"vehicle_type_id":"4","last_reported":1687899997,"current_range_meters":4800,"station_id":"ce4bhr12rcd13ifvqhpg","pricing_plan_id":"free"},{"bike_id":"ff2674b5-8725-4878-b5d3-488c50f2698c","system_id":"levelo_inurba_marseille","lat":43.319935,"lon":5.381699,"is_reserved":false,"is_disabled":false,"rental_uris":{"android":"levelo://app?vid=ff2674b5-8725-4878-b5d3-488c50f2698c","ios":"levelo://app?vid=ff2674b5-8725-4878-b5d3-488c50f2698c"},"vehicle_type_id":"4","last_reported":1687899997,"current_range_meters":17200,"station_id":"ce4bhr12rcd13ifvqhpg","pricing_plan_id":"free"},{"bike_id":"1db5fd78-e6b8-49a1-b3d0-152b3bf7ea86","system_id":"levelo_inurba_marseille","lat":43.305364,"lon":5.384119,"is_reserved":false,"is_disabled":false,"rental_uris":{"android":"levelo://app?vid=1db5fd78-e6b8-49a1-b3d0-152b3bf7ea86","ios":"levelo://app?vid=1db5fd78-e6b8-49a1-b3d0-152b3bf7ea86"},"vehicle_type_id":"4","last_reported":1687899997,"current_range_meters":23600,"station_id":"ce4bgg92rcd13ifvqb30","pricing_plan_id":"free"},{"bike_id":"b9104778-212d-4ec5-905f-ecae5799fe68","system_id":"levelo_inurba_marseille","lat":43.305364,"lon":5.384119,"is_reserved":false,"is_disabled":false,"rental_uris":{"android":"levelo://app?vid=b9104778-212d-4ec5-905f-ecae5799fe68","ios":"levelo://app?vid=b9104778-212d-4ec5-905f-ecae5799fe68"},"vehicle_type_id":"4","last_reported":1687899997,"current_range_meters":24400,"station_id":"ce4bgg92rcd13ifvqb30","pricing_plan_id":"free"},{"bike_id":"5bba0cfb-54a4-4ea6-ad08-dcebed6a3dd2","system_id":"levelo_inurba_marseille","lat":43.305364,"lon":5.384119,"is_reserved":false,"is_disabled":false,"rental_uris":{"android":"levelo://app?vid=5bba0cfb-54a4-4ea6-ad08-dcebed6a3dd2","ios":"levelo://app?vid=5bba0cfb-54a4-4ea6-ad08-dcebed6a3dd2"},"vehicle_type_id":"4","last_reported":1687899997,"current_range_meters":7200,"station_id":"ce4bgg92rcd13ifvqb30","pricing_plan_id":"free"},{"bike_id":"05a4535e-5862-4b3e-a45d-7014edf751a8","system_id":"levelo_inurba_marseille","lat":43.311722,"lon":5.387247,"is_reserved":false,"is_disabled":false,"rental_uris":{"android":"levelo://app?vid=05a4535e-5862-4b3e-a45d-7014edf751a8","ios":"levelo://app?vid=05a4535e-5862-4b3e-a45d-7014edf751a8"},"vehicle_type_id":"4","last_reported":1687899997,"current_range_meters":4800,"station_id":"ce4bgv12rcd13ifvqcp0","pricing_plan_id":"free"},{"bike_id":"2924bc95-c48b-4069-b2b6-035d4b197a76","system_id":"levelo_inurba_marseille","lat":43.328371,"lon":5.366909,"is_reserved":false,"is_disabled":false,"rental_uris":{"android":"levelo://app?vid=2924bc95-c48b-4069-b2b6-035d4b197a76","ios":"levelo://app?vid=2924bc95-c48b-4069-b2b6-035d4b197a76"},"vehicle_type_id":"4","last_reported":1687899997,"current_range_meters":800,"station_id":"ce4bhs92rcd13ifvqi0g","pricing_plan_id":"free"},{"bike_id":"a8773d6c-416b-4bb7-b3df-9ca0b27461c7","system_id":"levelo_inurba_marseille","lat":43.328371,"lon":5.366909,"is_reserved":false,"is_disabled":false,"rental_uris":{"android":"levelo://app?vid=a8773d6c-416b-4bb7-b3df-9ca0b27461c7","ios":"levelo://app?vid=a8773d6c-416b-4bb7-b3df-9ca0b27461c7"},"vehicle_type_id":"4","last_reported":1687899997,"current_range_meters":400,"station_id":"ce4bhs92rcd13ifvqi0g","pricing_plan_id":"free"},{"bike_id":"4ad0820a-b4f0-4687-9297-85e68595ea74","system_id":"levelo_inurba_marseille","lat":43.328371,"lon":5.366909,"is_reserved":false,"is_disabled":false,"rental_uris":{"android":"levelo://app?vid=4ad0820a-b4f0-4687-9297-85e68595ea74","ios":"levelo://app?vid=4ad0820a-b4f0-4687-9297-85e68595ea74"},"vehicle_type_id":"4","last_reported":1687899997,"current_range_meters":19600,"station_id":"ce4bhs92rcd13ifvqi0g","pricing_plan_id":"free"},{"bike_id":"6fffd513-4814-4955-a96a-37c2be6aeead","system_id":"levelo_inurba_marseille","lat":43.328371,"lon":5.366909,"is_reserved":false,"is_disabled":false,"rental_uris":{"android":"levelo://app?vid=6fffd513-4814-4955-a96a-37c2be6aeead","ios":"levelo://app?vid=6fffd513-4814-4955-a96a-37c2be6aeead"},"vehicle_type_id":"4","last_reported":1687899997,"current_range_meters":15600,"station_id":"ce4bhs92rcd13ifvqi0g","pricing_plan_id":"free"},{"bike_id":"8d98417a-cbe4-4269-8bc9-598373a7d5de","system_id":"levelo_inurba_marseille","lat":43.3287,"lon":5.36296,"is_reserved":false,"is_disabled":false,"rental_uris":{"android":"levelo://app?vid=8d98417a-cbe4-4269-8bc9-598373a7d5de","ios":"levelo://app?vid=8d98417a-cbe4-4269-8bc9-598373a7d5de"},"vehicle_type_id":"4","last_reported":1687899997,"current_range_meters":6400,"station_id":"","pricing_plan_id":"free"},{"bike_id":"9635c68b-597a-41bd-a766-6dfc87d054d6","system_id":"levelo_inurba_marseille","lat":43.2968,"lon":5.37291,"is_reserved":false,"is_disabled":false,"rental_uris":{"android":"levelo://app?vid=9635c68b-597a-41bd-a766-6dfc87d054d6","ios":"levelo://app?vid=9635c68b-597a-41bd-a766-6dfc87d054d6"},"vehicle_type_id":"4","last_reported":1687899997,"current_range_meters":27200,"station_id":"ce4bgk12rcd13ifvqbj0","pricing_plan_id":"free"},{"bike_id":"ce60667e-74e9-4c72-a42c-e0832b340efa","system_id":"levelo_inurba_marseille","lat":43.30956,"lon":5.39028,"is_reserved":false,"is_disabled":false,"rental_uris":{"android":"levelo://app?vid=ce60667e-74e9-4c72-a42c-e0832b340efa","ios":"levelo://app?vid=ce60667e-74e9-4c72-a42c-e0832b340efa"},"vehicle_type_id":"4","last_reported":1687899997,"current_range_meters":14800,"station_id":"ce4bgup2rcd13ifvqco0","pricing_plan_id":"free"},{"bike_id":"e0baddb1-b53a-4398-bdda-156c12c32978","system_id":"levelo_inurba_marseille","lat":43.30947,"lon":5.39026,"is_reserved":false,"is_disabled":false,"rental_uris":{"android":"levelo://app?vid=e0baddb1-b53a-4398-bdda-156c12c32978","ios":"levelo://app?vid=e0baddb1-b53a-4398-bdda-156c12c32978"},"vehicle_type_id":"4","last_reported":1687899997,"current_range_meters":21200,"station_id":"ce4bgup2rcd13ifvqco0","pricing_plan_id":"free"},{"bike_id":"35aade7d-3134-4ac4-a04a-415a7f8fd31e","system_id":"levelo_inurba_marseille","lat":43.29607,"lon":5.37333,"is_reserved":false,"is_disabled":false,"rental_uris":{"android":"levelo://app?vid=35aade7d-3134-4ac4-a04a-415a7f8fd31e","ios":"levelo://app?vid=35aade7d-3134-4ac4-a04a-415a7f8fd31e"},"vehicle_type_id":"4","last_reported":1687899997,"current_range_meters":9600,"station_id":"","pricing_plan_id":"free"},{"bike_id":"cf00c5da-0f5e-4117-bdd9-c3d59b0e1813","system_id":"levelo_inurba_marseille","lat":43.296921,"lon":5.376579,"is_reserved":false,"is_disabled":false,"rental_uris":{"android":"levelo://app?vid=cf00c5da-0f5e-4117-bdd9-c3d59b0e1813","ios":"levelo://app?vid=cf00c5da-0f5e-4117-bdd9-c3d59b0e1813"},"vehicle_type_id":"4","last_reported":1687899997,"current_range_meters":31200,"station_id":"ce4bgkh2rcd13ifvqbl0","pricing_plan_id":"free"},{"bike_id":"43ddf487-4679-47ab-a640-42eb7f0c8f92","system_id":"levelo_inurba_marseille","lat":43.31762,"lon":5.39012,"is_reserved":false,"is_disabled":false,"rental_uris":{"android":"levelo://app?vid=43ddf487-4679-47ab-a640-42eb7f0c8f92","ios":"levelo://app?vid=43ddf487-4679-47ab-a640-42eb7f0c8f92"},"vehicle_type_id":"4","last_reported":1687899997,"current_range_meters":28000,"station_id":"ce4bhqp2rcd13ifvqhng","pricing_plan_id":"free"},{"bike_id":"a1739883-1617-4892-9bdf-479ec4621cd0","system_id":"levelo_inurba_marseille","lat":43.31759,"lon":5.39017,"is_reserved":false,"is_disabled":false,"rental_uris":{"android":"levelo://app?vid=a1739883-1617-4892-9bdf-479ec4621cd0","ios":"levelo://app?vid=a1739883-1617-4892-9bdf-479ec4621cd0"},"vehicle_type_id":"4","last_reported":1687899997,"current_range_meters":8800,"station_id":"ce4bhqp2rcd13ifvqhng","pricing_plan_id":"free"},{"bike_id":"7813a6d8-fb21-467b-82f3-814ade40895a","system_id":"levelo_inurba_marseille","lat":43.2992,"lon":5.38329,"is_reserved":false,"is_disabled":false,"rental_uris":{"android":"levelo://app?vid=7813a6d8-fb21-467b-82f3-814ade40895a","ios":"levelo://app?vid=7813a6d8-fb21-467b-82f3-814ade40895a"},"vehicle_type_id":"4","last_reported":1687899997,"current_range_meters":17600,"station_id":"","pricing_plan_id":"free"},{"bike_id":"bc44076c-b8a9-4677-88dc-328159a9d2c3","system_id":"levelo_inurba_marseille","lat":43.304278,"lon":5.388868,"is_reserved":false,"is_disabled":false,"rental_uris":{"android":"levelo://app?vid=bc44076c-b8a9-4677-88dc-328159a9d2c3","ios":"levelo://app?vid=bc44076c-b8a9-4677-88dc-328159a9d2c3"},"vehicle_type_id":"4","last_reported":1687899997,"current_range_meters":8800,"station_id":"ce4bgk12rcd13ifvqbi0","pricing_plan_id":"free"},{"bike_id":"23a9df98-999f-466f-b677-92cb559ce8bd","system_id":"levelo_inurba_marseille","lat":43.304278,"lon":5.388868,"is_reserved":false,"is_disabled":false,"rental_uris":{"android":"levelo://app?vid=23a9df98-999f-466f-b677-92cb559ce8bd","ios":"levelo://app?vid=23a9df98-999f-466f-b677-92cb559ce8bd"},"vehicle_type_id":"4","last_reported":1687899997,"current_range_meters":23200,"station_id":"ce4bgk12rcd13ifvqbi0","pricing_plan_id":"free"},{"bike_id":"c5f43bf4-27bc-4db4-8d9e-9be3ba4a98bc","system_id":"levelo_inurba_marseille","lat":43.304278,"lon":5.388868,"is_reserved":false,"is_disabled":false,"rental_uris":{"android":"levelo://app?vid=c5f43bf4-27bc-4db4-8d9e-9be3ba4a98bc","ios":"levelo://app?vid=c5f43bf4-27bc-4db4-8d9e-9be3ba4a98bc"},"vehicle_type_id":"4","last_reported":1687899997,"current_range_meters":22000,"station_id":"ce4bgk12rcd13ifvqbi0","pricing_plan_id":"free"},{"bike_id":"ef034ad8-81e1-4907-bf79-8c3216cdc9d5","system_id":"levelo_inurba_marseille","lat":43.29781,"lon":5.38112,"is_reserved":false,"is_disabled":false,"rental_uris":{"android":"levelo://app?vid=ef034ad8-81e1-4907-bf79-8c3216cdc9d5","ios":"levelo://app?vid=ef034ad8-81e1-4907-bf79-8c3216cdc9d5"},"vehicle_type_id":"4","last_reported":1687899997,"current_range_meters":31200,"station_id":"ce4bgip2rcd13ifvqbb0","pricing_plan_id":"free"},{"bike_id":"fd21c336-38e5-424e-b4e5-3a726ca8a04d","system_id":"levelo_inurba_marseille","lat":43.29599,"lon":5.37705,"is_reserved":false,"is_disabled":false,"rental_uris":{"android":"levelo://app?vid=fd21c336-38e5-424e-b4e5-3a726ca8a04d","ios":"levelo://app?vid=fd21c336-38e5-424e-b4e5-3a726ca8a04d"},"vehicle_type_id":"4","last_reported":1687899997,"current_range_meters":0,"station_id":"","pricing_plan_id":"free"},{"bike_id":"a1d036d6-1dab-4940-98c3-6dc4b19af64b","system_id":"levelo_inurba_marseille","lat":43.299707,"lon":5.384859,"is_reserved":false,"is_disabled":false,"rental_uris":{"android":"levelo://app?vid=a1d036d6-1dab-4940-98c3-6dc4b19af64b","ios":"levelo://app?vid=a1d036d6-1dab-4940-98c3-6dc4b19af64b"},"vehicle_type_id":"4","last_reported":1687899997,"current_range_meters":0,"station_id":"ce4bgj92rcd13ifvqbd0","pricing_plan_id":"free"},{"bike_id":"6c30a528-06d5-42a5-b321-4cdd107dcde6","system_id":"levelo_inurba_marseille","lat":43.299707,"lon":5.384859,"is_reserved":false,"is_disabled":false,"rental_uris":{"android":"levelo://app?vid=6c30a528-06d5-42a5-b321-4cdd107dcde6","ios":"levelo://app?vid=6c30a528-06d5-42a5-b321-4cdd107dcde6"},"vehicle_type_id":"4","last_reported":1687899997,"current_range_meters":10800,"station_id":"ce4bgj92rcd13ifvqbd0","pricing_plan_id":"free"},{"bike_id":"2868823c-c925-4d26-98c8-b956f51bf120","system_id":"levelo_inurba_marseille","lat":43.299707,"lon":5.384859,"is_reserved":false,"is_disabled":false,"rental_uris":{"android":"levelo://app?vid=2868823c-c925-4d26-98c8-b956f51bf120","ios":"levelo://app?vid=2868823c-c925-4d26-98c8-b956f51bf120"},"vehicle_type_id":"4","last_reported":1687899997,"current_range_meters":31600,"station_id":"ce4bgj92rcd13ifvqbd0","pricing_plan_id":"free"},{"bike_id":"6d0b8a1b-3fb2-4fbd-a489-ac3494f04dd9","system_id":"levelo_inurba_marseille","lat":43.299707,"lon":5.384859,"is_reserved":false,"is_disabled":false,"rental_uris":{"android":"levelo://app?vid=6d0b8a1b-3fb2-4fbd-a489-ac3494f04dd9","ios":"levelo://app?vid=6d0b8a1b-3fb2-4fbd-a489-ac3494f04dd9"},"vehicle_type_id":"4","last_reported":1687899997,"current_range_meters":26000,"station_id":"ce4bgj92rcd13ifvqbd0","pricing_plan_id":"free"},{"bike_id":"aa99fa24-ff0a-42d7-9d2d-92b4fce502cd","system_id":"levelo_inurba_marseille","lat":43.29979,"lon":5.38494,"is_reserved":false,"is_disabled":false,"rental_uris":{"android":"levelo://app?vid=aa99fa24-ff0a-42d7-9d2d-92b4fce502cd","ios":"levelo://app?vid=aa99fa24-ff0a-42d7-9d2d-92b4fce502cd"},"vehicle_type_id":"4","last_reported":1687899997,"current_range_meters":31200,"station_id":"ce4bgj92rcd13ifvqbd0","pricing_plan_id":"free"},{"bike_id":"0ce8682a-352d-4e7a-9563-835a7c519d49","system_id":"levelo_inurba_marseille","lat":43.2997,"lon":5.38484,"is_reserved":false,"is_disabled":false,"rental_uris":{"android":"levelo://app?vid=0ce8682a-352d-4e7a-9563-835a7c519d49","ios":"levelo://app?vid=0ce8682a-352d-4e7a-9563-835a7c519d49"},"vehicle_type_id":"4","last_reported":1687899997,"current_range_meters":20000,"station_id":"ce4bgj92rcd13ifvqbd0","pricing_plan_id":"free"},{"bike_id":"de664738-7dae-40bc-801d-54f1bc0cce66","system_id":"levelo_inurba_marseille","lat":43.299707,"lon":5.384859,"is_reserved":false,"is_disabled":false,"rental_uris":{"android":"levelo://app?vid=de664738-7dae-40bc-801d-54f1bc0cce66","ios":"levelo://app?vid=de664738-7dae-40bc-801d-54f1bc0cce66"},"vehicle_type_id":"4","last_reported":1687899997,"current_range_meters":8800,"station_id":"ce4bgj92rcd13ifvqbd0","pricing_plan_id":"free"},{"bike_id":"aa47e955-f262-4ace-b803-62a31c592a92","system_id":"levelo_inurba_marseille","lat":43.299668,"lon":5.384803,"is_reserved":false,"is_disabled":false,"rental_uris":{"android":"levelo://app?vid=aa47e955-f262-4ace-b803-62a31c592a92","ios":"levelo://app?vid=aa47e955-f262-4ace-b803-62a31c592a92"},"vehicle_type_id":"4","last_reported":1687899997,"current_range_meters":31200,"station_id":"ce4bgj92rcd13ifvqbd0","pricing_plan_id":"free"},{"bike_id":"0b64ce55-2a83-4310-9fc8-0db6a542a525","system_id":"levelo_inurba_marseille","lat":43.299724,"lon":5.384848,"is_reserved":false,"is_disabled":false,"rental_uris":{"android":"levelo://app?vid=0b64ce55-2a83-4310-9fc8-0db6a542a525","ios":"levelo://app?vid=0b64ce55-2a83-4310-9fc8-0db6a542a525"},"vehicle_type_id":"4","last_reported":1687899997,"current_range_meters":31200,"station_id":"ce4bgj92rcd13ifvqbd0","pricing_plan_id":"free"},{"bike_id":"f73be671-6949-4cdd-b670-167df74f6def","system_id":"levelo_inurba_marseille","lat":43.29972,"lon":5.38494,"is_reserved":false,"is_disabled":false,"rental_uris":{"android":"levelo://app?vid=f73be671-6949-4cdd-b670-167df74f6def","ios":"levelo://app?vid=f73be671-6949-4cdd-b670-167df74f6def"},"vehicle_type_id":"4","last_reported":1687899997,"current_range_meters":31200,"station_id":"ce4bgj92rcd13ifvqbd0","pricing_plan_id":"free"},{"bike_id":"0f1d1613-e70d-4c72-a9eb-9a15204b459d","system_id":"levelo_inurba_marseille","lat":43.32367,"lon":5.388836,"is_reserved":false,"is_disabled":false,"rental_uris":{"android":"levelo://app?vid=0f1d1613-e70d-4c72-a9eb-9a15204b459d","ios":"levelo://app?vid=0f1d1613-e70d-4c72-a9eb-9a15204b459d"},"vehicle_type_id":"4","last_reported":1687899997,"current_range_meters":24400,"station_id":"ce4bhqp2rcd13ifvqhog","pricing_plan_id":"free"},{"bike_id":"d94e516d-f165-4856-adcd-253e139ac1f1","system_id":"levelo_inurba_marseille","lat":43.32367,"lon":5.388836,"is_reserved":false,"is_disabled":false,"rental_uris":{"android":"levelo://app?vid=d94e516d-f165-4856-adcd-253e139ac1f1","ios":"levelo://app?vid=d94e516d-f165-4856-adcd-253e139ac1f1"},"vehicle_type_id":"4","last_reported":1687899997,"current_range_meters":21200,"station_id":"ce4bhqp2rcd13ifvqhog","pricing_plan_id":"free"},{"bike_id":"5940a31c-91d0-4bd1-85a2-4b971ae4d9d7","system_id":"levelo_inurba_marseille","lat":43.32367,"lon":5.388836,"is_reserved":false,"is_disabled":false,"rental_uris":{"android":"levelo://app?vid=5940a31c-91d0-4bd1-85a2-4b971ae4d9d7","ios":"levelo://app?vid=5940a31c-91d0-4bd1-85a2-4b971ae4d9d7"},"vehicle_type_id":"4","last_reported":1687899997,"current_range_meters":27600,"station_id":"ce4bhqp2rcd13ifvqhog","pricing_plan_id":"free"},{"bike_id":"10ae1162-4e36-4f8f-b800-7fbb623ecf6b","system_id":"levelo_inurba_marseille","lat":43.32367,"lon":5.388836,"is_reserved":false,"is_disabled":false,"rental_uris":{"android":"levelo://app?vid=10ae1162-4e36-4f8f-b800-7fbb623ecf6b","ios":"levelo://app?vid=10ae1162-4e36-4f8f-b800-7fbb623ecf6b"},"vehicle_type_id":"4","last_reported":1687899997,"current_range_meters":28800,"station_id":"ce4bhqp2rcd13ifvqhog","pricing_plan_id":"free"},{"bike_id":"f8d99bf0-091d-4df6-93eb-3f4c79878874","system_id":"levelo_inurba_marseille","lat":43.32367,"lon":5.388836,"is_reserved":false,"is_disabled":false,"rental_uris":{"android":"levelo://app?vid=f8d99bf0-091d-4df6-93eb-3f4c79878874","ios":"levelo://app?vid=f8d99bf0-091d-4df6-93eb-3f4c79878874"},"vehicle_type_id":"4","last_reported":1687899997,"current_range_meters":23200,"station_id":"ce4bhqp2rcd13ifvqhog","pricing_plan_id":"free"},{"bike_id":"ea9a7179-925f-45d9-9270-ffd1642deed4","system_id":"levelo_inurba_marseille","lat":43.29609,"lon":5.38145,"is_reserved":false,"is_disabled":false,"rental_uris":{"android":"levelo://app?vid=ea9a7179-925f-45d9-9270-ffd1642deed4","ios":"levelo://app?vid=ea9a7179-925f-45d9-9270-ffd1642deed4"},"vehicle_type_id":"4","last_reported":1687899997,"current_range_meters":14800,"station_id":"","pricing_plan_id":"free"},{"bike_id":"0de63cb5-7f66-44fb-bfef-a7a197b1a826","system_id":"levelo_inurba_marseille","lat":43.29275,"lon":5.36837,"is_reserved":false,"is_disabled":false,"rental_uris":{"android":"levelo://app?vid=0de63cb5-7f66-44fb-bfef-a7a197b1a826","ios":"levelo://app?vid=0de63cb5-7f66-44fb-bfef-a7a197b1a826"},"vehicle_type_id":"4","last_reported":1687899997,"current_range_meters":9600,"station_id":"ce4bhbp2rcd13ifvqesg","pricing_plan_id":"free"},{"bike_id":"5fd77523-a1f3-4206-9fe0-73b839c14ae2","system_id":"levelo_inurba_marseille","lat":43.293249,"lon":5.371578,"is_reserved":false,"is_disabled":false,"rental_uris":{"android":"levelo://app?vid=5fd77523-a1f3-4206-9fe0-73b839c14ae2","ios":"levelo://app?vid=5fd77523-a1f3-4206-9fe0-73b839c14ae2"},"vehicle_type_id":"4","last_reported":1687899997,"current_range_meters":18800,"station_id":"ce4bgh92rcd13ifvqb40","pricing_plan_id":"free"},{"bike_id":"20ed4022-e8bb-4d83-86b9-d9c88cb38d06","system_id":"levelo_inurba_marseille","lat":43.29227,"lon":5.36385,"is_reserved":false,"is_disabled":false,"rental_uris":{"android":"levelo://app?vid=20ed4022-e8bb-4d83-86b9-d9c88cb38d06","ios":"levelo://app?vid=20ed4022-e8bb-4d83-86b9-d9c88cb38d06"},"vehicle_type_id":"4","last_reported":1687899997,"current_range_meters":2800,"station_id":"","pricing_plan_id":"free"},{"bike_id":"0a9ab09e-fc4b-4f6b-a551-e0114b9ad841","system_id":"levelo_inurba_marseille","lat":43.302992,"lon":5.392136,"is_reserved":false,"is_disabled":false,"rental_uris":{"android":"levelo://app?vid=0a9ab09e-fc4b-4f6b-a551-e0114b9ad841","ios":"levelo://app?vid=0a9ab09e-fc4b-4f6b-a551-e0114b9ad841"},"vehicle_type_id":"4","last_reported":1687899997,"current_range_meters":15200,"station_id":"ce4bgkh2rcd13ifvqbk0","pricing_plan_id":"free"},{"bike_id":"89800081-b18f-48f6-9d10-7c1fab53e69b","system_id":"levelo_inurba_marseille","lat":43.2936,"lon":5.37835,"is_reserved":false,"is_disabled":false,"rental_uris":{"android":"levelo://app?vid=89800081-b18f-48f6-9d10-7c1fab53e69b","ios":"levelo://app?vid=89800081-b18f-48f6-9d10-7c1fab53e69b"},"vehicle_type_id":"4","last_reported":1687899997,"current_range_meters":20400,"station_id":"ce4bgjh2rcd13ifvqbf0","pricing_plan_id":"free"},{"bike_id":"b3a04b6d-90b2-46f7-b966-c7399b179f06","system_id":"levelo_inurba_marseille","lat":43.2936,"lon":5.37835,"is_reserved":false,"is_disabled":false,"rental_uris":{"android":"levelo://app?vid=b3a04b6d-90b2-46f7-b966-c7399b179f06","ios":"levelo://app?vid=b3a04b6d-90b2-46f7-b966-c7399b179f06"},"vehicle_type_id":"4","last_reported":1687899997,"current_range_meters":28000,"station_id":"ce4bgjh2rcd13ifvqbf0","pricing_plan_id":"free"},{"bike_id":"40ca27e0-7e84-49c7-b026-a54294ecb4e9","system_id":"levelo_inurba_marseille","lat":43.300852,"lon":5.390859,"is_reserved":false,"is_disabled":false,"rental_uris":{"android":"levelo://app?vid=40ca27e0-7e84-49c7-b026-a54294ecb4e9","ios":"levelo://app?vid=40ca27e0-7e84-49c7-b026-a54294ecb4e9"},"vehicle_type_id":"4","last_reported":1687899997,"current_range_meters":0,"station_id":"ce4bh192rcd13ifvqdb0","pricing_plan_id":"free"},{"bike_id":"2fddbdbf-e3dc-4e8b-8562-7959d6a3eba9","system_id":"levelo_inurba_marseille","lat":43.300852,"lon":5.390859,"is_reserved":false,"is_disabled":false,"rental_uris":{"android":"levelo://app?vid=2fddbdbf-e3dc-4e8b-8562-7959d6a3eba9","ios":"levelo://app?vid=2fddbdbf-e3dc-4e8b-8562-7959d6a3eba9"},"vehicle_type_id":"4","last_reported":1687899997,"current_range_meters":13600,"station_id":"ce4bh192rcd13ifvqdb0","pricing_plan_id":"free"},{"bike_id":"1a9ea801-f0b4-4011-a82d-43c264608cf0","system_id":"levelo_inurba_marseille","lat":43.300852,"lon":5.390859,"is_reserved":false,"is_disabled":false,"rental_uris":{"android":"levelo://app?vid=1a9ea801-f0b4-4011-a82d-43c264608cf0","ios":"levelo://app?vid=1a9ea801-f0b4-4011-a82d-43c264608cf0"},"vehicle_type_id":"4","last_reported":1687899997,"current_range_meters":20400,"station_id":"ce4bh192rcd13ifvqdb0","pricing_plan_id":"free"},{"bike_id":"cb44fef3-e24e-47dc-a5b9-820734b691df","system_id":"levelo_inurba_marseille","lat":43.300852,"lon":5.390859,"is_reserved":false,"is_disabled":false,"rental_uris":{"android":"levelo://app?vid=cb44fef3-e24e-47dc-a5b9-820734b691df","ios":"levelo://app?vid=cb44fef3-e24e-47dc-a5b9-820734b691df"},"vehicle_type_id":"4","last_reported":1687899997,"current_range_meters":9200,"station_id":"ce4bh192rcd13ifvqdb0","pricing_plan_id":"free"},{"bike_id":"2a2007d9-c41c-4319-970d-309eef792590","system_id":"levelo_inurba_marseille","lat":43.29876,"lon":5.389,"is_reserved":false,"is_disabled":false,"rental_uris":{"android":"levelo://app?vid=2a2007d9-c41c-4319-970d-309eef792590","ios":"levelo://app?vid=2a2007d9-c41c-4319-970d-309eef792590"},"vehicle_type_id":"4","last_reported":1687899997,"current_range_meters":14400,"station_id":"ce4bh392rcd13ifvqdl0","pricing_plan_id":"free"},{"bike_id":"fa579a3f-baf9-4008-8de6-796c91ee8f0e","system_id":"levelo_inurba_marseille","lat":43.309038,"lon":5.396546,"is_reserved":false,"is_disabled":false,"rental_uris":{"android":"levelo://app?vid=fa579a3f-baf9-4008-8de6-796c91ee8f0e","ios":"levelo://app?vid=fa579a3f-baf9-4008-8de6-796c91ee8f0e"},"vehicle_type_id":"4","last_reported":1687899997,"current_range_meters":16800,"station_id":"ce4bh012rcd13ifvqcv0","pricing_plan_id":"free"},{"bike_id":"3a37a747-757b-444f-9359-7b2f85d8bcf7","system_id":"levelo_inurba_marseille","lat":43.309038,"lon":5.396546,"is_reserved":false,"is_disabled":false,"rental_uris":{"android":"levelo://app?vid=3a37a747-757b-444f-9359-7b2f85d8bcf7","ios":"levelo://app?vid=3a37a747-757b-444f-9359-7b2f85d8bcf7"},"vehicle_type_id":"4","last_reported":1687899997,"current_range_meters":24400,"station_id":"ce4bh012rcd13ifvqcv0","pricing_plan_id":"free"},{"bike_id":"4d658128-ed4a-4205-96c0-95f0fcf83c04","system_id":"levelo_inurba_marseille","lat":43.309038,"lon":5.396546,"is_reserved":false,"is_disabled":false,"rental_uris":{"android":"levelo://app?vid=4d658128-ed4a-4205-96c0-95f0fcf83c04","ios":"levelo://app?vid=4d658128-ed4a-4205-96c0-95f0fcf83c04"},"vehicle_type_id":"4","last_reported":1687899997,"current_range_meters":31200,"station_id":"ce4bh012rcd13ifvqcv0","pricing_plan_id":"free"},{"bike_id":"6d38a694-582d-48a7-a5a3-3f0f1636f889","system_id":"levelo_inurba_marseille","lat":43.309038,"lon":5.396546,"is_reserved":false,"is_disabled":false,"rental_uris":{"android":"levelo://app?vid=6d38a694-582d-48a7-a5a3-3f0f1636f889","ios":"levelo://app?vid=6d38a694-582d-48a7-a5a3-3f0f1636f889"},"vehicle_type_id":"4","last_reported":1687899997,"current_range_meters":30800,"station_id":"ce4bh012rcd13ifvqcv0","pricing_plan_id":"free"},{"bike_id":"434a7055-8c8c-4306-82a1-f0d8e35b05e8","system_id":"levelo_inurba_marseille","lat":43.309038,"lon":5.396546,"is_reserved":false,"is_disabled":false,"rental_uris":{"android":"levelo://app?vid=434a7055-8c8c-4306-82a1-f0d8e35b05e8","ios":"levelo://app?vid=434a7055-8c8c-4306-82a1-f0d8e35b05e8"},"vehicle_type_id":"4","last_reported":1687899997,"current_range_meters":30800,"station_id":"ce4bh012rcd13ifvqcv0","pricing_plan_id":"free"},{"bike_id":"76a3e2db-bfb0-443d-99d5-7fbfb9216ff9","system_id":"levelo_inurba_marseille","lat":43.309038,"lon":5.396546,"is_reserved":false,"is_disabled":false,"rental_uris":{"android":"levelo://app?vid=76a3e2db-bfb0-443d-99d5-7fbfb9216ff9","ios":"levelo://app?vid=76a3e2db-bfb0-443d-99d5-7fbfb9216ff9"},"vehicle_type_id":"4","last_reported":1687899997,"current_range_meters":28400,"station_id":"ce4bh012rcd13ifvqcv0","pricing_plan_id":"free"},{"bike_id":"fb2420f1-8738-443d-8000-78aa8c300ab0","system_id":"levelo_inurba_marseille","lat":43.30885,"lon":5.39621,"is_reserved":false,"is_disabled":false,"rental_uris":{"android":"levelo://app?vid=fb2420f1-8738-443d-8000-78aa8c300ab0","ios":"levelo://app?vid=fb2420f1-8738-443d-8000-78aa8c300ab0"},"vehicle_type_id":"4","last_reported":1687899997,"current_range_meters":31200,"station_id":"ce4bh012rcd13ifvqcv0","pricing_plan_id":"free"},{"bike_id":"1947fdcf-10c7-476c-b8a2-8f04555b0000","system_id":"levelo_inurba_marseille","lat":43.30888,"lon":5.39632,"is_reserved":false,"is_disabled":false,"rental_uris":{"android":"levelo://app?vid=1947fdcf-10c7-476c-b8a2-8f04555b0000","ios":"levelo://app?vid=1947fdcf-10c7-476c-b8a2-8f04555b0000"},"vehicle_type_id":"4","last_reported":1687899997,"current_range_meters":31200,"station_id":"ce4bh012rcd13ifvqcv0","pricing_plan_id":"free"},{"bike_id":"b73dbe39-7f00-4ea3-aae7-3421c4218619","system_id":"levelo_inurba_marseille","lat":43.31328,"lon":5.39686,"is_reserved":false,"is_disabled":false,"rental_uris":{"android":"levelo://app?vid=b73dbe39-7f00-4ea3-aae7-3421c4218619","ios":"levelo://app?vid=b73dbe39-7f00-4ea3-aae7-3421c4218619"},"vehicle_type_id":"4","last_reported":1687899997,"current_range_meters":12000,"station_id":"ce4bgvp2rcd13ifvqcu0","pricing_plan_id":"free"},{"bike_id":"b326873f-1128-4c82-b428-f1aeabb6bc73","system_id":"levelo_inurba_marseille","lat":43.31327,"lon":5.39687,"is_reserved":false,"is_disabled":false,"rental_uris":{"android":"levelo://app?vid=b326873f-1128-4c82-b428-f1aeabb6bc73","ios":"levelo://app?vid=b326873f-1128-4c82-b428-f1aeabb6bc73"},"vehicle_type_id":"4","last_reported":1687899997,"current_range_meters":7200,"station_id":"ce4bgvp2rcd13ifvqcu0","pricing_plan_id":"free"},{"bike_id":"b66e59c9-1a3b-4aff-852b-c78f614f5ecb","system_id":"levelo_inurba_marseille","lat":43.31335,"lon":5.39688,"is_reserved":false,"is_disabled":false,"rental_uris":{"android":"levelo://app?vid=b66e59c9-1a3b-4aff-852b-c78f614f5ecb","ios":"levelo://app?vid=b66e59c9-1a3b-4aff-852b-c78f614f5ecb"},"vehicle_type_id":"4","last_reported":1687899997,"current_range_meters":31200,"station_id":"ce4bgvp2rcd13ifvqcu0","pricing_plan_id":"free"},{"bike_id":"274f3268-a2c7-4b31-b827-7772b1c080bc","system_id":"levelo_inurba_marseille","lat":43.31337,"lon":5.39688,"is_reserved":false,"is_disabled":false,"rental_uris":{"android":"levelo://app?vid=274f3268-a2c7-4b31-b827-7772b1c080bc","ios":"levelo://app?vid=274f3268-a2c7-4b31-b827-7772b1c080bc"},"vehicle_type_id":"4","last_reported":1687899997,"current_range_meters":31200,"station_id":"ce4bgvp2rcd13ifvqcu0","pricing_plan_id":"free"},{"bike_id":"49cdcad2-644d-4957-9b9e-d9a9be9a0f56","system_id":"levelo_inurba_marseille","lat":43.3133,"lon":5.39689,"is_reserved":false,"is_disabled":false,"rental_uris":{"android":"levelo://app?vid=49cdcad2-644d-4957-9b9e-d9a9be9a0f56","ios":"levelo://app?vid=49cdcad2-644d-4957-9b9e-d9a9be9a0f56"},"vehicle_type_id":"4","last_reported":1687899997,"current_range_meters":31200,"station_id":"ce4bgvp2rcd13ifvqcu0","pricing_plan_id":"free"},{"bike_id":"978f8d35-137f-4c42-a0e3-427aa982a70e","system_id":"levelo_inurba_marseille","lat":43.313291,"lon":5.396838,"is_reserved":false,"is_disabled":false,"rental_uris":{"android":"levelo://app?vid=978f8d35-137f-4c42-a0e3-427aa982a70e","ios":"levelo://app?vid=978f8d35-137f-4c42-a0e3-427aa982a70e"},"vehicle_type_id":"4","last_reported":1687899997,"current_range_meters":31200,"station_id":"ce4bgvp2rcd13ifvqcu0","pricing_plan_id":"free"},{"bike_id":"1b889afe-80ce-4106-994c-4a1ae0adb593","system_id":"levelo_inurba_marseille","lat":43.313291,"lon":5.396838,"is_reserved":false,"is_disabled":false,"rental_uris":{"android":"levelo://app?vid=1b889afe-80ce-4106-994c-4a1ae0adb593","ios":"levelo://app?vid=1b889afe-80ce-4106-994c-4a1ae0adb593"},"vehicle_type_id":"4","last_reported":1687899997,"current_range_meters":12000,"station_id":"ce4bgvp2rcd13ifvqcu0","pricing_plan_id":"free"},{"bike_id":"cdf15db9-4eb9-425b-88b5-8206277b5900","system_id":"levelo_inurba_marseille","lat":43.2943,"lon":5.38309,"is_reserved":false,"is_disabled":false,"rental_uris":{"android":"levelo://app?vid=cdf15db9-4eb9-425b-88b5-8206277b5900","ios":"levelo://app?vid=cdf15db9-4eb9-425b-88b5-8206277b5900"},"vehicle_type_id":"4","last_reported":1687899997,"current_range_meters":22000,"station_id":"ce4bh692rcd13ifvqea0","pricing_plan_id":"free"},{"bike_id":"cd702b0c-5456-4482-af10-93e8dcc45c29","system_id":"levelo_inurba_marseille","lat":43.31327,"lon":5.397,"is_reserved":false,"is_disabled":false,"rental_uris":{"android":"levelo://app?vid=cd702b0c-5456-4482-af10-93e8dcc45c29","ios":"levelo://app?vid=cd702b0c-5456-4482-af10-93e8dcc45c29"},"vehicle_type_id":"4","last_reported":1687899997,"current_range_meters":13600,"station_id":"ce4bgvp2rcd13ifvqcu0","pricing_plan_id":"free"},{"bike_id":"cbb21e72-4bf6-4ec8-9945-732f466ced78","system_id":"levelo_inurba_marseille","lat":43.309038,"lon":5.396546,"is_reserved":false,"is_disabled":false,"rental_uris":{"android":"levelo://app?vid=cbb21e72-4bf6-4ec8-9945-732f466ced78","ios":"levelo://app?vid=cbb21e72-4bf6-4ec8-9945-732f466ced78"},"vehicle_type_id":"4","last_reported":1687899997,"current_range_meters":0,"station_id":"ce4bh012rcd13ifvqcv0","pricing_plan_id":"free"},{"bike_id":"4fd37ea8-a23a-48f6-b238-cf1c6c408f77","system_id":"levelo_inurba_marseille","lat":43.29529,"lon":5.385581,"is_reserved":false,"is_disabled":false,"rental_uris":{"android":"levelo://app?vid=4fd37ea8-a23a-48f6-b238-cf1c6c408f77","ios":"levelo://app?vid=4fd37ea8-a23a-48f6-b238-cf1c6c408f77"},"vehicle_type_id":"4","last_reported":1687899997,"current_range_meters":2000,"station_id":"ce4bgih2rcd13ifvqba0","pricing_plan_id":"free"},{"bike_id":"a9437cf7-8783-4e8e-8d59-6237380c2d33","system_id":"levelo_inurba_marseille","lat":43.290779,"lon":5.371482,"is_reserved":false,"is_disabled":false,"rental_uris":{"android":"levelo://app?vid=a9437cf7-8783-4e8e-8d59-6237380c2d33","ios":"levelo://app?vid=a9437cf7-8783-4e8e-8d59-6237380c2d33"},"vehicle_type_id":"4","last_reported":1687899997,"current_range_meters":19600,"station_id":"ce4bh5p2rcd13ifvqe4g","pricing_plan_id":"free"},{"bike_id":"01d184af-ae40-49ef-a6f3-9bf3e78fb6f3","system_id":"levelo_inurba_marseille","lat":43.302008,"lon":5.394694,"is_reserved":false,"is_disabled":false,"rental_uris":{"android":"levelo://app?vid=01d184af-ae40-49ef-a6f3-9bf3e78fb6f3","ios":"levelo://app?vid=01d184af-ae40-49ef-a6f3-9bf3e78fb6f3"},"vehicle_type_id":"4","last_reported":1687899997,"current_range_meters":9200,"station_id":"ce4bh0p2rcd13ifvqd70","pricing_plan_id":"free"},{"bike_id":"37d22828-bc65-44d4-9897-5ca740e79a27","system_id":"levelo_inurba_marseille","lat":43.29049,"lon":5.35907,"is_reserved":false,"is_disabled":false,"rental_uris":{"android":"levelo://app?vid=37d22828-bc65-44d4-9897-5ca740e79a27","ios":"levelo://app?vid=37d22828-bc65-44d4-9897-5ca740e79a27"},"vehicle_type_id":"4","last_reported":1687899997,"current_range_meters":25200,"station_id":"ce4bha92rcd13ifvqeg0","pricing_plan_id":"free"},{"bike_id":"c368cb80-892c-4df3-9728-8924c8f8da68","system_id":"levelo_inurba_marseille","lat":43.29419,"lon":5.3862,"is_reserved":false,"is_disabled":false,"rental_uris":{"android":"levelo://app?vid=c368cb80-892c-4df3-9728-8924c8f8da68","ios":"levelo://app?vid=c368cb80-892c-4df3-9728-8924c8f8da68"},"vehicle_type_id":"4","last_reported":1687899997,"current_range_meters":23600,"station_id":"ce4bh2h2rcd13ifvqdh0","pricing_plan_id":"free"},{"bike_id":"6867df42-30dd-4825-b7fe-404564247748","system_id":"levelo_inurba_marseille","lat":43.294174,"lon":5.386231,"is_reserved":false,"is_disabled":false,"rental_uris":{"android":"levelo://app?vid=6867df42-30dd-4825-b7fe-404564247748","ios":"levelo://app?vid=6867df42-30dd-4825-b7fe-404564247748"},"vehicle_type_id":"4","last_reported":1687899997,"current_range_meters":13200,"station_id":"","pricing_plan_id":"free"},{"bike_id":"399ef6b6-bd49-40a3-a085-0dfa050cfb9f","system_id":"levelo_inurba_marseille","lat":43.29411,"lon":5.38614,"is_reserved":false,"is_disabled":false,"rental_uris":{"android":"levelo://app?vid=399ef6b6-bd49-40a3-a085-0dfa050cfb9f","ios":"levelo://app?vid=399ef6b6-bd49-40a3-a085-0dfa050cfb9f"},"vehicle_type_id":"4","last_reported":1687899997,"current_range_meters":6400,"station_id":"","pricing_plan_id":"free"},{"bike_id":"4e0e56e3-8638-4fc9-93b7-dee2c41faaa5","system_id":"levelo_inurba_marseille","lat":43.289184,"lon":5.366408,"is_reserved":false,"is_disabled":false,"rental_uris":{"android":"levelo://app?vid=4e0e56e3-8638-4fc9-93b7-dee2c41faaa5","ios":"levelo://app?vid=4e0e56e3-8638-4fc9-93b7-dee2c41faaa5"},"vehicle_type_id":"4","last_reported":1687899997,"current_range_meters":24400,"station_id":"ce4bhap2rcd13ifvqek0","pricing_plan_id":"free"},{"bike_id":"a4d0c9ae-128b-422f-b800-c71285a873d7","system_id":"levelo_inurba_marseille","lat":43.289468,"lon":5.363719,"is_reserved":false,"is_disabled":false,"rental_uris":{"android":"levelo://app?vid=a4d0c9ae-128b-422f-b800-c71285a873d7","ios":"levelo://app?vid=a4d0c9ae-128b-422f-b800-c71285a873d7"},"vehicle_type_id":"4","last_reported":1687899997,"current_range_meters":10800,"station_id":"ce4bhc92rcd13ifvqetg","pricing_plan_id":"free"},{"bike_id":"8f72755d-6a83-46a5-9206-2eebb7220dad","system_id":"levelo_inurba_marseille","lat":43.292644,"lon":5.384257,"is_reserved":false,"is_disabled":false,"rental_uris":{"android":"levelo://app?vid=8f72755d-6a83-46a5-9206-2eebb7220dad","ios":"levelo://app?vid=8f72755d-6a83-46a5-9206-2eebb7220dad"},"vehicle_type_id":"4","last_reported":1687899997,"current_range_meters":21200,"station_id":"ce4bh692rcd13ifvqea0","pricing_plan_id":"free"},{"bike_id":"b71d94ea-19fe-413f-8597-504c9f176942","system_id":"levelo_inurba_marseille","lat":43.292642,"lon":5.384254,"is_reserved":false,"is_disabled":false,"rental_uris":{"android":"levelo://app?vid=b71d94ea-19fe-413f-8597-504c9f176942","ios":"levelo://app?vid=b71d94ea-19fe-413f-8597-504c9f176942"},"vehicle_type_id":"4","last_reported":1687899997,"current_range_meters":25200,"station_id":"ce4bh692rcd13ifvqea0","pricing_plan_id":"free"},{"bike_id":"4ecb89d4-c604-4eea-bc16-883d7a2d2ad9","system_id":"levelo_inurba_marseille","lat":43.292644,"lon":5.384257,"is_reserved":false,"is_disabled":false,"rental_uris":{"android":"levelo://app?vid=4ecb89d4-c604-4eea-bc16-883d7a2d2ad9","ios":"levelo://app?vid=4ecb89d4-c604-4eea-bc16-883d7a2d2ad9"},"vehicle_type_id":"4","last_reported":1687899997,"current_range_meters":6800,"station_id":"ce4bh692rcd13ifvqea0","pricing_plan_id":"free"},{"bike_id":"d4d1d1e4-be94-487c-a442-5afbb5c3084e","system_id":"levelo_inurba_marseille","lat":43.2926,"lon":5.38432,"is_reserved":false,"is_disabled":false,"rental_uris":{"android":"levelo://app?vid=d4d1d1e4-be94-487c-a442-5afbb5c3084e","ios":"levelo://app?vid=d4d1d1e4-be94-487c-a442-5afbb5c3084e"},"vehicle_type_id":"4","last_reported":1687899997,"current_range_meters":25600,"station_id":"ce4bh692rcd13ifvqea0","pricing_plan_id":"free"},{"bike_id":"40e06503-5928-408a-aa12-d8b163c27462","system_id":"levelo_inurba_marseille","lat":43.292642,"lon":5.384254,"is_reserved":false,"is_disabled":false,"rental_uris":{"android":"levelo://app?vid=40e06503-5928-408a-aa12-d8b163c27462","ios":"levelo://app?vid=40e06503-5928-408a-aa12-d8b163c27462"},"vehicle_type_id":"4","last_reported":1687899997,"current_range_meters":10400,"station_id":"ce4bh692rcd13ifvqea0","pricing_plan_id":"free"},{"bike_id":"65393a15-0da4-4dad-877b-4c2a8534397b","system_id":"levelo_inurba_marseille","lat":43.292644,"lon":5.384257,"is_reserved":false,"is_disabled":false,"rental_uris":{"android":"levelo://app?vid=65393a15-0da4-4dad-877b-4c2a8534397b","ios":"levelo://app?vid=65393a15-0da4-4dad-877b-4c2a8534397b"},"vehicle_type_id":"4","last_reported":1687899997,"current_range_meters":15600,"station_id":"ce4bh692rcd13ifvqea0","pricing_plan_id":"free"},{"bike_id":"b1e896f1-8356-46d2-8378-75b6449d4000","system_id":"levelo_inurba_marseille","lat":43.292644,"lon":5.384257,"is_reserved":false,"is_disabled":false,"rental_uris":{"android":"levelo://app?vid=b1e896f1-8356-46d2-8378-75b6449d4000","ios":"levelo://app?vid=b1e896f1-8356-46d2-8378-75b6449d4000"},"vehicle_type_id":"4","last_reported":1687899997,"current_range_meters":10000,"station_id":"ce4bh692rcd13ifvqea0","pricing_plan_id":"free"},{"bike_id":"0b8c44d6-e11d-4f6b-877a-9ed46016e043","system_id":"levelo_inurba_marseille","lat":43.29259,"lon":5.38439,"is_reserved":false,"is_disabled":false,"rental_uris":{"android":"levelo://app?vid=0b8c44d6-e11d-4f6b-877a-9ed46016e043","ios":"levelo://app?vid=0b8c44d6-e11d-4f6b-877a-9ed46016e043"},"vehicle_type_id":"4","last_reported":1687899997,"current_range_meters":0,"station_id":"ce4bh692rcd13ifvqea0","pricing_plan_id":"free"},{"bike_id":"fdb2ec4e-e5e0-4d21-b3b2-4a7f220be321","system_id":"levelo_inurba_marseille","lat":43.29256,"lon":5.38441,"is_reserved":false,"is_disabled":false,"rental_uris":{"android":"levelo://app?vid=fdb2ec4e-e5e0-4d21-b3b2-4a7f220be321","ios":"levelo://app?vid=fdb2ec4e-e5e0-4d21-b3b2-4a7f220be321"},"vehicle_type_id":"4","last_reported":1687899997,"current_range_meters":0,"station_id":"ce4bh692rcd13ifvqea0","pricing_plan_id":"free"},{"bike_id":"0a52eda6-aef4-47ad-ae1d-76c679ae4cf0","system_id":"levelo_inurba_marseille","lat":43.33031,"lon":5.38918,"is_reserved":false,"is_disabled":false,"rental_uris":{"android":"levelo://app?vid=0a52eda6-aef4-47ad-ae1d-76c679ae4cf0","ios":"levelo://app?vid=0a52eda6-aef4-47ad-ae1d-76c679ae4cf0"},"vehicle_type_id":"4","last_reported":1687899997,"current_range_meters":16400,"station_id":"ce4bhr92rcd13ifvqhrg","pricing_plan_id":"free"},{"bike_id":"dd5e4af3-215a-4a31-8219-0c8a890a1da2","system_id":"levelo_inurba_marseille","lat":43.33047,"lon":5.38911,"is_reserved":false,"is_disabled":false,"rental_uris":{"android":"levelo://app?vid=dd5e4af3-215a-4a31-8219-0c8a890a1da2","ios":"levelo://app?vid=dd5e4af3-215a-4a31-8219-0c8a890a1da2"},"vehicle_type_id":"4","last_reported":1687899997,"current_range_meters":6400,"station_id":"ce4bhr92rcd13ifvqhrg","pricing_plan_id":"free"},{"bike_id":"dc499986-9ddd-457a-a213-8aeb13714ee0","system_id":"levelo_inurba_marseille","lat":43.33046,"lon":5.38913,"is_reserved":false,"is_disabled":false,"rental_uris":{"android":"levelo://app?vid=dc499986-9ddd-457a-a213-8aeb13714ee0","ios":"levelo://app?vid=dc499986-9ddd-457a-a213-8aeb13714ee0"},"vehicle_type_id":"4","last_reported":1687899997,"current_range_meters":22800,"station_id":"ce4bhr92rcd13ifvqhrg","pricing_plan_id":"free"},{"bike_id":"f3ce8296-a357-4ed3-991c-7c7987826693","system_id":"levelo_inurba_marseille","lat":43.33047,"lon":5.38913,"is_reserved":false,"is_disabled":false,"rental_uris":{"android":"levelo://app?vid=f3ce8296-a357-4ed3-991c-7c7987826693","ios":"levelo://app?vid=f3ce8296-a357-4ed3-991c-7c7987826693"},"vehicle_type_id":"4","last_reported":1687899997,"current_range_meters":31200,"station_id":"ce4bhr92rcd13ifvqhrg","pricing_plan_id":"free"},{"bike_id":"620d42eb-968c-4b2d-afab-1b20c736c549","system_id":"levelo_inurba_marseille","lat":43.33046,"lon":5.38915,"is_reserved":false,"is_disabled":false,"rental_uris":{"android":"levelo://app?vid=620d42eb-968c-4b2d-afab-1b20c736c549","ios":"levelo://app?vid=620d42eb-968c-4b2d-afab-1b20c736c549"},"vehicle_type_id":"4","last_reported":1687899997,"current_range_meters":800,"station_id":"ce4bhr92rcd13ifvqhrg","pricing_plan_id":"free"},{"bike_id":"f796f425-6905-4fb3-9c08-efb7921e42ce","system_id":"levelo_inurba_marseille","lat":43.33048,"lon":5.38912,"is_reserved":false,"is_disabled":false,"rental_uris":{"android":"levelo://app?vid=f796f425-6905-4fb3-9c08-efb7921e42ce","ios":"levelo://app?vid=f796f425-6905-4fb3-9c08-efb7921e42ce"},"vehicle_type_id":"4","last_reported":1687899997,"current_range_meters":31200,"station_id":"ce4bhr92rcd13ifvqhrg","pricing_plan_id":"free"},{"bike_id":"84718f7a-81b3-4376-93eb-27bbf90e5c0d","system_id":"levelo_inurba_marseille","lat":43.33047,"lon":5.38914,"is_reserved":false,"is_disabled":false,"rental_uris":{"android":"levelo://app?vid=84718f7a-81b3-4376-93eb-27bbf90e5c0d","ios":"levelo://app?vid=84718f7a-81b3-4376-93eb-27bbf90e5c0d"},"vehicle_type_id":"4","last_reported":1687899997,"current_range_meters":15200,"station_id":"ce4bhr92rcd13ifvqhrg","pricing_plan_id":"free"},{"bike_id":"f9aa9b97-fd92-4abd-93a2-07a80136da67","system_id":"levelo_inurba_marseille","lat":43.33046,"lon":5.38916,"is_reserved":false,"is_disabled":false,"rental_uris":{"android":"levelo://app?vid=f9aa9b97-fd92-4abd-93a2-07a80136da67","ios":"levelo://app?vid=f9aa9b97-fd92-4abd-93a2-07a80136da67"},"vehicle_type_id":"4","last_reported":1687899997,"current_range_meters":20400,"station_id":"ce4bhr92rcd13ifvqhrg","pricing_plan_id":"free"},{"bike_id":"1a2931cc-2400-4c11-bca8-c22187ec9431","system_id":"levelo_inurba_marseille","lat":43.33049,"lon":5.38913,"is_reserved":false,"is_disabled":false,"rental_uris":{"android":"levelo://app?vid=1a2931cc-2400-4c11-bca8-c22187ec9431","ios":"levelo://app?vid=1a2931cc-2400-4c11-bca8-c22187ec9431"},"vehicle_type_id":"4","last_reported":1687899997,"current_range_meters":31200,"station_id":"ce4bhr92rcd13ifvqhrg","pricing_plan_id":"free"},{"bike_id":"31e670fe-027d-44b4-89c1-9f7413d8e201","system_id":"levelo_inurba_marseille","lat":43.33049,"lon":5.38914,"is_reserved":false,"is_disabled":false,"rental_uris":{"android":"levelo://app?vid=31e670fe-027d-44b4-89c1-9f7413d8e201","ios":"levelo://app?vid=31e670fe-027d-44b4-89c1-9f7413d8e201"},"vehicle_type_id":"4","last_reported":1687899997,"current_range_meters":22400,"station_id":"ce4bhr92rcd13ifvqhrg","pricing_plan_id":"free"},{"bike_id":"9f952cd5-a4e6-40b8-a42f-a3faa1a1bbb6","system_id":"levelo_inurba_marseille","lat":43.33049,"lon":5.38915,"is_reserved":false,"is_disabled":false,"rental_uris":{"android":"levelo://app?vid=9f952cd5-a4e6-40b8-a42f-a3faa1a1bbb6","ios":"levelo://app?vid=9f952cd5-a4e6-40b8-a42f-a3faa1a1bbb6"},"vehicle_type_id":"4","last_reported":1687899997,"current_range_meters":1600,"station_id":"ce4bhr92rcd13ifvqhrg","pricing_plan_id":"free"},{"bike_id":"1a7b853a-50f2-498a-a451-f4fc5c20ed55","system_id":"levelo_inurba_marseille","lat":43.33051,"lon":5.38912,"is_reserved":false,"is_disabled":false,"rental_uris":{"android":"levelo://app?vid=1a7b853a-50f2-498a-a451-f4fc5c20ed55","ios":"levelo://app?vid=1a7b853a-50f2-498a-a451-f4fc5c20ed55"},"vehicle_type_id":"4","last_reported":1687899997,"current_range_meters":4000,"station_id":"ce4bhr92rcd13ifvqhrg","pricing_plan_id":"free"},{"bike_id":"a85f1db1-5c6c-491f-a73f-3e29f7f2e96a","system_id":"levelo_inurba_marseille","lat":43.29084,"lon":5.38093,"is_reserved":false,"is_disabled":false,"rental_uris":{"android":"levelo://app?vid=a85f1db1-5c6c-491f-a73f-3e29f7f2e96a","ios":"levelo://app?vid=a85f1db1-5c6c-491f-a73f-3e29f7f2e96a"},"vehicle_type_id":"4","last_reported":1687899997,"current_range_meters":12800,"station_id":"","pricing_plan_id":"free"},{"bike_id":"744fe6ab-c42d-41f5-be31-2e2a603ea89c","system_id":"levelo_inurba_marseille","lat":43.290995,"lon":5.381361,"is_reserved":false,"is_disabled":false,"rental_uris":{"android":"levelo://app?vid=744fe6ab-c42d-41f5-be31-2e2a603ea89c","ios":"levelo://app?vid=744fe6ab-c42d-41f5-be31-2e2a603ea89c"},"vehicle_type_id":"4","last_reported":1687899997,"current_range_meters":31200,"station_id":"ce4bh512rcd13ifvqe2g","pricing_plan_id":"free"},{"bike_id":"579279da-9b2a-4f96-95c3-0a93212522b2","system_id":"levelo_inurba_marseille","lat":43.295169,"lon":5.390426,"is_reserved":false,"is_disabled":false,"rental_uris":{"android":"levelo://app?vid=579279da-9b2a-4f96-95c3-0a93212522b2","ios":"levelo://app?vid=579279da-9b2a-4f96-95c3-0a93212522b2"},"vehicle_type_id":"4","last_reported":1687899997,"current_range_meters":17200,"station_id":"ce4bh3p2rcd13ifvqdp0","pricing_plan_id":"free"},{"bike_id":"15561406-e018-4f46-97d4-61282024deb0","system_id":"levelo_inurba_marseille","lat":43.290995,"lon":5.381361,"is_reserved":false,"is_disabled":false,"rental_uris":{"android":"levelo://app?vid=15561406-e018-4f46-97d4-61282024deb0","ios":"levelo://app?vid=15561406-e018-4f46-97d4-61282024deb0"},"vehicle_type_id":"4","last_reported":1687899997,"current_range_meters":8000,"station_id":"ce4bh512rcd13ifvqe2g","pricing_plan_id":"free"},{"bike_id":"71e5a888-f273-4825-92ee-092cc543a09b","system_id":"levelo_inurba_marseille","lat":43.297815,"lon":5.393548,"is_reserved":false,"is_disabled":false,"rental_uris":{"android":"levelo://app?vid=71e5a888-f273-4825-92ee-092cc543a09b","ios":"levelo://app?vid=71e5a888-f273-4825-92ee-092cc543a09b"},"vehicle_type_id":"4","last_reported":1687899997,"current_range_meters":22400,"station_id":"chh1huq6cuj3fo74tm60","pricing_plan_id":"free"},{"bike_id":"db3b281e-7619-4a3e-b012-1f4c43bc8d6a","system_id":"levelo_inurba_marseille","lat":43.297815,"lon":5.393548,"is_reserved":false,"is_disabled":false,"rental_uris":{"android":"levelo://app?vid=db3b281e-7619-4a3e-b012-1f4c43bc8d6a","ios":"levelo://app?vid=db3b281e-7619-4a3e-b012-1f4c43bc8d6a"},"vehicle_type_id":"4","last_reported":1687899997,"current_range_meters":17200,"station_id":"chh1huq6cuj3fo74tm60","pricing_plan_id":"free"},{"bike_id":"8abfe6a7-451a-4762-9a8d-7a352187247b","system_id":"levelo_inurba_marseille","lat":43.289741,"lon":5.378306,"is_reserved":false,"is_disabled":false,"rental_uris":{"android":"levelo://app?vid=8abfe6a7-451a-4762-9a8d-7a352187247b","ios":"levelo://app?vid=8abfe6a7-451a-4762-9a8d-7a352187247b"},"vehicle_type_id":"4","last_reported":1687899997,"current_range_meters":19600,"station_id":"ce4bh9p2rcd13ifvqed0","pricing_plan_id":"free"},{"bike_id":"65862116-c641-4243-be06-68ffbe9bffdb","system_id":"levelo_inurba_marseille","lat":43.289741,"lon":5.378306,"is_reserved":false,"is_disabled":false,"rental_uris":{"android":"levelo://app?vid=65862116-c641-4243-be06-68ffbe9bffdb","ios":"levelo://app?vid=65862116-c641-4243-be06-68ffbe9bffdb"},"vehicle_type_id":"4","last_reported":1687899997,"current_range_meters":10000,"station_id":"ce4bh9p2rcd13ifvqed0","pricing_plan_id":"free"},{"bike_id":"63b94493-677e-4d7e-bddb-7b10ea083e2b","system_id":"levelo_inurba_marseille","lat":43.2901,"lon":5.381269,"is_reserved":false,"is_disabled":false,"rental_uris":{"android":"levelo://app?vid=63b94493-677e-4d7e-bddb-7b10ea083e2b","ios":"levelo://app?vid=63b94493-677e-4d7e-bddb-7b10ea083e2b"},"vehicle_type_id":"4","last_reported":1687899997,"current_range_meters":31200,"station_id":"ce4bh4p2rcd13ifvqe1g","pricing_plan_id":"free"},{"bike_id":"34f1a4b3-0790-4f03-9a56-cc8661a5d987","system_id":"levelo_inurba_marseille","lat":43.29012,"lon":5.38135,"is_reserved":false,"is_disabled":false,"rental_uris":{"android":"levelo://app?vid=34f1a4b3-0790-4f03-9a56-cc8661a5d987","ios":"levelo://app?vid=34f1a4b3-0790-4f03-9a56-cc8661a5d987"},"vehicle_type_id":"4","last_reported":1687899997,"current_range_meters":11600,"station_id":"ce4bh4p2rcd13ifvqe1g","pricing_plan_id":"free"},{"bike_id":"b152602a-aaa7-4eed-93ba-89050d9c58ba","system_id":"levelo_inurba_marseille","lat":43.3067,"lon":5.40078,"is_reserved":false,"is_disabled":false,"rental_uris":{"android":"levelo://app?vid=b152602a-aaa7-4eed-93ba-89050d9c58ba","ios":"levelo://app?vid=b152602a-aaa7-4eed-93ba-89050d9c58ba"},"vehicle_type_id":"4","last_reported":1687899997,"current_range_meters":26000,"station_id":"","pricing_plan_id":"free"},{"bike_id":"476cd57c-2e9c-4f0d-a086-f93a7e3396f6","system_id":"levelo_inurba_marseille","lat":43.337516,"lon":5.374747,"is_reserved":false,"is_disabled":false,"rental_uris":{"android":"levelo://app?vid=476cd57c-2e9c-4f0d-a086-f93a7e3396f6","ios":"levelo://app?vid=476cd57c-2e9c-4f0d-a086-f93a7e3396f6"},"vehicle_type_id":"4","last_reported":1687899997,"current_range_meters":31200,"station_id":"","pricing_plan_id":"free"},{"bike_id":"037099ed-c97c-4803-8d97-52e39fd512ce","system_id":"levelo_inurba_marseille","lat":43.33761,"lon":5.37432,"is_reserved":false,"is_disabled":false,"rental_uris":{"android":"levelo://app?vid=037099ed-c97c-4803-8d97-52e39fd512ce","ios":"levelo://app?vid=037099ed-c97c-4803-8d97-52e39fd512ce"},"vehicle_type_id":"4","last_reported":1687899997,"current_range_meters":31200,"station_id":"","pricing_plan_id":"free"},{"bike_id":"68c0fbe5-4de9-4ec9-81ee-a841b62dae60","system_id":"levelo_inurba_marseille","lat":43.306412,"lon":5.401035,"is_reserved":false,"is_disabled":false,"rental_uris":{"android":"levelo://app?vid=68c0fbe5-4de9-4ec9-81ee-a841b62dae60","ios":"levelo://app?vid=68c0fbe5-4de9-4ec9-81ee-a841b62dae60"},"vehicle_type_id":"4","last_reported":1687899997,"current_range_meters":2800,"station_id":"ce4bh112rcd13ifvqda0","pricing_plan_id":"free"},{"bike_id":"51d2ba46-9e13-410d-bfac-ea4a59beb347","system_id":"levelo_inurba_marseille","lat":43.301117,"lon":5.398795,"is_reserved":false,"is_disabled":false,"rental_uris":{"android":"levelo://app?vid=51d2ba46-9e13-410d-bfac-ea4a59beb347","ios":"levelo://app?vid=51d2ba46-9e13-410d-bfac-ea4a59beb347"},"vehicle_type_id":"4","last_reported":1687899997,"current_range_meters":14000,"station_id":"ce4bh0h2rcd13ifvqd40","pricing_plan_id":"free"},{"bike_id":"ff70155b-79c5-4cfd-9bf1-6cb19b6fce89","system_id":"levelo_inurba_marseille","lat":43.301117,"lon":5.398795,"is_reserved":false,"is_disabled":false,"rental_uris":{"android":"levelo://app?vid=ff70155b-79c5-4cfd-9bf1-6cb19b6fce89","ios":"levelo://app?vid=ff70155b-79c5-4cfd-9bf1-6cb19b6fce89"},"vehicle_type_id":"4","last_reported":1687899997,"current_range_meters":7200,"station_id":"ce4bh0h2rcd13ifvqd40","pricing_plan_id":"free"},{"bike_id":"bffebcc0-1e93-4d91-b922-733dc5147d24","system_id":"levelo_inurba_marseille","lat":43.301117,"lon":5.398795,"is_reserved":false,"is_disabled":false,"rental_uris":{"android":"levelo://app?vid=bffebcc0-1e93-4d91-b922-733dc5147d24","ios":"levelo://app?vid=bffebcc0-1e93-4d91-b922-733dc5147d24"},"vehicle_type_id":"4","last_reported":1687899997,"current_range_meters":26000,"station_id":"ce4bh0h2rcd13ifvqd40","pricing_plan_id":"free"},{"bike_id":"0e326bb2-a765-4383-8366-765cbb5e6ea6","system_id":"levelo_inurba_marseille","lat":43.301117,"lon":5.398795,"is_reserved":false,"is_disabled":false,"rental_uris":{"android":"levelo://app?vid=0e326bb2-a765-4383-8366-765cbb5e6ea6","ios":"levelo://app?vid=0e326bb2-a765-4383-8366-765cbb5e6ea6"},"vehicle_type_id":"4","last_reported":1687899997,"current_range_meters":24400,"station_id":"ce4bh0h2rcd13ifvqd40","pricing_plan_id":"free"},{"bike_id":"477fcc90-7bb6-4508-95f7-7637a4a1be2c","system_id":"levelo_inurba_marseille","lat":43.301117,"lon":5.398795,"is_reserved":false,"is_disabled":false,"rental_uris":{"android":"levelo://app?vid=477fcc90-7bb6-4508-95f7-7637a4a1be2c","ios":"levelo://app?vid=477fcc90-7bb6-4508-95f7-7637a4a1be2c"},"vehicle_type_id":"4","last_reported":1687899997,"current_range_meters":3600,"station_id":"ce4bh0h2rcd13ifvqd40","pricing_plan_id":"free"},{"bike_id":"82387661-f6ff-428a-a0ea-4897f6362a9d","system_id":"levelo_inurba_marseille","lat":43.301117,"lon":5.398795,"is_reserved":false,"is_disabled":false,"rental_uris":{"android":"levelo://app?vid=82387661-f6ff-428a-a0ea-4897f6362a9d","ios":"levelo://app?vid=82387661-f6ff-428a-a0ea-4897f6362a9d"},"vehicle_type_id":"4","last_reported":1687899997,"current_range_meters":29200,"station_id":"ce4bh0h2rcd13ifvqd40","pricing_plan_id":"free"},{"bike_id":"54e3731c-4100-4976-919d-7dc215467dfe","system_id":"levelo_inurba_marseille","lat":43.286591,"lon":5.363346,"is_reserved":false,"is_disabled":false,"rental_uris":{"android":"levelo://app?vid=54e3731c-4100-4976-919d-7dc215467dfe","ios":"levelo://app?vid=54e3731c-4100-4976-919d-7dc215467dfe"},"vehicle_type_id":"4","last_reported":1687899997,"current_range_meters":31200,"station_id":"ce4bhah2rcd13ifvqej0","pricing_plan_id":"free"},{"bike_id":"b2ee36cc-99a8-4379-94ec-8cd092d14e92","system_id":"levelo_inurba_marseille","lat":43.28708,"lon":5.37389,"is_reserved":false,"is_disabled":false,"rental_uris":{"android":"levelo://app?vid=b2ee36cc-99a8-4379-94ec-8cd092d14e92","ios":"levelo://app?vid=b2ee36cc-99a8-4379-94ec-8cd092d14e92"},"vehicle_type_id":"4","last_reported":1687899997,"current_range_meters":24000,"station_id":"ce4bh3p2rcd13ifvqdq0","pricing_plan_id":"free"},{"bike_id":"3bbc4d59-4dab-4154-8023-29ed50c8f93d","system_id":"levelo_inurba_marseille","lat":43.286591,"lon":5.363346,"is_reserved":false,"is_disabled":false,"rental_uris":{"android":"levelo://app?vid=3bbc4d59-4dab-4154-8023-29ed50c8f93d","ios":"levelo://app?vid=3bbc4d59-4dab-4154-8023-29ed50c8f93d"},"vehicle_type_id":"4","last_reported":1687899997,"current_range_meters":31200,"station_id":"ce4bhah2rcd13ifvqej0","pricing_plan_id":"free"},{"bike_id":"b76a1591-8278-4522-884d-263a78d56c83","system_id":"levelo_inurba_marseille","lat":43.29871,"lon":5.39735,"is_reserved":false,"is_disabled":false,"rental_uris":{"android":"levelo://app?vid=b76a1591-8278-4522-884d-263a78d56c83","ios":"levelo://app?vid=b76a1591-8278-4522-884d-263a78d56c83"},"vehicle_type_id":"4","last_reported":1687899997,"current_range_meters":18000,"station_id":"ce4bh0h2rcd13ifvqd50","pricing_plan_id":"free"},{"bike_id":"2717885c-7ee7-494e-b89b-fe97fee113ce","system_id":"levelo_inurba_marseille","lat":43.28663,"lon":5.36341,"is_reserved":false,"is_disabled":false,"rental_uris":{"android":"levelo://app?vid=2717885c-7ee7-494e-b89b-fe97fee113ce","ios":"levelo://app?vid=2717885c-7ee7-494e-b89b-fe97fee113ce"},"vehicle_type_id":"4","last_reported":1687899997,"current_range_meters":9600,"station_id":"ce4bhah2rcd13ifvqej0","pricing_plan_id":"free"},{"bike_id":"b02fd8f4-8bb2-439b-b799-331a2f42ad2a","system_id":"levelo_inurba_marseille","lat":43.29185,"lon":5.38898,"is_reserved":false,"is_disabled":false,"rental_uris":{"android":"levelo://app?vid=b02fd8f4-8bb2-439b-b799-331a2f42ad2a","ios":"levelo://app?vid=b02fd8f4-8bb2-439b-b799-331a2f42ad2a"},"vehicle_type_id":"4","last_reported":1687899997,"current_range_meters":10000,"station_id":"","pricing_plan_id":"free"},{"bike_id":"a750df66-dfcb-4bd8-be8b-fa3e009ead85","system_id":"levelo_inurba_marseille","lat":43.295196,"lon":5.39397,"is_reserved":false,"is_disabled":false,"rental_uris":{"android":"levelo://app?vid=a750df66-dfcb-4bd8-be8b-fa3e009ead85","ios":"levelo://app?vid=a750df66-dfcb-4bd8-be8b-fa3e009ead85"},"vehicle_type_id":"4","last_reported":1687899997,"current_range_meters":13600,"station_id":"ce4bh292rcd13ifvqdf0","pricing_plan_id":"free"},{"bike_id":"58637d9a-91ab-46f5-bcb9-853b8416fb30","system_id":"levelo_inurba_marseille","lat":43.290305,"lon":5.386488,"is_reserved":false,"is_disabled":false,"rental_uris":{"android":"levelo://app?vid=58637d9a-91ab-46f5-bcb9-853b8416fb30","ios":"levelo://app?vid=58637d9a-91ab-46f5-bcb9-853b8416fb30"},"vehicle_type_id":"4","last_reported":1687899997,"current_range_meters":0,"station_id":"ce4bh4p2rcd13ifvqe0g","pricing_plan_id":"free"},{"bike_id":"efa8d892-c15e-4fda-8426-489254cabd9e","system_id":"levelo_inurba_marseille","lat":43.28616,"lon":5.37045,"is_reserved":false,"is_disabled":false,"rental_uris":{"android":"levelo://app?vid=efa8d892-c15e-4fda-8426-489254cabd9e","ios":"levelo://app?vid=efa8d892-c15e-4fda-8426-489254cabd9e"},"vehicle_type_id":"4","last_reported":1687899997,"current_range_meters":27200,"station_id":"ce4bht12rcd13ifvqi60","pricing_plan_id":"free"},{"bike_id":"a923f3c7-29d2-46e7-b33a-af42f3910463","system_id":"levelo_inurba_marseille","lat":43.28612,"lon":5.3707,"is_reserved":false,"is_disabled":false,"rental_uris":{"android":"levelo://app?vid=a923f3c7-29d2-46e7-b33a-af42f3910463","ios":"levelo://app?vid=a923f3c7-29d2-46e7-b33a-af42f3910463"},"vehicle_type_id":"4","last_reported":1687899997,"current_range_meters":31200,"station_id":"ce4bht12rcd13ifvqi60","pricing_plan_id":"free"},{"bike_id":"73b8cd6c-4425-4ca8-8271-44e2a4c4843a","system_id":"levelo_inurba_marseille","lat":43.28608,"lon":5.37062,"is_reserved":false,"is_disabled":false,"rental_uris":{"android":"levelo://app?vid=73b8cd6c-4425-4ca8-8271-44e2a4c4843a","ios":"levelo://app?vid=73b8cd6c-4425-4ca8-8271-44e2a4c4843a"},"vehicle_type_id":"4","last_reported":1687899997,"current_range_meters":31200,"station_id":"ce4bht12rcd13ifvqi60","pricing_plan_id":"free"},{"bike_id":"58bf6b23-2505-4b35-bd86-8324a86a09fe","system_id":"levelo_inurba_marseille","lat":43.28606,"lon":5.37064,"is_reserved":false,"is_disabled":false,"rental_uris":{"android":"levelo://app?vid=58bf6b23-2505-4b35-bd86-8324a86a09fe","ios":"levelo://app?vid=58bf6b23-2505-4b35-bd86-8324a86a09fe"},"vehicle_type_id":"4","last_reported":1687899997,"current_range_meters":29600,"station_id":"ce4bht12rcd13ifvqi60","pricing_plan_id":"free"},{"bike_id":"326530f9-f02e-490e-aa2f-cd5bbfeae039","system_id":"levelo_inurba_marseille","lat":43.287185,"lon":5.379373,"is_reserved":false,"is_disabled":false,"rental_uris":{"android":"levelo://app?vid=326530f9-f02e-490e-aa2f-cd5bbfeae039","ios":"levelo://app?vid=326530f9-f02e-490e-aa2f-cd5bbfeae039"},"vehicle_type_id":"4","last_reported":1687899997,"current_range_meters":13600,"station_id":"ce4bh9p2rcd13ifvqec0","pricing_plan_id":"free"},{"bike_id":"19f43d1d-e57b-4c74-9339-e84ea88e2a8e","system_id":"levelo_inurba_marseille","lat":43.2872,"lon":5.37933,"is_reserved":false,"is_disabled":false,"rental_uris":{"android":"levelo://app?vid=19f43d1d-e57b-4c74-9339-e84ea88e2a8e","ios":"levelo://app?vid=19f43d1d-e57b-4c74-9339-e84ea88e2a8e"},"vehicle_type_id":"4","last_reported":1687899997,"current_range_meters":20000,"station_id":"ce4bh9p2rcd13ifvqec0","pricing_plan_id":"free"},{"bike_id":"dacf8f79-ea9b-4848-9b2c-8522f3787abb","system_id":"levelo_inurba_marseille","lat":43.287184,"lon":5.37937,"is_reserved":false,"is_disabled":false,"rental_uris":{"android":"levelo://app?vid=dacf8f79-ea9b-4848-9b2c-8522f3787abb","ios":"levelo://app?vid=dacf8f79-ea9b-4848-9b2c-8522f3787abb"},"vehicle_type_id":"4","last_reported":1687899997,"current_range_meters":0,"station_id":"ce4bh9p2rcd13ifvqec0","pricing_plan_id":"free"},{"bike_id":"dae8b271-8f6d-4787-a083-31226fd6e573","system_id":"levelo_inurba_marseille","lat":43.287185,"lon":5.379373,"is_reserved":false,"is_disabled":false,"rental_uris":{"android":"levelo://app?vid=dae8b271-8f6d-4787-a083-31226fd6e573","ios":"levelo://app?vid=dae8b271-8f6d-4787-a083-31226fd6e573"},"vehicle_type_id":"4","last_reported":1687899997,"current_range_meters":30400,"station_id":"ce4bh9p2rcd13ifvqec0","pricing_plan_id":"free"},{"bike_id":"47952ce5-ab82-46c2-bb9b-4019997e461a","system_id":"levelo_inurba_marseille","lat":43.316517,"lon":5.404375,"is_reserved":false,"is_disabled":false,"rental_uris":{"android":"levelo://app?vid=47952ce5-ab82-46c2-bb9b-4019997e461a","ios":"levelo://app?vid=47952ce5-ab82-46c2-bb9b-4019997e461a"},"vehicle_type_id":"4","last_reported":1687899997,"current_range_meters":29600,"station_id":"ce4bh012rcd13ifvqd00","pricing_plan_id":"free"},{"bike_id":"41487c04-0db7-4040-8b1e-a1406e3d5d10","system_id":"levelo_inurba_marseille","lat":43.316517,"lon":5.404375,"is_reserved":false,"is_disabled":false,"rental_uris":{"android":"levelo://app?vid=41487c04-0db7-4040-8b1e-a1406e3d5d10","ios":"levelo://app?vid=41487c04-0db7-4040-8b1e-a1406e3d5d10"},"vehicle_type_id":"4","last_reported":1687899997,"current_range_meters":31200,"station_id":"ce4bh012rcd13ifvqd00","pricing_plan_id":"free"},{"bike_id":"d69fed3a-efe9-46fb-b1dc-1240b8978d3e","system_id":"levelo_inurba_marseille","lat":43.316517,"lon":5.404375,"is_reserved":false,"is_disabled":false,"rental_uris":{"android":"levelo://app?vid=d69fed3a-efe9-46fb-b1dc-1240b8978d3e","ios":"levelo://app?vid=d69fed3a-efe9-46fb-b1dc-1240b8978d3e"},"vehicle_type_id":"4","last_reported":1687899997,"current_range_meters":29200,"station_id":"ce4bh012rcd13ifvqd00","pricing_plan_id":"free"},{"bike_id":"fb661348-afa9-4a7f-b7e2-a3e390f09d62","system_id":"levelo_inurba_marseille","lat":43.291994,"lon":5.392907,"is_reserved":false,"is_disabled":false,"rental_uris":{"android":"levelo://app?vid=fb661348-afa9-4a7f-b7e2-a3e390f09d62","ios":"levelo://app?vid=fb661348-afa9-4a7f-b7e2-a3e390f09d62"},"vehicle_type_id":"4","last_reported":1687899997,"current_range_meters":31200,"station_id":"ce4bh192rcd13ifvqdd0","pricing_plan_id":"free"},{"bike_id":"d55e1ff6-3065-4879-837d-cc22481ed77a","system_id":"levelo_inurba_marseille","lat":43.291994,"lon":5.392907,"is_reserved":false,"is_disabled":false,"rental_uris":{"android":"levelo://app?vid=d55e1ff6-3065-4879-837d-cc22481ed77a","ios":"levelo://app?vid=d55e1ff6-3065-4879-837d-cc22481ed77a"},"vehicle_type_id":"4","last_reported":1687899997,"current_range_meters":0,"station_id":"ce4bh192rcd13ifvqdd0","pricing_plan_id":"free"},{"bike_id":"9feb0883-8a51-4d14-aeeb-e2a6a14bdbad","system_id":"levelo_inurba_marseille","lat":43.291994,"lon":5.392907,"is_reserved":false,"is_disabled":false,"rental_uris":{"android":"levelo://app?vid=9feb0883-8a51-4d14-aeeb-e2a6a14bdbad","ios":"levelo://app?vid=9feb0883-8a51-4d14-aeeb-e2a6a14bdbad"},"vehicle_type_id":"4","last_reported":1687899997,"current_range_meters":24800,"station_id":"ce4bh192rcd13ifvqdd0","pricing_plan_id":"free"},{"bike_id":"5d6d3c40-6d65-44bf-b266-5b7c94e0eb5a","system_id":"levelo_inurba_marseille","lat":43.291994,"lon":5.392907,"is_reserved":false,"is_disabled":false,"rental_uris":{"android":"levelo://app?vid=5d6d3c40-6d65-44bf-b266-5b7c94e0eb5a","ios":"levelo://app?vid=5d6d3c40-6d65-44bf-b266-5b7c94e0eb5a"},"vehicle_type_id":"4","last_reported":1687899997,"current_range_meters":31200,"station_id":"ce4bh192rcd13ifvqdd0","pricing_plan_id":"free"},{"bike_id":"0be6c458-d78d-4513-8663-6a89ccec1bb6","system_id":"levelo_inurba_marseille","lat":43.284538,"lon":5.358657,"is_reserved":false,"is_disabled":false,"rental_uris":{"android":"levelo://app?vid=0be6c458-d78d-4513-8663-6a89ccec1bb6","ios":"levelo://app?vid=0be6c458-d78d-4513-8663-6a89ccec1bb6"},"vehicle_type_id":"4","last_reported":1687899997,"current_range_meters":2400,"station_id":"ce4bhah2rcd13ifvqei0","pricing_plan_id":"free"},{"bike_id":"bf3f4fe1-3c1c-4a20-8dfd-e47386c28673","system_id":"levelo_inurba_marseille","lat":43.283998,"lon":5.375062,"is_reserved":false,"is_disabled":false,"rental_uris":{"android":"levelo://app?vid=bf3f4fe1-3c1c-4a20-8dfd-e47386c28673","ios":"levelo://app?vid=bf3f4fe1-3c1c-4a20-8dfd-e47386c28673"},"vehicle_type_id":"4","last_reported":1687899997,"current_range_meters":10800,"station_id":"ce4bh412rcd13ifvqds0","pricing_plan_id":"free"},{"bike_id":"a37f2314-af62-4b47-8310-5917851b933e","system_id":"levelo_inurba_marseille","lat":43.283998,"lon":5.375062,"is_reserved":false,"is_disabled":false,"rental_uris":{"android":"levelo://app?vid=a37f2314-af62-4b47-8310-5917851b933e","ios":"levelo://app?vid=a37f2314-af62-4b47-8310-5917851b933e"},"vehicle_type_id":"4","last_reported":1687899997,"current_range_meters":0,"station_id":"ce4bh412rcd13ifvqds0","pricing_plan_id":"free"},{"bike_id":"8583a502-a7ad-43aa-897b-f6800d0b92c3","system_id":"levelo_inurba_marseille","lat":43.283998,"lon":5.375062,"is_reserved":false,"is_disabled":false,"rental_uris":{"android":"levelo://app?vid=8583a502-a7ad-43aa-897b-f6800d0b92c3","ios":"levelo://app?vid=8583a502-a7ad-43aa-897b-f6800d0b92c3"},"vehicle_type_id":"4","last_reported":1687899997,"current_range_meters":28800,"station_id":"ce4bh412rcd13ifvqds0","pricing_plan_id":"free"},{"bike_id":"c6c597b1-b2b1-4dab-bd2d-295ac88c89e9","system_id":"levelo_inurba_marseille","lat":43.283998,"lon":5.375062,"is_reserved":false,"is_disabled":false,"rental_uris":{"android":"levelo://app?vid=c6c597b1-b2b1-4dab-bd2d-295ac88c89e9","ios":"levelo://app?vid=c6c597b1-b2b1-4dab-bd2d-295ac88c89e9"},"vehicle_type_id":"4","last_reported":1687899997,"current_range_meters":14000,"station_id":"ce4bh412rcd13ifvqds0","pricing_plan_id":"free"},{"bike_id":"1a2ec91d-f347-418f-819b-13b7857b910a","system_id":"levelo_inurba_marseille","lat":43.295713,"lon":5.399639,"is_reserved":false,"is_disabled":false,"rental_uris":{"android":"levelo://app?vid=1a2ec91d-f347-418f-819b-13b7857b910a","ios":"levelo://app?vid=1a2ec91d-f347-418f-819b-13b7857b910a"},"vehicle_type_id":"4","last_reported":1687899997,"current_range_meters":25600,"station_id":"ce4bh312rcd13ifvqdj0","pricing_plan_id":"free"},{"bike_id":"f1b34579-a31e-4c28-8caa-b18f1e465f43","system_id":"levelo_inurba_marseille","lat":43.283998,"lon":5.375062,"is_reserved":false,"is_disabled":false,"rental_uris":{"android":"levelo://app?vid=f1b34579-a31e-4c28-8caa-b18f1e465f43","ios":"levelo://app?vid=f1b34579-a31e-4c28-8caa-b18f1e465f43"},"vehicle_type_id":"4","last_reported":1687899997,"current_range_meters":2000,"station_id":"ce4bh412rcd13ifvqds0","pricing_plan_id":"free"},{"bike_id":"30a8ec29-cd08-4abb-8e39-a8f24ec0c412","system_id":"levelo_inurba_marseille","lat":43.283998,"lon":5.375062,"is_reserved":false,"is_disabled":false,"rental_uris":{"android":"levelo://app?vid=30a8ec29-cd08-4abb-8e39-a8f24ec0c412","ios":"levelo://app?vid=30a8ec29-cd08-4abb-8e39-a8f24ec0c412"},"vehicle_type_id":"4","last_reported":1687899997,"current_range_meters":31200,"station_id":"ce4bh412rcd13ifvqds0","pricing_plan_id":"free"},{"bike_id":"ee2c48d7-ea28-4fce-8a33-6ddbc50e57bd","system_id":"levelo_inurba_marseille","lat":43.283998,"lon":5.375062,"is_reserved":false,"is_disabled":false,"rental_uris":{"android":"levelo://app?vid=ee2c48d7-ea28-4fce-8a33-6ddbc50e57bd","ios":"levelo://app?vid=ee2c48d7-ea28-4fce-8a33-6ddbc50e57bd"},"vehicle_type_id":"4","last_reported":1687899997,"current_range_meters":7600,"station_id":"ce4bh412rcd13ifvqds0","pricing_plan_id":"free"},{"bike_id":"4fa74692-fd03-4c18-b0ff-a390c606e886","system_id":"levelo_inurba_marseille","lat":43.295713,"lon":5.399639,"is_reserved":false,"is_disabled":false,"rental_uris":{"android":"levelo://app?vid=4fa74692-fd03-4c18-b0ff-a390c606e886","ios":"levelo://app?vid=4fa74692-fd03-4c18-b0ff-a390c606e886"},"vehicle_type_id":"4","last_reported":1687899997,"current_range_meters":24800,"station_id":"ce4bh312rcd13ifvqdj0","pricing_plan_id":"free"},{"bike_id":"3ea3b014-e11e-49f8-ad11-432963710d1c","system_id":"levelo_inurba_marseille","lat":43.323464,"lon":5.406297,"is_reserved":false,"is_disabled":false,"rental_uris":{"android":"levelo://app?vid=3ea3b014-e11e-49f8-ad11-432963710d1c","ios":"levelo://app?vid=3ea3b014-e11e-49f8-ad11-432963710d1c"},"vehicle_type_id":"4","last_reported":1687899997,"current_range_meters":26400,"station_id":"ce4bhq92rcd13ifvqhjg","pricing_plan_id":"free"},{"bike_id":"f2988b82-daec-4b0e-9d7c-376293e5d54f","system_id":"levelo_inurba_marseille","lat":43.3373,"lon":5.39197,"is_reserved":false,"is_disabled":false,"rental_uris":{"android":"levelo://app?vid=f2988b82-daec-4b0e-9d7c-376293e5d54f","ios":"levelo://app?vid=f2988b82-daec-4b0e-9d7c-376293e5d54f"},"vehicle_type_id":"4","last_reported":1687899997,"current_range_meters":21200,"station_id":"","pricing_plan_id":"free"},{"bike_id":"b4c950db-352f-4a1a-8e3c-c05101a6dad0","system_id":"levelo_inurba_marseille","lat":43.288501,"lon":5.393087,"is_reserved":false,"is_disabled":false,"rental_uris":{"android":"levelo://app?vid=b4c950db-352f-4a1a-8e3c-c05101a6dad0","ios":"levelo://app?vid=b4c950db-352f-4a1a-8e3c-c05101a6dad0"},"vehicle_type_id":"4","last_reported":1687899997,"current_range_meters":31200,"station_id":"ce4bh2p2rcd13ifvqdi0","pricing_plan_id":"free"},{"bike_id":"d933aa54-d7be-409a-9a87-93109c904208","system_id":"levelo_inurba_marseille","lat":43.288501,"lon":5.393087,"is_reserved":false,"is_disabled":false,"rental_uris":{"android":"levelo://app?vid=d933aa54-d7be-409a-9a87-93109c904208","ios":"levelo://app?vid=d933aa54-d7be-409a-9a87-93109c904208"},"vehicle_type_id":"4","last_reported":1687899997,"current_range_meters":0,"station_id":"ce4bh2p2rcd13ifvqdi0","pricing_plan_id":"free"},{"bike_id":"04f66c51-9811-4100-9d5c-38affe76250e","system_id":"levelo_inurba_marseille","lat":43.32078,"lon":5.40852,"is_reserved":false,"is_disabled":false,"rental_uris":{"android":"levelo://app?vid=04f66c51-9811-4100-9d5c-38affe76250e","ios":"levelo://app?vid=04f66c51-9811-4100-9d5c-38affe76250e"},"vehicle_type_id":"4","last_reported":1687899997,"current_range_meters":29600,"station_id":"","pricing_plan_id":"free"},{"bike_id":"fcfb569b-fff1-4c62-bcaf-e86e1da57b0c","system_id":"levelo_inurba_marseille","lat":43.289363,"lon":5.396322,"is_reserved":false,"is_disabled":false,"rental_uris":{"android":"levelo://app?vid=fcfb569b-fff1-4c62-bcaf-e86e1da57b0c","ios":"levelo://app?vid=fcfb569b-fff1-4c62-bcaf-e86e1da57b0c"},"vehicle_type_id":"4","last_reported":1687899997,"current_range_meters":16000,"station_id":"ce4bh3h2rcd13ifvqdn0","pricing_plan_id":"free"},{"bike_id":"b703eb70-18e6-45b0-9bb6-1e820a4ba9db","system_id":"levelo_inurba_marseille","lat":43.289363,"lon":5.396322,"is_reserved":false,"is_disabled":false,"rental_uris":{"android":"levelo://app?vid=b703eb70-18e6-45b0-9bb6-1e820a4ba9db","ios":"levelo://app?vid=b703eb70-18e6-45b0-9bb6-1e820a4ba9db"},"vehicle_type_id":"4","last_reported":1687899997,"current_range_meters":21200,"station_id":"ce4bh3h2rcd13ifvqdn0","pricing_plan_id":"free"},{"bike_id":"c347bd7a-96b3-495d-b68a-dcf5b8a5aea3","system_id":"levelo_inurba_marseille","lat":43.289363,"lon":5.396322,"is_reserved":false,"is_disabled":false,"rental_uris":{"android":"levelo://app?vid=c347bd7a-96b3-495d-b68a-dcf5b8a5aea3","ios":"levelo://app?vid=c347bd7a-96b3-495d-b68a-dcf5b8a5aea3"},"vehicle_type_id":"4","last_reported":1687899997,"current_range_meters":18800,"station_id":"ce4bh3h2rcd13ifvqdn0","pricing_plan_id":"free"},{"bike_id":"772bbfe8-ef64-41e8-97d6-a874eb4b3527","system_id":"levelo_inurba_marseille","lat":43.28264,"lon":5.3506,"is_reserved":false,"is_disabled":false,"rental_uris":{"android":"levelo://app?vid=772bbfe8-ef64-41e8-97d6-a874eb4b3527","ios":"levelo://app?vid=772bbfe8-ef64-41e8-97d6-a874eb4b3527"},"vehicle_type_id":"4","last_reported":1687899997,"current_range_meters":0,"station_id":"ce4bhbp2rcd13ifvqerg","pricing_plan_id":"free"},{"bike_id":"2c90e459-5305-4624-83ba-2785efb562c6","system_id":"levelo_inurba_marseille","lat":43.282636,"lon":5.350525,"is_reserved":false,"is_disabled":false,"rental_uris":{"android":"levelo://app?vid=2c90e459-5305-4624-83ba-2785efb562c6","ios":"levelo://app?vid=2c90e459-5305-4624-83ba-2785efb562c6"},"vehicle_type_id":"4","last_reported":1687899997,"current_range_meters":18800,"station_id":"","pricing_plan_id":"free"},{"bike_id":"93ab2ec6-ac65-4f87-ab75-1690bb92875f","system_id":"levelo_inurba_marseille","lat":43.28039,"lon":5.369297,"is_reserved":false,"is_disabled":false,"rental_uris":{"android":"levelo://app?vid=93ab2ec6-ac65-4f87-ab75-1690bb92875f","ios":"levelo://app?vid=93ab2ec6-ac65-4f87-ab75-1690bb92875f"},"vehicle_type_id":"4","last_reported":1687899997,"current_range_meters":18400,"station_id":"ce4bha12rcd13ifvqef0","pricing_plan_id":"free"},{"bike_id":"b6e15975-5cee-4f1a-9bd3-4e2b0c923498","system_id":"levelo_inurba_marseille","lat":43.28039,"lon":5.369297,"is_reserved":false,"is_disabled":false,"rental_uris":{"android":"levelo://app?vid=b6e15975-5cee-4f1a-9bd3-4e2b0c923498","ios":"levelo://app?vid=b6e15975-5cee-4f1a-9bd3-4e2b0c923498"},"vehicle_type_id":"4","last_reported":1687899997,"current_range_meters":4800,"station_id":"ce4bha12rcd13ifvqef0","pricing_plan_id":"free"},{"bike_id":"bdfc72e1-e8ad-4957-97cb-54d6e66fa2b5","system_id":"levelo_inurba_marseille","lat":43.283502,"lon":5.386471,"is_reserved":false,"is_disabled":false,"rental_uris":{"android":"levelo://app?vid=bdfc72e1-e8ad-4957-97cb-54d6e66fa2b5","ios":"levelo://app?vid=bdfc72e1-e8ad-4957-97cb-54d6e66fa2b5"},"vehicle_type_id":"4","last_reported":1687899997,"current_range_meters":25200,"station_id":"ce4bh492rcd13ifvqdvg","pricing_plan_id":"free"},{"bike_id":"0fd03652-8b10-439c-9085-f6a9e14e61da","system_id":"levelo_inurba_marseille","lat":43.280382,"lon":5.369291,"is_reserved":false,"is_disabled":false,"rental_uris":{"android":"levelo://app?vid=0fd03652-8b10-439c-9085-f6a9e14e61da","ios":"levelo://app?vid=0fd03652-8b10-439c-9085-f6a9e14e61da"},"vehicle_type_id":"4","last_reported":1687899997,"current_range_meters":2400,"station_id":"ce4bha12rcd13ifvqef0","pricing_plan_id":"free"},{"bike_id":"982a0b3c-2318-40a2-b12d-dd6322bd3d19","system_id":"levelo_inurba_marseille","lat":43.283502,"lon":5.386471,"is_reserved":false,"is_disabled":false,"rental_uris":{"android":"levelo://app?vid=982a0b3c-2318-40a2-b12d-dd6322bd3d19","ios":"levelo://app?vid=982a0b3c-2318-40a2-b12d-dd6322bd3d19"},"vehicle_type_id":"4","last_reported":1687899997,"current_range_meters":2000,"station_id":"ce4bh492rcd13ifvqdvg","pricing_plan_id":"free"},{"bike_id":"c554e5a5-3646-4f97-8d1e-1e6b36f32fa4","system_id":"levelo_inurba_marseille","lat":43.28039,"lon":5.369297,"is_reserved":false,"is_disabled":false,"rental_uris":{"android":"levelo://app?vid=c554e5a5-3646-4f97-8d1e-1e6b36f32fa4","ios":"levelo://app?vid=c554e5a5-3646-4f97-8d1e-1e6b36f32fa4"},"vehicle_type_id":"4","last_reported":1687899997,"current_range_meters":19200,"station_id":"ce4bha12rcd13ifvqef0","pricing_plan_id":"free"},{"bike_id":"6eba424c-38ce-4947-a280-cfa87b7a53d8","system_id":"levelo_inurba_marseille","lat":43.290412,"lon":5.399633,"is_reserved":false,"is_disabled":false,"rental_uris":{"android":"levelo://app?vid=6eba424c-38ce-4947-a280-cfa87b7a53d8","ios":"levelo://app?vid=6eba424c-38ce-4947-a280-cfa87b7a53d8"},"vehicle_type_id":"4","last_reported":1687899997,"current_range_meters":24000,"station_id":"ce4bh392rcd13ifvqdm0","pricing_plan_id":"free"},{"bike_id":"8bbff045-52f5-4840-bfa4-5c60ea772615","system_id":"levelo_inurba_marseille","lat":43.290412,"lon":5.399633,"is_reserved":false,"is_disabled":false,"rental_uris":{"android":"levelo://app?vid=8bbff045-52f5-4840-bfa4-5c60ea772615","ios":"levelo://app?vid=8bbff045-52f5-4840-bfa4-5c60ea772615"},"vehicle_type_id":"4","last_reported":1687899997,"current_range_meters":5600,"station_id":"ce4bh392rcd13ifvqdm0","pricing_plan_id":"free"},{"bike_id":"bc27e4c8-ccc8-4c00-93bd-8708cdb9b109","system_id":"levelo_inurba_marseille","lat":43.290412,"lon":5.399633,"is_reserved":false,"is_disabled":false,"rental_uris":{"android":"levelo://app?vid=bc27e4c8-ccc8-4c00-93bd-8708cdb9b109","ios":"levelo://app?vid=bc27e4c8-ccc8-4c00-93bd-8708cdb9b109"},"vehicle_type_id":"4","last_reported":1687899997,"current_range_meters":30400,"station_id":"ce4bh392rcd13ifvqdm0","pricing_plan_id":"free"},{"bike_id":"2eeb077e-3127-46e3-a8e7-72320f422715","system_id":"levelo_inurba_marseille","lat":43.290412,"lon":5.399633,"is_reserved":false,"is_disabled":false,"rental_uris":{"android":"levelo://app?vid=2eeb077e-3127-46e3-a8e7-72320f422715","ios":"levelo://app?vid=2eeb077e-3127-46e3-a8e7-72320f422715"},"vehicle_type_id":"4","last_reported":1687899997,"current_range_meters":4400,"station_id":"ce4bh392rcd13ifvqdm0","pricing_plan_id":"free"},{"bike_id":"747d5af3-112a-4181-9379-06927837dec3","system_id":"levelo_inurba_marseille","lat":43.290412,"lon":5.399633,"is_reserved":false,"is_disabled":false,"rental_uris":{"android":"levelo://app?vid=747d5af3-112a-4181-9379-06927837dec3","ios":"levelo://app?vid=747d5af3-112a-4181-9379-06927837dec3"},"vehicle_type_id":"4","last_reported":1687899997,"current_range_meters":20400,"station_id":"ce4bh392rcd13ifvqdm0","pricing_plan_id":"free"},{"bike_id":"84cfc5dd-08be-4415-91bf-62d776a6836d","system_id":"levelo_inurba_marseille","lat":43.296263,"lon":5.40601,"is_reserved":false,"is_disabled":false,"rental_uris":{"android":"levelo://app?vid=84cfc5dd-08be-4415-91bf-62d776a6836d","ios":"levelo://app?vid=84cfc5dd-08be-4415-91bf-62d776a6836d"},"vehicle_type_id":"4","last_reported":1687899997,"current_range_meters":5200,"station_id":"ce4bh0h2rcd13ifvqd60","pricing_plan_id":"free"},{"bike_id":"2f10d233-fbcb-4265-a6be-c036a3bb7f27","system_id":"levelo_inurba_marseille","lat":43.28103,"lon":5.3783,"is_reserved":false,"is_disabled":false,"rental_uris":{"android":"levelo://app?vid=2f10d233-fbcb-4265-a6be-c036a3bb7f27","ios":"levelo://app?vid=2f10d233-fbcb-4265-a6be-c036a3bb7f27"},"vehicle_type_id":"4","last_reported":1687899997,"current_range_meters":14000,"station_id":"ce4bha12rcd13ifvqee0","pricing_plan_id":"free"},{"bike_id":"7baadf08-cf22-4774-9207-942a4381837d","system_id":"levelo_inurba_marseille","lat":43.28098,"lon":5.37832,"is_reserved":false,"is_disabled":false,"rental_uris":{"android":"levelo://app?vid=7baadf08-cf22-4774-9207-942a4381837d","ios":"levelo://app?vid=7baadf08-cf22-4774-9207-942a4381837d"},"vehicle_type_id":"4","last_reported":1687899997,"current_range_meters":24000,"station_id":"ce4bha12rcd13ifvqee0","pricing_plan_id":"free"},{"bike_id":"61b79366-981a-417e-aad1-59b9bdb8c9a6","system_id":"levelo_inurba_marseille","lat":43.33056,"lon":5.40579,"is_reserved":false,"is_disabled":false,"rental_uris":{"android":"levelo://app?vid=61b79366-981a-417e-aad1-59b9bdb8c9a6","ios":"levelo://app?vid=61b79366-981a-417e-aad1-59b9bdb8c9a6"},"vehicle_type_id":"4","last_reported":1687899997,"current_range_meters":28400,"station_id":"","pricing_plan_id":"free"},{"bike_id":"c8e6ce45-f2b5-4772-a564-3c2039eea91a","system_id":"levelo_inurba_marseille","lat":43.3306,"lon":5.40592,"is_reserved":false,"is_disabled":false,"rental_uris":{"android":"levelo://app?vid=c8e6ce45-f2b5-4772-a564-3c2039eea91a","ios":"levelo://app?vid=c8e6ce45-f2b5-4772-a564-3c2039eea91a"},"vehicle_type_id":"4","last_reported":1687899997,"current_range_meters":2800,"station_id":"","pricing_plan_id":"free"},{"bike_id":"0c8a5d0b-772d-4b60-be81-4c13cd3a0b3d","system_id":"levelo_inurba_marseille","lat":43.28436,"lon":5.39186,"is_reserved":false,"is_disabled":false,"rental_uris":{"android":"levelo://app?vid=0c8a5d0b-772d-4b60-be81-4c13cd3a0b3d","ios":"levelo://app?vid=0c8a5d0b-772d-4b60-be81-4c13cd3a0b3d"},"vehicle_type_id":"4","last_reported":1687899997,"current_range_meters":6800,"station_id":"ce4bhoh2rcd13ifvqh5g","pricing_plan_id":"free"},{"bike_id":"c4935b0b-54d5-4f34-9b74-66b9536e77de","system_id":"levelo_inurba_marseille","lat":43.284462,"lon":5.392121,"is_reserved":false,"is_disabled":false,"rental_uris":{"android":"levelo://app?vid=c4935b0b-54d5-4f34-9b74-66b9536e77de","ios":"levelo://app?vid=c4935b0b-54d5-4f34-9b74-66b9536e77de"},"vehicle_type_id":"4","last_reported":1687899997,"current_range_meters":10000,"station_id":"ce4bhoh2rcd13ifvqh5g","pricing_plan_id":"free"},{"bike_id":"104e4be4-777a-4d59-9e16-90f98aef09f7","system_id":"levelo_inurba_marseille","lat":43.32658,"lon":5.4099,"is_reserved":false,"is_disabled":false,"rental_uris":{"android":"levelo://app?vid=104e4be4-777a-4d59-9e16-90f98aef09f7","ios":"levelo://app?vid=104e4be4-777a-4d59-9e16-90f98aef09f7"},"vehicle_type_id":"4","last_reported":1687899997,"current_range_meters":2400,"station_id":"ce4bhpp2rcd13ifvqhgg","pricing_plan_id":"free"},{"bike_id":"0c9eee73-532e-4f1f-8b23-5a0693e22298","system_id":"levelo_inurba_marseille","lat":43.32657,"lon":5.40994,"is_reserved":false,"is_disabled":false,"rental_uris":{"android":"levelo://app?vid=0c9eee73-532e-4f1f-8b23-5a0693e22298","ios":"levelo://app?vid=0c9eee73-532e-4f1f-8b23-5a0693e22298"},"vehicle_type_id":"4","last_reported":1687899997,"current_range_meters":31200,"station_id":"ce4bhpp2rcd13ifvqhgg","pricing_plan_id":"free"},{"bike_id":"7a549966-f42a-4030-b67a-1ce607d2dace","system_id":"levelo_inurba_marseille","lat":43.32653,"lon":5.40999,"is_reserved":false,"is_disabled":false,"rental_uris":{"android":"levelo://app?vid=7a549966-f42a-4030-b67a-1ce607d2dace","ios":"levelo://app?vid=7a549966-f42a-4030-b67a-1ce607d2dace"},"vehicle_type_id":"4","last_reported":1687899997,"current_range_meters":18400,"station_id":"ce4bhpp2rcd13ifvqhgg","pricing_plan_id":"free"},{"bike_id":"6e8ee662-a6ff-44d3-843e-71da99eface2","system_id":"levelo_inurba_marseille","lat":43.304188,"lon":5.412904,"is_reserved":false,"is_disabled":false,"rental_uris":{"android":"levelo://app?vid=6e8ee662-a6ff-44d3-843e-71da99eface2","ios":"levelo://app?vid=6e8ee662-a6ff-44d3-843e-71da99eface2"},"vehicle_type_id":"4","last_reported":1687899997,"current_range_meters":31200,"station_id":"ce4bhop2rcd13ifvqh8g","pricing_plan_id":"free"},{"bike_id":"50fd953c-9754-45f4-aec7-ae52bb9eb6fe","system_id":"levelo_inurba_marseille","lat":43.287154,"lon":5.399979,"is_reserved":false,"is_disabled":false,"rental_uris":{"android":"levelo://app?vid=50fd953c-9754-45f4-aec7-ae52bb9eb6fe","ios":"levelo://app?vid=50fd953c-9754-45f4-aec7-ae52bb9eb6fe"},"vehicle_type_id":"4","last_reported":1687899997,"current_range_meters":32000,"station_id":"ce4bho92rcd13ifvqh3g","pricing_plan_id":"free"},{"bike_id":"b511418e-57f9-4a36-8f44-4d891d1088fe","system_id":"levelo_inurba_marseille","lat":43.279087,"lon":5.380114,"is_reserved":false,"is_disabled":false,"rental_uris":{"android":"levelo://app?vid=b511418e-57f9-4a36-8f44-4d891d1088fe","ios":"levelo://app?vid=b511418e-57f9-4a36-8f44-4d891d1088fe"},"vehicle_type_id":"4","last_reported":1687899997,"current_range_meters":30400,"station_id":"ce4bhf92rcd13ifvqf50","pricing_plan_id":"free"},