{"last_updated":1770053401,"ttl":60,"version":"2.2","data":{"bikes":[{"bike_id":"81cddbe1-5b72-48ed-a7a4-1031532f66af","system_id":"levelo_inurba_marseille","lat":43.24782,"lon":5.37486,"is_reserved":false,"is_disabled":false,"rental_uris":{"android":"levelo://app?vid=81cddbe1-5b72-48ed-a7a4-1031532f66af","ios":"levelo://app?vid=81cddbe1-5b72-48ed-a7a4-1031532f66af"},"vehicle_type_id":"4","last_reported":1770053402,"current_range_meters":2800,"station_id":"ce4bhgh2rcd13ifvqfb0","pricing_plan_id":"cebpf4jnsgd1na2vs0mg"},{"bike_id":"d90918f3-e931-45f6-a361-52876526352c","system_id":"levelo_inurba_marseille","lat":43.2958,"lon":5.39977,"is_reserved":false,"is_disabled":false,"rental_uris":{"android":"levelo://app?vid=d90918f3-e931-45f6-a361-52876526352c","ios":"levelo://app?vid=d90918f3-e931-45f6-a361-52876526352c"},"vehicle_type_id":"4","last_reported":1770053402,"current_range_meters":2800,"station_id":"ce4bh312rcd13ifvqdj0","pricing_plan_id":"cebpf4jnsgd1na2vs0mg"},{"bike_id":"d7bb52bf-9888-4e53-9c7d-d39210203af0","system_id":"levelo_inurba_marseille","lat":43.260609,"lon":5.393998,"is_reserved":false,"is_disabled":false,"rental_uris":{"android":"levelo://app?vid=d7bb52bf-9888-4e53-9c7d-d39210203af0","ios":"levelo://app?vid=d7bb52bf-9888-4e53-9c7d-d39210203af0"},"vehicle_type_id":"4","last_reported":1770053402,"current_range_meters":2800,"station_id":"ce4bhh92rcd13ifvqfj0","pricing_plan_id":"cebpf4jnsgd1na2vs0mg"},{"bike_id":"fe96b3e6-31d2-4dd0-93a5-43e5f652f8f8","system_id":"levelo_inurba_marseille","lat":43.2622,"lon":5.40457,"is_reserved":false,"is_disabled":false,"rental_uris":{"android":"levelo://app?vid=fe96b3e6-31d2-4dd0-93a5-43e5f652f8f8","ios":"levelo://app?vid=fe96b3e6-31d2-4dd0-93a5-43e5f652f8f8"},"vehicle_type_id":"4","last_reported":1770053402,"current_range_meters":2800,"station_id":"ce4bhmh2rcd13ifvqgmg","pricing_plan_id":"cebpf4jnsgd1na2vs0mg"},{"bike_id":"72489c9e-01d3-484c-a253-4279fe296b12","system_id":"levelo_inurba_marseille","lat":43.23201,"lon":5.35547,"is_reserved":false,"is_disabled":false,"rental_uris":{"android":"levelo://app?vid=72489c9e-01d3-484c-a253-4279fe296b12","ios":"levelo://app?vid=72489c9e-01d3-484c-a253-4279fe296b12"},"vehicle_type_id":"4","last_reported":1770053402,"current_range_meters":2800,"station_id":"ce4bhu92rcd13ifvqi70","pricing_plan_id":"cebpf4jnsgd1na2vs0mg"},{"bike_id":"8401dd38-67e3-4f52-852b-c5ed2c9817e4","system_id":"levelo_inurba_marseille","lat":43.27948,"lon":5.41042,"is_reserved":false,"is_disabled":false,"rental_uris":{"android":"levelo://app?vid=8401dd38-67e3-4f52-852b-c5ed2c9817e4","ios":"levelo://app?vid=8401dd38-67e3-4f52-852b-c5ed2c9817e4"},"vehicle_type_id":"4","last_reported":1770053402,"current_range_meters":2800,"station_id":"ce4bhnp2rcd13ifvqh0g","pricing_plan_id":"cebpf4jnsgd1na2vs0mg"},{"bike_id":"637b915d-60b9-4796-9bb5-f9845c8d4a81","system_id":"levelo_inurba_marseille","lat":43.23029,"lon":5.35501,"is_reserved":false,"is_disabled":false,"rental_uris":{"android":"levelo://app?vid=637b915d-60b9-4796-9bb5-f9845c8d4a81","ios":"levelo://app?vid=637b915d-60b9-4796-9bb5-f9845c8d4a81"},"vehicle_type_id":"4","last_reported":1770053402,"current_range_meters":3200,"station_id":"cpo3342slgdg3j2ifvpg","pricing_plan_id":"cebpf4jnsgd1na2vs0mg"},{"bike_id":"815932e9-3490-41c8-9f18-17529b2fcd92","system_id":"levelo_inurba_marseille","lat":43.23135,"lon":5.43753,"is_reserved":false,"is_disabled":false,"rental_uris":{"android":"levelo://app?vid=815932e9-3490-41c8-9f18-17529b2fcd92","ios":"levelo://app?vid=815932e9-3490-41c8-9f18-17529b2fcd92"},"vehicle_type_id":"4","last_reported":1770053402,"current_range_meters":3200,"station_id":"ce4bhmp2rcd13ifvqgog","pricing_plan_id":"cebpf4jnsgd1na2vs0mg"},{"bike_id":"f9d88a3b-520d-4dec-94f9-4819179415a1","system_id":"levelo_inurba_marseille","lat":43.2396,"lon":5.36632,"is_reserved":false,"is_disabled":false,"rental_uris":{"android":"levelo://app?vid=f9d88a3b-520d-4dec-94f9-4819179415a1","ios":"levelo://app?vid=f9d88a3b-520d-4dec-94f9-4819179415a1"},"vehicle_type_id":"4","last_reported":1770053402,"current_range_meters":3200,"station_id":"ce4bhi12rcd13ifvqfp0","pricing_plan_id":"cebpf4jnsgd1na2vs0mg"},{"bike_id":"5bff3515-a705-40c8-b65b-c11d89c6d400","system_id":"levelo_inurba_marseille","lat":43.24164,"lon":5.39688,"is_reserved":false,"is_disabled":false,"rental_uris":{"android":"levelo://app?vid=5bff3515-a705-40c8-b65b-c11d89c6d400","ios":"levelo://app?vid=5bff3515-a705-40c8-b65b-c11d89c6d400"},"vehicle_type_id":"4","last_reported":1770053402,"current_range_meters":3600,"station_id":"ce4bhn12rcd13ifvqgpg","pricing_plan_id":"cebpf4jnsgd1na2vs0mg"},{"bike_id":"0398f9ac-4213-4f68-b419-f7bff731c5c6","system_id":"levelo_inurba_marseille","lat":43.333635,"lon":5.431355,"is_reserved":false,"is_disabled":false,"rental_uris":{"android":"levelo://app?vid=0398f9ac-4213-4f68-b419-f7bff731c5c6","ios":"levelo://app?vid=0398f9ac-4213-4f68-b419-f7bff731c5c6"},"vehicle_type_id":"4","last_reported":1770053402,"current_range_meters":3600,"station_id":"","pricing_plan_id":"cebpf4jnsgd1na2vs0mg"},{"bike_id":"9e86feb9-2cb2-4cb9-8149-ccc1b1ec04d0","system_id":"levelo_inurba_marseille","lat":43.30635,"lon":5.4008,"is_reserved":false,"is_disabled":false,"rental_uris":{"android":"levelo://app?vid=9e86feb9-2cb2-4cb9-8149-ccc1b1ec04d0","ios":"levelo://app?vid=9e86feb9-2cb2-4cb9-8149-ccc1b1ec04d0"},"vehicle_type_id":"4","last_reported":1770053402,"current_range_meters":3600,"station_id":"ce4bh112rcd13ifvqda0","pricing_plan_id":"cebpf4jnsgd1na2vs0mg"},{"bike_id":"3145bee7-9947-4048-a6c8-4a6751fb3e81","system_id":"levelo_inurba_marseille","lat":43.25511,"lon":5.37685,"is_reserved":false,"is_disabled":false,"rental_uris":{"android":"levelo://app?vid=3145bee7-9947-4048-a6c8-4a6751fb3e81","ios":"levelo://app?vid=3145bee7-9947-4048-a6c8-4a6751fb3e81"},"vehicle_type_id":"4","last_reported":1770053402,"current_range_meters":3600,"station_id":"ce4bhh12rcd13ifvqff0","pricing_plan_id":"cebpf4jnsgd1na2vs0mg"},{"bike_id":"b327d0f9-e910-4cd3-a345-f7ea449db020","system_id":"levelo_inurba_marseille","lat":43.24398,"lon":5.37053,"is_reserved":false,"is_disabled":false,"rental_uris":{"android":"levelo://app?vid=b327d0f9-e910-4cd3-a345-f7ea449db020","ios":"levelo://app?vid=b327d0f9-e910-4cd3-a345-f7ea449db020"},"vehicle_type_id":"4","last_reported":1770053402,"current_range_meters":3600,"station_id":"ce4bhhh2rcd13ifvqfk0","pricing_plan_id":"cebpf4jnsgd1na2vs0mg"},{"bike_id":"2fc3d49a-75d7-4cf3-8094-999fe4162e65","system_id":"levelo_inurba_marseille","lat":43.312683,"lon":5.401779,"is_reserved":false,"is_disabled":false,"rental_uris":{"android":"levelo://app?vid=2fc3d49a-75d7-4cf3-8094-999fe4162e65","ios":"levelo://app?vid=2fc3d49a-75d7-4cf3-8094-999fe4162e65"},"vehicle_type_id":"4","last_reported":1770053402,"current_range_meters":3600,"station_id":"ce4bgv92rcd13ifvqcq0","pricing_plan_id":"cebpf4jnsgd1na2vs0mg"},{"bike_id":"8dbcb872-c448-4799-82fc-c68a10ceeb1a","system_id":"levelo_inurba_marseille","lat":43.27066,"lon":5.4228,"is_reserved":false,"is_disabled":false,"rental_uris":{"android":"levelo://app?vid=8dbcb872-c448-4799-82fc-c68a10ceeb1a","ios":"levelo://app?vid=8dbcb872-c448-4799-82fc-c68a10ceeb1a"},"vehicle_type_id":"4","last_reported":1770053402,"current_range_meters":3600,"station_id":"ce4bhk92rcd13ifvqgb0","pricing_plan_id":"cebpf4jnsgd1na2vs0mg"},{"bike_id":"d0ce876f-4532-462c-9c29-e674a02453f0","system_id":"levelo_inurba_marseille","lat":43.27383,"lon":5.36248,"is_reserved":false,"is_disabled":false,"rental_uris":{"android":"levelo://app?vid=d0ce876f-4532-462c-9c29-e674a02453f0","ios":"levelo://app?vid=d0ce876f-4532-462c-9c29-e674a02453f0"},"vehicle_type_id":"4","last_reported":1770053402,"current_range_meters":3600,"station_id":"ce4bhbh2rcd13ifvqeo0","pricing_plan_id":"cebpf4jnsgd1na2vs0mg"},{"bike_id":"64342d69-ab30-4801-8539-fc98ba700298","system_id":"levelo_inurba_marseille","lat":43.24796,"lon":5.37452,"is_reserved":false,"is_disabled":false,"rental_uris":{"android":"levelo://app?vid=64342d69-ab30-4801-8539-fc98ba700298","ios":"levelo://app?vid=64342d69-ab30-4801-8539-fc98ba700298"},"vehicle_type_id":"4","last_reported":1770053402,"current_range_meters":4000,"station_id":"ce4bhgh2rcd13ifvqfb0","pricing_plan_id":"cebpf4jnsgd1na2vs0mg"},{"bike_id":"70aad063-ceac-4b3b-8a1d-80471a1d623b","system_id":"levelo_inurba_marseille","lat":43.2308,"lon":5.35452,"is_reserved":false,"is_disabled":false,"rental_uris":{"android":"levelo://app?vid=70aad063-ceac-4b3b-8a1d-80471a1d623b","ios":"levelo://app?vid=70aad063-ceac-4b3b-8a1d-80471a1d623b"},"vehicle_type_id":"4","last_reported":1770053402,"current_range_meters":4000,"station_id":"cpo3342slgdg3j2ifvpg","pricing_plan_id":"cebpf4jnsgd1na2vs0mg"},{"bike_id":"376232b5-fd9d-4a27-a8c8-b8a78b760878","system_id":"levelo_inurba_marseille","lat":43.24183,"lon":5.39727,"is_reserved":false,"is_disabled":false,"rental_uris":{"android":"levelo://app?vid=376232b5-fd9d-4a27-a8c8-b8a78b760878","ios":"levelo://app?vid=376232b5-fd9d-4a27-a8c8-b8a78b760878"},"vehicle_type_id":"4","last_reported":1770053402,"current_range_meters":4000,"station_id":"ce4bhn12rcd13ifvqgpg","pricing_plan_id":"cebpf4jnsgd1na2vs0mg"},{"bike_id":"01e73d6e-952d-4b90-bff8-e5173ce59dd7","system_id":"levelo_inurba_marseille","lat":43.29539,"lon":5.3854,"is_reserved":false,"is_disabled":true,"rental_uris":{"android":"levelo://app?vid=01e73d6e-952d-4b90-bff8-e5173ce59dd7","ios":"levelo://app?vid=01e73d6e-952d-4b90-bff8-e5173ce59dd7"},"vehicle_type_id":"4","last_reported":1770053402,"current_range_meters":4000,"station_id":"ce4bgih2rcd13ifvqba0","pricing_plan_id":"cebpf4jnsgd1na2vs0mg"},{"bike_id":"a1f01d0e-daec-4baf-acde-adf9612a1a61","system_id":"levelo_inurba_marseille","lat":43.26569,"lon":5.39014,"is_reserved":false,"is_disabled":false,"rental_uris":{"android":"levelo://app?vid=a1f01d0e-daec-4baf-acde-adf9612a1a61","ios":"levelo://app?vid=a1f01d0e-daec-4baf-acde-adf9612a1a61"},"vehicle_type_id":"4","last_reported":1770053402,"current_range_meters":4000,"station_id":"ce4bhe12rcd13ifvqf30","pricing_plan_id":"cebpf4jnsgd1na2vs0mg"},{"bike_id":"a6ab1dbd-7d2f-441a-88b2-8e2bc94dc087","system_id":"levelo_inurba_marseille","lat":43.24986,"lon":5.38961,"is_reserved":false,"is_disabled":false,"rental_uris":{"android":"levelo://app?vid=a6ab1dbd-7d2f-441a-88b2-8e2bc94dc087","ios":"levelo://app?vid=a6ab1dbd-7d2f-441a-88b2-8e2bc94dc087"},"vehicle_type_id":"4","last_reported":1770053402,"current_range_meters":4000,"station_id":"ce4bhgp2rcd13ifvqfd0","pricing_plan_id":"cebpf4jnsgd1na2vs0mg"},{"bike_id":"1f26521f-96c7-4695-a6b6-cd40543db4db","system_id":"levelo_inurba_marseille","lat":43.24015,"lon":5.37803,"is_reserved":false,"is_disabled":true,"rental_uris":{"android":"levelo://app?vid=1f26521f-96c7-4695-a6b6-cd40543db4db","ios":"levelo://app?vid=1f26521f-96c7-4695-a6b6-cd40543db4db"},"vehicle_type_id":"4","last_reported":1770053402,"current_range_meters":4000,"station_id":"ce4bhnp2rcd13ifvqgvg","pricing_plan_id":"cebpf4jnsgd1na2vs0mg"},{"bike_id":"20f8dacb-5cfb-411b-aac6-04b0743b3a2b","system_id":"levelo_inurba_marseille","lat":43.25652,"lon":5.37636,"is_reserved":false,"is_disabled":false,"rental_uris":{"android":"levelo://app?vid=20f8dacb-5cfb-411b-aac6-04b0743b3a2b","ios":"levelo://app?vid=20f8dacb-5cfb-411b-aac6-04b0743b3a2b"},"vehicle_type_id":"4","last_reported":1770053402,"current_range_meters":4000,"station_id":"","pricing_plan_id":"cebpf4jnsgd1na2vs0mg"},{"bike_id":"f4e6ccb9-2c8e-4355-a90f-90eaf5c0cf98","system_id":"levelo_inurba_marseille","lat":43.298,"lon":5.38089,"is_reserved":false,"is_disabled":false,"rental_uris":{"android":"levelo://app?vid=f4e6ccb9-2c8e-4355-a90f-90eaf5c0cf98","ios":"levelo://app?vid=f4e6ccb9-2c8e-4355-a90f-90eaf5c0cf98"},"vehicle_type_id":"4","last_reported":1770053402,"current_range_meters":4000,"station_id":"ce4bgip2rcd13ifvqbb0","pricing_plan_id":"cebpf4jnsgd1na2vs0mg"},{"bike_id":"79812d79-066c-4d3c-91f1-ee83530e917c","system_id":"levelo_inurba_marseille","lat":43.24072,"lon":5.37739,"is_reserved":false,"is_disabled":false,"rental_uris":{"android":"levelo://app?vid=79812d79-066c-4d3c-91f1-ee83530e917c","ios":"levelo://app?vid=79812d79-066c-4d3c-91f1-ee83530e917c"},"vehicle_type_id":"4","last_reported":1770053402,"current_range_meters":4000,"station_id":"ce4bhnp2rcd13ifvqgvg","pricing_plan_id":"cebpf4jnsgd1na2vs0mg"},{"bike_id":"69ea6e2d-4157-4b02-a9be-2880f031fac1","system_id":"levelo_inurba_marseille","lat":43.30124,"lon":5.39888,"is_reserved":false,"is_disabled":false,"rental_uris":{"android":"levelo://app?vid=69ea6e2d-4157-4b02-a9be-2880f031fac1","ios":"levelo://app?vid=69ea6e2d-4157-4b02-a9be-2880f031fac1"},"vehicle_type_id":"4","last_reported":1770053402,"current_range_meters":4400,"station_id":"ce4bh0h2rcd13ifvqd40","pricing_plan_id":"cebpf4jnsgd1na2vs0mg"},{"bike_id":"e76b3d8e-b3d4-4100-9a39-297c53b12c01","system_id":"levelo_inurba_marseille","lat":43.29532,"lon":5.375,"is_reserved":false,"is_disabled":false,"rental_uris":{"android":"levelo://app?vid=e76b3d8e-b3d4-4100-9a39-297c53b12c01","ios":"levelo://app?vid=e76b3d8e-b3d4-4100-9a39-297c53b12c01"},"vehicle_type_id":"4","last_reported":1770053402,"current_range_meters":4400,"station_id":"ce4bgkp2rcd13ifvqbmg","pricing_plan_id":"cebpf4jnsgd1na2vs0mg"},{"bike_id":"83024df0-1ebb-4f12-ada8-19c6b6f1d40a","system_id":"levelo_inurba_marseille","lat":43.28158,"lon":5.42636,"is_reserved":false,"is_disabled":false,"rental_uris":{"android":"levelo://app?vid=83024df0-1ebb-4f12-ada8-19c6b6f1d40a","ios":"levelo://app?vid=83024df0-1ebb-4f12-ada8-19c6b6f1d40a"},"vehicle_type_id":"4","last_reported":1770053402,"current_range_meters":4400,"station_id":"ce4bhnh2rcd13ifvqgug","pricing_plan_id":"cebpf4jnsgd1na2vs0mg"},{"bike_id":"f92823b8-4fef-4833-b634-08b82223de18","system_id":"levelo_inurba_marseille","lat":43.23182,"lon":5.40003,"is_reserved":false,"is_disabled":false,"rental_uris":{"android":"levelo://app?vid=f92823b8-4fef-4833-b634-08b82223de18","ios":"levelo://app?vid=f92823b8-4fef-4833-b634-08b82223de18"},"vehicle_type_id":"4","last_reported":1770053402,"current_range_meters":4400,"station_id":"ce4bhn12rcd13ifvqgqg","pricing_plan_id":"cebpf4jnsgd1na2vs0mg"},{"bike_id":"c08fb5ce-410b-4e3b-bd2b-37b604cc356e","system_id":"levelo_inurba_marseille","lat":43.30918,"lon":5.40155,"is_reserved":false,"is_disabled":false,"rental_uris":{"android":"levelo://app?vid=c08fb5ce-410b-4e3b-bd2b-37b604cc356e","ios":"levelo://app?vid=c08fb5ce-410b-4e3b-bd2b-37b604cc356e"},"vehicle_type_id":"4","last_reported":1770053402,"current_range_meters":4400,"station_id":"ce4bgvp2rcd13ifvqct0","pricing_plan_id":"cebpf4jnsgd1na2vs0mg"},{"bike_id":"3eedbc32-e6fe-4748-89e7-30383a43cb8a","system_id":"levelo_inurba_marseille","lat":43.28,"lon":5.41666,"is_reserved":false,"is_disabled":false,"rental_uris":{"android":"levelo://app?vid=3eedbc32-e6fe-4748-89e7-30383a43cb8a","ios":"levelo://app?vid=3eedbc32-e6fe-4748-89e7-30383a43cb8a"},"vehicle_type_id":"4","last_reported":1770053402,"current_range_meters":4400,"station_id":"ce4bho12rcd13ifvqh1g","pricing_plan_id":"cebpf4jnsgd1na2vs0mg"},{"bike_id":"11a4253c-c87d-43fc-b4fa-6f18163ba935","system_id":"levelo_inurba_marseille","lat":43.2848,"lon":5.48376,"is_reserved":false,"is_disabled":false,"rental_uris":{"android":"levelo://app?vid=11a4253c-c87d-43fc-b4fa-6f18163ba935","ios":"levelo://app?vid=11a4253c-c87d-43fc-b4fa-6f18163ba935"},"vehicle_type_id":"4","last_reported":1770053402,"current_range_meters":4400,"station_id":"st_d3svhcjqgbts73a3dn0g","pricing_plan_id":"cebpf4jnsgd1na2vs0mg"},{"bike_id":"15285b76-e89c-4253-a87a-a7346641cc09","system_id":"levelo_inurba_marseille","lat":43.25587,"lon":5.38222,"is_reserved":false,"is_disabled":false,"rental_uris":{"android":"levelo://app?vid=15285b76-e89c-4253-a87a-a7346641cc09","ios":"levelo://app?vid=15285b76-e89c-4253-a87a-a7346641cc09"},"vehicle_type_id":"4","last_reported":1770053402,"current_range_meters":4800,"station_id":"ce4bhih2rcd13ifvqfs0","pricing_plan_id":"cebpf4jnsgd1na2vs0mg"},{"bike_id":"cc5f0fc4-9071-414b-a619-c7677f7ba2a3","system_id":"levelo_inurba_marseille","lat":43.31342,"lon":5.36727,"is_reserved":false,"is_disabled":false,"rental_uris":{"android":"levelo://app?vid=cc5f0fc4-9071-414b-a619-c7677f7ba2a3","ios":"levelo://app?vid=cc5f0fc4-9071-414b-a619-c7677f7ba2a3"},"vehicle_type_id":"4","last_reported":1770053402,"current_range_meters":4800,"station_id":"ce4bgr92rcd13ifvqc6g","pricing_plan_id":"cebpf4jnsgd1na2vs0mg"},{"bike_id":"61d232a6-c72b-43f7-8d84-c786e5f463d1","system_id":"levelo_inurba_marseille","lat":43.25932,"lon":5.40897,"is_reserved":false,"is_disabled":false,"rental_uris":{"android":"levelo://app?vid=61d232a6-c72b-43f7-8d84-c786e5f463d1","ios":"levelo://app?vid=61d232a6-c72b-43f7-8d84-c786e5f463d1"},"vehicle_type_id":"4","last_reported":1770053402,"current_range_meters":4800,"station_id":"ce4bhm92rcd13ifvqglg","pricing_plan_id":"cebpf4jnsgd1na2vs0mg"},{"bike_id":"e96133eb-f771-40b1-ae3b-574adab8fad6","system_id":"levelo_inurba_marseille","lat":43.27996,"lon":5.39999,"is_reserved":false,"is_disabled":false,"rental_uris":{"android":"levelo://app?vid=e96133eb-f771-40b1-ae3b-574adab8fad6","ios":"levelo://app?vid=e96133eb-f771-40b1-ae3b-574adab8fad6"},"vehicle_type_id":"4","last_reported":1770053402,"current_range_meters":4800,"station_id":"ce4bho92rcd13ifvqh4g","pricing_plan_id":"cebpf4jnsgd1na2vs0mg"},{"bike_id":"ca319e52-4042-4559-98a3-1b1ef07500d1","system_id":"levelo_inurba_marseille","lat":43.30324,"lon":5.40428,"is_reserved":false,"is_disabled":false,"rental_uris":{"android":"levelo://app?vid=ca319e52-4042-4559-98a3-1b1ef07500d1","ios":"levelo://app?vid=ca319e52-4042-4559-98a3-1b1ef07500d1"},"vehicle_type_id":"4","last_reported":1770053402,"current_range_meters":4800,"station_id":"ce4bh012rcd13ifvqd10","pricing_plan_id":"cebpf4jnsgd1na2vs0mg"},{"bike_id":"8627f7e3-95b0-48aa-8d02-4dad162dfa1b","system_id":"levelo_inurba_marseille","lat":43.26553,"lon":5.37287,"is_reserved":false,"is_disabled":false,"rental_uris":{"android":"levelo://app?vid=8627f7e3-95b0-48aa-8d02-4dad162dfa1b","ios":"levelo://app?vid=8627f7e3-95b0-48aa-8d02-4dad162dfa1b"},"vehicle_type_id":"4","last_reported":1770053402,"current_range_meters":4800,"station_id":"ce4bhg12rcd13ifvqf70","pricing_plan_id":"cebpf4jnsgd1na2vs0mg"},{"bike_id":"0830e9a7-a744-43b1-8872-2a8033326e31","system_id":"levelo_inurba_marseille","lat":43.2408,"lon":5.37744,"is_reserved":false,"is_disabled":false,"rental_uris":{"android":"levelo://app?vid=0830e9a7-a744-43b1-8872-2a8033326e31","ios":"levelo://app?vid=0830e9a7-a744-43b1-8872-2a8033326e31"},"vehicle_type_id":"4","last_reported":1770053402,"current_range_meters":5600,"station_id":"ce4bhnp2rcd13ifvqgvg","pricing_plan_id":"cebpf4jnsgd1na2vs0mg"},{"bike_id":"7e8ce13a-d5d2-43d6-b821-ba3c9c440f78","system_id":"levelo_inurba_marseille","lat":43.313547,"lon":5.367134,"is_reserved":false,"is_disabled":false,"rental_uris":{"android":"levelo://app?vid=7e8ce13a-d5d2-43d6-b821-ba3c9c440f78","ios":"levelo://app?vid=7e8ce13a-d5d2-43d6-b821-ba3c9c440f78"},"vehicle_type_id":"4","last_reported":1770053402,"current_range_meters":5600,"station_id":"ce4bgr92rcd13ifvqc6g","pricing_plan_id":"cebpf4jnsgd1na2vs0mg"},{"bike_id":"caec583a-6768-49bf-a58a-63877e3b3870","system_id":"levelo_inurba_marseille","lat":43.24062,"lon":5.36374,"is_reserved":false,"is_disabled":false,"rental_uris":{"android":"levelo://app?vid=caec583a-6768-49bf-a58a-63877e3b3870","ios":"levelo://app?vid=caec583a-6768-49bf-a58a-63877e3b3870"},"vehicle_type_id":"4","last_reported":1770053402,"current_range_meters":5600,"station_id":"","pricing_plan_id":"cebpf4jnsgd1na2vs0mg"},{"bike_id":"33cfd768-2ed8-4c90-a060-322f7c560d2a","system_id":"levelo_inurba_marseille","lat":43.24828,"lon":5.38469,"is_reserved":false,"is_disabled":false,"rental_uris":{"android":"levelo://app?vid=33cfd768-2ed8-4c90-a060-322f7c560d2a","ios":"levelo://app?vid=33cfd768-2ed8-4c90-a060-322f7c560d2a"},"vehicle_type_id":"4","last_reported":1770053402,"current_range_meters":5600,"station_id":"","pricing_plan_id":"cebpf4jnsgd1na2vs0mg"},{"bike_id":"e22e1f26-0b48-4184-a7ce-d50ac63de7a5","system_id":"levelo_inurba_marseille","lat":43.22566,"lon":5.41634,"is_reserved":false,"is_disabled":false,"rental_uris":{"android":"levelo://app?vid=e22e1f26-0b48-4184-a7ce-d50ac63de7a5","ios":"levelo://app?vid=e22e1f26-0b48-4184-a7ce-d50ac63de7a5"},"vehicle_type_id":"4","last_reported":1770053402,"current_range_meters":5600,"station_id":"st_d2o4gvlbi1j2169b742g","pricing_plan_id":"cebpf4jnsgd1na2vs0mg"},{"bike_id":"8cb17e9d-6956-4db9-870e-851f50514412","system_id":"levelo_inurba_marseille","lat":43.32111,"lon":5.36772,"is_reserved":false,"is_disabled":false,"rental_uris":{"android":"levelo://app?vid=8cb17e9d-6956-4db9-870e-851f50514412","ios":"levelo://app?vid=8cb17e9d-6956-4db9-870e-851f50514412"},"vehicle_type_id":"4","last_reported":1770053402,"current_range_meters":5600,"station_id":"ce4bhrh2rcd13ifvqhug","pricing_plan_id":"cebpf4jnsgd1na2vs0mg"},{"bike_id":"56421f3f-ab50-4688-9d91-461a5a4dc039","system_id":"levelo_inurba_marseille","lat":43.29955,"lon":5.36472,"is_reserved":false,"is_disabled":false,"rental_uris":{"android":"levelo://app?vid=56421f3f-ab50-4688-9d91-461a5a4dc039","ios":"levelo://app?vid=56421f3f-ab50-4688-9d91-461a5a4dc039"},"vehicle_type_id":"4","last_reported":1770053402,"current_range_meters":5600,"station_id":"ce4bgm92rcd13ifvqbr0","pricing_plan_id":"cebpf4jnsgd1na2vs0mg"},{"bike_id":"f9dfcac1-eeee-44a9-84ce-d1427d4e1c1f","system_id":"levelo_inurba_marseille","lat":43.26791,"lon":5.39432,"is_reserved":false,"is_disabled":false,"rental_uris":{"android":"levelo://app?vid=f9dfcac1-eeee-44a9-84ce-d1427d4e1c1f","ios":"levelo://app?vid=f9dfcac1-eeee-44a9-84ce-d1427d4e1c1f"},"vehicle_type_id":"4","last_reported":1770053402,"current_range_meters":5600,"station_id":"ce4bhh12rcd13ifvqfg0","pricing_plan_id":"cebpf4jnsgd1na2vs0mg"},{"bike_id":"6c0586b2-d2df-4be0-be2b-dbdce7fdef39","system_id":"levelo_inurba_marseille","lat":43.28936,"lon":5.38404,"is_reserved":false,"is_disabled":false,"rental_uris":{"android":"levelo://app?vid=6c0586b2-d2df-4be0-be2b-dbdce7fdef39","ios":"levelo://app?vid=6c0586b2-d2df-4be0-be2b-dbdce7fdef39"},"vehicle_type_id":"4","last_reported":1770053402,"current_range_meters":5600,"station_id":"ce4bh612rcd13ifvqe6g","pricing_plan_id":"cebpf4jnsgd1na2vs0mg"},{"bike_id":"a688c20c-c1fc-427b-95f8-09d787e81d38","system_id":"levelo_inurba_marseille","lat":43.23143,"lon":5.43719,"is_reserved":false,"is_disabled":false,"rental_uris":{"android":"levelo://app?vid=a688c20c-c1fc-427b-95f8-09d787e81d38","ios":"levelo://app?vid=a688c20c-c1fc-427b-95f8-09d787e81d38"},"vehicle_type_id":"4","last_reported":1770053402,"current_range_meters":5600,"station_id":"ce4bhmp2rcd13ifvqgog","pricing_plan_id":"cebpf4jnsgd1na2vs0mg"},{"bike_id":"0c37f209-4da2-456d-badb-27f46c6c7d3c","system_id":"levelo_inurba_marseille","lat":43.30311,"lon":5.36889,"is_reserved":false,"is_disabled":false,"rental_uris":{"android":"levelo://app?vid=0c37f209-4da2-456d-badb-27f46c6c7d3c","ios":"levelo://app?vid=0c37f209-4da2-456d-badb-27f46c6c7d3c"},"vehicle_type_id":"4","last_reported":1770053402,"current_range_meters":5600,"station_id":"ce4bgqh2rcd13ifvqc5g","pricing_plan_id":"cebpf4jnsgd1na2vs0mg"},{"bike_id":"cbe5f632-f95e-4ffb-9f92-e743ffab6e3e","system_id":"levelo_inurba_marseille","lat":43.28868,"lon":5.42512,"is_reserved":false,"is_disabled":false,"rental_uris":{"android":"levelo://app?vid=cbe5f632-f95e-4ffb-9f92-e743ffab6e3e","ios":"levelo://app?vid=cbe5f632-f95e-4ffb-9f92-e743ffab6e3e"},"vehicle_type_id":"4","last_reported":1770053402,"current_range_meters":5600,"station_id":"st_d3b462108ojc7389ooeg","pricing_plan_id":"cebpf4jnsgd1na2vs0mg"},{"bike_id":"079547f6-9ece-4634-a325-d80c601692e4","system_id":"levelo_inurba_marseille","lat":43.2737,"lon":5.36259,"is_reserved":false,"is_disabled":false,"rental_uris":{"android":"levelo://app?vid=079547f6-9ece-4634-a325-d80c601692e4","ios":"levelo://app?vid=079547f6-9ece-4634-a325-d80c601692e4"},"vehicle_type_id":"4","last_reported":1770053402,"current_range_meters":5600,"station_id":"ce4bhbh2rcd13ifvqeo0","pricing_plan_id":"cebpf4jnsgd1na2vs0mg"},{"bike_id":"c266ef69-6db6-403b-bc66-e28d169430e3","system_id":"levelo_inurba_marseille","lat":43.24391,"lon":5.37077,"is_reserved":false,"is_disabled":false,"rental_uris":{"android":"levelo://app?vid=c266ef69-6db6-403b-bc66-e28d169430e3","ios":"levelo://app?vid=c266ef69-6db6-403b-bc66-e28d169430e3"},"vehicle_type_id":"4","last_reported":1770053402,"current_range_meters":5600,"station_id":"ce4bhhh2rcd13ifvqfk0","pricing_plan_id":"cebpf4jnsgd1na2vs0mg"},{"bike_id":"1b204181-222d-4067-86e4-48096500f801","system_id":"levelo_inurba_marseille","lat":43.29297,"lon":5.37165,"is_reserved":false,"is_disabled":false,"rental_uris":{"android":"levelo://app?vid=1b204181-222d-4067-86e4-48096500f801","ios":"levelo://app?vid=1b204181-222d-4067-86e4-48096500f801"},"vehicle_type_id":"4","last_reported":1770053402,"current_range_meters":6000,"station_id":"ce4bgh92rcd13ifvqb40","pricing_plan_id":"cebpf4jnsgd1na2vs0mg"},{"bike_id":"ccb5d46a-ecff-465a-9ac7-27ecb353316f","system_id":"levelo_inurba_marseille","lat":43.305402,"lon":5.365448,"is_reserved":false,"is_disabled":false,"rental_uris":{"android":"levelo://app?vid=ccb5d46a-ecff-465a-9ac7-27ecb353316f","ios":"levelo://app?vid=ccb5d46a-ecff-465a-9ac7-27ecb353316f"},"vehicle_type_id":"4","last_reported":1770053402,"current_range_meters":6000,"station_id":"ce4bgs12rcd13ifvqcag","pricing_plan_id":"cebpf4jnsgd1na2vs0mg"},{"bike_id":"3b2a0495-d056-4726-ad48-0a57214f6b42","system_id":"levelo_inurba_marseille","lat":43.31204,"lon":5.36841,"is_reserved":false,"is_disabled":false,"rental_uris":{"android":"levelo://app?vid=3b2a0495-d056-4726-ad48-0a57214f6b42","ios":"levelo://app?vid=3b2a0495-d056-4726-ad48-0a57214f6b42"},"vehicle_type_id":"4","last_reported":1770053402,"current_range_meters":6000,"station_id":"ce4bgl92rcd13ifvqbq0","pricing_plan_id":"cebpf4jnsgd1na2vs0mg"},{"bike_id":"e9aa3b92-3aba-4ae3-8119-395c95a0d91b","system_id":"levelo_inurba_marseille","lat":43.24392,"lon":5.37065,"is_reserved":false,"is_disabled":false,"rental_uris":{"android":"levelo://app?vid=e9aa3b92-3aba-4ae3-8119-395c95a0d91b","ios":"levelo://app?vid=e9aa3b92-3aba-4ae3-8119-395c95a0d91b"},"vehicle_type_id":"4","last_reported":1770053402,"current_range_meters":6000,"station_id":"ce4bhhh2rcd13ifvqfk0","pricing_plan_id":"cebpf4jnsgd1na2vs0mg"},{"bike_id":"437958b3-1fc1-421f-a410-c2cb6fec2333","system_id":"levelo_inurba_marseille","lat":43.248042,"lon":5.374558,"is_reserved":false,"is_disabled":false,"rental_uris":{"android":"levelo://app?vid=437958b3-1fc1-421f-a410-c2cb6fec2333","ios":"levelo://app?vid=437958b3-1fc1-421f-a410-c2cb6fec2333"},"vehicle_type_id":"4","last_reported":1770053402,"current_range_meters":6000,"station_id":"ce4bhgh2rcd13ifvqfb0","pricing_plan_id":"cebpf4jnsgd1na2vs0mg"},{"bike_id":"e25162d3-4d5d-419d-b20d-2ec1bcdee6fb","system_id":"levelo_inurba_marseille","lat":43.31074,"lon":5.37171,"is_reserved":false,"is_disabled":false,"rental_uris":{"android":"levelo://app?vid=e25162d3-4d5d-419d-b20d-2ec1bcdee6fb","ios":"levelo://app?vid=e25162d3-4d5d-419d-b20d-2ec1bcdee6fb"},"vehicle_type_id":"4","last_reported":1770053402,"current_range_meters":6000,"station_id":"st_d4kl2rp97mjs73e7tdfg","pricing_plan_id":"cebpf4jnsgd1na2vs0mg"},{"bike_id":"56a4d0be-bbc8-4231-9fe6-eff4b0a1d827","system_id":"levelo_inurba_marseille","lat":43.27202,"lon":5.39193,"is_reserved":false,"is_disabled":false,"rental_uris":{"android":"levelo://app?vid=56a4d0be-bbc8-4231-9fe6-eff4b0a1d827","ios":"levelo://app?vid=56a4d0be-bbc8-4231-9fe6-eff4b0a1d827"},"vehicle_type_id":"4","last_reported":1770053402,"current_range_meters":6000,"station_id":"ce4bhhp2rcd13ifvqfm0","pricing_plan_id":"cebpf4jnsgd1na2vs0mg"},{"bike_id":"dc8b8f8d-3b68-40cb-9565-8f7614c37d7f","system_id":"levelo_inurba_marseille","lat":43.255774,"lon":5.382299,"is_reserved":false,"is_disabled":false,"rental_uris":{"android":"levelo://app?vid=dc8b8f8d-3b68-40cb-9565-8f7614c37d7f","ios":"levelo://app?vid=dc8b8f8d-3b68-40cb-9565-8f7614c37d7f"},"vehicle_type_id":"4","last_reported":1770053402,"current_range_meters":6000,"station_id":"ce4bhih2rcd13ifvqfs0","pricing_plan_id":"cebpf4jnsgd1na2vs0mg"},{"bike_id":"424d0d3d-de1c-4125-82ac-0faa3cd4c48d","system_id":"levelo_inurba_marseille","lat":43.30833,"lon":5.36986,"is_reserved":false,"is_disabled":false,"rental_uris":{"android":"levelo://app?vid=424d0d3d-de1c-4125-82ac-0faa3cd4c48d","ios":"levelo://app?vid=424d0d3d-de1c-4125-82ac-0faa3cd4c48d"},"vehicle_type_id":"4","last_reported":1770053402,"current_range_meters":6000,"station_id":"","pricing_plan_id":"cebpf4jnsgd1na2vs0mg"},{"bike_id":"e9a8ad83-a2d5-4795-8073-fda176633ed6","system_id":"levelo_inurba_marseille","lat":43.26683,"lon":5.38299,"is_reserved":false,"is_disabled":false,"rental_uris":{"android":"levelo://app?vid=e9a8ad83-a2d5-4795-8073-fda176633ed6","ios":"levelo://app?vid=e9a8ad83-a2d5-4795-8073-fda176633ed6"},"vehicle_type_id":"4","last_reported":1770053402,"current_range_meters":6400,"station_id":"ce4bhg92rcd13ifvqf90","pricing_plan_id":"cebpf4jnsgd1na2vs0mg"},{"bike_id":"c20ed702-3481-4da1-8980-6cf2971f3757","system_id":"levelo_inurba_marseille","lat":43.28482,"lon":5.4841,"is_reserved":false,"is_disabled":false,"rental_uris":{"android":"levelo://app?vid=c20ed702-3481-4da1-8980-6cf2971f3757","ios":"levelo://app?vid=c20ed702-3481-4da1-8980-6cf2971f3757"},"vehicle_type_id":"4","last_reported":1770053402,"current_range_meters":6400,"station_id":"st_d3svhcjqgbts73a3dn0g","pricing_plan_id":"cebpf4jnsgd1na2vs0mg"},{"bike_id":"7b91dc79-c2d2-465d-936e-8c47a1e07166","system_id":"levelo_inurba_marseille","lat":43.28477,"lon":5.38424,"is_reserved":false,"is_disabled":false,"rental_uris":{"android":"levelo://app?vid=7b91dc79-c2d2-465d-936e-8c47a1e07166","ios":"levelo://app?vid=7b91dc79-c2d2-465d-936e-8c47a1e07166"},"vehicle_type_id":"4","last_reported":1770053402,"current_range_meters":6400,"station_id":"ce4bh512rcd13ifvqe3g","pricing_plan_id":"cebpf4jnsgd1na2vs0mg"},{"bike_id":"39500961-daa9-4e3f-ac30-77bc8fe8580f","system_id":"levelo_inurba_marseille","lat":43.27971,"lon":5.38731,"is_reserved":false,"is_disabled":false,"rental_uris":{"android":"levelo://app?vid=39500961-daa9-4e3f-ac30-77bc8fe8580f","ios":"levelo://app?vid=39500961-daa9-4e3f-ac30-77bc8fe8580f"},"vehicle_type_id":"4","last_reported":1770053402,"current_range_meters":6400,"station_id":"ce4bhg12rcd13ifvqf80","pricing_plan_id":"cebpf4jnsgd1na2vs0mg"},{"bike_id":"fda17309-67c6-493d-a11a-fed18f5561b2","system_id":"levelo_inurba_marseille","lat":43.24996,"lon":5.38919,"is_reserved":false,"is_disabled":false,"rental_uris":{"android":"levelo://app?vid=fda17309-67c6-493d-a11a-fed18f5561b2","ios":"levelo://app?vid=fda17309-67c6-493d-a11a-fed18f5561b2"},"vehicle_type_id":"4","last_reported":1770053402,"current_range_meters":6400,"station_id":"ce4bhgp2rcd13ifvqfd0","pricing_plan_id":"cebpf4jnsgd1na2vs0mg"},{"bike_id":"8e17897f-aa86-4517-a1e7-41bb2cad72b6","system_id":"levelo_inurba_marseille","lat":43.30152,"lon":5.38105,"is_reserved":false,"is_disabled":false,"rental_uris":{"android":"levelo://app?vid=8e17897f-aa86-4517-a1e7-41bb2cad72b6","ios":"levelo://app?vid=8e17897f-aa86-4517-a1e7-41bb2cad72b6"},"vehicle_type_id":"4","last_reported":1770053402,"current_range_meters":6400,"station_id":"ce4bgjp2rcd13ifvqbh0","pricing_plan_id":"cebpf4jnsgd1na2vs0mg"},{"bike_id":"325d9984-4029-4d00-8c76-8002734e01d5","system_id":"levelo_inurba_marseille","lat":43.280326,"lon":5.369406,"is_reserved":false,"is_disabled":false,"rental_uris":{"android":"levelo://app?vid=325d9984-4029-4d00-8c76-8002734e01d5","ios":"levelo://app?vid=325d9984-4029-4d00-8c76-8002734e01d5"},"vehicle_type_id":"4","last_reported":1770053402,"current_range_meters":6800,"station_id":"ce4bha12rcd13ifvqef0","pricing_plan_id":"cebpf4jnsgd1na2vs0mg"},{"bike_id":"81675ce0-40e0-484f-b5d0-d332c2114be4","system_id":"levelo_inurba_marseille","lat":43.26775,"lon":5.39424,"is_reserved":false,"is_disabled":false,"rental_uris":{"android":"levelo://app?vid=81675ce0-40e0-484f-b5d0-d332c2114be4","ios":"levelo://app?vid=81675ce0-40e0-484f-b5d0-d332c2114be4"},"vehicle_type_id":"4","last_reported":1770053402,"current_range_meters":6800,"station_id":"ce4bhh12rcd13ifvqfg0","pricing_plan_id":"cebpf4jnsgd1na2vs0mg"},{"bike_id":"b163a954-4c36-4104-b455-807b6fc9d458","system_id":"levelo_inurba_marseille","lat":43.26217,"lon":5.3743,"is_reserved":false,"is_disabled":false,"rental_uris":{"android":"levelo://app?vid=b163a954-4c36-4104-b455-807b6fc9d458","ios":"levelo://app?vid=b163a954-4c36-4104-b455-807b6fc9d458"},"vehicle_type_id":"4","last_reported":1770053402,"current_range_meters":6800,"station_id":"ce4bhgp2rcd13ifvqfc0","pricing_plan_id":"cebpf4jnsgd1na2vs0mg"},{"bike_id":"0b29bd96-af36-409b-85f4-994b381fba73","system_id":"levelo_inurba_marseille","lat":43.29891,"lon":5.38404,"is_reserved":false,"is_disabled":false,"rental_uris":{"android":"levelo://app?vid=0b29bd96-af36-409b-85f4-994b381fba73","ios":"levelo://app?vid=0b29bd96-af36-409b-85f4-994b381fba73"},"vehicle_type_id":"4","last_reported":1770053402,"current_range_meters":6800,"station_id":"","pricing_plan_id":"cebpf4jnsgd1na2vs0mg"},{"bike_id":"498925b7-5c1b-4bf1-a053-60e9a71a743b","system_id":"levelo_inurba_marseille","lat":43.2954,"lon":5.37491,"is_reserved":false,"is_disabled":false,"rental_uris":{"android":"levelo://app?vid=498925b7-5c1b-4bf1-a053-60e9a71a743b","ios":"levelo://app?vid=498925b7-5c1b-4bf1-a053-60e9a71a743b"},"vehicle_type_id":"4","last_reported":1770053402,"current_range_meters":6800,"station_id":"ce4bgkp2rcd13ifvqbmg","pricing_plan_id":"cebpf4jnsgd1na2vs0mg"},{"bike_id":"20ab15c6-cd2b-4147-ad23-6e4e82e00a52","system_id":"levelo_inurba_marseille","lat":43.26547,"lon":5.3728,"is_reserved":false,"is_disabled":false,"rental_uris":{"android":"levelo://app?vid=20ab15c6-cd2b-4147-ad23-6e4e82e00a52","ios":"levelo://app?vid=20ab15c6-cd2b-4147-ad23-6e4e82e00a52"},"vehicle_type_id":"4","last_reported":1770053402,"current_range_meters":6800,"station_id":"ce4bhg12rcd13ifvqf70","pricing_plan_id":"cebpf4jnsgd1na2vs0mg"},{"bike_id":"27c2ee02-095b-4efa-aefc-348543972b6e","system_id":"levelo_inurba_marseille","lat":43.30108,"lon":5.39072,"is_reserved":false,"is_disabled":true,"rental_uris":{"android":"levelo://app?vid=27c2ee02-095b-4efa-aefc-348543972b6e","ios":"levelo://app?vid=27c2ee02-095b-4efa-aefc-348543972b6e"},"vehicle_type_id":"4","last_reported":1770053402,"current_range_meters":6800,"station_id":"ce4bh192rcd13ifvqdb0","pricing_plan_id":"cebpf4jnsgd1na2vs0mg"},{"bike_id":"a408d5d2-5427-46e8-87f7-6b2377b7fcd5","system_id":"levelo_inurba_marseille","lat":43.2593,"lon":5.40911,"is_reserved":false,"is_disabled":false,"rental_uris":{"android":"levelo://app?vid=a408d5d2-5427-46e8-87f7-6b2377b7fcd5","ios":"levelo://app?vid=a408d5d2-5427-46e8-87f7-6b2377b7fcd5"},"vehicle_type_id":"4","last_reported":1770053402,"current_range_meters":6800,"station_id":"ce4bhm92rcd13ifvqglg","pricing_plan_id":"cebpf4jnsgd1na2vs0mg"},{"bike_id":"7e7cded1-d7df-4b4d-9ff3-49738118bd9d","system_id":"levelo_inurba_marseille","lat":43.2533,"lon":5.42164,"is_reserved":false,"is_disabled":false,"rental_uris":{"android":"levelo://app?vid=7e7cded1-d7df-4b4d-9ff3-49738118bd9d","ios":"levelo://app?vid=7e7cded1-d7df-4b4d-9ff3-49738118bd9d"},"vehicle_type_id":"4","last_reported":1770053402,"current_range_meters":6800,"station_id":"st_d2m65c5bi1j21697t3ng","pricing_plan_id":"cebpf4jnsgd1na2vs0mg"},{"bike_id":"04b51904-c5b4-44cd-8294-eb71740e98db","system_id":"levelo_inurba_marseille","lat":43.26945,"lon":5.38628,"is_reserved":false,"is_disabled":false,"rental_uris":{"android":"levelo://app?vid=04b51904-c5b4-44cd-8294-eb71740e98db","ios":"levelo://app?vid=04b51904-c5b4-44cd-8294-eb71740e98db"},"vehicle_type_id":"4","last_reported":1770053402,"current_range_meters":6800,"station_id":"ce4bhh92rcd13ifvqfh0","pricing_plan_id":"cebpf4jnsgd1na2vs0mg"},{"bike_id":"dfb7cc79-8510-46d4-921c-b52269205d9c","system_id":"levelo_inurba_marseille","lat":43.28469,"lon":5.384,"is_reserved":false,"is_disabled":false,"rental_uris":{"android":"levelo://app?vid=dfb7cc79-8510-46d4-921c-b52269205d9c","ios":"levelo://app?vid=dfb7cc79-8510-46d4-921c-b52269205d9c"},"vehicle_type_id":"4","last_reported":1770053402,"current_range_meters":6800,"station_id":"ce4bh512rcd13ifvqe3g","pricing_plan_id":"cebpf4jnsgd1na2vs0mg"},{"bike_id":"42b973b5-5123-4900-9d8b-8846d142942a","system_id":"levelo_inurba_marseille","lat":43.30409,"lon":5.41267,"is_reserved":false,"is_disabled":false,"rental_uris":{"android":"levelo://app?vid=42b973b5-5123-4900-9d8b-8846d142942a","ios":"levelo://app?vid=42b973b5-5123-4900-9d8b-8846d142942a"},"vehicle_type_id":"4","last_reported":1770053402,"current_range_meters":6800,"station_id":"ce4bhop2rcd13ifvqh8g","pricing_plan_id":"cebpf4jnsgd1na2vs0mg"},{"bike_id":"fa45b11c-493e-4e22-97ac-c56d700b1328","system_id":"levelo_inurba_marseille","lat":43.29263,"lon":5.38446,"is_reserved":false,"is_disabled":false,"rental_uris":{"android":"levelo://app?vid=fa45b11c-493e-4e22-97ac-c56d700b1328","ios":"levelo://app?vid=fa45b11c-493e-4e22-97ac-c56d700b1328"},"vehicle_type_id":"4","last_reported":1770053402,"current_range_meters":6800,"station_id":"ce4bh692rcd13ifvqea0","pricing_plan_id":"cebpf4jnsgd1na2vs0mg"},{"bike_id":"966a8ff8-5a79-46f0-8f3c-c2d11ddde5d2","system_id":"levelo_inurba_marseille","lat":43.27372,"lon":5.36242,"is_reserved":false,"is_disabled":false,"rental_uris":{"android":"levelo://app?vid=966a8ff8-5a79-46f0-8f3c-c2d11ddde5d2","ios":"levelo://app?vid=966a8ff8-5a79-46f0-8f3c-c2d11ddde5d2"},"vehicle_type_id":"4","last_reported":1770053402,"current_range_meters":7200,"station_id":"ce4bhbh2rcd13ifvqeo0","pricing_plan_id":"cebpf4jnsgd1na2vs0mg"},{"bike_id":"6e11a266-36e7-4957-9519-66b62e07609e","system_id":"levelo_inurba_marseille","lat":43.27215,"lon":5.39185,"is_reserved":false,"is_disabled":false,"rental_uris":{"android":"levelo://app?vid=6e11a266-36e7-4957-9519-66b62e07609e","ios":"levelo://app?vid=6e11a266-36e7-4957-9519-66b62e07609e"},"vehicle_type_id":"4","last_reported":1770053402,"current_range_meters":7200,"station_id":"ce4bhhp2rcd13ifvqfm0","pricing_plan_id":"cebpf4jnsgd1na2vs0mg"},{"bike_id":"b81cf0a9-60ff-4ac2-9c33-32ff258c0032","system_id":"levelo_inurba_marseille","lat":43.28412,"lon":5.34977,"is_reserved":false,"is_disabled":false,"rental_uris":{"android":"levelo://app?vid=b81cf0a9-60ff-4ac2-9c33-32ff258c0032","ios":"levelo://app?vid=b81cf0a9-60ff-4ac2-9c33-32ff258c0032"},"vehicle_type_id":"4","last_reported":1770053402,"current_range_meters":7200,"station_id":"ce4bhbh2rcd13ifvqepg","pricing_plan_id":"cebpf4jnsgd1na2vs0mg"},{"bike_id":"a8b33ee5-98b1-4b91-a976-d816491fae12","system_id":"levelo_inurba_marseille","lat":43.26773,"lon":5.39418,"is_reserved":false,"is_disabled":true,"rental_uris":{"android":"levelo://app?vid=a8b33ee5-98b1-4b91-a976-d816491fae12","ios":"levelo://app?vid=a8b33ee5-98b1-4b91-a976-d816491fae12"},"vehicle_type_id":"4","last_reported":1770053402,"current_range_meters":7200,"station_id":"ce4bhh12rcd13ifvqfg0","pricing_plan_id":"cebpf4jnsgd1na2vs0mg"},{"bike_id":"448aac68-1f9e-4017-99cd-3bab5b285023","system_id":"levelo_inurba_marseille","lat":43.27387,"lon":5.36262,"is_reserved":false,"is_disabled":false,"rental_uris":{"android":"levelo://app?vid=448aac68-1f9e-4017-99cd-3bab5b285023","ios":"levelo://app?vid=448aac68-1f9e-4017-99cd-3bab5b285023"},"vehicle_type_id":"4","last_reported":1770053402,"current_range_meters":7200,"station_id":"ce4bhbh2rcd13ifvqeo0","pricing_plan_id":"cebpf4jnsgd1na2vs0mg"},{"bike_id":"132c2e4f-f164-4506-8200-75a72b5316b3","system_id":"levelo_inurba_marseille","lat":43.22563,"lon":5.41634,"is_reserved":false,"is_disabled":false,"rental_uris":{"android":"levelo://app?vid=132c2e4f-f164-4506-8200-75a72b5316b3","ios":"levelo://app?vid=132c2e4f-f164-4506-8200-75a72b5316b3"},"vehicle_type_id":"4","last_reported":1770053402,"current_range_meters":7200,"station_id":"st_d2o4gvlbi1j2169b742g","pricing_plan_id":"cebpf4jnsgd1na2vs0mg"},{"bike_id":"f4e5f7a0-ae06-4bf2-bd65-b667cb0cc4a3","system_id":"levelo_inurba_marseille","lat":43.30932,"lon":5.40148,"is_reserved":false,"is_disabled":false,"rental_uris":{"android":"levelo://app?vid=f4e5f7a0-ae06-4bf2-bd65-b667cb0cc4a3","ios":"levelo://app?vid=f4e5f7a0-ae06-4bf2-bd65-b667cb0cc4a3"},"vehicle_type_id":"4","last_reported":1770053402,"current_range_meters":7200,"station_id":"ce4bgvp2rcd13ifvqct0","pricing_plan_id":"cebpf4jnsgd1na2vs0mg"},{"bike_id":"f8b088f0-ca1a-438b-b5e9-6417de7330aa","system_id":"levelo_inurba_marseille","lat":43.29169,"lon":5.37155,"is_reserved":false,"is_disabled":false,"rental_uris":{"android":"levelo://app?vid=f8b088f0-ca1a-438b-b5e9-6417de7330aa","ios":"levelo://app?vid=f8b088f0-ca1a-438b-b5e9-6417de7330aa"},"vehicle_type_id":"4","last_reported":1770053402,"current_range_meters":7200,"station_id":"ce4bha92rcd13ifvqeh0","pricing_plan_id":"cebpf4jnsgd1na2vs0mg"},{"bike_id":"b4b49109-c680-49e7-b78f-0963342a85a5","system_id":"levelo_inurba_marseille","lat":43.30552,"lon":5.36538,"is_reserved":false,"is_disabled":false,"rental_uris":{"android":"levelo://app?vid=b4b49109-c680-49e7-b78f-0963342a85a5","ios":"levelo://app?vid=b4b49109-c680-49e7-b78f-0963342a85a5"},"vehicle_type_id":"4","last_reported":1770053402,"current_range_meters":7200,"station_id":"ce4bgs12rcd13ifvqcag","pricing_plan_id":"cebpf4jnsgd1na2vs0mg"},{"bike_id":"225e9d09-83ee-4f1c-a930-a97429c83cb7","system_id":"levelo_inurba_marseille","lat":43.23199,"lon":5.35549,"is_reserved":false,"is_disabled":false,"rental_uris":{"android":"levelo://app?vid=225e9d09-83ee-4f1c-a930-a97429c83cb7","ios":"levelo://app?vid=225e9d09-83ee-4f1c-a930-a97429c83cb7"},"vehicle_type_id":"4","last_reported":1770053402,"current_range_meters":7200,"station_id":"ce4bhu92rcd13ifvqi70","pricing_plan_id":"cebpf4jnsgd1na2vs0mg"},{"bike_id":"6a131f0d-6128-445c-99a5-319bcf3a622a","system_id":"levelo_inurba_marseille","lat":43.28479,"lon":5.48397,"is_reserved":false,"is_disabled":false,"rental_uris":{"android":"levelo://app?vid=6a131f0d-6128-445c-99a5-319bcf3a622a","ios":"levelo://app?vid=6a131f0d-6128-445c-99a5-319bcf3a622a"},"vehicle_type_id":"4","last_reported":1770053402,"current_range_meters":7200,"station_id":"st_d3svhcjqgbts73a3dn0g","pricing_plan_id":"cebpf4jnsgd1na2vs0mg"},{"bike_id":"ae2277f7-56f5-4ced-9543-fa73149d50cc","system_id":"levelo_inurba_marseille","lat":43.2781,"lon":5.40714,"is_reserved":false,"is_disabled":false,"rental_uris":{"android":"levelo://app?vid=ae2277f7-56f5-4ced-9543-fa73149d50cc","ios":"levelo://app?vid=ae2277f7-56f5-4ced-9543-fa73149d50cc"},"vehicle_type_id":"4","last_reported":1770053402,"current_range_meters":7200,"station_id":"ce4bhnh2rcd13ifvqgtg","pricing_plan_id":"cebpf4jnsgd1na2vs0mg"},{"bike_id":"91604460-68c0-4492-894c-a238619d1f72","system_id":"levelo_inurba_marseille","lat":43.23198,"lon":5.35542,"is_reserved":false,"is_disabled":false,"rental_uris":{"android":"levelo://app?vid=91604460-68c0-4492-894c-a238619d1f72","ios":"levelo://app?vid=91604460-68c0-4492-894c-a238619d1f72"},"vehicle_type_id":"4","last_reported":1770053402,"current_range_meters":7200,"station_id":"ce4bhu92rcd13ifvqi70","pricing_plan_id":"cebpf4jnsgd1na2vs0mg"},{"bike_id":"0bcb4fb6-fda9-4d16-9b6c-9d69b9198bc6","system_id":"levelo_inurba_marseille","lat":43.27899,"lon":5.38015,"is_reserved":false,"is_disabled":false,"rental_uris":{"android":"levelo://app?vid=0bcb4fb6-fda9-4d16-9b6c-9d69b9198bc6","ios":"levelo://app?vid=0bcb4fb6-fda9-4d16-9b6c-9d69b9198bc6"},"vehicle_type_id":"4","last_reported":1770053402,"current_range_meters":8000,"station_id":"ce4bhf92rcd13ifvqf50","pricing_plan_id":"cebpf4jnsgd1na2vs0mg"},{"bike_id":"3eb507f5-718e-4314-8faf-9c68887117c4","system_id":"levelo_inurba_marseille","lat":43.23181,"lon":5.39994,"is_reserved":false,"is_disabled":false,"rental_uris":{"android":"levelo://app?vid=3eb507f5-718e-4314-8faf-9c68887117c4","ios":"levelo://app?vid=3eb507f5-718e-4314-8faf-9c68887117c4"},"vehicle_type_id":"4","last_reported":1770053402,"current_range_meters":8000,"station_id":"ce4bhn12rcd13ifvqgqg","pricing_plan_id":"cebpf4jnsgd1na2vs0mg"},{"bike_id":"f40b24a5-bf74-4433-adfa-9cc7e924510b","system_id":"levelo_inurba_marseille","lat":43.29753,"lon":5.37837,"is_reserved":false,"is_disabled":false,"rental_uris":{"android":"levelo://app?vid=f40b24a5-bf74-4433-adfa-9cc7e924510b","ios":"levelo://app?vid=f40b24a5-bf74-4433-adfa-9cc7e924510b"},"vehicle_type_id":"4","last_reported":1770053402,"current_range_meters":8000,"station_id":"","pricing_plan_id":"cebpf4jnsgd1na2vs0mg"},{"bike_id":"89dacfb9-9707-42fe-a9c8-524d3751d080","system_id":"levelo_inurba_marseille","lat":43.23139,"lon":5.43729,"is_reserved":false,"is_disabled":false,"rental_uris":{"android":"levelo://app?vid=89dacfb9-9707-42fe-a9c8-524d3751d080","ios":"levelo://app?vid=89dacfb9-9707-42fe-a9c8-524d3751d080"},"vehicle_type_id":"4","last_reported":1770053402,"current_range_meters":8000,"station_id":"ce4bhmp2rcd13ifvqgog","pricing_plan_id":"cebpf4jnsgd1na2vs0mg"},{"bike_id":"ed02cb4c-388a-4f26-a459-0831f95c479b","system_id":"levelo_inurba_marseille","lat":43.29899,"lon":5.43685,"is_reserved":false,"is_disabled":false,"rental_uris":{"android":"levelo://app?vid=ed02cb4c-388a-4f26-a459-0831f95c479b","ios":"levelo://app?vid=ed02cb4c-388a-4f26-a459-0831f95c479b"},"vehicle_type_id":"4","last_reported":1770053402,"current_range_meters":8000,"station_id":"ce4bhpp2rcd13ifvqhfg","pricing_plan_id":"cebpf4jnsgd1na2vs0mg"},{"bike_id":"f8b90001-ffd3-489f-9646-3ea4d3953b76","system_id":"levelo_inurba_marseille","lat":43.27815,"lon":5.40703,"is_reserved":false,"is_disabled":false,"rental_uris":{"android":"levelo://app?vid=f8b90001-ffd3-489f-9646-3ea4d3953b76","ios":"levelo://app?vid=f8b90001-ffd3-489f-9646-3ea4d3953b76"},"vehicle_type_id":"4","last_reported":1770053402,"current_range_meters":8000,"station_id":"ce4bhnh2rcd13ifvqgtg","pricing_plan_id":"cebpf4jnsgd1na2vs0mg"},{"bike_id":"d6ff0c2e-1b73-4afa-8f0f-7ada026e25d1","system_id":"levelo_inurba_marseille","lat":43.29478,"lon":5.376,"is_reserved":false,"is_disabled":false,"rental_uris":{"android":"levelo://app?vid=d6ff0c2e-1b73-4afa-8f0f-7ada026e25d1","ios":"levelo://app?vid=d6ff0c2e-1b73-4afa-8f0f-7ada026e25d1"},"vehicle_type_id":"4","last_reported":1770053402,"current_range_meters":8000,"station_id":"","pricing_plan_id":"cebpf4jnsgd1na2vs0mg"},{"bike_id":"4e5c6efd-dcea-4961-becc-83d25b18e244","system_id":"levelo_inurba_marseille","lat":43.267745,"lon":5.394209,"is_reserved":false,"is_disabled":false,"rental_uris":{"android":"levelo://app?vid=4e5c6efd-dcea-4961-becc-83d25b18e244","ios":"levelo://app?vid=4e5c6efd-dcea-4961-becc-83d25b18e244"},"vehicle_type_id":"4","last_reported":1770053402,"current_range_meters":8000,"station_id":"ce4bhhp2rcd13ifvqfm0","pricing_plan_id":"cebpf4jnsgd1na2vs0mg"},{"bike_id":"c9cf178d-b609-4c18-a3e7-d320be016ec5","system_id":"levelo_inurba_marseille","lat":43.25129,"lon":5.40328,"is_reserved":false,"is_disabled":false,"rental_uris":{"android":"levelo://app?vid=c9cf178d-b609-4c18-a3e7-d320be016ec5","ios":"levelo://app?vid=c9cf178d-b609-4c18-a3e7-d320be016ec5"},"vehicle_type_id":"4","last_reported":1770053402,"current_range_meters":8000,"station_id":"ce4bhlh2rcd13ifvqgig","pricing_plan_id":"cebpf4jnsgd1na2vs0mg"},{"bike_id":"ea5a711f-2b73-4543-828e-0dd0db27a325","system_id":"levelo_inurba_marseille","lat":43.28218,"lon":5.39069,"is_reserved":false,"is_disabled":false,"rental_uris":{"android":"levelo://app?vid=ea5a711f-2b73-4543-828e-0dd0db27a325","ios":"levelo://app?vid=ea5a711f-2b73-4543-828e-0dd0db27a325"},"vehicle_type_id":"4","last_reported":1770053402,"current_range_meters":8000,"station_id":"ce4bhn92rcd13ifvqgsg","pricing_plan_id":"cebpf4jnsgd1na2vs0mg"},{"bike_id":"31501dc7-77e3-431c-a348-62167c2bc1ee","system_id":"levelo_inurba_marseille","lat":43.29046,"lon":5.35915,"is_reserved":false,"is_disabled":false,"rental_uris":{"android":"levelo://app?vid=31501dc7-77e3-431c-a348-62167c2bc1ee","ios":"levelo://app?vid=31501dc7-77e3-431c-a348-62167c2bc1ee"},"vehicle_type_id":"4","last_reported":1770053402,"current_range_meters":8000,"station_id":"ce4bha92rcd13ifvqeg0","pricing_plan_id":"cebpf4jnsgd1na2vs0mg"},{"bike_id":"dd31698a-3042-473a-bd53-ac0632646f44","system_id":"levelo_inurba_marseille","lat":43.2447,"lon":5.4253,"is_reserved":false,"is_disabled":false,"rental_uris":{"android":"levelo://app?vid=dd31698a-3042-473a-bd53-ac0632646f44","ios":"levelo://app?vid=dd31698a-3042-473a-bd53-ac0632646f44"},"vehicle_type_id":"4","last_reported":1770053402,"current_range_meters":8000,"station_id":"st_d4a3vfp97mjs738cd8kg","pricing_plan_id":"cebpf4jnsgd1na2vs0mg"},{"bike_id":"9cbcf585-a58e-4938-b69e-d4c3022c57ef","system_id":"levelo_inurba_marseille","lat":43.24078,"lon":5.3774,"is_reserved":false,"is_disabled":false,"rental_uris":{"android":"levelo://app?vid=9cbcf585-a58e-4938-b69e-d4c3022c57ef","ios":"levelo://app?vid=9cbcf585-a58e-4938-b69e-d4c3022c57ef"},"vehicle_type_id":"4","last_reported":1770053402,"current_range_meters":8000,"station_id":"ce4bhnp2rcd13ifvqgvg","pricing_plan_id":"cebpf4jnsgd1na2vs0mg"},{"bike_id":"d1786d71-cdac-413b-898f-401144ede37d","system_id":"levelo_inurba_marseille","lat":43.25334,"lon":5.42173,"is_reserved":false,"is_disabled":false,"rental_uris":{"android":"levelo://app?vid=d1786d71-cdac-413b-898f-401144ede37d","ios":"levelo://app?vid=d1786d71-cdac-413b-898f-401144ede37d"},"vehicle_type_id":"4","last_reported":1770053402,"current_range_meters":8000,"station_id":"st_d2m65c5bi1j21697t3ng","pricing_plan_id":"cebpf4jnsgd1na2vs0mg"},{"bike_id":"bd4832ab-4826-48ba-b8bd-4c736bb28b7b","system_id":"levelo_inurba_marseille","lat":43.25342,"lon":5.42168,"is_reserved":false,"is_disabled":false,"rental_uris":{"android":"levelo://app?vid=bd4832ab-4826-48ba-b8bd-4c736bb28b7b","ios":"levelo://app?vid=bd4832ab-4826-48ba-b8bd-4c736bb28b7b"},"vehicle_type_id":"4","last_reported":1770053402,"current_range_meters":8000,"station_id":"st_d2m65c5bi1j21697t3ng","pricing_plan_id":"cebpf4jnsgd1na2vs0mg"},{"bike_id":"268fe22a-9224-46f0-a2b1-693126ea7a3f","system_id":"levelo_inurba_marseille","lat":43.28566,"lon":5.39493,"is_reserved":false,"is_disabled":false,"rental_uris":{"android":"levelo://app?vid=268fe22a-9224-46f0-a2b1-693126ea7a3f","ios":"levelo://app?vid=268fe22a-9224-46f0-a2b1-693126ea7a3f"},"vehicle_type_id":"4","last_reported":1770053402,"current_range_meters":8000,"station_id":"ce4bh292rcd13ifvqdg0","pricing_plan_id":"cebpf4jnsgd1na2vs0mg"},{"bike_id":"6dcbafdd-a1b9-4d04-af91-285dc70eef9b","system_id":"levelo_inurba_marseille","lat":43.21735,"lon":5.34603,"is_reserved":false,"is_disabled":false,"rental_uris":{"android":"levelo://app?vid=6dcbafdd-a1b9-4d04-af91-285dc70eef9b","ios":"levelo://app?vid=6dcbafdd-a1b9-4d04-af91-285dc70eef9b"},"vehicle_type_id":"4","last_reported":1770053402,"current_range_meters":8400,"station_id":"","pricing_plan_id":"cebpf4jnsgd1na2vs0mg"},{"bike_id":"02b06200-6f0c-4fbe-a288-f34e85c983a1","system_id":"levelo_inurba_marseille","lat":43.23794,"lon":5.36615,"is_reserved":false,"is_disabled":false,"rental_uris":{"android":"levelo://app?vid=02b06200-6f0c-4fbe-a288-f34e85c983a1","ios":"levelo://app?vid=02b06200-6f0c-4fbe-a288-f34e85c983a1"},"vehicle_type_id":"4","last_reported":1770053402,"current_range_meters":8400,"station_id":"st_d3nk18o9ro0c73en2l3g","pricing_plan_id":"cebpf4jnsgd1na2vs0mg"},{"bike_id":"10e73840-0113-4738-bebf-5ddae0627736","system_id":"levelo_inurba_marseille","lat":43.30445,"lon":5.38877,"is_reserved":false,"is_disabled":false,"rental_uris":{"android":"levelo://app?vid=10e73840-0113-4738-bebf-5ddae0627736","ios":"levelo://app?vid=10e73840-0113-4738-bebf-5ddae0627736"},"vehicle_type_id":"4","last_reported":1770053402,"current_range_meters":8400,"station_id":"ce4bgk12rcd13ifvqbi0","pricing_plan_id":"cebpf4jnsgd1na2vs0mg"},{"bike_id":"23af0394-5a4b-41c7-a956-1b9443f015ff","system_id":"levelo_inurba_marseille","lat":43.33168,"lon":5.37662,"is_reserved":false,"is_disabled":false,"rental_uris":{"android":"levelo://app?vid=23af0394-5a4b-41c7-a956-1b9443f015ff","ios":"levelo://app?vid=23af0394-5a4b-41c7-a956-1b9443f015ff"},"vehicle_type_id":"4","last_reported":1770053402,"current_range_meters":8400,"station_id":"st_d46cu089ee8s73dldbu0","pricing_plan_id":"cebpf4jnsgd1na2vs0mg"},{"bike_id":"9436c3fb-a74e-4fd5-8b2a-988e84b82382","system_id":"levelo_inurba_marseille","lat":43.2418,"lon":5.39735,"is_reserved":false,"is_disabled":false,"rental_uris":{"android":"levelo://app?vid=9436c3fb-a74e-4fd5-8b2a-988e84b82382","ios":"levelo://app?vid=9436c3fb-a74e-4fd5-8b2a-988e84b82382"},"vehicle_type_id":"4","last_reported":1770053402,"current_range_meters":8400,"station_id":"ce4bhn12rcd13ifvqgpg","pricing_plan_id":"cebpf4jnsgd1na2vs0mg"},{"bike_id":"76154380-766b-4767-81b3-83dc44f40b7b","system_id":"levelo_inurba_marseille","lat":43.33538,"lon":5.3748,"is_reserved":false,"is_disabled":false,"rental_uris":{"android":"levelo://app?vid=76154380-766b-4767-81b3-83dc44f40b7b","ios":"levelo://app?vid=76154380-766b-4767-81b3-83dc44f40b7b"},"vehicle_type_id":"4","last_reported":1770053402,"current_range_meters":8400,"station_id":"st_d46tts09ee8s73dlu43g","pricing_plan_id":"cebpf4jnsgd1na2vs0mg"},{"bike_id":"33155caa-8021-4913-a666-e828c4426fe1","system_id":"levelo_inurba_marseille","lat":43.23214,"lon":5.35543,"is_reserved":false,"is_disabled":false,"rental_uris":{"android":"levelo://app?vid=33155caa-8021-4913-a666-e828c4426fe1","ios":"levelo://app?vid=33155caa-8021-4913-a666-e828c4426fe1"},"vehicle_type_id":"4","last_reported":1770053402,"current_range_meters":8400,"station_id":"ce4bhu92rcd13ifvqi70","pricing_plan_id":"cebpf4jnsgd1na2vs0mg"},{"bike_id":"dd789ece-b6e4-4c2e-b0c1-877c84b17297","system_id":"levelo_inurba_marseille","lat":43.21194,"lon":5.35069,"is_reserved":false,"is_disabled":false,"rental_uris":{"android":"levelo://app?vid=dd789ece-b6e4-4c2e-b0c1-877c84b17297","ios":"levelo://app?vid=dd789ece-b6e4-4c2e-b0c1-877c84b17297"},"vehicle_type_id":"4","last_reported":1770053402,"current_range_meters":8400,"station_id":"st_cvj6sg6p6f1abm77japg","pricing_plan_id":"cebpf4jnsgd1na2vs0mg"},{"bike_id":"574a83f2-9408-48b4-a623-e757a86d9f2f","system_id":"levelo_inurba_marseille","lat":43.30265,"lon":5.40079,"is_reserved":false,"is_disabled":false,"rental_uris":{"android":"levelo://app?vid=574a83f2-9408-48b4-a623-e757a86d9f2f","ios":"levelo://app?vid=574a83f2-9408-48b4-a623-e757a86d9f2f"},"vehicle_type_id":"4","last_reported":1770053402,"current_range_meters":8400,"station_id":"ce4bgvh2rcd13ifvqcs0","pricing_plan_id":"cebpf4jnsgd1na2vs0mg"},{"bike_id":"5dae8e7a-771c-417a-921b-2f019b85b891","system_id":"levelo_inurba_marseille","lat":43.299028,"lon":5.436769,"is_reserved":false,"is_disabled":false,"rental_uris":{"android":"levelo://app?vid=5dae8e7a-771c-417a-921b-2f019b85b891","ios":"levelo://app?vid=5dae8e7a-771c-417a-921b-2f019b85b891"},"vehicle_type_id":"4","last_reported":1770053402,"current_range_meters":8400,"station_id":"ce4bhpp2rcd13ifvqhfg","pricing_plan_id":"cebpf4jnsgd1na2vs0mg"},{"bike_id":"23aa10f2-ced9-4cc9-b468-7f0d30263b76","system_id":"levelo_inurba_marseille","lat":43.30536,"lon":5.36531,"is_reserved":false,"is_disabled":false,"rental_uris":{"android":"levelo://app?vid=23aa10f2-ced9-4cc9-b468-7f0d30263b76","ios":"levelo://app?vid=23aa10f2-ced9-4cc9-b468-7f0d30263b76"},"vehicle_type_id":"4","last_reported":1770053402,"current_range_meters":8400,"station_id":"ce4bgs12rcd13ifvqcag","pricing_plan_id":"cebpf4jnsgd1na2vs0mg"},{"bike_id":"fb6d0c92-aa07-41c5-bb64-ff22908e7b14","system_id":"levelo_inurba_marseille","lat":43.33539,"lon":5.37447,"is_reserved":false,"is_disabled":false,"rental_uris":{"android":"levelo://app?vid=fb6d0c92-aa07-41c5-bb64-ff22908e7b14","ios":"levelo://app?vid=fb6d0c92-aa07-41c5-bb64-ff22908e7b14"},"vehicle_type_id":"4","last_reported":1770053402,"current_range_meters":8400,"station_id":"st_d46tts09ee8s73dlu43g","pricing_plan_id":"cebpf4jnsgd1na2vs0mg"},{"bike_id":"cef9edb7-4d2e-4ab7-9675-6b816e961933","system_id":"levelo_inurba_marseille","lat":43.24195,"lon":5.39667,"is_reserved":false,"is_disabled":false,"rental_uris":{"android":"levelo://app?vid=cef9edb7-4d2e-4ab7-9675-6b816e961933","ios":"levelo://app?vid=cef9edb7-4d2e-4ab7-9675-6b816e961933"},"vehicle_type_id":"4","last_reported":1770053402,"current_range_meters":8800,"station_id":"","pricing_plan_id":"cebpf4jnsgd1na2vs0mg"},{"bike_id":"b0d93303-81f2-4939-a8a5-d433286e13fa","system_id":"levelo_inurba_marseille","lat":43.27054,"lon":5.38306,"is_reserved":false,"is_disabled":false,"rental_uris":{"android":"levelo://app?vid=b0d93303-81f2-4939-a8a5-d433286e13fa","ios":"levelo://app?vid=b0d93303-81f2-4939-a8a5-d433286e13fa"},"vehicle_type_id":"4","last_reported":1770053402,"current_range_meters":8800,"station_id":"st_d3n2fo6cfp8s73cte1j0","pricing_plan_id":"cebpf4jnsgd1na2vs0mg"},{"bike_id":"5b55fa42-0f13-4a94-9258-967bb8b0300f","system_id":"levelo_inurba_marseille","lat":43.29711,"lon":5.37707,"is_reserved":false,"is_disabled":false,"rental_uris":{"android":"levelo://app?vid=5b55fa42-0f13-4a94-9258-967bb8b0300f","ios":"levelo://app?vid=5b55fa42-0f13-4a94-9258-967bb8b0300f"},"vehicle_type_id":"4","last_reported":1770053402,"current_range_meters":8800,"station_id":"ce4bgkh2rcd13ifvqbl0","pricing_plan_id":"cebpf4jnsgd1na2vs0mg"},{"bike_id":"e5039c56-5199-4176-914c-6032a6fc6ed3","system_id":"levelo_inurba_marseille","lat":43.24814,"lon":5.37437,"is_reserved":false,"is_disabled":false,"rental_uris":{"android":"levelo://app?vid=e5039c56-5199-4176-914c-6032a6fc6ed3","ios":"levelo://app?vid=e5039c56-5199-4176-914c-6032a6fc6ed3"},"vehicle_type_id":"4","last_reported":1770053402,"current_range_meters":8800,"station_id":"ce4bhgh2rcd13ifvqfb0","pricing_plan_id":"cebpf4jnsgd1na2vs0mg"},{"bike_id":"39e34071-1f76-445c-91f2-187764720849","system_id":"levelo_inurba_marseille","lat":43.21745,"lon":5.346,"is_reserved":false,"is_disabled":false,"rental_uris":{"android":"levelo://app?vid=39e34071-1f76-445c-91f2-187764720849","ios":"levelo://app?vid=39e34071-1f76-445c-91f2-187764720849"},"vehicle_type_id":"4","last_reported":1770053402,"current_range_meters":8800,"station_id":"","pricing_plan_id":"cebpf4jnsgd1na2vs0mg"},{"bike_id":"4dd6841e-e470-4207-bb73-65a47c0e81c5","system_id":"levelo_inurba_marseille","lat":43.311756,"lon":5.380274,"is_reserved":false,"is_disabled":false,"rental_uris":{"android":"levelo://app?vid=4dd6841e-e470-4207-bb73-65a47c0e81c5","ios":"levelo://app?vid=4dd6841e-e470-4207-bb73-65a47c0e81c5"},"vehicle_type_id":"4","last_reported":1770053402,"current_range_meters":8800,"station_id":"","pricing_plan_id":"cebpf4jnsgd1na2vs0mg"},{"bike_id":"9ede7f02-b7e5-4592-92c0-07143ca08c00","system_id":"levelo_inurba_marseille","lat":43.31242,"lon":5.36843,"is_reserved":false,"is_disabled":false,"rental_uris":{"android":"levelo://app?vid=9ede7f02-b7e5-4592-92c0-07143ca08c00","ios":"levelo://app?vid=9ede7f02-b7e5-4592-92c0-07143ca08c00"},"vehicle_type_id":"4","last_reported":1770053402,"current_range_meters":8800,"station_id":"ce4bgl92rcd13ifvqbq0","pricing_plan_id":"cebpf4jnsgd1na2vs0mg"},{"bike_id":"f8e7e4d9-f87a-42a2-9144-b6886b943f25","system_id":"levelo_inurba_marseille","lat":43.249984,"lon":5.38933,"is_reserved":false,"is_disabled":false,"rental_uris":{"android":"levelo://app?vid=f8e7e4d9-f87a-42a2-9144-b6886b943f25","ios":"levelo://app?vid=f8e7e4d9-f87a-42a2-9144-b6886b943f25"},"vehicle_type_id":"4","last_reported":1770053402,"current_range_meters":9200,"station_id":"ce4bhgp2rcd13ifvqfd0","pricing_plan_id":"cebpf4jnsgd1na2vs0mg"},{"bike_id":"768f9509-0c5e-4bbb-8d87-02aae8a1cda6","system_id":"levelo_inurba_marseille","lat":43.28,"lon":5.40003,"is_reserved":false,"is_disabled":false,"rental_uris":{"android":"levelo://app?vid=768f9509-0c5e-4bbb-8d87-02aae8a1cda6","ios":"levelo://app?vid=768f9509-0c5e-4bbb-8d87-02aae8a1cda6"},"vehicle_type_id":"4","last_reported":1770053402,"current_range_meters":9200,"station_id":"ce4bho92rcd13ifvqh4g","pricing_plan_id":"cebpf4jnsgd1na2vs0mg"},{"bike_id":"f29c9eca-7f54-4755-b637-531b69f02ad6","system_id":"levelo_inurba_marseille","lat":43.26294,"lon":5.3986,"is_reserved":false,"is_disabled":false,"rental_uris":{"android":"levelo://app?vid=f29c9eca-7f54-4755-b637-531b69f02ad6","ios":"levelo://app?vid=f29c9eca-7f54-4755-b637-531b69f02ad6"},"vehicle_type_id":"4","last_reported":1770053402,"current_range_meters":9200,"station_id":"","pricing_plan_id":"cebpf4jnsgd1na2vs0mg"},{"bike_id":"79534d48-e26f-4999-a98b-9bc2adced944","system_id":"levelo_inurba_marseille","lat":43.29413,"lon":5.42943,"is_reserved":false,"is_disabled":false,"rental_uris":{"android":"levelo://app?vid=79534d48-e26f-4999-a98b-9bc2adced944","ios":"levelo://app?vid=79534d48-e26f-4999-a98b-9bc2adced944"},"vehicle_type_id":"4","last_reported":1770053402,"current_range_meters":9200,"station_id":"","pricing_plan_id":"cebpf4jnsgd1na2vs0mg"},{"bike_id":"eee54609-a6c8-4bc7-a936-6a1b442519d3","system_id":"levelo_inurba_marseille","lat":43.31064,"lon":5.37184,"is_reserved":false,"is_disabled":false,"rental_uris":{"android":"levelo://app?vid=eee54609-a6c8-4bc7-a936-6a1b442519d3","ios":"levelo://app?vid=eee54609-a6c8-4bc7-a936-6a1b442519d3"},"vehicle_type_id":"4","last_reported":1770053402,"current_range_meters":9200,"station_id":"st_d4kl2rp97mjs73e7tdfg","pricing_plan_id":"cebpf4jnsgd1na2vs0mg"},{"bike_id":"62e27a91-d1f4-4b1a-b2a6-3405a804b362","system_id":"levelo_inurba_marseille","lat":43.27066,"lon":5.42274,"is_reserved":false,"is_disabled":false,"rental_uris":{"android":"levelo://app?vid=62e27a91-d1f4-4b1a-b2a6-3405a804b362","ios":"levelo://app?vid=62e27a91-d1f4-4b1a-b2a6-3405a804b362"},"vehicle_type_id":"4","last_reported":1770053402,"current_range_meters":9200,"station_id":"ce4bhk92rcd13ifvqgb0","pricing_plan_id":"cebpf4jnsgd1na2vs0mg"},{"bike_id":"9c2508a9-b968-4bec-819a-5127bc67b58d","system_id":"levelo_inurba_marseille","lat":43.28418,"lon":5.37512,"is_reserved":false,"is_disabled":true,"rental_uris":{"android":"levelo://app?vid=9c2508a9-b968-4bec-819a-5127bc67b58d","ios":"levelo://app?vid=9c2508a9-b968-4bec-819a-5127bc67b58d"},"vehicle_type_id":"4","last_reported":1770053402,"current_range_meters":9200,"station_id":"ce4bh412rcd13ifvqds0","pricing_plan_id":"cebpf4jnsgd1na2vs0mg"},{"bike_id":"8d9d214d-16a2-4854-91bf-d2caaadf9f42","system_id":"levelo_inurba_marseille","lat":43.23141,"lon":5.43705,"is_reserved":false,"is_disabled":false,"rental_uris":{"android":"levelo://app?vid=8d9d214d-16a2-4854-91bf-d2caaadf9f42","ios":"levelo://app?vid=8d9d214d-16a2-4854-91bf-d2caaadf9f42"},"vehicle_type_id":"4","last_reported":1770053402,"current_range_meters":9200,"station_id":"ce4bhmp2rcd13ifvqgog","pricing_plan_id":"cebpf4jnsgd1na2vs0mg"},{"bike_id":"51cbf713-f79b-4c2d-9d8b-9a1117324cc6","system_id":"levelo_inurba_marseille","lat":43.29002,"lon":5.35607,"is_reserved":false,"is_disabled":false,"rental_uris":{"android":"levelo://app?vid=51cbf713-f79b-4c2d-9d8b-9a1117324cc6","ios":"levelo://app?vid=51cbf713-f79b-4c2d-9d8b-9a1117324cc6"},"vehicle_type_id":"4","last_reported":1770053402,"current_range_meters":9200,"station_id":"ce4bhb92rcd13ifvqen0","pricing_plan_id":"cebpf4jnsgd1na2vs0mg"},{"bike_id":"e13e4fd6-69c7-424a-a277-aa3fe3ab93cc","system_id":"levelo_inurba_marseille","lat":43.3115,"lon":5.38715,"is_reserved":false,"is_disabled":false,"rental_uris":{"android":"levelo://app?vid=e13e4fd6-69c7-424a-a277-aa3fe3ab93cc","ios":"levelo://app?vid=e13e4fd6-69c7-424a-a277-aa3fe3ab93cc"},"vehicle_type_id":"4","last_reported":1770053402,"current_range_meters":9200,"station_id":"ce4bgv12rcd13ifvqcp0","pricing_plan_id":"cebpf4jnsgd1na2vs0mg"},{"bike_id":"67d94700-218b-4e1b-9b09-f23953a1fdd8","system_id":"levelo_inurba_marseille","lat":43.26266,"lon":5.4041,"is_reserved":false,"is_disabled":false,"rental_uris":{"android":"levelo://app?vid=67d94700-218b-4e1b-9b09-f23953a1fdd8","ios":"levelo://app?vid=67d94700-218b-4e1b-9b09-f23953a1fdd8"},"vehicle_type_id":"4","last_reported":1770053402,"current_range_meters":9200,"station_id":"","pricing_plan_id":"cebpf4jnsgd1na2vs0mg"},{"bike_id":"e9c5afc7-c303-4df3-a0d1-811595814b02","system_id":"levelo_inurba_marseille","lat":43.24069,"lon":5.37739,"is_reserved":false,"is_disabled":false,"rental_uris":{"android":"levelo://app?vid=e9c5afc7-c303-4df3-a0d1-811595814b02","ios":"levelo://app?vid=e9c5afc7-c303-4df3-a0d1-811595814b02"},"vehicle_type_id":"4","last_reported":1770053402,"current_range_meters":9200,"station_id":"ce4bhnp2rcd13ifvqgvg","pricing_plan_id":"cebpf4jnsgd1na2vs0mg"},{"bike_id":"53547880-1d53-45a5-bb5f-da3863195742","system_id":"levelo_inurba_marseille","lat":43.29549,"lon":5.37502,"is_reserved":false,"is_disabled":false,"rental_uris":{"android":"levelo://app?vid=53547880-1d53-45a5-bb5f-da3863195742","ios":"levelo://app?vid=53547880-1d53-45a5-bb5f-da3863195742"},"vehicle_type_id":"4","last_reported":1770053402,"current_range_meters":9200,"station_id":"ce4bgkp2rcd13ifvqbmg","pricing_plan_id":"cebpf4jnsgd1na2vs0mg"},{"bike_id":"67949cb0-ad73-42aa-8494-c2a7d6735f87","system_id":"levelo_inurba_marseille","lat":43.31222,"lon":5.36869,"is_reserved":false,"is_disabled":false,"rental_uris":{"android":"levelo://app?vid=67949cb0-ad73-42aa-8494-c2a7d6735f87","ios":"levelo://app?vid=67949cb0-ad73-42aa-8494-c2a7d6735f87"},"vehicle_type_id":"4","last_reported":1770053402,"current_range_meters":9600,"station_id":"ce4bgl92rcd13ifvqbq0","pricing_plan_id":"cebpf4jnsgd1na2vs0mg"},{"bike_id":"1d567b04-d4f6-4239-98d7-929537b34c88","system_id":"levelo_inurba_marseille","lat":43.29171,"lon":5.37145,"is_reserved":false,"is_disabled":false,"rental_uris":{"android":"levelo://app?vid=1d567b04-d4f6-4239-98d7-929537b34c88","ios":"levelo://app?vid=1d567b04-d4f6-4239-98d7-929537b34c88"},"vehicle_type_id":"4","last_reported":1770053402,"current_range_meters":9600,"station_id":"ce4bha92rcd13ifvqeh0","pricing_plan_id":"cebpf4jnsgd1na2vs0mg"},{"bike_id":"dca930cd-8edd-4084-aa6f-af5fb496ef62","system_id":"levelo_inurba_marseille","lat":43.25335,"lon":5.42176,"is_reserved":false,"is_disabled":false,"rental_uris":{"android":"levelo://app?vid=dca930cd-8edd-4084-aa6f-af5fb496ef62","ios":"levelo://app?vid=dca930cd-8edd-4084-aa6f-af5fb496ef62"},"vehicle_type_id":"4","last_reported":1770053402,"current_range_meters":9600,"station_id":"st_d2m65c5bi1j21697t3ng","pricing_plan_id":"cebpf4jnsgd1na2vs0mg"},{"bike_id":"eacab8c5-ae8d-4933-89ca-bb8acaba05e8","system_id":"levelo_inurba_marseille","lat":43.24789,"lon":5.3746,"is_reserved":false,"is_disabled":false,"rental_uris":{"android":"levelo://app?vid=eacab8c5-ae8d-4933-89ca-bb8acaba05e8","ios":"levelo://app?vid=eacab8c5-ae8d-4933-89ca-bb8acaba05e8"},"vehicle_type_id":"4","last_reported":1770053402,"current_range_meters":9600,"station_id":"ce4bhgh2rcd13ifvqfb0","pricing_plan_id":"cebpf4jnsgd1na2vs0mg"},{"bike_id":"db4a7c18-fb00-49e4-812f-82d588271c3d","system_id":"levelo_inurba_marseille","lat":43.29894,"lon":5.37494,"is_reserved":false,"is_disabled":false,"rental_uris":{"android":"levelo://app?vid=db4a7c18-fb00-49e4-812f-82d588271c3d","ios":"levelo://app?vid=db4a7c18-fb00-49e4-812f-82d588271c3d"},"vehicle_type_id":"4","last_reported":1770053402,"current_range_meters":9600,"station_id":"ce4bgjh2rcd13ifvqbg0","pricing_plan_id":"cebpf4jnsgd1na2vs0mg"},{"bike_id":"2c0bc4db-f557-470b-bd8a-9520318620b0","system_id":"levelo_inurba_marseille","lat":43.28415,"lon":5.34994,"is_reserved":false,"is_disabled":false,"rental_uris":{"android":"levelo://app?vid=2c0bc4db-f557-470b-bd8a-9520318620b0","ios":"levelo://app?vid=2c0bc4db-f557-470b-bd8a-9520318620b0"},"vehicle_type_id":"4","last_reported":1770053402,"current_range_meters":9600,"station_id":"ce4bhbh2rcd13ifvqepg","pricing_plan_id":"cebpf4jnsgd1na2vs0mg"},{"bike_id":"3ce871a0-823d-47d6-87f8-8ef4cc2a6659","system_id":"levelo_inurba_marseille","lat":43.26368,"lon":5.41079,"is_reserved":false,"is_disabled":false,"rental_uris":{"android":"levelo://app?vid=3ce871a0-823d-47d6-87f8-8ef4cc2a6659","ios":"levelo://app?vid=3ce871a0-823d-47d6-87f8-8ef4cc2a6659"},"vehicle_type_id":"4","last_reported":1770053402,"current_range_meters":9600,"station_id":"st_d4e5ca6na9uc73bfl5fg","pricing_plan_id":"cebpf4jnsgd1na2vs0mg"},{"bike_id":"6ddf7e79-fc33-436a-9f2e-0297899e5607","system_id":"levelo_inurba_marseille","lat":43.28468,"lon":5.48392,"is_reserved":false,"is_disabled":false,"rental_uris":{"android":"levelo://app?vid=6ddf7e79-fc33-436a-9f2e-0297899e5607","ios":"levelo://app?vid=6ddf7e79-fc33-436a-9f2e-0297899e5607"},"vehicle_type_id":"4","last_reported":1770053402,"current_range_meters":9600,"station_id":"st_d3svhcjqgbts73a3dn0g","pricing_plan_id":"cebpf4jnsgd1na2vs0mg"},{"bike_id":"15b7d625-95d6-48b2-bd3c-37b6ba529106","system_id":"levelo_inurba_marseille","lat":43.29519,"lon":5.38533,"is_reserved":false,"is_disabled":false,"rental_uris":{"android":"levelo://app?vid=15b7d625-95d6-48b2-bd3c-37b6ba529106","ios":"levelo://app?vid=15b7d625-95d6-48b2-bd3c-37b6ba529106"},"vehicle_type_id":"4","last_reported":1770053402,"current_range_meters":9600,"station_id":"ce4bgih2rcd13ifvqba0","pricing_plan_id":"cebpf4jnsgd1na2vs0mg"},{"bike_id":"be616c8a-7d9f-44f2-9914-b719781dfdee","system_id":"levelo_inurba_marseille","lat":43.23982,"lon":5.36608,"is_reserved":false,"is_disabled":false,"rental_uris":{"android":"levelo://app?vid=be616c8a-7d9f-44f2-9914-b719781dfdee","ios":"levelo://app?vid=be616c8a-7d9f-44f2-9914-b719781dfdee"},"vehicle_type_id":"4","last_reported":1770053402,"current_range_meters":9600,"station_id":"ce4bhi12rcd13ifvqfp0","pricing_plan_id":"cebpf4jnsgd1na2vs0mg"},{"bike_id":"37c558c9-e355-4c5f-95d4-4edef0566b9c","system_id":"levelo_inurba_marseille","lat":43.2463,"lon":5.38164,"is_reserved":false,"is_disabled":false,"rental_uris":{"android":"levelo://app?vid=37c558c9-e355-4c5f-95d4-4edef0566b9c","ios":"levelo://app?vid=37c558c9-e355-4c5f-95d4-4edef0566b9c"},"vehicle_type_id":"4","last_reported":1770053402,"current_range_meters":9600,"station_id":"ce4bhih2rcd13ifvqfr0","pricing_plan_id":"cebpf4jnsgd1na2vs0mg"},{"bike_id":"5b3811ef-5681-4c18-aac4-a62920f9a85c","system_id":"levelo_inurba_marseille","lat":43.28474,"lon":5.51499,"is_reserved":false,"is_disabled":false,"rental_uris":{"android":"levelo://app?vid=5b3811ef-5681-4c18-aac4-a62920f9a85c","ios":"levelo://app?vid=5b3811ef-5681-4c18-aac4-a62920f9a85c"},"vehicle_type_id":"4","last_reported":1770053402,"current_range_meters":9600,"station_id":"","pricing_plan_id":"cebpf4jnsgd1na2vs0mg"},{"bike_id":"34e4497e-004e-4d33-b563-df43c3f1dff0","system_id":"levelo_inurba_marseille","lat":43.29148,"lon":5.38815,"is_reserved":false,"is_disabled":false,"rental_uris":{"android":"levelo://app?vid=34e4497e-004e-4d33-b563-df43c3f1dff0","ios":"levelo://app?vid=34e4497e-004e-4d33-b563-df43c3f1dff0"},"vehicle_type_id":"4","last_reported":1770053402,"current_range_meters":9600,"station_id":"ce4bh4p2rcd13ifvqe0g","pricing_plan_id":"cebpf4jnsgd1na2vs0mg"},{"bike_id":"1bff195f-878b-4a6e-8675-61979ef9dcf7","system_id":"levelo_inurba_marseille","lat":43.2321,"lon":5.35547,"is_reserved":false,"is_disabled":false,"rental_uris":{"android":"levelo://app?vid=1bff195f-878b-4a6e-8675-61979ef9dcf7","ios":"levelo://app?vid=1bff195f-878b-4a6e-8675-61979ef9dcf7"},"vehicle_type_id":"4","last_reported":1770053402,"current_range_meters":9600,"station_id":"ce4bhu92rcd13ifvqi70","pricing_plan_id":"cebpf4jnsgd1na2vs0mg"},{"bike_id":"405ea4a7-897c-4c33-b952-8c30fed84872","system_id":"levelo_inurba_marseille","lat":43.28483,"lon":5.38445,"is_reserved":false,"is_disabled":false,"rental_uris":{"android":"levelo://app?vid=405ea4a7-897c-4c33-b952-8c30fed84872","ios":"levelo://app?vid=405ea4a7-897c-4c33-b952-8c30fed84872"},"vehicle_type_id":"4","last_reported":1770053402,"current_range_meters":9600,"station_id":"ce4bh512rcd13ifvqe3g","pricing_plan_id":"cebpf4jnsgd1na2vs0mg"},{"bike_id":"032d1622-f10e-4e31-9323-899def03e537","system_id":"levelo_inurba_marseille","lat":43.31053,"lon":5.37205,"is_reserved":false,"is_disabled":true,"rental_uris":{"android":"levelo://app?vid=032d1622-f10e-4e31-9323-899def03e537","ios":"levelo://app?vid=032d1622-f10e-4e31-9323-899def03e537"},"vehicle_type_id":"4","last_reported":1770053402,"current_range_meters":9600,"station_id":"st_d4kl2rp97mjs73e7tdfg","pricing_plan_id":"cebpf4jnsgd1na2vs0mg"},{"bike_id":"8300bb2e-96f4-4e9e-92a9-a4d1e04694a4","system_id":"levelo_inurba_marseille","lat":43.23131,"lon":5.43704,"is_reserved":false,"is_disabled":false,"rental_uris":{"android":"levelo://app?vid=8300bb2e-96f4-4e9e-92a9-a4d1e04694a4","ios":"levelo://app?vid=8300bb2e-96f4-4e9e-92a9-a4d1e04694a4"},"vehicle_type_id":"4","last_reported":1770053402,"current_range_meters":10000,"station_id":"ce4bhmp2rcd13ifvqgog","pricing_plan_id":"cebpf4jnsgd1na2vs0mg"},{"bike_id":"fd4003f9-ae57-43d9-af54-09e855d38b22","system_id":"levelo_inurba_marseille","lat":43.28509,"lon":5.44075,"is_reserved":false,"is_disabled":false,"rental_uris":{"android":"levelo://app?vid=fd4003f9-ae57-43d9-af54-09e855d38b22","ios":"levelo://app?vid=fd4003f9-ae57-43d9-af54-09e855d38b22"},"vehicle_type_id":"4","last_reported":1770053402,"current_range_meters":10000,"station_id":"st_d3j3df2ikq2c7380ej80","pricing_plan_id":"cebpf4jnsgd1na2vs0mg"},{"bike_id":"a85b5e73-ec08-49d2-9ea4-c79d37344fd2","system_id":"levelo_inurba_marseille","lat":43.23179,"lon":5.39989,"is_reserved":false,"is_disabled":false,"rental_uris":{"android":"levelo://app?vid=a85b5e73-ec08-49d2-9ea4-c79d37344fd2","ios":"levelo://app?vid=a85b5e73-ec08-49d2-9ea4-c79d37344fd2"},"vehicle_type_id":"4","last_reported":1770053402,"current_range_meters":10000,"station_id":"ce4bhn12rcd13ifvqgqg","pricing_plan_id":"cebpf4jnsgd1na2vs0mg"},{"bike_id":"c3ba0fed-3d29-4191-b8a3-c899b1e9e5ad","system_id":"levelo_inurba_marseille","lat":43.25584,"lon":5.38221,"is_reserved":false,"is_disabled":false,"rental_uris":{"android":"levelo://app?vid=c3ba0fed-3d29-4191-b8a3-c899b1e9e5ad","ios":"levelo://app?vid=c3ba0fed-3d29-4191-b8a3-c899b1e9e5ad"},"vehicle_type_id":"4","last_reported":1770053402,"current_range_meters":10000,"station_id":"ce4bhih2rcd13ifvqfs0","pricing_plan_id":"cebpf4jnsgd1na2vs0mg"},{"bike_id":"68d2a9d1-2044-4f9c-8e7b-e4d9640d90af","system_id":"levelo_inurba_marseille","lat":43.2971,"lon":5.37957,"is_reserved":false,"is_disabled":false,"rental_uris":{"android":"levelo://app?vid=68d2a9d1-2044-4f9c-8e7b-e4d9640d90af","ios":"levelo://app?vid=68d2a9d1-2044-4f9c-8e7b-e4d9640d90af"},"vehicle_type_id":"4","last_reported":1770053402,"current_range_meters":10000,"station_id":"","pricing_plan_id":"cebpf4jnsgd1na2vs0mg"},{"bike_id":"cc7be9e8-a1a0-4f68-8d42-c70d6cdd5d6b","system_id":"levelo_inurba_marseille","lat":43.29546,"lon":5.42282,"is_reserved":false,"is_disabled":false,"rental_uris":{"android":"levelo://app?vid=cc7be9e8-a1a0-4f68-8d42-c70d6cdd5d6b","ios":"levelo://app?vid=cc7be9e8-a1a0-4f68-8d42-c70d6cdd5d6b"},"vehicle_type_id":"4","last_reported":1770053402,"current_range_meters":10000,"station_id":"ce4bhph2rcd13ifvqhdg","pricing_plan_id":"cebpf4jnsgd1na2vs0mg"},{"bike_id":"d8f75e99-ba00-40c8-80cf-c176d6cf7eca","system_id":"levelo_inurba_marseille","lat":43.25343,"lon":5.42163,"is_reserved":false,"is_disabled":false,"rental_uris":{"android":"levelo://app?vid=d8f75e99-ba00-40c8-80cf-c176d6cf7eca","ios":"levelo://app?vid=d8f75e99-ba00-40c8-80cf-c176d6cf7eca"},"vehicle_type_id":"4","last_reported":1770053402,"current_range_meters":10000,"station_id":"st_d2m65c5bi1j21697t3ng","pricing_plan_id":"cebpf4jnsgd1na2vs0mg"},{"bike_id":"8549a1d1-68eb-4349-9b09-4c0cf211ff20","system_id":"levelo_inurba_marseille","lat":43.29941,"lon":5.36552,"is_reserved":false,"is_disabled":false,"rental_uris":{"android":"levelo://app?vid=8549a1d1-68eb-4349-9b09-4c0cf211ff20","ios":"levelo://app?vid=8549a1d1-68eb-4349-9b09-4c0cf211ff20"},"vehicle_type_id":"4","last_reported":1770053402,"current_range_meters":10000,"station_id":"ce4bgm92rcd13ifvqbr0","pricing_plan_id":"cebpf4jnsgd1na2vs0mg"},{"bike_id":"18d1a03c-71f9-47bc-804b-7e0c3eef0ad0","system_id":"levelo_inurba_marseille","lat":43.30127,"lon":5.43124,"is_reserved":false,"is_disabled":false,"rental_uris":{"android":"levelo://app?vid=18d1a03c-71f9-47bc-804b-7e0c3eef0ad0","ios":"levelo://app?vid=18d1a03c-71f9-47bc-804b-7e0c3eef0ad0"},"vehicle_type_id":"4","last_reported":1770053402,"current_range_meters":10000,"station_id":"st_d3js3co5814s73ftftug","pricing_plan_id":"cebpf4jnsgd1na2vs0mg"},{"bike_id":"1a417a36-61bc-4d49-8606-730a4cad721e","system_id":"levelo_inurba_marseille","lat":43.23184,"lon":5.39991,"is_reserved":false,"is_disabled":false,"rental_uris":{"android":"levelo://app?vid=1a417a36-61bc-4d49-8606-730a4cad721e","ios":"levelo://app?vid=1a417a36-61bc-4d49-8606-730a4cad721e"},"vehicle_type_id":"4","last_reported":1770053402,"current_range_meters":10000,"station_id":"ce4bhn12rcd13ifvqgqg","pricing_plan_id":"cebpf4jnsgd1na2vs0mg"},{"bike_id":"549d637b-91c5-48ec-83fa-865a463b6a4b","system_id":"levelo_inurba_marseille","lat":43.23189,"lon":5.35546,"is_reserved":false,"is_disabled":false,"rental_uris":{"android":"levelo://app?vid=549d637b-91c5-48ec-83fa-865a463b6a4b","ios":"levelo://app?vid=549d637b-91c5-48ec-83fa-865a463b6a4b"},"vehicle_type_id":"4","last_reported":1770053402,"current_range_meters":10000,"station_id":"ce4bhu92rcd13ifvqi70","pricing_plan_id":"cebpf4jnsgd1na2vs0mg"},{"bike_id":"508184f0-135f-49d1-bcc3-b822439bcb8b","system_id":"levelo_inurba_marseille","lat":43.29072,"lon":5.37151,"is_reserved":false,"is_disabled":false,"rental_uris":{"android":"levelo://app?vid=508184f0-135f-49d1-bcc3-b822439bcb8b","ios":"levelo://app?vid=508184f0-135f-49d1-bcc3-b822439bcb8b"},"vehicle_type_id":"4","last_reported":1770053402,"current_range_meters":10000,"station_id":"ce4bh5p2rcd13ifvqe4g","pricing_plan_id":"cebpf4jnsgd1na2vs0mg"},{"bike_id":"deb9e4eb-a481-4dbd-9838-7e21c4114a77","system_id":"levelo_inurba_marseille","lat":43.24627,"lon":5.38909,"is_reserved":false,"is_disabled":false,"rental_uris":{"android":"levelo://app?vid=deb9e4eb-a481-4dbd-9838-7e21c4114a77","ios":"levelo://app?vid=deb9e4eb-a481-4dbd-9838-7e21c4114a77"},"vehicle_type_id":"4","last_reported":1770053402,"current_range_meters":10000,"station_id":"ce4bhg12rcd13ifvqf60","pricing_plan_id":"cebpf4jnsgd1na2vs0mg"},{"bike_id":"3569da63-0b48-4841-b274-112e94db4379","system_id":"levelo_inurba_marseille","lat":43.25109,"lon":5.40321,"is_reserved":false,"is_disabled":false,"rental_uris":{"android":"levelo://app?vid=3569da63-0b48-4841-b274-112e94db4379","ios":"levelo://app?vid=3569da63-0b48-4841-b274-112e94db4379"},"vehicle_type_id":"4","last_reported":1770053402,"current_range_meters":10000,"station_id":"ce4bhlh2rcd13ifvqgig","pricing_plan_id":"cebpf4jnsgd1na2vs0mg"},{"bike_id":"6648b726-248a-4235-8962-e02d3f57c3f3","system_id":"levelo_inurba_marseille","lat":43.25012,"lon":5.38922,"is_reserved":false,"is_disabled":false,"rental_uris":{"android":"levelo://app?vid=6648b726-248a-4235-8962-e02d3f57c3f3","ios":"levelo://app?vid=6648b726-248a-4235-8962-e02d3f57c3f3"},"vehicle_type_id":"4","last_reported":1770053402,"current_range_meters":10000,"station_id":"ce4bhgp2rcd13ifvqfd0","pricing_plan_id":"cebpf4jnsgd1na2vs0mg"},{"bike_id":"c04d02e9-4522-4664-80d1-72f19e30f66b","system_id":"levelo_inurba_marseille","lat":43.25303,"lon":5.38586,"is_reserved":false,"is_disabled":false,"rental_uris":{"android":"levelo://app?vid=c04d02e9-4522-4664-80d1-72f19e30f66b","ios":"levelo://app?vid=c04d02e9-4522-4664-80d1-72f19e30f66b"},"vehicle_type_id":"4","last_reported":1770053402,"current_range_meters":10000,"station_id":"","pricing_plan_id":"cebpf4jnsgd1na2vs0mg"},{"bike_id":"d8c7b124-676f-4316-be18-e08999af3291","system_id":"levelo_inurba_marseille","lat":43.28361,"lon":5.38634,"is_reserved":false,"is_disabled":false,"rental_uris":{"android":"levelo://app?vid=d8c7b124-676f-4316-be18-e08999af3291","ios":"levelo://app?vid=d8c7b124-676f-4316-be18-e08999af3291"},"vehicle_type_id":"4","last_reported":1770053402,"current_range_meters":10000,"station_id":"ce4bh492rcd13ifvqdvg","pricing_plan_id":"cebpf4jnsgd1na2vs0mg"},{"bike_id":"90cafb22-43f6-47bb-9e80-c8fa9891709f","system_id":"levelo_inurba_marseille","lat":43.26202,"lon":5.37919,"is_reserved":false,"is_disabled":false,"rental_uris":{"android":"levelo://app?vid=90cafb22-43f6-47bb-9e80-c8fa9891709f","ios":"levelo://app?vid=90cafb22-43f6-47bb-9e80-c8fa9891709f"},"vehicle_type_id":"4","last_reported":1770053402,"current_range_meters":10800,"station_id":"ce4bhjp2rcd13ifvqg90","pricing_plan_id":"cebpf4jnsgd1na2vs0mg"},{"bike_id":"d546fffc-a24b-47f2-83bb-918a57fc3fa5","system_id":"levelo_inurba_marseille","lat":43.29772,"lon":5.38098,"is_reserved":false,"is_disabled":false,"rental_uris":{"android":"levelo://app?vid=d546fffc-a24b-47f2-83bb-918a57fc3fa5","ios":"levelo://app?vid=d546fffc-a24b-47f2-83bb-918a57fc3fa5"},"vehicle_type_id":"4","last_reported":1770053402,"current_range_meters":10800,"station_id":"ce4bgip2rcd13ifvqbb0","pricing_plan_id":"cebpf4jnsgd1na2vs0mg"},{"bike_id":"3b15ef1d-d491-4377-b134-a5b139ed4414","system_id":"levelo_inurba_marseille","lat":43.294,"lon":5.37411,"is_reserved":false,"is_disabled":false,"rental_uris":{"android":"levelo://app?vid=3b15ef1d-d491-4377-b134-a5b139ed4414","ios":"levelo://app?vid=3b15ef1d-d491-4377-b134-a5b139ed4414"},"vehicle_type_id":"4","last_reported":1770053402,"current_range_meters":10800,"station_id":"","pricing_plan_id":"cebpf4jnsgd1na2vs0mg"},{"bike_id":"492bbe2c-b177-4e84-a708-afdd6158ecf7","system_id":"levelo_inurba_marseille","lat":43.30945,"lon":5.40138,"is_reserved":false,"is_disabled":false,"rental_uris":{"android":"levelo://app?vid=492bbe2c-b177-4e84-a708-afdd6158ecf7","ios":"levelo://app?vid=492bbe2c-b177-4e84-a708-afdd6158ecf7"},"vehicle_type_id":"4","last_reported":1770053402,"current_range_meters":10800,"station_id":"ce4bgvp2rcd13ifvqct0","pricing_plan_id":"cebpf4jnsgd1na2vs0mg"},{"bike_id":"ba3390f5-14ed-4160-abcf-8bea19885613","system_id":"levelo_inurba_marseille","lat":43.28479,"lon":5.48391,"is_reserved":false,"is_disabled":false,"rental_uris":{"android":"levelo://app?vid=ba3390f5-14ed-4160-abcf-8bea19885613","ios":"levelo://app?vid=ba3390f5-14ed-4160-abcf-8bea19885613"},"vehicle_type_id":"4","last_reported":1770053402,"current_range_meters":10800,"station_id":"st_d3svhcjqgbts73a3dn0g","pricing_plan_id":"cebpf4jnsgd1na2vs0mg"},{"bike_id":"454ec198-d273-438b-b7dc-8d61915cb03a","system_id":"levelo_inurba_marseille","lat":43.23147,"lon":5.43729,"is_reserved":false,"is_disabled":false,"rental_uris":{"android":"levelo://app?vid=454ec198-d273-438b-b7dc-8d61915cb03a","ios":"levelo://app?vid=454ec198-d273-438b-b7dc-8d61915cb03a"},"vehicle_type_id":"4","last_reported":1770053402,"current_range_meters":10800,"station_id":"ce4bhmp2rcd13ifvqgog","pricing_plan_id":"cebpf4jnsgd1na2vs0mg"},{"bike_id":"b886faeb-2ae5-4849-a4c7-c906741f8bf1","system_id":"levelo_inurba_marseille","lat":43.26574,"lon":5.40322,"is_reserved":false,"is_disabled":false,"rental_uris":{"android":"levelo://app?vid=b886faeb-2ae5-4849-a4c7-c906741f8bf1","ios":"levelo://app?vid=b886faeb-2ae5-4849-a4c7-c906741f8bf1"},"vehicle_type_id":"4","last_reported":1770053402,"current_range_meters":10800,"station_id":"ce4bhmp2rcd13ifvqgng","pricing_plan_id":"cebpf4jnsgd1na2vs0mg"},{"bike_id":"eb162501-6ef8-45e8-b715-951218fb1482","system_id":"levelo_inurba_marseille","lat":43.24076,"lon":5.3774,"is_reserved":false,"is_disabled":false,"rental_uris":{"android":"levelo://app?vid=eb162501-6ef8-45e8-b715-951218fb1482","ios":"levelo://app?vid=eb162501-6ef8-45e8-b715-951218fb1482"},"vehicle_type_id":"4","last_reported":1770053402,"current_range_meters":10800,"station_id":"ce4bhnp2rcd13ifvqgvg","pricing_plan_id":"cebpf4jnsgd1na2vs0mg"},{"bike_id":"db2ab0f1-6ab6-4fcf-bf0c-47adcb722970","system_id":"levelo_inurba_marseille","lat":43.2637,"lon":5.41056,"is_reserved":false,"is_disabled":false,"rental_uris":{"android":"levelo://app?vid=db2ab0f1-6ab6-4fcf-bf0c-47adcb722970","ios":"levelo://app?vid=db2ab0f1-6ab6-4fcf-bf0c-47adcb722970"},"vehicle_type_id":"4","last_reported":1770053402,"current_range_meters":10800,"station_id":"st_d4e5ca6na9uc73bfl5fg","pricing_plan_id":"cebpf4jnsgd1na2vs0mg"},{"bike_id":"1e18de4d-43f8-4d9b-8e22-41974ddf36d0","system_id":"levelo_inurba_marseille","lat":43.33536,"lon":5.37406,"is_reserved":false,"is_disabled":false,"rental_uris":{"android":"levelo://app?vid=1e18de4d-43f8-4d9b-8e22-41974ddf36d0","ios":"levelo://app?vid=1e18de4d-43f8-4d9b-8e22-41974ddf36d0"},"vehicle_type_id":"4","last_reported":1770053402,"current_range_meters":10800,"station_id":"","pricing_plan_id":"cebpf4jnsgd1na2vs0mg"},{"bike_id":"7409e760-85b4-4fbe-9ac1-c71657f4de83","system_id":"levelo_inurba_marseille","lat":43.2498,"lon":5.38908,"is_reserved":false,"is_disabled":false,"rental_uris":{"android":"levelo://app?vid=7409e760-85b4-4fbe-9ac1-c71657f4de83","ios":"levelo://app?vid=7409e760-85b4-4fbe-9ac1-c71657f4de83"},"vehicle_type_id":"4","last_reported":1770053402,"current_range_meters":10800,"station_id":"ce4bhgp2rcd13ifvqfd0","pricing_plan_id":"cebpf4jnsgd1na2vs0mg"},{"bike_id":"7bc3df38-9791-4650-8af3-6c26288c972c","system_id":"levelo_inurba_marseille","lat":43.30501,"lon":5.39862,"is_reserved":false,"is_disabled":false,"rental_uris":{"android":"levelo://app?vid=7bc3df38-9791-4650-8af3-6c26288c972c","ios":"levelo://app?vid=7bc3df38-9791-4650-8af3-6c26288c972c"},"vehicle_type_id":"4","last_reported":1770053402,"current_range_meters":10800,"station_id":"","pricing_plan_id":"cebpf4jnsgd1na2vs0mg"},{"bike_id":"53ffb5c2-3e2a-4a17-b03a-29d28fb95024","system_id":"levelo_inurba_marseille","lat":43.29898,"lon":5.43664,"is_reserved":false,"is_disabled":false,"rental_uris":{"android":"levelo://app?vid=53ffb5c2-3e2a-4a17-b03a-29d28fb95024","ios":"levelo://app?vid=53ffb5c2-3e2a-4a17-b03a-29d28fb95024"},"vehicle_type_id":"4","last_reported":1770053402,"current_range_meters":10800,"station_id":"ce4bhpp2rcd13ifvqhfg","pricing_plan_id":"cebpf4jnsgd1na2vs0mg"},{"bike_id":"98fce53e-2f71-43cb-b9de-a1e78e7dc72e","system_id":"levelo_inurba_marseille","lat":43.23182,"lon":5.4002,"is_reserved":false,"is_disabled":false,"rental_uris":{"android":"levelo://app?vid=98fce53e-2f71-43cb-b9de-a1e78e7dc72e","ios":"levelo://app?vid=98fce53e-2f71-43cb-b9de-a1e78e7dc72e"},"vehicle_type_id":"4","last_reported":1770053402,"current_range_meters":11200,"station_id":"ce4bhn12rcd13ifvqgqg","pricing_plan_id":"cebpf4jnsgd1na2vs0mg"},{"bike_id":"d8713cd3-8269-4863-9601-8c0f629eacef","system_id":"levelo_inurba_marseille","lat":43.24677,"lon":5.38142,"is_reserved":false,"is_disabled":false,"rental_uris":{"android":"levelo://app?vid=d8713cd3-8269-4863-9601-8c0f629eacef","ios":"levelo://app?vid=d8713cd3-8269-4863-9601-8c0f629eacef"},"vehicle_type_id":"4","last_reported":1770053402,"current_range_meters":11200,"station_id":"ce4bhih2rcd13ifvqfr0","pricing_plan_id":"cebpf4jnsgd1na2vs0mg"},{"bike_id":"7f77f6a6-911c-44cf-97f5-71224b3633e0","system_id":"levelo_inurba_marseille","lat":43.252334,"lon":5.380103,"is_reserved":false,"is_disabled":false,"rental_uris":{"android":"levelo://app?vid=7f77f6a6-911c-44cf-97f5-71224b3633e0","ios":"levelo://app?vid=7f77f6a6-911c-44cf-97f5-71224b3633e0"},"vehicle_type_id":"4","last_reported":1770053402,"current_range_meters":11200,"station_id":"","pricing_plan_id":"cebpf4jnsgd1na2vs0mg"},{"bike_id":"658d0b20-6292-4d6c-85b2-b3938e69fd12","system_id":"levelo_inurba_marseille","lat":43.28266,"lon":5.38577,"is_reserved":false,"is_disabled":false,"rental_uris":{"android":"levelo://app?vid=658d0b20-6292-4d6c-85b2-b3938e69fd12","ios":"levelo://app?vid=658d0b20-6292-4d6c-85b2-b3938e69fd12"},"vehicle_type_id":"4","last_reported":1770053402,"current_range_meters":11200,"station_id":"","pricing_plan_id":"cebpf4jnsgd1na2vs0mg"},{"bike_id":"ef30bb24-f45f-400c-9967-a2a3b2da1488","system_id":"levelo_inurba_marseille","lat":43.28281,"lon":5.39421,"is_reserved":false,"is_disabled":false,"rental_uris":{"android":"levelo://app?vid=ef30bb24-f45f-400c-9967-a2a3b2da1488","ios":"levelo://app?vid=ef30bb24-f45f-400c-9967-a2a3b2da1488"},"vehicle_type_id":"4","last_reported":1770053402,"current_range_meters":11200,"station_id":"","pricing_plan_id":"cebpf4jnsgd1na2vs0mg"},{"bike_id":"530b3fec-7af4-45eb-bf12-cc02b58eae44","system_id":"levelo_inurba_marseille","lat":43.24654,"lon":5.38159,"is_reserved":false,"is_disabled":false,"rental_uris":{"android":"levelo://app?vid=530b3fec-7af4-45eb-bf12-cc02b58eae44","ios":"levelo://app?vid=530b3fec-7af4-45eb-bf12-cc02b58eae44"},"vehicle_type_id":"4","last_reported":1770053402,"current_range_meters":11200,"station_id":"ce4bhih2rcd13ifvqfr0","pricing_plan_id":"cebpf4jnsgd1na2vs0mg"},{"bike_id":"004217b9-d0df-4be3-b36e-32cfa6b0fb50","system_id":"levelo_inurba_marseille","lat":43.2464,"lon":5.43142,"is_reserved":false,"is_disabled":false,"rental_uris":{"android":"levelo://app?vid=004217b9-d0df-4be3-b36e-32cfa6b0fb50","ios":"levelo://app?vid=004217b9-d0df-4be3-b36e-32cfa6b0fb50"},"vehicle_type_id":"4","last_reported":1770053402,"current_range_meters":11200,"station_id":"st_d2m6c4gdas8pm72e190g","pricing_plan_id":"cebpf4jnsgd1na2vs0mg"},{"bike_id":"fba83296-cf08-4ba9-8267-d1dc13133a44","system_id":"levelo_inurba_marseille","lat":43.2622,"lon":5.40467,"is_reserved":false,"is_disabled":false,"rental_uris":{"android":"levelo://app?vid=fba83296-cf08-4ba9-8267-d1dc13133a44","ios":"levelo://app?vid=fba83296-cf08-4ba9-8267-d1dc13133a44"},"vehicle_type_id":"4","last_reported":1770053402,"current_range_meters":11200,"station_id":"ce4bhmh2rcd13ifvqgmg","pricing_plan_id":"cebpf4jnsgd1na2vs0mg"},{"bike_id":"a6984f04-5ce2-496f-bcf4-88b694deccf7","system_id":"levelo_inurba_marseille","lat":43.29571,"lon":5.3998,"is_reserved":false,"is_disabled":false,"rental_uris":{"android":"levelo://app?vid=a6984f04-5ce2-496f-bcf4-88b694deccf7","ios":"levelo://app?vid=a6984f04-5ce2-496f-bcf4-88b694deccf7"},"vehicle_type_id":"4","last_reported":1770053402,"current_range_meters":11200,"station_id":"ce4bh312rcd13ifvqdj0","pricing_plan_id":"cebpf4jnsgd1na2vs0mg"},{"bike_id":"444b7964-d637-4bc2-bbcf-ca0cd5725763","system_id":"levelo_inurba_marseille","lat":43.27327,"lon":5.39061,"is_reserved":false,"is_disabled":true,"rental_uris":{"android":"levelo://app?vid=444b7964-d637-4bc2-bbcf-ca0cd5725763","ios":"levelo://app?vid=444b7964-d637-4bc2-bbcf-ca0cd5725763"},"vehicle_type_id":"4","last_reported":1770053402,"current_range_meters":11200,"station_id":"ce4bhgp2rcd13ifvqfe0","pricing_plan_id":"cebpf4jnsgd1na2vs0mg"},{"bike_id":"5f073e76-f679-425c-b5d1-297720e1f45e","system_id":"levelo_inurba_marseille","lat":43.30095,"lon":5.39058,"is_reserved":false,"is_disabled":false,"rental_uris":{"android":"levelo://app?vid=5f073e76-f679-425c-b5d1-297720e1f45e","ios":"levelo://app?vid=5f073e76-f679-425c-b5d1-297720e1f45e"},"vehicle_type_id":"4","last_reported":1770053402,"current_range_meters":11200,"station_id":"ce4bh192rcd13ifvqdb0","pricing_plan_id":"cebpf4jnsgd1na2vs0mg"},{"bike_id":"5ffc162c-3876-4a49-af02-3661f44effbb","system_id":"levelo_inurba_marseille","lat":43.28478,"lon":5.48395,"is_reserved":false,"is_disabled":false,"rental_uris":{"android":"levelo://app?vid=5ffc162c-3876-4a49-af02-3661f44effbb","ios":"levelo://app?vid=5ffc162c-3876-4a49-af02-3661f44effbb"},"vehicle_type_id":"4","last_reported":1770053402,"current_range_meters":11200,"station_id":"st_d3svhcjqgbts73a3dn0g","pricing_plan_id":"cebpf4jnsgd1na2vs0mg"},{"bike_id":"151047fe-b117-41cf-9416-4f91d0d3c1a9","system_id":"levelo_inurba_marseille","lat":43.31856,"lon":5.36908,"is_reserved":false,"is_disabled":false,"rental_uris":{"android":"levelo://app?vid=151047fe-b117-41cf-9416-4f91d0d3c1a9","ios":"levelo://app?vid=151047fe-b117-41cf-9416-4f91d0d3c1a9"},"vehicle_type_id":"4","last_reported":1770053402,"current_range_meters":11600,"station_id":"","pricing_plan_id":"cebpf4jnsgd1na2vs0mg"},{"bike_id":"105bfbdd-2a4c-4255-bcc2-6dcbd4ccd07a","system_id":"levelo_inurba_marseille","lat":43.27818,"lon":5.40714,"is_reserved":false,"is_disabled":false,"rental_uris":{"android":"levelo://app?vid=105bfbdd-2a4c-4255-bcc2-6dcbd4ccd07a","ios":"levelo://app?vid=105bfbdd-2a4c-4255-bcc2-6dcbd4ccd07a"},"vehicle_type_id":"4","last_reported":1770053402,"current_range_meters":11600,"station_id":"ce4bhnh2rcd13ifvqgtg","pricing_plan_id":"cebpf4jnsgd1na2vs0mg"},{"bike_id":"242256f5-f0bd-4204-9565-2087ceacdda5","system_id":"levelo_inurba_marseille","lat":43.22561,"lon":5.41627,"is_reserved":false,"is_disabled":false,"rental_uris":{"android":"levelo://app?vid=242256f5-f0bd-4204-9565-2087ceacdda5","ios":"levelo://app?vid=242256f5-f0bd-4204-9565-2087ceacdda5"},"vehicle_type_id":"4","last_reported":1770053402,"current_range_meters":11600,"station_id":"st_d2o4gvlbi1j2169b742g","pricing_plan_id":"cebpf4jnsgd1na2vs0mg"},{"bike_id":"60e30a1e-9a5a-4d0f-b4d7-c59f2b2787a8","system_id":"levelo_inurba_marseille","lat":43.28671,"lon":5.38661,"is_reserved":false,"is_disabled":false,"rental_uris":{"android":"levelo://app?vid=60e30a1e-9a5a-4d0f-b4d7-c59f2b2787a8","ios":"levelo://app?vid=60e30a1e-9a5a-4d0f-b4d7-c59f2b2787a8"},"vehicle_type_id":"4","last_reported":1770053402,"current_range_meters":11600,"station_id":"ce4bh492rcd13ifvqdug","pricing_plan_id":"cebpf4jnsgd1na2vs0mg"},{"bike_id":"4c7f8a28-857e-4592-bbe1-acfc605592d3","system_id":"levelo_inurba_marseille","lat":43.29228,"lon":5.42519,"is_reserved":false,"is_disabled":false,"rental_uris":{"android":"levelo://app?vid=4c7f8a28-857e-4592-bbe1-acfc605592d3","ios":"levelo://app?vid=4c7f8a28-857e-4592-bbe1-acfc605592d3"},"vehicle_type_id":"4","last_reported":1770053402,"current_range_meters":11600,"station_id":"","pricing_plan_id":"cebpf4jnsgd1na2vs0mg"},{"bike_id":"ccad5bb8-727e-4e27-b0cc-7b2f496ea109","system_id":"levelo_inurba_marseille","lat":43.29549,"lon":5.42292,"is_reserved":false,"is_disabled":false,"rental_uris":{"android":"levelo://app?vid=ccad5bb8-727e-4e27-b0cc-7b2f496ea109","ios":"levelo://app?vid=ccad5bb8-727e-4e27-b0cc-7b2f496ea109"},"vehicle_type_id":"4","last_reported":1770053402,"current_range_meters":11600,"station_id":"ce4bhph2rcd13ifvqhdg","pricing_plan_id":"cebpf4jnsgd1na2vs0mg"},{"bike_id":"4e76b930-c99b-455d-a70d-d6617dc2d534","system_id":"levelo_inurba_marseille","lat":43.30436,"lon":5.38886,"is_reserved":false,"is_disabled":false,"rental_uris":{"android":"levelo://app?vid=4e76b930-c99b-455d-a70d-d6617dc2d534","ios":"levelo://app?vid=4e76b930-c99b-455d-a70d-d6617dc2d534"},"vehicle_type_id":"4","last_reported":1770053402,"current_range_meters":11600,"station_id":"ce4bgk12rcd13ifvqbi0","pricing_plan_id":"cebpf4jnsgd1na2vs0mg"},{"bike_id":"5396fda1-c3a0-4d51-8ba0-cfe497a166d7","system_id":"levelo_inurba_marseille","lat":43.26557,"lon":5.38986,"is_reserved":false,"is_disabled":false,"rental_uris":{"android":"levelo://app?vid=5396fda1-c3a0-4d51-8ba0-cfe497a166d7","ios":"levelo://app?vid=5396fda1-c3a0-4d51-8ba0-cfe497a166d7"},"vehicle_type_id":"4","last_reported":1770053402,"current_range_meters":11600,"station_id":"ce4bhe12rcd13ifvqf30","pricing_plan_id":"cebpf4jnsgd1na2vs0mg"},{"bike_id":"c979d299-1688-4f58-baea-ed2194f53c58","system_id":"levelo_inurba_marseille","lat":43.31303,"lon":5.39715,"is_reserved":false,"is_disabled":false,"rental_uris":{"android":"levelo://app?vid=c979d299-1688-4f58-baea-ed2194f53c58","ios":"levelo://app?vid=c979d299-1688-4f58-baea-ed2194f53c58"},"vehicle_type_id":"4","last_reported":1770053402,"current_range_meters":11600,"station_id":"ce4bgvp2rcd13ifvqcu0","pricing_plan_id":"cebpf4jnsgd1na2vs0mg"},{"bike_id":"5b88af2f-2bd9-4d3c-a3c0-caf26bbf80ee","system_id":"levelo_inurba_marseille","lat":43.2781,"lon":5.40713,"is_reserved":false,"is_disabled":false,"rental_uris":{"android":"levelo://app?vid=5b88af2f-2bd9-4d3c-a3c0-caf26bbf80ee","ios":"levelo://app?vid=5b88af2f-2bd9-4d3c-a3c0-caf26bbf80ee"},"vehicle_type_id":"4","last_reported":1770053402,"current_range_meters":11600,"station_id":"ce4bhnh2rcd13ifvqgtg","pricing_plan_id":"cebpf4jnsgd1na2vs0mg"},{"bike_id":"a7eeed40-5f65-4c3e-a8d9-15ac39a8e2db","system_id":"levelo_inurba_marseille","lat":43.29013,"lon":5.38654,"is_reserved":false,"is_disabled":false,"rental_uris":{"android":"levelo://app?vid=a7eeed40-5f65-4c3e-a8d9-15ac39a8e2db","ios":"levelo://app?vid=a7eeed40-5f65-4c3e-a8d9-15ac39a8e2db"},"vehicle_type_id":"4","last_reported":1770053402,"current_range_meters":11600,"station_id":"ce4bh4p2rcd13ifvqe0g","pricing_plan_id":"cebpf4jnsgd1na2vs0mg"},{"bike_id":"332f38c2-1149-489c-807b-6f6eb6a8449c","system_id":"levelo_inurba_marseille","lat":43.29907,"lon":5.37469,"is_reserved":false,"is_disabled":false,"rental_uris":{"android":"levelo://app?vid=332f38c2-1149-489c-807b-6f6eb6a8449c","ios":"levelo://app?vid=332f38c2-1149-489c-807b-6f6eb6a8449c"},"vehicle_type_id":"4","last_reported":1770053402,"current_range_meters":12000,"station_id":"ce4bgjh2rcd13ifvqbg0","pricing_plan_id":"cebpf4jnsgd1na2vs0mg"},{"bike_id":"d4392431-c253-40ef-a0d5-dd4ab6a1f20c","system_id":"levelo_inurba_marseille","lat":43.24054,"lon":5.37758,"is_reserved":false,"is_disabled":false,"rental_uris":{"android":"levelo://app?vid=d4392431-c253-40ef-a0d5-dd4ab6a1f20c","ios":"levelo://app?vid=d4392431-c253-40ef-a0d5-dd4ab6a1f20c"},"vehicle_type_id":"4","last_reported":1770053402,"current_range_meters":12000,"station_id":"ce4bhnp2rcd13ifvqgvg","pricing_plan_id":"cebpf4jnsgd1na2vs0mg"},{"bike_id":"34177869-9c4a-41c7-b243-1ec3976640fd","system_id":"levelo_inurba_marseille","lat":43.28472,"lon":5.38427,"is_reserved":false,"is_disabled":false,"rental_uris":{"android":"levelo://app?vid=34177869-9c4a-41c7-b243-1ec3976640fd","ios":"levelo://app?vid=34177869-9c4a-41c7-b243-1ec3976640fd"},"vehicle_type_id":"4","last_reported":1770053402,"current_range_meters":12000,"station_id":"ce4bh512rcd13ifvqe3g","pricing_plan_id":"cebpf4jnsgd1na2vs0mg"},{"bike_id":"5892fc85-7848-4ac6-9041-3115ffbc60b4","system_id":"levelo_inurba_marseille","lat":43.24667,"lon":5.3814,"is_reserved":false,"is_disabled":false,"rental_uris":{"android":"levelo://app?vid=5892fc85-7848-4ac6-9041-3115ffbc60b4","ios":"levelo://app?vid=5892fc85-7848-4ac6-9041-3115ffbc60b4"},"vehicle_type_id":"4","last_reported":1770053402,"current_range_meters":12000,"station_id":"ce4bhih2rcd13ifvqfr0","pricing_plan_id":"cebpf4jnsgd1na2vs0mg"},{"bike_id":"fd64f2be-4c58-41ef-bf52-b25e9567334c","system_id":"levelo_inurba_marseille","lat":43.31689,"lon":5.40445,"is_reserved":false,"is_disabled":false,"rental_uris":{"android":"levelo://app?vid=fd64f2be-4c58-41ef-bf52-b25e9567334c","ios":"levelo://app?vid=fd64f2be-4c58-41ef-bf52-b25e9567334c"},"vehicle_type_id":"4","last_reported":1770053402,"current_range_meters":12000,"station_id":"ce4bh012rcd13ifvqd00","pricing_plan_id":"cebpf4jnsgd1na2vs0mg"},{"bike_id":"4fa94381-108d-4c94-b241-79138b5e64c3","system_id":"levelo_inurba_marseille","lat":43.284831,"lon":5.384241,"is_reserved":false,"is_disabled":false,"rental_uris":{"android":"levelo://app?vid=4fa94381-108d-4c94-b241-79138b5e64c3","ios":"levelo://app?vid=4fa94381-108d-4c94-b241-79138b5e64c3"},"vehicle_type_id":"4","last_reported":1770053402,"current_range_meters":12000,"station_id":"ce4bh512rcd13ifvqe3g","pricing_plan_id":"cebpf4jnsgd1na2vs0mg"},{"bike_id":"128c25e0-a9f7-4b25-a528-c9d67b1546c5","system_id":"levelo_inurba_marseille","lat":43.24068,"lon":5.3776,"is_reserved":false,"is_disabled":false,"rental_uris":{"android":"levelo://app?vid=128c25e0-a9f7-4b25-a528-c9d67b1546c5","ios":"levelo://app?vid=128c25e0-a9f7-4b25-a528-c9d67b1546c5"},"vehicle_type_id":"4","last_reported":1770053402,"current_range_meters":12000,"station_id":"ce4bhnp2rcd13ifvqgvg","pricing_plan_id":"cebpf4jnsgd1na2vs0mg"},{"bike_id":"5ccb9994-6641-4b01-9707-ec7a4643ca75","system_id":"levelo_inurba_marseille","lat":43.29306,"lon":5.37166,"is_reserved":false,"is_disabled":false,"rental_uris":{"android":"levelo://app?vid=5ccb9994-6641-4b01-9707-ec7a4643ca75","ios":"levelo://app?vid=5ccb9994-6641-4b01-9707-ec7a4643ca75"},"vehicle_type_id":"4","last_reported":1770053402,"current_range_meters":12000,"station_id":"ce4bgh92rcd13ifvqb40","pricing_plan_id":"cebpf4jnsgd1na2vs0mg"},