{"last_updated":1692590889,"ttl":30,"version":"2.2","data":{"bikes":[{"bike_id":"b8b3621b-e5b1-45df-aeef-baeb4dc81b66","system_id":"levelo_inurba_marseille","lat":43.31225,"lon":5.36864,"is_reserved":false,"is_disabled":false,"rental_uris":{"android":"levelo://app?vid=b8b3621b-e5b1-45df-aeef-baeb4dc81b66","ios":"levelo://app?vid=b8b3621b-e5b1-45df-aeef-baeb4dc81b66"},"vehicle_type_id":"4","last_reported":1692590889,"current_range_meters":31200,"station_id":"ce4bgl92rcd13ifvqbq0","pricing_plan_id":"free"},{"bike_id":"ce05886b-27ef-41ad-9c74-c9445fd9df4e","system_id":"levelo_inurba_marseille","lat":43.312239,"lon":5.368562,"is_reserved":false,"is_disabled":false,"rental_uris":{"android":"levelo://app?vid=ce05886b-27ef-41ad-9c74-c9445fd9df4e","ios":"levelo://app?vid=ce05886b-27ef-41ad-9c74-c9445fd9df4e"},"vehicle_type_id":"4","last_reported":1692590889,"current_range_meters":30800,"station_id":"ce4bgl92rcd13ifvqbq0","pricing_plan_id":"free"},{"bike_id":"d07ce73b-96f5-44f9-8e9e-f093d6103894","system_id":"levelo_inurba_marseille","lat":43.312239,"lon":5.368562,"is_reserved":false,"is_disabled":false,"rental_uris":{"android":"levelo://app?vid=d07ce73b-96f5-44f9-8e9e-f093d6103894","ios":"levelo://app?vid=d07ce73b-96f5-44f9-8e9e-f093d6103894"},"vehicle_type_id":"4","last_reported":1692590889,"current_range_meters":31200,"station_id":"ce4bgl92rcd13ifvqbq0","pricing_plan_id":"free"},{"bike_id":"f22ca441-4e4e-4660-b824-b2f46943e54d","system_id":"levelo_inurba_marseille","lat":43.312239,"lon":5.368562,"is_reserved":false,"is_disabled":false,"rental_uris":{"android":"levelo://app?vid=f22ca441-4e4e-4660-b824-b2f46943e54d","ios":"levelo://app?vid=f22ca441-4e4e-4660-b824-b2f46943e54d"},"vehicle_type_id":"4","last_reported":1692590889,"current_range_meters":31200,"station_id":"ce4bgl92rcd13ifvqbq0","pricing_plan_id":"free"},{"bike_id":"d7c1c8fa-2386-4893-9f1b-d50e60269c54","system_id":"levelo_inurba_marseille","lat":43.312239,"lon":5.368562,"is_reserved":false,"is_disabled":false,"rental_uris":{"android":"levelo://app?vid=d7c1c8fa-2386-4893-9f1b-d50e60269c54","ios":"levelo://app?vid=d7c1c8fa-2386-4893-9f1b-d50e60269c54"},"vehicle_type_id":"4","last_reported":1692590889,"current_range_meters":30400,"station_id":"ce4bgl92rcd13ifvqbq0","pricing_plan_id":"free"},{"bike_id":"a4a46e75-8ffc-4199-b3ab-19287e78ecf4","system_id":"levelo_inurba_marseille","lat":43.309076,"lon":5.368465,"is_reserved":false,"is_disabled":false,"rental_uris":{"android":"levelo://app?vid=a4a46e75-8ffc-4199-b3ab-19287e78ecf4","ios":"levelo://app?vid=a4a46e75-8ffc-4199-b3ab-19287e78ecf4"},"vehicle_type_id":"4","last_reported":1692590889,"current_range_meters":26400,"station_id":"ce4bgn92rcd13ifvqbvg","pricing_plan_id":"free"},{"bike_id":"6b3bc26a-c8f3-4dae-be71-cf75dc3f5a08","system_id":"levelo_inurba_marseille","lat":43.314811,"lon":5.373104,"is_reserved":false,"is_disabled":false,"rental_uris":{"android":"levelo://app?vid=6b3bc26a-c8f3-4dae-be71-cf75dc3f5a08","ios":"levelo://app?vid=6b3bc26a-c8f3-4dae-be71-cf75dc3f5a08"},"vehicle_type_id":"4","last_reported":1692590889,"current_range_meters":18400,"station_id":"ce4bgt12rcd13ifvqcd0","pricing_plan_id":"free"},{"bike_id":"7041a8f0-75ce-4d40-b194-b136a0abb49e","system_id":"levelo_inurba_marseille","lat":43.314811,"lon":5.373104,"is_reserved":false,"is_disabled":false,"rental_uris":{"android":"levelo://app?vid=7041a8f0-75ce-4d40-b194-b136a0abb49e","ios":"levelo://app?vid=7041a8f0-75ce-4d40-b194-b136a0abb49e"},"vehicle_type_id":"4","last_reported":1692590889,"current_range_meters":31200,"station_id":"ce4bgt12rcd13ifvqcd0","pricing_plan_id":"free"},{"bike_id":"dab6a689-a101-413f-8b5c-1bb9b52878c8","system_id":"levelo_inurba_marseille","lat":43.314811,"lon":5.373103,"is_reserved":false,"is_disabled":false,"rental_uris":{"android":"levelo://app?vid=dab6a689-a101-413f-8b5c-1bb9b52878c8","ios":"levelo://app?vid=dab6a689-a101-413f-8b5c-1bb9b52878c8"},"vehicle_type_id":"4","last_reported":1692590889,"current_range_meters":30000,"station_id":"ce4bgt12rcd13ifvqcd0","pricing_plan_id":"free"},{"bike_id":"13fb9659-d9e4-49d7-a76e-64d7c5c87e6a","system_id":"levelo_inurba_marseille","lat":43.314811,"lon":5.373103,"is_reserved":false,"is_disabled":false,"rental_uris":{"android":"levelo://app?vid=13fb9659-d9e4-49d7-a76e-64d7c5c87e6a","ios":"levelo://app?vid=13fb9659-d9e4-49d7-a76e-64d7c5c87e6a"},"vehicle_type_id":"4","last_reported":1692590889,"current_range_meters":28000,"station_id":"ce4bgt12rcd13ifvqcd0","pricing_plan_id":"free"},{"bike_id":"0808185d-a55f-47d9-99a8-af92da85a2b8","system_id":"levelo_inurba_marseille","lat":43.314811,"lon":5.373103,"is_reserved":false,"is_disabled":false,"rental_uris":{"android":"levelo://app?vid=0808185d-a55f-47d9-99a8-af92da85a2b8","ios":"levelo://app?vid=0808185d-a55f-47d9-99a8-af92da85a2b8"},"vehicle_type_id":"4","last_reported":1692590889,"current_range_meters":31200,"station_id":"ce4bgt12rcd13ifvqcd0","pricing_plan_id":"free"},{"bike_id":"7aa30f89-96cf-4042-b72b-558f2ad862a9","system_id":"levelo_inurba_marseille","lat":43.314811,"lon":5.373103,"is_reserved":false,"is_disabled":false,"rental_uris":{"android":"levelo://app?vid=7aa30f89-96cf-4042-b72b-558f2ad862a9","ios":"levelo://app?vid=7aa30f89-96cf-4042-b72b-558f2ad862a9"},"vehicle_type_id":"4","last_reported":1692590889,"current_range_meters":31200,"station_id":"ce4bgt12rcd13ifvqcd0","pricing_plan_id":"free"},{"bike_id":"ca63eeb4-ca5d-4686-b5fb-f4f0ce0fc2c9","system_id":"levelo_inurba_marseille","lat":43.314811,"lon":5.373104,"is_reserved":false,"is_disabled":false,"rental_uris":{"android":"levelo://app?vid=ca63eeb4-ca5d-4686-b5fb-f4f0ce0fc2c9","ios":"levelo://app?vid=ca63eeb4-ca5d-4686-b5fb-f4f0ce0fc2c9"},"vehicle_type_id":"4","last_reported":1692590889,"current_range_meters":29200,"station_id":"ce4bgt12rcd13ifvqcd0","pricing_plan_id":"free"},{"bike_id":"dc0860e6-7007-4728-9738-3537bb9c3b71","system_id":"levelo_inurba_marseille","lat":43.314811,"lon":5.373104,"is_reserved":false,"is_disabled":false,"rental_uris":{"android":"levelo://app?vid=dc0860e6-7007-4728-9738-3537bb9c3b71","ios":"levelo://app?vid=dc0860e6-7007-4728-9738-3537bb9c3b71"},"vehicle_type_id":"4","last_reported":1692590889,"current_range_meters":30800,"station_id":"ce4bgt12rcd13ifvqcd0","pricing_plan_id":"free"},{"bike_id":"815dc436-83a2-4613-92e3-db5ac2b51bf8","system_id":"levelo_inurba_marseille","lat":43.314811,"lon":5.373104,"is_reserved":false,"is_disabled":false,"rental_uris":{"android":"levelo://app?vid=815dc436-83a2-4613-92e3-db5ac2b51bf8","ios":"levelo://app?vid=815dc436-83a2-4613-92e3-db5ac2b51bf8"},"vehicle_type_id":"4","last_reported":1692590889,"current_range_meters":31200,"station_id":"ce4bgt12rcd13ifvqcd0","pricing_plan_id":"free"},{"bike_id":"31f43891-0c30-4f96-8537-db51e6d78be4","system_id":"levelo_inurba_marseille","lat":43.309039,"lon":5.371797,"is_reserved":false,"is_disabled":false,"rental_uris":{"android":"levelo://app?vid=31f43891-0c30-4f96-8537-db51e6d78be4","ios":"levelo://app?vid=31f43891-0c30-4f96-8537-db51e6d78be4"},"vehicle_type_id":"4","last_reported":1692590889,"current_range_meters":31200,"station_id":"ce4bguh2rcd13ifvqckg","pricing_plan_id":"free"},{"bike_id":"bd9c02be-796e-49e4-aa62-1a8b2334d95b","system_id":"levelo_inurba_marseille","lat":43.309039,"lon":5.371797,"is_reserved":false,"is_disabled":false,"rental_uris":{"android":"levelo://app?vid=bd9c02be-796e-49e4-aa62-1a8b2334d95b","ios":"levelo://app?vid=bd9c02be-796e-49e4-aa62-1a8b2334d95b"},"vehicle_type_id":"4","last_reported":1692590889,"current_range_meters":19200,"station_id":"ce4bguh2rcd13ifvqckg","pricing_plan_id":"free"},{"bike_id":"674db729-7e76-4e8d-87de-5563d2fe4a26","system_id":"levelo_inurba_marseille","lat":43.30881,"lon":5.37187,"is_reserved":false,"is_disabled":false,"rental_uris":{"android":"levelo://app?vid=674db729-7e76-4e8d-87de-5563d2fe4a26","ios":"levelo://app?vid=674db729-7e76-4e8d-87de-5563d2fe4a26"},"vehicle_type_id":"4","last_reported":1692590889,"current_range_meters":30400,"station_id":"ce4bguh2rcd13ifvqckg","pricing_plan_id":"free"},{"bike_id":"386ed8e3-b71e-4f68-86af-202c5b76503e","system_id":"levelo_inurba_marseille","lat":43.3055,"lon":5.36715,"is_reserved":false,"is_disabled":false,"rental_uris":{"android":"levelo://app?vid=386ed8e3-b71e-4f68-86af-202c5b76503e","ios":"levelo://app?vid=386ed8e3-b71e-4f68-86af-202c5b76503e"},"vehicle_type_id":"4","last_reported":1692590889,"current_range_meters":17200,"station_id":"ce4bgrp2rcd13ifvqc9g","pricing_plan_id":"free"},{"bike_id":"9fbe6e18-d192-44c2-98b5-cafb68b41aa4","system_id":"levelo_inurba_marseille","lat":43.30557,"lon":5.36541,"is_reserved":false,"is_disabled":false,"rental_uris":{"android":"levelo://app?vid=9fbe6e18-d192-44c2-98b5-cafb68b41aa4","ios":"levelo://app?vid=9fbe6e18-d192-44c2-98b5-cafb68b41aa4"},"vehicle_type_id":"4","last_reported":1692590889,"current_range_meters":3600,"station_id":"ce4bgs12rcd13ifvqcag","pricing_plan_id":"free"},{"bike_id":"b3f76020-3d4a-4c81-92f2-b6a58d1ad81f","system_id":"levelo_inurba_marseille","lat":43.305989,"lon":5.37225,"is_reserved":false,"is_disabled":false,"rental_uris":{"android":"levelo://app?vid=b3f76020-3d4a-4c81-92f2-b6a58d1ad81f","ios":"levelo://app?vid=b3f76020-3d4a-4c81-92f2-b6a58d1ad81f"},"vehicle_type_id":"4","last_reported":1692590889,"current_range_meters":28000,"station_id":"ce4bgqh2rcd13ifvqc4g","pricing_plan_id":"free"},{"bike_id":"34ac6ba1-e570-4dbb-9474-6e0157c64802","system_id":"levelo_inurba_marseille","lat":43.311131,"lon":5.377651,"is_reserved":false,"is_disabled":false,"rental_uris":{"android":"levelo://app?vid=34ac6ba1-e570-4dbb-9474-6e0157c64802","ios":"levelo://app?vid=34ac6ba1-e570-4dbb-9474-6e0157c64802"},"vehicle_type_id":"4","last_reported":1692590889,"current_range_meters":31200,"station_id":"ce4bgt92rcd13ifvqcg0","pricing_plan_id":"free"},{"bike_id":"839cabe4-705a-4fe2-8236-e955be991055","system_id":"levelo_inurba_marseille","lat":43.31122,"lon":5.37764,"is_reserved":false,"is_disabled":false,"rental_uris":{"android":"levelo://app?vid=839cabe4-705a-4fe2-8236-e955be991055","ios":"levelo://app?vid=839cabe4-705a-4fe2-8236-e955be991055"},"vehicle_type_id":"4","last_reported":1692590889,"current_range_meters":31200,"station_id":"ce4bgt92rcd13ifvqcg0","pricing_plan_id":"free"},{"bike_id":"48707bdc-5fe6-412f-b897-a80c6f7735ca","system_id":"levelo_inurba_marseille","lat":43.311131,"lon":5.377651,"is_reserved":false,"is_disabled":false,"rental_uris":{"android":"levelo://app?vid=48707bdc-5fe6-412f-b897-a80c6f7735ca","ios":"levelo://app?vid=48707bdc-5fe6-412f-b897-a80c6f7735ca"},"vehicle_type_id":"4","last_reported":1692590889,"current_range_meters":31200,"station_id":"ce4bgt92rcd13ifvqcg0","pricing_plan_id":"free"},{"bike_id":"28e74513-923a-43b9-b8a4-34e54422102e","system_id":"levelo_inurba_marseille","lat":43.31121,"lon":5.37766,"is_reserved":false,"is_disabled":false,"rental_uris":{"android":"levelo://app?vid=28e74513-923a-43b9-b8a4-34e54422102e","ios":"levelo://app?vid=28e74513-923a-43b9-b8a4-34e54422102e"},"vehicle_type_id":"4","last_reported":1692590889,"current_range_meters":30800,"station_id":"ce4bgt92rcd13ifvqcg0","pricing_plan_id":"free"},{"bike_id":"29707406-31dd-49f6-9dd3-ba462a3e6357","system_id":"levelo_inurba_marseille","lat":43.311131,"lon":5.377651,"is_reserved":false,"is_disabled":false,"rental_uris":{"android":"levelo://app?vid=29707406-31dd-49f6-9dd3-ba462a3e6357","ios":"levelo://app?vid=29707406-31dd-49f6-9dd3-ba462a3e6357"},"vehicle_type_id":"4","last_reported":1692590889,"current_range_meters":12400,"station_id":"ce4bgt92rcd13ifvqcg0","pricing_plan_id":"free"},{"bike_id":"9bbd4272-2f2a-4898-ab92-3fee67f97c1c","system_id":"levelo_inurba_marseille","lat":43.311131,"lon":5.377651,"is_reserved":false,"is_disabled":false,"rental_uris":{"android":"levelo://app?vid=9bbd4272-2f2a-4898-ab92-3fee67f97c1c","ios":"levelo://app?vid=9bbd4272-2f2a-4898-ab92-3fee67f97c1c"},"vehicle_type_id":"4","last_reported":1692590889,"current_range_meters":31200,"station_id":"ce4bgt92rcd13ifvqcg0","pricing_plan_id":"free"},{"bike_id":"20d6cb45-bed7-4ac8-a04a-d56af4911a47","system_id":"levelo_inurba_marseille","lat":43.311131,"lon":5.377651,"is_reserved":false,"is_disabled":false,"rental_uris":{"android":"levelo://app?vid=20d6cb45-bed7-4ac8-a04a-d56af4911a47","ios":"levelo://app?vid=20d6cb45-bed7-4ac8-a04a-d56af4911a47"},"vehicle_type_id":"4","last_reported":1692590889,"current_range_meters":10000,"station_id":"ce4bgt92rcd13ifvqcg0","pricing_plan_id":"free"},{"bike_id":"50b917f4-0be1-4df0-ae7c-5c159a1cb216","system_id":"levelo_inurba_marseille","lat":43.31108,"lon":5.37776,"is_reserved":false,"is_disabled":false,"rental_uris":{"android":"levelo://app?vid=50b917f4-0be1-4df0-ae7c-5c159a1cb216","ios":"levelo://app?vid=50b917f4-0be1-4df0-ae7c-5c159a1cb216"},"vehicle_type_id":"4","last_reported":1692590889,"current_range_meters":21200,"station_id":"ce4bgt92rcd13ifvqcg0","pricing_plan_id":"free"},{"bike_id":"f46aea9f-065f-4a8f-a4b5-05b7fc6b4bb5","system_id":"levelo_inurba_marseille","lat":43.3111,"lon":5.37778,"is_reserved":false,"is_disabled":false,"rental_uris":{"android":"levelo://app?vid=f46aea9f-065f-4a8f-a4b5-05b7fc6b4bb5","ios":"levelo://app?vid=f46aea9f-065f-4a8f-a4b5-05b7fc6b4bb5"},"vehicle_type_id":"4","last_reported":1692590889,"current_range_meters":24800,"station_id":"ce4bgt92rcd13ifvqcg0","pricing_plan_id":"free"},{"bike_id":"b9cac4ff-a54b-422c-ab9c-38ba33ebb821","system_id":"levelo_inurba_marseille","lat":43.311131,"lon":5.377651,"is_reserved":false,"is_disabled":false,"rental_uris":{"android":"levelo://app?vid=b9cac4ff-a54b-422c-ab9c-38ba33ebb821","ios":"levelo://app?vid=b9cac4ff-a54b-422c-ab9c-38ba33ebb821"},"vehicle_type_id":"4","last_reported":1692590889,"current_range_meters":31200,"station_id":"ce4bgt92rcd13ifvqcg0","pricing_plan_id":"free"},{"bike_id":"643f142d-b0dd-486c-8732-24bab6ac803e","system_id":"levelo_inurba_marseille","lat":43.307945,"lon":5.376487,"is_reserved":false,"is_disabled":false,"rental_uris":{"android":"levelo://app?vid=643f142d-b0dd-486c-8732-24bab6ac803e","ios":"levelo://app?vid=643f142d-b0dd-486c-8732-24bab6ac803e"},"vehicle_type_id":"4","last_reported":1692590889,"current_range_meters":31200,"station_id":"ce4bgv92rcd13ifvqcq0","pricing_plan_id":"free"},{"bike_id":"0a4f7189-9a81-4ac4-ab32-1c60f792de20","system_id":"levelo_inurba_marseille","lat":43.307945,"lon":5.376487,"is_reserved":false,"is_disabled":false,"rental_uris":{"android":"levelo://app?vid=0a4f7189-9a81-4ac4-ab32-1c60f792de20","ios":"levelo://app?vid=0a4f7189-9a81-4ac4-ab32-1c60f792de20"},"vehicle_type_id":"4","last_reported":1692590889,"current_range_meters":27600,"station_id":"ce4bgv92rcd13ifvqcq0","pricing_plan_id":"free"},{"bike_id":"4ff2f5ca-4b9e-4d36-9028-a50a7496c73d","system_id":"levelo_inurba_marseille","lat":43.30793,"lon":5.37654,"is_reserved":false,"is_disabled":false,"rental_uris":{"android":"levelo://app?vid=4ff2f5ca-4b9e-4d36-9028-a50a7496c73d","ios":"levelo://app?vid=4ff2f5ca-4b9e-4d36-9028-a50a7496c73d"},"vehicle_type_id":"4","last_reported":1692590889,"current_range_meters":30800,"station_id":"ce4bgv92rcd13ifvqcq0","pricing_plan_id":"free"},{"bike_id":"acd0d663-3c59-4f34-8da3-051d50b3fb64","system_id":"levelo_inurba_marseille","lat":43.307945,"lon":5.376487,"is_reserved":false,"is_disabled":false,"rental_uris":{"android":"levelo://app?vid=acd0d663-3c59-4f34-8da3-051d50b3fb64","ios":"levelo://app?vid=acd0d663-3c59-4f34-8da3-051d50b3fb64"},"vehicle_type_id":"4","last_reported":1692590889,"current_range_meters":31200,"station_id":"ce4bgv92rcd13ifvqcq0","pricing_plan_id":"free"},{"bike_id":"8d2174d7-5dd4-4556-bb72-5d5aab20caf1","system_id":"levelo_inurba_marseille","lat":43.3079,"lon":5.37655,"is_reserved":false,"is_disabled":false,"rental_uris":{"android":"levelo://app?vid=8d2174d7-5dd4-4556-bb72-5d5aab20caf1","ios":"levelo://app?vid=8d2174d7-5dd4-4556-bb72-5d5aab20caf1"},"vehicle_type_id":"4","last_reported":1692590889,"current_range_meters":12000,"station_id":"ce4bgv92rcd13ifvqcq0","pricing_plan_id":"free"},{"bike_id":"119356d8-4bcf-47df-8aa2-1c17d9c4c24b","system_id":"levelo_inurba_marseille","lat":43.30786,"lon":5.37654,"is_reserved":false,"is_disabled":false,"rental_uris":{"android":"levelo://app?vid=119356d8-4bcf-47df-8aa2-1c17d9c4c24b","ios":"levelo://app?vid=119356d8-4bcf-47df-8aa2-1c17d9c4c24b"},"vehicle_type_id":"4","last_reported":1692590889,"current_range_meters":31200,"station_id":"ce4bgv92rcd13ifvqcq0","pricing_plan_id":"free"},{"bike_id":"c4e9cf80-1d97-4c18-861e-a8c5e6b8979e","system_id":"levelo_inurba_marseille","lat":43.307945,"lon":5.376487,"is_reserved":false,"is_disabled":false,"rental_uris":{"android":"levelo://app?vid=c4e9cf80-1d97-4c18-861e-a8c5e6b8979e","ios":"levelo://app?vid=c4e9cf80-1d97-4c18-861e-a8c5e6b8979e"},"vehicle_type_id":"4","last_reported":1692590889,"current_range_meters":23600,"station_id":"ce4bgv92rcd13ifvqcq0","pricing_plan_id":"free"},{"bike_id":"dd37bf7a-b0f3-490a-94f8-e10104e49abd","system_id":"levelo_inurba_marseille","lat":43.31691,"lon":5.37741,"is_reserved":false,"is_disabled":false,"rental_uris":{"android":"levelo://app?vid=dd37bf7a-b0f3-490a-94f8-e10104e49abd","ios":"levelo://app?vid=dd37bf7a-b0f3-490a-94f8-e10104e49abd"},"vehicle_type_id":"4","last_reported":1692590889,"current_range_meters":0,"station_id":"ce4bgth2rcd13ifvqch0","pricing_plan_id":"free"},{"bike_id":"94a0c5bf-a3c7-44dd-b1c9-235dd914373c","system_id":"levelo_inurba_marseille","lat":43.317075,"lon":5.377367,"is_reserved":false,"is_disabled":false,"rental_uris":{"android":"levelo://app?vid=94a0c5bf-a3c7-44dd-b1c9-235dd914373c","ios":"levelo://app?vid=94a0c5bf-a3c7-44dd-b1c9-235dd914373c"},"vehicle_type_id":"4","last_reported":1692590889,"current_range_meters":30000,"station_id":"ce4bgth2rcd13ifvqch0","pricing_plan_id":"free"},{"bike_id":"96915aa8-5e12-4346-939e-8b6e0cd98de1","system_id":"levelo_inurba_marseille","lat":43.303046,"lon":5.368981,"is_reserved":false,"is_disabled":false,"rental_uris":{"android":"levelo://app?vid=96915aa8-5e12-4346-939e-8b6e0cd98de1","ios":"levelo://app?vid=96915aa8-5e12-4346-939e-8b6e0cd98de1"},"vehicle_type_id":"4","last_reported":1692590889,"current_range_meters":4400,"station_id":"ce4bgqh2rcd13ifvqc5g","pricing_plan_id":"free"},{"bike_id":"779f8c7d-f6c1-4cc9-a593-c88874220bcf","system_id":"levelo_inurba_marseille","lat":43.31527,"lon":5.38027,"is_reserved":false,"is_disabled":false,"rental_uris":{"android":"levelo://app?vid=779f8c7d-f6c1-4cc9-a593-c88874220bcf","ios":"levelo://app?vid=779f8c7d-f6c1-4cc9-a593-c88874220bcf"},"vehicle_type_id":"4","last_reported":1692590889,"current_range_meters":22400,"station_id":"ce4bhsp2rcd13ifvqi50","pricing_plan_id":"free"},{"bike_id":"5f53c696-2601-4b6b-b603-a2775e6e047d","system_id":"levelo_inurba_marseille","lat":43.31526,"lon":5.38033,"is_reserved":false,"is_disabled":false,"rental_uris":{"android":"levelo://app?vid=5f53c696-2601-4b6b-b603-a2775e6e047d","ios":"levelo://app?vid=5f53c696-2601-4b6b-b603-a2775e6e047d"},"vehicle_type_id":"4","last_reported":1692590889,"current_range_meters":31200,"station_id":"ce4bhsp2rcd13ifvqi50","pricing_plan_id":"free"},{"bike_id":"d5129694-fa02-4dc5-8a55-4fab9bb1cea3","system_id":"levelo_inurba_marseille","lat":43.31526,"lon":5.38035,"is_reserved":false,"is_disabled":false,"rental_uris":{"android":"levelo://app?vid=d5129694-fa02-4dc5-8a55-4fab9bb1cea3","ios":"levelo://app?vid=d5129694-fa02-4dc5-8a55-4fab9bb1cea3"},"vehicle_type_id":"4","last_reported":1692590889,"current_range_meters":30000,"station_id":"ce4bhsp2rcd13ifvqi50","pricing_plan_id":"free"},{"bike_id":"d4ed81e7-d2e6-498e-b7d9-4560da69a568","system_id":"levelo_inurba_marseille","lat":43.31536,"lon":5.38038,"is_reserved":false,"is_disabled":false,"rental_uris":{"android":"levelo://app?vid=d4ed81e7-d2e6-498e-b7d9-4560da69a568","ios":"levelo://app?vid=d4ed81e7-d2e6-498e-b7d9-4560da69a568"},"vehicle_type_id":"4","last_reported":1692590889,"current_range_meters":28400,"station_id":"ce4bhsp2rcd13ifvqi50","pricing_plan_id":"free"},{"bike_id":"327fe0dc-08c0-428e-baf6-82942cb2943b","system_id":"levelo_inurba_marseille","lat":43.31526,"lon":5.38047,"is_reserved":false,"is_disabled":false,"rental_uris":{"android":"levelo://app?vid=327fe0dc-08c0-428e-baf6-82942cb2943b","ios":"levelo://app?vid=327fe0dc-08c0-428e-baf6-82942cb2943b"},"vehicle_type_id":"4","last_reported":1692590889,"current_range_meters":19200,"station_id":"ce4bhsp2rcd13ifvqi50","pricing_plan_id":"free"},{"bike_id":"c07a5808-4fa9-4b9f-82dd-5358face4cd3","system_id":"levelo_inurba_marseille","lat":43.30188,"lon":5.36617,"is_reserved":false,"is_disabled":false,"rental_uris":{"android":"levelo://app?vid=c07a5808-4fa9-4b9f-82dd-5358face4cd3","ios":"levelo://app?vid=c07a5808-4fa9-4b9f-82dd-5358face4cd3"},"vehicle_type_id":"4","last_reported":1692590889,"current_range_meters":0,"station_id":"ce4bgrh2rcd13ifvqc8g","pricing_plan_id":"free"},{"bike_id":"0cbac1dc-3598-4237-b2eb-55e742062e79","system_id":"levelo_inurba_marseille","lat":43.301939,"lon":5.366286,"is_reserved":false,"is_disabled":false,"rental_uris":{"android":"levelo://app?vid=0cbac1dc-3598-4237-b2eb-55e742062e79","ios":"levelo://app?vid=0cbac1dc-3598-4237-b2eb-55e742062e79"},"vehicle_type_id":"4","last_reported":1692590889,"current_range_meters":28800,"station_id":"ce4bgrh2rcd13ifvqc8g","pricing_plan_id":"free"},{"bike_id":"c2bbec74-f630-4b9b-bce6-d4c13e5070fc","system_id":"levelo_inurba_marseille","lat":43.308012,"lon":5.381511,"is_reserved":false,"is_disabled":false,"rental_uris":{"android":"levelo://app?vid=c2bbec74-f630-4b9b-bce6-d4c13e5070fc","ios":"levelo://app?vid=c2bbec74-f630-4b9b-bce6-d4c13e5070fc"},"vehicle_type_id":"4","last_reported":1692590889,"current_range_meters":30800,"station_id":"ce4bgt12rcd13ifvqce0","pricing_plan_id":"free"},{"bike_id":"44189330-97b2-4f61-9fe0-3833560cc17d","system_id":"levelo_inurba_marseille","lat":43.308012,"lon":5.381511,"is_reserved":false,"is_disabled":false,"rental_uris":{"android":"levelo://app?vid=44189330-97b2-4f61-9fe0-3833560cc17d","ios":"levelo://app?vid=44189330-97b2-4f61-9fe0-3833560cc17d"},"vehicle_type_id":"4","last_reported":1692590889,"current_range_meters":0,"station_id":"ce4bgt12rcd13ifvqce0","pricing_plan_id":"free"},{"bike_id":"ec55143c-8849-4bef-a775-24de42626cca","system_id":"levelo_inurba_marseille","lat":43.30794,"lon":5.38147,"is_reserved":false,"is_disabled":false,"rental_uris":{"android":"levelo://app?vid=ec55143c-8849-4bef-a775-24de42626cca","ios":"levelo://app?vid=ec55143c-8849-4bef-a775-24de42626cca"},"vehicle_type_id":"4","last_reported":1692590889,"current_range_meters":25200,"station_id":"ce4bgt12rcd13ifvqce0","pricing_plan_id":"free"},{"bike_id":"78066dd6-851a-4231-9426-4b3d9e06bbc3","system_id":"levelo_inurba_marseille","lat":43.304606,"lon":5.379026,"is_reserved":false,"is_disabled":false,"rental_uris":{"android":"levelo://app?vid=78066dd6-851a-4231-9426-4b3d9e06bbc3","ios":"levelo://app?vid=78066dd6-851a-4231-9426-4b3d9e06bbc3"},"vehicle_type_id":"4","last_reported":1692590889,"current_range_meters":31200,"station_id":"ce4bgup2rcd13ifvqcn0","pricing_plan_id":"free"},{"bike_id":"8638a35f-246b-4957-af78-8355d6f7b6a2","system_id":"levelo_inurba_marseille","lat":43.304606,"lon":5.379026,"is_reserved":false,"is_disabled":false,"rental_uris":{"android":"levelo://app?vid=8638a35f-246b-4957-af78-8355d6f7b6a2","ios":"levelo://app?vid=8638a35f-246b-4957-af78-8355d6f7b6a2"},"vehicle_type_id":"4","last_reported":1692590889,"current_range_meters":28800,"station_id":"ce4bgup2rcd13ifvqcn0","pricing_plan_id":"free"},{"bike_id":"72949276-010e-48ce-ab6b-9acd995bf379","system_id":"levelo_inurba_marseille","lat":43.304606,"lon":5.379026,"is_reserved":false,"is_disabled":false,"rental_uris":{"android":"levelo://app?vid=72949276-010e-48ce-ab6b-9acd995bf379","ios":"levelo://app?vid=72949276-010e-48ce-ab6b-9acd995bf379"},"vehicle_type_id":"4","last_reported":1692590889,"current_range_meters":31200,"station_id":"ce4bgup2rcd13ifvqcn0","pricing_plan_id":"free"},{"bike_id":"f16d1cf1-e723-4f08-a77b-a69b25fcd566","system_id":"levelo_inurba_marseille","lat":43.304606,"lon":5.379026,"is_reserved":false,"is_disabled":false,"rental_uris":{"android":"levelo://app?vid=f16d1cf1-e723-4f08-a77b-a69b25fcd566","ios":"levelo://app?vid=f16d1cf1-e723-4f08-a77b-a69b25fcd566"},"vehicle_type_id":"4","last_reported":1692590889,"current_range_meters":20800,"station_id":"ce4bgup2rcd13ifvqcn0","pricing_plan_id":"free"},{"bike_id":"90024a09-49f1-488d-9e0f-281334066efd","system_id":"levelo_inurba_marseille","lat":43.304606,"lon":5.379026,"is_reserved":false,"is_disabled":false,"rental_uris":{"android":"levelo://app?vid=90024a09-49f1-488d-9e0f-281334066efd","ios":"levelo://app?vid=90024a09-49f1-488d-9e0f-281334066efd"},"vehicle_type_id":"4","last_reported":1692590889,"current_range_meters":32000,"station_id":"ce4bgup2rcd13ifvqcn0","pricing_plan_id":"free"},{"bike_id":"6c300eee-25f6-4c53-83ed-25b30645ade6","system_id":"levelo_inurba_marseille","lat":43.304606,"lon":5.379026,"is_reserved":false,"is_disabled":false,"rental_uris":{"android":"levelo://app?vid=6c300eee-25f6-4c53-83ed-25b30645ade6","ios":"levelo://app?vid=6c300eee-25f6-4c53-83ed-25b30645ade6"},"vehicle_type_id":"4","last_reported":1692590889,"current_range_meters":28000,"station_id":"ce4bgup2rcd13ifvqcn0","pricing_plan_id":"free"},{"bike_id":"9ae77316-bb6c-401b-b95a-80c7f20b3182","system_id":"levelo_inurba_marseille","lat":43.304606,"lon":5.379026,"is_reserved":false,"is_disabled":false,"rental_uris":{"android":"levelo://app?vid=9ae77316-bb6c-401b-b95a-80c7f20b3182","ios":"levelo://app?vid=9ae77316-bb6c-401b-b95a-80c7f20b3182"},"vehicle_type_id":"4","last_reported":1692590889,"current_range_meters":31200,"station_id":"ce4bgup2rcd13ifvqcn0","pricing_plan_id":"free"},{"bike_id":"7ee830a6-ac6f-4834-a44b-a9c00d12fdc8","system_id":"levelo_inurba_marseille","lat":43.304606,"lon":5.379026,"is_reserved":false,"is_disabled":false,"rental_uris":{"android":"levelo://app?vid=7ee830a6-ac6f-4834-a44b-a9c00d12fdc8","ios":"levelo://app?vid=7ee830a6-ac6f-4834-a44b-a9c00d12fdc8"},"vehicle_type_id":"4","last_reported":1692590889,"current_range_meters":31200,"station_id":"ce4bgup2rcd13ifvqcn0","pricing_plan_id":"free"},{"bike_id":"b259510f-16d2-4a7a-9229-d9c88d4d3ad3","system_id":"levelo_inurba_marseille","lat":43.304606,"lon":5.379026,"is_reserved":false,"is_disabled":false,"rental_uris":{"android":"levelo://app?vid=b259510f-16d2-4a7a-9229-d9c88d4d3ad3","ios":"levelo://app?vid=b259510f-16d2-4a7a-9229-d9c88d4d3ad3"},"vehicle_type_id":"4","last_reported":1692590889,"current_range_meters":29600,"station_id":"ce4bgup2rcd13ifvqcn0","pricing_plan_id":"free"},{"bike_id":"8edd85c3-2923-4701-9f34-f31504634ead","system_id":"levelo_inurba_marseille","lat":43.304606,"lon":5.379026,"is_reserved":false,"is_disabled":false,"rental_uris":{"android":"levelo://app?vid=8edd85c3-2923-4701-9f34-f31504634ead","ios":"levelo://app?vid=8edd85c3-2923-4701-9f34-f31504634ead"},"vehicle_type_id":"4","last_reported":1692590889,"current_range_meters":30000,"station_id":"ce4bgup2rcd13ifvqcn0","pricing_plan_id":"free"},{"bike_id":"05e83b30-bc86-4fc3-ae8a-ab27d7697f7c","system_id":"levelo_inurba_marseille","lat":43.304606,"lon":5.379026,"is_reserved":false,"is_disabled":false,"rental_uris":{"android":"levelo://app?vid=05e83b30-bc86-4fc3-ae8a-ab27d7697f7c","ios":"levelo://app?vid=05e83b30-bc86-4fc3-ae8a-ab27d7697f7c"},"vehicle_type_id":"4","last_reported":1692590889,"current_range_meters":26000,"station_id":"ce4bgup2rcd13ifvqcn0","pricing_plan_id":"free"},{"bike_id":"e90ec1a3-5e36-459e-9533-114ea8ca75ba","system_id":"levelo_inurba_marseille","lat":43.304606,"lon":5.379026,"is_reserved":false,"is_disabled":false,"rental_uris":{"android":"levelo://app?vid=e90ec1a3-5e36-459e-9533-114ea8ca75ba","ios":"levelo://app?vid=e90ec1a3-5e36-459e-9533-114ea8ca75ba"},"vehicle_type_id":"4","last_reported":1692590889,"current_range_meters":26000,"station_id":"ce4bgup2rcd13ifvqcn0","pricing_plan_id":"free"},{"bike_id":"3d358afb-1dec-4442-a957-0793c9564969","system_id":"levelo_inurba_marseille","lat":43.304606,"lon":5.379026,"is_reserved":false,"is_disabled":false,"rental_uris":{"android":"levelo://app?vid=3d358afb-1dec-4442-a957-0793c9564969","ios":"levelo://app?vid=3d358afb-1dec-4442-a957-0793c9564969"},"vehicle_type_id":"4","last_reported":1692590889,"current_range_meters":13200,"station_id":"ce4bgup2rcd13ifvqcn0","pricing_plan_id":"free"},{"bike_id":"207957e3-aff5-40a4-a20d-76cd86e0855e","system_id":"levelo_inurba_marseille","lat":43.304606,"lon":5.379026,"is_reserved":false,"is_disabled":false,"rental_uris":{"android":"levelo://app?vid=207957e3-aff5-40a4-a20d-76cd86e0855e","ios":"levelo://app?vid=207957e3-aff5-40a4-a20d-76cd86e0855e"},"vehicle_type_id":"4","last_reported":1692590889,"current_range_meters":30400,"station_id":"ce4bgup2rcd13ifvqcn0","pricing_plan_id":"free"},{"bike_id":"e47ab715-9f57-440e-b917-e26026ed0f4a","system_id":"levelo_inurba_marseille","lat":43.30284,"lon":5.37696,"is_reserved":false,"is_disabled":false,"rental_uris":{"android":"levelo://app?vid=e47ab715-9f57-440e-b917-e26026ed0f4a","ios":"levelo://app?vid=e47ab715-9f57-440e-b917-e26026ed0f4a"},"vehicle_type_id":"4","last_reported":1692590889,"current_range_meters":13600,"station_id":"ce4bguh2rcd13ifvqcj0","pricing_plan_id":"free"},{"bike_id":"994eae2f-8f1a-42ff-9944-2b0806d9b097","system_id":"levelo_inurba_marseille","lat":43.30154,"lon":5.37425,"is_reserved":false,"is_disabled":false,"rental_uris":{"android":"levelo://app?vid=994eae2f-8f1a-42ff-9944-2b0806d9b097","ios":"levelo://app?vid=994eae2f-8f1a-42ff-9944-2b0806d9b097"},"vehicle_type_id":"4","last_reported":1692590889,"current_range_meters":31200,"station_id":"ce4bgs92rcd13ifvqcc0","pricing_plan_id":"free"},{"bike_id":"31f0135e-4596-42c8-8de9-3fbcb8de4911","system_id":"levelo_inurba_marseille","lat":43.30153,"lon":5.37428,"is_reserved":false,"is_disabled":false,"rental_uris":{"android":"levelo://app?vid=31f0135e-4596-42c8-8de9-3fbcb8de4911","ios":"levelo://app?vid=31f0135e-4596-42c8-8de9-3fbcb8de4911"},"vehicle_type_id":"4","last_reported":1692590889,"current_range_meters":12400,"station_id":"ce4bgs92rcd13ifvqcc0","pricing_plan_id":"free"},{"bike_id":"5d1e0d9c-810e-4c01-860f-3c140af53eaf","system_id":"levelo_inurba_marseille","lat":43.30144,"lon":5.37425,"is_reserved":false,"is_disabled":false,"rental_uris":{"android":"levelo://app?vid=5d1e0d9c-810e-4c01-860f-3c140af53eaf","ios":"levelo://app?vid=5d1e0d9c-810e-4c01-860f-3c140af53eaf"},"vehicle_type_id":"4","last_reported":1692590889,"current_range_meters":7600,"station_id":"ce4bgs92rcd13ifvqcc0","pricing_plan_id":"free"},{"bike_id":"da4f4d64-fb00-4252-ba1b-e61d5d630bad","system_id":"levelo_inurba_marseille","lat":43.3014,"lon":5.37417,"is_reserved":false,"is_disabled":false,"rental_uris":{"android":"levelo://app?vid=da4f4d64-fb00-4252-ba1b-e61d5d630bad","ios":"levelo://app?vid=da4f4d64-fb00-4252-ba1b-e61d5d630bad"},"vehicle_type_id":"4","last_reported":1692590889,"current_range_meters":15600,"station_id":"ce4bgs92rcd13ifvqcc0","pricing_plan_id":"free"},{"bike_id":"ae5c898d-ade2-401d-95b7-76584725a01f","system_id":"levelo_inurba_marseille","lat":43.31998,"lon":5.38148,"is_reserved":false,"is_disabled":false,"rental_uris":{"android":"levelo://app?vid=ae5c898d-ade2-401d-95b7-76584725a01f","ios":"levelo://app?vid=ae5c898d-ade2-401d-95b7-76584725a01f"},"vehicle_type_id":"4","last_reported":1692590889,"current_range_meters":4000,"station_id":"ce4bhr12rcd13ifvqhpg","pricing_plan_id":"free"},{"bike_id":"b4fecacf-0541-46f0-9b4a-699db193b0ef","system_id":"levelo_inurba_marseille","lat":43.32001,"lon":5.38146,"is_reserved":false,"is_disabled":false,"rental_uris":{"android":"levelo://app?vid=b4fecacf-0541-46f0-9b4a-699db193b0ef","ios":"levelo://app?vid=b4fecacf-0541-46f0-9b4a-699db193b0ef"},"vehicle_type_id":"4","last_reported":1692590889,"current_range_meters":15600,"station_id":"ce4bhr12rcd13ifvqhpg","pricing_plan_id":"free"},{"bike_id":"34a2d6ee-ebe0-4be0-be87-9b25b49342ce","system_id":"levelo_inurba_marseille","lat":43.32001,"lon":5.38149,"is_reserved":false,"is_disabled":false,"rental_uris":{"android":"levelo://app?vid=34a2d6ee-ebe0-4be0-be87-9b25b49342ce","ios":"levelo://app?vid=34a2d6ee-ebe0-4be0-be87-9b25b49342ce"},"vehicle_type_id":"4","last_reported":1692590889,"current_range_meters":1600,"station_id":"ce4bhr12rcd13ifvqhpg","pricing_plan_id":"free"},{"bike_id":"95528a33-426b-46a5-8823-a9faf8db8be0","system_id":"levelo_inurba_marseille","lat":43.31997,"lon":5.38155,"is_reserved":false,"is_disabled":false,"rental_uris":{"android":"levelo://app?vid=95528a33-426b-46a5-8823-a9faf8db8be0","ios":"levelo://app?vid=95528a33-426b-46a5-8823-a9faf8db8be0"},"vehicle_type_id":"4","last_reported":1692590889,"current_range_meters":3200,"station_id":"ce4bhr12rcd13ifvqhpg","pricing_plan_id":"free"},{"bike_id":"b177fc79-b535-4018-b92c-0c516ad3675c","system_id":"levelo_inurba_marseille","lat":43.32004,"lon":5.3815,"is_reserved":false,"is_disabled":false,"rental_uris":{"android":"levelo://app?vid=b177fc79-b535-4018-b92c-0c516ad3675c","ios":"levelo://app?vid=b177fc79-b535-4018-b92c-0c516ad3675c"},"vehicle_type_id":"4","last_reported":1692590889,"current_range_meters":9600,"station_id":"ce4bhr12rcd13ifvqhpg","pricing_plan_id":"free"},{"bike_id":"9a78505b-7522-4ca4-92f5-9a4dbf3830a4","system_id":"levelo_inurba_marseille","lat":43.313571,"lon":5.384829,"is_reserved":false,"is_disabled":false,"rental_uris":{"android":"levelo://app?vid=9a78505b-7522-4ca4-92f5-9a4dbf3830a4","ios":"levelo://app?vid=9a78505b-7522-4ca4-92f5-9a4dbf3830a4"},"vehicle_type_id":"4","last_reported":1692590889,"current_range_meters":12400,"station_id":"ce4bgt92rcd13ifvqcf0","pricing_plan_id":"free"},{"bike_id":"9e6b440e-7886-4c35-8865-2d81934ae637","system_id":"levelo_inurba_marseille","lat":43.31374,"lon":5.38491,"is_reserved":false,"is_disabled":false,"rental_uris":{"android":"levelo://app?vid=9e6b440e-7886-4c35-8865-2d81934ae637","ios":"levelo://app?vid=9e6b440e-7886-4c35-8865-2d81934ae637"},"vehicle_type_id":"4","last_reported":1692590889,"current_range_meters":31200,"station_id":"","pricing_plan_id":"free"},{"bike_id":"f24a40f9-471d-433a-afbe-3837215c7722","system_id":"levelo_inurba_marseille","lat":43.3137,"lon":5.38492,"is_reserved":false,"is_disabled":false,"rental_uris":{"android":"levelo://app?vid=f24a40f9-471d-433a-afbe-3837215c7722","ios":"levelo://app?vid=f24a40f9-471d-433a-afbe-3837215c7722"},"vehicle_type_id":"4","last_reported":1692590889,"current_range_meters":28400,"station_id":"ce4bgt92rcd13ifvqcf0","pricing_plan_id":"free"},{"bike_id":"dd31b44e-98bc-4a58-8c59-08f02d2c08f5","system_id":"levelo_inurba_marseille","lat":43.313571,"lon":5.384829,"is_reserved":false,"is_disabled":false,"rental_uris":{"android":"levelo://app?vid=dd31b44e-98bc-4a58-8c59-08f02d2c08f5","ios":"levelo://app?vid=dd31b44e-98bc-4a58-8c59-08f02d2c08f5"},"vehicle_type_id":"4","last_reported":1692590889,"current_range_meters":5200,"station_id":"ce4bgt92rcd13ifvqcf0","pricing_plan_id":"free"},{"bike_id":"33493000-25c0-45a1-8437-27775aacc6bc","system_id":"levelo_inurba_marseille","lat":43.2994,"lon":5.36532,"is_reserved":false,"is_disabled":false,"rental_uris":{"android":"levelo://app?vid=33493000-25c0-45a1-8437-27775aacc6bc","ios":"levelo://app?vid=33493000-25c0-45a1-8437-27775aacc6bc"},"vehicle_type_id":"4","last_reported":1692590889,"current_range_meters":800,"station_id":"ce4bgm92rcd13ifvqbr0","pricing_plan_id":"free"},{"bike_id":"95dc9ecf-047e-4c3a-bb12-a5676cb36ad4","system_id":"levelo_inurba_marseille","lat":43.3216,"lon":5.38166,"is_reserved":false,"is_disabled":false,"rental_uris":{"android":"levelo://app?vid=95dc9ecf-047e-4c3a-bb12-a5676cb36ad4","ios":"levelo://app?vid=95dc9ecf-047e-4c3a-bb12-a5676cb36ad4"},"vehicle_type_id":"4","last_reported":1692590889,"current_range_meters":12400,"station_id":"","pricing_plan_id":"free"},{"bike_id":"599b2aa5-50e2-4a99-ac4d-f429b768346b","system_id":"levelo_inurba_marseille","lat":43.29853,"lon":5.36289,"is_reserved":false,"is_disabled":false,"rental_uris":{"android":"levelo://app?vid=599b2aa5-50e2-4a99-ac4d-f429b768346b","ios":"levelo://app?vid=599b2aa5-50e2-4a99-ac4d-f429b768346b"},"vehicle_type_id":"4","last_reported":1692590889,"current_range_meters":0,"station_id":"ce4bgpp2rcd13ifvqc3g","pricing_plan_id":"free"},{"bike_id":"ab39d27f-bc74-43a2-8bab-9f3a84223d5c","system_id":"levelo_inurba_marseille","lat":43.3053,"lon":5.38413,"is_reserved":false,"is_disabled":false,"rental_uris":{"android":"levelo://app?vid=ab39d27f-bc74-43a2-8bab-9f3a84223d5c","ios":"levelo://app?vid=ab39d27f-bc74-43a2-8bab-9f3a84223d5c"},"vehicle_type_id":"4","last_reported":1692590889,"current_range_meters":31200,"station_id":"ce4bgg92rcd13ifvqb30","pricing_plan_id":"free"},{"bike_id":"e3e34699-0d40-4201-8f08-d96e2b995f91","system_id":"levelo_inurba_marseille","lat":43.30536,"lon":5.38428,"is_reserved":false,"is_disabled":false,"rental_uris":{"android":"levelo://app?vid=e3e34699-0d40-4201-8f08-d96e2b995f91","ios":"levelo://app?vid=e3e34699-0d40-4201-8f08-d96e2b995f91"},"vehicle_type_id":"4","last_reported":1692590889,"current_range_meters":31200,"station_id":"ce4bgg92rcd13ifvqb30","pricing_plan_id":"free"},{"bike_id":"84560908-8a89-4a05-ba03-1b50ec6cd615","system_id":"levelo_inurba_marseille","lat":43.305364,"lon":5.384119,"is_reserved":false,"is_disabled":false,"rental_uris":{"android":"levelo://app?vid=84560908-8a89-4a05-ba03-1b50ec6cd615","ios":"levelo://app?vid=84560908-8a89-4a05-ba03-1b50ec6cd615"},"vehicle_type_id":"4","last_reported":1692590889,"current_range_meters":18000,"station_id":"ce4bgg92rcd13ifvqb30","pricing_plan_id":"free"},{"bike_id":"720328b1-9d12-4297-a92f-6f1f772ccc99","system_id":"levelo_inurba_marseille","lat":43.305364,"lon":5.384119,"is_reserved":false,"is_disabled":false,"rental_uris":{"android":"levelo://app?vid=720328b1-9d12-4297-a92f-6f1f772ccc99","ios":"levelo://app?vid=720328b1-9d12-4297-a92f-6f1f772ccc99"},"vehicle_type_id":"4","last_reported":1692590889,"current_range_meters":30000,"station_id":"ce4bgg92rcd13ifvqb30","pricing_plan_id":"free"},{"bike_id":"81843ea3-9192-4b4a-9264-e1a7a8bd42da","system_id":"levelo_inurba_marseille","lat":43.305364,"lon":5.384119,"is_reserved":false,"is_disabled":false,"rental_uris":{"android":"levelo://app?vid=81843ea3-9192-4b4a-9264-e1a7a8bd42da","ios":"levelo://app?vid=81843ea3-9192-4b4a-9264-e1a7a8bd42da"},"vehicle_type_id":"4","last_reported":1692590889,"current_range_meters":0,"station_id":"ce4bgg92rcd13ifvqb30","pricing_plan_id":"free"},{"bike_id":"6e41d831-b7a6-4e80-a76f-6845febc1d7a","system_id":"levelo_inurba_marseille","lat":43.30537,"lon":5.38436,"is_reserved":false,"is_disabled":false,"rental_uris":{"android":"levelo://app?vid=6e41d831-b7a6-4e80-a76f-6845febc1d7a","ios":"levelo://app?vid=6e41d831-b7a6-4e80-a76f-6845febc1d7a"},"vehicle_type_id":"4","last_reported":1692590889,"current_range_meters":24000,"station_id":"ce4bgg92rcd13ifvqb30","pricing_plan_id":"free"},{"bike_id":"9baf8f2e-a296-4b67-9500-e03d654fbcb6","system_id":"levelo_inurba_marseille","lat":43.311722,"lon":5.387247,"is_reserved":false,"is_disabled":false,"rental_uris":{"android":"levelo://app?vid=9baf8f2e-a296-4b67-9500-e03d654fbcb6","ios":"levelo://app?vid=9baf8f2e-a296-4b67-9500-e03d654fbcb6"},"vehicle_type_id":"4","last_reported":1692590889,"current_range_meters":26800,"station_id":"ce4bgv12rcd13ifvqcp0","pricing_plan_id":"free"},{"bike_id":"039036b6-ef50-4aea-8cd8-4ab7b9ddc735","system_id":"levelo_inurba_marseille","lat":43.299243,"lon":5.374807,"is_reserved":false,"is_disabled":false,"rental_uris":{"android":"levelo://app?vid=039036b6-ef50-4aea-8cd8-4ab7b9ddc735","ios":"levelo://app?vid=039036b6-ef50-4aea-8cd8-4ab7b9ddc735"},"vehicle_type_id":"4","last_reported":1692590889,"current_range_meters":25200,"station_id":"ce4bgjh2rcd13ifvqbg0","pricing_plan_id":"free"},{"bike_id":"e043dc60-625f-43b4-aa30-315072314797","system_id":"levelo_inurba_marseille","lat":43.311722,"lon":5.387247,"is_reserved":false,"is_disabled":false,"rental_uris":{"android":"levelo://app?vid=e043dc60-625f-43b4-aa30-315072314797","ios":"levelo://app?vid=e043dc60-625f-43b4-aa30-315072314797"},"vehicle_type_id":"4","last_reported":1692590889,"current_range_meters":8800,"station_id":"ce4bgv12rcd13ifvqcp0","pricing_plan_id":"free"},{"bike_id":"7c38fb8d-f3b9-4283-8253-e9cd805e6d27","system_id":"levelo_inurba_marseille","lat":43.311722,"lon":5.387247,"is_reserved":false,"is_disabled":false,"rental_uris":{"android":"levelo://app?vid=7c38fb8d-f3b9-4283-8253-e9cd805e6d27","ios":"levelo://app?vid=7c38fb8d-f3b9-4283-8253-e9cd805e6d27"},"vehicle_type_id":"4","last_reported":1692590889,"current_range_meters":25600,"station_id":"ce4bgv12rcd13ifvqcp0","pricing_plan_id":"free"},{"bike_id":"233b69cd-29e1-40f5-822f-f7bf54b667ea","system_id":"levelo_inurba_marseille","lat":43.299243,"lon":5.37481,"is_reserved":false,"is_disabled":false,"rental_uris":{"android":"levelo://app?vid=233b69cd-29e1-40f5-822f-f7bf54b667ea","ios":"levelo://app?vid=233b69cd-29e1-40f5-822f-f7bf54b667ea"},"vehicle_type_id":"4","last_reported":1692590889,"current_range_meters":30800,"station_id":"ce4bgjh2rcd13ifvqbg0","pricing_plan_id":"free"},{"bike_id":"0a5a0003-71a2-4064-b2f3-cd8fea0d69ed","system_id":"levelo_inurba_marseille","lat":43.311722,"lon":5.387247,"is_reserved":false,"is_disabled":false,"rental_uris":{"android":"levelo://app?vid=0a5a0003-71a2-4064-b2f3-cd8fea0d69ed","ios":"levelo://app?vid=0a5a0003-71a2-4064-b2f3-cd8fea0d69ed"},"vehicle_type_id":"4","last_reported":1692590889,"current_range_meters":31600,"station_id":"ce4bgv12rcd13ifvqcp0","pricing_plan_id":"free"},{"bike_id":"b885f463-e8c5-42cc-902f-7152167ce1c7","system_id":"levelo_inurba_marseille","lat":43.29912,"lon":5.37499,"is_reserved":false,"is_disabled":false,"rental_uris":{"android":"levelo://app?vid=b885f463-e8c5-42cc-902f-7152167ce1c7","ios":"levelo://app?vid=b885f463-e8c5-42cc-902f-7152167ce1c7"},"vehicle_type_id":"4","last_reported":1692590889,"current_range_meters":30000,"station_id":"ce4bgjh2rcd13ifvqbg0","pricing_plan_id":"free"},{"bike_id":"b9784bc4-a1f4-4e7b-a996-3746dcc4c656","system_id":"levelo_inurba_marseille","lat":43.32286,"lon":5.38277,"is_reserved":false,"is_disabled":false,"rental_uris":{"android":"levelo://app?vid=b9784bc4-a1f4-4e7b-a996-3746dcc4c656","ios":"levelo://app?vid=b9784bc4-a1f4-4e7b-a996-3746dcc4c656"},"vehicle_type_id":"4","last_reported":1692590889,"current_range_meters":2800,"station_id":"ce4bhr12rcd13ifvqhqg","pricing_plan_id":"free"},{"bike_id":"a1f7b084-f437-4e0c-8b20-334f54c48d59","system_id":"levelo_inurba_marseille","lat":43.32291,"lon":5.38278,"is_reserved":false,"is_disabled":false,"rental_uris":{"android":"levelo://app?vid=a1f7b084-f437-4e0c-8b20-334f54c48d59","ios":"levelo://app?vid=a1f7b084-f437-4e0c-8b20-334f54c48d59"},"vehicle_type_id":"4","last_reported":1692590889,"current_range_meters":11600,"station_id":"ce4bhr12rcd13ifvqhqg","pricing_plan_id":"free"},{"bike_id":"5b5c8cae-b425-4976-9ba8-5ae205664d6b","system_id":"levelo_inurba_marseille","lat":43.32296,"lon":5.38273,"is_reserved":false,"is_disabled":false,"rental_uris":{"android":"levelo://app?vid=5b5c8cae-b425-4976-9ba8-5ae205664d6b","ios":"levelo://app?vid=5b5c8cae-b425-4976-9ba8-5ae205664d6b"},"vehicle_type_id":"4","last_reported":1692590889,"current_range_meters":10800,"station_id":"ce4bhr12rcd13ifvqhqg","pricing_plan_id":"free"},{"bike_id":"110bd150-ae2d-4085-890c-a8f4481980e0","system_id":"levelo_inurba_marseille","lat":43.32296,"lon":5.38279,"is_reserved":false,"is_disabled":false,"rental_uris":{"android":"levelo://app?vid=110bd150-ae2d-4085-890c-a8f4481980e0","ios":"levelo://app?vid=110bd150-ae2d-4085-890c-a8f4481980e0"},"vehicle_type_id":"4","last_reported":1692590889,"current_range_meters":22800,"station_id":"ce4bhr12rcd13ifvqhqg","pricing_plan_id":"free"},{"bike_id":"eb70974a-c524-46d9-b5be-026bf2b9f1f4","system_id":"levelo_inurba_marseille","lat":43.328371,"lon":5.366909,"is_reserved":false,"is_disabled":false,"rental_uris":{"android":"levelo://app?vid=eb70974a-c524-46d9-b5be-026bf2b9f1f4","ios":"levelo://app?vid=eb70974a-c524-46d9-b5be-026bf2b9f1f4"},"vehicle_type_id":"4","last_reported":1692590889,"current_range_meters":28400,"station_id":"ce4bhs92rcd13ifvqi0g","pricing_plan_id":"free"},{"bike_id":"c8c65f3c-21b7-4553-a097-39e788b64034","system_id":"levelo_inurba_marseille","lat":43.32826,"lon":5.36688,"is_reserved":false,"is_disabled":false,"rental_uris":{"android":"levelo://app?vid=c8c65f3c-21b7-4553-a097-39e788b64034","ios":"levelo://app?vid=c8c65f3c-21b7-4553-a097-39e788b64034"},"vehicle_type_id":"4","last_reported":1692590889,"current_range_meters":21600,"station_id":"ce4bhs92rcd13ifvqi0g","pricing_plan_id":"free"},{"bike_id":"5b8e48f9-77d7-46c4-8853-5410f28c6930","system_id":"levelo_inurba_marseille","lat":43.328371,"lon":5.366909,"is_reserved":false,"is_disabled":false,"rental_uris":{"android":"levelo://app?vid=5b8e48f9-77d7-46c4-8853-5410f28c6930","ios":"levelo://app?vid=5b8e48f9-77d7-46c4-8853-5410f28c6930"},"vehicle_type_id":"4","last_reported":1692590889,"current_range_meters":1200,"station_id":"ce4bhs92rcd13ifvqi0g","pricing_plan_id":"free"},{"bike_id":"b73e61ac-fe20-4679-bfdf-8851c01afe62","system_id":"levelo_inurba_marseille","lat":43.32829,"lon":5.36673,"is_reserved":false,"is_disabled":false,"rental_uris":{"android":"levelo://app?vid=b73e61ac-fe20-4679-bfdf-8851c01afe62","ios":"levelo://app?vid=b73e61ac-fe20-4679-bfdf-8851c01afe62"},"vehicle_type_id":"4","last_reported":1692590889,"current_range_meters":31200,"station_id":"ce4bhs92rcd13ifvqi0g","pricing_plan_id":"free"},{"bike_id":"4cbec067-4527-483a-818d-69c4afd2ea31","system_id":"levelo_inurba_marseille","lat":43.32832,"lon":5.36674,"is_reserved":false,"is_disabled":false,"rental_uris":{"android":"levelo://app?vid=4cbec067-4527-483a-818d-69c4afd2ea31","ios":"levelo://app?vid=4cbec067-4527-483a-818d-69c4afd2ea31"},"vehicle_type_id":"4","last_reported":1692590889,"current_range_meters":16400,"station_id":"ce4bhs92rcd13ifvqi0g","pricing_plan_id":"free"},{"bike_id":"dd789220-e7b5-42c1-b9dc-dc4243148021","system_id":"levelo_inurba_marseille","lat":43.297163,"lon":5.365866,"is_reserved":false,"is_disabled":false,"rental_uris":{"android":"levelo://app?vid=dd789220-e7b5-42c1-b9dc-dc4243148021","ios":"levelo://app?vid=dd789220-e7b5-42c1-b9dc-dc4243148021"},"vehicle_type_id":"4","last_reported":1692590889,"current_range_meters":31200,"station_id":"ce4bgn12rcd13ifvqbt0","pricing_plan_id":"free"},{"bike_id":"97897afe-9902-4c43-9f19-d17acb314f86","system_id":"levelo_inurba_marseille","lat":43.328529,"lon":5.366429,"is_reserved":false,"is_disabled":false,"rental_uris":{"android":"levelo://app?vid=97897afe-9902-4c43-9f19-d17acb314f86","ios":"levelo://app?vid=97897afe-9902-4c43-9f19-d17acb314f86"},"vehicle_type_id":"4","last_reported":1692590889,"current_range_meters":23600,"station_id":"ce4bhs92rcd13ifvqi0g","pricing_plan_id":"free"},{"bike_id":"26f9ad5b-4db0-48d7-ba05-f846102e13cb","system_id":"levelo_inurba_marseille","lat":43.2968,"lon":5.37291,"is_reserved":false,"is_disabled":false,"rental_uris":{"android":"levelo://app?vid=26f9ad5b-4db0-48d7-ba05-f846102e13cb","ios":"levelo://app?vid=26f9ad5b-4db0-48d7-ba05-f846102e13cb"},"vehicle_type_id":"4","last_reported":1692590889,"current_range_meters":17200,"station_id":"ce4bgk12rcd13ifvqbj0","pricing_plan_id":"free"},{"bike_id":"bb155e93-116e-494a-9911-2df351c7dae8","system_id":"levelo_inurba_marseille","lat":43.296129,"lon":5.370777,"is_reserved":false,"is_disabled":false,"rental_uris":{"android":"levelo://app?vid=bb155e93-116e-494a-9911-2df351c7dae8","ios":"levelo://app?vid=bb155e93-116e-494a-9911-2df351c7dae8"},"vehicle_type_id":"4","last_reported":1692590889,"current_range_meters":28800,"station_id":"ce4bgnh2rcd13ifvqc0g","pricing_plan_id":"free"},{"bike_id":"d3139180-8ba9-4c91-b6e4-8baae3c22113","system_id":"levelo_inurba_marseille","lat":43.296131,"lon":5.370773,"is_reserved":false,"is_disabled":false,"rental_uris":{"android":"levelo://app?vid=d3139180-8ba9-4c91-b6e4-8baae3c22113","ios":"levelo://app?vid=d3139180-8ba9-4c91-b6e4-8baae3c22113"},"vehicle_type_id":"4","last_reported":1692590889,"current_range_meters":30000,"station_id":"ce4bgnh2rcd13ifvqc0g","pricing_plan_id":"free"},{"bike_id":"c1a94ba1-51b4-49d6-b450-4bead9c825ef","system_id":"levelo_inurba_marseille","lat":43.299028,"lon":5.381509,"is_reserved":false,"is_disabled":false,"rental_uris":{"android":"levelo://app?vid=c1a94ba1-51b4-49d6-b450-4bead9c825ef","ios":"levelo://app?vid=c1a94ba1-51b4-49d6-b450-4bead9c825ef"},"vehicle_type_id":"4","last_reported":1692590889,"current_range_meters":26000,"station_id":"ce4bgj12rcd13ifvqbc0","pricing_plan_id":"free"},{"bike_id":"3c552fa2-856e-44df-a771-3b6affdf8877","system_id":"levelo_inurba_marseille","lat":43.299028,"lon":5.381509,"is_reserved":false,"is_disabled":false,"rental_uris":{"android":"levelo://app?vid=3c552fa2-856e-44df-a771-3b6affdf8877","ios":"levelo://app?vid=3c552fa2-856e-44df-a771-3b6affdf8877"},"vehicle_type_id":"4","last_reported":1692590889,"current_range_meters":31200,"station_id":"ce4bgj12rcd13ifvqbc0","pricing_plan_id":"free"},{"bike_id":"3361a0fe-c663-4c5b-8253-70a1b759f100","system_id":"levelo_inurba_marseille","lat":43.30956,"lon":5.39036,"is_reserved":false,"is_disabled":false,"rental_uris":{"android":"levelo://app?vid=3361a0fe-c663-4c5b-8253-70a1b759f100","ios":"levelo://app?vid=3361a0fe-c663-4c5b-8253-70a1b759f100"},"vehicle_type_id":"4","last_reported":1692590889,"current_range_meters":31200,"station_id":"ce4bgup2rcd13ifvqco0","pricing_plan_id":"free"},{"bike_id":"a4be5a19-ae1d-48d2-91d8-0320e0d1a387","system_id":"levelo_inurba_marseille","lat":43.299028,"lon":5.381509,"is_reserved":false,"is_disabled":false,"rental_uris":{"android":"levelo://app?vid=a4be5a19-ae1d-48d2-91d8-0320e0d1a387","ios":"levelo://app?vid=a4be5a19-ae1d-48d2-91d8-0320e0d1a387"},"vehicle_type_id":"4","last_reported":1692590889,"current_range_meters":16400,"station_id":"ce4bgj12rcd13ifvqbc0","pricing_plan_id":"free"},{"bike_id":"fd36a568-6865-4c2f-a6d8-0df9f69baedf","system_id":"levelo_inurba_marseille","lat":43.30958,"lon":5.39055,"is_reserved":false,"is_disabled":false,"rental_uris":{"android":"levelo://app?vid=fd36a568-6865-4c2f-a6d8-0df9f69baedf","ios":"levelo://app?vid=fd36a568-6865-4c2f-a6d8-0df9f69baedf"},"vehicle_type_id":"4","last_reported":1692590889,"current_range_meters":31200,"station_id":"ce4bgup2rcd13ifvqco0","pricing_plan_id":"free"},{"bike_id":"d09381ab-f832-4ed2-862f-e9df7b27bb9b","system_id":"levelo_inurba_marseille","lat":43.30954,"lon":5.39056,"is_reserved":false,"is_disabled":false,"rental_uris":{"android":"levelo://app?vid=d09381ab-f832-4ed2-862f-e9df7b27bb9b","ios":"levelo://app?vid=d09381ab-f832-4ed2-862f-e9df7b27bb9b"},"vehicle_type_id":"4","last_reported":1692590889,"current_range_meters":31200,"station_id":"ce4bgup2rcd13ifvqco0","pricing_plan_id":"free"},{"bike_id":"a42a78d6-88a9-47a2-ac2d-71450bc42673","system_id":"levelo_inurba_marseille","lat":43.298037,"lon":5.381066,"is_reserved":false,"is_disabled":false,"rental_uris":{"android":"levelo://app?vid=a42a78d6-88a9-47a2-ac2d-71450bc42673","ios":"levelo://app?vid=a42a78d6-88a9-47a2-ac2d-71450bc42673"},"vehicle_type_id":"4","last_reported":1692590889,"current_range_meters":31600,"station_id":"ce4bgip2rcd13ifvqbb0","pricing_plan_id":"free"},{"bike_id":"b94c734d-3f31-45b5-9abe-e138f486d693","system_id":"levelo_inurba_marseille","lat":43.298037,"lon":5.381066,"is_reserved":false,"is_disabled":false,"rental_uris":{"android":"levelo://app?vid=b94c734d-3f31-45b5-9abe-e138f486d693","ios":"levelo://app?vid=b94c734d-3f31-45b5-9abe-e138f486d693"},"vehicle_type_id":"4","last_reported":1692590889,"current_range_meters":31600,"station_id":"ce4bgip2rcd13ifvqbb0","pricing_plan_id":"free"},{"bike_id":"edc68ca8-f70e-4f7b-8fc1-fd3b0bd0a60f","system_id":"levelo_inurba_marseille","lat":43.298037,"lon":5.381066,"is_reserved":false,"is_disabled":false,"rental_uris":{"android":"levelo://app?vid=edc68ca8-f70e-4f7b-8fc1-fd3b0bd0a60f","ios":"levelo://app?vid=edc68ca8-f70e-4f7b-8fc1-fd3b0bd0a60f"},"vehicle_type_id":"4","last_reported":1692590889,"current_range_meters":9200,"station_id":"ce4bgip2rcd13ifvqbb0","pricing_plan_id":"free"},{"bike_id":"e52f5fc3-75ed-4146-ba1a-faf7524e9412","system_id":"levelo_inurba_marseille","lat":43.298037,"lon":5.381066,"is_reserved":false,"is_disabled":false,"rental_uris":{"android":"levelo://app?vid=e52f5fc3-75ed-4146-ba1a-faf7524e9412","ios":"levelo://app?vid=e52f5fc3-75ed-4146-ba1a-faf7524e9412"},"vehicle_type_id":"4","last_reported":1692590889,"current_range_meters":31600,"station_id":"ce4bgip2rcd13ifvqbb0","pricing_plan_id":"free"},{"bike_id":"222728f7-8972-467e-a5e8-804d467c2c31","system_id":"levelo_inurba_marseille","lat":43.29798,"lon":5.38095,"is_reserved":false,"is_disabled":false,"rental_uris":{"android":"levelo://app?vid=222728f7-8972-467e-a5e8-804d467c2c31","ios":"levelo://app?vid=222728f7-8972-467e-a5e8-804d467c2c31"},"vehicle_type_id":"4","last_reported":1692590889,"current_range_meters":30000,"station_id":"ce4bgip2rcd13ifvqbb0","pricing_plan_id":"free"},{"bike_id":"a4df99ce-0488-49dd-a888-94686f562e88","system_id":"levelo_inurba_marseille","lat":43.295748,"lon":5.37522,"is_reserved":false,"is_disabled":false,"rental_uris":{"android":"levelo://app?vid=a4df99ce-0488-49dd-a888-94686f562e88","ios":"levelo://app?vid=a4df99ce-0488-49dd-a888-94686f562e88"},"vehicle_type_id":"4","last_reported":1692590889,"current_range_meters":27200,"station_id":"ce4bgh92rcd13ifvqb50","pricing_plan_id":"free"},{"bike_id":"37d20cd7-6c6d-40aa-918f-c2b5b52a6b53","system_id":"levelo_inurba_marseille","lat":43.29573,"lon":5.37519,"is_reserved":false,"is_disabled":false,"rental_uris":{"android":"levelo://app?vid=37d20cd7-6c6d-40aa-918f-c2b5b52a6b53","ios":"levelo://app?vid=37d20cd7-6c6d-40aa-918f-c2b5b52a6b53"},"vehicle_type_id":"4","last_reported":1692590889,"current_range_meters":26400,"station_id":"ce4bgh92rcd13ifvqb50","pricing_plan_id":"free"},{"bike_id":"4fbca42a-3773-4978-84a2-4d149111d708","system_id":"levelo_inurba_marseille","lat":43.30432,"lon":5.38888,"is_reserved":false,"is_disabled":false,"rental_uris":{"android":"levelo://app?vid=4fbca42a-3773-4978-84a2-4d149111d708","ios":"levelo://app?vid=4fbca42a-3773-4978-84a2-4d149111d708"},"vehicle_type_id":"4","last_reported":1692590889,"current_range_meters":8000,"station_id":"ce4bgk12rcd13ifvqbi0","pricing_plan_id":"free"},{"bike_id":"954e8514-f988-4618-b8e4-3fcda5f2fc44","system_id":"levelo_inurba_marseille","lat":43.2979,"lon":5.38119,"is_reserved":false,"is_disabled":false,"rental_uris":{"android":"levelo://app?vid=954e8514-f988-4618-b8e4-3fcda5f2fc44","ios":"levelo://app?vid=954e8514-f988-4618-b8e4-3fcda5f2fc44"},"vehicle_type_id":"4","last_reported":1692590889,"current_range_meters":31200,"station_id":"ce4bgip2rcd13ifvqbb0","pricing_plan_id":"free"},{"bike_id":"62835382-94e5-4818-af26-2b7bbd619b22","system_id":"levelo_inurba_marseille","lat":43.299707,"lon":5.384859,"is_reserved":false,"is_disabled":false,"rental_uris":{"android":"levelo://app?vid=62835382-94e5-4818-af26-2b7bbd619b22","ios":"levelo://app?vid=62835382-94e5-4818-af26-2b7bbd619b22"},"vehicle_type_id":"4","last_reported":1692590889,"current_range_meters":20400,"station_id":"ce4bgj92rcd13ifvqbd0","pricing_plan_id":"free"},{"bike_id":"9de546da-c2c8-4485-8037-f781e4632dd6","system_id":"levelo_inurba_marseille","lat":43.299707,"lon":5.384859,"is_reserved":false,"is_disabled":false,"rental_uris":{"android":"levelo://app?vid=9de546da-c2c8-4485-8037-f781e4632dd6","ios":"levelo://app?vid=9de546da-c2c8-4485-8037-f781e4632dd6"},"vehicle_type_id":"4","last_reported":1692590889,"current_range_meters":8000,"station_id":"ce4bgj92rcd13ifvqbd0","pricing_plan_id":"free"},{"bike_id":"4b8ff5d9-dfbd-423f-9cf1-9c3686ad9362","system_id":"levelo_inurba_marseille","lat":43.29973,"lon":5.38486,"is_reserved":false,"is_disabled":false,"rental_uris":{"android":"levelo://app?vid=4b8ff5d9-dfbd-423f-9cf1-9c3686ad9362","ios":"levelo://app?vid=4b8ff5d9-dfbd-423f-9cf1-9c3686ad9362"},"vehicle_type_id":"4","last_reported":1692590889,"current_range_meters":9200,"station_id":"ce4bgj92rcd13ifvqbd0","pricing_plan_id":"free"},{"bike_id":"1239dc3e-162f-4db0-b1b8-2f6469af9693","system_id":"levelo_inurba_marseille","lat":43.2998,"lon":5.38499,"is_reserved":false,"is_disabled":false,"rental_uris":{"android":"levelo://app?vid=1239dc3e-162f-4db0-b1b8-2f6469af9693","ios":"levelo://app?vid=1239dc3e-162f-4db0-b1b8-2f6469af9693"},"vehicle_type_id":"4","last_reported":1692590889,"current_range_meters":31200,"station_id":"ce4bgj92rcd13ifvqbd0","pricing_plan_id":"free"},{"bike_id":"d7049529-5de3-42bc-8aa7-3d287b85fd03","system_id":"levelo_inurba_marseille","lat":43.2997,"lon":5.38493,"is_reserved":false,"is_disabled":false,"rental_uris":{"android":"levelo://app?vid=d7049529-5de3-42bc-8aa7-3d287b85fd03","ios":"levelo://app?vid=d7049529-5de3-42bc-8aa7-3d287b85fd03"},"vehicle_type_id":"4","last_reported":1692590889,"current_range_meters":26000,"station_id":"ce4bgj92rcd13ifvqbd0","pricing_plan_id":"free"},{"bike_id":"00883cd9-a56a-4720-bb55-237d0136a4a1","system_id":"levelo_inurba_marseille","lat":43.32367,"lon":5.388836,"is_reserved":false,"is_disabled":false,"rental_uris":{"android":"levelo://app?vid=00883cd9-a56a-4720-bb55-237d0136a4a1","ios":"levelo://app?vid=00883cd9-a56a-4720-bb55-237d0136a4a1"},"vehicle_type_id":"4","last_reported":1692590889,"current_range_meters":20400,"station_id":"ce4bhqp2rcd13ifvqhog","pricing_plan_id":"free"},{"bike_id":"8b17ed69-7b3c-4552-89f3-1db065881068","system_id":"levelo_inurba_marseille","lat":43.32367,"lon":5.388836,"is_reserved":false,"is_disabled":false,"rental_uris":{"android":"levelo://app?vid=8b17ed69-7b3c-4552-89f3-1db065881068","ios":"levelo://app?vid=8b17ed69-7b3c-4552-89f3-1db065881068"},"vehicle_type_id":"4","last_reported":1692590889,"current_range_meters":18400,"station_id":"ce4bhqp2rcd13ifvqhog","pricing_plan_id":"free"},{"bike_id":"de5fad82-eecf-4a53-a43a-5e8156b72f59","system_id":"levelo_inurba_marseille","lat":43.32367,"lon":5.38878,"is_reserved":false,"is_disabled":false,"rental_uris":{"android":"levelo://app?vid=de5fad82-eecf-4a53-a43a-5e8156b72f59","ios":"levelo://app?vid=de5fad82-eecf-4a53-a43a-5e8156b72f59"},"vehicle_type_id":"4","last_reported":1692590889,"current_range_meters":4400,"station_id":"ce4bhqp2rcd13ifvqhog","pricing_plan_id":"free"},{"bike_id":"bc9e6d49-f8e7-4cb1-a846-fd83d3476f98","system_id":"levelo_inurba_marseille","lat":43.32367,"lon":5.388836,"is_reserved":false,"is_disabled":false,"rental_uris":{"android":"levelo://app?vid=bc9e6d49-f8e7-4cb1-a846-fd83d3476f98","ios":"levelo://app?vid=bc9e6d49-f8e7-4cb1-a846-fd83d3476f98"},"vehicle_type_id":"4","last_reported":1692590889,"current_range_meters":8000,"station_id":"ce4bhqp2rcd13ifvqhog","pricing_plan_id":"free"},{"bike_id":"8a9ca7cb-23b7-430d-8414-55251ab40167","system_id":"levelo_inurba_marseille","lat":43.293249,"lon":5.371578,"is_reserved":false,"is_disabled":false,"rental_uris":{"android":"levelo://app?vid=8a9ca7cb-23b7-430d-8414-55251ab40167","ios":"levelo://app?vid=8a9ca7cb-23b7-430d-8414-55251ab40167"},"vehicle_type_id":"4","last_reported":1692590889,"current_range_meters":16800,"station_id":"ce4bgh92rcd13ifvqb40","pricing_plan_id":"free"},{"bike_id":"625d1923-619e-4914-9e77-23984e39c451","system_id":"levelo_inurba_marseille","lat":43.317557,"lon":5.390173,"is_reserved":false,"is_disabled":false,"rental_uris":{"android":"levelo://app?vid=625d1923-619e-4914-9e77-23984e39c451","ios":"levelo://app?vid=625d1923-619e-4914-9e77-23984e39c451"},"vehicle_type_id":"4","last_reported":1692590889,"current_range_meters":16400,"station_id":"ce4bhqp2rcd13ifvqhng","pricing_plan_id":"free"},{"bike_id":"0fb1b61d-8844-41a8-a6ab-2d42269528e9","system_id":"levelo_inurba_marseille","lat":43.30611,"lon":5.39352,"is_reserved":false,"is_disabled":false,"rental_uris":{"android":"levelo://app?vid=0fb1b61d-8844-41a8-a6ab-2d42269528e9","ios":"levelo://app?vid=0fb1b61d-8844-41a8-a6ab-2d42269528e9"},"vehicle_type_id":"4","last_reported":1692590889,"current_range_meters":31200,"station_id":"ce4bh0p2rcd13ifvqd80","pricing_plan_id":"free"},{"bike_id":"64664962-4ccf-430e-8404-34441ee8119e","system_id":"levelo_inurba_marseille","lat":43.305994,"lon":5.393687,"is_reserved":false,"is_disabled":false,"rental_uris":{"android":"levelo://app?vid=64664962-4ccf-430e-8404-34441ee8119e","ios":"levelo://app?vid=64664962-4ccf-430e-8404-34441ee8119e"},"vehicle_type_id":"4","last_reported":1692590889,"current_range_meters":27600,"station_id":"ce4bh0p2rcd13ifvqd80","pricing_plan_id":"free"},{"bike_id":"78a76d1c-e73c-4fd2-93ac-e9972a34aedf","system_id":"levelo_inurba_marseille","lat":43.30605,"lon":5.39352,"is_reserved":false,"is_disabled":false,"rental_uris":{"android":"levelo://app?vid=78a76d1c-e73c-4fd2-93ac-e9972a34aedf","ios":"levelo://app?vid=78a76d1c-e73c-4fd2-93ac-e9972a34aedf"},"vehicle_type_id":"4","last_reported":1692590889,"current_range_meters":31200,"station_id":"ce4bh0p2rcd13ifvqd80","pricing_plan_id":"free"},{"bike_id":"7c4834a2-d4cf-4c49-88a0-dc3fa0c038b4","system_id":"levelo_inurba_marseille","lat":43.305994,"lon":5.393687,"is_reserved":false,"is_disabled":false,"rental_uris":{"android":"levelo://app?vid=7c4834a2-d4cf-4c49-88a0-dc3fa0c038b4","ios":"levelo://app?vid=7c4834a2-d4cf-4c49-88a0-dc3fa0c038b4"},"vehicle_type_id":"4","last_reported":1692590889,"current_range_meters":27600,"station_id":"ce4bh0p2rcd13ifvqd80","pricing_plan_id":"free"},{"bike_id":"b91d80ad-4026-44ee-8374-e48b8b9bdf57","system_id":"levelo_inurba_marseille","lat":43.30596,"lon":5.39351,"is_reserved":false,"is_disabled":false,"rental_uris":{"android":"levelo://app?vid=b91d80ad-4026-44ee-8374-e48b8b9bdf57","ios":"levelo://app?vid=b91d80ad-4026-44ee-8374-e48b8b9bdf57"},"vehicle_type_id":"4","last_reported":1692590889,"current_range_meters":30000,"station_id":"ce4bh0p2rcd13ifvqd80","pricing_plan_id":"free"},{"bike_id":"361b9167-1217-4223-a9ee-6630e161feb1","system_id":"levelo_inurba_marseille","lat":43.30597,"lon":5.39353,"is_reserved":false,"is_disabled":false,"rental_uris":{"android":"levelo://app?vid=361b9167-1217-4223-a9ee-6630e161feb1","ios":"levelo://app?vid=361b9167-1217-4223-a9ee-6630e161feb1"},"vehicle_type_id":"4","last_reported":1692590889,"current_range_meters":31200,"station_id":"ce4bh0p2rcd13ifvqd80","pricing_plan_id":"free"},{"bike_id":"38fef587-7cc5-4800-b069-87b8f296a10a","system_id":"levelo_inurba_marseille","lat":43.293009,"lon":5.374584,"is_reserved":false,"is_disabled":false,"rental_uris":{"android":"levelo://app?vid=38fef587-7cc5-4800-b069-87b8f296a10a","ios":"levelo://app?vid=38fef587-7cc5-4800-b069-87b8f296a10a"},"vehicle_type_id":"4","last_reported":1692590889,"current_range_meters":31200,"station_id":"ce4bgi12rcd13ifvqb70","pricing_plan_id":"free"},{"bike_id":"ddc07ebf-c2fb-4923-bd5c-63f8514278c4","system_id":"levelo_inurba_marseille","lat":43.303,"lon":5.39206,"is_reserved":false,"is_disabled":false,"rental_uris":{"android":"levelo://app?vid=ddc07ebf-c2fb-4923-bd5c-63f8514278c4","ios":"levelo://app?vid=ddc07ebf-c2fb-4923-bd5c-63f8514278c4"},"vehicle_type_id":"4","last_reported":1692590889,"current_range_meters":9600,"station_id":"ce4bgkh2rcd13ifvqbk0","pricing_plan_id":"free"},{"bike_id":"d4b5833b-b84e-4ef5-8bba-9aa42f3067cc","system_id":"levelo_inurba_marseille","lat":43.30305,"lon":5.3921,"is_reserved":false,"is_disabled":false,"rental_uris":{"android":"levelo://app?vid=d4b5833b-b84e-4ef5-8bba-9aa42f3067cc","ios":"levelo://app?vid=d4b5833b-b84e-4ef5-8bba-9aa42f3067cc"},"vehicle_type_id":"4","last_reported":1692590889,"current_range_meters":31200,"station_id":"ce4bgkh2rcd13ifvqbk0","pricing_plan_id":"free"},{"bike_id":"61edca88-64bc-416f-8264-1f8e51c52335","system_id":"levelo_inurba_marseille","lat":43.303,"lon":5.39207,"is_reserved":false,"is_disabled":false,"rental_uris":{"android":"levelo://app?vid=61edca88-64bc-416f-8264-1f8e51c52335","ios":"levelo://app?vid=61edca88-64bc-416f-8264-1f8e51c52335"},"vehicle_type_id":"4","last_reported":1692590889,"current_range_meters":0,"station_id":"ce4bgkh2rcd13ifvqbk0","pricing_plan_id":"free"},{"bike_id":"a2f7ec74-2b2e-42dd-a8ac-8282fd81f291","system_id":"levelo_inurba_marseille","lat":43.303002,"lon":5.392142,"is_reserved":false,"is_disabled":false,"rental_uris":{"android":"levelo://app?vid=a2f7ec74-2b2e-42dd-a8ac-8282fd81f291","ios":"levelo://app?vid=a2f7ec74-2b2e-42dd-a8ac-8282fd81f291"},"vehicle_type_id":"4","last_reported":1692590889,"current_range_meters":22800,"station_id":"ce4bgkh2rcd13ifvqbk0","pricing_plan_id":"free"},{"bike_id":"0724f352-a262-45b7-9b71-9a09ff17d945","system_id":"levelo_inurba_marseille","lat":43.30294,"lon":5.39213,"is_reserved":false,"is_disabled":false,"rental_uris":{"android":"levelo://app?vid=0724f352-a262-45b7-9b71-9a09ff17d945","ios":"levelo://app?vid=0724f352-a262-45b7-9b71-9a09ff17d945"},"vehicle_type_id":"4","last_reported":1692590889,"current_range_meters":17200,"station_id":"ce4bgkh2rcd13ifvqbk0","pricing_plan_id":"free"},{"bike_id":"d86d8a8b-e02f-4c6e-92db-146232eb4104","system_id":"levelo_inurba_marseille","lat":43.300852,"lon":5.390859,"is_reserved":false,"is_disabled":false,"rental_uris":{"android":"levelo://app?vid=d86d8a8b-e02f-4c6e-92db-146232eb4104","ios":"levelo://app?vid=d86d8a8b-e02f-4c6e-92db-146232eb4104"},"vehicle_type_id":"4","last_reported":1692590889,"current_range_meters":28800,"station_id":"ce4bh192rcd13ifvqdb0","pricing_plan_id":"free"},{"bike_id":"d8dd2df9-9451-461b-9099-28f26228f5f5","system_id":"levelo_inurba_marseille","lat":43.2987,"lon":5.38891,"is_reserved":false,"is_disabled":false,"rental_uris":{"android":"levelo://app?vid=d8dd2df9-9451-461b-9099-28f26228f5f5","ios":"levelo://app?vid=d8dd2df9-9451-461b-9099-28f26228f5f5"},"vehicle_type_id":"4","last_reported":1692590889,"current_range_meters":31200,"station_id":"ce4bh392rcd13ifvqdl0","pricing_plan_id":"free"},{"bike_id":"45fd5392-088a-45df-9f63-3eee48c86068","system_id":"levelo_inurba_marseille","lat":43.29883,"lon":5.38907,"is_reserved":false,"is_disabled":false,"rental_uris":{"android":"levelo://app?vid=45fd5392-088a-45df-9f63-3eee48c86068","ios":"levelo://app?vid=45fd5392-088a-45df-9f63-3eee48c86068"},"vehicle_type_id":"4","last_reported":1692590889,"current_range_meters":30400,"station_id":"ce4bh392rcd13ifvqdl0","pricing_plan_id":"free"},{"bike_id":"be916fa6-2eb6-4128-b459-ae0a2f9483ea","system_id":"levelo_inurba_marseille","lat":43.29867,"lon":5.38894,"is_reserved":false,"is_disabled":false,"rental_uris":{"android":"levelo://app?vid=be916fa6-2eb6-4128-b459-ae0a2f9483ea","ios":"levelo://app?vid=be916fa6-2eb6-4128-b459-ae0a2f9483ea"},"vehicle_type_id":"4","last_reported":1692590889,"current_range_meters":30800,"station_id":"ce4bh392rcd13ifvqdl0","pricing_plan_id":"free"},{"bike_id":"bb33eda1-8fa8-460d-8400-c26a07ee274f","system_id":"levelo_inurba_marseille","lat":43.30881,"lon":5.39635,"is_reserved":false,"is_disabled":false,"rental_uris":{"android":"levelo://app?vid=bb33eda1-8fa8-460d-8400-c26a07ee274f","ios":"levelo://app?vid=bb33eda1-8fa8-460d-8400-c26a07ee274f"},"vehicle_type_id":"4","last_reported":1692590889,"current_range_meters":30400,"station_id":"ce4bh012rcd13ifvqcv0","pricing_plan_id":"free"},{"bike_id":"04d92ae8-2c46-4288-82e4-46d86b3f0fd2","system_id":"levelo_inurba_marseille","lat":43.313291,"lon":5.396838,"is_reserved":false,"is_disabled":false,"rental_uris":{"android":"levelo://app?vid=04d92ae8-2c46-4288-82e4-46d86b3f0fd2","ios":"levelo://app?vid=04d92ae8-2c46-4288-82e4-46d86b3f0fd2"},"vehicle_type_id":"4","last_reported":1692590889,"current_range_meters":24800,"station_id":"ce4bgvp2rcd13ifvqcu0","pricing_plan_id":"free"},{"bike_id":"a6d28f4d-61c7-412f-a5d7-ab1701db555e","system_id":"levelo_inurba_marseille","lat":43.30878,"lon":5.3964,"is_reserved":false,"is_disabled":false,"rental_uris":{"android":"levelo://app?vid=a6d28f4d-61c7-412f-a5d7-ab1701db555e","ios":"levelo://app?vid=a6d28f4d-61c7-412f-a5d7-ab1701db555e"},"vehicle_type_id":"4","last_reported":1692590889,"current_range_meters":20400,"station_id":"ce4bh012rcd13ifvqcv0","pricing_plan_id":"free"},{"bike_id":"54197310-ab91-47f3-a3c7-4902d64c6527","system_id":"levelo_inurba_marseille","lat":43.30876,"lon":5.3964,"is_reserved":false,"is_disabled":false,"rental_uris":{"android":"levelo://app?vid=54197310-ab91-47f3-a3c7-4902d64c6527","ios":"levelo://app?vid=54197310-ab91-47f3-a3c7-4902d64c6527"},"vehicle_type_id":"4","last_reported":1692590889,"current_range_meters":29600,"station_id":"ce4bh012rcd13ifvqcv0","pricing_plan_id":"free"},{"bike_id":"ed405518-e00f-42a1-a9e1-81eddb55ccd4","system_id":"levelo_inurba_marseille","lat":43.309038,"lon":5.396546,"is_reserved":false,"is_disabled":false,"rental_uris":{"android":"levelo://app?vid=ed405518-e00f-42a1-a9e1-81eddb55ccd4","ios":"levelo://app?vid=ed405518-e00f-42a1-a9e1-81eddb55ccd4"},"vehicle_type_id":"4","last_reported":1692590889,"current_range_meters":12800,"station_id":"ce4bh012rcd13ifvqcv0","pricing_plan_id":"free"},{"bike_id":"feb78bf1-5dc3-4cec-9b0f-1cf07cf4443a","system_id":"levelo_inurba_marseille","lat":43.31337,"lon":5.39691,"is_reserved":false,"is_disabled":false,"rental_uris":{"android":"levelo://app?vid=feb78bf1-5dc3-4cec-9b0f-1cf07cf4443a","ios":"levelo://app?vid=feb78bf1-5dc3-4cec-9b0f-1cf07cf4443a"},"vehicle_type_id":"4","last_reported":1692590889,"current_range_meters":31200,"station_id":"ce4bgvp2rcd13ifvqcu0","pricing_plan_id":"free"},{"bike_id":"2a5dc19e-b3b0-450b-bef5-6df0650f190f","system_id":"levelo_inurba_marseille","lat":43.31333,"lon":5.39692,"is_reserved":false,"is_disabled":false,"rental_uris":{"android":"levelo://app?vid=2a5dc19e-b3b0-450b-bef5-6df0650f190f","ios":"levelo://app?vid=2a5dc19e-b3b0-450b-bef5-6df0650f190f"},"vehicle_type_id":"4","last_reported":1692590889,"current_range_meters":30400,"station_id":"ce4bgvp2rcd13ifvqcu0","pricing_plan_id":"free"},{"bike_id":"9f6a074a-ed26-4796-88a5-1352e7e0002f","system_id":"levelo_inurba_marseille","lat":43.313291,"lon":5.396838,"is_reserved":false,"is_disabled":false,"rental_uris":{"android":"levelo://app?vid=9f6a074a-ed26-4796-88a5-1352e7e0002f","ios":"levelo://app?vid=9f6a074a-ed26-4796-88a5-1352e7e0002f"},"vehicle_type_id":"4","last_reported":1692590889,"current_range_meters":31200,"station_id":"ce4bgvp2rcd13ifvqcu0","pricing_plan_id":"free"},{"bike_id":"01e17c95-fa8d-45c8-92e4-238fd07af942","system_id":"levelo_inurba_marseille","lat":43.309038,"lon":5.396546,"is_reserved":false,"is_disabled":false,"rental_uris":{"android":"levelo://app?vid=01e17c95-fa8d-45c8-92e4-238fd07af942","ios":"levelo://app?vid=01e17c95-fa8d-45c8-92e4-238fd07af942"},"vehicle_type_id":"4","last_reported":1692590889,"current_range_meters":25600,"station_id":"ce4bh012rcd13ifvqcv0","pricing_plan_id":"free"},{"bike_id":"1f810ff6-a5e1-412f-bd75-1814d80054d4","system_id":"levelo_inurba_marseille","lat":43.309038,"lon":5.396546,"is_reserved":false,"is_disabled":false,"rental_uris":{"android":"levelo://app?vid=1f810ff6-a5e1-412f-bd75-1814d80054d4","ios":"levelo://app?vid=1f810ff6-a5e1-412f-bd75-1814d80054d4"},"vehicle_type_id":"4","last_reported":1692590889,"current_range_meters":31200,"station_id":"ce4bh012rcd13ifvqcv0","pricing_plan_id":"free"},{"bike_id":"9aa863b8-7ade-426d-ba65-5e1f4fe20e16","system_id":"levelo_inurba_marseille","lat":43.309038,"lon":5.396546,"is_reserved":false,"is_disabled":false,"rental_uris":{"android":"levelo://app?vid=9aa863b8-7ade-426d-ba65-5e1f4fe20e16","ios":"levelo://app?vid=9aa863b8-7ade-426d-ba65-5e1f4fe20e16"},"vehicle_type_id":"4","last_reported":1692590889,"current_range_meters":0,"station_id":"ce4bh012rcd13ifvqcv0","pricing_plan_id":"free"},{"bike_id":"4c8eddff-e7ff-4d5e-82a2-56cea9a67080","system_id":"levelo_inurba_marseille","lat":43.30874,"lon":5.39647,"is_reserved":false,"is_disabled":false,"rental_uris":{"android":"levelo://app?vid=4c8eddff-e7ff-4d5e-82a2-56cea9a67080","ios":"levelo://app?vid=4c8eddff-e7ff-4d5e-82a2-56cea9a67080"},"vehicle_type_id":"4","last_reported":1692590889,"current_range_meters":31200,"station_id":"ce4bh012rcd13ifvqcv0","pricing_plan_id":"free"},{"bike_id":"bd7234e8-9988-4d3c-85cf-b8e557be16f1","system_id":"levelo_inurba_marseille","lat":43.313291,"lon":5.396838,"is_reserved":false,"is_disabled":false,"rental_uris":{"android":"levelo://app?vid=bd7234e8-9988-4d3c-85cf-b8e557be16f1","ios":"levelo://app?vid=bd7234e8-9988-4d3c-85cf-b8e557be16f1"},"vehicle_type_id":"4","last_reported":1692590889,"current_range_meters":3600,"station_id":"ce4bgvp2rcd13ifvqcu0","pricing_plan_id":"free"},{"bike_id":"720e9041-9654-4bca-8610-85e8792793c8","system_id":"levelo_inurba_marseille","lat":43.31337,"lon":5.397,"is_reserved":false,"is_disabled":false,"rental_uris":{"android":"levelo://app?vid=720e9041-9654-4bca-8610-85e8792793c8","ios":"levelo://app?vid=720e9041-9654-4bca-8610-85e8792793c8"},"vehicle_type_id":"4","last_reported":1692590889,"current_range_meters":0,"station_id":"ce4bgvp2rcd13ifvqcu0","pricing_plan_id":"free"},{"bike_id":"915de029-d7cb-41fe-91e8-46faf462cf92","system_id":"levelo_inurba_marseille","lat":43.309038,"lon":5.396546,"is_reserved":false,"is_disabled":false,"rental_uris":{"android":"levelo://app?vid=915de029-d7cb-41fe-91e8-46faf462cf92","ios":"levelo://app?vid=915de029-d7cb-41fe-91e8-46faf462cf92"},"vehicle_type_id":"4","last_reported":1692590889,"current_range_meters":31200,"station_id":"ce4bh012rcd13ifvqcv0","pricing_plan_id":"free"},{"bike_id":"a435ad5f-dd98-4de3-8edb-f81f9585f29c","system_id":"levelo_inurba_marseille","lat":43.29185,"lon":5.35788,"is_reserved":false,"is_disabled":false,"rental_uris":{"android":"levelo://app?vid=a435ad5f-dd98-4de3-8edb-f81f9585f29c","ios":"levelo://app?vid=a435ad5f-dd98-4de3-8edb-f81f9585f29c"},"vehicle_type_id":"4","last_reported":1692590889,"current_range_meters":31200,"station_id":"ce4bhb12rcd13ifvqel0","pricing_plan_id":"free"},{"bike_id":"bc5c6bfd-3e41-4c41-a52e-882ce419d4c2","system_id":"levelo_inurba_marseille","lat":43.30879,"lon":5.39655,"is_reserved":false,"is_disabled":false,"rental_uris":{"android":"levelo://app?vid=bc5c6bfd-3e41-4c41-a52e-882ce419d4c2","ios":"levelo://app?vid=bc5c6bfd-3e41-4c41-a52e-882ce419d4c2"},"vehicle_type_id":"4","last_reported":1692590889,"current_range_meters":14800,"station_id":"ce4bh012rcd13ifvqcv0","pricing_plan_id":"free"},{"bike_id":"89d5631c-41ee-4b2c-a21c-72910447517e","system_id":"levelo_inurba_marseille","lat":43.309038,"lon":5.396546,"is_reserved":false,"is_disabled":false,"rental_uris":{"android":"levelo://app?vid=89d5631c-41ee-4b2c-a21c-72910447517e","ios":"levelo://app?vid=89d5631c-41ee-4b2c-a21c-72910447517e"},"vehicle_type_id":"4","last_reported":1692590889,"current_range_meters":12000,"station_id":"ce4bh012rcd13ifvqcv0","pricing_plan_id":"free"},{"bike_id":"4bb2fbf9-47bb-4b6d-9fc1-7114f1405aee","system_id":"levelo_inurba_marseille","lat":43.302008,"lon":5.394694,"is_reserved":false,"is_disabled":false,"rental_uris":{"android":"levelo://app?vid=4bb2fbf9-47bb-4b6d-9fc1-7114f1405aee","ios":"levelo://app?vid=4bb2fbf9-47bb-4b6d-9fc1-7114f1405aee"},"vehicle_type_id":"4","last_reported":1692590889,"current_range_meters":27600,"station_id":"ce4bh0p2rcd13ifvqd70","pricing_plan_id":"free"},{"bike_id":"68725c96-0020-42e8-b615-f78a4fbb11da","system_id":"levelo_inurba_marseille","lat":43.302008,"lon":5.394694,"is_reserved":false,"is_disabled":false,"rental_uris":{"android":"levelo://app?vid=68725c96-0020-42e8-b615-f78a4fbb11da","ios":"levelo://app?vid=68725c96-0020-42e8-b615-f78a4fbb11da"},"vehicle_type_id":"4","last_reported":1692590889,"current_range_meters":26800,"station_id":"ce4bh0p2rcd13ifvqd70","pricing_plan_id":"free"},{"bike_id":"bc78b485-9441-4914-b2f9-13188e5d6a78","system_id":"levelo_inurba_marseille","lat":43.302008,"lon":5.394694,"is_reserved":false,"is_disabled":false,"rental_uris":{"android":"levelo://app?vid=bc78b485-9441-4914-b2f9-13188e5d6a78","ios":"levelo://app?vid=bc78b485-9441-4914-b2f9-13188e5d6a78"},"vehicle_type_id":"4","last_reported":1692590889,"current_range_meters":27600,"station_id":"ce4bh0p2rcd13ifvqd70","pricing_plan_id":"free"},{"bike_id":"8ab3a051-6318-4ae1-9398-fcdfdc00e93e","system_id":"levelo_inurba_marseille","lat":43.302008,"lon":5.394694,"is_reserved":false,"is_disabled":false,"rental_uris":{"android":"levelo://app?vid=8ab3a051-6318-4ae1-9398-fcdfdc00e93e","ios":"levelo://app?vid=8ab3a051-6318-4ae1-9398-fcdfdc00e93e"},"vehicle_type_id":"4","last_reported":1692590889,"current_range_meters":29200,"station_id":"ce4bh0p2rcd13ifvqd70","pricing_plan_id":"free"},{"bike_id":"f83e78cc-ceca-4f01-924a-87a155be4760","system_id":"levelo_inurba_marseille","lat":43.294153,"lon":5.386305,"is_reserved":false,"is_disabled":false,"rental_uris":{"android":"levelo://app?vid=f83e78cc-ceca-4f01-924a-87a155be4760","ios":"levelo://app?vid=f83e78cc-ceca-4f01-924a-87a155be4760"},"vehicle_type_id":"4","last_reported":1692590889,"current_range_meters":24800,"station_id":"ce4bh2h2rcd13ifvqdh0","pricing_plan_id":"free"},{"bike_id":"c26d0f4d-d28b-46a0-b6b9-d630a85a0383","system_id":"levelo_inurba_marseille","lat":43.29034,"lon":5.37564,"is_reserved":false,"is_disabled":false,"rental_uris":{"android":"levelo://app?vid=c26d0f4d-d28b-46a0-b6b9-d630a85a0383","ios":"levelo://app?vid=c26d0f4d-d28b-46a0-b6b9-d630a85a0383"},"vehicle_type_id":"4","last_reported":1692590889,"current_range_meters":0,"station_id":"ce4bh692rcd13ifvqe90","pricing_plan_id":"free"},{"bike_id":"fa29a240-5e77-4b88-95aa-170297828e07","system_id":"levelo_inurba_marseille","lat":43.289184,"lon":5.366408,"is_reserved":false,"is_disabled":false,"rental_uris":{"android":"levelo://app?vid=fa29a240-5e77-4b88-95aa-170297828e07","ios":"levelo://app?vid=fa29a240-5e77-4b88-95aa-170297828e07"},"vehicle_type_id":"4","last_reported":1692590889,"current_range_meters":27600,"station_id":"ce4bhap2rcd13ifvqek0","pricing_plan_id":"free"},{"bike_id":"ceb7e448-efae-4318-b3d9-138b63038455","system_id":"levelo_inurba_marseille","lat":43.289184,"lon":5.366408,"is_reserved":false,"is_disabled":false,"rental_uris":{"android":"levelo://app?vid=ceb7e448-efae-4318-b3d9-138b63038455","ios":"levelo://app?vid=ceb7e448-efae-4318-b3d9-138b63038455"},"vehicle_type_id":"4","last_reported":1692590889,"current_range_meters":28000,"station_id":"ce4bhap2rcd13ifvqek0","pricing_plan_id":"free"},{"bike_id":"acaa7502-6395-4eb4-9f38-6c505ad18cfb","system_id":"levelo_inurba_marseille","lat":43.289184,"lon":5.366408,"is_reserved":false,"is_disabled":false,"rental_uris":{"android":"levelo://app?vid=acaa7502-6395-4eb4-9f38-6c505ad18cfb","ios":"levelo://app?vid=acaa7502-6395-4eb4-9f38-6c505ad18cfb"},"vehicle_type_id":"4","last_reported":1692590889,"current_range_meters":30000,"station_id":"ce4bhap2rcd13ifvqek0","pricing_plan_id":"free"},{"bike_id":"88120769-2057-44f9-94b0-f8c5a2a1843d","system_id":"levelo_inurba_marseille","lat":43.28937,"lon":5.36399,"is_reserved":false,"is_disabled":false,"rental_uris":{"android":"levelo://app?vid=88120769-2057-44f9-94b0-f8c5a2a1843d","ios":"levelo://app?vid=88120769-2057-44f9-94b0-f8c5a2a1843d"},"vehicle_type_id":"4","last_reported":1692590889,"current_range_meters":0,"station_id":"ce4bhc92rcd13ifvqetg","pricing_plan_id":"free"},{"bike_id":"bc8a547c-83d7-41da-9bda-0ddf4c899be9","system_id":"levelo_inurba_marseille","lat":43.289184,"lon":5.366408,"is_reserved":false,"is_disabled":false,"rental_uris":{"android":"levelo://app?vid=bc8a547c-83d7-41da-9bda-0ddf4c899be9","ios":"levelo://app?vid=bc8a547c-83d7-41da-9bda-0ddf4c899be9"},"vehicle_type_id":"4","last_reported":1692590889,"current_range_meters":30400,"station_id":"ce4bhap2rcd13ifvqek0","pricing_plan_id":"free"},{"bike_id":"f220fda5-758c-40ad-b2eb-ef45f8dd0b94","system_id":"levelo_inurba_marseille","lat":43.304296,"lon":5.397513,"is_reserved":false,"is_disabled":false,"rental_uris":{"android":"levelo://app?vid=f220fda5-758c-40ad-b2eb-ef45f8dd0b94","ios":"levelo://app?vid=f220fda5-758c-40ad-b2eb-ef45f8dd0b94"},"vehicle_type_id":"4","last_reported":1692590889,"current_range_meters":31200,"station_id":"ce4bh092rcd13ifvqd20","pricing_plan_id":"free"},{"bike_id":"58d2009c-0a40-4b5a-b971-df8f6dd47e41","system_id":"levelo_inurba_marseille","lat":43.304296,"lon":5.397513,"is_reserved":false,"is_disabled":false,"rental_uris":{"android":"levelo://app?vid=58d2009c-0a40-4b5a-b971-df8f6dd47e41","ios":"levelo://app?vid=58d2009c-0a40-4b5a-b971-df8f6dd47e41"},"vehicle_type_id":"4","last_reported":1692590889,"current_range_meters":31200,"station_id":"ce4bh092rcd13ifvqd20","pricing_plan_id":"free"},{"bike_id":"5b7f50a3-53b2-47ee-bdad-b00c074dea51","system_id":"levelo_inurba_marseille","lat":43.304274,"lon":5.397513,"is_reserved":false,"is_disabled":false,"rental_uris":{"android":"levelo://app?vid=5b7f50a3-53b2-47ee-bdad-b00c074dea51","ios":"levelo://app?vid=5b7f50a3-53b2-47ee-bdad-b00c074dea51"},"vehicle_type_id":"4","last_reported":1692590889,"current_range_meters":29200,"station_id":"ce4bh092rcd13ifvqd20","pricing_plan_id":"free"},{"bike_id":"af1712ce-205d-4f77-8261-300032bdcabd","system_id":"levelo_inurba_marseille","lat":43.304296,"lon":5.397513,"is_reserved":false,"is_disabled":false,"rental_uris":{"android":"levelo://app?vid=af1712ce-205d-4f77-8261-300032bdcabd","ios":"levelo://app?vid=af1712ce-205d-4f77-8261-300032bdcabd"},"vehicle_type_id":"4","last_reported":1692590889,"current_range_meters":16800,"station_id":"ce4bh092rcd13ifvqd20","pricing_plan_id":"free"},{"bike_id":"06f42ee0-4b4e-4431-821d-fa731fdcb786","system_id":"levelo_inurba_marseille","lat":43.30517,"lon":5.39815,"is_reserved":false,"is_disabled":false,"rental_uris":{"android":"levelo://app?vid=06f42ee0-4b4e-4431-821d-fa731fdcb786","ios":"levelo://app?vid=06f42ee0-4b4e-4431-821d-fa731fdcb786"},"vehicle_type_id":"4","last_reported":1692590889,"current_range_meters":13600,"station_id":"","pricing_plan_id":"free"},{"bike_id":"c8619c93-5f6a-45f4-8e07-c81fcc1e21be","system_id":"levelo_inurba_marseille","lat":43.33039,"lon":5.3892,"is_reserved":false,"is_disabled":false,"rental_uris":{"android":"levelo://app?vid=c8619c93-5f6a-45f4-8e07-c81fcc1e21be","ios":"levelo://app?vid=c8619c93-5f6a-45f4-8e07-c81fcc1e21be"},"vehicle_type_id":"4","last_reported":1692590889,"current_range_meters":21600,"station_id":"ce4bhr92rcd13ifvqhrg","pricing_plan_id":"free"},{"bike_id":"a5d7998c-4c76-4390-bbcf-8c2a2abd7eba","system_id":"levelo_inurba_marseille","lat":43.3304,"lon":5.38919,"is_reserved":false,"is_disabled":false,"rental_uris":{"android":"levelo://app?vid=a5d7998c-4c76-4390-bbcf-8c2a2abd7eba","ios":"levelo://app?vid=a5d7998c-4c76-4390-bbcf-8c2a2abd7eba"},"vehicle_type_id":"4","last_reported":1692590889,"current_range_meters":26000,"station_id":"ce4bhr92rcd13ifvqhrg","pricing_plan_id":"free"},{"bike_id":"eb950724-6c95-4fb2-915f-35b08a8cfd23","system_id":"levelo_inurba_marseille","lat":43.33043,"lon":5.38915,"is_reserved":false,"is_disabled":false,"rental_uris":{"android":"levelo://app?vid=eb950724-6c95-4fb2-915f-35b08a8cfd23","ios":"levelo://app?vid=eb950724-6c95-4fb2-915f-35b08a8cfd23"},"vehicle_type_id":"4","last_reported":1692590889,"current_range_meters":14400,"station_id":"ce4bhr92rcd13ifvqhrg","pricing_plan_id":"free"},{"bike_id":"311cb0a1-d2bd-42c8-aa64-be9b063c2c5e","system_id":"levelo_inurba_marseille","lat":43.3304,"lon":5.38921,"is_reserved":false,"is_disabled":false,"rental_uris":{"android":"levelo://app?vid=311cb0a1-d2bd-42c8-aa64-be9b063c2c5e","ios":"levelo://app?vid=311cb0a1-d2bd-42c8-aa64-be9b063c2c5e"},"vehicle_type_id":"4","last_reported":1692590889,"current_range_meters":20800,"station_id":"ce4bhr92rcd13ifvqhrg","pricing_plan_id":"free"},{"bike_id":"9a2aa4dd-edbe-4c02-ba09-7815cd6e2a5a","system_id":"levelo_inurba_marseille","lat":43.33043,"lon":5.38919,"is_reserved":false,"is_disabled":false,"rental_uris":{"android":"levelo://app?vid=9a2aa4dd-edbe-4c02-ba09-7815cd6e2a5a","ios":"levelo://app?vid=9a2aa4dd-edbe-4c02-ba09-7815cd6e2a5a"},"vehicle_type_id":"4","last_reported":1692590889,"current_range_meters":5200,"station_id":"ce4bhr92rcd13ifvqhrg","pricing_plan_id":"free"},{"bike_id":"52662068-d06a-40c1-bfee-ce6664dc3a83","system_id":"levelo_inurba_marseille","lat":43.33043,"lon":5.3892,"is_reserved":false,"is_disabled":false,"rental_uris":{"android":"levelo://app?vid=52662068-d06a-40c1-bfee-ce6664dc3a83","ios":"levelo://app?vid=52662068-d06a-40c1-bfee-ce6664dc3a83"},"vehicle_type_id":"4","last_reported":1692590889,"current_range_meters":30800,"station_id":"ce4bhr92rcd13ifvqhrg","pricing_plan_id":"free"},{"bike_id":"de450cac-4370-4660-9455-3e94463307a2","system_id":"levelo_inurba_marseille","lat":43.33042,"lon":5.38922,"is_reserved":false,"is_disabled":false,"rental_uris":{"android":"levelo://app?vid=de450cac-4370-4660-9455-3e94463307a2","ios":"levelo://app?vid=de450cac-4370-4660-9455-3e94463307a2"},"vehicle_type_id":"4","last_reported":1692590889,"current_range_meters":31200,"station_id":"ce4bhr92rcd13ifvqhrg","pricing_plan_id":"free"},{"bike_id":"3b3e7c42-cded-4bde-b175-99650afa4f17","system_id":"levelo_inurba_marseille","lat":43.33044,"lon":5.38919,"is_reserved":false,"is_disabled":false,"rental_uris":{"android":"levelo://app?vid=3b3e7c42-cded-4bde-b175-99650afa4f17","ios":"levelo://app?vid=3b3e7c42-cded-4bde-b175-99650afa4f17"},"vehicle_type_id":"4","last_reported":1692590889,"current_range_meters":18800,"station_id":"ce4bhr92rcd13ifvqhrg","pricing_plan_id":"free"},{"bike_id":"c65152a1-dca7-4ee4-9864-308587d5ed74","system_id":"levelo_inurba_marseille","lat":43.3304,"lon":5.38927,"is_reserved":false,"is_disabled":false,"rental_uris":{"android":"levelo://app?vid=c65152a1-dca7-4ee4-9864-308587d5ed74","ios":"levelo://app?vid=c65152a1-dca7-4ee4-9864-308587d5ed74"},"vehicle_type_id":"4","last_reported":1692590889,"current_range_meters":17200,"station_id":"ce4bhr92rcd13ifvqhrg","pricing_plan_id":"free"},{"bike_id":"708f7f21-b221-4c14-94b6-b5d8e3289350","system_id":"levelo_inurba_marseille","lat":43.33043,"lon":5.38923,"is_reserved":false,"is_disabled":false,"rental_uris":{"android":"levelo://app?vid=708f7f21-b221-4c14-94b6-b5d8e3289350","ios":"levelo://app?vid=708f7f21-b221-4c14-94b6-b5d8e3289350"},"vehicle_type_id":"4","last_reported":1692590889,"current_range_meters":15600,"station_id":"ce4bhr92rcd13ifvqhrg","pricing_plan_id":"free"},{"bike_id":"9e24a65c-fe1e-45dc-88b9-dd0cad85064c","system_id":"levelo_inurba_marseille","lat":43.33049,"lon":5.38914,"is_reserved":false,"is_disabled":false,"rental_uris":{"android":"levelo://app?vid=9e24a65c-fe1e-45dc-88b9-dd0cad85064c","ios":"levelo://app?vid=9e24a65c-fe1e-45dc-88b9-dd0cad85064c"},"vehicle_type_id":"4","last_reported":1692590889,"current_range_meters":24400,"station_id":"ce4bhr92rcd13ifvqhrg","pricing_plan_id":"free"},{"bike_id":"86eac789-1e56-496d-abfa-705e29d378c7","system_id":"levelo_inurba_marseille","lat":43.33046,"lon":5.38919,"is_reserved":false,"is_disabled":false,"rental_uris":{"android":"levelo://app?vid=86eac789-1e56-496d-abfa-705e29d378c7","ios":"levelo://app?vid=86eac789-1e56-496d-abfa-705e29d378c7"},"vehicle_type_id":"4","last_reported":1692590889,"current_range_meters":24800,"station_id":"ce4bhr92rcd13ifvqhrg","pricing_plan_id":"free"},{"bike_id":"287c6b38-6f7a-44e1-9ca5-4697e102d8cd","system_id":"levelo_inurba_marseille","lat":43.33045,"lon":5.38921,"is_reserved":false,"is_disabled":false,"rental_uris":{"android":"levelo://app?vid=287c6b38-6f7a-44e1-9ca5-4697e102d8cd","ios":"levelo://app?vid=287c6b38-6f7a-44e1-9ca5-4697e102d8cd"},"vehicle_type_id":"4","last_reported":1692590889,"current_range_meters":30800,"station_id":"ce4bhr92rcd13ifvqhrg","pricing_plan_id":"free"},{"bike_id":"d2b15eb2-4474-4e56-aace-fe335ab0092e","system_id":"levelo_inurba_marseille","lat":43.33045,"lon":5.38923,"is_reserved":false,"is_disabled":false,"rental_uris":{"android":"levelo://app?vid=d2b15eb2-4474-4e56-aace-fe335ab0092e","ios":"levelo://app?vid=d2b15eb2-4474-4e56-aace-fe335ab0092e"},"vehicle_type_id":"4","last_reported":1692590889,"current_range_meters":30800,"station_id":"ce4bhr92rcd13ifvqhrg","pricing_plan_id":"free"},{"bike_id":"9e0bbb5b-657d-479e-b2a7-c8ced79e92dd","system_id":"levelo_inurba_marseille","lat":43.33047,"lon":5.3892,"is_reserved":false,"is_disabled":false,"rental_uris":{"android":"levelo://app?vid=9e0bbb5b-657d-479e-b2a7-c8ced79e92dd","ios":"levelo://app?vid=9e0bbb5b-657d-479e-b2a7-c8ced79e92dd"},"vehicle_type_id":"4","last_reported":1692590889,"current_range_meters":11200,"station_id":"ce4bhr92rcd13ifvqhrg","pricing_plan_id":"free"},{"bike_id":"f7005a11-f4b8-40eb-a1e9-6d3833ad8114","system_id":"levelo_inurba_marseille","lat":43.33047,"lon":5.3892,"is_reserved":false,"is_disabled":false,"rental_uris":{"android":"levelo://app?vid=f7005a11-f4b8-40eb-a1e9-6d3833ad8114","ios":"levelo://app?vid=f7005a11-f4b8-40eb-a1e9-6d3833ad8114"},"vehicle_type_id":"4","last_reported":1692590889,"current_range_meters":24000,"station_id":"ce4bhr92rcd13ifvqhrg","pricing_plan_id":"free"},{"bike_id":"5036c72a-6252-47f4-a9fb-50fd514d506a","system_id":"levelo_inurba_marseille","lat":43.33045,"lon":5.38926,"is_reserved":false,"is_disabled":false,"rental_uris":{"android":"levelo://app?vid=5036c72a-6252-47f4-a9fb-50fd514d506a","ios":"levelo://app?vid=5036c72a-6252-47f4-a9fb-50fd514d506a"},"vehicle_type_id":"4","last_reported":1692590889,"current_range_meters":16800,"station_id":"ce4bhr92rcd13ifvqhrg","pricing_plan_id":"free"},{"bike_id":"263a0f88-00b4-47fe-8ede-c245713078bf","system_id":"levelo_inurba_marseille","lat":43.3305,"lon":5.38925,"is_reserved":false,"is_disabled":false,"rental_uris":{"android":"levelo://app?vid=263a0f88-00b4-47fe-8ede-c245713078bf","ios":"levelo://app?vid=263a0f88-00b4-47fe-8ede-c245713078bf"},"vehicle_type_id":"4","last_reported":1692590889,"current_range_meters":21600,"station_id":"ce4bhr92rcd13ifvqhrg","pricing_plan_id":"free"},{"bike_id":"77d0692c-7c08-44a6-94c9-dd065cc4c536","system_id":"levelo_inurba_marseille","lat":43.33058,"lon":5.38919,"is_reserved":false,"is_disabled":false,"rental_uris":{"android":"levelo://app?vid=77d0692c-7c08-44a6-94c9-dd065cc4c536","ios":"levelo://app?vid=77d0692c-7c08-44a6-94c9-dd065cc4c536"},"vehicle_type_id":"4","last_reported":1692590889,"current_range_meters":29200,"station_id":"ce4bhr92rcd13ifvqhrg","pricing_plan_id":"free"},{"bike_id":"ef0ff947-53f8-4f9b-8b57-379831227ad6","system_id":"levelo_inurba_marseille","lat":43.29778,"lon":5.39321,"is_reserved":false,"is_disabled":false,"rental_uris":{"android":"levelo://app?vid=ef0ff947-53f8-4f9b-8b57-379831227ad6","ios":"levelo://app?vid=ef0ff947-53f8-4f9b-8b57-379831227ad6"},"vehicle_type_id":"4","last_reported":1692590889,"current_range_meters":23600,"station_id":"chh1huq6cuj3fo74tm60","pricing_plan_id":"free"},{"bike_id":"a8f93cbc-a1a8-4918-9270-613c2d9d614c","system_id":"levelo_inurba_marseille","lat":43.29787,"lon":5.39333,"is_reserved":false,"is_disabled":false,"rental_uris":{"android":"levelo://app?vid=a8f93cbc-a1a8-4918-9270-613c2d9d614c","ios":"levelo://app?vid=a8f93cbc-a1a8-4918-9270-613c2d9d614c"},"vehicle_type_id":"4","last_reported":1692590889,"current_range_meters":6400,"station_id":"chh1huq6cuj3fo74tm60","pricing_plan_id":"free"},{"bike_id":"dab56624-a0e9-419a-a2b6-4ed427f22e84","system_id":"levelo_inurba_marseille","lat":43.2898,"lon":5.37836,"is_reserved":false,"is_disabled":false,"rental_uris":{"android":"levelo://app?vid=dab56624-a0e9-419a-a2b6-4ed427f22e84","ios":"levelo://app?vid=dab56624-a0e9-419a-a2b6-4ed427f22e84"},"vehicle_type_id":"4","last_reported":1692590889,"current_range_meters":0,"station_id":"ce4bh9p2rcd13ifvqed0","pricing_plan_id":"free"},{"bike_id":"6d41e933-bdc0-4d43-a989-b393b391f2c5","system_id":"levelo_inurba_marseille","lat":43.29026,"lon":5.38131,"is_reserved":false,"is_disabled":false,"rental_uris":{"android":"levelo://app?vid=6d41e933-bdc0-4d43-a989-b393b391f2c5","ios":"levelo://app?vid=6d41e933-bdc0-4d43-a989-b393b391f2c5"},"vehicle_type_id":"4","last_reported":1692590889,"current_range_meters":31200,"station_id":"ce4bh4p2rcd13ifvqe1g","pricing_plan_id":"free"},{"bike_id":"33fa391a-0a9f-4918-b1fa-758507d29b04","system_id":"levelo_inurba_marseille","lat":43.2901,"lon":5.381269,"is_reserved":false,"is_disabled":false,"rental_uris":{"android":"levelo://app?vid=33fa391a-0a9f-4918-b1fa-758507d29b04","ios":"levelo://app?vid=33fa391a-0a9f-4918-b1fa-758507d29b04"},"vehicle_type_id":"4","last_reported":1692590889,"current_range_meters":30400,"station_id":"ce4bh4p2rcd13ifvqe1g","pricing_plan_id":"free"},{"bike_id":"76199b84-af1c-49e9-a688-1b748c18ca50","system_id":"levelo_inurba_marseille","lat":43.29025,"lon":5.38135,"is_reserved":false,"is_disabled":false,"rental_uris":{"android":"levelo://app?vid=76199b84-af1c-49e9-a688-1b748c18ca50","ios":"levelo://app?vid=76199b84-af1c-49e9-a688-1b748c18ca50"},"vehicle_type_id":"4","last_reported":1692590889,"current_range_meters":31200,"station_id":"ce4bh4p2rcd13ifvqe1g","pricing_plan_id":"free"},{"bike_id":"0382c639-7a8a-47fc-93bb-b62bfe6dadf7","system_id":"levelo_inurba_marseille","lat":43.29026,"lon":5.3814,"is_reserved":false,"is_disabled":false,"rental_uris":{"android":"levelo://app?vid=0382c639-7a8a-47fc-93bb-b62bfe6dadf7","ios":"levelo://app?vid=0382c639-7a8a-47fc-93bb-b62bfe6dadf7"},"vehicle_type_id":"4","last_reported":1692590889,"current_range_meters":31200,"station_id":"ce4bh4p2rcd13ifvqe1g","pricing_plan_id":"free"},{"bike_id":"ec09fb85-4b39-4108-ab14-183bf85ae944","system_id":"levelo_inurba_marseille","lat":43.29022,"lon":5.38134,"is_reserved":false,"is_disabled":false,"rental_uris":{"android":"levelo://app?vid=ec09fb85-4b39-4108-ab14-183bf85ae944","ios":"levelo://app?vid=ec09fb85-4b39-4108-ab14-183bf85ae944"},"vehicle_type_id":"4","last_reported":1692590889,"current_range_meters":31200,"station_id":"ce4bh4p2rcd13ifvqe1g","pricing_plan_id":"free"},{"bike_id":"753651cb-1607-4ffc-97f4-df65170cc673","system_id":"levelo_inurba_marseille","lat":43.312609,"lon":5.401662,"is_reserved":false,"is_disabled":false,"rental_uris":{"android":"levelo://app?vid=753651cb-1607-4ffc-97f4-df65170cc673","ios":"levelo://app?vid=753651cb-1607-4ffc-97f4-df65170cc673"},"vehicle_type_id":"4","last_reported":1692590889,"current_range_meters":13600,"station_id":"ce4bh092rcd13ifvqd30","pricing_plan_id":"free"},{"bike_id":"0dbff658-d426-413c-b8d4-21ca938ee664","system_id":"levelo_inurba_marseille","lat":43.312609,"lon":5.401662,"is_reserved":false,"is_disabled":false,"rental_uris":{"android":"levelo://app?vid=0dbff658-d426-413c-b8d4-21ca938ee664","ios":"levelo://app?vid=0dbff658-d426-413c-b8d4-21ca938ee664"},"vehicle_type_id":"4","last_reported":1692590889,"current_range_meters":8000,"station_id":"ce4bh092rcd13ifvqd30","pricing_plan_id":"free"},{"bike_id":"3b4cc115-c82c-4fa6-a8f3-0f5e7121504c","system_id":"levelo_inurba_marseille","lat":43.31277,"lon":5.40164,"is_reserved":false,"is_disabled":false,"rental_uris":{"android":"levelo://app?vid=3b4cc115-c82c-4fa6-a8f3-0f5e7121504c","ios":"levelo://app?vid=3b4cc115-c82c-4fa6-a8f3-0f5e7121504c"},"vehicle_type_id":"4","last_reported":1692590889,"current_range_meters":12000,"station_id":"ce4bh092rcd13ifvqd30","pricing_plan_id":"free"},{"bike_id":"7bcbc243-7493-4d7c-83b7-5dba53e16e8e","system_id":"levelo_inurba_marseille","lat":43.31271,"lon":5.40166,"is_reserved":false,"is_disabled":false,"rental_uris":{"android":"levelo://app?vid=7bcbc243-7493-4d7c-83b7-5dba53e16e8e","ios":"levelo://app?vid=7bcbc243-7493-4d7c-83b7-5dba53e16e8e"},"vehicle_type_id":"4","last_reported":1692590889,"current_range_meters":21200,"station_id":"ce4bh092rcd13ifvqd30","pricing_plan_id":"free"},{"bike_id":"e466bb0f-a77c-4aa1-9822-4dcb8ea93d8e","system_id":"levelo_inurba_marseille","lat":43.31277,"lon":5.40169,"is_reserved":false,"is_disabled":false,"rental_uris":{"android":"levelo://app?vid=e466bb0f-a77c-4aa1-9822-4dcb8ea93d8e","ios":"levelo://app?vid=e466bb0f-a77c-4aa1-9822-4dcb8ea93d8e"},"vehicle_type_id":"4","last_reported":1692590889,"current_range_meters":12800,"station_id":"ce4bh092rcd13ifvqd30","pricing_plan_id":"free"},{"bike_id":"bdbe7cc3-1d7c-4a66-b318-a9ae46908a07","system_id":"levelo_inurba_marseille","lat":43.30937,"lon":5.40138,"is_reserved":false,"is_disabled":false,"rental_uris":{"android":"levelo://app?vid=bdbe7cc3-1d7c-4a66-b318-a9ae46908a07","ios":"levelo://app?vid=bdbe7cc3-1d7c-4a66-b318-a9ae46908a07"},"vehicle_type_id":"4","last_reported":1692590889,"current_range_meters":0,"station_id":"ce4bgvp2rcd13ifvqct0","pricing_plan_id":"free"},{"bike_id":"5ab202c0-e0f7-4c9e-9b4b-007a03d6bcbd","system_id":"levelo_inurba_marseille","lat":43.30935,"lon":5.40138,"is_reserved":false,"is_disabled":false,"rental_uris":{"android":"levelo://app?vid=5ab202c0-e0f7-4c9e-9b4b-007a03d6bcbd","ios":"levelo://app?vid=5ab202c0-e0f7-4c9e-9b4b-007a03d6bcbd"},"vehicle_type_id":"4","last_reported":1692590889,"current_range_meters":30000,"station_id":"ce4bgvp2rcd13ifvqct0","pricing_plan_id":"free"},{"bike_id":"30723a85-0202-4647-9837-f6a8200b3328","system_id":"levelo_inurba_marseille","lat":43.30938,"lon":5.40142,"is_reserved":false,"is_disabled":false,"rental_uris":{"android":"levelo://app?vid=30723a85-0202-4647-9837-f6a8200b3328","ios":"levelo://app?vid=30723a85-0202-4647-9837-f6a8200b3328"},"vehicle_type_id":"4","last_reported":1692590889,"current_range_meters":26800,"station_id":"ce4bgvp2rcd13ifvqct0","pricing_plan_id":"free"},{"bike_id":"77293018-4aeb-4bf5-83dc-97b41dd08fff","system_id":"levelo_inurba_marseille","lat":43.30931,"lon":5.40141,"is_reserved":false,"is_disabled":false,"rental_uris":{"android":"levelo://app?vid=77293018-4aeb-4bf5-83dc-97b41dd08fff","ios":"levelo://app?vid=77293018-4aeb-4bf5-83dc-97b41dd08fff"},"vehicle_type_id":"4","last_reported":1692590889,"current_range_meters":31200,"station_id":"ce4bgvp2rcd13ifvqct0","pricing_plan_id":"free"},{"bike_id":"483baaf5-5510-4c9d-b1ac-4daf8fc95845","system_id":"levelo_inurba_marseille","lat":43.31281,"lon":5.40175,"is_reserved":false,"is_disabled":false,"rental_uris":{"android":"levelo://app?vid=483baaf5-5510-4c9d-b1ac-4daf8fc95845","ios":"levelo://app?vid=483baaf5-5510-4c9d-b1ac-4daf8fc95845"},"vehicle_type_id":"4","last_reported":1692590889,"current_range_meters":8800,"station_id":"ce4bh092rcd13ifvqd30","pricing_plan_id":"free"},{"bike_id":"a9a9e38d-134c-4580-ab52-b2402d312c85","system_id":"levelo_inurba_marseille","lat":43.312609,"lon":5.401662,"is_reserved":false,"is_disabled":false,"rental_uris":{"android":"levelo://app?vid=a9a9e38d-134c-4580-ab52-b2402d312c85","ios":"levelo://app?vid=a9a9e38d-134c-4580-ab52-b2402d312c85"},"vehicle_type_id":"4","last_reported":1692590889,"current_range_meters":7600,"station_id":"ce4bh092rcd13ifvqd30","pricing_plan_id":"free"},{"bike_id":"9410b294-2a62-42b6-87cd-8981626eb1aa","system_id":"levelo_inurba_marseille","lat":43.30655,"lon":5.4007,"is_reserved":false,"is_disabled":false,"rental_uris":{"android":"levelo://app?vid=9410b294-2a62-42b6-87cd-8981626eb1aa","ios":"levelo://app?vid=9410b294-2a62-42b6-87cd-8981626eb1aa"},"vehicle_type_id":"4","last_reported":1692590889,"current_range_meters":31200,"station_id":"ce4bh112rcd13ifvqda0","pricing_plan_id":"free"},{"bike_id":"a56136f6-47ec-4fb1-bad0-6e72756ac6a5","system_id":"levelo_inurba_marseille","lat":43.30927,"lon":5.40144,"is_reserved":false,"is_disabled":false,"rental_uris":{"android":"levelo://app?vid=a56136f6-47ec-4fb1-bad0-6e72756ac6a5","ios":"levelo://app?vid=a56136f6-47ec-4fb1-bad0-6e72756ac6a5"},"vehicle_type_id":"4","last_reported":1692590889,"current_range_meters":19600,"station_id":"ce4bgvp2rcd13ifvqct0","pricing_plan_id":"free"},{"bike_id":"f3fb4f46-1f66-4041-9055-34373e26df77","system_id":"levelo_inurba_marseille","lat":43.30642,"lon":5.401031,"is_reserved":false,"is_disabled":false,"rental_uris":{"android":"levelo://app?vid=f3fb4f46-1f66-4041-9055-34373e26df77","ios":"levelo://app?vid=f3fb4f46-1f66-4041-9055-34373e26df77"},"vehicle_type_id":"4","last_reported":1692590889,"current_range_meters":31200,"station_id":"ce4bh112rcd13ifvqda0","pricing_plan_id":"free"},