{"last_updated":1700726955,"ttl":30,"version":"2.2","data":{"bikes":[{"bike_id":"1b4f0ad4-3c00-4fb8-869a-855be304d4e3","system_id":"levelo_inurba_marseille","lat":43.313391,"lon":5.36706,"is_reserved":false,"is_disabled":false,"rental_uris":{"android":"levelo://app?vid=1b4f0ad4-3c00-4fb8-869a-855be304d4e3","ios":"levelo://app?vid=1b4f0ad4-3c00-4fb8-869a-855be304d4e3"},"vehicle_type_id":"4","last_reported":1700726955,"current_range_meters":16000,"station_id":"ce4bgr92rcd13ifvqc6g","pricing_plan_id":"free"},{"bike_id":"c63eb744-082f-4c2e-9683-90cdb399b7de","system_id":"levelo_inurba_marseille","lat":43.313391,"lon":5.36706,"is_reserved":false,"is_disabled":false,"rental_uris":{"android":"levelo://app?vid=c63eb744-082f-4c2e-9683-90cdb399b7de","ios":"levelo://app?vid=c63eb744-082f-4c2e-9683-90cdb399b7de"},"vehicle_type_id":"4","last_reported":1700726955,"current_range_meters":16800,"station_id":"ce4bgr92rcd13ifvqc6g","pricing_plan_id":"free"},{"bike_id":"bbd7fa7a-696d-4228-b5f0-d08d1b92d001","system_id":"levelo_inurba_marseille","lat":43.313391,"lon":5.36706,"is_reserved":false,"is_disabled":false,"rental_uris":{"android":"levelo://app?vid=bbd7fa7a-696d-4228-b5f0-d08d1b92d001","ios":"levelo://app?vid=bbd7fa7a-696d-4228-b5f0-d08d1b92d001"},"vehicle_type_id":"4","last_reported":1700726955,"current_range_meters":16800,"station_id":"ce4bgr92rcd13ifvqc6g","pricing_plan_id":"free"},{"bike_id":"9a3980be-d337-42db-b09d-4e36bfb8cdac","system_id":"levelo_inurba_marseille","lat":43.313391,"lon":5.36706,"is_reserved":false,"is_disabled":false,"rental_uris":{"android":"levelo://app?vid=9a3980be-d337-42db-b09d-4e36bfb8cdac","ios":"levelo://app?vid=9a3980be-d337-42db-b09d-4e36bfb8cdac"},"vehicle_type_id":"4","last_reported":1700726955,"current_range_meters":30800,"station_id":"ce4bgr92rcd13ifvqc6g","pricing_plan_id":"free"},{"bike_id":"1768f595-fab9-431e-a005-e0909aaa484b","system_id":"levelo_inurba_marseille","lat":43.31341,"lon":5.367098,"is_reserved":false,"is_disabled":false,"rental_uris":{"android":"levelo://app?vid=1768f595-fab9-431e-a005-e0909aaa484b","ios":"levelo://app?vid=1768f595-fab9-431e-a005-e0909aaa484b"},"vehicle_type_id":"4","last_reported":1700726955,"current_range_meters":31200,"station_id":"ce4bgr92rcd13ifvqc6g","pricing_plan_id":"free"},{"bike_id":"a272bb25-d8ef-4771-bed1-43feefbee660","system_id":"levelo_inurba_marseille","lat":43.31341,"lon":5.367098,"is_reserved":false,"is_disabled":false,"rental_uris":{"android":"levelo://app?vid=a272bb25-d8ef-4771-bed1-43feefbee660","ios":"levelo://app?vid=a272bb25-d8ef-4771-bed1-43feefbee660"},"vehicle_type_id":"4","last_reported":1700726955,"current_range_meters":22800,"station_id":"ce4bgr92rcd13ifvqc6g","pricing_plan_id":"free"},{"bike_id":"6ca02a09-3472-4ea9-97c5-64c4dd1892a4","system_id":"levelo_inurba_marseille","lat":43.313391,"lon":5.36706,"is_reserved":false,"is_disabled":false,"rental_uris":{"android":"levelo://app?vid=6ca02a09-3472-4ea9-97c5-64c4dd1892a4","ios":"levelo://app?vid=6ca02a09-3472-4ea9-97c5-64c4dd1892a4"},"vehicle_type_id":"4","last_reported":1700726955,"current_range_meters":16800,"station_id":"ce4bgr92rcd13ifvqc6g","pricing_plan_id":"free"},{"bike_id":"7d1d94d7-3202-42e5-a490-97bedc4238b2","system_id":"levelo_inurba_marseille","lat":43.313391,"lon":5.36706,"is_reserved":false,"is_disabled":false,"rental_uris":{"android":"levelo://app?vid=7d1d94d7-3202-42e5-a490-97bedc4238b2","ios":"levelo://app?vid=7d1d94d7-3202-42e5-a490-97bedc4238b2"},"vehicle_type_id":"4","last_reported":1700726955,"current_range_meters":17600,"station_id":"ce4bgr92rcd13ifvqc6g","pricing_plan_id":"free"},{"bike_id":"ae9507c3-66a7-442c-bde5-723ffc6996f5","system_id":"levelo_inurba_marseille","lat":43.31341,"lon":5.367098,"is_reserved":false,"is_disabled":false,"rental_uris":{"android":"levelo://app?vid=ae9507c3-66a7-442c-bde5-723ffc6996f5","ios":"levelo://app?vid=ae9507c3-66a7-442c-bde5-723ffc6996f5"},"vehicle_type_id":"4","last_reported":1700726955,"current_range_meters":1600,"station_id":"ce4bgr92rcd13ifvqc6g","pricing_plan_id":"free"},{"bike_id":"aa3ae5eb-9179-4636-a2fb-b54647cc9fc7","system_id":"levelo_inurba_marseille","lat":43.31341,"lon":5.367098,"is_reserved":false,"is_disabled":false,"rental_uris":{"android":"levelo://app?vid=aa3ae5eb-9179-4636-a2fb-b54647cc9fc7","ios":"levelo://app?vid=aa3ae5eb-9179-4636-a2fb-b54647cc9fc7"},"vehicle_type_id":"4","last_reported":1700726955,"current_range_meters":14000,"station_id":"ce4bgr92rcd13ifvqc6g","pricing_plan_id":"free"},{"bike_id":"b778cdf8-2ec0-403e-a159-8656a9e63d54","system_id":"levelo_inurba_marseille","lat":43.31341,"lon":5.367098,"is_reserved":false,"is_disabled":false,"rental_uris":{"android":"levelo://app?vid=b778cdf8-2ec0-403e-a159-8656a9e63d54","ios":"levelo://app?vid=b778cdf8-2ec0-403e-a159-8656a9e63d54"},"vehicle_type_id":"4","last_reported":1700726955,"current_range_meters":19200,"station_id":"ce4bgr92rcd13ifvqc6g","pricing_plan_id":"free"},{"bike_id":"8ed74204-3ba6-46f7-b2e2-df18e64b6292","system_id":"levelo_inurba_marseille","lat":43.313391,"lon":5.36706,"is_reserved":false,"is_disabled":false,"rental_uris":{"android":"levelo://app?vid=8ed74204-3ba6-46f7-b2e2-df18e64b6292","ios":"levelo://app?vid=8ed74204-3ba6-46f7-b2e2-df18e64b6292"},"vehicle_type_id":"4","last_reported":1700726955,"current_range_meters":22000,"station_id":"ce4bgr92rcd13ifvqc6g","pricing_plan_id":"free"},{"bike_id":"47de29ff-386d-4cef-8374-5733c872ffb2","system_id":"levelo_inurba_marseille","lat":43.31341,"lon":5.367098,"is_reserved":false,"is_disabled":false,"rental_uris":{"android":"levelo://app?vid=47de29ff-386d-4cef-8374-5733c872ffb2","ios":"levelo://app?vid=47de29ff-386d-4cef-8374-5733c872ffb2"},"vehicle_type_id":"4","last_reported":1700726955,"current_range_meters":16400,"station_id":"ce4bgr92rcd13ifvqc6g","pricing_plan_id":"free"},{"bike_id":"74bd4cbe-c558-46c0-bd30-c944aadabae6","system_id":"levelo_inurba_marseille","lat":43.31341,"lon":5.367098,"is_reserved":false,"is_disabled":false,"rental_uris":{"android":"levelo://app?vid=74bd4cbe-c558-46c0-bd30-c944aadabae6","ios":"levelo://app?vid=74bd4cbe-c558-46c0-bd30-c944aadabae6"},"vehicle_type_id":"4","last_reported":1700726955,"current_range_meters":22400,"station_id":"ce4bgr92rcd13ifvqc6g","pricing_plan_id":"free"},{"bike_id":"a48cb2d0-bdc8-4d15-9624-9dee459acc40","system_id":"levelo_inurba_marseille","lat":43.31341,"lon":5.367098,"is_reserved":false,"is_disabled":false,"rental_uris":{"android":"levelo://app?vid=a48cb2d0-bdc8-4d15-9624-9dee459acc40","ios":"levelo://app?vid=a48cb2d0-bdc8-4d15-9624-9dee459acc40"},"vehicle_type_id":"4","last_reported":1700726955,"current_range_meters":22000,"station_id":"ce4bgr92rcd13ifvqc6g","pricing_plan_id":"free"},{"bike_id":"810521af-5c55-4bab-aaa2-39f314685564","system_id":"levelo_inurba_marseille","lat":43.312239,"lon":5.368562,"is_reserved":false,"is_disabled":false,"rental_uris":{"android":"levelo://app?vid=810521af-5c55-4bab-aaa2-39f314685564","ios":"levelo://app?vid=810521af-5c55-4bab-aaa2-39f314685564"},"vehicle_type_id":"4","last_reported":1700726955,"current_range_meters":24800,"station_id":"ce4bgl92rcd13ifvqbq0","pricing_plan_id":"free"},{"bike_id":"11e4c34e-2094-4cc9-b500-97e6e514daa3","system_id":"levelo_inurba_marseille","lat":43.31159,"lon":5.36883,"is_reserved":false,"is_disabled":false,"rental_uris":{"android":"levelo://app?vid=11e4c34e-2094-4cc9-b500-97e6e514daa3","ios":"levelo://app?vid=11e4c34e-2094-4cc9-b500-97e6e514daa3"},"vehicle_type_id":"4","last_reported":1700726955,"current_range_meters":0,"station_id":"","pricing_plan_id":"free"},{"bike_id":"0eec4992-cde7-4672-8e7d-91177ad861f7","system_id":"levelo_inurba_marseille","lat":43.313391,"lon":5.36706,"is_reserved":false,"is_disabled":false,"rental_uris":{"android":"levelo://app?vid=0eec4992-cde7-4672-8e7d-91177ad861f7","ios":"levelo://app?vid=0eec4992-cde7-4672-8e7d-91177ad861f7"},"vehicle_type_id":"4","last_reported":1700726955,"current_range_meters":22400,"station_id":"ce4bgr92rcd13ifvqc6g","pricing_plan_id":"free"},{"bike_id":"932c5e31-9940-41fb-aeaa-2f5cca9a238e","system_id":"levelo_inurba_marseille","lat":43.309076,"lon":5.368465,"is_reserved":false,"is_disabled":false,"rental_uris":{"android":"levelo://app?vid=932c5e31-9940-41fb-aeaa-2f5cca9a238e","ios":"levelo://app?vid=932c5e31-9940-41fb-aeaa-2f5cca9a238e"},"vehicle_type_id":"4","last_reported":1700726955,"current_range_meters":23600,"station_id":"ce4bgn92rcd13ifvqbvg","pricing_plan_id":"free"},{"bike_id":"6c5f5226-9a76-4a6b-a1cb-ffaf9c4ef38d","system_id":"levelo_inurba_marseille","lat":43.309076,"lon":5.368465,"is_reserved":false,"is_disabled":false,"rental_uris":{"android":"levelo://app?vid=6c5f5226-9a76-4a6b-a1cb-ffaf9c4ef38d","ios":"levelo://app?vid=6c5f5226-9a76-4a6b-a1cb-ffaf9c4ef38d"},"vehicle_type_id":"4","last_reported":1700726955,"current_range_meters":27200,"station_id":"ce4bgn92rcd13ifvqbvg","pricing_plan_id":"free"},{"bike_id":"d7e20c8a-43fc-4d2f-8b42-0318ea13f856","system_id":"levelo_inurba_marseille","lat":43.309076,"lon":5.368465,"is_reserved":false,"is_disabled":false,"rental_uris":{"android":"levelo://app?vid=d7e20c8a-43fc-4d2f-8b42-0318ea13f856","ios":"levelo://app?vid=d7e20c8a-43fc-4d2f-8b42-0318ea13f856"},"vehicle_type_id":"4","last_reported":1700726955,"current_range_meters":28800,"station_id":"ce4bgn92rcd13ifvqbvg","pricing_plan_id":"free"},{"bike_id":"2959f78f-854d-4bc8-846f-a7f4a0d79c59","system_id":"levelo_inurba_marseille","lat":43.31496,"lon":5.37304,"is_reserved":false,"is_disabled":false,"rental_uris":{"android":"levelo://app?vid=2959f78f-854d-4bc8-846f-a7f4a0d79c59","ios":"levelo://app?vid=2959f78f-854d-4bc8-846f-a7f4a0d79c59"},"vehicle_type_id":"4","last_reported":1700726955,"current_range_meters":30400,"station_id":"ce4bgt12rcd13ifvqcd0","pricing_plan_id":"free"},{"bike_id":"9159ced3-fad9-4f02-ab70-1aafd2c9422f","system_id":"levelo_inurba_marseille","lat":43.309039,"lon":5.371797,"is_reserved":false,"is_disabled":false,"rental_uris":{"android":"levelo://app?vid=9159ced3-fad9-4f02-ab70-1aafd2c9422f","ios":"levelo://app?vid=9159ced3-fad9-4f02-ab70-1aafd2c9422f"},"vehicle_type_id":"4","last_reported":1700726955,"current_range_meters":25200,"station_id":"ce4bguh2rcd13ifvqckg","pricing_plan_id":"free"},{"bike_id":"e4fe96d4-5cf6-4407-8f4f-2527a1085d54","system_id":"levelo_inurba_marseille","lat":43.30549,"lon":5.36701,"is_reserved":false,"is_disabled":false,"rental_uris":{"android":"levelo://app?vid=e4fe96d4-5cf6-4407-8f4f-2527a1085d54","ios":"levelo://app?vid=e4fe96d4-5cf6-4407-8f4f-2527a1085d54"},"vehicle_type_id":"4","last_reported":1700726955,"current_range_meters":28400,"station_id":"ce4bgrp2rcd13ifvqc9g","pricing_plan_id":"free"},{"bike_id":"dc09ca6b-5726-4d67-90e0-550ef514ffac","system_id":"levelo_inurba_marseille","lat":43.305706,"lon":5.365654,"is_reserved":false,"is_disabled":false,"rental_uris":{"android":"levelo://app?vid=dc09ca6b-5726-4d67-90e0-550ef514ffac","ios":"levelo://app?vid=dc09ca6b-5726-4d67-90e0-550ef514ffac"},"vehicle_type_id":"4","last_reported":1700726955,"current_range_meters":26000,"station_id":"ce4bgs12rcd13ifvqcag","pricing_plan_id":"free"},{"bike_id":"ceca2d77-406e-464d-9a34-af446e822842","system_id":"levelo_inurba_marseille","lat":43.30537,"lon":5.367345,"is_reserved":false,"is_disabled":false,"rental_uris":{"android":"levelo://app?vid=ceca2d77-406e-464d-9a34-af446e822842","ios":"levelo://app?vid=ceca2d77-406e-464d-9a34-af446e822842"},"vehicle_type_id":"4","last_reported":1700726955,"current_range_meters":2400,"station_id":"ce4bgrp2rcd13ifvqc9g","pricing_plan_id":"free"},{"bike_id":"054dd655-3b02-4b62-a5c9-99c4e6d36b8c","system_id":"levelo_inurba_marseille","lat":43.305706,"lon":5.365654,"is_reserved":false,"is_disabled":false,"rental_uris":{"android":"levelo://app?vid=054dd655-3b02-4b62-a5c9-99c4e6d36b8c","ios":"levelo://app?vid=054dd655-3b02-4b62-a5c9-99c4e6d36b8c"},"vehicle_type_id":"4","last_reported":1700726955,"current_range_meters":21200,"station_id":"ce4bgs12rcd13ifvqcag","pricing_plan_id":"free"},{"bike_id":"c780ec70-d519-4d78-ad78-8cca7b7090f5","system_id":"levelo_inurba_marseille","lat":43.305706,"lon":5.365654,"is_reserved":false,"is_disabled":false,"rental_uris":{"android":"levelo://app?vid=c780ec70-d519-4d78-ad78-8cca7b7090f5","ios":"levelo://app?vid=c780ec70-d519-4d78-ad78-8cca7b7090f5"},"vehicle_type_id":"4","last_reported":1700726955,"current_range_meters":13200,"station_id":"ce4bgs12rcd13ifvqcag","pricing_plan_id":"free"},{"bike_id":"1a8fa7f0-f496-4843-9340-ef17ff6ccfd9","system_id":"levelo_inurba_marseille","lat":43.305706,"lon":5.365654,"is_reserved":false,"is_disabled":false,"rental_uris":{"android":"levelo://app?vid=1a8fa7f0-f496-4843-9340-ef17ff6ccfd9","ios":"levelo://app?vid=1a8fa7f0-f496-4843-9340-ef17ff6ccfd9"},"vehicle_type_id":"4","last_reported":1700726955,"current_range_meters":25600,"station_id":"ce4bgs12rcd13ifvqcag","pricing_plan_id":"free"},{"bike_id":"1017ddd0-4041-4fa3-bbed-30eb26d99127","system_id":"levelo_inurba_marseille","lat":43.30526,"lon":5.36717,"is_reserved":false,"is_disabled":false,"rental_uris":{"android":"levelo://app?vid=1017ddd0-4041-4fa3-bbed-30eb26d99127","ios":"levelo://app?vid=1017ddd0-4041-4fa3-bbed-30eb26d99127"},"vehicle_type_id":"4","last_reported":1700726955,"current_range_meters":8400,"station_id":"ce4bgrp2rcd13ifvqc9g","pricing_plan_id":"free"},{"bike_id":"54b2b2b1-0d2a-4a33-8c7b-28d131713dd0","system_id":"levelo_inurba_marseille","lat":43.305706,"lon":5.365654,"is_reserved":false,"is_disabled":false,"rental_uris":{"android":"levelo://app?vid=54b2b2b1-0d2a-4a33-8c7b-28d131713dd0","ios":"levelo://app?vid=54b2b2b1-0d2a-4a33-8c7b-28d131713dd0"},"vehicle_type_id":"4","last_reported":1700726955,"current_range_meters":17200,"station_id":"ce4bgs12rcd13ifvqcag","pricing_plan_id":"free"},{"bike_id":"ccf87354-e17d-4e9d-9d65-627b26828219","system_id":"levelo_inurba_marseille","lat":43.305706,"lon":5.365654,"is_reserved":false,"is_disabled":false,"rental_uris":{"android":"levelo://app?vid=ccf87354-e17d-4e9d-9d65-627b26828219","ios":"levelo://app?vid=ccf87354-e17d-4e9d-9d65-627b26828219"},"vehicle_type_id":"4","last_reported":1700726955,"current_range_meters":17600,"station_id":"ce4bgs12rcd13ifvqcag","pricing_plan_id":"free"},{"bike_id":"9ad8ace3-ce0a-4bb1-8dfe-7967ca850548","system_id":"levelo_inurba_marseille","lat":43.305706,"lon":5.365654,"is_reserved":false,"is_disabled":false,"rental_uris":{"android":"levelo://app?vid=9ad8ace3-ce0a-4bb1-8dfe-7967ca850548","ios":"levelo://app?vid=9ad8ace3-ce0a-4bb1-8dfe-7967ca850548"},"vehicle_type_id":"4","last_reported":1700726955,"current_range_meters":4800,"station_id":"ce4bgs12rcd13ifvqcag","pricing_plan_id":"free"},{"bike_id":"be1b1d29-4976-4ec7-b6c0-5951f64b5b46","system_id":"levelo_inurba_marseille","lat":43.305989,"lon":5.37225,"is_reserved":false,"is_disabled":false,"rental_uris":{"android":"levelo://app?vid=be1b1d29-4976-4ec7-b6c0-5951f64b5b46","ios":"levelo://app?vid=be1b1d29-4976-4ec7-b6c0-5951f64b5b46"},"vehicle_type_id":"4","last_reported":1700726955,"current_range_meters":19600,"station_id":"ce4bgqh2rcd13ifvqc4g","pricing_plan_id":"free"},{"bike_id":"78293569-fc2d-4600-bc25-a9fd6bf6ca9f","system_id":"levelo_inurba_marseille","lat":43.303214,"lon":5.366221,"is_reserved":false,"is_disabled":false,"rental_uris":{"android":"levelo://app?vid=78293569-fc2d-4600-bc25-a9fd6bf6ca9f","ios":"levelo://app?vid=78293569-fc2d-4600-bc25-a9fd6bf6ca9f"},"vehicle_type_id":"4","last_reported":1700726955,"current_range_meters":0,"station_id":"","pricing_plan_id":"free"},{"bike_id":"0327687b-f51e-4077-bf49-2ec73a6de092","system_id":"levelo_inurba_marseille","lat":43.322348,"lon":5.375599,"is_reserved":false,"is_disabled":false,"rental_uris":{"android":"levelo://app?vid=0327687b-f51e-4077-bf49-2ec73a6de092","ios":"levelo://app?vid=0327687b-f51e-4077-bf49-2ec73a6de092"},"vehicle_type_id":"4","last_reported":1700726955,"current_range_meters":12400,"station_id":"","pricing_plan_id":"free"},{"bike_id":"e068db7e-8459-492e-a8ab-7eec53fdea46","system_id":"levelo_inurba_marseille","lat":43.304606,"lon":5.379026,"is_reserved":false,"is_disabled":false,"rental_uris":{"android":"levelo://app?vid=e068db7e-8459-492e-a8ab-7eec53fdea46","ios":"levelo://app?vid=e068db7e-8459-492e-a8ab-7eec53fdea46"},"vehicle_type_id":"4","last_reported":1700726955,"current_range_meters":26400,"station_id":"ce4bgup2rcd13ifvqcn0","pricing_plan_id":"free"},{"bike_id":"325502c6-9286-4a93-819a-5f7b33fa1c43","system_id":"levelo_inurba_marseille","lat":43.304606,"lon":5.379026,"is_reserved":false,"is_disabled":false,"rental_uris":{"android":"levelo://app?vid=325502c6-9286-4a93-819a-5f7b33fa1c43","ios":"levelo://app?vid=325502c6-9286-4a93-819a-5f7b33fa1c43"},"vehicle_type_id":"4","last_reported":1700726955,"current_range_meters":19600,"station_id":"ce4bgup2rcd13ifvqcn0","pricing_plan_id":"free"},{"bike_id":"4711f18c-a433-4639-8901-538ef79d89eb","system_id":"levelo_inurba_marseille","lat":43.304606,"lon":5.379026,"is_reserved":false,"is_disabled":false,"rental_uris":{"android":"levelo://app?vid=4711f18c-a433-4639-8901-538ef79d89eb","ios":"levelo://app?vid=4711f18c-a433-4639-8901-538ef79d89eb"},"vehicle_type_id":"4","last_reported":1700726955,"current_range_meters":0,"station_id":"ce4bgup2rcd13ifvqcn0","pricing_plan_id":"free"},{"bike_id":"f3284485-3bc0-43ff-bbe6-8daf493ac314","system_id":"levelo_inurba_marseille","lat":43.302864,"lon":5.376926,"is_reserved":false,"is_disabled":false,"rental_uris":{"android":"levelo://app?vid=f3284485-3bc0-43ff-bbe6-8daf493ac314","ios":"levelo://app?vid=f3284485-3bc0-43ff-bbe6-8daf493ac314"},"vehicle_type_id":"4","last_reported":1700726955,"current_range_meters":18400,"station_id":"ce4bguh2rcd13ifvqcj0","pricing_plan_id":"free"},{"bike_id":"1ee3d778-57a4-4a93-8c7f-43c4786a8b1f","system_id":"levelo_inurba_marseille","lat":43.30143,"lon":5.37413,"is_reserved":false,"is_disabled":false,"rental_uris":{"android":"levelo://app?vid=1ee3d778-57a4-4a93-8c7f-43c4786a8b1f","ios":"levelo://app?vid=1ee3d778-57a4-4a93-8c7f-43c4786a8b1f"},"vehicle_type_id":"4","last_reported":1700726955,"current_range_meters":24800,"station_id":"ce4bgs92rcd13ifvqcc0","pricing_plan_id":"free"},{"bike_id":"b3b74e94-fa5f-4f23-813e-aefa97caf69c","system_id":"levelo_inurba_marseille","lat":43.301429,"lon":5.37413,"is_reserved":false,"is_disabled":false,"rental_uris":{"android":"levelo://app?vid=b3b74e94-fa5f-4f23-813e-aefa97caf69c","ios":"levelo://app?vid=b3b74e94-fa5f-4f23-813e-aefa97caf69c"},"vehicle_type_id":"4","last_reported":1700726955,"current_range_meters":11200,"station_id":"ce4bgs92rcd13ifvqcc0","pricing_plan_id":"free"},{"bike_id":"fcaa73e9-78ce-4ff8-8e99-0d157d1fb0f9","system_id":"levelo_inurba_marseille","lat":43.3027,"lon":5.37705,"is_reserved":false,"is_disabled":false,"rental_uris":{"android":"levelo://app?vid=fcaa73e9-78ce-4ff8-8e99-0d157d1fb0f9","ios":"levelo://app?vid=fcaa73e9-78ce-4ff8-8e99-0d157d1fb0f9"},"vehicle_type_id":"4","last_reported":1700726955,"current_range_meters":0,"station_id":"ce4bguh2rcd13ifvqcj0","pricing_plan_id":"free"},{"bike_id":"76a89c30-4178-40aa-b672-c8b26bb88b1f","system_id":"levelo_inurba_marseille","lat":43.301429,"lon":5.37413,"is_reserved":false,"is_disabled":false,"rental_uris":{"android":"levelo://app?vid=76a89c30-4178-40aa-b672-c8b26bb88b1f","ios":"levelo://app?vid=76a89c30-4178-40aa-b672-c8b26bb88b1f"},"vehicle_type_id":"4","last_reported":1700726955,"current_range_meters":4000,"station_id":"ce4bgs92rcd13ifvqcc0","pricing_plan_id":"free"},{"bike_id":"c2997631-0df4-4c41-8ea4-a565e2f8b726","system_id":"levelo_inurba_marseille","lat":43.302784,"lon":5.377158,"is_reserved":false,"is_disabled":false,"rental_uris":{"android":"levelo://app?vid=c2997631-0df4-4c41-8ea4-a565e2f8b726","ios":"levelo://app?vid=c2997631-0df4-4c41-8ea4-a565e2f8b726"},"vehicle_type_id":"4","last_reported":1700726955,"current_range_meters":23600,"station_id":"ce4bguh2rcd13ifvqcj0","pricing_plan_id":"free"},{"bike_id":"54bbf30c-bd4d-413f-a6e7-e78eba6effd6","system_id":"levelo_inurba_marseille","lat":43.302784,"lon":5.377158,"is_reserved":false,"is_disabled":false,"rental_uris":{"android":"levelo://app?vid=54bbf30c-bd4d-413f-a6e7-e78eba6effd6","ios":"levelo://app?vid=54bbf30c-bd4d-413f-a6e7-e78eba6effd6"},"vehicle_type_id":"4","last_reported":1700726955,"current_range_meters":21200,"station_id":"ce4bguh2rcd13ifvqcj0","pricing_plan_id":"free"},{"bike_id":"e711670f-f920-4591-80df-105d39bfa665","system_id":"levelo_inurba_marseille","lat":43.302784,"lon":5.377158,"is_reserved":false,"is_disabled":false,"rental_uris":{"android":"levelo://app?vid=e711670f-f920-4591-80df-105d39bfa665","ios":"levelo://app?vid=e711670f-f920-4591-80df-105d39bfa665"},"vehicle_type_id":"4","last_reported":1700726955,"current_range_meters":16000,"station_id":"ce4bguh2rcd13ifvqcj0","pricing_plan_id":"free"},{"bike_id":"5e4583dc-a437-4dd1-a2d4-a1dfe7fd9979","system_id":"levelo_inurba_marseille","lat":43.319935,"lon":5.381699,"is_reserved":false,"is_disabled":false,"rental_uris":{"android":"levelo://app?vid=5e4583dc-a437-4dd1-a2d4-a1dfe7fd9979","ios":"levelo://app?vid=5e4583dc-a437-4dd1-a2d4-a1dfe7fd9979"},"vehicle_type_id":"4","last_reported":1700726955,"current_range_meters":16000,"station_id":"ce4bhr12rcd13ifvqhpg","pricing_plan_id":"free"},{"bike_id":"6792e7a3-cbb8-4bf1-91aa-171d97d0fe2c","system_id":"levelo_inurba_marseille","lat":43.299724,"lon":5.371829,"is_reserved":false,"is_disabled":false,"rental_uris":{"android":"levelo://app?vid=6792e7a3-cbb8-4bf1-91aa-171d97d0fe2c","ios":"levelo://app?vid=6792e7a3-cbb8-4bf1-91aa-171d97d0fe2c"},"vehicle_type_id":"4","last_reported":1700726955,"current_range_meters":20000,"station_id":"ce4bgr92rcd13ifvqc7g","pricing_plan_id":"free"},{"bike_id":"99051a99-dffd-4890-9de1-8bcdc4d80092","system_id":"levelo_inurba_marseille","lat":43.298433,"lon":5.362774,"is_reserved":false,"is_disabled":false,"rental_uris":{"android":"levelo://app?vid=99051a99-dffd-4890-9de1-8bcdc4d80092","ios":"levelo://app?vid=99051a99-dffd-4890-9de1-8bcdc4d80092"},"vehicle_type_id":"4","last_reported":1700726955,"current_range_meters":22400,"station_id":"ce4bgpp2rcd13ifvqc3g","pricing_plan_id":"free"},{"bike_id":"2590b436-fa30-4878-aa0b-49ee90b240e4","system_id":"levelo_inurba_marseille","lat":43.298433,"lon":5.362774,"is_reserved":false,"is_disabled":false,"rental_uris":{"android":"levelo://app?vid=2590b436-fa30-4878-aa0b-49ee90b240e4","ios":"levelo://app?vid=2590b436-fa30-4878-aa0b-49ee90b240e4"},"vehicle_type_id":"4","last_reported":1700726955,"current_range_meters":24800,"station_id":"ce4bgpp2rcd13ifvqc3g","pricing_plan_id":"free"},{"bike_id":"ecdd082c-8b3b-4507-8e29-667bdf0c263a","system_id":"levelo_inurba_marseille","lat":43.298433,"lon":5.362774,"is_reserved":false,"is_disabled":false,"rental_uris":{"android":"levelo://app?vid=ecdd082c-8b3b-4507-8e29-667bdf0c263a","ios":"levelo://app?vid=ecdd082c-8b3b-4507-8e29-667bdf0c263a"},"vehicle_type_id":"4","last_reported":1700726955,"current_range_meters":29200,"station_id":"ce4bgpp2rcd13ifvqc3g","pricing_plan_id":"free"},{"bike_id":"8d38d3b1-a9c8-4faf-92eb-2067855aefda","system_id":"levelo_inurba_marseille","lat":43.299243,"lon":5.37481,"is_reserved":false,"is_disabled":false,"rental_uris":{"android":"levelo://app?vid=8d38d3b1-a9c8-4faf-92eb-2067855aefda","ios":"levelo://app?vid=8d38d3b1-a9c8-4faf-92eb-2067855aefda"},"vehicle_type_id":"4","last_reported":1700726955,"current_range_meters":3600,"station_id":"ce4bgjh2rcd13ifvqbg0","pricing_plan_id":"free"},{"bike_id":"48316fa9-d9c1-42dd-81fd-12c0fab3e803","system_id":"levelo_inurba_marseille","lat":43.299243,"lon":5.37481,"is_reserved":false,"is_disabled":false,"rental_uris":{"android":"levelo://app?vid=48316fa9-d9c1-42dd-81fd-12c0fab3e803","ios":"levelo://app?vid=48316fa9-d9c1-42dd-81fd-12c0fab3e803"},"vehicle_type_id":"4","last_reported":1700726955,"current_range_meters":19600,"station_id":"ce4bgjh2rcd13ifvqbg0","pricing_plan_id":"free"},{"bike_id":"06fc4811-24cd-43fb-870f-fa534f6ef125","system_id":"levelo_inurba_marseille","lat":43.299243,"lon":5.374807,"is_reserved":false,"is_disabled":false,"rental_uris":{"android":"levelo://app?vid=06fc4811-24cd-43fb-870f-fa534f6ef125","ios":"levelo://app?vid=06fc4811-24cd-43fb-870f-fa534f6ef125"},"vehicle_type_id":"4","last_reported":1700726955,"current_range_meters":23200,"station_id":"ce4bgjh2rcd13ifvqbg0","pricing_plan_id":"free"},{"bike_id":"dfae9b1a-03e1-4fc4-8e2a-2442e4091a91","system_id":"levelo_inurba_marseille","lat":43.322872,"lon":5.382756,"is_reserved":false,"is_disabled":false,"rental_uris":{"android":"levelo://app?vid=dfae9b1a-03e1-4fc4-8e2a-2442e4091a91","ios":"levelo://app?vid=dfae9b1a-03e1-4fc4-8e2a-2442e4091a91"},"vehicle_type_id":"4","last_reported":1700726955,"current_range_meters":31200,"station_id":"ce4bhr12rcd13ifvqhqg","pricing_plan_id":"free"},{"bike_id":"aeec75a0-fcf4-4fa9-a836-bd20ca8a1984","system_id":"levelo_inurba_marseille","lat":43.3283,"lon":5.36666,"is_reserved":false,"is_disabled":false,"rental_uris":{"android":"levelo://app?vid=aeec75a0-fcf4-4fa9-a836-bd20ca8a1984","ios":"levelo://app?vid=aeec75a0-fcf4-4fa9-a836-bd20ca8a1984"},"vehicle_type_id":"4","last_reported":1700726955,"current_range_meters":18400,"station_id":"ce4bhs92rcd13ifvqi0g","pricing_plan_id":"free"},{"bike_id":"8488e20b-a13a-400f-b0b4-feb587e119c3","system_id":"levelo_inurba_marseille","lat":43.297163,"lon":5.365866,"is_reserved":false,"is_disabled":false,"rental_uris":{"android":"levelo://app?vid=8488e20b-a13a-400f-b0b4-feb587e119c3","ios":"levelo://app?vid=8488e20b-a13a-400f-b0b4-feb587e119c3"},"vehicle_type_id":"4","last_reported":1700726955,"current_range_meters":20000,"station_id":"ce4bgn12rcd13ifvqbt0","pricing_plan_id":"free"},{"bike_id":"4d7509f5-9559-42ca-a60d-bef9e80f0981","system_id":"levelo_inurba_marseille","lat":43.299624,"lon":5.379236,"is_reserved":false,"is_disabled":false,"rental_uris":{"android":"levelo://app?vid=4d7509f5-9559-42ca-a60d-bef9e80f0981","ios":"levelo://app?vid=4d7509f5-9559-42ca-a60d-bef9e80f0981"},"vehicle_type_id":"4","last_reported":1700726955,"current_range_meters":0,"station_id":"","pricing_plan_id":"free"},{"bike_id":"f2e29894-d678-42aa-87e5-1b70dec5c0b1","system_id":"levelo_inurba_marseille","lat":43.29639,"lon":5.36238,"is_reserved":false,"is_disabled":false,"rental_uris":{"android":"levelo://app?vid=f2e29894-d678-42aa-87e5-1b70dec5c0b1","ios":"levelo://app?vid=f2e29894-d678-42aa-87e5-1b70dec5c0b1"},"vehicle_type_id":"4","last_reported":1700726955,"current_range_meters":0,"station_id":"","pricing_plan_id":"free"},{"bike_id":"9547cca7-4769-4583-a68c-a847d8191432","system_id":"levelo_inurba_marseille","lat":43.296131,"lon":5.370791,"is_reserved":false,"is_disabled":false,"rental_uris":{"android":"levelo://app?vid=9547cca7-4769-4583-a68c-a847d8191432","ios":"levelo://app?vid=9547cca7-4769-4583-a68c-a847d8191432"},"vehicle_type_id":"4","last_reported":1700726955,"current_range_meters":24800,"station_id":"ce4bgnh2rcd13ifvqc0g","pricing_plan_id":"free"},{"bike_id":"cbe2f919-f1ff-4ce7-9b06-28e49273b272","system_id":"levelo_inurba_marseille","lat":43.297165,"lon":5.377008,"is_reserved":false,"is_disabled":false,"rental_uris":{"android":"levelo://app?vid=cbe2f919-f1ff-4ce7-9b06-28e49273b272","ios":"levelo://app?vid=cbe2f919-f1ff-4ce7-9b06-28e49273b272"},"vehicle_type_id":"4","last_reported":1700726955,"current_range_meters":20000,"station_id":"","pricing_plan_id":"free"},{"bike_id":"21de3d88-4582-4da4-a176-b586d342cffe","system_id":"levelo_inurba_marseille","lat":43.309589,"lon":5.390258,"is_reserved":false,"is_disabled":false,"rental_uris":{"android":"levelo://app?vid=21de3d88-4582-4da4-a176-b586d342cffe","ios":"levelo://app?vid=21de3d88-4582-4da4-a176-b586d342cffe"},"vehicle_type_id":"4","last_reported":1700726955,"current_range_meters":15600,"station_id":"ce4bgup2rcd13ifvqco0","pricing_plan_id":"free"},{"bike_id":"9fb402a7-7a41-4473-81d2-1fec663a6035","system_id":"levelo_inurba_marseille","lat":43.305531,"lon":5.388742,"is_reserved":false,"is_disabled":false,"rental_uris":{"android":"levelo://app?vid=9fb402a7-7a41-4473-81d2-1fec663a6035","ios":"levelo://app?vid=9fb402a7-7a41-4473-81d2-1fec663a6035"},"vehicle_type_id":"4","last_reported":1700726955,"current_range_meters":21200,"station_id":"","pricing_plan_id":"free"},{"bike_id":"f6c3f86a-21bf-4889-9b03-bdca57c58db2","system_id":"levelo_inurba_marseille","lat":43.317557,"lon":5.390173,"is_reserved":false,"is_disabled":false,"rental_uris":{"android":"levelo://app?vid=f6c3f86a-21bf-4889-9b03-bdca57c58db2","ios":"levelo://app?vid=f6c3f86a-21bf-4889-9b03-bdca57c58db2"},"vehicle_type_id":"4","last_reported":1700726955,"current_range_meters":9200,"station_id":"ce4bhqp2rcd13ifvqhng","pricing_plan_id":"free"},{"bike_id":"1cbde371-f646-43d7-8811-f033786d9953","system_id":"levelo_inurba_marseille","lat":43.295748,"lon":5.37522,"is_reserved":false,"is_disabled":false,"rental_uris":{"android":"levelo://app?vid=1cbde371-f646-43d7-8811-f033786d9953","ios":"levelo://app?vid=1cbde371-f646-43d7-8811-f033786d9953"},"vehicle_type_id":"4","last_reported":1700726955,"current_range_meters":24800,"station_id":"ce4bgh92rcd13ifvqb50","pricing_plan_id":"free"},{"bike_id":"555f5bd3-7c01-49b2-bdea-123abec072d5","system_id":"levelo_inurba_marseille","lat":43.297917,"lon":5.380985,"is_reserved":false,"is_disabled":false,"rental_uris":{"android":"levelo://app?vid=555f5bd3-7c01-49b2-bdea-123abec072d5","ios":"levelo://app?vid=555f5bd3-7c01-49b2-bdea-123abec072d5"},"vehicle_type_id":"4","last_reported":1700726955,"current_range_meters":0,"station_id":"ce4bgip2rcd13ifvqbb0","pricing_plan_id":"free"},{"bike_id":"8ec68dc8-67c3-42e7-95ba-d01cdcaa7534","system_id":"levelo_inurba_marseille","lat":43.298037,"lon":5.381066,"is_reserved":false,"is_disabled":false,"rental_uris":{"android":"levelo://app?vid=8ec68dc8-67c3-42e7-95ba-d01cdcaa7534","ios":"levelo://app?vid=8ec68dc8-67c3-42e7-95ba-d01cdcaa7534"},"vehicle_type_id":"4","last_reported":1700726955,"current_range_meters":27600,"station_id":"ce4bgip2rcd13ifvqbb0","pricing_plan_id":"free"},{"bike_id":"6af75ff2-92dc-49e0-91b3-1a537b6661f3","system_id":"levelo_inurba_marseille","lat":43.304278,"lon":5.388868,"is_reserved":false,"is_disabled":false,"rental_uris":{"android":"levelo://app?vid=6af75ff2-92dc-49e0-91b3-1a537b6661f3","ios":"levelo://app?vid=6af75ff2-92dc-49e0-91b3-1a537b6661f3"},"vehicle_type_id":"4","last_reported":1700726955,"current_range_meters":18000,"station_id":"ce4bgk12rcd13ifvqbi0","pricing_plan_id":"free"},{"bike_id":"9c0ae0a3-3d43-4856-8f51-9a93b1484adf","system_id":"levelo_inurba_marseille","lat":43.293009,"lon":5.374584,"is_reserved":false,"is_disabled":false,"rental_uris":{"android":"levelo://app?vid=9c0ae0a3-3d43-4856-8f51-9a93b1484adf","ios":"levelo://app?vid=9c0ae0a3-3d43-4856-8f51-9a93b1484adf"},"vehicle_type_id":"4","last_reported":1700726955,"current_range_meters":17600,"station_id":"ce4bgi12rcd13ifvqb70","pricing_plan_id":"free"},{"bike_id":"92ec6c13-bffc-4631-ba90-561338f5943d","system_id":"levelo_inurba_marseille","lat":43.299724,"lon":5.384848,"is_reserved":false,"is_disabled":false,"rental_uris":{"android":"levelo://app?vid=92ec6c13-bffc-4631-ba90-561338f5943d","ios":"levelo://app?vid=92ec6c13-bffc-4631-ba90-561338f5943d"},"vehicle_type_id":"4","last_reported":1700726955,"current_range_meters":0,"station_id":"ce4bgj92rcd13ifvqbd0","pricing_plan_id":"free"},{"bike_id":"6b621983-5e9e-42f7-990d-ad5a093820d2","system_id":"levelo_inurba_marseille","lat":43.293801,"lon":5.363066,"is_reserved":false,"is_disabled":false,"rental_uris":{"android":"levelo://app?vid=6b621983-5e9e-42f7-990d-ad5a093820d2","ios":"levelo://app?vid=6b621983-5e9e-42f7-990d-ad5a093820d2"},"vehicle_type_id":"4","last_reported":1700726955,"current_range_meters":9200,"station_id":"","pricing_plan_id":"free"},{"bike_id":"a4126061-09a2-4a27-88df-f690ba5f395a","system_id":"levelo_inurba_marseille","lat":43.32361,"lon":5.38885,"is_reserved":false,"is_disabled":false,"rental_uris":{"android":"levelo://app?vid=a4126061-09a2-4a27-88df-f690ba5f395a","ios":"levelo://app?vid=a4126061-09a2-4a27-88df-f690ba5f395a"},"vehicle_type_id":"4","last_reported":1700726955,"current_range_meters":16800,"station_id":"ce4bhqp2rcd13ifvqhog","pricing_plan_id":"free"},{"bike_id":"8dc5cade-25e6-43aa-98b5-83b2481d8330","system_id":"levelo_inurba_marseille","lat":43.290779,"lon":5.371482,"is_reserved":false,"is_disabled":false,"rental_uris":{"android":"levelo://app?vid=8dc5cade-25e6-43aa-98b5-83b2481d8330","ios":"levelo://app?vid=8dc5cade-25e6-43aa-98b5-83b2481d8330"},"vehicle_type_id":"4","last_reported":1700726955,"current_range_meters":0,"station_id":"ce4bh5p2rcd13ifvqe4g","pricing_plan_id":"free"},{"bike_id":"cddf4283-d907-4336-97c4-e274bd999558","system_id":"levelo_inurba_marseille","lat":43.29602,"lon":5.381084,"is_reserved":false,"is_disabled":false,"rental_uris":{"android":"levelo://app?vid=cddf4283-d907-4336-97c4-e274bd999558","ios":"levelo://app?vid=cddf4283-d907-4336-97c4-e274bd999558"},"vehicle_type_id":"4","last_reported":1700726955,"current_range_meters":17200,"station_id":"ce4bgl12rcd13ifvqbo0","pricing_plan_id":"free"},{"bike_id":"5a0cb4ca-63d0-4ad0-b522-b196ad7956e9","system_id":"levelo_inurba_marseille","lat":43.293259,"lon":5.371586,"is_reserved":false,"is_disabled":false,"rental_uris":{"android":"levelo://app?vid=5a0cb4ca-63d0-4ad0-b522-b196ad7956e9","ios":"levelo://app?vid=5a0cb4ca-63d0-4ad0-b522-b196ad7956e9"},"vehicle_type_id":"4","last_reported":1700726955,"current_range_meters":18400,"station_id":"ce4bgh92rcd13ifvqb40","pricing_plan_id":"free"},{"bike_id":"0e01a6cb-2131-4ecb-9970-362f7c16a7ea","system_id":"levelo_inurba_marseille","lat":43.293259,"lon":5.371586,"is_reserved":false,"is_disabled":false,"rental_uris":{"android":"levelo://app?vid=0e01a6cb-2131-4ecb-9970-362f7c16a7ea","ios":"levelo://app?vid=0e01a6cb-2131-4ecb-9970-362f7c16a7ea"},"vehicle_type_id":"4","last_reported":1700726955,"current_range_meters":28000,"station_id":"ce4bgh92rcd13ifvqb40","pricing_plan_id":"free"},{"bike_id":"1aef82bf-bfcb-438c-a9e1-3ed0ab87f045","system_id":"levelo_inurba_marseille","lat":43.293009,"lon":5.374584,"is_reserved":false,"is_disabled":false,"rental_uris":{"android":"levelo://app?vid=1aef82bf-bfcb-438c-a9e1-3ed0ab87f045","ios":"levelo://app?vid=1aef82bf-bfcb-438c-a9e1-3ed0ab87f045"},"vehicle_type_id":"4","last_reported":1700726955,"current_range_meters":22000,"station_id":"ce4bgi12rcd13ifvqb70","pricing_plan_id":"free"},{"bike_id":"c4d7e909-23d3-4770-8012-dca2e9ca1b0e","system_id":"levelo_inurba_marseille","lat":43.313291,"lon":5.396838,"is_reserved":false,"is_disabled":false,"rental_uris":{"android":"levelo://app?vid=c4d7e909-23d3-4770-8012-dca2e9ca1b0e","ios":"levelo://app?vid=c4d7e909-23d3-4770-8012-dca2e9ca1b0e"},"vehicle_type_id":"4","last_reported":1700726955,"current_range_meters":18800,"station_id":"ce4bgvp2rcd13ifvqcu0","pricing_plan_id":"free"},{"bike_id":"1d10a1b1-d55f-4279-928a-9c6858f32ca9","system_id":"levelo_inurba_marseille","lat":43.33211,"lon":5.38112,"is_reserved":false,"is_disabled":false,"rental_uris":{"android":"levelo://app?vid=1d10a1b1-d55f-4279-928a-9c6858f32ca9","ios":"levelo://app?vid=1d10a1b1-d55f-4279-928a-9c6858f32ca9"},"vehicle_type_id":"4","last_reported":1700726955,"current_range_meters":400,"station_id":"","pricing_plan_id":"free"},{"bike_id":"3e3748b8-b6e8-416f-8bae-b7a5b0b65ece","system_id":"levelo_inurba_marseille","lat":43.290779,"lon":5.371482,"is_reserved":false,"is_disabled":false,"rental_uris":{"android":"levelo://app?vid=3e3748b8-b6e8-416f-8bae-b7a5b0b65ece","ios":"levelo://app?vid=3e3748b8-b6e8-416f-8bae-b7a5b0b65ece"},"vehicle_type_id":"4","last_reported":1700726955,"current_range_meters":26800,"station_id":"ce4bh5p2rcd13ifvqe4g","pricing_plan_id":"free"},{"bike_id":"4dee691d-8eb4-4747-9319-199dc17b01a4","system_id":"levelo_inurba_marseille","lat":43.231562,"lon":5.436933,"is_reserved":false,"is_disabled":false,"rental_uris":{"android":"levelo://app?vid=4dee691d-8eb4-4747-9319-199dc17b01a4","ios":"levelo://app?vid=4dee691d-8eb4-4747-9319-199dc17b01a4"},"vehicle_type_id":"4","last_reported":1700726955,"current_range_meters":0,"station_id":"ce4bhmp2rcd13ifvqgog","pricing_plan_id":"free"},{"bike_id":"91f43715-e29c-420b-86ac-1e6c1a18d185","system_id":"levelo_inurba_marseille","lat":43.310017,"lon":5.399287,"is_reserved":false,"is_disabled":false,"rental_uris":{"android":"levelo://app?vid=91f43715-e29c-420b-86ac-1e6c1a18d185","ios":"levelo://app?vid=91f43715-e29c-420b-86ac-1e6c1a18d185"},"vehicle_type_id":"4","last_reported":1700726955,"current_range_meters":0,"station_id":"","pricing_plan_id":"free"},{"bike_id":"cd56ee19-c19f-4127-8620-c84b2c01a033","system_id":"levelo_inurba_marseille","lat":43.330427,"lon":5.38917,"is_reserved":false,"is_disabled":false,"rental_uris":{"android":"levelo://app?vid=cd56ee19-c19f-4127-8620-c84b2c01a033","ios":"levelo://app?vid=cd56ee19-c19f-4127-8620-c84b2c01a033"},"vehicle_type_id":"4","last_reported":1700726955,"current_range_meters":18400,"station_id":"ce4bhr92rcd13ifvqhrg","pricing_plan_id":"free"},{"bike_id":"3955e61f-9ea1-4f1a-b6bb-a5a7a70a7686","system_id":"levelo_inurba_marseille","lat":43.33045,"lon":5.389185,"is_reserved":false,"is_disabled":false,"rental_uris":{"android":"levelo://app?vid=3955e61f-9ea1-4f1a-b6bb-a5a7a70a7686","ios":"levelo://app?vid=3955e61f-9ea1-4f1a-b6bb-a5a7a70a7686"},"vehicle_type_id":"4","last_reported":1700726955,"current_range_meters":16000,"station_id":"ce4bhr92rcd13ifvqhrg","pricing_plan_id":"free"},{"bike_id":"61bdceaf-64bc-45de-91a5-7f2b48c7833b","system_id":"levelo_inurba_marseille","lat":43.290995,"lon":5.381361,"is_reserved":false,"is_disabled":false,"rental_uris":{"android":"levelo://app?vid=61bdceaf-64bc-45de-91a5-7f2b48c7833b","ios":"levelo://app?vid=61bdceaf-64bc-45de-91a5-7f2b48c7833b"},"vehicle_type_id":"4","last_reported":1700726955,"current_range_meters":28400,"station_id":"ce4bh512rcd13ifvqe2g","pricing_plan_id":"free"},{"bike_id":"ae128ed7-5181-49fc-a2a8-cb47453c42c6","system_id":"levelo_inurba_marseille","lat":43.289743,"lon":5.378304,"is_reserved":false,"is_disabled":false,"rental_uris":{"android":"levelo://app?vid=ae128ed7-5181-49fc-a2a8-cb47453c42c6","ios":"levelo://app?vid=ae128ed7-5181-49fc-a2a8-cb47453c42c6"},"vehicle_type_id":"4","last_reported":1700726955,"current_range_meters":16800,"station_id":"ce4bh9p2rcd13ifvqed0","pricing_plan_id":"free"},{"bike_id":"24680f3e-5bb5-4915-aa00-14e01f60c7b3","system_id":"levelo_inurba_marseille","lat":43.295393,"lon":5.390377,"is_reserved":false,"is_disabled":false,"rental_uris":{"android":"levelo://app?vid=24680f3e-5bb5-4915-aa00-14e01f60c7b3","ios":"levelo://app?vid=24680f3e-5bb5-4915-aa00-14e01f60c7b3"},"vehicle_type_id":"4","last_reported":1700726955,"current_range_meters":0,"station_id":"ce4bh3p2rcd13ifvqdp0","pricing_plan_id":"free"},{"bike_id":"34a914cf-5995-4674-9364-328d0288d787","system_id":"levelo_inurba_marseille","lat":43.295169,"lon":5.390426,"is_reserved":false,"is_disabled":false,"rental_uris":{"android":"levelo://app?vid=34a914cf-5995-4674-9364-328d0288d787","ios":"levelo://app?vid=34a914cf-5995-4674-9364-328d0288d787"},"vehicle_type_id":"4","last_reported":1700726955,"current_range_meters":26800,"station_id":"ce4bh3p2rcd13ifvqdp0","pricing_plan_id":"free"},{"bike_id":"a4270e78-1491-4fae-b586-bfc037301e82","system_id":"levelo_inurba_marseille","lat":43.289741,"lon":5.378306,"is_reserved":false,"is_disabled":false,"rental_uris":{"android":"levelo://app?vid=a4270e78-1491-4fae-b586-bfc037301e82","ios":"levelo://app?vid=a4270e78-1491-4fae-b586-bfc037301e82"},"vehicle_type_id":"4","last_reported":1700726955,"current_range_meters":28400,"station_id":"ce4bh9p2rcd13ifvqed0","pricing_plan_id":"free"},{"bike_id":"582a7f8e-110b-4f13-abb6-ed87db9e44b5","system_id":"levelo_inurba_marseille","lat":43.289741,"lon":5.378306,"is_reserved":false,"is_disabled":false,"rental_uris":{"android":"levelo://app?vid=582a7f8e-110b-4f13-abb6-ed87db9e44b5","ios":"levelo://app?vid=582a7f8e-110b-4f13-abb6-ed87db9e44b5"},"vehicle_type_id":"4","last_reported":1700726955,"current_range_meters":15600,"station_id":"ce4bh9p2rcd13ifvqed0","pricing_plan_id":"free"},{"bike_id":"3d1e0c3e-aaff-4a41-b2f4-e024fc4aac8b","system_id":"levelo_inurba_marseille","lat":43.289741,"lon":5.378306,"is_reserved":false,"is_disabled":false,"rental_uris":{"android":"levelo://app?vid=3d1e0c3e-aaff-4a41-b2f4-e024fc4aac8b","ios":"levelo://app?vid=3d1e0c3e-aaff-4a41-b2f4-e024fc4aac8b"},"vehicle_type_id":"4","last_reported":1700726955,"current_range_meters":24400,"station_id":"ce4bh9p2rcd13ifvqed0","pricing_plan_id":"free"},{"bike_id":"18f9ed2f-b04e-4783-bf17-fc892d655b73","system_id":"levelo_inurba_marseille","lat":43.29028,"lon":5.38131,"is_reserved":false,"is_disabled":false,"rental_uris":{"android":"levelo://app?vid=18f9ed2f-b04e-4783-bf17-fc892d655b73","ios":"levelo://app?vid=18f9ed2f-b04e-4783-bf17-fc892d655b73"},"vehicle_type_id":"4","last_reported":1700726955,"current_range_meters":30400,"station_id":"ce4bh4p2rcd13ifvqe1g","pricing_plan_id":"free"},{"bike_id":"94450bdb-4790-4f7c-96dd-8d4905440c6e","system_id":"levelo_inurba_marseille","lat":43.290094,"lon":5.381264,"is_reserved":false,"is_disabled":false,"rental_uris":{"android":"levelo://app?vid=94450bdb-4790-4f7c-96dd-8d4905440c6e","ios":"levelo://app?vid=94450bdb-4790-4f7c-96dd-8d4905440c6e"},"vehicle_type_id":"4","last_reported":1700726955,"current_range_meters":21200,"station_id":"ce4bh4p2rcd13ifvqe1g","pricing_plan_id":"free"},{"bike_id":"08d49d48-3896-4f4d-9e7e-3b61182b41e6","system_id":"levelo_inurba_marseille","lat":43.28724,"lon":5.36694,"is_reserved":false,"is_disabled":false,"rental_uris":{"android":"levelo://app?vid=08d49d48-3896-4f4d-9e7e-3b61182b41e6","ios":"levelo://app?vid=08d49d48-3896-4f4d-9e7e-3b61182b41e6"},"vehicle_type_id":"4","last_reported":1700726955,"current_range_meters":24000,"station_id":"","pricing_plan_id":"free"},{"bike_id":"269c2f77-1199-4df4-8422-2c6968cb669f","system_id":"levelo_inurba_marseille","lat":43.289307,"lon":5.38406,"is_reserved":false,"is_disabled":false,"rental_uris":{"android":"levelo://app?vid=269c2f77-1199-4df4-8422-2c6968cb669f","ios":"levelo://app?vid=269c2f77-1199-4df4-8422-2c6968cb669f"},"vehicle_type_id":"4","last_reported":1700726955,"current_range_meters":23600,"station_id":"ce4bh612rcd13ifvqe6g","pricing_plan_id":"free"},{"bike_id":"b2227263-c479-4951-885a-c38fe779bcfe","system_id":"levelo_inurba_marseille","lat":43.287184,"lon":5.37937,"is_reserved":false,"is_disabled":false,"rental_uris":{"android":"levelo://app?vid=b2227263-c479-4951-885a-c38fe779bcfe","ios":"levelo://app?vid=b2227263-c479-4951-885a-c38fe779bcfe"},"vehicle_type_id":"4","last_reported":1700726955,"current_range_meters":13200,"station_id":"ce4bh9p2rcd13ifvqec0","pricing_plan_id":"free"},{"bike_id":"37d7de7d-22b8-46b9-899d-5be0b7665e78","system_id":"levelo_inurba_marseille","lat":43.287184,"lon":5.37937,"is_reserved":false,"is_disabled":false,"rental_uris":{"android":"levelo://app?vid=37d7de7d-22b8-46b9-899d-5be0b7665e78","ios":"levelo://app?vid=37d7de7d-22b8-46b9-899d-5be0b7665e78"},"vehicle_type_id":"4","last_reported":1700726955,"current_range_meters":24000,"station_id":"ce4bh9p2rcd13ifvqec0","pricing_plan_id":"free"},{"bike_id":"94db672b-3b8d-4eae-92fd-e520c8e20e90","system_id":"levelo_inurba_marseille","lat":43.316517,"lon":5.404375,"is_reserved":false,"is_disabled":false,"rental_uris":{"android":"levelo://app?vid=94db672b-3b8d-4eae-92fd-e520c8e20e90","ios":"levelo://app?vid=94db672b-3b8d-4eae-92fd-e520c8e20e90"},"vehicle_type_id":"4","last_reported":1700726955,"current_range_meters":24400,"station_id":"ce4bh012rcd13ifvqd00","pricing_plan_id":"free"},{"bike_id":"adbd441f-44c4-4168-877a-9278b4bd7ceb","system_id":"levelo_inurba_marseille","lat":43.33112,"lon":5.39742,"is_reserved":false,"is_disabled":false,"rental_uris":{"android":"levelo://app?vid=adbd441f-44c4-4168-877a-9278b4bd7ceb","ios":"levelo://app?vid=adbd441f-44c4-4168-877a-9278b4bd7ceb"},"vehicle_type_id":"4","last_reported":1700726955,"current_range_meters":18400,"station_id":"","pricing_plan_id":"free"},{"bike_id":"85b6e770-a533-4de3-9afc-7c4250e0257b","system_id":"levelo_inurba_marseille","lat":43.283998,"lon":5.375062,"is_reserved":false,"is_disabled":false,"rental_uris":{"android":"levelo://app?vid=85b6e770-a533-4de3-9afc-7c4250e0257b","ios":"levelo://app?vid=85b6e770-a533-4de3-9afc-7c4250e0257b"},"vehicle_type_id":"4","last_reported":1700726955,"current_range_meters":12400,"station_id":"ce4bh412rcd13ifvqds0","pricing_plan_id":"free"},{"bike_id":"6062e6e6-2f98-49a9-8f88-4a003e142e85","system_id":"levelo_inurba_marseille","lat":43.295713,"lon":5.399639,"is_reserved":false,"is_disabled":false,"rental_uris":{"android":"levelo://app?vid=6062e6e6-2f98-49a9-8f88-4a003e142e85","ios":"levelo://app?vid=6062e6e6-2f98-49a9-8f88-4a003e142e85"},"vehicle_type_id":"4","last_reported":1700726955,"current_range_meters":2400,"station_id":"ce4bh312rcd13ifvqdj0","pricing_plan_id":"free"},{"bike_id":"c918912e-2609-416f-a6a1-5a2bce4cc420","system_id":"levelo_inurba_marseille","lat":43.319179,"lon":5.407725,"is_reserved":false,"is_disabled":false,"rental_uris":{"android":"levelo://app?vid=c918912e-2609-416f-a6a1-5a2bce4cc420","ios":"levelo://app?vid=c918912e-2609-416f-a6a1-5a2bce4cc420"},"vehicle_type_id":"4","last_reported":1700726955,"current_range_meters":22800,"station_id":"ce4bhq12rcd13ifvqhig","pricing_plan_id":"free"},{"bike_id":"b4d0f14d-8df8-4284-97ab-297141b30a15","system_id":"levelo_inurba_marseille","lat":43.284838,"lon":5.384213,"is_reserved":false,"is_disabled":false,"rental_uris":{"android":"levelo://app?vid=b4d0f14d-8df8-4284-97ab-297141b30a15","ios":"levelo://app?vid=b4d0f14d-8df8-4284-97ab-297141b30a15"},"vehicle_type_id":"4","last_reported":1700726955,"current_range_meters":25600,"station_id":"ce4bh512rcd13ifvqe3g","pricing_plan_id":"free"},{"bike_id":"e2284003-4e46-4e0a-93e7-73d05c3666d9","system_id":"levelo_inurba_marseille","lat":43.334934,"lon":5.398005,"is_reserved":false,"is_disabled":false,"rental_uris":{"android":"levelo://app?vid=e2284003-4e46-4e0a-93e7-73d05c3666d9","ios":"levelo://app?vid=e2284003-4e46-4e0a-93e7-73d05c3666d9"},"vehicle_type_id":"4","last_reported":1700726955,"current_range_meters":26400,"station_id":"","pricing_plan_id":"free"},{"bike_id":"9f406700-c6fa-44c2-b209-2e781c68762e","system_id":"levelo_inurba_marseille","lat":43.28627,"lon":5.39143,"is_reserved":false,"is_disabled":false,"rental_uris":{"android":"levelo://app?vid=9f406700-c6fa-44c2-b209-2e781c68762e","ios":"levelo://app?vid=9f406700-c6fa-44c2-b209-2e781c68762e"},"vehicle_type_id":"4","last_reported":1700726955,"current_range_meters":9200,"station_id":"","pricing_plan_id":"free"},{"bike_id":"1acafeda-7669-473f-ae39-fcda94786acd","system_id":"levelo_inurba_marseille","lat":43.292724,"lon":5.401131,"is_reserved":false,"is_disabled":false,"rental_uris":{"android":"levelo://app?vid=1acafeda-7669-473f-ae39-fcda94786acd","ios":"levelo://app?vid=1acafeda-7669-473f-ae39-fcda94786acd"},"vehicle_type_id":"4","last_reported":1700726955,"current_range_meters":24400,"station_id":"ce4bh312rcd13ifvqdk0","pricing_plan_id":"free"},{"bike_id":"28a8c9e3-5084-49cf-bae5-4353dea39dad","system_id":"levelo_inurba_marseille","lat":43.280382,"lon":5.369291,"is_reserved":false,"is_disabled":false,"rental_uris":{"android":"levelo://app?vid=28a8c9e3-5084-49cf-bae5-4353dea39dad","ios":"levelo://app?vid=28a8c9e3-5084-49cf-bae5-4353dea39dad"},"vehicle_type_id":"4","last_reported":1700726955,"current_range_meters":19600,"station_id":"ce4bha12rcd13ifvqef0","pricing_plan_id":"free"},{"bike_id":"1192db1c-ab44-43e1-969b-4f6c428c9c18","system_id":"levelo_inurba_marseille","lat":43.29041,"lon":5.399634,"is_reserved":false,"is_disabled":false,"rental_uris":{"android":"levelo://app?vid=1192db1c-ab44-43e1-969b-4f6c428c9c18","ios":"levelo://app?vid=1192db1c-ab44-43e1-969b-4f6c428c9c18"},"vehicle_type_id":"4","last_reported":1700726955,"current_range_meters":22400,"station_id":"ce4bh392rcd13ifvqdm0","pricing_plan_id":"free"},{"bike_id":"ac97005e-e788-4370-85ef-58600b3cf579","system_id":"levelo_inurba_marseille","lat":43.29033,"lon":5.39982,"is_reserved":false,"is_disabled":false,"rental_uris":{"android":"levelo://app?vid=ac97005e-e788-4370-85ef-58600b3cf579","ios":"levelo://app?vid=ac97005e-e788-4370-85ef-58600b3cf579"},"vehicle_type_id":"4","last_reported":1700726955,"current_range_meters":12800,"station_id":"ce4bh392rcd13ifvqdm0","pricing_plan_id":"free"},{"bike_id":"11f716cb-31e8-4be1-833e-24b6c50adde9","system_id":"levelo_inurba_marseille","lat":43.296277,"lon":5.40595,"is_reserved":false,"is_disabled":false,"rental_uris":{"android":"levelo://app?vid=11f716cb-31e8-4be1-833e-24b6c50adde9","ios":"levelo://app?vid=11f716cb-31e8-4be1-833e-24b6c50adde9"},"vehicle_type_id":"4","last_reported":1700726955,"current_range_meters":2400,"station_id":"","pricing_plan_id":"free"},{"bike_id":"65872658-45b1-4541-a96d-ee474b5724f7","system_id":"levelo_inurba_marseille","lat":43.284462,"lon":5.392121,"is_reserved":false,"is_disabled":false,"rental_uris":{"android":"levelo://app?vid=65872658-45b1-4541-a96d-ee474b5724f7","ios":"levelo://app?vid=65872658-45b1-4541-a96d-ee474b5724f7"},"vehicle_type_id":"4","last_reported":1700726955,"current_range_meters":26000,"station_id":"ce4bhoh2rcd13ifvqh5g","pricing_plan_id":"free"},{"bike_id":"8c2a29ca-71bf-4e5c-9892-b9a35f3932c1","system_id":"levelo_inurba_marseille","lat":43.287771,"lon":5.398571,"is_reserved":false,"is_disabled":false,"rental_uris":{"android":"levelo://app?vid=8c2a29ca-71bf-4e5c-9892-b9a35f3932c1","ios":"levelo://app?vid=8c2a29ca-71bf-4e5c-9892-b9a35f3932c1"},"vehicle_type_id":"4","last_reported":1700726955,"current_range_meters":5600,"station_id":"","pricing_plan_id":"free"},{"bike_id":"6e2c2465-4e40-4aae-912b-ca1fbcdf1978","system_id":"levelo_inurba_marseille","lat":43.3273,"lon":5.40925,"is_reserved":false,"is_disabled":false,"rental_uris":{"android":"levelo://app?vid=6e2c2465-4e40-4aae-912b-ca1fbcdf1978","ios":"levelo://app?vid=6e2c2465-4e40-4aae-912b-ca1fbcdf1978"},"vehicle_type_id":"4","last_reported":1700726955,"current_range_meters":0,"station_id":"","pricing_plan_id":"free"},{"bike_id":"8fcef76d-9052-4314-90fb-0622a0144a5f","system_id":"levelo_inurba_marseille","lat":43.32652,"lon":5.40997,"is_reserved":false,"is_disabled":false,"rental_uris":{"android":"levelo://app?vid=8fcef76d-9052-4314-90fb-0622a0144a5f","ios":"levelo://app?vid=8fcef76d-9052-4314-90fb-0622a0144a5f"},"vehicle_type_id":"4","last_reported":1700726955,"current_range_meters":4400,"station_id":"ce4bhpp2rcd13ifvqhgg","pricing_plan_id":"free"},{"bike_id":"3366fe4e-572e-4d14-ab3d-e1330212dcd9","system_id":"levelo_inurba_marseille","lat":43.304193,"lon":5.41286,"is_reserved":false,"is_disabled":false,"rental_uris":{"android":"levelo://app?vid=3366fe4e-572e-4d14-ab3d-e1330212dcd9","ios":"levelo://app?vid=3366fe4e-572e-4d14-ab3d-e1330212dcd9"},"vehicle_type_id":"4","last_reported":1700726955,"current_range_meters":22000,"station_id":"ce4bhop2rcd13ifvqh8g","pricing_plan_id":"free"},{"bike_id":"a8e2b52b-9ba9-4b70-bcb4-1e1ad46ab6fe","system_id":"levelo_inurba_marseille","lat":43.299579,"lon":5.413255,"is_reserved":false,"is_disabled":false,"rental_uris":{"android":"levelo://app?vid=a8e2b52b-9ba9-4b70-bcb4-1e1ad46ab6fe","ios":"levelo://app?vid=a8e2b52b-9ba9-4b70-bcb4-1e1ad46ab6fe"},"vehicle_type_id":"4","last_reported":1700726955,"current_range_meters":28400,"station_id":"ce4bhp12rcd13ifvqh9g","pricing_plan_id":"free"},{"bike_id":"92c55852-61f1-479e-877a-85b2a1b6a250","system_id":"levelo_inurba_marseille","lat":43.279742,"lon":5.38744,"is_reserved":false,"is_disabled":false,"rental_uris":{"android":"levelo://app?vid=92c55852-61f1-479e-877a-85b2a1b6a250","ios":"levelo://app?vid=92c55852-61f1-479e-877a-85b2a1b6a250"},"vehicle_type_id":"4","last_reported":1700726955,"current_range_meters":0,"station_id":"ce4bhg12rcd13ifvqf80","pricing_plan_id":"free"},{"bike_id":"cf7c6503-d761-4e4a-b826-f55f74848caf","system_id":"levelo_inurba_marseille","lat":43.34881,"lon":5.37504,"is_reserved":false,"is_disabled":false,"rental_uris":{"android":"levelo://app?vid=cf7c6503-d761-4e4a-b826-f55f74848caf","ios":"levelo://app?vid=cf7c6503-d761-4e4a-b826-f55f74848caf"},"vehicle_type_id":"4","last_reported":1700726955,"current_range_meters":2400,"station_id":"","pricing_plan_id":"free"},{"bike_id":"a3743976-bc46-459a-b5ff-dcb9efce44a1","system_id":"levelo_inurba_marseille","lat":43.325233,"lon":5.414318,"is_reserved":false,"is_disabled":false,"rental_uris":{"android":"levelo://app?vid=a3743976-bc46-459a-b5ff-dcb9efce44a1","ios":"levelo://app?vid=a3743976-bc46-459a-b5ff-dcb9efce44a1"},"vehicle_type_id":"4","last_reported":1700726955,"current_range_meters":25600,"station_id":"ce4bhq12rcd13ifvqhhg","pricing_plan_id":"free"},{"bike_id":"289c6197-1401-41ea-8f4d-d8cecf043038","system_id":"levelo_inurba_marseille","lat":43.325233,"lon":5.414318,"is_reserved":false,"is_disabled":false,"rental_uris":{"android":"levelo://app?vid=289c6197-1401-41ea-8f4d-d8cecf043038","ios":"levelo://app?vid=289c6197-1401-41ea-8f4d-d8cecf043038"},"vehicle_type_id":"4","last_reported":1700726955,"current_range_meters":13200,"station_id":"ce4bhq12rcd13ifvqhhg","pricing_plan_id":"free"},{"bike_id":"5c9ed6e6-68cc-4eba-b07e-73a5d0c6f48e","system_id":"levelo_inurba_marseille","lat":43.325233,"lon":5.414318,"is_reserved":false,"is_disabled":false,"rental_uris":{"android":"levelo://app?vid=5c9ed6e6-68cc-4eba-b07e-73a5d0c6f48e","ios":"levelo://app?vid=5c9ed6e6-68cc-4eba-b07e-73a5d0c6f48e"},"vehicle_type_id":"4","last_reported":1700726955,"current_range_meters":26800,"station_id":"ce4bhq12rcd13ifvqhhg","pricing_plan_id":"free"},{"bike_id":"04f843cd-71af-4fe8-9edb-4ef523337c4d","system_id":"levelo_inurba_marseille","lat":43.325233,"lon":5.414318,"is_reserved":false,"is_disabled":false,"rental_uris":{"android":"levelo://app?vid=04f843cd-71af-4fe8-9edb-4ef523337c4d","ios":"levelo://app?vid=04f843cd-71af-4fe8-9edb-4ef523337c4d"},"vehicle_type_id":"4","last_reported":1700726955,"current_range_meters":30400,"station_id":"ce4bhq12rcd13ifvqhhg","pricing_plan_id":"free"},{"bike_id":"c85e6052-bcab-4cec-92b2-b699507418c3","system_id":"levelo_inurba_marseille","lat":43.325233,"lon":5.414318,"is_reserved":false,"is_disabled":false,"rental_uris":{"android":"levelo://app?vid=c85e6052-bcab-4cec-92b2-b699507418c3","ios":"levelo://app?vid=c85e6052-bcab-4cec-92b2-b699507418c3"},"vehicle_type_id":"4","last_reported":1700726955,"current_range_meters":12400,"station_id":"ce4bhq12rcd13ifvqhhg","pricing_plan_id":"free"},{"bike_id":"966d9d38-b8bd-4917-bc45-fc3ef11d0753","system_id":"levelo_inurba_marseille","lat":43.325233,"lon":5.414318,"is_reserved":false,"is_disabled":false,"rental_uris":{"android":"levelo://app?vid=966d9d38-b8bd-4917-bc45-fc3ef11d0753","ios":"levelo://app?vid=966d9d38-b8bd-4917-bc45-fc3ef11d0753"},"vehicle_type_id":"4","last_reported":1700726955,"current_range_meters":29200,"station_id":"ce4bhq12rcd13ifvqhhg","pricing_plan_id":"free"},{"bike_id":"c7eaa0f5-fd2d-4444-b91b-0eae32b686a1","system_id":"levelo_inurba_marseille","lat":43.325233,"lon":5.414318,"is_reserved":false,"is_disabled":false,"rental_uris":{"android":"levelo://app?vid=c7eaa0f5-fd2d-4444-b91b-0eae32b686a1","ios":"levelo://app?vid=c7eaa0f5-fd2d-4444-b91b-0eae32b686a1"},"vehicle_type_id":"4","last_reported":1700726955,"current_range_meters":24400,"station_id":"ce4bhq12rcd13ifvqhhg","pricing_plan_id":"free"},{"bike_id":"ebf10906-3358-4ea1-9acd-7d3a235e122b","system_id":"levelo_inurba_marseille","lat":43.325243,"lon":5.414326,"is_reserved":false,"is_disabled":false,"rental_uris":{"android":"levelo://app?vid=ebf10906-3358-4ea1-9acd-7d3a235e122b","ios":"levelo://app?vid=ebf10906-3358-4ea1-9acd-7d3a235e122b"},"vehicle_type_id":"4","last_reported":1700726955,"current_range_meters":29200,"station_id":"ce4bhq12rcd13ifvqhhg","pricing_plan_id":"free"},{"bike_id":"7346f08b-f154-454c-bf68-309edcc3cb5f","system_id":"levelo_inurba_marseille","lat":43.325243,"lon":5.414326,"is_reserved":false,"is_disabled":false,"rental_uris":{"android":"levelo://app?vid=7346f08b-f154-454c-bf68-309edcc3cb5f","ios":"levelo://app?vid=7346f08b-f154-454c-bf68-309edcc3cb5f"},"vehicle_type_id":"4","last_reported":1700726955,"current_range_meters":27600,"station_id":"ce4bhq12rcd13ifvqhhg","pricing_plan_id":"free"},{"bike_id":"7487875f-9f27-41d3-8e09-72099828f292","system_id":"levelo_inurba_marseille","lat":43.273613,"lon":5.362705,"is_reserved":false,"is_disabled":false,"rental_uris":{"android":"levelo://app?vid=7487875f-9f27-41d3-8e09-72099828f292","ios":"levelo://app?vid=7487875f-9f27-41d3-8e09-72099828f292"},"vehicle_type_id":"4","last_reported":1700726955,"current_range_meters":17200,"station_id":"ce4bhbh2rcd13ifvqeo0","pricing_plan_id":"free"},{"bike_id":"7d57aa56-50d4-4350-9910-302dea93bce6","system_id":"levelo_inurba_marseille","lat":43.273613,"lon":5.362705,"is_reserved":false,"is_disabled":false,"rental_uris":{"android":"levelo://app?vid=7d57aa56-50d4-4350-9910-302dea93bce6","ios":"levelo://app?vid=7d57aa56-50d4-4350-9910-302dea93bce6"},"vehicle_type_id":"4","last_reported":1700726955,"current_range_meters":9200,"station_id":"ce4bhbh2rcd13ifvqeo0","pricing_plan_id":"free"},{"bike_id":"f3c5723d-0972-4fbf-b72e-7c6590dbccdd","system_id":"levelo_inurba_marseille","lat":43.33612,"lon":5.410321,"is_reserved":false,"is_disabled":false,"rental_uris":{"android":"levelo://app?vid=f3c5723d-0972-4fbf-b72e-7c6590dbccdd","ios":"levelo://app?vid=f3c5723d-0972-4fbf-b72e-7c6590dbccdd"},"vehicle_type_id":"4","last_reported":1700726955,"current_range_meters":31600,"station_id":"ce4bhqh2rcd13ifvqhmg","pricing_plan_id":"free"},{"bike_id":"b96ce40d-4b55-434c-b45f-be321f659a41","system_id":"levelo_inurba_marseille","lat":43.33612,"lon":5.410321,"is_reserved":false,"is_disabled":false,"rental_uris":{"android":"levelo://app?vid=b96ce40d-4b55-434c-b45f-be321f659a41","ios":"levelo://app?vid=b96ce40d-4b55-434c-b45f-be321f659a41"},"vehicle_type_id":"4","last_reported":1700726955,"current_range_meters":1200,"station_id":"ce4bhqh2rcd13ifvqhmg","pricing_plan_id":"free"},{"bike_id":"1940fe7b-7fc0-4d54-a068-eb7f40fc7cf8","system_id":"levelo_inurba_marseille","lat":43.336134,"lon":5.410341,"is_reserved":false,"is_disabled":false,"rental_uris":{"android":"levelo://app?vid=1940fe7b-7fc0-4d54-a068-eb7f40fc7cf8","ios":"levelo://app?vid=1940fe7b-7fc0-4d54-a068-eb7f40fc7cf8"},"vehicle_type_id":"4","last_reported":1700726955,"current_range_meters":24400,"station_id":"ce4bhqh2rcd13ifvqhmg","pricing_plan_id":"free"},{"bike_id":"d9149e7f-ba0c-449d-9a71-6de54b676ee2","system_id":"levelo_inurba_marseille","lat":43.33612,"lon":5.410321,"is_reserved":false,"is_disabled":false,"rental_uris":{"android":"levelo://app?vid=d9149e7f-ba0c-449d-9a71-6de54b676ee2","ios":"levelo://app?vid=d9149e7f-ba0c-449d-9a71-6de54b676ee2"},"vehicle_type_id":"4","last_reported":1700726955,"current_range_meters":12800,"station_id":"ce4bhqh2rcd13ifvqhmg","pricing_plan_id":"free"},{"bike_id":"062b71ad-7856-47f5-9834-706bb6bb8fe8","system_id":"levelo_inurba_marseille","lat":43.33612,"lon":5.410321,"is_reserved":false,"is_disabled":false,"rental_uris":{"android":"levelo://app?vid=062b71ad-7856-47f5-9834-706bb6bb8fe8","ios":"levelo://app?vid=062b71ad-7856-47f5-9834-706bb6bb8fe8"},"vehicle_type_id":"4","last_reported":1700726955,"current_range_meters":31600,"station_id":"ce4bhqh2rcd13ifvqhmg","pricing_plan_id":"free"},{"bike_id":"ee3ef0a6-3184-4091-9d85-4e62871a385d","system_id":"levelo_inurba_marseille","lat":43.336134,"lon":5.410341,"is_reserved":false,"is_disabled":false,"rental_uris":{"android":"levelo://app?vid=ee3ef0a6-3184-4091-9d85-4e62871a385d","ios":"levelo://app?vid=ee3ef0a6-3184-4091-9d85-4e62871a385d"},"vehicle_type_id":"4","last_reported":1700726955,"current_range_meters":18400,"station_id":"ce4bhqh2rcd13ifvqhmg","pricing_plan_id":"free"},{"bike_id":"78bb3bbf-dc60-4a47-a318-ac05eebe5330","system_id":"levelo_inurba_marseille","lat":43.276771,"lon":5.388799,"is_reserved":false,"is_disabled":false,"rental_uris":{"android":"levelo://app?vid=78bb3bbf-dc60-4a47-a318-ac05eebe5330","ios":"levelo://app?vid=78bb3bbf-dc60-4a47-a318-ac05eebe5330"},"vehicle_type_id":"4","last_reported":1700726955,"current_range_meters":25600,"station_id":"ce4bhi12rcd13ifvqfo0","pricing_plan_id":"free"},{"bike_id":"354b9ddc-e602-489c-a4d8-aad3ec754a7a","system_id":"levelo_inurba_marseille","lat":43.31079,"lon":5.42434,"is_reserved":false,"is_disabled":false,"rental_uris":{"android":"levelo://app?vid=354b9ddc-e602-489c-a4d8-aad3ec754a7a","ios":"levelo://app?vid=354b9ddc-e602-489c-a4d8-aad3ec754a7a"},"vehicle_type_id":"4","last_reported":1700726955,"current_range_meters":0,"station_id":"ce4bhp92rcd13ifvqhag","pricing_plan_id":"free"},{"bike_id":"03ebf63d-8006-4f9c-8659-41fb9f27cef7","system_id":"levelo_inurba_marseille","lat":43.340804,"lon":5.410219,"is_reserved":false,"is_disabled":false,"rental_uris":{"android":"levelo://app?vid=03ebf63d-8006-4f9c-8659-41fb9f27cef7","ios":"levelo://app?vid=03ebf63d-8006-4f9c-8659-41fb9f27cef7"},"vehicle_type_id":"4","last_reported":1700726955,"current_range_meters":13600,"station_id":"ce4bhqh2rcd13ifvqhlg","pricing_plan_id":"free"},{"bike_id":"53f83617-2581-46fb-84d9-ddbbc155dbf0","system_id":"levelo_inurba_marseille","lat":43.340804,"lon":5.410219,"is_reserved":false,"is_disabled":false,"rental_uris":{"android":"levelo://app?vid=53f83617-2581-46fb-84d9-ddbbc155dbf0","ios":"levelo://app?vid=53f83617-2581-46fb-84d9-ddbbc155dbf0"},"vehicle_type_id":"4","last_reported":1700726955,"current_range_meters":17600,"station_id":"ce4bhqh2rcd13ifvqhlg","pricing_plan_id":"free"},{"bike_id":"76fa5abf-79a2-4464-8bb6-5e54d877e56d","system_id":"levelo_inurba_marseille","lat":43.340804,"lon":5.410219,"is_reserved":false,"is_disabled":false,"rental_uris":{"android":"levelo://app?vid=76fa5abf-79a2-4464-8bb6-5e54d877e56d","ios":"levelo://app?vid=76fa5abf-79a2-4464-8bb6-5e54d877e56d"},"vehicle_type_id":"4","last_reported":1700726955,"current_range_meters":21600,"station_id":"ce4bhqh2rcd13ifvqhlg","pricing_plan_id":"free"},{"bike_id":"928d104d-ebdc-49f9-b03e-9fa9e60b6686","system_id":"levelo_inurba_marseille","lat":43.274099,"lon":5.394019,"is_reserved":false,"is_disabled":false,"rental_uris":{"android":"levelo://app?vid=928d104d-ebdc-49f9-b03e-9fa9e60b6686","ios":"levelo://app?vid=928d104d-ebdc-49f9-b03e-9fa9e60b6686"},"vehicle_type_id":"4","last_reported":1700726955,"current_range_meters":27600,"station_id":"ce4bhdp2rcd13ifvqf20","pricing_plan_id":"free"},{"bike_id":"3719bf19-a1d2-47e3-86bc-ad1c1aace7b7","system_id":"levelo_inurba_marseille","lat":43.295511,"lon":5.422926,"is_reserved":false,"is_disabled":false,"rental_uris":{"android":"levelo://app?vid=3719bf19-a1d2-47e3-86bc-ad1c1aace7b7","ios":"levelo://app?vid=3719bf19-a1d2-47e3-86bc-ad1c1aace7b7"},"vehicle_type_id":"4","last_reported":1700726955,"current_range_meters":7600,"station_id":"ce4bhph2rcd13ifvqhdg","pricing_plan_id":"free"},{"bike_id":"c03c776e-60a9-43ba-89c9-11f19a02ea23","system_id":"levelo_inurba_marseille","lat":43.295523,"lon":5.422926,"is_reserved":false,"is_disabled":false,"rental_uris":{"android":"levelo://app?vid=c03c776e-60a9-43ba-89c9-11f19a02ea23","ios":"levelo://app?vid=c03c776e-60a9-43ba-89c9-11f19a02ea23"},"vehicle_type_id":"4","last_reported":1700726955,"current_range_meters":31200,"station_id":"ce4bhph2rcd13ifvqhdg","pricing_plan_id":"free"},{"bike_id":"f0e34128-1557-40fa-b4ce-63b85c10c6c6","system_id":"levelo_inurba_marseille","lat":43.295511,"lon":5.422926,"is_reserved":false,"is_disabled":false,"rental_uris":{"android":"levelo://app?vid=f0e34128-1557-40fa-b4ce-63b85c10c6c6","ios":"levelo://app?vid=f0e34128-1557-40fa-b4ce-63b85c10c6c6"},"vehicle_type_id":"4","last_reported":1700726955,"current_range_meters":20800,"station_id":"ce4bhph2rcd13ifvqhdg","pricing_plan_id":"free"},{"bike_id":"50fc9161-08aa-4d83-8168-065e57a63f6f","system_id":"levelo_inurba_marseille","lat":43.27206,"lon":5.39192,"is_reserved":false,"is_disabled":false,"rental_uris":{"android":"levelo://app?vid=50fc9161-08aa-4d83-8168-065e57a63f6f","ios":"levelo://app?vid=50fc9161-08aa-4d83-8168-065e57a63f6f"},"vehicle_type_id":"4","last_reported":1700726955,"current_range_meters":22000,"station_id":"ce4bhhp2rcd13ifvqfm0","pricing_plan_id":"free"},{"bike_id":"d0bb53f7-f1b8-4609-a668-27efdac67f66","system_id":"levelo_inurba_marseille","lat":43.27192,"lon":5.39244,"is_reserved":false,"is_disabled":false,"rental_uris":{"android":"levelo://app?vid=d0bb53f7-f1b8-4609-a668-27efdac67f66","ios":"levelo://app?vid=d0bb53f7-f1b8-4609-a668-27efdac67f66"},"vehicle_type_id":"4","last_reported":1700726955,"current_range_meters":0,"station_id":"","pricing_plan_id":"free"},{"bike_id":"27c9f821-5afe-4faf-9c4c-3b0063ceff95","system_id":"levelo_inurba_marseille","lat":43.269701,"lon":5.386179,"is_reserved":false,"is_disabled":false,"rental_uris":{"android":"levelo://app?vid=27c9f821-5afe-4faf-9c4c-3b0063ceff95","ios":"levelo://app?vid=27c9f821-5afe-4faf-9c4c-3b0063ceff95"},"vehicle_type_id":"4","last_reported":1700726955,"current_range_meters":20800,"station_id":"ce4bhh92rcd13ifvqfh0","pricing_plan_id":"free"},{"bike_id":"2cb1361c-c2fb-4220-aea3-8ac642213548","system_id":"levelo_inurba_marseille","lat":43.278083,"lon":5.407089,"is_reserved":false,"is_disabled":false,"rental_uris":{"android":"levelo://app?vid=2cb1361c-c2fb-4220-aea3-8ac642213548","ios":"levelo://app?vid=2cb1361c-c2fb-4220-aea3-8ac642213548"},"vehicle_type_id":"4","last_reported":1700726955,"current_range_meters":19600,"station_id":"ce4bhnh2rcd13ifvqgtg","pricing_plan_id":"free"},{"bike_id":"499bb96d-d924-49d0-a3d8-189ada583b21","system_id":"levelo_inurba_marseille","lat":43.27813,"lon":5.40723,"is_reserved":false,"is_disabled":false,"rental_uris":{"android":"levelo://app?vid=499bb96d-d924-49d0-a3d8-189ada583b21","ios":"levelo://app?vid=499bb96d-d924-49d0-a3d8-189ada583b21"},"vehicle_type_id":"4","last_reported":1700726955,"current_range_meters":30000,"station_id":"ce4bhnh2rcd13ifvqgtg","pricing_plan_id":"free"},{"bike_id":"726331a5-381b-412f-81a3-73fe2711066a","system_id":"levelo_inurba_marseille","lat":43.269467,"lon":5.386439,"is_reserved":false,"is_disabled":false,"rental_uris":{"android":"levelo://app?vid=726331a5-381b-412f-81a3-73fe2711066a","ios":"levelo://app?vid=726331a5-381b-412f-81a3-73fe2711066a"},"vehicle_type_id":"4","last_reported":1700726955,"current_range_meters":30400,"station_id":"ce4bhh92rcd13ifvqfh0","pricing_plan_id":"free"},{"bike_id":"e785c681-8279-4c83-b064-83c2e3a32ca5","system_id":"levelo_inurba_marseille","lat":43.26952,"lon":5.38627,"is_reserved":false,"is_disabled":false,"rental_uris":{"android":"levelo://app?vid=e785c681-8279-4c83-b064-83c2e3a32ca5","ios":"levelo://app?vid=e785c681-8279-4c83-b064-83c2e3a32ca5"},"vehicle_type_id":"4","last_reported":1700726955,"current_range_meters":28800,"station_id":"ce4bhh92rcd13ifvqfh0","pricing_plan_id":"free"},{"bike_id":"d9973ad8-8ded-4c01-88c6-8f270ce341a6","system_id":"levelo_inurba_marseille","lat":43.26952,"lon":5.38631,"is_reserved":false,"is_disabled":false,"rental_uris":{"android":"levelo://app?vid=d9973ad8-8ded-4c01-88c6-8f270ce341a6","ios":"levelo://app?vid=d9973ad8-8ded-4c01-88c6-8f270ce341a6"},"vehicle_type_id":"4","last_reported":1700726955,"current_range_meters":15600,"station_id":"ce4bhh92rcd13ifvqfh0","pricing_plan_id":"free"},{"bike_id":"f0336b8e-a305-4012-997b-1b0b7500cb9a","system_id":"levelo_inurba_marseille","lat":43.26947,"lon":5.38624,"is_reserved":false,"is_disabled":false,"rental_uris":{"android":"levelo://app?vid=f0336b8e-a305-4012-997b-1b0b7500cb9a","ios":"levelo://app?vid=f0336b8e-a305-4012-997b-1b0b7500cb9a"},"vehicle_type_id":"4","last_reported":1700726955,"current_range_meters":23600,"station_id":"ce4bhh92rcd13ifvqfh0","pricing_plan_id":"free"},{"bike_id":"aaa47b06-1bc8-4a74-bfda-291fbf589cfa","system_id":"levelo_inurba_marseille","lat":43.26949,"lon":5.38633,"is_reserved":false,"is_disabled":false,"rental_uris":{"android":"levelo://app?vid=aaa47b06-1bc8-4a74-bfda-291fbf589cfa","ios":"levelo://app?vid=aaa47b06-1bc8-4a74-bfda-291fbf589cfa"},"vehicle_type_id":"4","last_reported":1700726955,"current_range_meters":19200,"station_id":"ce4bhh92rcd13ifvqfh0","pricing_plan_id":"free"},{"bike_id":"2d5774a7-78f7-4948-9cd3-3133b713764a","system_id":"levelo_inurba_marseille","lat":43.26947,"lon":5.38627,"is_reserved":false,"is_disabled":false,"rental_uris":{"android":"levelo://app?vid=2d5774a7-78f7-4948-9cd3-3133b713764a","ios":"levelo://app?vid=2d5774a7-78f7-4948-9cd3-3133b713764a"},"vehicle_type_id":"4","last_reported":1700726955,"current_range_meters":14400,"station_id":"ce4bhh92rcd13ifvqfh0","pricing_plan_id":"free"},{"bike_id":"e9a11266-c42d-47e3-a60e-0167a3614f20","system_id":"levelo_inurba_marseille","lat":43.26945,"lon":5.38624,"is_reserved":false,"is_disabled":false,"rental_uris":{"android":"levelo://app?vid=e9a11266-c42d-47e3-a60e-0167a3614f20","ios":"levelo://app?vid=e9a11266-c42d-47e3-a60e-0167a3614f20"},"vehicle_type_id":"4","last_reported":1700726955,"current_range_meters":17600,"station_id":"ce4bhh92rcd13ifvqfh0","pricing_plan_id":"free"},{"bike_id":"8d75a756-5022-476e-80ff-420ae0d55986","system_id":"levelo_inurba_marseille","lat":43.26941,"lon":5.38652,"is_reserved":false,"is_disabled":false,"rental_uris":{"android":"levelo://app?vid=8d75a756-5022-476e-80ff-420ae0d55986","ios":"levelo://app?vid=8d75a756-5022-476e-80ff-420ae0d55986"},"vehicle_type_id":"4","last_reported":1700726955,"current_range_meters":20400,"station_id":"ce4bhh92rcd13ifvqfh0","pricing_plan_id":"free"},{"bike_id":"964667e6-f8e8-42b8-b3c4-a46a34dc2a14","system_id":"levelo_inurba_marseille","lat":43.26971,"lon":5.39242,"is_reserved":false,"is_disabled":false,"rental_uris":{"android":"levelo://app?vid=964667e6-f8e8-42b8-b3c4-a46a34dc2a14","ios":"levelo://app?vid=964667e6-f8e8-42b8-b3c4-a46a34dc2a14"},"vehicle_type_id":"4","last_reported":1700726955,"current_range_meters":12400,"station_id":"","pricing_plan_id":"free"},{"bike_id":"ec9bb202-232b-4ca7-8388-6ca6f3ab3904","system_id":"levelo_inurba_marseille","lat":43.26688,"lon":5.38274,"is_reserved":false,"is_disabled":false,"rental_uris":{"android":"levelo://app?vid=ec9bb202-232b-4ca7-8388-6ca6f3ab3904","ios":"levelo://app?vid=ec9bb202-232b-4ca7-8388-6ca6f3ab3904"},"vehicle_type_id":"4","last_reported":1700726955,"current_range_meters":29200,"station_id":"ce4bhg92rcd13ifvqf90","pricing_plan_id":"free"},{"bike_id":"5bef9d0c-1e7e-4847-a32b-8337639c3ca5","system_id":"levelo_inurba_marseille","lat":43.26681,"lon":5.382694,"is_reserved":false,"is_disabled":false,"rental_uris":{"android":"levelo://app?vid=5bef9d0c-1e7e-4847-a32b-8337639c3ca5","ios":"levelo://app?vid=5bef9d0c-1e7e-4847-a32b-8337639c3ca5"},"vehicle_type_id":"4","last_reported":1700726955,"current_range_meters":12400,"station_id":"ce4bhg92rcd13ifvqf90","pricing_plan_id":"free"},{"bike_id":"1d100b09-c198-44de-a313-73f119100c42","system_id":"levelo_inurba_marseille","lat":43.26681,"lon":5.382694,"is_reserved":false,"is_disabled":false,"rental_uris":{"android":"levelo://app?vid=1d100b09-c198-44de-a313-73f119100c42","ios":"levelo://app?vid=1d100b09-c198-44de-a313-73f119100c42"},"vehicle_type_id":"4","last_reported":1700726955,"current_range_meters":19200,"station_id":"ce4bhg92rcd13ifvqf90","pricing_plan_id":"free"},{"bike_id":"27ce5d61-ee73-4565-bdf0-5f8f3201a5e6","system_id":"levelo_inurba_marseille","lat":43.26681,"lon":5.382694,"is_reserved":false,"is_disabled":false,"rental_uris":{"android":"levelo://app?vid=27ce5d61-ee73-4565-bdf0-5f8f3201a5e6","ios":"levelo://app?vid=27ce5d61-ee73-4565-bdf0-5f8f3201a5e6"},"vehicle_type_id":"4","last_reported":1700726955,"current_range_meters":3200,"station_id":"ce4bhg92rcd13ifvqf90","pricing_plan_id":"free"},{"bike_id":"7194db7f-719f-4593-a769-0fac5d902c83","system_id":"levelo_inurba_marseille","lat":43.26681,"lon":5.382694,"is_reserved":false,"is_disabled":false,"rental_uris":{"android":"levelo://app?vid=7194db7f-719f-4593-a769-0fac5d902c83","ios":"levelo://app?vid=7194db7f-719f-4593-a769-0fac5d902c83"},"vehicle_type_id":"4","last_reported":1700726955,"current_range_meters":26400,"station_id":"ce4bhg92rcd13ifvqf90","pricing_plan_id":"free"},{"bike_id":"6d80c712-2bde-477a-8a83-9927cec74d54","system_id":"levelo_inurba_marseille","lat":43.266807,"lon":5.382827,"is_reserved":false,"is_disabled":false,"rental_uris":{"android":"levelo://app?vid=6d80c712-2bde-477a-8a83-9927cec74d54","ios":"levelo://app?vid=6d80c712-2bde-477a-8a83-9927cec74d54"},"vehicle_type_id":"4","last_reported":1700726955,"current_range_meters":28800,"station_id":"ce4bhg92rcd13ifvqf90","pricing_plan_id":"free"},{"bike_id":"8ad24fb6-7255-4f55-987d-f912c5ab4fd6","system_id":"levelo_inurba_marseille","lat":43.26681,"lon":5.382694,"is_reserved":false,"is_disabled":false,"rental_uris":{"android":"levelo://app?vid=8ad24fb6-7255-4f55-987d-f912c5ab4fd6","ios":"levelo://app?vid=8ad24fb6-7255-4f55-987d-f912c5ab4fd6"},"vehicle_type_id":"4","last_reported":1700726955,"current_range_meters":29600,"station_id":"ce4bhg92rcd13ifvqf90","pricing_plan_id":"free"},{"bike_id":"4585e029-de4f-4767-8a55-b83e77ddd939","system_id":"levelo_inurba_marseille","lat":43.26556,"lon":5.37283,"is_reserved":false,"is_disabled":false,"rental_uris":{"android":"levelo://app?vid=4585e029-de4f-4767-8a55-b83e77ddd939","ios":"levelo://app?vid=4585e029-de4f-4767-8a55-b83e77ddd939"},"vehicle_type_id":"4","last_reported":1700726955,"current_range_meters":4800,"station_id":"ce4bhg12rcd13ifvqf70","pricing_plan_id":"free"},{"bike_id":"d98700c7-045f-4e44-a46e-1c2cef9e6ef8","system_id":"levelo_inurba_marseille","lat":43.26554,"lon":5.37283,"is_reserved":false,"is_disabled":false,"rental_uris":{"android":"levelo://app?vid=d98700c7-045f-4e44-a46e-1c2cef9e6ef8","ios":"levelo://app?vid=d98700c7-045f-4e44-a46e-1c2cef9e6ef8"},"vehicle_type_id":"4","last_reported":1700726955,"current_range_meters":20000,"station_id":"ce4bhg12rcd13ifvqf70","pricing_plan_id":"free"},{"bike_id":"5f6fe231-8687-402c-960d-790de758e194","system_id":"levelo_inurba_marseille","lat":43.26681,"lon":5.382694,"is_reserved":false,"is_disabled":false,"rental_uris":{"android":"levelo://app?vid=5f6fe231-8687-402c-960d-790de758e194","ios":"levelo://app?vid=5f6fe231-8687-402c-960d-790de758e194"},"vehicle_type_id":"4","last_reported":1700726955,"current_range_meters":22800,"station_id":"ce4bhg92rcd13ifvqf90","pricing_plan_id":"free"},{"bike_id":"28e8ce00-6b21-4e06-9930-c7c4408cc650","system_id":"levelo_inurba_marseille","lat":43.326174,"lon":5.430584,"is_reserved":false,"is_disabled":false,"rental_uris":{"android":"levelo://app?vid=28e8ce00-6b21-4e06-9930-c7c4408cc650","ios":"levelo://app?vid=28e8ce00-6b21-4e06-9930-c7c4408cc650"},"vehicle_type_id":"4","last_reported":1700726955,"current_range_meters":3600,"station_id":"","pricing_plan_id":"free"},{"bike_id":"b40b35cb-4a3a-44b1-b17b-85d162b699b7","system_id":"levelo_inurba_marseille","lat":43.265714,"lon":5.372891,"is_reserved":false,"is_disabled":false,"rental_uris":{"android":"levelo://app?vid=b40b35cb-4a3a-44b1-b17b-85d162b699b7","ios":"levelo://app?vid=b40b35cb-4a3a-44b1-b17b-85d162b699b7"},"vehicle_type_id":"4","last_reported":1700726955,"current_range_meters":20400,"station_id":"ce4bhg12rcd13ifvqf70","pricing_plan_id":"free"},{"bike_id":"644427a7-da99-441a-bc9c-0f2cff0bd648","system_id":"levelo_inurba_marseille","lat":43.265714,"lon":5.372891,"is_reserved":false,"is_disabled":false,"rental_uris":{"android":"levelo://app?vid=644427a7-da99-441a-bc9c-0f2cff0bd648","ios":"levelo://app?vid=644427a7-da99-441a-bc9c-0f2cff0bd648"},"vehicle_type_id":"4","last_reported":1700726955,"current_range_meters":24800,"station_id":"ce4bhg12rcd13ifvqf70","pricing_plan_id":"free"},{"bike_id":"adae83ca-a429-499f-9686-6f3d77a65036","system_id":"levelo_inurba_marseille","lat":43.267966,"lon":5.393976,"is_reserved":false,"is_disabled":false,"rental_uris":{"android":"levelo://app?vid=adae83ca-a429-499f-9686-6f3d77a65036","ios":"levelo://app?vid=adae83ca-a429-499f-9686-6f3d77a65036"},"vehicle_type_id":"4","last_reported":1700726955,"current_range_meters":29200,"station_id":"ce4bhh12rcd13ifvqfg0","pricing_plan_id":"free"},{"bike_id":"653f602f-5d07-4b8c-aabd-3207539a09eb","system_id":"levelo_inurba_marseille","lat":43.267778,"lon":5.394157,"is_reserved":false,"is_disabled":false,"rental_uris":{"android":"levelo://app?vid=653f602f-5d07-4b8c-aabd-3207539a09eb","ios":"levelo://app?vid=653f602f-5d07-4b8c-aabd-3207539a09eb"},"vehicle_type_id":"4","last_reported":1700726955,"current_range_meters":1600,"station_id":"","pricing_plan_id":"free"},{"bike_id":"2b5f0b27-ae58-4e9e-bd76-c585f78e8a73","system_id":"levelo_inurba_marseille","lat":43.26386,"lon":5.37454,"is_reserved":false,"is_disabled":false,"rental_uris":{"android":"levelo://app?vid=2b5f0b27-ae58-4e9e-bd76-c585f78e8a73","ios":"levelo://app?vid=2b5f0b27-ae58-4e9e-bd76-c585f78e8a73"},"vehicle_type_id":"4","last_reported":1700726955,"current_range_meters":19200,"station_id":"","pricing_plan_id":"free"},{"bike_id":"55c249db-7acb-4700-85ca-b0afe4f17026","system_id":"levelo_inurba_marseille","lat":43.261782,"lon":5.374515,"is_reserved":false,"is_disabled":false,"rental_uris":{"android":"levelo://app?vid=55c249db-7acb-4700-85ca-b0afe4f17026","ios":"levelo://app?vid=55c249db-7acb-4700-85ca-b0afe4f17026"},"vehicle_type_id":"4","last_reported":1700726955,"current_range_meters":27600,"station_id":"ce4bhgp2rcd13ifvqfc0","pricing_plan_id":"free"},{"bike_id":"84c3413a-eca7-466e-a783-72da4df044b2","system_id":"levelo_inurba_marseille","lat":43.261782,"lon":5.374515,"is_reserved":false,"is_disabled":false,"rental_uris":{"android":"levelo://app?vid=84c3413a-eca7-466e-a783-72da4df044b2","ios":"levelo://app?vid=84c3413a-eca7-466e-a783-72da4df044b2"},"vehicle_type_id":"4","last_reported":1700726955,"current_range_meters":19600,"station_id":"ce4bhgp2rcd13ifvqfc0","pricing_plan_id":"free"},{"bike_id":"d69077a3-88bb-487b-8d6f-f3f72e0329e0","system_id":"levelo_inurba_marseille","lat":43.262012,"lon":5.379307,"is_reserved":false,"is_disabled":false,"rental_uris":{"android":"levelo://app?vid=d69077a3-88bb-487b-8d6f-f3f72e0329e0","ios":"levelo://app?vid=d69077a3-88bb-487b-8d6f-f3f72e0329e0"},"vehicle_type_id":"4","last_reported":1700726955,"current_range_meters":26400,"station_id":"ce4bhjp2rcd13ifvqg90","pricing_plan_id":"free"},{"bike_id":"1ec02c52-83d7-4930-98cc-a30ac1c548f5","system_id":"levelo_inurba_marseille","lat":43.271368,"lon":5.40928,"is_reserved":false,"is_disabled":false,"rental_uris":{"android":"levelo://app?vid=1ec02c52-83d7-4930-98cc-a30ac1c548f5","ios":"levelo://app?vid=1ec02c52-83d7-4930-98cc-a30ac1c548f5"},"vehicle_type_id":"4","last_reported":1700726955,"current_range_meters":28400,"station_id":"ce4bhl12rcd13ifvqgf0","pricing_plan_id":"free"},{"bike_id":"860103e4-b3a2-49bf-a852-14e4f54ff085","system_id":"levelo_inurba_marseille","lat":43.27178,"lon":5.40996,"is_reserved":false,"is_disabled":false,"rental_uris":{"android":"levelo://app?vid=860103e4-b3a2-49bf-a852-14e4f54ff085","ios":"levelo://app?vid=860103e4-b3a2-49bf-a852-14e4f54ff085"},"vehicle_type_id":"4","last_reported":1700726955,"current_range_meters":27600,"station_id":"ce4bhl12rcd13ifvqgf0","pricing_plan_id":"free"},{"bike_id":"861e94e2-982b-4215-a671-df650b5b6578","system_id":"levelo_inurba_marseille","lat":43.271368,"lon":5.40928,"is_reserved":false,"is_disabled":false,"rental_uris":{"android":"levelo://app?vid=861e94e2-982b-4215-a671-df650b5b6578","ios":"levelo://app?vid=861e94e2-982b-4215-a671-df650b5b6578"},"vehicle_type_id":"4","last_reported":1700726955,"current_range_meters":30400,"station_id":"ce4bhl12rcd13ifvqgf0","pricing_plan_id":"free"},{"bike_id":"52b55dc8-c8cc-4913-b197-75376bf1030b","system_id":"levelo_inurba_marseille","lat":43.271388,"lon":5.409269,"is_reserved":false,"is_disabled":false,"rental_uris":{"android":"levelo://app?vid=52b55dc8-c8cc-4913-b197-75376bf1030b","ios":"levelo://app?vid=52b55dc8-c8cc-4913-b197-75376bf1030b"},"vehicle_type_id":"4","last_reported":1700726955,"current_range_meters":22000,"station_id":"ce4bhl12rcd13ifvqgf0","pricing_plan_id":"free"},{"bike_id":"cb16d7ee-4d8d-44c4-bc7a-142b1234ab63","system_id":"levelo_inurba_marseille","lat":43.31725,"lon":5.43786,"is_reserved":false,"is_disabled":false,"rental_uris":{"android":"levelo://app?vid=cb16d7ee-4d8d-44c4-bc7a-142b1234ab63","ios":"levelo://app?vid=cb16d7ee-4d8d-44c4-bc7a-142b1234ab63"},"vehicle_type_id":"4","last_reported":1700726955,"current_range_meters":0,"station_id":"","pricing_plan_id":"free"},{"bike_id":"81269fc0-b290-46df-9c0f-1be945470061","system_id":"levelo_inurba_marseille","lat":43.26043,"lon":5.37541,"is_reserved":false,"is_disabled":false,"rental_uris":{"android":"levelo://app?vid=81269fc0-b290-46df-9c0f-1be945470061","ios":"levelo://app?vid=81269fc0-b290-46df-9c0f-1be945470061"},"vehicle_type_id":"4","last_reported":1700726955,"current_range_meters":20400,"station_id":"","pricing_plan_id":"free"},{"bike_id":"ab1ecf2e-d30a-4376-b39d-d3a4d73d26f5","system_id":"levelo_inurba_marseille","lat":43.26042,"lon":5.37549,"is_reserved":false,"is_disabled":false,"rental_uris":{"android":"levelo://app?vid=ab1ecf2e-d30a-4376-b39d-d3a4d73d26f5","ios":"levelo://app?vid=ab1ecf2e-d30a-4376-b39d-d3a4d73d26f5"},"vehicle_type_id":"4","last_reported":1700726955,"current_range_meters":7600,"station_id":"","pricing_plan_id":"free"},{"bike_id":"7106f339-3413-48f1-8c29-d34f77c4bef9","system_id":"levelo_inurba_marseille","lat":43.26039,"lon":5.37557,"is_reserved":false,"is_disabled":false,"rental_uris":{"android":"levelo://app?vid=7106f339-3413-48f1-8c29-d34f77c4bef9","ios":"levelo://app?vid=7106f339-3413-48f1-8c29-d34f77c4bef9"},"vehicle_type_id":"4","last_reported":1700726955,"current_range_meters":15200,"station_id":"","pricing_plan_id":"free"},{"bike_id":"c89ecebd-08b0-48fa-a808-8bae1b3c6b92","system_id":"levelo_inurba_marseille","lat":43.26035,"lon":5.37547,"is_reserved":false,"is_disabled":false,"rental_uris":{"android":"levelo://app?vid=c89ecebd-08b0-48fa-a808-8bae1b3c6b92","ios":"levelo://app?vid=c89ecebd-08b0-48fa-a808-8bae1b3c6b92"},"vehicle_type_id":"4","last_reported":1700726955,"current_range_meters":6800,"station_id":"","pricing_plan_id":"free"},{"bike_id":"62bfcdff-9547-484d-aa02-9355da3d5ca0","system_id":"levelo_inurba_marseille","lat":43.26034,"lon":5.3754,"is_reserved":false,"is_disabled":false,"rental_uris":{"android":"levelo://app?vid=62bfcdff-9547-484d-aa02-9355da3d5ca0","ios":"levelo://app?vid=62bfcdff-9547-484d-aa02-9355da3d5ca0"},"vehicle_type_id":"4","last_reported":1700726955,"current_range_meters":16400,"station_id":"","pricing_plan_id":"free"},{"bike_id":"6e6f931f-34d6-4513-b4cb-e819228924be","system_id":"levelo_inurba_marseille","lat":43.260225,"lon":5.375455,"is_reserved":false,"is_disabled":false,"rental_uris":{"android":"levelo://app?vid=6e6f931f-34d6-4513-b4cb-e819228924be","ios":"levelo://app?vid=6e6f931f-34d6-4513-b4cb-e819228924be"},"vehicle_type_id":"4","last_reported":1700726955,"current_range_meters":24000,"station_id":"ce4bhgh2rcd13ifvqfa0","pricing_plan_id":"free"},{"bike_id":"b3341d00-73ff-4122-a276-ba9355cae8f2","system_id":"levelo_inurba_marseille","lat":43.2603,"lon":5.37538,"is_reserved":false,"is_disabled":false,"rental_uris":{"android":"levelo://app?vid=b3341d00-73ff-4122-a276-ba9355cae8f2","ios":"levelo://app?vid=b3341d00-73ff-4122-a276-ba9355cae8f2"},"vehicle_type_id":"4","last_reported":1700726955,"current_range_meters":6400,"station_id":"","pricing_plan_id":"free"},{"bike_id":"b0523cc5-6a93-4167-bdb5-bb5ffd6909f6","system_id":"levelo_inurba_marseille","lat":43.281548,"lon":5.42643,"is_reserved":false,"is_disabled":false,"rental_uris":{"android":"levelo://app?vid=b0523cc5-6a93-4167-bdb5-bb5ffd6909f6","ios":"levelo://app?vid=b0523cc5-6a93-4167-bdb5-bb5ffd6909f6"},"vehicle_type_id":"4","last_reported":1700726955,"current_range_meters":19200,"station_id":"ce4bhnh2rcd13ifvqgug","pricing_plan_id":"free"},{"bike_id":"b4dd9c9b-3387-4443-a99e-ae4b202c88d0","system_id":"levelo_inurba_marseille","lat":43.26069,"lon":5.39391,"is_reserved":false,"is_disabled":false,"rental_uris":{"android":"levelo://app?vid=b4dd9c9b-3387-4443-a99e-ae4b202c88d0","ios":"levelo://app?vid=b4dd9c9b-3387-4443-a99e-ae4b202c88d0"},"vehicle_type_id":"4","last_reported":1700726955,"current_range_meters":29200,"station_id":"ce4bhh92rcd13ifvqfj0","pricing_plan_id":"free"},{"bike_id":"4089c0fd-abcc-4017-8069-a09b41ffc9ed","system_id":"levelo_inurba_marseille","lat":43.275028,"lon":5.424534,"is_reserved":false,"is_disabled":false,"rental_uris":{"android":"levelo://app?vid=4089c0fd-abcc-4017-8069-a09b41ffc9ed","ios":"levelo://app?vid=4089c0fd-abcc-4017-8069-a09b41ffc9ed"},"vehicle_type_id":"4","last_reported":1700726955,"current_range_meters":22400,"station_id":"ce4bhn92rcd13ifvqgrg","pricing_plan_id":"free"},{"bike_id":"f6e8e16b-61f5-41a0-a327-4af5969d9748","system_id":"levelo_inurba_marseille","lat":43.27492,"lon":5.42445,"is_reserved":false,"is_disabled":false,"rental_uris":{"android":"levelo://app?vid=f6e8e16b-61f5-41a0-a327-4af5969d9748","ios":"levelo://app?vid=f6e8e16b-61f5-41a0-a327-4af5969d9748"},"vehicle_type_id":"4","last_reported":1700726955,"current_range_meters":20000,"station_id":"ce4bhn92rcd13ifvqgrg","pricing_plan_id":"free"},{"bike_id":"05e3f246-14c4-42ea-94f0-7f5edda1edc8","system_id":"levelo_inurba_marseille","lat":43.27498,"lon":5.424537,"is_reserved":false,"is_disabled":false,"rental_uris":{"android":"levelo://app?vid=05e3f246-14c4-42ea-94f0-7f5edda1edc8","ios":"levelo://app?vid=05e3f246-14c4-42ea-94f0-7f5edda1edc8"},"vehicle_type_id":"4","last_reported":1700726955,"current_range_meters":10800,"station_id":"ce4bhn92rcd13ifvqgrg","pricing_plan_id":"free"},{"bike_id":"7371b4a1-8251-4e69-849c-dce668ffc81f","system_id":"levelo_inurba_marseille","lat":43.275028,"lon":5.424534,"is_reserved":false,"is_disabled":false,"rental_uris":{"android":"levelo://app?vid=7371b4a1-8251-4e69-849c-dce668ffc81f","ios":"levelo://app?vid=7371b4a1-8251-4e69-849c-dce668ffc81f"},"vehicle_type_id":"4","last_reported":1700726955,"current_range_meters":18400,"station_id":"ce4bhn92rcd13ifvqgrg","pricing_plan_id":"free"},{"bike_id":"4929c3f9-28dd-448f-8dcb-c2828ff58157","system_id":"levelo_inurba_marseille","lat":43.27493,"lon":5.4245,"is_reserved":false,"is_disabled":false,"rental_uris":{"android":"levelo://app?vid=4929c3f9-28dd-448f-8dcb-c2828ff58157","ios":"levelo://app?vid=4929c3f9-28dd-448f-8dcb-c2828ff58157"},"vehicle_type_id":"4","last_reported":1700726955,"current_range_meters":22000,"station_id":"ce4bhn92rcd13ifvqgrg","pricing_plan_id":"free"},{"bike_id":"0b943efe-8fc7-4591-97cf-7ac81ccc7892","system_id":"levelo_inurba_marseille","lat":43.27492,"lon":5.42451,"is_reserved":false,"is_disabled":false,"rental_uris":{"android":"levelo://app?vid=0b943efe-8fc7-4591-97cf-7ac81ccc7892","ios":"levelo://app?vid=0b943efe-8fc7-4591-97cf-7ac81ccc7892"},"vehicle_type_id":"4","last_reported":1700726955,"current_range_meters":28400,"station_id":"","pricing_plan_id":"free"},{"bike_id":"6e7613d8-87ad-44c3-aa6f-2d6c01c9bbb0","system_id":"levelo_inurba_marseille","lat":43.275028,"lon":5.424534,"is_reserved":false,"is_disabled":false,"rental_uris":{"android":"levelo://app?vid=6e7613d8-87ad-44c3-aa6f-2d6c01c9bbb0","ios":"levelo://app?vid=6e7613d8-87ad-44c3-aa6f-2d6c01c9bbb0"},"vehicle_type_id":"4","last_reported":1700726955,"current_range_meters":20400,"station_id":"ce4bhn92rcd13ifvqgrg","pricing_plan_id":"free"},{"bike_id":"87e2af8b-d138-4539-882a-885a80840281","system_id":"levelo_inurba_marseille","lat":43.274918,"lon":5.424518,"is_reserved":false,"is_disabled":false,"rental_uris":{"android":"levelo://app?vid=87e2af8b-d138-4539-882a-885a80840281","ios":"levelo://app?vid=87e2af8b-d138-4539-882a-885a80840281"},"vehicle_type_id":"4","last_reported":1700726955,"current_range_meters":800,"station_id":"ce4bhn92rcd13ifvqgrg","pricing_plan_id":"free"},{"bike_id":"8be67d40-5127-4500-854c-23099e7a996e","system_id":"levelo_inurba_marseille","lat":43.26088,"lon":5.39763,"is_reserved":false,"is_disabled":false,"rental_uris":{"android":"levelo://app?vid=8be67d40-5127-4500-854c-23099e7a996e","ios":"levelo://app?vid=8be67d40-5127-4500-854c-23099e7a996e"},"vehicle_type_id":"4","last_reported":1700726955,"current_range_meters":21200,"station_id":"ce4bhi12rcd13ifvqfq0","pricing_plan_id":"free"},{"bike_id":"cd2446c7-e42a-4d8e-a5db-c1b65262cf68","system_id":"levelo_inurba_marseille","lat":43.275028,"lon":5.424534,"is_reserved":false,"is_disabled":false,"rental_uris":{"android":"levelo://app?vid=cd2446c7-e42a-4d8e-a5db-c1b65262cf68","ios":"levelo://app?vid=cd2446c7-e42a-4d8e-a5db-c1b65262cf68"},"vehicle_type_id":"4","last_reported":1700726955,"current_range_meters":20400,"station_id":"ce4bhn92rcd13ifvqgrg","pricing_plan_id":"free"},{"bike_id":"8892a09c-3cd4-4bf8-8dc3-aa211792adec","system_id":"levelo_inurba_marseille","lat":43.2749,"lon":5.42457,"is_reserved":false,"is_disabled":false,"rental_uris":{"android":"levelo://app?vid=8892a09c-3cd4-4bf8-8dc3-aa211792adec","ios":"levelo://app?vid=8892a09c-3cd4-4bf8-8dc3-aa211792adec"},"vehicle_type_id":"4","last_reported":1700726955,"current_range_meters":22400,"station_id":"ce4bhn92rcd13ifvqgrg","pricing_plan_id":"free"},{"bike_id":"96c1dec4-a584-4fca-893c-78ef48fbc17a","system_id":"levelo_inurba_marseille","lat":43.274886,"lon":5.424597,"is_reserved":false,"is_disabled":false,"rental_uris":{"android":"levelo://app?vid=96c1dec4-a584-4fca-893c-78ef48fbc17a","ios":"levelo://app?vid=96c1dec4-a584-4fca-893c-78ef48fbc17a"},"vehicle_type_id":"4","last_reported":1700726955,"current_range_meters":26400,"station_id":"ce4bhn92rcd13ifvqgrg","pricing_plan_id":"free"},{"bike_id":"3dce9947-a3e6-41d0-be08-8dd732e353e7","system_id":"levelo_inurba_marseille","lat":43.255756,"lon":5.382303,"is_reserved":false,"is_disabled":false,"rental_uris":{"android":"levelo://app?vid=3dce9947-a3e6-41d0-be08-8dd732e353e7","ios":"levelo://app?vid=3dce9947-a3e6-41d0-be08-8dd732e353e7"},"vehicle_type_id":"4","last_reported":1700726955,"current_range_meters":8400,"station_id":"ce4bhih2rcd13ifvqfs0","pricing_plan_id":"free"},{"bike_id":"ce39b7e3-8eb9-4d8d-ad19-3cb3d45fdbfd","system_id":"levelo_inurba_marseille","lat":43.255756,"lon":5.382303,"is_reserved":false,"is_disabled":false,"rental_uris":{"android":"levelo://app?vid=ce39b7e3-8eb9-4d8d-ad19-3cb3d45fdbfd","ios":"levelo://app?vid=ce39b7e3-8eb9-4d8d-ad19-3cb3d45fdbfd"},"vehicle_type_id":"4","last_reported":1700726955,"current_range_meters":23200,"station_id":"ce4bhih2rcd13ifvqfs0","pricing_plan_id":"free"},{"bike_id":"198241f0-194f-4774-bae6-64450d664ce6","system_id":"levelo_inurba_marseille","lat":43.25499,"lon":5.37647,"is_reserved":false,"is_disabled":false,"rental_uris":{"android":"levelo://app?vid=198241f0-194f-4774-bae6-64450d664ce6","ios":"levelo://app?vid=198241f0-194f-4774-bae6-64450d664ce6"},"vehicle_type_id":"4","last_reported":1700726955,"current_range_meters":30000,"station_id":"ce4bhh12rcd13ifvqff0","pricing_plan_id":"free"},{"bike_id":"970f733e-a905-4615-9d9b-fdda537c8caf","system_id":"levelo_inurba_marseille","lat":43.254947,"lon":5.376454,"is_reserved":false,"is_disabled":false,"rental_uris":{"android":"levelo://app?vid=970f733e-a905-4615-9d9b-fdda537c8caf","ios":"levelo://app?vid=970f733e-a905-4615-9d9b-fdda537c8caf"},"vehicle_type_id":"4","last_reported":1700726955,"current_range_meters":24000,"station_id":"ce4bhh12rcd13ifvqff0","pricing_plan_id":"free"},{"bike_id":"474e422e-7087-400a-93f5-373acd2f9d86","system_id":"levelo_inurba_marseille","lat":43.270721,"lon":5.422764,"is_reserved":false,"is_disabled":false,"rental_uris":{"android":"levelo://app?vid=474e422e-7087-400a-93f5-373acd2f9d86","ios":"levelo://app?vid=474e422e-7087-400a-93f5-373acd2f9d86"},"vehicle_type_id":"4","last_reported":1700726955,"current_range_meters":21200,"station_id":"ce4bhk92rcd13ifvqgb0","pricing_plan_id":"free"},{"bike_id":"01f93f70-7088-4352-9ba2-dcb10c068540","system_id":"levelo_inurba_marseille","lat":43.270721,"lon":5.422764,"is_reserved":false,"is_disabled":false,"rental_uris":{"android":"levelo://app?vid=01f93f70-7088-4352-9ba2-dcb10c068540","ios":"levelo://app?vid=01f93f70-7088-4352-9ba2-dcb10c068540"},"vehicle_type_id":"4","last_reported":1700726955,"current_range_meters":0,"station_id":"ce4bhk92rcd13ifvqgb0","pricing_plan_id":"free"},{"bike_id":"e0d5f712-d1ea-41ab-9399-f7b5540a36f7","system_id":"levelo_inurba_marseille","lat":43.270721,"lon":5.422764,"is_reserved":false,"is_disabled":false,"rental_uris":{"android":"levelo://app?vid=e0d5f712-d1ea-41ab-9399-f7b5540a36f7","ios":"levelo://app?vid=e0d5f712-d1ea-41ab-9399-f7b5540a36f7"},"vehicle_type_id":"4","last_reported":1700726955,"current_range_meters":30000,"station_id":"ce4bhk92rcd13ifvqgb0","pricing_plan_id":"free"},{"bike_id":"cc8ffcbf-3373-4d8a-9efb-8d2002dc90fc","system_id":"levelo_inurba_marseille","lat":43.25446,"lon":5.37814,"is_reserved":false,"is_disabled":false,"rental_uris":{"android":"levelo://app?vid=cc8ffcbf-3373-4d8a-9efb-8d2002dc90fc","ios":"levelo://app?vid=cc8ffcbf-3373-4d8a-9efb-8d2002dc90fc"},"vehicle_type_id":"4","last_reported":1700726955,"current_range_meters":24000,"station_id":"","pricing_plan_id":"free"},{"bike_id":"53717166-7d2f-4332-a7f4-dbafbc6a2318","system_id":"levelo_inurba_marseille","lat":43.25424,"lon":5.38157,"is_reserved":false,"is_disabled":false,"rental_uris":{"android":"levelo://app?vid=53717166-7d2f-4332-a7f4-dbafbc6a2318","ios":"levelo://app?vid=53717166-7d2f-4332-a7f4-dbafbc6a2318"},"vehicle_type_id":"4","last_reported":1700726955,"current_range_meters":21200,"station_id":"","pricing_plan_id":"free"},{"bike_id":"53766ab1-38a3-4998-ab96-7255accd9b25","system_id":"levelo_inurba_marseille","lat":43.259009,"lon":5.40929,"is_reserved":false,"is_disabled":false,"rental_uris":{"android":"levelo://app?vid=53766ab1-38a3-4998-ab96-7255accd9b25","ios":"levelo://app?vid=53766ab1-38a3-4998-ab96-7255accd9b25"},"vehicle_type_id":"4","last_reported":1700726955,"current_range_meters":18000,"station_id":"ce4bhm92rcd13ifvqglg","pricing_plan_id":"free"},{"bike_id":"be71c53c-a056-47b9-a5b5-3d8d8a062532","system_id":"levelo_inurba_marseille","lat":43.259009,"lon":5.40929,"is_reserved":false,"is_disabled":false,"rental_uris":{"android":"levelo://app?vid=be71c53c-a056-47b9-a5b5-3d8d8a062532","ios":"levelo://app?vid=be71c53c-a056-47b9-a5b5-3d8d8a062532"},"vehicle_type_id":"4","last_reported":1700726955,"current_range_meters":23200,"station_id":"ce4bhm92rcd13ifvqglg","pricing_plan_id":"free"},{"bike_id":"6dceef23-b97e-4da0-ad07-2ec8c9486695","system_id":"levelo_inurba_marseille","lat":43.259013,"lon":5.409301,"is_reserved":false,"is_disabled":false,"rental_uris":{"android":"levelo://app?vid=6dceef23-b97e-4da0-ad07-2ec8c9486695","ios":"levelo://app?vid=6dceef23-b97e-4da0-ad07-2ec8c9486695"},"vehicle_type_id":"4","last_reported":1700726955,"current_range_meters":16000,"station_id":"ce4bhm92rcd13ifvqglg","pricing_plan_id":"free"},{"bike_id":"1f56e43c-a834-4f9c-8dd8-afdf0cb7c5be","system_id":"levelo_inurba_marseille","lat":43.25934,"lon":5.40912,"is_reserved":false,"is_disabled":false,"rental_uris":{"android":"levelo://app?vid=1f56e43c-a834-4f9c-8dd8-afdf0cb7c5be","ios":"levelo://app?vid=1f56e43c-a834-4f9c-8dd8-afdf0cb7c5be"},"vehicle_type_id":"4","last_reported":1700726955,"current_range_meters":17200,"station_id":"ce4bhm92rcd13ifvqglg","pricing_plan_id":"free"},{"bike_id":"a743744b-f449-4fae-b5a3-9613feda1679","system_id":"levelo_inurba_marseille","lat":43.2593,"lon":5.4091,"is_reserved":false,"is_disabled":false,"rental_uris":{"android":"levelo://app?vid=a743744b-f449-4fae-b5a3-9613feda1679","ios":"levelo://app?vid=a743744b-f449-4fae-b5a3-9613feda1679"},"vehicle_type_id":"4","last_reported":1700726955,"current_range_meters":24000,"station_id":"ce4bhm92rcd13ifvqglg","pricing_plan_id":"free"},{"bike_id":"290341ba-5103-4822-b3db-c27378f081f6","system_id":"levelo_inurba_marseille","lat":43.25931,"lon":5.40917,"is_reserved":false,"is_disabled":false,"rental_uris":{"android":"levelo://app?vid=290341ba-5103-4822-b3db-c27378f081f6","ios":"levelo://app?vid=290341ba-5103-4822-b3db-c27378f081f6"},"vehicle_type_id":"4","last_reported":1700726955,"current_range_meters":13200,"station_id":"ce4bhm92rcd13ifvqglg","pricing_plan_id":"free"},{"bike_id":"cab00d03-c757-447b-a02b-08602f277ebc","system_id":"levelo_inurba_marseille","lat":43.257079,"lon":5.411051,"is_reserved":false,"is_disabled":false,"rental_uris":{"android":"levelo://app?vid=cab00d03-c757-447b-a02b-08602f277ebc","ios":"levelo://app?vid=cab00d03-c757-447b-a02b-08602f277ebc"},"vehicle_type_id":"4","last_reported":1700726955,"current_range_meters":26400,"station_id":"ce4bhkp2rcd13ifvqgd0","pricing_plan_id":"free"},{"bike_id":"b65c7af7-99ba-437e-a4a6-1f84d30a7de3","system_id":"levelo_inurba_marseille","lat":43.25726,"lon":5.41107,"is_reserved":false,"is_disabled":false,"rental_uris":{"android":"levelo://app?vid=b65c7af7-99ba-437e-a4a6-1f84d30a7de3","ios":"levelo://app?vid=b65c7af7-99ba-437e-a4a6-1f84d30a7de3"},"vehicle_type_id":"4","last_reported":1700726955,"current_range_meters":0,"station_id":"ce4bhkp2rcd13ifvqgd0","pricing_plan_id":"free"},{"bike_id":"f9af6401-d96b-48c2-96e6-de26481bcdb6","system_id":"levelo_inurba_marseille","lat":43.25721,"lon":5.41109,"is_reserved":false,"is_disabled":false,"rental_uris":{"android":"levelo://app?vid=f9af6401-d96b-48c2-96e6-de26481bcdb6","ios":"levelo://app?vid=f9af6401-d96b-48c2-96e6-de26481bcdb6"},"vehicle_type_id":"4","last_reported":1700726955,"current_range_meters":0,"station_id":"ce4bhkp2rcd13ifvqgd0","pricing_plan_id":"free"},{"bike_id":"f98dfc7b-555f-441c-b308-dcfc18786934","system_id":"levelo_inurba_marseille","lat":43.250023,"lon":5.38919,"is_reserved":false,"is_disabled":false,"rental_uris":{"android":"levelo://app?vid=f98dfc7b-555f-441c-b308-dcfc18786934","ios":"levelo://app?vid=f98dfc7b-555f-441c-b308-dcfc18786934"},"vehicle_type_id":"4","last_reported":1700726955,"current_range_meters":26800,"station_id":"ce4bhgp2rcd13ifvqfd0","pricing_plan_id":"free"},{"bike_id":"2c0872db-29c6-48d0-a014-030db85156bf","system_id":"levelo_inurba_marseille","lat":43.250966,"lon":5.395186,"is_reserved":false,"is_disabled":false,"rental_uris":{"android":"levelo://app?vid=2c0872db-29c6-48d0-a014-030db85156bf","ios":"levelo://app?vid=2c0872db-29c6-48d0-a014-030db85156bf"},"vehicle_type_id":"4","last_reported":1700726955,"current_range_meters":30000,"station_id":"ce4bhm12rcd13ifvqgkg","pricing_plan_id":"free"},{"bike_id":"a1e3f705-b847-49f5-b16a-3cfbd21d8abc","system_id":"levelo_inurba_marseille","lat":43.25102,"lon":5.403214,"is_reserved":false,"is_disabled":false,"rental_uris":{"android":"levelo://app?vid=a1e3f705-b847-49f5-b16a-3cfbd21d8abc","ios":"levelo://app?vid=a1e3f705-b847-49f5-b16a-3cfbd21d8abc"},"vehicle_type_id":"4","last_reported":1700726955,"current_range_meters":0,"station_id":"ce4bhlh2rcd13ifvqgig","pricing_plan_id":"free"},{"bike_id":"7ced86a3-1f36-44cb-afe0-bfc4ebec7754","system_id":"levelo_inurba_marseille","lat":43.243884,"lon":5.370736,"is_reserved":false,"is_disabled":false,"rental_uris":{"android":"levelo://app?vid=7ced86a3-1f36-44cb-afe0-bfc4ebec7754","ios":"levelo://app?vid=7ced86a3-1f36-44cb-afe0-bfc4ebec7754"},"vehicle_type_id":"4","last_reported":1700726955,"current_range_meters":2400,"station_id":"ce4bhhh2rcd13ifvqfk0","pricing_plan_id":"free"},{"bike_id":"2733b313-e676-4421-9c9f-32e7cd92d447","system_id":"levelo_inurba_marseille","lat":43.240623,"lon":5.377642,"is_reserved":false,"is_disabled":false,"rental_uris":{"android":"levelo://app?vid=2733b313-e676-4421-9c9f-32e7cd92d447","ios":"levelo://app?vid=2733b313-e676-4421-9c9f-32e7cd92d447"},"vehicle_type_id":"4","last_reported":1700726955,"current_range_meters":20800,"station_id":"ce4bhnp2rcd13ifvqgvg","pricing_plan_id":"free"},{"bike_id":"4debc5fe-8bde-4f13-b06c-52e6cad84430","system_id":"levelo_inurba_marseille","lat":43.240623,"lon":5.377642,"is_reserved":false,"is_disabled":false,"rental_uris":{"android":"levelo://app?vid=4debc5fe-8bde-4f13-b06c-52e6cad84430","ios":"levelo://app?vid=4debc5fe-8bde-4f13-b06c-52e6cad84430"},