{"last_updated":1743444849,"ttl":60,"version":"2.2","data":{"bikes":[{"bike_id":"429ab6cb-eb1e-4229-b484-8abacf2fba98","system_id":"levelo_inurba_marseille","lat":43.30458,"lon":5.38889,"is_reserved":false,"is_disabled":false,"rental_uris":{"android":"levelo://app?vid=429ab6cb-eb1e-4229-b484-8abacf2fba98","ios":"levelo://app?vid=429ab6cb-eb1e-4229-b484-8abacf2fba98"},"vehicle_type_id":"4","last_reported":1743444850,"current_range_meters":2800,"station_id":"ce4bgk12rcd13ifvqbi0","pricing_plan_id":"cebpf4jnsgd1na2vs0mg"},{"bike_id":"16701a84-4b65-4143-b2fe-a8f08ee72270","system_id":"levelo_inurba_marseille","lat":43.29029,"lon":5.35918,"is_reserved":false,"is_disabled":false,"rental_uris":{"android":"levelo://app?vid=16701a84-4b65-4143-b2fe-a8f08ee72270","ios":"levelo://app?vid=16701a84-4b65-4143-b2fe-a8f08ee72270"},"vehicle_type_id":"4","last_reported":1743444850,"current_range_meters":2800,"station_id":"ce4bha92rcd13ifvqeg0","pricing_plan_id":"cebpf4jnsgd1na2vs0mg"},{"bike_id":"5e3e154d-81f7-454f-823c-b78370a0c23d","system_id":"levelo_inurba_marseille","lat":43.2885,"lon":5.39317,"is_reserved":false,"is_disabled":false,"rental_uris":{"android":"levelo://app?vid=5e3e154d-81f7-454f-823c-b78370a0c23d","ios":"levelo://app?vid=5e3e154d-81f7-454f-823c-b78370a0c23d"},"vehicle_type_id":"4","last_reported":1743444850,"current_range_meters":2000,"station_id":"ce4bh2p2rcd13ifvqdi0","pricing_plan_id":"cebpf4jnsgd1na2vs0mg"},{"bike_id":"7712eee4-e7a0-4d37-a709-f00bf7388bf8","system_id":"levelo_inurba_marseille","lat":43.29266,"lon":5.38437,"is_reserved":false,"is_disabled":false,"rental_uris":{"android":"levelo://app?vid=7712eee4-e7a0-4d37-a709-f00bf7388bf8","ios":"levelo://app?vid=7712eee4-e7a0-4d37-a709-f00bf7388bf8"},"vehicle_type_id":"4","last_reported":1743444850,"current_range_meters":2800,"station_id":"ce4bh692rcd13ifvqea0","pricing_plan_id":"cebpf4jnsgd1na2vs0mg"},{"bike_id":"e2e841db-136c-4546-9a32-329adb4ae0fe","system_id":"levelo_inurba_marseille","lat":43.296204,"lon":5.377034,"is_reserved":false,"is_disabled":false,"rental_uris":{"android":"levelo://app?vid=e2e841db-136c-4546-9a32-329adb4ae0fe","ios":"levelo://app?vid=e2e841db-136c-4546-9a32-329adb4ae0fe"},"vehicle_type_id":"4","last_reported":1743444850,"current_range_meters":400,"station_id":"ce4bgi92rcd13ifvqb90","pricing_plan_id":"cebpf4jnsgd1na2vs0mg"},{"bike_id":"a11691f7-d42e-42cb-b0ea-5db1a461d1d2","system_id":"levelo_inurba_marseille","lat":43.30301,"lon":5.39216,"is_reserved":false,"is_disabled":false,"rental_uris":{"android":"levelo://app?vid=a11691f7-d42e-42cb-b0ea-5db1a461d1d2","ios":"levelo://app?vid=a11691f7-d42e-42cb-b0ea-5db1a461d1d2"},"vehicle_type_id":"4","last_reported":1743444850,"current_range_meters":2000,"station_id":"ce4bh192rcd13ifvqdb0","pricing_plan_id":"cebpf4jnsgd1na2vs0mg"},{"bike_id":"564dd5eb-5594-4a5b-8252-4fd7a2cdd1a3","system_id":"levelo_inurba_marseille","lat":43.25104,"lon":5.40322,"is_reserved":false,"is_disabled":true,"rental_uris":{"android":"levelo://app?vid=564dd5eb-5594-4a5b-8252-4fd7a2cdd1a3","ios":"levelo://app?vid=564dd5eb-5594-4a5b-8252-4fd7a2cdd1a3"},"vehicle_type_id":"4","last_reported":1743444850,"current_range_meters":2800,"station_id":"ce4bhlh2rcd13ifvqgig","pricing_plan_id":"cebpf4jnsgd1na2vs0mg"},{"bike_id":"d0ed36b4-3c5a-4da6-8fb4-955c321dd03a","system_id":"levelo_inurba_marseille","lat":43.27514,"lon":5.41028,"is_reserved":false,"is_disabled":false,"rental_uris":{"android":"levelo://app?vid=d0ed36b4-3c5a-4da6-8fb4-955c321dd03a","ios":"levelo://app?vid=d0ed36b4-3c5a-4da6-8fb4-955c321dd03a"},"vehicle_type_id":"4","last_reported":1743444850,"current_range_meters":3200,"station_id":"","pricing_plan_id":"cebpf4jnsgd1na2vs0mg"},{"bike_id":"72863981-3ccb-4471-a819-553fc925d6a8","system_id":"levelo_inurba_marseille","lat":43.29035,"lon":5.38654,"is_reserved":false,"is_disabled":false,"rental_uris":{"android":"levelo://app?vid=72863981-3ccb-4471-a819-553fc925d6a8","ios":"levelo://app?vid=72863981-3ccb-4471-a819-553fc925d6a8"},"vehicle_type_id":"4","last_reported":1743444850,"current_range_meters":3200,"station_id":"ce4bh4p2rcd13ifvqe0g","pricing_plan_id":"cebpf4jnsgd1na2vs0mg"},{"bike_id":"42bc7b23-0e2f-4d72-b583-40bcdabb28c7","system_id":"levelo_inurba_marseille","lat":43.29543,"lon":5.3738,"is_reserved":false,"is_disabled":true,"rental_uris":{"android":"levelo://app?vid=42bc7b23-0e2f-4d72-b583-40bcdabb28c7","ios":"levelo://app?vid=42bc7b23-0e2f-4d72-b583-40bcdabb28c7"},"vehicle_type_id":"4","last_reported":1743444850,"current_range_meters":3200,"station_id":"","pricing_plan_id":"cebpf4jnsgd1na2vs0mg"},{"bike_id":"1beb633e-cafc-4bd6-95b3-0aae72b3f322","system_id":"levelo_inurba_marseille","lat":43.29936,"lon":5.37487,"is_reserved":false,"is_disabled":false,"rental_uris":{"android":"levelo://app?vid=1beb633e-cafc-4bd6-95b3-0aae72b3f322","ios":"levelo://app?vid=1beb633e-cafc-4bd6-95b3-0aae72b3f322"},"vehicle_type_id":"4","last_reported":1743444850,"current_range_meters":3200,"station_id":"ce4bgjh2rcd13ifvqbg0","pricing_plan_id":"cebpf4jnsgd1na2vs0mg"},{"bike_id":"ef6fba37-ae30-4bd5-b264-509e851f433d","system_id":"levelo_inurba_marseille","lat":43.2924,"lon":5.38425,"is_reserved":false,"is_disabled":false,"rental_uris":{"android":"levelo://app?vid=ef6fba37-ae30-4bd5-b264-509e851f433d","ios":"levelo://app?vid=ef6fba37-ae30-4bd5-b264-509e851f433d"},"vehicle_type_id":"4","last_reported":1743444850,"current_range_meters":3200,"station_id":"ce4bh692rcd13ifvqea0","pricing_plan_id":"cebpf4jnsgd1na2vs0mg"},{"bike_id":"bb5d9c93-ccd9-4f76-a7ad-c6f4fb302336","system_id":"levelo_inurba_marseille","lat":43.29319,"lon":5.37194,"is_reserved":false,"is_disabled":false,"rental_uris":{"android":"levelo://app?vid=bb5d9c93-ccd9-4f76-a7ad-c6f4fb302336","ios":"levelo://app?vid=bb5d9c93-ccd9-4f76-a7ad-c6f4fb302336"},"vehicle_type_id":"4","last_reported":1743444850,"current_range_meters":3200,"station_id":"ce4bgh92rcd13ifvqb40","pricing_plan_id":"cebpf4jnsgd1na2vs0mg"},{"bike_id":"30f75d7b-0d8b-46e8-ba85-7268c62875a1","system_id":"levelo_inurba_marseille","lat":43.2981,"lon":5.40411,"is_reserved":false,"is_disabled":false,"rental_uris":{"android":"levelo://app?vid=30f75d7b-0d8b-46e8-ba85-7268c62875a1","ios":"levelo://app?vid=30f75d7b-0d8b-46e8-ba85-7268c62875a1"},"vehicle_type_id":"4","last_reported":1743444850,"current_range_meters":3200,"station_id":"ce4bh112rcd13ifvqd90","pricing_plan_id":"cebpf4jnsgd1na2vs0mg"},{"bike_id":"c8993f9a-32c4-4de7-aa8f-d307097df90a","system_id":"levelo_inurba_marseille","lat":43.3026,"lon":5.40077,"is_reserved":false,"is_disabled":false,"rental_uris":{"android":"levelo://app?vid=c8993f9a-32c4-4de7-aa8f-d307097df90a","ios":"levelo://app?vid=c8993f9a-32c4-4de7-aa8f-d307097df90a"},"vehicle_type_id":"4","last_reported":1743444850,"current_range_meters":3200,"station_id":"ce4bgvh2rcd13ifvqcs0","pricing_plan_id":"cebpf4jnsgd1na2vs0mg"},{"bike_id":"b2289d3e-25c6-42bf-b19d-d377703c10d6","system_id":"levelo_inurba_marseille","lat":43.29267,"lon":5.38446,"is_reserved":false,"is_disabled":true,"rental_uris":{"android":"levelo://app?vid=b2289d3e-25c6-42bf-b19d-d377703c10d6","ios":"levelo://app?vid=b2289d3e-25c6-42bf-b19d-d377703c10d6"},"vehicle_type_id":"4","last_reported":1743444850,"current_range_meters":3600,"station_id":"ce4bh692rcd13ifvqea0","pricing_plan_id":"cebpf4jnsgd1na2vs0mg"},{"bike_id":"40600ece-0950-4ec5-85f9-4586b4cba756","system_id":"levelo_inurba_marseille","lat":43.29011,"lon":5.35621,"is_reserved":false,"is_disabled":false,"rental_uris":{"android":"levelo://app?vid=40600ece-0950-4ec5-85f9-4586b4cba756","ios":"levelo://app?vid=40600ece-0950-4ec5-85f9-4586b4cba756"},"vehicle_type_id":"4","last_reported":1743444850,"current_range_meters":3600,"station_id":"ce4bh012rcd13ifvqcv0","pricing_plan_id":"cebpf4jnsgd1na2vs0mg"},{"bike_id":"a76c6e3c-8e9f-4c5d-8b35-56113571ae05","system_id":"levelo_inurba_marseille","lat":43.28418,"lon":5.34997,"is_reserved":false,"is_disabled":false,"rental_uris":{"android":"levelo://app?vid=a76c6e3c-8e9f-4c5d-8b35-56113571ae05","ios":"levelo://app?vid=a76c6e3c-8e9f-4c5d-8b35-56113571ae05"},"vehicle_type_id":"4","last_reported":1743444850,"current_range_meters":3600,"station_id":"ce4bhbh2rcd13ifvqepg","pricing_plan_id":"cebpf4jnsgd1na2vs0mg"},{"bike_id":"9803c24a-8a5b-4d4b-92ff-f253699be052","system_id":"levelo_inurba_marseille","lat":43.29184,"lon":5.358,"is_reserved":false,"is_disabled":false,"rental_uris":{"android":"levelo://app?vid=9803c24a-8a5b-4d4b-92ff-f253699be052","ios":"levelo://app?vid=9803c24a-8a5b-4d4b-92ff-f253699be052"},"vehicle_type_id":"4","last_reported":1743444850,"current_range_meters":3600,"station_id":"ce4bhb12rcd13ifvqel0","pricing_plan_id":"cebpf4jnsgd1na2vs0mg"},{"bike_id":"2494d435-05ea-4038-913a-827c1d3e9b9d","system_id":"levelo_inurba_marseille","lat":43.286987,"lon":5.373923,"is_reserved":false,"is_disabled":false,"rental_uris":{"android":"levelo://app?vid=2494d435-05ea-4038-913a-827c1d3e9b9d","ios":"levelo://app?vid=2494d435-05ea-4038-913a-827c1d3e9b9d"},"vehicle_type_id":"4","last_reported":1743444850,"current_range_meters":3600,"station_id":"ce4bh3p2rcd13ifvqdq0","pricing_plan_id":"cebpf4jnsgd1na2vs0mg"},{"bike_id":"1cab80ba-7d21-4c99-b655-f6746fa14239","system_id":"levelo_inurba_marseille","lat":43.283598,"lon":5.396602,"is_reserved":false,"is_disabled":false,"rental_uris":{"android":"levelo://app?vid=1cab80ba-7d21-4c99-b655-f6746fa14239","ios":"levelo://app?vid=1cab80ba-7d21-4c99-b655-f6746fa14239"},"vehicle_type_id":"4","last_reported":1743444850,"current_range_meters":3600,"station_id":"ce4bho92rcd13ifvqh4g","pricing_plan_id":"cebpf4jnsgd1na2vs0mg"},{"bike_id":"384b53be-0dd1-4ff6-96b3-76e22c52ec3c","system_id":"levelo_inurba_marseille","lat":43.27676,"lon":5.41889,"is_reserved":false,"is_disabled":false,"rental_uris":{"android":"levelo://app?vid=384b53be-0dd1-4ff6-96b3-76e22c52ec3c","ios":"levelo://app?vid=384b53be-0dd1-4ff6-96b3-76e22c52ec3c"},"vehicle_type_id":"4","last_reported":1743444850,"current_range_meters":3600,"station_id":"","pricing_plan_id":"cebpf4jnsgd1na2vs0mg"},{"bike_id":"4d20c8b1-ed91-4479-84d2-9e54ed3a4405","system_id":"levelo_inurba_marseille","lat":43.28456,"lon":5.35883,"is_reserved":false,"is_disabled":false,"rental_uris":{"android":"levelo://app?vid=4d20c8b1-ed91-4479-84d2-9e54ed3a4405","ios":"levelo://app?vid=4d20c8b1-ed91-4479-84d2-9e54ed3a4405"},"vehicle_type_id":"4","last_reported":1743444850,"current_range_meters":3600,"station_id":"ce4bhah2rcd13ifvqei0","pricing_plan_id":"cebpf4jnsgd1na2vs0mg"},{"bike_id":"84d739e9-c294-4d14-867e-515dc1e73e2b","system_id":"levelo_inurba_marseille","lat":43.28385,"lon":5.38659,"is_reserved":false,"is_disabled":false,"rental_uris":{"android":"levelo://app?vid=84d739e9-c294-4d14-867e-515dc1e73e2b","ios":"levelo://app?vid=84d739e9-c294-4d14-867e-515dc1e73e2b"},"vehicle_type_id":"4","last_reported":1743444850,"current_range_meters":4000,"station_id":"ce4bh492rcd13ifvqdvg","pricing_plan_id":"cebpf4jnsgd1na2vs0mg"},{"bike_id":"de86025c-0f4b-4867-ad47-49b9c66220c5","system_id":"levelo_inurba_marseille","lat":43.28572,"lon":5.39508,"is_reserved":false,"is_disabled":false,"rental_uris":{"android":"levelo://app?vid=de86025c-0f4b-4867-ad47-49b9c66220c5","ios":"levelo://app?vid=de86025c-0f4b-4867-ad47-49b9c66220c5"},"vehicle_type_id":"4","last_reported":1743444850,"current_range_meters":4000,"station_id":"ce4bh292rcd13ifvqdg0","pricing_plan_id":"cebpf4jnsgd1na2vs0mg"},{"bike_id":"dcc7e36c-7f77-4301-a336-7c94a786dc1d","system_id":"levelo_inurba_marseille","lat":43.302468,"lon":5.400814,"is_reserved":false,"is_disabled":false,"rental_uris":{"android":"levelo://app?vid=dcc7e36c-7f77-4301-a336-7c94a786dc1d","ios":"levelo://app?vid=dcc7e36c-7f77-4301-a336-7c94a786dc1d"},"vehicle_type_id":"4","last_reported":1743444850,"current_range_meters":4000,"station_id":"ce4bgvh2rcd13ifvqcs0","pricing_plan_id":"cebpf4jnsgd1na2vs0mg"},{"bike_id":"55ace206-32d4-413d-bfd3-b04de5e69ae4","system_id":"levelo_inurba_marseille","lat":43.30156,"lon":5.39891,"is_reserved":false,"is_disabled":false,"rental_uris":{"android":"levelo://app?vid=55ace206-32d4-413d-bfd3-b04de5e69ae4","ios":"levelo://app?vid=55ace206-32d4-413d-bfd3-b04de5e69ae4"},"vehicle_type_id":"4","last_reported":1743444850,"current_range_meters":4000,"station_id":"ce4bh0h2rcd13ifvqd40","pricing_plan_id":"cebpf4jnsgd1na2vs0mg"},{"bike_id":"18eac285-bdca-4d56-9b4b-418187d65c89","system_id":"levelo_inurba_marseille","lat":43.281,"lon":5.37836,"is_reserved":false,"is_disabled":false,"rental_uris":{"android":"levelo://app?vid=18eac285-bdca-4d56-9b4b-418187d65c89","ios":"levelo://app?vid=18eac285-bdca-4d56-9b4b-418187d65c89"},"vehicle_type_id":"4","last_reported":1743444850,"current_range_meters":4000,"station_id":"ce4bha12rcd13ifvqee0","pricing_plan_id":"cebpf4jnsgd1na2vs0mg"},{"bike_id":"3c4c0f94-42ff-4d1d-9111-5bcbcc31c4f4","system_id":"levelo_inurba_marseille","lat":43.27372,"lon":5.36234,"is_reserved":false,"is_disabled":false,"rental_uris":{"android":"levelo://app?vid=3c4c0f94-42ff-4d1d-9111-5bcbcc31c4f4","ios":"levelo://app?vid=3c4c0f94-42ff-4d1d-9111-5bcbcc31c4f4"},"vehicle_type_id":"4","last_reported":1743444850,"current_range_meters":4000,"station_id":"ce4bhbh2rcd13ifvqeo0","pricing_plan_id":"cebpf4jnsgd1na2vs0mg"},{"bike_id":"fcad172f-e688-4a82-a7ff-4e3f3c6f7eb0","system_id":"levelo_inurba_marseille","lat":43.29854,"lon":5.36278,"is_reserved":false,"is_disabled":false,"rental_uris":{"android":"levelo://app?vid=fcad172f-e688-4a82-a7ff-4e3f3c6f7eb0","ios":"levelo://app?vid=fcad172f-e688-4a82-a7ff-4e3f3c6f7eb0"},"vehicle_type_id":"4","last_reported":1743444850,"current_range_meters":4400,"station_id":"ce4bgpp2rcd13ifvqc3g","pricing_plan_id":"cebpf4jnsgd1na2vs0mg"},{"bike_id":"f2e7f03d-0f25-4f4f-9928-5ad683096e9d","system_id":"levelo_inurba_marseille","lat":43.25118,"lon":5.40331,"is_reserved":false,"is_disabled":false,"rental_uris":{"android":"levelo://app?vid=f2e7f03d-0f25-4f4f-9928-5ad683096e9d","ios":"levelo://app?vid=f2e7f03d-0f25-4f4f-9928-5ad683096e9d"},"vehicle_type_id":"4","last_reported":1743444850,"current_range_meters":6000,"station_id":"ce4bhlh2rcd13ifvqgig","pricing_plan_id":"cebpf4jnsgd1na2vs0mg"},{"bike_id":"ad72fd58-c555-456b-bae1-8c2b75e1d9de","system_id":"levelo_inurba_marseille","lat":43.292038,"lon":5.393398,"is_reserved":false,"is_disabled":false,"rental_uris":{"android":"levelo://app?vid=ad72fd58-c555-456b-bae1-8c2b75e1d9de","ios":"levelo://app?vid=ad72fd58-c555-456b-bae1-8c2b75e1d9de"},"vehicle_type_id":"4","last_reported":1743444850,"current_range_meters":12000,"station_id":"ce4bh3p2rcd13ifvqdq0","pricing_plan_id":"cebpf4jnsgd1na2vs0mg"},{"bike_id":"b9303f91-6143-43d0-a0b9-37dfd4a58b0f","system_id":"levelo_inurba_marseille","lat":43.293375,"lon":5.405395,"is_reserved":false,"is_disabled":false,"rental_uris":{"android":"levelo://app?vid=b9303f91-6143-43d0-a0b9-37dfd4a58b0f","ios":"levelo://app?vid=b9303f91-6143-43d0-a0b9-37dfd4a58b0f"},"vehicle_type_id":"4","last_reported":1743444850,"current_range_meters":4400,"station_id":"ce4bh192rcd13ifvqdc0","pricing_plan_id":"cebpf4jnsgd1na2vs0mg"},{"bike_id":"961ccc4e-5600-4f15-8499-7936cfa27861","system_id":"levelo_inurba_marseille","lat":43.30896,"lon":5.37294,"is_reserved":false,"is_disabled":false,"rental_uris":{"android":"levelo://app?vid=961ccc4e-5600-4f15-8499-7936cfa27861","ios":"levelo://app?vid=961ccc4e-5600-4f15-8499-7936cfa27861"},"vehicle_type_id":"4","last_reported":1743444850,"current_range_meters":4400,"station_id":"","pricing_plan_id":"cebpf4jnsgd1na2vs0mg"},{"bike_id":"df4553ba-3d3e-43a1-a860-094fe8b45ae1","system_id":"levelo_inurba_marseille","lat":43.24818,"lon":5.37458,"is_reserved":false,"is_disabled":false,"rental_uris":{"android":"levelo://app?vid=df4553ba-3d3e-43a1-a860-094fe8b45ae1","ios":"levelo://app?vid=df4553ba-3d3e-43a1-a860-094fe8b45ae1"},"vehicle_type_id":"4","last_reported":1743444850,"current_range_meters":4400,"station_id":"ce4bhgh2rcd13ifvqfb0","pricing_plan_id":"cebpf4jnsgd1na2vs0mg"},{"bike_id":"44ef5075-73ee-497d-98b5-7872fe0b0407","system_id":"levelo_inurba_marseille","lat":43.2927,"lon":5.37636,"is_reserved":false,"is_disabled":false,"rental_uris":{"android":"levelo://app?vid=44ef5075-73ee-497d-98b5-7872fe0b0407","ios":"levelo://app?vid=44ef5075-73ee-497d-98b5-7872fe0b0407"},"vehicle_type_id":"4","last_reported":1743444850,"current_range_meters":4400,"station_id":"ce4bgi12rcd13ifvqb80","pricing_plan_id":"cebpf4jnsgd1na2vs0mg"},{"bike_id":"35a0bc23-3944-454c-8e5d-730541c8b664","system_id":"levelo_inurba_marseille","lat":43.26191,"lon":5.37449,"is_reserved":false,"is_disabled":true,"rental_uris":{"android":"levelo://app?vid=35a0bc23-3944-454c-8e5d-730541c8b664","ios":"levelo://app?vid=35a0bc23-3944-454c-8e5d-730541c8b664"},"vehicle_type_id":"4","last_reported":1743444850,"current_range_meters":4400,"station_id":"ce4bhgp2rcd13ifvqfc0","pricing_plan_id":"cebpf4jnsgd1na2vs0mg"},{"bike_id":"9d6de5dd-11b0-47bf-9323-93d186ddcfca","system_id":"levelo_inurba_marseille","lat":43.27381,"lon":5.36261,"is_reserved":false,"is_disabled":false,"rental_uris":{"android":"levelo://app?vid=9d6de5dd-11b0-47bf-9323-93d186ddcfca","ios":"levelo://app?vid=9d6de5dd-11b0-47bf-9323-93d186ddcfca"},"vehicle_type_id":"4","last_reported":1743444850,"current_range_meters":4000,"station_id":"ce4bhbh2rcd13ifvqeo0","pricing_plan_id":"cebpf4jnsgd1na2vs0mg"},{"bike_id":"dced5e66-7988-4fc0-9035-d0c7d58d41a3","system_id":"levelo_inurba_marseille","lat":43.31374,"lon":5.38507,"is_reserved":false,"is_disabled":false,"rental_uris":{"android":"levelo://app?vid=dced5e66-7988-4fc0-9035-d0c7d58d41a3","ios":"levelo://app?vid=dced5e66-7988-4fc0-9035-d0c7d58d41a3"},"vehicle_type_id":"4","last_reported":1743444850,"current_range_meters":4000,"station_id":"ce4bgt92rcd13ifvqcf0","pricing_plan_id":"cebpf4jnsgd1na2vs0mg"},{"bike_id":"c8773754-83af-4af0-a909-23dd3af40fc3","system_id":"levelo_inurba_marseille","lat":43.27815,"lon":5.40722,"is_reserved":false,"is_disabled":false,"rental_uris":{"android":"levelo://app?vid=c8773754-83af-4af0-a909-23dd3af40fc3","ios":"levelo://app?vid=c8773754-83af-4af0-a909-23dd3af40fc3"},"vehicle_type_id":"4","last_reported":1743444850,"current_range_meters":4400,"station_id":"ce4bhnh2rcd13ifvqgtg","pricing_plan_id":"cebpf4jnsgd1na2vs0mg"},{"bike_id":"e9bd0ed2-5288-46b4-a75a-ba7029e9a4cf","system_id":"levelo_inurba_marseille","lat":43.29624,"lon":5.3774,"is_reserved":false,"is_disabled":false,"rental_uris":{"android":"levelo://app?vid=e9bd0ed2-5288-46b4-a75a-ba7029e9a4cf","ios":"levelo://app?vid=e9bd0ed2-5288-46b4-a75a-ba7029e9a4cf"},"vehicle_type_id":"4","last_reported":1743444850,"current_range_meters":4400,"station_id":"ce4bgi92rcd13ifvqb90","pricing_plan_id":"cebpf4jnsgd1na2vs0mg"},{"bike_id":"c6b377ba-cb00-4597-9622-93e2ea5955a4","system_id":"levelo_inurba_marseille","lat":43.307556,"lon":5.37437,"is_reserved":false,"is_disabled":false,"rental_uris":{"android":"levelo://app?vid=c6b377ba-cb00-4597-9622-93e2ea5955a4","ios":"levelo://app?vid=c6b377ba-cb00-4597-9622-93e2ea5955a4"},"vehicle_type_id":"4","last_reported":1743444850,"current_range_meters":4400,"station_id":"ce4bgjh2rcd13ifvqbg0","pricing_plan_id":"cebpf4jnsgd1na2vs0mg"},{"bike_id":"802a6ab0-e3ab-41f9-958e-787ba8708fca","system_id":"levelo_inurba_marseille","lat":43.28669,"lon":5.36358,"is_reserved":false,"is_disabled":false,"rental_uris":{"android":"levelo://app?vid=802a6ab0-e3ab-41f9-958e-787ba8708fca","ios":"levelo://app?vid=802a6ab0-e3ab-41f9-958e-787ba8708fca"},"vehicle_type_id":"4","last_reported":1743444850,"current_range_meters":4800,"station_id":"ce4bhah2rcd13ifvqej0","pricing_plan_id":"cebpf4jnsgd1na2vs0mg"},{"bike_id":"76d4ed16-8625-4a14-a5f1-d28ac2574c13","system_id":"levelo_inurba_marseille","lat":43.24544,"lon":5.39528,"is_reserved":false,"is_disabled":false,"rental_uris":{"android":"levelo://app?vid=76d4ed16-8625-4a14-a5f1-d28ac2574c13","ios":"levelo://app?vid=76d4ed16-8625-4a14-a5f1-d28ac2574c13"},"vehicle_type_id":"4","last_reported":1743444850,"current_range_meters":4800,"station_id":"ce4bhlp2rcd13ifvqgjg","pricing_plan_id":"cebpf4jnsgd1na2vs0mg"},{"bike_id":"de60662a-1266-42e5-a787-244717bfe62a","system_id":"levelo_inurba_marseille","lat":43.27349,"lon":5.39114,"is_reserved":false,"is_disabled":false,"rental_uris":{"android":"levelo://app?vid=de60662a-1266-42e5-a787-244717bfe62a","ios":"levelo://app?vid=de60662a-1266-42e5-a787-244717bfe62a"},"vehicle_type_id":"4","last_reported":1743444850,"current_range_meters":4800,"station_id":"","pricing_plan_id":"cebpf4jnsgd1na2vs0mg"},{"bike_id":"c6c52551-2efe-40b4-938b-014cd175e54c","system_id":"levelo_inurba_marseille","lat":43.25587,"lon":5.38229,"is_reserved":false,"is_disabled":false,"rental_uris":{"android":"levelo://app?vid=c6c52551-2efe-40b4-938b-014cd175e54c","ios":"levelo://app?vid=c6c52551-2efe-40b4-938b-014cd175e54c"},"vehicle_type_id":"4","last_reported":1743444850,"current_range_meters":4800,"station_id":"ce4bhih2rcd13ifvqfs0","pricing_plan_id":"cebpf4jnsgd1na2vs0mg"},{"bike_id":"c7de85c8-23de-438b-aff3-a28ddd73d774","system_id":"levelo_inurba_marseille","lat":43.27944,"lon":5.41029,"is_reserved":false,"is_disabled":false,"rental_uris":{"android":"levelo://app?vid=c7de85c8-23de-438b-aff3-a28ddd73d774","ios":"levelo://app?vid=c7de85c8-23de-438b-aff3-a28ddd73d774"},"vehicle_type_id":"4","last_reported":1743444850,"current_range_meters":4800,"station_id":"ce4bhnp2rcd13ifvqh0g","pricing_plan_id":"cebpf4jnsgd1na2vs0mg"},{"bike_id":"05be2b73-fee3-4e3c-9c51-02571281b8c6","system_id":"levelo_inurba_marseille","lat":43.27954,"lon":5.41048,"is_reserved":false,"is_disabled":false,"rental_uris":{"android":"levelo://app?vid=05be2b73-fee3-4e3c-9c51-02571281b8c6","ios":"levelo://app?vid=05be2b73-fee3-4e3c-9c51-02571281b8c6"},"vehicle_type_id":"4","last_reported":1743444850,"current_range_meters":4800,"station_id":"ce4bhnp2rcd13ifvqh0g","pricing_plan_id":"cebpf4jnsgd1na2vs0mg"},{"bike_id":"df26bf74-9cb8-4fdc-96dc-8b208aff7c44","system_id":"levelo_inurba_marseille","lat":43.26582,"lon":5.39011,"is_reserved":false,"is_disabled":false,"rental_uris":{"android":"levelo://app?vid=df26bf74-9cb8-4fdc-96dc-8b208aff7c44","ios":"levelo://app?vid=df26bf74-9cb8-4fdc-96dc-8b208aff7c44"},"vehicle_type_id":"4","last_reported":1743444850,"current_range_meters":4800,"station_id":"ce4bhe12rcd13ifvqf30","pricing_plan_id":"cebpf4jnsgd1na2vs0mg"},{"bike_id":"72113b42-41e6-4bb3-b7c9-36a2a9b17a93","system_id":"levelo_inurba_marseille","lat":43.27979,"lon":5.38757,"is_reserved":false,"is_disabled":false,"rental_uris":{"android":"levelo://app?vid=72113b42-41e6-4bb3-b7c9-36a2a9b17a93","ios":"levelo://app?vid=72113b42-41e6-4bb3-b7c9-36a2a9b17a93"},"vehicle_type_id":"4","last_reported":1743444850,"current_range_meters":4800,"station_id":"ce4bhg12rcd13ifvqf80","pricing_plan_id":"cebpf4jnsgd1na2vs0mg"},{"bike_id":"b4d344dd-89a5-4111-a6ba-3c644184b456","system_id":"levelo_inurba_marseille","lat":43.24822,"lon":5.37459,"is_reserved":false,"is_disabled":false,"rental_uris":{"android":"levelo://app?vid=b4d344dd-89a5-4111-a6ba-3c644184b456","ios":"levelo://app?vid=b4d344dd-89a5-4111-a6ba-3c644184b456"},"vehicle_type_id":"4","last_reported":1743444850,"current_range_meters":4800,"station_id":"ce4bhgh2rcd13ifvqfb0","pricing_plan_id":"cebpf4jnsgd1na2vs0mg"},{"bike_id":"6abfcf76-b46b-48ec-9741-222295465860","system_id":"levelo_inurba_marseille","lat":43.28619,"lon":5.37052,"is_reserved":false,"is_disabled":false,"rental_uris":{"android":"levelo://app?vid=6abfcf76-b46b-48ec-9741-222295465860","ios":"levelo://app?vid=6abfcf76-b46b-48ec-9741-222295465860"},"vehicle_type_id":"4","last_reported":1743444850,"current_range_meters":5600,"station_id":"ce4bht12rcd13ifvqi60","pricing_plan_id":"cebpf4jnsgd1na2vs0mg"},{"bike_id":"62324352-ccd7-4c75-a700-70a8d5fc399a","system_id":"levelo_inurba_marseille","lat":43.2972,"lon":5.36605,"is_reserved":false,"is_disabled":false,"rental_uris":{"android":"levelo://app?vid=62324352-ccd7-4c75-a700-70a8d5fc399a","ios":"levelo://app?vid=62324352-ccd7-4c75-a700-70a8d5fc399a"},"vehicle_type_id":"4","last_reported":1743444850,"current_range_meters":5600,"station_id":"ce4bgn12rcd13ifvqbt0","pricing_plan_id":"cebpf4jnsgd1na2vs0mg"},{"bike_id":"28e6a159-c88c-4315-9183-0195aa12b4a5","system_id":"levelo_inurba_marseille","lat":43.28721,"lon":5.3794,"is_reserved":false,"is_disabled":false,"rental_uris":{"android":"levelo://app?vid=28e6a159-c88c-4315-9183-0195aa12b4a5","ios":"levelo://app?vid=28e6a159-c88c-4315-9183-0195aa12b4a5"},"vehicle_type_id":"4","last_reported":1743444850,"current_range_meters":4800,"station_id":"ce4bh9p2rcd13ifvqec0","pricing_plan_id":"cebpf4jnsgd1na2vs0mg"},{"bike_id":"0909e6e7-119a-43a8-b285-33eb860b8051","system_id":"levelo_inurba_marseille","lat":43.30265,"lon":5.40107,"is_reserved":false,"is_disabled":false,"rental_uris":{"android":"levelo://app?vid=0909e6e7-119a-43a8-b285-33eb860b8051","ios":"levelo://app?vid=0909e6e7-119a-43a8-b285-33eb860b8051"},"vehicle_type_id":"4","last_reported":1743444850,"current_range_meters":5600,"station_id":"ce4bgvh2rcd13ifvqcs0","pricing_plan_id":"cebpf4jnsgd1na2vs0mg"},{"bike_id":"96fac73e-6105-4a12-a2fa-c0faa7a658dd","system_id":"levelo_inurba_marseille","lat":43.27379,"lon":5.3626,"is_reserved":false,"is_disabled":false,"rental_uris":{"android":"levelo://app?vid=96fac73e-6105-4a12-a2fa-c0faa7a658dd","ios":"levelo://app?vid=96fac73e-6105-4a12-a2fa-c0faa7a658dd"},"vehicle_type_id":"4","last_reported":1743444850,"current_range_meters":5600,"station_id":"ce4bhbh2rcd13ifvqeo0","pricing_plan_id":"cebpf4jnsgd1na2vs0mg"},{"bike_id":"2109cc3a-9a18-491c-89cd-d62a71b961d8","system_id":"levelo_inurba_marseille","lat":43.28617,"lon":5.35111,"is_reserved":false,"is_disabled":false,"rental_uris":{"android":"levelo://app?vid=2109cc3a-9a18-491c-89cd-d62a71b961d8","ios":"levelo://app?vid=2109cc3a-9a18-491c-89cd-d62a71b961d8"},"vehicle_type_id":"4","last_reported":1743444850,"current_range_meters":6000,"station_id":"ce4bhch2rcd13ifvqeug","pricing_plan_id":"cebpf4jnsgd1na2vs0mg"},{"bike_id":"82d8e203-da64-466b-9b1d-e9f0a9bfebfe","system_id":"levelo_inurba_marseille","lat":43.32528,"lon":5.41459,"is_reserved":false,"is_disabled":true,"rental_uris":{"android":"levelo://app?vid=82d8e203-da64-466b-9b1d-e9f0a9bfebfe","ios":"levelo://app?vid=82d8e203-da64-466b-9b1d-e9f0a9bfebfe"},"vehicle_type_id":"4","last_reported":1743444850,"current_range_meters":6000,"station_id":"ce4bhq12rcd13ifvqhhg","pricing_plan_id":"cebpf4jnsgd1na2vs0mg"},{"bike_id":"99ce6f91-8324-4da1-9ae4-7b9385121933","system_id":"levelo_inurba_marseille","lat":43.27814,"lon":5.40715,"is_reserved":false,"is_disabled":false,"rental_uris":{"android":"levelo://app?vid=99ce6f91-8324-4da1-9ae4-7b9385121933","ios":"levelo://app?vid=99ce6f91-8324-4da1-9ae4-7b9385121933"},"vehicle_type_id":"4","last_reported":1743444850,"current_range_meters":6000,"station_id":"ce4bhnh2rcd13ifvqgtg","pricing_plan_id":"cebpf4jnsgd1na2vs0mg"},{"bike_id":"0b75bd5e-79dc-4337-ae3a-11229fb0a60f","system_id":"levelo_inurba_marseille","lat":43.29279,"lon":5.36833,"is_reserved":false,"is_disabled":false,"rental_uris":{"android":"levelo://app?vid=0b75bd5e-79dc-4337-ae3a-11229fb0a60f","ios":"levelo://app?vid=0b75bd5e-79dc-4337-ae3a-11229fb0a60f"},"vehicle_type_id":"4","last_reported":1743444850,"current_range_meters":6000,"station_id":"ce4bhbp2rcd13ifvqesg","pricing_plan_id":"cebpf4jnsgd1na2vs0mg"},{"bike_id":"751173ad-b36c-4255-8e32-22ad235c0bf9","system_id":"levelo_inurba_marseille","lat":43.23959,"lon":5.36651,"is_reserved":false,"is_disabled":false,"rental_uris":{"android":"levelo://app?vid=751173ad-b36c-4255-8e32-22ad235c0bf9","ios":"levelo://app?vid=751173ad-b36c-4255-8e32-22ad235c0bf9"},"vehicle_type_id":"4","last_reported":1743444850,"current_range_meters":6000,"station_id":"ce4bhi12rcd13ifvqfp0","pricing_plan_id":"cebpf4jnsgd1na2vs0mg"},{"bike_id":"62c55fa3-0da7-40b6-9630-2ef59d468e09","system_id":"levelo_inurba_marseille","lat":43.28149,"lon":5.42661,"is_reserved":false,"is_disabled":false,"rental_uris":{"android":"levelo://app?vid=62c55fa3-0da7-40b6-9630-2ef59d468e09","ios":"levelo://app?vid=62c55fa3-0da7-40b6-9630-2ef59d468e09"},"vehicle_type_id":"4","last_reported":1743444850,"current_range_meters":6000,"station_id":"ce4bhnh2rcd13ifvqgug","pricing_plan_id":"cebpf4jnsgd1na2vs0mg"},{"bike_id":"75d56f98-6c75-4a8c-a312-88f4710b478a","system_id":"levelo_inurba_marseille","lat":43.29262,"lon":5.37635,"is_reserved":false,"is_disabled":true,"rental_uris":{"android":"levelo://app?vid=75d56f98-6c75-4a8c-a312-88f4710b478a","ios":"levelo://app?vid=75d56f98-6c75-4a8c-a312-88f4710b478a"},"vehicle_type_id":"4","last_reported":1743444850,"current_range_meters":6000,"station_id":"ce4bgi12rcd13ifvqb80","pricing_plan_id":"cebpf4jnsgd1na2vs0mg"},{"bike_id":"c835c429-ef50-4907-9680-30cc3f7795c7","system_id":"levelo_inurba_marseille","lat":43.27381,"lon":5.36262,"is_reserved":false,"is_disabled":false,"rental_uris":{"android":"levelo://app?vid=c835c429-ef50-4907-9680-30cc3f7795c7","ios":"levelo://app?vid=c835c429-ef50-4907-9680-30cc3f7795c7"},"vehicle_type_id":"4","last_reported":1743444850,"current_range_meters":6000,"station_id":"ce4bhbh2rcd13ifvqeo0","pricing_plan_id":"cebpf4jnsgd1na2vs0mg"},{"bike_id":"d1379a4b-7d1c-4a20-9b6a-00a7778584be","system_id":"levelo_inurba_marseille","lat":43.26086,"lon":5.39378,"is_reserved":false,"is_disabled":false,"rental_uris":{"android":"levelo://app?vid=d1379a4b-7d1c-4a20-9b6a-00a7778584be","ios":"levelo://app?vid=d1379a4b-7d1c-4a20-9b6a-00a7778584be"},"vehicle_type_id":"4","last_reported":1743444850,"current_range_meters":6000,"station_id":"ce4bhh92rcd13ifvqfj0","pricing_plan_id":"cebpf4jnsgd1na2vs0mg"},{"bike_id":"c4500860-8491-4315-a913-174de2c1f9f0","system_id":"levelo_inurba_marseille","lat":43.28465,"lon":5.38431,"is_reserved":false,"is_disabled":false,"rental_uris":{"android":"levelo://app?vid=c4500860-8491-4315-a913-174de2c1f9f0","ios":"levelo://app?vid=c4500860-8491-4315-a913-174de2c1f9f0"},"vehicle_type_id":"4","last_reported":1743444850,"current_range_meters":6000,"station_id":"ce4bh512rcd13ifvqe3g","pricing_plan_id":"cebpf4jnsgd1na2vs0mg"},{"bike_id":"6c2d60b4-6f9e-498b-b0f2-383ff310805d","system_id":"levelo_inurba_marseille","lat":43.28414,"lon":5.34989,"is_reserved":false,"is_disabled":false,"rental_uris":{"android":"levelo://app?vid=6c2d60b4-6f9e-498b-b0f2-383ff310805d","ios":"levelo://app?vid=6c2d60b4-6f9e-498b-b0f2-383ff310805d"},"vehicle_type_id":"4","last_reported":1743444850,"current_range_meters":6000,"station_id":"ce4bhbh2rcd13ifvqepg","pricing_plan_id":"cebpf4jnsgd1na2vs0mg"},{"bike_id":"bef1bba5-11c4-457f-a05e-1c8351e20066","system_id":"levelo_inurba_marseille","lat":43.2937,"lon":5.37835,"is_reserved":false,"is_disabled":false,"rental_uris":{"android":"levelo://app?vid=bef1bba5-11c4-457f-a05e-1c8351e20066","ios":"levelo://app?vid=bef1bba5-11c4-457f-a05e-1c8351e20066"},"vehicle_type_id":"4","last_reported":1743444850,"current_range_meters":6000,"station_id":"ce4bh292rcd13ifvqdg0","pricing_plan_id":"cebpf4jnsgd1na2vs0mg"},{"bike_id":"5314de2d-9582-4e5f-ba95-5d8fde2762c9","system_id":"levelo_inurba_marseille","lat":43.28163,"lon":5.42668,"is_reserved":false,"is_disabled":false,"rental_uris":{"android":"levelo://app?vid=5314de2d-9582-4e5f-ba95-5d8fde2762c9","ios":"levelo://app?vid=5314de2d-9582-4e5f-ba95-5d8fde2762c9"},"vehicle_type_id":"4","last_reported":1743444850,"current_range_meters":6400,"station_id":"ce4bhnh2rcd13ifvqgug","pricing_plan_id":"cebpf4jnsgd1na2vs0mg"},{"bike_id":"5cb79fbb-77fd-4094-b2ac-552c3e45fb01","system_id":"levelo_inurba_marseille","lat":43.28429,"lon":5.35004,"is_reserved":false,"is_disabled":false,"rental_uris":{"android":"levelo://app?vid=5cb79fbb-77fd-4094-b2ac-552c3e45fb01","ios":"levelo://app?vid=5cb79fbb-77fd-4094-b2ac-552c3e45fb01"},"vehicle_type_id":"4","last_reported":1743444850,"current_range_meters":6400,"station_id":"ce4bhbh2rcd13ifvqepg","pricing_plan_id":"cebpf4jnsgd1na2vs0mg"},{"bike_id":"a5e30f4a-c50e-454e-b085-b3528dca7fb2","system_id":"levelo_inurba_marseille","lat":43.30811,"lon":5.43523,"is_reserved":false,"is_disabled":false,"rental_uris":{"android":"levelo://app?vid=a5e30f4a-c50e-454e-b085-b3528dca7fb2","ios":"levelo://app?vid=a5e30f4a-c50e-454e-b085-b3528dca7fb2"},"vehicle_type_id":"4","last_reported":1743444850,"current_range_meters":6400,"station_id":"ce4bhph2rcd13ifvqheg","pricing_plan_id":"cebpf4jnsgd1na2vs0mg"},{"bike_id":"494a860b-8b3a-4bd4-9b1e-87c92aaff5d1","system_id":"levelo_inurba_marseille","lat":43.26572,"lon":5.39002,"is_reserved":false,"is_disabled":false,"rental_uris":{"android":"levelo://app?vid=494a860b-8b3a-4bd4-9b1e-87c92aaff5d1","ios":"levelo://app?vid=494a860b-8b3a-4bd4-9b1e-87c92aaff5d1"},"vehicle_type_id":"4","last_reported":1743444850,"current_range_meters":6400,"station_id":"ce4bhe12rcd13ifvqf30","pricing_plan_id":"cebpf4jnsgd1na2vs0mg"},{"bike_id":"fb9e0fe3-a16c-4e0f-8e70-1193c3848b58","system_id":"levelo_inurba_marseille","lat":43.31344,"lon":5.36718,"is_reserved":false,"is_disabled":false,"rental_uris":{"android":"levelo://app?vid=fb9e0fe3-a16c-4e0f-8e70-1193c3848b58","ios":"levelo://app?vid=fb9e0fe3-a16c-4e0f-8e70-1193c3848b58"},"vehicle_type_id":"4","last_reported":1743444850,"current_range_meters":6000,"station_id":"ce4bgr92rcd13ifvqc6g","pricing_plan_id":"cebpf4jnsgd1na2vs0mg"},{"bike_id":"ab586d80-6ff2-4a5c-a25f-d0902903909e","system_id":"levelo_inurba_marseille","lat":43.32544,"lon":5.4143,"is_reserved":false,"is_disabled":false,"rental_uris":{"android":"levelo://app?vid=ab586d80-6ff2-4a5c-a25f-d0902903909e","ios":"levelo://app?vid=ab586d80-6ff2-4a5c-a25f-d0902903909e"},"vehicle_type_id":"4","last_reported":1743444850,"current_range_meters":6400,"station_id":"ce4bhq12rcd13ifvqhhg","pricing_plan_id":"cebpf4jnsgd1na2vs0mg"},{"bike_id":"a0c9092a-1564-4c6e-a229-14d33d642d42","system_id":"levelo_inurba_marseille","lat":43.28266,"lon":5.35071,"is_reserved":false,"is_disabled":false,"rental_uris":{"android":"levelo://app?vid=a0c9092a-1564-4c6e-a229-14d33d642d42","ios":"levelo://app?vid=a0c9092a-1564-4c6e-a229-14d33d642d42"},"vehicle_type_id":"4","last_reported":1743444850,"current_range_meters":6400,"station_id":"ce4bhbp2rcd13ifvqerg","pricing_plan_id":"cebpf4jnsgd1na2vs0mg"},{"bike_id":"1b4c1539-82ac-4b6d-8452-7cbabe24450d","system_id":"levelo_inurba_marseille","lat":43.28387,"lon":5.38648,"is_reserved":false,"is_disabled":false,"rental_uris":{"android":"levelo://app?vid=1b4c1539-82ac-4b6d-8452-7cbabe24450d","ios":"levelo://app?vid=1b4c1539-82ac-4b6d-8452-7cbabe24450d"},"vehicle_type_id":"4","last_reported":1743444850,"current_range_meters":6400,"station_id":"ce4bh492rcd13ifvqdvg","pricing_plan_id":"cebpf4jnsgd1na2vs0mg"},{"bike_id":"85fad29d-07fa-4834-92ea-a24165516ebf","system_id":"levelo_inurba_marseille","lat":43.23091,"lon":5.35462,"is_reserved":false,"is_disabled":false,"rental_uris":{"android":"levelo://app?vid=85fad29d-07fa-4834-92ea-a24165516ebf","ios":"levelo://app?vid=85fad29d-07fa-4834-92ea-a24165516ebf"},"vehicle_type_id":"4","last_reported":1743444850,"current_range_meters":6800,"station_id":"cpo3342slgdg3j2ifvpg","pricing_plan_id":"cebpf4jnsgd1na2vs0mg"},{"bike_id":"7a790ce2-9af7-44b6-b1bd-11b296b4c634","system_id":"levelo_inurba_marseille","lat":43.27382,"lon":5.36265,"is_reserved":false,"is_disabled":false,"rental_uris":{"android":"levelo://app?vid=7a790ce2-9af7-44b6-b1bd-11b296b4c634","ios":"levelo://app?vid=7a790ce2-9af7-44b6-b1bd-11b296b4c634"},"vehicle_type_id":"4","last_reported":1743444850,"current_range_meters":6800,"station_id":"ce4bhbh2rcd13ifvqeo0","pricing_plan_id":"cebpf4jnsgd1na2vs0mg"},{"bike_id":"4b9c46bc-0783-4f4d-bc24-21c23ca7934d","system_id":"levelo_inurba_marseille","lat":43.28621,"lon":5.3511,"is_reserved":false,"is_disabled":false,"rental_uris":{"android":"levelo://app?vid=4b9c46bc-0783-4f4d-bc24-21c23ca7934d","ios":"levelo://app?vid=4b9c46bc-0783-4f4d-bc24-21c23ca7934d"},"vehicle_type_id":"4","last_reported":1743444850,"current_range_meters":6800,"station_id":"ce4bhch2rcd13ifvqeug","pricing_plan_id":"cebpf4jnsgd1na2vs0mg"},{"bike_id":"8473788b-58cc-4ffe-99f0-630d463f852d","system_id":"levelo_inurba_marseille","lat":43.23188,"lon":5.39998,"is_reserved":false,"is_disabled":false,"rental_uris":{"android":"levelo://app?vid=8473788b-58cc-4ffe-99f0-630d463f852d","ios":"levelo://app?vid=8473788b-58cc-4ffe-99f0-630d463f852d"},"vehicle_type_id":"4","last_reported":1743444850,"current_range_meters":6800,"station_id":"ce4bhn12rcd13ifvqgqg","pricing_plan_id":"cebpf4jnsgd1na2vs0mg"},{"bike_id":"1544ce89-914d-451b-9de5-5c0a798db09d","system_id":"levelo_inurba_marseille","lat":43.229287,"lon":5.353737,"is_reserved":false,"is_disabled":false,"rental_uris":{"android":"levelo://app?vid=1544ce89-914d-451b-9de5-5c0a798db09d","ios":"levelo://app?vid=1544ce89-914d-451b-9de5-5c0a798db09d"},"vehicle_type_id":"4","last_reported":1743444850,"current_range_meters":6800,"station_id":"cpo3532slgdg3j2ikp40","pricing_plan_id":"cebpf4jnsgd1na2vs0mg"},{"bike_id":"6062a337-35b1-4804-9f55-f711eee820c6","system_id":"levelo_inurba_marseille","lat":43.28937,"lon":5.36642,"is_reserved":false,"is_disabled":false,"rental_uris":{"android":"levelo://app?vid=6062a337-35b1-4804-9f55-f711eee820c6","ios":"levelo://app?vid=6062a337-35b1-4804-9f55-f711eee820c6"},"vehicle_type_id":"4","last_reported":1743444850,"current_range_meters":6800,"station_id":"ce4bhap2rcd13ifvqek0","pricing_plan_id":"cebpf4jnsgd1na2vs0mg"},{"bike_id":"33585d6e-e79d-4cc8-b2f4-62b704ca427c","system_id":"levelo_inurba_marseille","lat":43.30143,"lon":5.39881,"is_reserved":false,"is_disabled":false,"rental_uris":{"android":"levelo://app?vid=33585d6e-e79d-4cc8-b2f4-62b704ca427c","ios":"levelo://app?vid=33585d6e-e79d-4cc8-b2f4-62b704ca427c"},"vehicle_type_id":"4","last_reported":1743444850,"current_range_meters":7200,"station_id":"ce4bh0h2rcd13ifvqd40","pricing_plan_id":"cebpf4jnsgd1na2vs0mg"},{"bike_id":"7421ccaa-964b-4b7f-9c5d-7cf516e8c3f5","system_id":"levelo_inurba_marseille","lat":43.29231,"lon":5.36066,"is_reserved":false,"is_disabled":false,"rental_uris":{"android":"levelo://app?vid=7421ccaa-964b-4b7f-9c5d-7cf516e8c3f5","ios":"levelo://app?vid=7421ccaa-964b-4b7f-9c5d-7cf516e8c3f5"},"vehicle_type_id":"4","last_reported":1743444850,"current_range_meters":7200,"station_id":"ce4bhbh2rcd13ifvqeqg","pricing_plan_id":"cebpf4jnsgd1na2vs0mg"},{"bike_id":"594cca16-6281-47d7-93fa-1d116bf6c7b3","system_id":"levelo_inurba_marseille","lat":43.27384,"lon":5.36268,"is_reserved":false,"is_disabled":false,"rental_uris":{"android":"levelo://app?vid=594cca16-6281-47d7-93fa-1d116bf6c7b3","ios":"levelo://app?vid=594cca16-6281-47d7-93fa-1d116bf6c7b3"},"vehicle_type_id":"4","last_reported":1743444850,"current_range_meters":7200,"station_id":"ce4bhbh2rcd13ifvqeo0","pricing_plan_id":"cebpf4jnsgd1na2vs0mg"},{"bike_id":"e6e5f80d-8072-4c05-b57c-4add1ccdadc1","system_id":"levelo_inurba_marseille","lat":43.28598,"lon":5.350809,"is_reserved":false,"is_disabled":false,"rental_uris":{"android":"levelo://app?vid=e6e5f80d-8072-4c05-b57c-4add1ccdadc1","ios":"levelo://app?vid=e6e5f80d-8072-4c05-b57c-4add1ccdadc1"},"vehicle_type_id":"4","last_reported":1743444850,"current_range_meters":7200,"station_id":"ce4bhch2rcd13ifvqeug","pricing_plan_id":"cebpf4jnsgd1na2vs0mg"},{"bike_id":"7ef15ff7-a0f5-46f7-b04b-e318d1f7736d","system_id":"levelo_inurba_marseille","lat":43.26811,"lon":5.40255,"is_reserved":false,"is_disabled":false,"rental_uris":{"android":"levelo://app?vid=7ef15ff7-a0f5-46f7-b04b-e318d1f7736d","ios":"levelo://app?vid=7ef15ff7-a0f5-46f7-b04b-e318d1f7736d"},"vehicle_type_id":"4","last_reported":1743444850,"current_range_meters":7200,"station_id":"ce501612rcd8frsf0b60","pricing_plan_id":"cebpf4jnsgd1na2vs0mg"},{"bike_id":"14da84a3-7a9b-4075-9d69-513b5c21a9e0","system_id":"levelo_inurba_marseille","lat":43.28661,"lon":5.36347,"is_reserved":false,"is_disabled":false,"rental_uris":{"android":"levelo://app?vid=14da84a3-7a9b-4075-9d69-513b5c21a9e0","ios":"levelo://app?vid=14da84a3-7a9b-4075-9d69-513b5c21a9e0"},"vehicle_type_id":"4","last_reported":1743444850,"current_range_meters":7200,"station_id":"ce4bhah2rcd13ifvqej0","pricing_plan_id":"cebpf4jnsgd1na2vs0mg"},{"bike_id":"5dd8068c-188e-4c65-aa6d-ba0aebf91972","system_id":"levelo_inurba_marseille","lat":43.28852,"lon":5.39322,"is_reserved":false,"is_disabled":false,"rental_uris":{"android":"levelo://app?vid=5dd8068c-188e-4c65-aa6d-ba0aebf91972","ios":"levelo://app?vid=5dd8068c-188e-4c65-aa6d-ba0aebf91972"},"vehicle_type_id":"4","last_reported":1743444850,"current_range_meters":6800,"station_id":"ce4bh2p2rcd13ifvqdi0","pricing_plan_id":"cebpf4jnsgd1na2vs0mg"},{"bike_id":"7bf19f0f-ccb7-4e2d-8151-5b3b43d672b1","system_id":"levelo_inurba_marseille","lat":43.26033,"lon":5.41719,"is_reserved":false,"is_disabled":false,"rental_uris":{"android":"levelo://app?vid=7bf19f0f-ccb7-4e2d-8151-5b3b43d672b1","ios":"levelo://app?vid=7bf19f0f-ccb7-4e2d-8151-5b3b43d672b1"},"vehicle_type_id":"4","last_reported":1743444850,"current_range_meters":7200,"station_id":"","pricing_plan_id":"cebpf4jnsgd1na2vs0mg"},{"bike_id":"1b415863-e5af-4389-aed9-b4accf06ec94","system_id":"levelo_inurba_marseille","lat":43.29802,"lon":5.40409,"is_reserved":false,"is_disabled":false,"rental_uris":{"android":"levelo://app?vid=1b415863-e5af-4389-aed9-b4accf06ec94","ios":"levelo://app?vid=1b415863-e5af-4389-aed9-b4accf06ec94"},"vehicle_type_id":"4","last_reported":1743444850,"current_range_meters":7200,"station_id":"ce4bh112rcd13ifvqd90","pricing_plan_id":"cebpf4jnsgd1na2vs0mg"},{"bike_id":"d6702032-1f3d-47ae-9536-6a30fc4c6c7b","system_id":"levelo_inurba_marseille","lat":43.28674,"lon":5.36349,"is_reserved":false,"is_disabled":false,"rental_uris":{"android":"levelo://app?vid=d6702032-1f3d-47ae-9536-6a30fc4c6c7b","ios":"levelo://app?vid=d6702032-1f3d-47ae-9536-6a30fc4c6c7b"},"vehicle_type_id":"4","last_reported":1743444850,"current_range_meters":7200,"station_id":"ce4bhah2rcd13ifvqej0","pricing_plan_id":"cebpf4jnsgd1na2vs0mg"},{"bike_id":"4df05388-3416-48c2-8715-e7cdf15935af","system_id":"levelo_inurba_marseille","lat":43.28456,"lon":5.35885,"is_reserved":false,"is_disabled":false,"rental_uris":{"android":"levelo://app?vid=4df05388-3416-48c2-8715-e7cdf15935af","ios":"levelo://app?vid=4df05388-3416-48c2-8715-e7cdf15935af"},"vehicle_type_id":"4","last_reported":1743444850,"current_range_meters":7200,"station_id":"ce4bhah2rcd13ifvqei0","pricing_plan_id":"cebpf4jnsgd1na2vs0mg"},{"bike_id":"5a9d0270-3dab-4435-ba2c-5ca73b7986e0","system_id":"levelo_inurba_marseille","lat":43.28418,"lon":5.34988,"is_reserved":false,"is_disabled":false,"rental_uris":{"android":"levelo://app?vid=5a9d0270-3dab-4435-ba2c-5ca73b7986e0","ios":"levelo://app?vid=5a9d0270-3dab-4435-ba2c-5ca73b7986e0"},"vehicle_type_id":"4","last_reported":1743444850,"current_range_meters":7200,"station_id":"ce4bhbh2rcd13ifvqepg","pricing_plan_id":"cebpf4jnsgd1na2vs0mg"},{"bike_id":"4eb1cda7-e07d-4830-b8a8-cf65f899b432","system_id":"levelo_inurba_marseille","lat":43.282319,"lon":5.403002,"is_reserved":false,"is_disabled":false,"rental_uris":{"android":"levelo://app?vid=4eb1cda7-e07d-4830-b8a8-cf65f899b432","ios":"levelo://app?vid=4eb1cda7-e07d-4830-b8a8-cf65f899b432"},"vehicle_type_id":"4","last_reported":1743444850,"current_range_meters":7200,"station_id":"ce4bho92rcd13ifvqh4g","pricing_plan_id":"cebpf4jnsgd1na2vs0mg"},{"bike_id":"635fa4e5-3319-4339-be01-32edd514a421","system_id":"levelo_inurba_marseille","lat":43.28938,"lon":5.38414,"is_reserved":false,"is_disabled":false,"rental_uris":{"android":"levelo://app?vid=635fa4e5-3319-4339-be01-32edd514a421","ios":"levelo://app?vid=635fa4e5-3319-4339-be01-32edd514a421"},"vehicle_type_id":"4","last_reported":1743444850,"current_range_meters":6800,"station_id":"ce4bh612rcd13ifvqe6g","pricing_plan_id":"cebpf4jnsgd1na2vs0mg"},{"bike_id":"53455174-dd40-4291-b684-2c9bcaec009e","system_id":"levelo_inurba_marseille","lat":43.27997,"lon":5.41668,"is_reserved":false,"is_disabled":false,"rental_uris":{"android":"levelo://app?vid=53455174-dd40-4291-b684-2c9bcaec009e","ios":"levelo://app?vid=53455174-dd40-4291-b684-2c9bcaec009e"},"vehicle_type_id":"4","last_reported":1743444850,"current_range_meters":7200,"station_id":"ce4bho12rcd13ifvqh1g","pricing_plan_id":"cebpf4jnsgd1na2vs0mg"},{"bike_id":"407b633a-987e-4722-b77a-993eaa06a6b7","system_id":"levelo_inurba_marseille","lat":43.31583,"lon":5.38846,"is_reserved":false,"is_disabled":false,"rental_uris":{"android":"levelo://app?vid=407b633a-987e-4722-b77a-993eaa06a6b7","ios":"levelo://app?vid=407b633a-987e-4722-b77a-993eaa06a6b7"},"vehicle_type_id":"4","last_reported":1743444850,"current_range_meters":8000,"station_id":"","pricing_plan_id":"cebpf4jnsgd1na2vs0mg"},{"bike_id":"c416f02b-7af7-4153-bb0d-914f8b97ec3c","system_id":"levelo_inurba_marseille","lat":43.28619,"lon":5.35122,"is_reserved":false,"is_disabled":false,"rental_uris":{"android":"levelo://app?vid=c416f02b-7af7-4153-bb0d-914f8b97ec3c","ios":"levelo://app?vid=c416f02b-7af7-4153-bb0d-914f8b97ec3c"},"vehicle_type_id":"4","last_reported":1743444850,"current_range_meters":8000,"station_id":"ce4bhch2rcd13ifvqeug","pricing_plan_id":"cebpf4jnsgd1na2vs0mg"},{"bike_id":"6165c5e1-15f4-4779-ba2f-91df8ba3f8c0","system_id":"levelo_inurba_marseille","lat":43.28904,"lon":5.42947,"is_reserved":false,"is_disabled":false,"rental_uris":{"android":"levelo://app?vid=6165c5e1-15f4-4779-ba2f-91df8ba3f8c0","ios":"levelo://app?vid=6165c5e1-15f4-4779-ba2f-91df8ba3f8c0"},"vehicle_type_id":"4","last_reported":1743444850,"current_range_meters":8000,"station_id":"","pricing_plan_id":"cebpf4jnsgd1na2vs0mg"},{"bike_id":"3e6f399e-ea99-4bee-bf19-68240615b5e1","system_id":"levelo_inurba_marseille","lat":43.29029,"lon":5.38635,"is_reserved":false,"is_disabled":true,"rental_uris":{"android":"levelo://app?vid=3e6f399e-ea99-4bee-bf19-68240615b5e1","ios":"levelo://app?vid=3e6f399e-ea99-4bee-bf19-68240615b5e1"},"vehicle_type_id":"4","last_reported":1743444850,"current_range_meters":8000,"station_id":"ce4bh4p2rcd13ifvqe0g","pricing_plan_id":"cebpf4jnsgd1na2vs0mg"},{"bike_id":"44db82ce-b275-4e27-87d3-c219b4b05dc8","system_id":"levelo_inurba_marseille","lat":43.32111,"lon":5.36768,"is_reserved":false,"is_disabled":false,"rental_uris":{"android":"levelo://app?vid=44db82ce-b275-4e27-87d3-c219b4b05dc8","ios":"levelo://app?vid=44db82ce-b275-4e27-87d3-c219b4b05dc8"},"vehicle_type_id":"4","last_reported":1743444850,"current_range_meters":8000,"station_id":"ce4bhrh2rcd13ifvqhug","pricing_plan_id":"cebpf4jnsgd1na2vs0mg"},{"bike_id":"61cb5efe-cb5f-4a25-9fb6-ced0a8817105","system_id":"levelo_inurba_marseille","lat":43.27617,"lon":5.36102,"is_reserved":false,"is_disabled":false,"rental_uris":{"android":"levelo://app?vid=61cb5efe-cb5f-4a25-9fb6-ced0a8817105","ios":"levelo://app?vid=61cb5efe-cb5f-4a25-9fb6-ced0a8817105"},"vehicle_type_id":"4","last_reported":1743444850,"current_range_meters":8000,"station_id":"ce4bgj92rcd13ifvqbe0","pricing_plan_id":"cebpf4jnsgd1na2vs0mg"},{"bike_id":"59c44feb-fe59-40b8-8ee9-0d154bd51832","system_id":"levelo_inurba_marseille","lat":43.27382,"lon":5.36264,"is_reserved":false,"is_disabled":false,"rental_uris":{"android":"levelo://app?vid=59c44feb-fe59-40b8-8ee9-0d154bd51832","ios":"levelo://app?vid=59c44feb-fe59-40b8-8ee9-0d154bd51832"},"vehicle_type_id":"4","last_reported":1743444850,"current_range_meters":8000,"station_id":"ce4bhbh2rcd13ifvqeo0","pricing_plan_id":"cebpf4jnsgd1na2vs0mg"},{"bike_id":"daef32c0-9907-48c4-af2a-8caabf901041","system_id":"levelo_inurba_marseille","lat":43.28618,"lon":5.35113,"is_reserved":false,"is_disabled":false,"rental_uris":{"android":"levelo://app?vid=daef32c0-9907-48c4-af2a-8caabf901041","ios":"levelo://app?vid=daef32c0-9907-48c4-af2a-8caabf901041"},"vehicle_type_id":"4","last_reported":1743444850,"current_range_meters":8000,"station_id":"ce4bhch2rcd13ifvqeug","pricing_plan_id":"cebpf4jnsgd1na2vs0mg"},{"bike_id":"a7d54841-010e-463b-9537-8c299d465483","system_id":"levelo_inurba_marseille","lat":43.28698,"lon":5.37397,"is_reserved":false,"is_disabled":false,"rental_uris":{"android":"levelo://app?vid=a7d54841-010e-463b-9537-8c299d465483","ios":"levelo://app?vid=a7d54841-010e-463b-9537-8c299d465483"},"vehicle_type_id":"4","last_reported":1743444850,"current_range_meters":8000,"station_id":"ce4bh3p2rcd13ifvqdq0","pricing_plan_id":"cebpf4jnsgd1na2vs0mg"},{"bike_id":"f41969fd-e4f4-4609-a6ce-913fe7ca7d61","system_id":"levelo_inurba_marseille","lat":43.2902,"lon":5.35583,"is_reserved":false,"is_disabled":false,"rental_uris":{"android":"levelo://app?vid=f41969fd-e4f4-4609-a6ce-913fe7ca7d61","ios":"levelo://app?vid=f41969fd-e4f4-4609-a6ce-913fe7ca7d61"},"vehicle_type_id":"4","last_reported":1743444850,"current_range_meters":8000,"station_id":"ce4bhb92rcd13ifvqen0","pricing_plan_id":"cebpf4jnsgd1na2vs0mg"},{"bike_id":"81d8c813-d6bf-4abc-ae95-d07553708c15","system_id":"levelo_inurba_marseille","lat":43.28352,"lon":5.38629,"is_reserved":false,"is_disabled":false,"rental_uris":{"android":"levelo://app?vid=81d8c813-d6bf-4abc-ae95-d07553708c15","ios":"levelo://app?vid=81d8c813-d6bf-4abc-ae95-d07553708c15"},"vehicle_type_id":"4","last_reported":1743444850,"current_range_meters":8000,"station_id":"ce4bh492rcd13ifvqdvg","pricing_plan_id":"cebpf4jnsgd1na2vs0mg"},{"bike_id":"9a2af466-2aa8-49f7-bfd5-fc815a2aa07c","system_id":"levelo_inurba_marseille","lat":43.30712,"lon":5.40096,"is_reserved":false,"is_disabled":true,"rental_uris":{"android":"levelo://app?vid=9a2af466-2aa8-49f7-bfd5-fc815a2aa07c","ios":"levelo://app?vid=9a2af466-2aa8-49f7-bfd5-fc815a2aa07c"},"vehicle_type_id":"4","last_reported":1743444850,"current_range_meters":8000,"station_id":"ce4bh112rcd13ifvqda0","pricing_plan_id":"cebpf4jnsgd1na2vs0mg"},{"bike_id":"970d4a28-2e4b-453e-912d-59e6f284b811","system_id":"levelo_inurba_marseille","lat":43.32387,"lon":5.38848,"is_reserved":false,"is_disabled":true,"rental_uris":{"android":"levelo://app?vid=970d4a28-2e4b-453e-912d-59e6f284b811","ios":"levelo://app?vid=970d4a28-2e4b-453e-912d-59e6f284b811"},"vehicle_type_id":"4","last_reported":1743444850,"current_range_meters":8400,"station_id":"ce4bhqp2rcd13ifvqhog","pricing_plan_id":"cebpf4jnsgd1na2vs0mg"},{"bike_id":"b3e97410-c1b2-4369-b878-0aa5bbd817bc","system_id":"levelo_inurba_marseille","lat":43.28487,"lon":5.35898,"is_reserved":false,"is_disabled":true,"rental_uris":{"android":"levelo://app?vid=b3e97410-c1b2-4369-b878-0aa5bbd817bc","ios":"levelo://app?vid=b3e97410-c1b2-4369-b878-0aa5bbd817bc"},"vehicle_type_id":"4","last_reported":1743444850,"current_range_meters":8400,"station_id":"ce4bhah2rcd13ifvqei0","pricing_plan_id":"cebpf4jnsgd1na2vs0mg"},{"bike_id":"fea7ab93-0f90-49e8-b915-eb27838a4f0f","system_id":"levelo_inurba_marseille","lat":43.33028,"lon":5.39049,"is_reserved":false,"is_disabled":false,"rental_uris":{"android":"levelo://app?vid=fea7ab93-0f90-49e8-b915-eb27838a4f0f","ios":"levelo://app?vid=fea7ab93-0f90-49e8-b915-eb27838a4f0f"},"vehicle_type_id":"4","last_reported":1743444850,"current_range_meters":8400,"station_id":"ce4bhr92rcd13ifvqhrg","pricing_plan_id":"cebpf4jnsgd1na2vs0mg"},{"bike_id":"14f84808-43c4-42ec-98db-6d9ecef6d9ae","system_id":"levelo_inurba_marseille","lat":43.28353,"lon":5.38109,"is_reserved":false,"is_disabled":false,"rental_uris":{"android":"levelo://app?vid=14f84808-43c4-42ec-98db-6d9ecef6d9ae","ios":"levelo://app?vid=14f84808-43c4-42ec-98db-6d9ecef6d9ae"},"vehicle_type_id":"4","last_reported":1743444850,"current_range_meters":8400,"station_id":"ce4bh412rcd13ifvqdr0","pricing_plan_id":"cebpf4jnsgd1na2vs0mg"},{"bike_id":"65823365-32b2-4c2c-8f12-1e8b73f91efd","system_id":"levelo_inurba_marseille","lat":43.28462,"lon":5.358919,"is_reserved":false,"is_disabled":false,"rental_uris":{"android":"levelo://app?vid=65823365-32b2-4c2c-8f12-1e8b73f91efd","ios":"levelo://app?vid=65823365-32b2-4c2c-8f12-1e8b73f91efd"},"vehicle_type_id":"4","last_reported":1743444850,"current_range_meters":8400,"station_id":"ce4bhah2rcd13ifvqei0","pricing_plan_id":"cebpf4jnsgd1na2vs0mg"},{"bike_id":"2544b345-63c9-4d9b-be2f-ada0aa65f9cf","system_id":"levelo_inurba_marseille","lat":43.2295,"lon":5.3538,"is_reserved":false,"is_disabled":false,"rental_uris":{"android":"levelo://app?vid=2544b345-63c9-4d9b-be2f-ada0aa65f9cf","ios":"levelo://app?vid=2544b345-63c9-4d9b-be2f-ada0aa65f9cf"},"vehicle_type_id":"4","last_reported":1743444850,"current_range_meters":8400,"station_id":"cpo3532slgdg3j2ikp40","pricing_plan_id":"cebpf4jnsgd1na2vs0mg"},{"bike_id":"e35997f4-06a1-4f12-9b64-286158950d7e","system_id":"levelo_inurba_marseille","lat":43.3109,"lon":5.38354,"is_reserved":false,"is_disabled":false,"rental_uris":{"android":"levelo://app?vid=e35997f4-06a1-4f12-9b64-286158950d7e","ios":"levelo://app?vid=e35997f4-06a1-4f12-9b64-286158950d7e"},"vehicle_type_id":"4","last_reported":1743444850,"current_range_meters":8400,"station_id":"ce4bgv92rcd13ifvqcr0","pricing_plan_id":"cebpf4jnsgd1na2vs0mg"},{"bike_id":"a25872bc-0475-47c8-8f00-1a492d7edcdf","system_id":"levelo_inurba_marseille","lat":43.29537,"lon":5.3855,"is_reserved":false,"is_disabled":false,"rental_uris":{"android":"levelo://app?vid=a25872bc-0475-47c8-8f00-1a492d7edcdf","ios":"levelo://app?vid=a25872bc-0475-47c8-8f00-1a492d7edcdf"},"vehicle_type_id":"4","last_reported":1743444850,"current_range_meters":8400,"station_id":"ce4bgih2rcd13ifvqba0","pricing_plan_id":"cebpf4jnsgd1na2vs0mg"},{"bike_id":"02df82c6-917d-4321-a0bb-f6128d1fba0f","system_id":"levelo_inurba_marseille","lat":43.28868,"lon":5.3586,"is_reserved":false,"is_disabled":false,"rental_uris":{"android":"levelo://app?vid=02df82c6-917d-4321-a0bb-f6128d1fba0f","ios":"levelo://app?vid=02df82c6-917d-4321-a0bb-f6128d1fba0f"},"vehicle_type_id":"4","last_reported":1743444850,"current_range_meters":8400,"station_id":"ce4bhb12rcd13ifvqem0","pricing_plan_id":"cebpf4jnsgd1na2vs0mg"},{"bike_id":"121010d1-d0ea-475b-97a6-f9054736109c","system_id":"levelo_inurba_marseille","lat":43.23202,"lon":5.39988,"is_reserved":false,"is_disabled":false,"rental_uris":{"android":"levelo://app?vid=121010d1-d0ea-475b-97a6-f9054736109c","ios":"levelo://app?vid=121010d1-d0ea-475b-97a6-f9054736109c"},"vehicle_type_id":"4","last_reported":1743444850,"current_range_meters":8800,"station_id":"ce4bhn12rcd13ifvqgqg","pricing_plan_id":"cebpf4jnsgd1na2vs0mg"},{"bike_id":"20f5d5b6-da1b-4ad8-8de5-42887a69d068","system_id":"levelo_inurba_marseille","lat":43.2901,"lon":5.35617,"is_reserved":false,"is_disabled":true,"rental_uris":{"android":"levelo://app?vid=20f5d5b6-da1b-4ad8-8de5-42887a69d068","ios":"levelo://app?vid=20f5d5b6-da1b-4ad8-8de5-42887a69d068"},"vehicle_type_id":"4","last_reported":1743444850,"current_range_meters":8800,"station_id":"ce4bhb92rcd13ifvqen0","pricing_plan_id":"cebpf4jnsgd1na2vs0mg"},{"bike_id":"61cba3ec-a136-4b06-af87-f4a621110842","system_id":"levelo_inurba_marseille","lat":43.3084,"lon":5.38183,"is_reserved":false,"is_disabled":false,"rental_uris":{"android":"levelo://app?vid=61cba3ec-a136-4b06-af87-f4a621110842","ios":"levelo://app?vid=61cba3ec-a136-4b06-af87-f4a621110842"},"vehicle_type_id":"4","last_reported":1743444850,"current_range_meters":8800,"station_id":"","pricing_plan_id":"cebpf4jnsgd1na2vs0mg"},{"bike_id":"889e4d4a-3b95-4d6b-811f-ce813f81f170","system_id":"levelo_inurba_marseille","lat":43.28359,"lon":5.38104,"is_reserved":false,"is_disabled":false,"rental_uris":{"android":"levelo://app?vid=889e4d4a-3b95-4d6b-811f-ce813f81f170","ios":"levelo://app?vid=889e4d4a-3b95-4d6b-811f-ce813f81f170"},"vehicle_type_id":"4","last_reported":1743444850,"current_range_meters":8800,"station_id":"ce4bh412rcd13ifvqdr0","pricing_plan_id":"cebpf4jnsgd1na2vs0mg"},{"bike_id":"d3021e31-c9a7-4f0d-b4ba-133b10d22560","system_id":"levelo_inurba_marseille","lat":43.30302,"lon":5.39196,"is_reserved":false,"is_disabled":false,"rental_uris":{"android":"levelo://app?vid=d3021e31-c9a7-4f0d-b4ba-133b10d22560","ios":"levelo://app?vid=d3021e31-c9a7-4f0d-b4ba-133b10d22560"},"vehicle_type_id":"4","last_reported":1743444850,"current_range_meters":8800,"station_id":"ce4bgkh2rcd13ifvqbk0","pricing_plan_id":"cebpf4jnsgd1na2vs0mg"},{"bike_id":"f50dd1be-9ee4-480d-920f-0721f0997798","system_id":"levelo_inurba_marseille","lat":43.23191,"lon":5.3999,"is_reserved":false,"is_disabled":false,"rental_uris":{"android":"levelo://app?vid=f50dd1be-9ee4-480d-920f-0721f0997798","ios":"levelo://app?vid=f50dd1be-9ee4-480d-920f-0721f0997798"},"vehicle_type_id":"4","last_reported":1743444850,"current_range_meters":8800,"station_id":"ce4bhn12rcd13ifvqgqg","pricing_plan_id":"cebpf4jnsgd1na2vs0mg"},{"bike_id":"2bf31f9f-c5c0-434c-ab3b-b017d7dc966d","system_id":"levelo_inurba_marseille","lat":43.23064,"lon":5.35466,"is_reserved":false,"is_disabled":false,"rental_uris":{"android":"levelo://app?vid=2bf31f9f-c5c0-434c-ab3b-b017d7dc966d","ios":"levelo://app?vid=2bf31f9f-c5c0-434c-ab3b-b017d7dc966d"},"vehicle_type_id":"4","last_reported":1743444850,"current_range_meters":8800,"station_id":"cpo3342slgdg3j2ifvpg","pricing_plan_id":"cebpf4jnsgd1na2vs0mg"},{"bike_id":"eb6b066b-8a83-4b35-9e9f-bcb3cb2e0dcb","system_id":"levelo_inurba_marseille","lat":43.2894,"lon":5.36623,"is_reserved":false,"is_disabled":false,"rental_uris":{"android":"levelo://app?vid=eb6b066b-8a83-4b35-9e9f-bcb3cb2e0dcb","ios":"levelo://app?vid=eb6b066b-8a83-4b35-9e9f-bcb3cb2e0dcb"},"vehicle_type_id":"4","last_reported":1743444850,"current_range_meters":8800,"station_id":"ce4bhap2rcd13ifvqek0","pricing_plan_id":"cebpf4jnsgd1na2vs0mg"},{"bike_id":"ab3717f3-b435-42f8-98d9-8703f94c52c3","system_id":"levelo_inurba_marseille","lat":43.28406,"lon":5.37513,"is_reserved":false,"is_disabled":false,"rental_uris":{"android":"levelo://app?vid=ab3717f3-b435-42f8-98d9-8703f94c52c3","ios":"levelo://app?vid=ab3717f3-b435-42f8-98d9-8703f94c52c3"},"vehicle_type_id":"4","last_reported":1743444850,"current_range_meters":8800,"station_id":"ce4bh412rcd13ifvqds0","pricing_plan_id":"cebpf4jnsgd1na2vs0mg"},{"bike_id":"278a572e-c3f1-410c-a7c4-1fe23200e33e","system_id":"levelo_inurba_marseille","lat":43.30269,"lon":5.4006,"is_reserved":false,"is_disabled":false,"rental_uris":{"android":"levelo://app?vid=278a572e-c3f1-410c-a7c4-1fe23200e33e","ios":"levelo://app?vid=278a572e-c3f1-410c-a7c4-1fe23200e33e"},"vehicle_type_id":"4","last_reported":1743444850,"current_range_meters":8800,"station_id":"ce4bgvh2rcd13ifvqcs0","pricing_plan_id":"cebpf4jnsgd1na2vs0mg"},{"bike_id":"d2f2ddd5-8dd4-436f-ba30-fd70dfe59da3","system_id":"levelo_inurba_marseille","lat":43.32121,"lon":5.36767,"is_reserved":false,"is_disabled":false,"rental_uris":{"android":"levelo://app?vid=d2f2ddd5-8dd4-436f-ba30-fd70dfe59da3","ios":"levelo://app?vid=d2f2ddd5-8dd4-436f-ba30-fd70dfe59da3"},"vehicle_type_id":"4","last_reported":1743444850,"current_range_meters":9200,"station_id":"ce4bhrh2rcd13ifvqhug","pricing_plan_id":"cebpf4jnsgd1na2vs0mg"},{"bike_id":"49810080-90c1-49b4-921f-dc96b27343ff","system_id":"levelo_inurba_marseille","lat":43.2612,"lon":5.41467,"is_reserved":false,"is_disabled":false,"rental_uris":{"android":"levelo://app?vid=49810080-90c1-49b4-921f-dc96b27343ff","ios":"levelo://app?vid=49810080-90c1-49b4-921f-dc96b27343ff"},"vehicle_type_id":"4","last_reported":1743444850,"current_range_meters":9200,"station_id":"","pricing_plan_id":"cebpf4jnsgd1na2vs0mg"},{"bike_id":"61a502e8-c0bc-46ba-bba0-41d4a7453acc","system_id":"levelo_inurba_marseille","lat":43.27214,"lon":5.39182,"is_reserved":false,"is_disabled":false,"rental_uris":{"android":"levelo://app?vid=61a502e8-c0bc-46ba-bba0-41d4a7453acc","ios":"levelo://app?vid=61a502e8-c0bc-46ba-bba0-41d4a7453acc"},"vehicle_type_id":"4","last_reported":1743444850,"current_range_meters":9200,"station_id":"ce4bhhp2rcd13ifvqfm0","pricing_plan_id":"cebpf4jnsgd1na2vs0mg"},{"bike_id":"b42d6901-bca6-436c-b3b0-94aec0afc9b4","system_id":"levelo_inurba_marseille","lat":43.28941,"lon":5.36638,"is_reserved":false,"is_disabled":false,"rental_uris":{"android":"levelo://app?vid=b42d6901-bca6-436c-b3b0-94aec0afc9b4","ios":"levelo://app?vid=b42d6901-bca6-436c-b3b0-94aec0afc9b4"},"vehicle_type_id":"4","last_reported":1743444850,"current_range_meters":9200,"station_id":"ce4bhap2rcd13ifvqek0","pricing_plan_id":"cebpf4jnsgd1na2vs0mg"},{"bike_id":"312580b5-bb0d-46d7-ae69-2052466b427d","system_id":"levelo_inurba_marseille","lat":43.30303,"lon":5.39209,"is_reserved":false,"is_disabled":false,"rental_uris":{"android":"levelo://app?vid=312580b5-bb0d-46d7-ae69-2052466b427d","ios":"levelo://app?vid=312580b5-bb0d-46d7-ae69-2052466b427d"},"vehicle_type_id":"4","last_reported":1743444850,"current_range_meters":9200,"station_id":"ce4bgkh2rcd13ifvqbk0","pricing_plan_id":"cebpf4jnsgd1na2vs0mg"},{"bike_id":"1484f26f-0874-4038-b460-540b7b87b523","system_id":"levelo_inurba_marseille","lat":43.29319,"lon":5.37449,"is_reserved":false,"is_disabled":true,"rental_uris":{"android":"levelo://app?vid=1484f26f-0874-4038-b460-540b7b87b523","ios":"levelo://app?vid=1484f26f-0874-4038-b460-540b7b87b523"},"vehicle_type_id":"4","last_reported":1743444850,"current_range_meters":8800,"station_id":"ce4bgi12rcd13ifvqb70","pricing_plan_id":"cebpf4jnsgd1na2vs0mg"},{"bike_id":"053892d8-efc9-4c5b-bb73-88ddb36947cc","system_id":"levelo_inurba_marseille","lat":43.29013,"lon":5.35614,"is_reserved":false,"is_disabled":false,"rental_uris":{"android":"levelo://app?vid=053892d8-efc9-4c5b-bb73-88ddb36947cc","ios":"levelo://app?vid=053892d8-efc9-4c5b-bb73-88ddb36947cc"},"vehicle_type_id":"4","last_reported":1743444850,"current_range_meters":9200,"station_id":"ce4bhb92rcd13ifvqen0","pricing_plan_id":"cebpf4jnsgd1na2vs0mg"},{"bike_id":"722b18b3-c8a7-4fa7-88f6-bead613f090f","system_id":"levelo_inurba_marseille","lat":43.32298,"lon":5.38282,"is_reserved":false,"is_disabled":false,"rental_uris":{"android":"levelo://app?vid=722b18b3-c8a7-4fa7-88f6-bead613f090f","ios":"levelo://app?vid=722b18b3-c8a7-4fa7-88f6-bead613f090f"},"vehicle_type_id":"4","last_reported":1743444850,"current_range_meters":9200,"station_id":"ce4bhr12rcd13ifvqhqg","pricing_plan_id":"cebpf4jnsgd1na2vs0mg"},{"bike_id":"42785f2f-607e-4098-9868-db5216dda6eb","system_id":"levelo_inurba_marseille","lat":43.30442,"lon":5.38892,"is_reserved":false,"is_disabled":false,"rental_uris":{"android":"levelo://app?vid=42785f2f-607e-4098-9868-db5216dda6eb","ios":"levelo://app?vid=42785f2f-607e-4098-9868-db5216dda6eb"},"vehicle_type_id":"4","last_reported":1743444850,"current_range_meters":9200,"station_id":"ce4bgk12rcd13ifvqbi0","pricing_plan_id":"cebpf4jnsgd1na2vs0mg"},{"bike_id":"81dd399d-4106-41b7-ba18-371b943d676e","system_id":"levelo_inurba_marseille","lat":43.25123,"lon":5.40323,"is_reserved":false,"is_disabled":false,"rental_uris":{"android":"levelo://app?vid=81dd399d-4106-41b7-ba18-371b943d676e","ios":"levelo://app?vid=81dd399d-4106-41b7-ba18-371b943d676e"},"vehicle_type_id":"4","last_reported":1743444850,"current_range_meters":9200,"station_id":"ce4bhlh2rcd13ifvqgig","pricing_plan_id":"cebpf4jnsgd1na2vs0mg"},{"bike_id":"672d4500-3325-45a5-9b08-ac625495a4fb","system_id":"levelo_inurba_marseille","lat":43.28349,"lon":5.38117,"is_reserved":false,"is_disabled":true,"rental_uris":{"android":"levelo://app?vid=672d4500-3325-45a5-9b08-ac625495a4fb","ios":"levelo://app?vid=672d4500-3325-45a5-9b08-ac625495a4fb"},"vehicle_type_id":"4","last_reported":1743444850,"current_range_meters":9200,"station_id":"ce4bh412rcd13ifvqdr0","pricing_plan_id":"cebpf4jnsgd1na2vs0mg"},{"bike_id":"94f228d9-db09-4686-8ae0-06e4abe68a67","system_id":"levelo_inurba_marseille","lat":43.29192,"lon":5.35802,"is_reserved":false,"is_disabled":false,"rental_uris":{"android":"levelo://app?vid=94f228d9-db09-4686-8ae0-06e4abe68a67","ios":"levelo://app?vid=94f228d9-db09-4686-8ae0-06e4abe68a67"},"vehicle_type_id":"4","last_reported":1743444850,"current_range_meters":9200,"station_id":"ce4bhb12rcd13ifvqel0","pricing_plan_id":"cebpf4jnsgd1na2vs0mg"},{"bike_id":"05cce8b5-e04d-46f0-83d1-107eef27d8ef","system_id":"levelo_inurba_marseille","lat":43.32284,"lon":5.38291,"is_reserved":false,"is_disabled":false,"rental_uris":{"android":"levelo://app?vid=05cce8b5-e04d-46f0-83d1-107eef27d8ef","ios":"levelo://app?vid=05cce8b5-e04d-46f0-83d1-107eef27d8ef"},"vehicle_type_id":"4","last_reported":1743444850,"current_range_meters":9600,"station_id":"ce4bhr12rcd13ifvqhqg","pricing_plan_id":"cebpf4jnsgd1na2vs0mg"},{"bike_id":"23a2997f-acca-44d1-a72c-cccdd94a796c","system_id":"levelo_inurba_marseille","lat":43.30885,"lon":5.40155,"is_reserved":false,"is_disabled":true,"rental_uris":{"android":"levelo://app?vid=23a2997f-acca-44d1-a72c-cccdd94a796c","ios":"levelo://app?vid=23a2997f-acca-44d1-a72c-cccdd94a796c"},"vehicle_type_id":"4","last_reported":1743444850,"current_range_meters":9600,"station_id":"ce4bgvp2rcd13ifvqct0","pricing_plan_id":"cebpf4jnsgd1na2vs0mg"},{"bike_id":"5203ccbe-ce3c-4351-a8e9-f9ee5ad38a9c","system_id":"levelo_inurba_marseille","lat":43.23204,"lon":5.40001,"is_reserved":false,"is_disabled":false,"rental_uris":{"android":"levelo://app?vid=5203ccbe-ce3c-4351-a8e9-f9ee5ad38a9c","ios":"levelo://app?vid=5203ccbe-ce3c-4351-a8e9-f9ee5ad38a9c"},"vehicle_type_id":"4","last_reported":1743444850,"current_range_meters":9600,"station_id":"ce4bhn12rcd13ifvqgqg","pricing_plan_id":"cebpf4jnsgd1na2vs0mg"},{"bike_id":"5e8b440b-b094-4019-ac54-063bf794cc3b","system_id":"levelo_inurba_marseille","lat":43.29567,"lon":5.42295,"is_reserved":false,"is_disabled":false,"rental_uris":{"android":"levelo://app?vid=5e8b440b-b094-4019-ac54-063bf794cc3b","ios":"levelo://app?vid=5e8b440b-b094-4019-ac54-063bf794cc3b"},"vehicle_type_id":"4","last_reported":1743444850,"current_range_meters":9600,"station_id":"ce4bhph2rcd13ifvqhdg","pricing_plan_id":"cebpf4jnsgd1na2vs0mg"},{"bike_id":"0f8f638f-6c59-4dfb-ab4f-882d40e453aa","system_id":"levelo_inurba_marseille","lat":43.29296,"lon":5.428,"is_reserved":false,"is_disabled":false,"rental_uris":{"android":"levelo://app?vid=0f8f638f-6c59-4dfb-ab4f-882d40e453aa","ios":"levelo://app?vid=0f8f638f-6c59-4dfb-ab4f-882d40e453aa"},"vehicle_type_id":"4","last_reported":1743444850,"current_range_meters":9600,"station_id":"","pricing_plan_id":"cebpf4jnsgd1na2vs0mg"},{"bike_id":"03d4b723-6122-4830-a115-f79089dfa1ad","system_id":"levelo_inurba_marseille","lat":43.30435,"lon":5.39753,"is_reserved":false,"is_disabled":false,"rental_uris":{"android":"levelo://app?vid=03d4b723-6122-4830-a115-f79089dfa1ad","ios":"levelo://app?vid=03d4b723-6122-4830-a115-f79089dfa1ad"},"vehicle_type_id":"4","last_reported":1743444850,"current_range_meters":9600,"station_id":"ce4bh092rcd13ifvqd20","pricing_plan_id":"cebpf4jnsgd1na2vs0mg"},{"bike_id":"75eb16ac-b755-478d-bfb5-2e22abc751f6","system_id":"levelo_inurba_marseille","lat":43.29653,"lon":5.37162,"is_reserved":false,"is_disabled":true,"rental_uris":{"android":"levelo://app?vid=75eb16ac-b755-478d-bfb5-2e22abc751f6","ios":"levelo://app?vid=75eb16ac-b755-478d-bfb5-2e22abc751f6"},"vehicle_type_id":"4","last_reported":1743444850,"current_range_meters":9600,"station_id":"ce4bgnh2rcd13ifvqc0g","pricing_plan_id":"cebpf4jnsgd1na2vs0mg"},{"bike_id":"d454fb38-9af5-424b-9ef1-00b2a0e91c70","system_id":"levelo_inurba_marseille","lat":43.22938,"lon":5.35376,"is_reserved":false,"is_disabled":false,"rental_uris":{"android":"levelo://app?vid=d454fb38-9af5-424b-9ef1-00b2a0e91c70","ios":"levelo://app?vid=d454fb38-9af5-424b-9ef1-00b2a0e91c70"},"vehicle_type_id":"4","last_reported":1743444850,"current_range_meters":9600,"station_id":"cpo3532slgdg3j2ikp40","pricing_plan_id":"cebpf4jnsgd1na2vs0mg"},{"bike_id":"a49051c8-5f06-4471-9ba7-c2f53f6d878a","system_id":"levelo_inurba_marseille","lat":43.28435,"lon":5.35019,"is_reserved":false,"is_disabled":false,"rental_uris":{"android":"levelo://app?vid=a49051c8-5f06-4471-9ba7-c2f53f6d878a","ios":"levelo://app?vid=a49051c8-5f06-4471-9ba7-c2f53f6d878a"},"vehicle_type_id":"4","last_reported":1743444850,"current_range_meters":9600,"station_id":"ce4bhbh2rcd13ifvqepg","pricing_plan_id":"cebpf4jnsgd1na2vs0mg"},{"bike_id":"cd4c796a-dd7d-4683-aa9e-b566ad8e8a64","system_id":"levelo_inurba_marseille","lat":43.28623,"lon":5.35106,"is_reserved":false,"is_disabled":false,"rental_uris":{"android":"levelo://app?vid=cd4c796a-dd7d-4683-aa9e-b566ad8e8a64","ios":"levelo://app?vid=cd4c796a-dd7d-4683-aa9e-b566ad8e8a64"},"vehicle_type_id":"4","last_reported":1743444850,"current_range_meters":9600,"station_id":"ce4bhch2rcd13ifvqeug","pricing_plan_id":"cebpf4jnsgd1na2vs0mg"},{"bike_id":"fbc1c0a9-d425-4eb3-ba26-c96313abb304","system_id":"levelo_inurba_marseille","lat":43.28681,"lon":5.35024,"is_reserved":false,"is_disabled":false,"rental_uris":{"android":"levelo://app?vid=fbc1c0a9-d425-4eb3-ba26-c96313abb304","ios":"levelo://app?vid=fbc1c0a9-d425-4eb3-ba26-c96313abb304"},"vehicle_type_id":"4","last_reported":1743444850,"current_range_meters":9600,"station_id":"","pricing_plan_id":"cebpf4jnsgd1na2vs0mg"},{"bike_id":"65d9fb1c-694d-48ee-ae23-e6087c924372","system_id":"levelo_inurba_marseille","lat":43.30885,"lon":5.39623,"is_reserved":false,"is_disabled":false,"rental_uris":{"android":"levelo://app?vid=65d9fb1c-694d-48ee-ae23-e6087c924372","ios":"levelo://app?vid=65d9fb1c-694d-48ee-ae23-e6087c924372"},"vehicle_type_id":"4","last_reported":1743444850,"current_range_meters":10000,"station_id":"ce4bh012rcd13ifvqcv0","pricing_plan_id":"cebpf4jnsgd1na2vs0mg"},{"bike_id":"28c50237-5276-439e-a27c-3ebd566fba30","system_id":"levelo_inurba_marseille","lat":43.25585,"lon":5.3823,"is_reserved":false,"is_disabled":false,"rental_uris":{"android":"levelo://app?vid=28c50237-5276-439e-a27c-3ebd566fba30","ios":"levelo://app?vid=28c50237-5276-439e-a27c-3ebd566fba30"},"vehicle_type_id":"4","last_reported":1743444850,"current_range_meters":10000,"station_id":"ce4bhih2rcd13ifvqfs0","pricing_plan_id":"cebpf4jnsgd1na2vs0mg"},{"bike_id":"0e5cf204-cc2e-4385-8d19-42195cfe1d22","system_id":"levelo_inurba_marseille","lat":43.30651,"lon":5.40072,"is_reserved":false,"is_disabled":false,"rental_uris":{"android":"levelo://app?vid=0e5cf204-cc2e-4385-8d19-42195cfe1d22","ios":"levelo://app?vid=0e5cf204-cc2e-4385-8d19-42195cfe1d22"},"vehicle_type_id":"4","last_reported":1743444850,"current_range_meters":10000,"station_id":"ce4bh112rcd13ifvqda0","pricing_plan_id":"cebpf4jnsgd1na2vs0mg"},{"bike_id":"2726bfdb-4638-4364-9f4e-00c2e4c7a44d","system_id":"levelo_inurba_marseille","lat":43.32109,"lon":5.36767,"is_reserved":false,"is_disabled":false,"rental_uris":{"android":"levelo://app?vid=2726bfdb-4638-4364-9f4e-00c2e4c7a44d","ios":"levelo://app?vid=2726bfdb-4638-4364-9f4e-00c2e4c7a44d"},"vehicle_type_id":"4","last_reported":1743444850,"current_range_meters":10000,"station_id":"ce4bhrh2rcd13ifvqhug","pricing_plan_id":"cebpf4jnsgd1na2vs0mg"},{"bike_id":"e1892c40-ae37-45d4-bf2c-99665a9e5e63","system_id":"levelo_inurba_marseille","lat":43.22912,"lon":5.3542,"is_reserved":false,"is_disabled":false,"rental_uris":{"android":"levelo://app?vid=e1892c40-ae37-45d4-bf2c-99665a9e5e63","ios":"levelo://app?vid=e1892c40-ae37-45d4-bf2c-99665a9e5e63"},"vehicle_type_id":"4","last_reported":1743444850,"current_range_meters":10000,"station_id":"cpo3532slgdg3j2ikp40","pricing_plan_id":"cebpf4jnsgd1na2vs0mg"},{"bike_id":"0407a65e-5904-41ea-a046-b59d4731e373","system_id":"levelo_inurba_marseille","lat":43.299561,"lon":5.413287,"is_reserved":false,"is_disabled":false,"rental_uris":{"android":"levelo://app?vid=0407a65e-5904-41ea-a046-b59d4731e373","ios":"levelo://app?vid=0407a65e-5904-41ea-a046-b59d4731e373"},"vehicle_type_id":"4","last_reported":1743444850,"current_range_meters":9600,"station_id":"ce4bhb92rcd13ifvqen0","pricing_plan_id":"cebpf4jnsgd1na2vs0mg"},{"bike_id":"f0cf47a2-725c-4cfa-bd4a-14e1fd793fde","system_id":"levelo_inurba_marseille","lat":43.30263,"lon":5.4008,"is_reserved":false,"is_disabled":false,"rental_uris":{"android":"levelo://app?vid=f0cf47a2-725c-4cfa-bd4a-14e1fd793fde","ios":"levelo://app?vid=f0cf47a2-725c-4cfa-bd4a-14e1fd793fde"},"vehicle_type_id":"4","last_reported":1743444850,"current_range_meters":10000,"station_id":"ce4bgvh2rcd13ifvqcs0","pricing_plan_id":"cebpf4jnsgd1na2vs0mg"},{"bike_id":"3198c4c4-4491-43c0-9352-1889fd972130","system_id":"levelo_inurba_marseille","lat":43.240786,"lon":5.377531,"is_reserved":false,"is_disabled":false,"rental_uris":{"android":"levelo://app?vid=3198c4c4-4491-43c0-9352-1889fd972130","ios":"levelo://app?vid=3198c4c4-4491-43c0-9352-1889fd972130"},"vehicle_type_id":"4","last_reported":1743444850,"current_range_meters":10000,"station_id":"ce4bhnp2rcd13ifvqgvg","pricing_plan_id":"cebpf4jnsgd1na2vs0mg"},{"bike_id":"767bfb18-e72f-4dc1-b2a7-61531fb0fe86","system_id":"levelo_inurba_marseille","lat":43.27923,"lon":5.39582,"is_reserved":false,"is_disabled":false,"rental_uris":{"android":"levelo://app?vid=767bfb18-e72f-4dc1-b2a7-61531fb0fe86","ios":"levelo://app?vid=767bfb18-e72f-4dc1-b2a7-61531fb0fe86"},"vehicle_type_id":"4","last_reported":1743444850,"current_range_meters":10000,"station_id":"ce4bhf92rcd13ifvqf40","pricing_plan_id":"cebpf4jnsgd1na2vs0mg"},{"bike_id":"2aca8fdc-6fa7-448c-b273-d3f7e66dc316","system_id":"levelo_inurba_marseille","lat":43.28672,"lon":5.36363,"is_reserved":false,"is_disabled":false,"rental_uris":{"android":"levelo://app?vid=2aca8fdc-6fa7-448c-b273-d3f7e66dc316","ios":"levelo://app?vid=2aca8fdc-6fa7-448c-b273-d3f7e66dc316"},"vehicle_type_id":"4","last_reported":1743444850,"current_range_meters":9600,"station_id":"ce4bhah2rcd13ifvqej0","pricing_plan_id":"cebpf4jnsgd1na2vs0mg"},{"bike_id":"668c01cb-7bea-48c9-8f15-6bcc0c19c832","system_id":"levelo_inurba_marseille","lat":43.2621,"lon":5.37919,"is_reserved":false,"is_disabled":true,"rental_uris":{"android":"levelo://app?vid=668c01cb-7bea-48c9-8f15-6bcc0c19c832","ios":"levelo://app?vid=668c01cb-7bea-48c9-8f15-6bcc0c19c832"},"vehicle_type_id":"4","last_reported":1743444850,"current_range_meters":10800,"station_id":"ce4bhjp2rcd13ifvqg90","pricing_plan_id":"cebpf4jnsgd1na2vs0mg"},{"bike_id":"bdd3d19a-e1ed-431b-9557-013da5c5ed16","system_id":"levelo_inurba_marseille","lat":43.28936,"lon":5.39632,"is_reserved":false,"is_disabled":false,"rental_uris":{"android":"levelo://app?vid=bdd3d19a-e1ed-431b-9557-013da5c5ed16","ios":"levelo://app?vid=bdd3d19a-e1ed-431b-9557-013da5c5ed16"},"vehicle_type_id":"4","last_reported":1743444850,"current_range_meters":10000,"station_id":"ce4bh3h2rcd13ifvqdn0","pricing_plan_id":"cebpf4jnsgd1na2vs0mg"},{"bike_id":"7f7cad7c-2d43-48cf-b13b-373ca6667b4e","system_id":"levelo_inurba_marseille","lat":43.29253,"lon":5.38434,"is_reserved":false,"is_disabled":false,"rental_uris":{"android":"levelo://app?vid=7f7cad7c-2d43-48cf-b13b-373ca6667b4e","ios":"levelo://app?vid=7f7cad7c-2d43-48cf-b13b-373ca6667b4e"},"vehicle_type_id":"4","last_reported":1743444850,"current_range_meters":10800,"station_id":"ce4bh692rcd13ifvqea0","pricing_plan_id":"cebpf4jnsgd1na2vs0mg"},{"bike_id":"397156ba-a229-438d-859c-42be5a8ad922","system_id":"levelo_inurba_marseille","lat":43.24684,"lon":5.38176,"is_reserved":false,"is_disabled":false,"rental_uris":{"android":"levelo://app?vid=397156ba-a229-438d-859c-42be5a8ad922","ios":"levelo://app?vid=397156ba-a229-438d-859c-42be5a8ad922"},"vehicle_type_id":"4","last_reported":1743444850,"current_range_meters":10800,"station_id":"ce4bhih2rcd13ifvqfr0","pricing_plan_id":"cebpf4jnsgd1na2vs0mg"},{"bike_id":"028e195d-4133-438e-b0a0-18cf4716e3b0","system_id":"levelo_inurba_marseille","lat":43.22942,"lon":5.35394,"is_reserved":false,"is_disabled":false,"rental_uris":{"android":"levelo://app?vid=028e195d-4133-438e-b0a0-18cf4716e3b0","ios":"levelo://app?vid=028e195d-4133-438e-b0a0-18cf4716e3b0"},"vehicle_type_id":"4","last_reported":1743444850,"current_range_meters":10800,"station_id":"cpo3532slgdg3j2ikp40","pricing_plan_id":"cebpf4jnsgd1na2vs0mg"},{"bike_id":"781e4fad-e8e0-41bd-9fc7-1331b936d0b1","system_id":"levelo_inurba_marseille","lat":43.28411,"lon":5.34981,"is_reserved":false,"is_disabled":false,"rental_uris":{"android":"levelo://app?vid=781e4fad-e8e0-41bd-9fc7-1331b936d0b1","ios":"levelo://app?vid=781e4fad-e8e0-41bd-9fc7-1331b936d0b1"},"vehicle_type_id":"4","last_reported":1743444850,"current_range_meters":10800,"station_id":"ce4bhbh2rcd13ifvqepg","pricing_plan_id":"cebpf4jnsgd1na2vs0mg"},{"bike_id":"dd26dd24-d727-4d41-88b1-4dba85fc3bfa","system_id":"levelo_inurba_marseille","lat":43.2985,"lon":5.36278,"is_reserved":false,"is_disabled":false,"rental_uris":{"android":"levelo://app?vid=dd26dd24-d727-4d41-88b1-4dba85fc3bfa","ios":"levelo://app?vid=dd26dd24-d727-4d41-88b1-4dba85fc3bfa"},"vehicle_type_id":"4","last_reported":1743444850,"current_range_meters":10800,"station_id":"ce4bgpp2rcd13ifvqc3g","pricing_plan_id":"cebpf4jnsgd1na2vs0mg"},{"bike_id":"60f3c81c-d1a3-4b58-98c9-504f8a0ffc50","system_id":"levelo_inurba_marseille","lat":43.29808,"lon":5.39352,"is_reserved":false,"is_disabled":false,"rental_uris":{"android":"levelo://app?vid=60f3c81c-d1a3-4b58-98c9-504f8a0ffc50","ios":"levelo://app?vid=60f3c81c-d1a3-4b58-98c9-504f8a0ffc50"},"vehicle_type_id":"4","last_reported":1743444850,"current_range_meters":10800,"station_id":"chh1huq6cuj3fo74tm60","pricing_plan_id":"cebpf4jnsgd1na2vs0mg"},{"bike_id":"f3c77245-a33e-4729-9176-9b4c3dd55883","system_id":"levelo_inurba_marseille","lat":43.30346,"lon":5.40445,"is_reserved":false,"is_disabled":false,"rental_uris":{"android":"levelo://app?vid=f3c77245-a33e-4729-9176-9b4c3dd55883","ios":"levelo://app?vid=f3c77245-a33e-4729-9176-9b4c3dd55883"},"vehicle_type_id":"4","last_reported":1743444850,"current_range_meters":11200,"station_id":"ce4bh012rcd13ifvqd10","pricing_plan_id":"cebpf4jnsgd1na2vs0mg"},{"bike_id":"43f8654a-8747-45e9-856c-919f120f6896","system_id":"levelo_inurba_marseille","lat":43.29278,"lon":5.38453,"is_reserved":false,"is_disabled":false,"rental_uris":{"android":"levelo://app?vid=43f8654a-8747-45e9-856c-919f120f6896","ios":"levelo://app?vid=43f8654a-8747-45e9-856c-919f120f6896"},"vehicle_type_id":"4","last_reported":1743444850,"current_range_meters":11200,"station_id":"ce4bh692rcd13ifvqea0","pricing_plan_id":"cebpf4jnsgd1na2vs0mg"},{"bike_id":"02ac7e02-c4a7-4cb5-8891-1bd9b28d523a","system_id":"levelo_inurba_marseille","lat":43.24559,"lon":5.39534,"is_reserved":false,"is_disabled":false,"rental_uris":{"android":"levelo://app?vid=02ac7e02-c4a7-4cb5-8891-1bd9b28d523a","ios":"levelo://app?vid=02ac7e02-c4a7-4cb5-8891-1bd9b28d523a"},"vehicle_type_id":"4","last_reported":1743444850,"current_range_meters":11200,"station_id":"ce4bhlp2rcd13ifvqgjg","pricing_plan_id":"cebpf4jnsgd1na2vs0mg"},{"bike_id":"ac968846-7ac1-4e5f-ac16-924bad63031c","system_id":"levelo_inurba_marseille","lat":43.25134,"lon":5.40307,"is_reserved":false,"is_disabled":false,"rental_uris":{"android":"levelo://app?vid=ac968846-7ac1-4e5f-ac16-924bad63031c","ios":"levelo://app?vid=ac968846-7ac1-4e5f-ac16-924bad63031c"},"vehicle_type_id":"4","last_reported":1743444850,"current_range_meters":10000,"station_id":"ce4bhlh2rcd13ifvqgig","pricing_plan_id":"cebpf4jnsgd1na2vs0mg"},{"bike_id":"3f671c4c-6a96-4ebf-842e-85e46b5e2a6e","system_id":"levelo_inurba_marseille","lat":43.29331,"lon":5.41154,"is_reserved":false,"is_disabled":false,"rental_uris":{"android":"levelo://app?vid=3f671c4c-6a96-4ebf-842e-85e46b5e2a6e","ios":"levelo://app?vid=3f671c4c-6a96-4ebf-842e-85e46b5e2a6e"},"vehicle_type_id":"4","last_reported":1743444850,"current_range_meters":11200,"station_id":"","pricing_plan_id":"cebpf4jnsgd1na2vs0mg"},{"bike_id":"ab6a44cc-9a82-41b9-a1db-0f4c870744d8","system_id":"levelo_inurba_marseille","lat":43.24815,"lon":5.37465,"is_reserved":false,"is_disabled":false,"rental_uris":{"android":"levelo://app?vid=ab6a44cc-9a82-41b9-a1db-0f4c870744d8","ios":"levelo://app?vid=ab6a44cc-9a82-41b9-a1db-0f4c870744d8"},"vehicle_type_id":"4","last_reported":1743444850,"current_range_meters":11200,"station_id":"ce4bhgh2rcd13ifvqfb0","pricing_plan_id":"cebpf4jnsgd1na2vs0mg"},{"bike_id":"32786654-e0a5-4ead-8bb5-f56016b6a3a0","system_id":"levelo_inurba_marseille","lat":43.26089,"lon":5.3938,"is_reserved":false,"is_disabled":false,"rental_uris":{"android":"levelo://app?vid=32786654-e0a5-4ead-8bb5-f56016b6a3a0","ios":"levelo://app?vid=32786654-e0a5-4ead-8bb5-f56016b6a3a0"},"vehicle_type_id":"4","last_reported":1743444850,"current_range_meters":11200,"station_id":"ce4bhh92rcd13ifvqfj0","pricing_plan_id":"cebpf4jnsgd1na2vs0mg"},{"bike_id":"e8a75bd9-f259-49f6-979a-26dd47f7e629","system_id":"levelo_inurba_marseille","lat":43.30133,"lon":5.39892,"is_reserved":false,"is_disabled":false,"rental_uris":{"android":"levelo://app?vid=e8a75bd9-f259-49f6-979a-26dd47f7e629","ios":"levelo://app?vid=e8a75bd9-f259-49f6-979a-26dd47f7e629"},"vehicle_type_id":"4","last_reported":1743444850,"current_range_meters":14000,"station_id":"ce4bh0h2rcd13ifvqd40","pricing_plan_id":"cebpf4jnsgd1na2vs0mg"},{"bike_id":"92fec0f3-ab4c-4c66-bec9-1355474d7528","system_id":"levelo_inurba_marseille","lat":43.30159,"lon":5.39873,"is_reserved":false,"is_disabled":false,"rental_uris":{"android":"levelo://app?vid=92fec0f3-ab4c-4c66-bec9-1355474d7528","ios":"levelo://app?vid=92fec0f3-ab4c-4c66-bec9-1355474d7528"},"vehicle_type_id":"4","last_reported":1743444850,"current_range_meters":11200,"station_id":"ce4bh0h2rcd13ifvqd40","pricing_plan_id":"cebpf4jnsgd1na2vs0mg"},{"bike_id":"e3ed6a7b-116d-4bce-98f8-0c4519635233","system_id":"levelo_inurba_marseille","lat":43.31973,"lon":5.37422,"is_reserved":false,"is_disabled":false,"rental_uris":{"android":"levelo://app?vid=e3ed6a7b-116d-4bce-98f8-0c4519635233","ios":"levelo://app?vid=e3ed6a7b-116d-4bce-98f8-0c4519635233"},"vehicle_type_id":"4","last_reported":1743444850,"current_range_meters":11200,"station_id":"","pricing_plan_id":"cebpf4jnsgd1na2vs0mg"},{"bike_id":"5041e4b5-1c8d-4af1-afdb-55d327c33c67","system_id":"levelo_inurba_marseille","lat":43.28715,"lon":5.37931,"is_reserved":false,"is_disabled":false,"rental_uris":{"android":"levelo://app?vid=5041e4b5-1c8d-4af1-afdb-55d327c33c67","ios":"levelo://app?vid=5041e4b5-1c8d-4af1-afdb-55d327c33c67"},"vehicle_type_id":"4","last_reported":1743444850,"current_range_meters":11200,"station_id":"ce4bh9p2rcd13ifvqec0","pricing_plan_id":"cebpf4jnsgd1na2vs0mg"},{"bike_id":"293e0a1c-a568-42cd-a5b1-2ea4789b5a36","system_id":"levelo_inurba_marseille","lat":43.26575,"lon":5.39006,"is_reserved":false,"is_disabled":false,"rental_uris":{"android":"levelo://app?vid=293e0a1c-a568-42cd-a5b1-2ea4789b5a36","ios":"levelo://app?vid=293e0a1c-a568-42cd-a5b1-2ea4789b5a36"},"vehicle_type_id":"4","last_reported":1743444850,"current_range_meters":11600,"station_id":"ce4bhe12rcd13ifvqf30","pricing_plan_id":"cebpf4jnsgd1na2vs0mg"},{"bike_id":"e05eadd8-8b4e-4e63-87fd-b6c49a0a374a","system_id":"levelo_inurba_marseille","lat":43.293367,"lon":5.371193,"is_reserved":false,"is_disabled":false,"rental_uris":{"android":"levelo://app?vid=e05eadd8-8b4e-4e63-87fd-b6c49a0a374a","ios":"levelo://app?vid=e05eadd8-8b4e-4e63-87fd-b6c49a0a374a"},"vehicle_type_id":"4","last_reported":1743444850,"current_range_meters":11600,"station_id":"ce4bh112rcd13ifvqda0","pricing_plan_id":"cebpf4jnsgd1na2vs0mg"},{"bike_id":"cd0a167f-0f13-45a0-8cdb-afb72e79ba40","system_id":"levelo_inurba_marseille","lat":43.29428,"lon":5.38625,"is_reserved":false,"is_disabled":false,"rental_uris":{"android":"levelo://app?vid=cd0a167f-0f13-45a0-8cdb-afb72e79ba40","ios":"levelo://app?vid=cd0a167f-0f13-45a0-8cdb-afb72e79ba40"},"vehicle_type_id":"4","last_reported":1743444850,"current_range_meters":11600,"station_id":"ce4bh2h2rcd13ifvqdh0","pricing_plan_id":"cebpf4jnsgd1na2vs0mg"},{"bike_id":"37d66346-852f-4666-9909-e228101c2c37","system_id":"levelo_inurba_marseille","lat":43.28277,"lon":5.35066,"is_reserved":false,"is_disabled":false,"rental_uris":{"android":"levelo://app?vid=37d66346-852f-4666-9909-e228101c2c37","ios":"levelo://app?vid=37d66346-852f-4666-9909-e228101c2c37"},"vehicle_type_id":"4","last_reported":1743444850,"current_range_meters":11600,"station_id":"ce4bhbp2rcd13ifvqerg","pricing_plan_id":"cebpf4jnsgd1na2vs0mg"},{"bike_id":"859cde05-d4fe-4038-816a-1d48913c26b6","system_id":"levelo_inurba_marseille","lat":43.28934,"lon":5.38417,"is_reserved":false,"is_disabled":false,"rental_uris":{"android":"levelo://app?vid=859cde05-d4fe-4038-816a-1d48913c26b6","ios":"levelo://app?vid=859cde05-d4fe-4038-816a-1d48913c26b6"},"vehicle_type_id":"4","last_reported":1743444850,"current_range_meters":11200,"station_id":"ce4bh612rcd13ifvqe6g","pricing_plan_id":"cebpf4jnsgd1na2vs0mg"},{"bike_id":"3dd6ba0a-bbaa-4c1a-988a-341dea982c94","system_id":"levelo_inurba_marseille","lat":43.30654,"lon":5.40083,"is_reserved":false,"is_disabled":false,"rental_uris":{"android":"levelo://app?vid=3dd6ba0a-bbaa-4c1a-988a-341dea982c94","ios":"levelo://app?vid=3dd6ba0a-bbaa-4c1a-988a-341dea982c94"},"vehicle_type_id":"4","last_reported":1743444850,"current_range_meters":11600,"station_id":"ce4bh112rcd13ifvqda0","pricing_plan_id":"cebpf4jnsgd1na2vs0mg"},{"bike_id":"d5a0508f-5463-4ba8-be9c-f95dc2b57382","system_id":"levelo_inurba_marseille","lat":43.296801,"lon":5.365873,"is_reserved":false,"is_disabled":false,"rental_uris":{"android":"levelo://app?vid=d5a0508f-5463-4ba8-be9c-f95dc2b57382","ios":"levelo://app?vid=d5a0508f-5463-4ba8-be9c-f95dc2b57382"},"vehicle_type_id":"4","last_reported":1743444850,"current_range_meters":11600,"station_id":"ce4bgn12rcd13ifvqbt0","pricing_plan_id":"cebpf4jnsgd1na2vs0mg"},{"bike_id":"b1c49992-4f34-4848-ba5e-0327ede393af","system_id":"levelo_inurba_marseille","lat":43.3034,"lon":5.40439,"is_reserved":false,"is_disabled":false,"rental_uris":{"android":"levelo://app?vid=b1c49992-4f34-4848-ba5e-0327ede393af","ios":"levelo://app?vid=b1c49992-4f34-4848-ba5e-0327ede393af"},"vehicle_type_id":"4","last_reported":1743444850,"current_range_meters":11600,"station_id":"ce4bh012rcd13ifvqd10","pricing_plan_id":"cebpf4jnsgd1na2vs0mg"},{"bike_id":"3b8ce161-5013-455d-8028-60b62f6e7d74","system_id":"levelo_inurba_marseille","lat":43.30249,"lon":5.4007,"is_reserved":false,"is_disabled":false,"rental_uris":{"android":"levelo://app?vid=3b8ce161-5013-455d-8028-60b62f6e7d74","ios":"levelo://app?vid=3b8ce161-5013-455d-8028-60b62f6e7d74"},"vehicle_type_id":"4","last_reported":1743444850,"current_range_meters":11200,"station_id":"ce4bgvh2rcd13ifvqcs0","pricing_plan_id":"cebpf4jnsgd1na2vs0mg"},{"bike_id":"92965aee-9710-4f32-a1eb-71f668b078b0","system_id":"levelo_inurba_marseille","lat":43.28089,"lon":5.39663,"is_reserved":false,"is_disabled":false,"rental_uris":{"android":"levelo://app?vid=92965aee-9710-4f32-a1eb-71f668b078b0","ios":"levelo://app?vid=92965aee-9710-4f32-a1eb-71f668b078b0"},"vehicle_type_id":"4","last_reported":1743444850,"current_range_meters":11600,"station_id":"ce4bho12rcd13ifvqh2g","pricing_plan_id":"cebpf4jnsgd1na2vs0mg"},{"bike_id":"aab74d31-042f-4eb2-a1f9-21d45dd8e9d2","system_id":"levelo_inurba_marseille","lat":43.3044,"lon":5.39742,"is_reserved":false,"is_disabled":false,"rental_uris":{"android":"levelo://app?vid=aab74d31-042f-4eb2-a1f9-21d45dd8e9d2","ios":"levelo://app?vid=aab74d31-042f-4eb2-a1f9-21d45dd8e9d2"},"vehicle_type_id":"4","last_reported":1743444850,"current_range_meters":11200,"station_id":"ce4bh092rcd13ifvqd20","pricing_plan_id":"cebpf4jnsgd1na2vs0mg"},{"bike_id":"8e26abfc-e37a-4d8f-b797-fdb8dc410389","system_id":"levelo_inurba_marseille","lat":43.31236,"lon":5.36913,"is_reserved":false,"is_disabled":false,"rental_uris":{"android":"levelo://app?vid=8e26abfc-e37a-4d8f-b797-fdb8dc410389","ios":"levelo://app?vid=8e26abfc-e37a-4d8f-b797-fdb8dc410389"},"vehicle_type_id":"4","last_reported":1743444850,"current_range_meters":11600,"station_id":"ce4bgl92rcd13ifvqbq0","pricing_plan_id":"cebpf4jnsgd1na2vs0mg"},{"bike_id":"fd9ec931-0d55-4af5-8aad-ffb44969acaa","system_id":"levelo_inurba_marseille","lat":43.29538,"lon":5.38538,"is_reserved":false,"is_disabled":false,"rental_uris":{"android":"levelo://app?vid=fd9ec931-0d55-4af5-8aad-ffb44969acaa","ios":"levelo://app?vid=fd9ec931-0d55-4af5-8aad-ffb44969acaa"},"vehicle_type_id":"4","last_reported":1743444850,"current_range_meters":12000,"station_id":"ce4bgih2rcd13ifvqba0","pricing_plan_id":"cebpf4jnsgd1na2vs0mg"},{"bike_id":"bc2731c5-d1f1-4f43-bf16-ed3324b6f121","system_id":"levelo_inurba_marseille","lat":43.27958,"lon":5.41046,"is_reserved":false,"is_disabled":true,"rental_uris":{"android":"levelo://app?vid=bc2731c5-d1f1-4f43-bf16-ed3324b6f121","ios":"levelo://app?vid=bc2731c5-d1f1-4f43-bf16-ed3324b6f121"},"vehicle_type_id":"4","last_reported":1743444850,"current_range_meters":12000,"station_id":"ce4bhnp2rcd13ifvqh0g","pricing_plan_id":"cebpf4jnsgd1na2vs0mg"},{"bike_id":"ec5fa713-f7d4-45fe-aed2-e0940dc48d3b","system_id":"levelo_inurba_marseille","lat":43.28629,"lon":5.35112,"is_reserved":false,"is_disabled":false,"rental_uris":{"android":"levelo://app?vid=ec5fa713-f7d4-45fe-aed2-e0940dc48d3b","ios":"levelo://app?vid=ec5fa713-f7d4-45fe-aed2-e0940dc48d3b"},"vehicle_type_id":"4","last_reported":1743444850,"current_range_meters":12000,"station_id":"ce4bhch2rcd13ifvqeug","pricing_plan_id":"cebpf4jnsgd1na2vs0mg"},{"bike_id":"7638639e-89a0-4bf2-bc41-61a421ee10dd","system_id":"levelo_inurba_marseille","lat":43.23195,"lon":5.39991,"is_reserved":false,"is_disabled":false,"rental_uris":{"android":"levelo://app?vid=7638639e-89a0-4bf2-bc41-61a421ee10dd","ios":"levelo://app?vid=7638639e-89a0-4bf2-bc41-61a421ee10dd"},"vehicle_type_id":"4","last_reported":1743444850,"current_range_meters":12000,"station_id":"ce4bhn12rcd13ifvqgqg","pricing_plan_id":"cebpf4jnsgd1na2vs0mg"},{"bike_id":"b608855d-4db6-4537-ad42-2ce8a35d8326","system_id":"levelo_inurba_marseille","lat":43.28408,"lon":5.3499,"is_reserved":false,"is_disabled":false,"rental_uris":{"android":"levelo://app?vid=b608855d-4db6-4537-ad42-2ce8a35d8326","ios":"levelo://app?vid=b608855d-4db6-4537-ad42-2ce8a35d8326"},"vehicle_type_id":"4","last_reported":1743444850,"current_range_meters":12400,"station_id":"ce4bhbh2rcd13ifvqepg","pricing_plan_id":"cebpf4jnsgd1na2vs0mg"},{"bike_id":"423a1286-677b-4207-b068-1c03de793d79","system_id":"levelo_inurba_marseille","lat":43.286848,"lon":5.374508,"is_reserved":false,"is_disabled":false,"rental_uris":{"android":"levelo://app?vid=423a1286-677b-4207-b068-1c03de793d79","ios":"levelo://app?vid=423a1286-677b-4207-b068-1c03de793d79"},"vehicle_type_id":"4","last_reported":1743444850,"current_range_meters":12400,"station_id":"ce4bh3p2rcd13ifvqdq0","pricing_plan_id":"cebpf4jnsgd1na2vs0mg"},{"bike_id":"10d1f351-b014-40bf-8786-7ad3378f11b7","system_id":"levelo_inurba_marseille","lat":43.29542,"lon":5.38532,"is_reserved":false,"is_disabled":false,"rental_uris":{"android":"levelo://app?vid=10d1f351-b014-40bf-8786-7ad3378f11b7","ios":"levelo://app?vid=10d1f351-b014-40bf-8786-7ad3378f11b7"},"vehicle_type_id":"4","last_reported":1743444850,"current_range_meters":12400,"station_id":"ce4bgih2rcd13ifvqba0","pricing_plan_id":"cebpf4jnsgd1na2vs0mg"},{"bike_id":"e1c100de-a8ea-4038-8c81-fe8c94cc6ac4","system_id":"levelo_inurba_marseille","lat":43.29005,"lon":5.35607,"is_reserved":false,"is_disabled":false,"rental_uris":{"android":"levelo://app?vid=e1c100de-a8ea-4038-8c81-fe8c94cc6ac4","ios":"levelo://app?vid=e1c100de-a8ea-4038-8c81-fe8c94cc6ac4"},"vehicle_type_id":"4","last_reported":1743444850,"current_range_meters":12400,"station_id":"ce4bhb92rcd13ifvqen0","pricing_plan_id":"cebpf4jnsgd1na2vs0mg"},{"bike_id":"06d0a935-e01a-466e-936f-0b8f28d4d875","system_id":"levelo_inurba_marseille","lat":43.29044,"lon":5.359255,"is_reserved":false,"is_disabled":false,"rental_uris":{"android":"levelo://app?vid=06d0a935-e01a-466e-936f-0b8f28d4d875","ios":"levelo://app?vid=06d0a935-e01a-466e-936f-0b8f28d4d875"},"vehicle_type_id":"4","last_reported":1743444850,"current_range_meters":12400,"station_id":"ce4bha92rcd13ifvqeg0","pricing_plan_id":"cebpf4jnsgd1na2vs0mg"},{"bike_id":"81e21842-93a8-44ce-9ce9-5aa6fa157347","system_id":"levelo_inurba_marseille","lat":43.29963,"lon":5.39787,"is_reserved":false,"is_disabled":false,"rental_uris":{"android":"levelo://app?vid=81e21842-93a8-44ce-9ce9-5aa6fa157347","ios":"levelo://app?vid=81e21842-93a8-44ce-9ce9-5aa6fa157347"},"vehicle_type_id":"4","last_reported":1743444850,"current_range_meters":12400,"station_id":"","pricing_plan_id":"cebpf4jnsgd1na2vs0mg"},{"bike_id":"9599cdcc-c527-4abb-a292-1ae172d9bc66","system_id":"levelo_inurba_marseille","lat":43.23965,"lon":5.36629,"is_reserved":false,"is_disabled":false,"rental_uris":{"android":"levelo://app?vid=9599cdcc-c527-4abb-a292-1ae172d9bc66","ios":"levelo://app?vid=9599cdcc-c527-4abb-a292-1ae172d9bc66"},"vehicle_type_id":"4","last_reported":1743444850,"current_range_meters":12400,"station_id":"ce4bhi12rcd13ifvqfp0","pricing_plan_id":"cebpf4jnsgd1na2vs0mg"},{"bike_id":"e2757d39-ce68-41c8-87e6-83a9f1741f35","system_id":"levelo_inurba_marseille","lat":43.30609,"lon":5.37213,"is_reserved":false,"is_disabled":true,"rental_uris":{"android":"levelo://app?vid=e2757d39-ce68-41c8-87e6-83a9f1741f35","ios":"levelo://app?vid=e2757d39-ce68-41c8-87e6-83a9f1741f35"},"vehicle_type_id":"4","last_reported":1743444850,"current_range_meters":12400,"station_id":"ce4bgqh2rcd13ifvqc4g","pricing_plan_id":"cebpf4jnsgd1na2vs0mg"},{"bike_id":"cf33ccf2-3f36-4fa7-9feb-cb33a1127d53","system_id":"levelo_inurba_marseille","lat":43.31693,"lon":5.40452,"is_reserved":false,"is_disabled":false,"rental_uris":{"android":"levelo://app?vid=cf33ccf2-3f36-4fa7-9feb-cb33a1127d53","ios":"levelo://app?vid=cf33ccf2-3f36-4fa7-9feb-cb33a1127d53"},"vehicle_type_id":"4","last_reported":1743444850,"current_range_meters":12400,"station_id":"ce4bh012rcd13ifvqd00","pricing_plan_id":"cebpf4jnsgd1na2vs0mg"},{"bike_id":"0ba10147-11c9-461f-a9d2-692c728292c6","system_id":"levelo_inurba_marseille","lat":43.29789,"lon":5.37093,"is_reserved":false,"is_disabled":false,"rental_uris":{"android":"levelo://app?vid=0ba10147-11c9-461f-a9d2-692c728292c6","ios":"levelo://app?vid=0ba10147-11c9-461f-a9d2-692c728292c6"},"vehicle_type_id":"4","last_reported":1743444850,"current_range_meters":12800,"station_id":"ce4bgop2rcd13ifvqc1g","pricing_plan_id":"cebpf4jnsgd1na2vs0mg"},{"bike_id":"7a894edd-a4a4-40de-8b70-ca9fb3d5e3fd","system_id":"levelo_inurba_marseille","lat":43.31086,"lon":5.42439,"is_reserved":false,"is_disabled":false,"rental_uris":{"android":"levelo://app?vid=7a894edd-a4a4-40de-8b70-ca9fb3d5e3fd","ios":"levelo://app?vid=7a894edd-a4a4-40de-8b70-ca9fb3d5e3fd"},"vehicle_type_id":"4","last_reported":1743444850,"current_range_meters":12800,"station_id":"ce4bhp92rcd13ifvqhag","pricing_plan_id":"cebpf4jnsgd1na2vs0mg"},{"bike_id":"a8eb163c-68af-44fb-87b3-fe123ec8f05a","system_id":"levelo_inurba_marseille","lat":43.31372,"lon":5.36722,"is_reserved":false,"is_disabled":false,"rental_uris":{"android":"levelo://app?vid=a8eb163c-68af-44fb-87b3-fe123ec8f05a","ios":"levelo://app?vid=a8eb163c-68af-44fb-87b3-fe123ec8f05a"},"vehicle_type_id":"4","last_reported":1743444850,"current_range_meters":12800,"station_id":"ce4bgr92rcd13ifvqc6g","pricing_plan_id":"cebpf4jnsgd1na2vs0mg"},{"bike_id":"9b8c5fd5-fb73-4dce-9f58-6428817289bc","system_id":"levelo_inurba_marseille","lat":43.29585,"lon":5.36738,"is_reserved":false,"is_disabled":false,"rental_uris":{"android":"levelo://app?vid=9b8c5fd5-fb73-4dce-9f58-6428817289bc","ios":"levelo://app?vid=9b8c5fd5-fb73-4dce-9f58-6428817289bc"},"vehicle_type_id":"4","last_reported":1743444850,"current_range_meters":12400,"station_id":"ce4bgph2rcd13ifvqc2g","pricing_plan_id":"cebpf4jnsgd1na2vs0mg"},{"bike_id":"a84bd434-85c3-4450-9ec8-fb19cb565dee","system_id":"levelo_inurba_marseille","lat":43.29252,"lon":5.40895,"is_reserved":false,"is_disabled":false,"rental_uris":{"android":"levelo://app?vid=a84bd434-85c3-4450-9ec8-fb19cb565dee","ios":"levelo://app?vid=a84bd434-85c3-4450-9ec8-fb19cb565dee"},"vehicle_type_id":"4","last_reported":1743444850,"current_range_meters":12800,"station_id":"ce4bh192rcd13ifvqdc0","pricing_plan_id":"cebpf4jnsgd1na2vs0mg"},{"bike_id":"fb330d9d-b521-42be-9b9e-54213fb8b5a0","system_id":"levelo_inurba_marseille","lat":43.291981,"lon":5.358112,"is_reserved":false,"is_disabled":false,"rental_uris":{"android":"levelo://app?vid=fb330d9d-b521-42be-9b9e-54213fb8b5a0","ios":"levelo://app?vid=fb330d9d-b521-42be-9b9e-54213fb8b5a0"},"vehicle_type_id":"4","last_reported":1743444850,"current_range_meters":12400,"station_id":"ce4bh392rcd13ifvqdl0","pricing_plan_id":"cebpf4jnsgd1na2vs0mg"},{"bike_id":"99e69f7d-4975-49d0-a459-f74a01cb8917","system_id":"levelo_inurba_marseille","lat":43.28872,"lon":5.35866,"is_reserved":false,"is_disabled":false,"rental_uris":{"android":"levelo://app?vid=99e69f7d-4975-49d0-a459-f74a01cb8917","ios":"levelo://app?vid=99e69f7d-4975-49d0-a459-f74a01cb8917"},"vehicle_type_id":"4","last_reported":1743444850,"current_range_meters":12800,"station_id":"ce4bhb12rcd13ifvqem0","pricing_plan_id":"cebpf4jnsgd1na2vs0mg"},{"bike_id":"af7cee10-2751-422a-b7b3-1dc9d1052e6c","system_id":"levelo_inurba_marseille","lat":43.28547,"lon":5.39525,"is_reserved":false,"is_disabled":false,"rental_uris":{"android":"levelo://app?vid=af7cee10-2751-422a-b7b3-1dc9d1052e6c","ios":"levelo://app?vid=af7cee10-2751-422a-b7b3-1dc9d1052e6c"},"vehicle_type_id":"4","last_reported":1743444850,"current_range_meters":12400,"station_id":"ce4bh292rcd13ifvqdg0","pricing_plan_id":"cebpf4jnsgd1na2vs0mg"},{"bike_id":"87304c8a-53f6-45f9-98cc-415e4d7a95a5","system_id":"levelo_inurba_marseille","lat":43.23176,"lon":5.3999,"is_reserved":false,"is_disabled":false,"rental_uris":{"android":"levelo://app?vid=87304c8a-53f6-45f9-98cc-415e4d7a95a5","ios":"levelo://app?vid=87304c8a-53f6-45f9-98cc-415e4d7a95a5"},"vehicle_type_id":"4","last_reported":1743444850,"current_range_meters":12800,"station_id":"ce4bhn12rcd13ifvqgqg","pricing_plan_id":"cebpf4jnsgd1na2vs0mg"},{"bike_id":"0dd3a5d7-4b17-48d9-8e27-71d9609b80fa","system_id":"levelo_inurba_marseille","lat":43.28419,"lon":5.34996,"is_reserved":false,"is_disabled":false,"rental_uris":{"android":"levelo://app?vid=0dd3a5d7-4b17-48d9-8e27-71d9609b80fa","ios":"levelo://app?vid=0dd3a5d7-4b17-48d9-8e27-71d9609b80fa"},"vehicle_type_id":"4","last_reported":1743444850,"current_range_meters":13600,"station_id":"ce4bhbh2rcd13ifvqepg","pricing_plan_id":"cebpf4jnsgd1na2vs0mg"},{"bike_id":"976eb18e-1098-4887-b025-e691a51d23d9","system_id":"levelo_inurba_marseille","lat":43.23189,"lon":5.39983,"is_reserved":false,"is_disabled":false,"rental_uris":{"android":"levelo://app?vid=976eb18e-1098-4887-b025-e691a51d23d9","ios":"levelo://app?vid=976eb18e-1098-4887-b025-e691a51d23d9"},"vehicle_type_id":"4","last_reported":1743444850,"current_range_meters":13600,"station_id":"ce4bhn12rcd13ifvqgqg","pricing_plan_id":"cebpf4jnsgd1na2vs0mg"},{"bike_id":"fc3f1bab-c0cd-477a-a29b-dacb4a8296dc","system_id":"levelo_inurba_marseille","lat":43.31362,"lon":5.38501,"is_reserved":false,"is_disabled":false,"rental_uris":{"android":"levelo://app?vid=fc3f1bab-c0cd-477a-a29b-dacb4a8296dc","ios":"levelo://app?vid=fc3f1bab-c0cd-477a-a29b-dacb4a8296dc"},"vehicle_type_id":"4","last_reported":1743444850,"current_range_meters":12800,"station_id":"ce4bgt92rcd13ifvqcf0","pricing_plan_id":"cebpf4jnsgd1na2vs0mg"},{"bike_id":"e6d18d2d-c2ab-4a77-93f5-f34c0cd7e602","system_id":"levelo_inurba_marseille","lat":43.29266,"lon":5.38437,"is_reserved":false,"is_disabled":false,"rental_uris":{"android":"levelo://app?vid=e6d18d2d-c2ab-4a77-93f5-f34c0cd7e602","ios":"levelo://app?vid=e6d18d2d-c2ab-4a77-93f5-f34c0cd7e602"},"vehicle_type_id":"4","last_reported":1743444850,"current_range_meters":13600,"station_id":"ce4bh692rcd13ifvqea0","pricing_plan_id":"cebpf4jnsgd1na2vs0mg"},{"bike_id":"35460d34-8ea1-4d1d-bf4b-3c37492b1367","system_id":"levelo_inurba_marseille","lat":43.28422,"lon":5.34988,"is_reserved":false,"is_disabled":false,"rental_uris":{"android":"levelo://app?vid=35460d34-8ea1-4d1d-bf4b-3c37492b1367","ios":"levelo://app?vid=35460d34-8ea1-4d1d-bf4b-3c37492b1367"},"vehicle_type_id":"4","last_reported":1743444850,"current_range_meters":13600,"station_id":"ce4bhbh2rcd13ifvqepg","pricing_plan_id":"cebpf4jnsgd1na2vs0mg"},{"bike_id":"7c20bcf3-2c0b-40fe-9794-c032addbb4b0","system_id":"levelo_inurba_marseille","lat":43.29005,"lon":5.35604,"is_reserved":false,"is_disabled":false,"rental_uris":{"android":"levelo://app?vid=7c20bcf3-2c0b-40fe-9794-c032addbb4b0","ios":"levelo://app?vid=7c20bcf3-2c0b-40fe-9794-c032addbb4b0"},