{"last_updated":1729188661,"ttl":60,"version":"2.2","data":{"bikes":[{"bike_id":"ad3740dd-d1ed-4d39-a629-64e6b998150a","system_id":"levelo_inurba_marseille","lat":43.25114,"lon":5.40331,"is_reserved":false,"is_disabled":false,"rental_uris":{"android":"levelo://app?vid=ad3740dd-d1ed-4d39-a629-64e6b998150a","ios":"levelo://app?vid=ad3740dd-d1ed-4d39-a629-64e6b998150a"},"vehicle_type_id":"4","last_reported":1729188662,"current_range_meters":19600,"station_id":"ce4bhlh2rcd13ifvqgig","pricing_plan_id":"cebpf4jnsgd1na2vs0mg"},{"bike_id":"8f355697-e1aa-42aa-83d9-207d0aa44914","system_id":"levelo_inurba_marseille","lat":43.29729,"lon":5.37689,"is_reserved":false,"is_disabled":false,"rental_uris":{"android":"levelo://app?vid=8f355697-e1aa-42aa-83d9-207d0aa44914","ios":"levelo://app?vid=8f355697-e1aa-42aa-83d9-207d0aa44914"},"vehicle_type_id":"4","last_reported":1729188662,"current_range_meters":38800,"station_id":"ce4bgkh2rcd13ifvqbl0","pricing_plan_id":"cebpf4jnsgd1na2vs0mg"},{"bike_id":"78b7cb3b-80c9-48b4-a04e-17032e221c41","system_id":"levelo_inurba_marseille","lat":43.3176,"lon":5.39025,"is_reserved":false,"is_disabled":false,"rental_uris":{"android":"levelo://app?vid=78b7cb3b-80c9-48b4-a04e-17032e221c41","ios":"levelo://app?vid=78b7cb3b-80c9-48b4-a04e-17032e221c41"},"vehicle_type_id":"4","last_reported":1729188662,"current_range_meters":32800,"station_id":"ce4bhqp2rcd13ifvqhng","pricing_plan_id":"cebpf4jnsgd1na2vs0mg"},{"bike_id":"676ec6c4-6b42-43e0-81fe-327782965da5","system_id":"levelo_inurba_marseille","lat":43.33765,"lon":5.37484,"is_reserved":false,"is_disabled":false,"rental_uris":{"android":"levelo://app?vid=676ec6c4-6b42-43e0-81fe-327782965da5","ios":"levelo://app?vid=676ec6c4-6b42-43e0-81fe-327782965da5"},"vehicle_type_id":"4","last_reported":1729188662,"current_range_meters":21600,"station_id":"","pricing_plan_id":"cebpf4jnsgd1na2vs0mg"},{"bike_id":"5f53c8d6-6371-4ddf-b622-adc31204ed28","system_id":"levelo_inurba_marseille","lat":43.33551,"lon":5.41029,"is_reserved":false,"is_disabled":false,"rental_uris":{"android":"levelo://app?vid=5f53c8d6-6371-4ddf-b622-adc31204ed28","ios":"levelo://app?vid=5f53c8d6-6371-4ddf-b622-adc31204ed28"},"vehicle_type_id":"4","last_reported":1729188662,"current_range_meters":6000,"station_id":"","pricing_plan_id":"cebpf4jnsgd1na2vs0mg"},{"bike_id":"468ee845-12e0-4809-ac44-2cf45923d150","system_id":"levelo_inurba_marseille","lat":43.29681,"lon":5.37291,"is_reserved":false,"is_disabled":false,"rental_uris":{"android":"levelo://app?vid=468ee845-12e0-4809-ac44-2cf45923d150","ios":"levelo://app?vid=468ee845-12e0-4809-ac44-2cf45923d150"},"vehicle_type_id":"4","last_reported":1729188662,"current_range_meters":38000,"station_id":"ce4bgk12rcd13ifvqbj0","pricing_plan_id":"cebpf4jnsgd1na2vs0mg"},{"bike_id":"28240cb2-1277-4a57-a9e1-8d820dc4bf79","system_id":"levelo_inurba_marseille","lat":43.27067,"lon":5.42281,"is_reserved":false,"is_disabled":false,"rental_uris":{"android":"levelo://app?vid=28240cb2-1277-4a57-a9e1-8d820dc4bf79","ios":"levelo://app?vid=28240cb2-1277-4a57-a9e1-8d820dc4bf79"},"vehicle_type_id":"4","last_reported":1729188662,"current_range_meters":6400,"station_id":"ce4bhk92rcd13ifvqgb0","pricing_plan_id":"cebpf4jnsgd1na2vs0mg"},{"bike_id":"a197b021-dd74-482e-a732-42d0cf90c00d","system_id":"levelo_inurba_marseille","lat":43.31085,"lon":5.42436,"is_reserved":false,"is_disabled":false,"rental_uris":{"android":"levelo://app?vid=a197b021-dd74-482e-a732-42d0cf90c00d","ios":"levelo://app?vid=a197b021-dd74-482e-a732-42d0cf90c00d"},"vehicle_type_id":"4","last_reported":1729188662,"current_range_meters":9200,"station_id":"ce4bhp92rcd13ifvqhag","pricing_plan_id":"cebpf4jnsgd1na2vs0mg"},{"bike_id":"7d6759b7-5143-4f9a-9166-ec0f2a679981","system_id":"levelo_inurba_marseille","lat":43.31361,"lon":5.38499,"is_reserved":false,"is_disabled":false,"rental_uris":{"android":"levelo://app?vid=7d6759b7-5143-4f9a-9166-ec0f2a679981","ios":"levelo://app?vid=7d6759b7-5143-4f9a-9166-ec0f2a679981"},"vehicle_type_id":"4","last_reported":1729188662,"current_range_meters":36000,"station_id":"ce4bgt92rcd13ifvqcf0","pricing_plan_id":"cebpf4jnsgd1na2vs0mg"},{"bike_id":"a7a9c125-54d9-440d-847f-49ac30798c25","system_id":"levelo_inurba_marseille","lat":43.31175,"lon":5.38717,"is_reserved":false,"is_disabled":false,"rental_uris":{"android":"levelo://app?vid=a7a9c125-54d9-440d-847f-49ac30798c25","ios":"levelo://app?vid=a7a9c125-54d9-440d-847f-49ac30798c25"},"vehicle_type_id":"4","last_reported":1729188662,"current_range_meters":39200,"station_id":"ce4bgv12rcd13ifvqcp0","pricing_plan_id":"cebpf4jnsgd1na2vs0mg"},{"bike_id":"90980213-7ada-4ce3-9e74-ac791cb54c2d","system_id":"levelo_inurba_marseille","lat":43.28464,"lon":5.35884,"is_reserved":false,"is_disabled":false,"rental_uris":{"android":"levelo://app?vid=90980213-7ada-4ce3-9e74-ac791cb54c2d","ios":"levelo://app?vid=90980213-7ada-4ce3-9e74-ac791cb54c2d"},"vehicle_type_id":"4","last_reported":1729188662,"current_range_meters":4800,"station_id":"ce4bhah2rcd13ifvqei0","pricing_plan_id":"cebpf4jnsgd1na2vs0mg"},{"bike_id":"3f66dd1c-9be6-4b94-886c-d04770b03feb","system_id":"levelo_inurba_marseille","lat":43.33024,"lon":5.39039,"is_reserved":false,"is_disabled":false,"rental_uris":{"android":"levelo://app?vid=3f66dd1c-9be6-4b94-886c-d04770b03feb","ios":"levelo://app?vid=3f66dd1c-9be6-4b94-886c-d04770b03feb"},"vehicle_type_id":"4","last_reported":1729188662,"current_range_meters":6000,"station_id":"ce4bhr92rcd13ifvqhrg","pricing_plan_id":"cebpf4jnsgd1na2vs0mg"},{"bike_id":"f007d8fd-5fb4-4dc0-b2f7-a68b1d39079e","system_id":"levelo_inurba_marseille","lat":43.27369,"lon":5.36254,"is_reserved":false,"is_disabled":false,"rental_uris":{"android":"levelo://app?vid=f007d8fd-5fb4-4dc0-b2f7-a68b1d39079e","ios":"levelo://app?vid=f007d8fd-5fb4-4dc0-b2f7-a68b1d39079e"},"vehicle_type_id":"4","last_reported":1729188662,"current_range_meters":38800,"station_id":"ce4bhbh2rcd13ifvqeo0","pricing_plan_id":"cebpf4jnsgd1na2vs0mg"},{"bike_id":"8f240fc8-2588-4504-b4c3-3c300a57147f","system_id":"levelo_inurba_marseille","lat":43.28984,"lon":5.37838,"is_reserved":false,"is_disabled":false,"rental_uris":{"android":"levelo://app?vid=8f240fc8-2588-4504-b4c3-3c300a57147f","ios":"levelo://app?vid=8f240fc8-2588-4504-b4c3-3c300a57147f"},"vehicle_type_id":"4","last_reported":1729188662,"current_range_meters":37600,"station_id":"ce4bh9p2rcd13ifvqed0","pricing_plan_id":"cebpf4jnsgd1na2vs0mg"},{"bike_id":"29689e71-334c-4200-aca7-1d7023ddf226","system_id":"levelo_inurba_marseille","lat":43.32287,"lon":5.3828,"is_reserved":false,"is_disabled":false,"rental_uris":{"android":"levelo://app?vid=29689e71-334c-4200-aca7-1d7023ddf226","ios":"levelo://app?vid=29689e71-334c-4200-aca7-1d7023ddf226"},"vehicle_type_id":"4","last_reported":1729188662,"current_range_meters":37600,"station_id":"ce4bhr12rcd13ifvqhqg","pricing_plan_id":"cebpf4jnsgd1na2vs0mg"},{"bike_id":"0e9ad9af-e89b-412e-a7df-344fe8f113f7","system_id":"levelo_inurba_marseille","lat":43.25007,"lon":5.38927,"is_reserved":false,"is_disabled":false,"rental_uris":{"android":"levelo://app?vid=0e9ad9af-e89b-412e-a7df-344fe8f113f7","ios":"levelo://app?vid=0e9ad9af-e89b-412e-a7df-344fe8f113f7"},"vehicle_type_id":"4","last_reported":1729188662,"current_range_meters":34000,"station_id":"ce4bhgp2rcd13ifvqfd0","pricing_plan_id":"cebpf4jnsgd1na2vs0mg"},{"bike_id":"346fab87-1077-4d6b-8a9d-69a42efcf743","system_id":"levelo_inurba_marseille","lat":43.27498,"lon":5.42454,"is_reserved":false,"is_disabled":false,"rental_uris":{"android":"levelo://app?vid=346fab87-1077-4d6b-8a9d-69a42efcf743","ios":"levelo://app?vid=346fab87-1077-4d6b-8a9d-69a42efcf743"},"vehicle_type_id":"4","last_reported":1729188662,"current_range_meters":7200,"station_id":"ce4bhn92rcd13ifvqgrg","pricing_plan_id":"cebpf4jnsgd1na2vs0mg"},{"bike_id":"69b82cb4-9cb7-487d-bddc-2672459fd16e","system_id":"levelo_inurba_marseille","lat":43.29683,"lon":5.37301,"is_reserved":false,"is_disabled":false,"rental_uris":{"android":"levelo://app?vid=69b82cb4-9cb7-487d-bddc-2672459fd16e","ios":"levelo://app?vid=69b82cb4-9cb7-487d-bddc-2672459fd16e"},"vehicle_type_id":"4","last_reported":1729188662,"current_range_meters":33600,"station_id":"ce4bgk12rcd13ifvqbj0","pricing_plan_id":"cebpf4jnsgd1na2vs0mg"},{"bike_id":"28e7786b-0be2-4248-8a5d-c718eaea8782","system_id":"levelo_inurba_marseille","lat":43.28456,"lon":5.35889,"is_reserved":false,"is_disabled":false,"rental_uris":{"android":"levelo://app?vid=28e7786b-0be2-4248-8a5d-c718eaea8782","ios":"levelo://app?vid=28e7786b-0be2-4248-8a5d-c718eaea8782"},"vehicle_type_id":"4","last_reported":1729188662,"current_range_meters":37600,"station_id":"ce4bhah2rcd13ifvqei0","pricing_plan_id":"cebpf4jnsgd1na2vs0mg"},{"bike_id":"04351ce7-e69a-460f-974f-fc884239fbaf","system_id":"levelo_inurba_marseille","lat":43.28259,"lon":5.35061,"is_reserved":false,"is_disabled":false,"rental_uris":{"android":"levelo://app?vid=04351ce7-e69a-460f-974f-fc884239fbaf","ios":"levelo://app?vid=04351ce7-e69a-460f-974f-fc884239fbaf"},"vehicle_type_id":"4","last_reported":1729188662,"current_range_meters":38800,"station_id":"ce4bhbp2rcd13ifvqerg","pricing_plan_id":"cebpf4jnsgd1na2vs0mg"},{"bike_id":"58f1231d-871d-4dfd-8ffe-5d8f562d27ee","system_id":"levelo_inurba_marseille","lat":43.29551,"lon":5.42292,"is_reserved":false,"is_disabled":false,"rental_uris":{"android":"levelo://app?vid=58f1231d-871d-4dfd-8ffe-5d8f562d27ee","ios":"levelo://app?vid=58f1231d-871d-4dfd-8ffe-5d8f562d27ee"},"vehicle_type_id":"4","last_reported":1729188662,"current_range_meters":12400,"station_id":"ce4bhph2rcd13ifvqhdg","pricing_plan_id":"cebpf4jnsgd1na2vs0mg"},{"bike_id":"4ae2c184-8c50-452d-87fb-8f7bf4f540f3","system_id":"levelo_inurba_marseille","lat":43.24656,"lon":5.38897,"is_reserved":false,"is_disabled":false,"rental_uris":{"android":"levelo://app?vid=4ae2c184-8c50-452d-87fb-8f7bf4f540f3","ios":"levelo://app?vid=4ae2c184-8c50-452d-87fb-8f7bf4f540f3"},"vehicle_type_id":"4","last_reported":1729188662,"current_range_meters":38800,"station_id":"ce4bhg12rcd13ifvqf60","pricing_plan_id":"cebpf4jnsgd1na2vs0mg"},{"bike_id":"791641b8-dabe-4982-982b-c8e7fc7abd5d","system_id":"levelo_inurba_marseille","lat":43.25118,"lon":5.40321,"is_reserved":false,"is_disabled":false,"rental_uris":{"android":"levelo://app?vid=791641b8-dabe-4982-982b-c8e7fc7abd5d","ios":"levelo://app?vid=791641b8-dabe-4982-982b-c8e7fc7abd5d"},"vehicle_type_id":"4","last_reported":1729188662,"current_range_meters":14400,"station_id":"ce4bhlh2rcd13ifvqgig","pricing_plan_id":"cebpf4jnsgd1na2vs0mg"},{"bike_id":"1a934f0c-9473-4346-9671-65f0e0bafe0f","system_id":"levelo_inurba_marseille","lat":43.28455,"lon":5.35888,"is_reserved":false,"is_disabled":false,"rental_uris":{"android":"levelo://app?vid=1a934f0c-9473-4346-9671-65f0e0bafe0f","ios":"levelo://app?vid=1a934f0c-9473-4346-9671-65f0e0bafe0f"},"vehicle_type_id":"4","last_reported":1729188662,"current_range_meters":32400,"station_id":"ce4bhah2rcd13ifvqei0","pricing_plan_id":"cebpf4jnsgd1na2vs0mg"},{"bike_id":"7668ac82-f874-422b-bc29-d2ba352a44eb","system_id":"levelo_inurba_marseille","lat":43.25112,"lon":5.40325,"is_reserved":false,"is_disabled":false,"rental_uris":{"android":"levelo://app?vid=7668ac82-f874-422b-bc29-d2ba352a44eb","ios":"levelo://app?vid=7668ac82-f874-422b-bc29-d2ba352a44eb"},"vehicle_type_id":"4","last_reported":1729188662,"current_range_meters":38800,"station_id":"ce4bhlh2rcd13ifvqgig","pricing_plan_id":"cebpf4jnsgd1na2vs0mg"},{"bike_id":"5a4320fd-668e-47a8-9a0f-748e783877c2","system_id":"levelo_inurba_marseille","lat":43.31709,"lon":5.43715,"is_reserved":false,"is_disabled":false,"rental_uris":{"android":"levelo://app?vid=5a4320fd-668e-47a8-9a0f-748e783877c2","ios":"levelo://app?vid=5a4320fd-668e-47a8-9a0f-748e783877c2"},"vehicle_type_id":"4","last_reported":1729188662,"current_range_meters":20000,"station_id":"ce4bhp92rcd13ifvqhcg","pricing_plan_id":"cebpf4jnsgd1na2vs0mg"},{"bike_id":"ba385696-1c00-4366-b0a7-b17da0e20789","system_id":"levelo_inurba_marseille","lat":43.3176,"lon":5.39014,"is_reserved":false,"is_disabled":false,"rental_uris":{"android":"levelo://app?vid=ba385696-1c00-4366-b0a7-b17da0e20789","ios":"levelo://app?vid=ba385696-1c00-4366-b0a7-b17da0e20789"},"vehicle_type_id":"4","last_reported":1729188662,"current_range_meters":11200,"station_id":"ce4bhqp2rcd13ifvqhng","pricing_plan_id":"cebpf4jnsgd1na2vs0mg"},{"bike_id":"d3ed9daa-dd4a-408e-b141-6dd3522cdeee","system_id":"levelo_inurba_marseille","lat":43.30926,"lon":5.40143,"is_reserved":false,"is_disabled":false,"rental_uris":{"android":"levelo://app?vid=d3ed9daa-dd4a-408e-b141-6dd3522cdeee","ios":"levelo://app?vid=d3ed9daa-dd4a-408e-b141-6dd3522cdeee"},"vehicle_type_id":"4","last_reported":1729188662,"current_range_meters":30000,"station_id":"ce4bgvp2rcd13ifvqct0","pricing_plan_id":"cebpf4jnsgd1na2vs0mg"},{"bike_id":"052b3563-392a-4857-8174-027696f961ab","system_id":"levelo_inurba_marseille","lat":43.24647,"lon":5.38904,"is_reserved":false,"is_disabled":false,"rental_uris":{"android":"levelo://app?vid=052b3563-392a-4857-8174-027696f961ab","ios":"levelo://app?vid=052b3563-392a-4857-8174-027696f961ab"},"vehicle_type_id":"4","last_reported":1729188662,"current_range_meters":22800,"station_id":"ce4bhg12rcd13ifvqf60","pricing_plan_id":"cebpf4jnsgd1na2vs0mg"},{"bike_id":"9373f069-8b2b-4182-971f-b65229ad60e9","system_id":"levelo_inurba_marseille","lat":43.34154,"lon":5.40899,"is_reserved":false,"is_disabled":false,"rental_uris":{"android":"levelo://app?vid=9373f069-8b2b-4182-971f-b65229ad60e9","ios":"levelo://app?vid=9373f069-8b2b-4182-971f-b65229ad60e9"},"vehicle_type_id":"4","last_reported":1729188662,"current_range_meters":35200,"station_id":"ce4bhqh2rcd13ifvqhlg","pricing_plan_id":"cebpf4jnsgd1na2vs0mg"},{"bike_id":"937a3f13-9596-43de-8817-cbbac6a7dc35","system_id":"levelo_inurba_marseille","lat":43.31769,"lon":5.3902,"is_reserved":false,"is_disabled":false,"rental_uris":{"android":"levelo://app?vid=937a3f13-9596-43de-8817-cbbac6a7dc35","ios":"levelo://app?vid=937a3f13-9596-43de-8817-cbbac6a7dc35"},"vehicle_type_id":"4","last_reported":1729188662,"current_range_meters":24000,"station_id":"ce4bhqp2rcd13ifvqhng","pricing_plan_id":"cebpf4jnsgd1na2vs0mg"},{"bike_id":"fd19a5e9-bb93-416c-9119-fef160e07f02","system_id":"levelo_inurba_marseille","lat":43.29294,"lon":5.37468,"is_reserved":false,"is_disabled":false,"rental_uris":{"android":"levelo://app?vid=fd19a5e9-bb93-416c-9119-fef160e07f02","ios":"levelo://app?vid=fd19a5e9-bb93-416c-9119-fef160e07f02"},"vehicle_type_id":"4","last_reported":1729188662,"current_range_meters":14800,"station_id":"ce4bgi12rcd13ifvqb70","pricing_plan_id":"cebpf4jnsgd1na2vs0mg"},{"bike_id":"d6dac275-9ffe-4004-a071-048d92b2bd88","system_id":"levelo_inurba_marseille","lat":43.27494,"lon":5.42455,"is_reserved":false,"is_disabled":false,"rental_uris":{"android":"levelo://app?vid=d6dac275-9ffe-4004-a071-048d92b2bd88","ios":"levelo://app?vid=d6dac275-9ffe-4004-a071-048d92b2bd88"},"vehicle_type_id":"4","last_reported":1729188662,"current_range_meters":8400,"station_id":"ce4bhn92rcd13ifvqgrg","pricing_plan_id":"cebpf4jnsgd1na2vs0mg"},{"bike_id":"a75e84cd-7392-49cf-990a-d65a7450f999","system_id":"levelo_inurba_marseille","lat":43.29423,"lon":5.38622,"is_reserved":false,"is_disabled":false,"rental_uris":{"android":"levelo://app?vid=a75e84cd-7392-49cf-990a-d65a7450f999","ios":"levelo://app?vid=a75e84cd-7392-49cf-990a-d65a7450f999"},"vehicle_type_id":"4","last_reported":1729188662,"current_range_meters":8800,"station_id":"ce4bh2h2rcd13ifvqdh0","pricing_plan_id":"cebpf4jnsgd1na2vs0mg"},{"bike_id":"6e353322-bd9b-4745-bd15-5feb8ba1cb12","system_id":"levelo_inurba_marseille","lat":43.25728,"lon":5.41113,"is_reserved":false,"is_disabled":false,"rental_uris":{"android":"levelo://app?vid=6e353322-bd9b-4745-bd15-5feb8ba1cb12","ios":"levelo://app?vid=6e353322-bd9b-4745-bd15-5feb8ba1cb12"},"vehicle_type_id":"4","last_reported":1729188662,"current_range_meters":10000,"station_id":"ce4bhkp2rcd13ifvqgd0","pricing_plan_id":"cebpf4jnsgd1na2vs0mg"},{"bike_id":"58c69b12-7467-4279-b980-9aa21ca6358f","system_id":"levelo_inurba_marseille","lat":43.23963,"lon":5.36646,"is_reserved":false,"is_disabled":false,"rental_uris":{"android":"levelo://app?vid=58c69b12-7467-4279-b980-9aa21ca6358f","ios":"levelo://app?vid=58c69b12-7467-4279-b980-9aa21ca6358f"},"vehicle_type_id":"4","last_reported":1729188662,"current_range_meters":27600,"station_id":"ce4bhi12rcd13ifvqfp0","pricing_plan_id":"cebpf4jnsgd1na2vs0mg"},{"bike_id":"6edfbb9f-50f6-4551-b2e8-488a098f6ca1","system_id":"levelo_inurba_marseille","lat":43.28079,"lon":5.3968,"is_reserved":false,"is_disabled":false,"rental_uris":{"android":"levelo://app?vid=6edfbb9f-50f6-4551-b2e8-488a098f6ca1","ios":"levelo://app?vid=6edfbb9f-50f6-4551-b2e8-488a098f6ca1"},"vehicle_type_id":"4","last_reported":1729188662,"current_range_meters":38400,"station_id":"ce4bho12rcd13ifvqh2g","pricing_plan_id":"cebpf4jnsgd1na2vs0mg"},{"bike_id":"f6380421-89ba-44f3-ab17-e577d94ba255","system_id":"levelo_inurba_marseille","lat":43.29044,"lon":5.39968,"is_reserved":false,"is_disabled":false,"rental_uris":{"android":"levelo://app?vid=f6380421-89ba-44f3-ab17-e577d94ba255","ios":"levelo://app?vid=f6380421-89ba-44f3-ab17-e577d94ba255"},"vehicle_type_id":"4","last_reported":1729188662,"current_range_meters":1600,"station_id":"ce4bh392rcd13ifvqdm0","pricing_plan_id":"cebpf4jnsgd1na2vs0mg"},{"bike_id":"d3480e13-88fb-40d0-8d1a-724a5411c501","system_id":"levelo_inurba_marseille","lat":43.33025,"lon":5.39046,"is_reserved":false,"is_disabled":false,"rental_uris":{"android":"levelo://app?vid=d3480e13-88fb-40d0-8d1a-724a5411c501","ios":"levelo://app?vid=d3480e13-88fb-40d0-8d1a-724a5411c501"},"vehicle_type_id":"4","last_reported":1729188662,"current_range_meters":14800,"station_id":"ce4bhr92rcd13ifvqhrg","pricing_plan_id":"cebpf4jnsgd1na2vs0mg"},{"bike_id":"0d212104-3e79-44b2-bc97-8a35dce8b401","system_id":"levelo_inurba_marseille","lat":43.29966,"lon":5.38499,"is_reserved":false,"is_disabled":false,"rental_uris":{"android":"levelo://app?vid=0d212104-3e79-44b2-bc97-8a35dce8b401","ios":"levelo://app?vid=0d212104-3e79-44b2-bc97-8a35dce8b401"},"vehicle_type_id":"4","last_reported":1729188662,"current_range_meters":38800,"station_id":"ce4bgj92rcd13ifvqbd0","pricing_plan_id":"cebpf4jnsgd1na2vs0mg"},{"bike_id":"a4e662bf-28b9-4ec7-85f7-a88ca0454b49","system_id":"levelo_inurba_marseille","lat":43.29523,"lon":5.39047,"is_reserved":false,"is_disabled":false,"rental_uris":{"android":"levelo://app?vid=a4e662bf-28b9-4ec7-85f7-a88ca0454b49","ios":"levelo://app?vid=a4e662bf-28b9-4ec7-85f7-a88ca0454b49"},"vehicle_type_id":"4","last_reported":1729188662,"current_range_meters":4000,"station_id":"ce4bh3p2rcd13ifvqdp0","pricing_plan_id":"cebpf4jnsgd1na2vs0mg"},{"bike_id":"f1f54018-12f5-4b4e-9d61-fc23fa4a951a","system_id":"levelo_inurba_marseille","lat":43.32281,"lon":5.38136,"is_reserved":false,"is_disabled":false,"rental_uris":{"android":"levelo://app?vid=f1f54018-12f5-4b4e-9d61-fc23fa4a951a","ios":"levelo://app?vid=f1f54018-12f5-4b4e-9d61-fc23fa4a951a"},"vehicle_type_id":"4","last_reported":1729188662,"current_range_meters":34000,"station_id":"ce4bhr12rcd13ifvqhqg","pricing_plan_id":"cebpf4jnsgd1na2vs0mg"},{"bike_id":"c8ce71d2-5a6d-40af-81e7-20c17a56bfdb","system_id":"levelo_inurba_marseille","lat":43.30603,"lon":5.37231,"is_reserved":false,"is_disabled":false,"rental_uris":{"android":"levelo://app?vid=c8ce71d2-5a6d-40af-81e7-20c17a56bfdb","ios":"levelo://app?vid=c8ce71d2-5a6d-40af-81e7-20c17a56bfdb"},"vehicle_type_id":"4","last_reported":1729188662,"current_range_meters":6000,"station_id":"ce4bgqh2rcd13ifvqc4g","pricing_plan_id":"cebpf4jnsgd1na2vs0mg"},{"bike_id":"dcd02635-a722-43c9-94f7-989cd5fe04c6","system_id":"levelo_inurba_marseille","lat":43.24799,"lon":5.37457,"is_reserved":false,"is_disabled":false,"rental_uris":{"android":"levelo://app?vid=dcd02635-a722-43c9-94f7-989cd5fe04c6","ios":"levelo://app?vid=dcd02635-a722-43c9-94f7-989cd5fe04c6"},"vehicle_type_id":"4","last_reported":1729188662,"current_range_meters":25600,"station_id":"ce4bhgh2rcd13ifvqfb0","pricing_plan_id":"cebpf4jnsgd1na2vs0mg"},{"bike_id":"282b3d80-6821-487a-a914-810f553b0264","system_id":"levelo_inurba_marseille","lat":43.31717,"lon":5.43703,"is_reserved":false,"is_disabled":false,"rental_uris":{"android":"levelo://app?vid=282b3d80-6821-487a-a914-810f553b0264","ios":"levelo://app?vid=282b3d80-6821-487a-a914-810f553b0264"},"vehicle_type_id":"4","last_reported":1729188662,"current_range_meters":7200,"station_id":"ce4bhp92rcd13ifvqhcg","pricing_plan_id":"cebpf4jnsgd1na2vs0mg"},{"bike_id":"e20fafca-079a-403c-b57c-f7aca789639e","system_id":"levelo_inurba_marseille","lat":43.24812,"lon":5.37459,"is_reserved":false,"is_disabled":false,"rental_uris":{"android":"levelo://app?vid=e20fafca-079a-403c-b57c-f7aca789639e","ios":"levelo://app?vid=e20fafca-079a-403c-b57c-f7aca789639e"},"vehicle_type_id":"4","last_reported":1729188662,"current_range_meters":37600,"station_id":"ce4bhgh2rcd13ifvqfb0","pricing_plan_id":"cebpf4jnsgd1na2vs0mg"},{"bike_id":"3b8eff2d-780c-4ea1-8c46-1c5f999b01d7","system_id":"levelo_inurba_marseille","lat":43.29171,"lon":5.37172,"is_reserved":false,"is_disabled":false,"rental_uris":{"android":"levelo://app?vid=3b8eff2d-780c-4ea1-8c46-1c5f999b01d7","ios":"levelo://app?vid=3b8eff2d-780c-4ea1-8c46-1c5f999b01d7"},"vehicle_type_id":"4","last_reported":1729188662,"current_range_meters":18800,"station_id":"ce4bha92rcd13ifvqeh0","pricing_plan_id":"cebpf4jnsgd1na2vs0mg"},{"bike_id":"ed55d960-e651-42a6-9e1d-f60cea8fde91","system_id":"levelo_inurba_marseille","lat":43.31901,"lon":5.40736,"is_reserved":false,"is_disabled":false,"rental_uris":{"android":"levelo://app?vid=ed55d960-e651-42a6-9e1d-f60cea8fde91","ios":"levelo://app?vid=ed55d960-e651-42a6-9e1d-f60cea8fde91"},"vehicle_type_id":"4","last_reported":1729188662,"current_range_meters":18000,"station_id":"ce4bhq12rcd13ifvqhig","pricing_plan_id":"cebpf4jnsgd1na2vs0mg"},{"bike_id":"51dce57f-661f-43b6-9fb2-7bc5c4fd12bd","system_id":"levelo_inurba_marseille","lat":43.28471,"lon":5.38425,"is_reserved":false,"is_disabled":false,"rental_uris":{"android":"levelo://app?vid=51dce57f-661f-43b6-9fb2-7bc5c4fd12bd","ios":"levelo://app?vid=51dce57f-661f-43b6-9fb2-7bc5c4fd12bd"},"vehicle_type_id":"4","last_reported":1729188662,"current_range_meters":20400,"station_id":"ce4bh512rcd13ifvqe3g","pricing_plan_id":"cebpf4jnsgd1na2vs0mg"},{"bike_id":"ffb30f75-f03c-422e-b981-68adbd6fc613","system_id":"levelo_inurba_marseille","lat":43.254944,"lon":5.376462,"is_reserved":false,"is_disabled":false,"rental_uris":{"android":"levelo://app?vid=ffb30f75-f03c-422e-b981-68adbd6fc613","ios":"levelo://app?vid=ffb30f75-f03c-422e-b981-68adbd6fc613"},"vehicle_type_id":"4","last_reported":1729188662,"current_range_meters":9200,"station_id":"ce4bh512rcd13ifvqe3g","pricing_plan_id":"cebpf4jnsgd1na2vs0mg"},{"bike_id":"515525c8-3ac3-4d40-8bf9-9234cf7aafa8","system_id":"levelo_inurba_marseille","lat":43.29034,"lon":5.35937,"is_reserved":false,"is_disabled":false,"rental_uris":{"android":"levelo://app?vid=515525c8-3ac3-4d40-8bf9-9234cf7aafa8","ios":"levelo://app?vid=515525c8-3ac3-4d40-8bf9-9234cf7aafa8"},"vehicle_type_id":"4","last_reported":1729188662,"current_range_meters":28000,"station_id":"ce4bha92rcd13ifvqeg0","pricing_plan_id":"cebpf4jnsgd1na2vs0mg"},{"bike_id":"c0aea6bf-9822-4eef-a7c6-ea0b29185a8d","system_id":"levelo_inurba_marseille","lat":43.27934,"lon":5.41048,"is_reserved":false,"is_disabled":false,"rental_uris":{"android":"levelo://app?vid=c0aea6bf-9822-4eef-a7c6-ea0b29185a8d","ios":"levelo://app?vid=c0aea6bf-9822-4eef-a7c6-ea0b29185a8d"},"vehicle_type_id":"4","last_reported":1729188662,"current_range_meters":27600,"station_id":"ce4bhnp2rcd13ifvqh0g","pricing_plan_id":"cebpf4jnsgd1na2vs0mg"},{"bike_id":"d2d13faa-3a5a-4450-9c48-15bca810ba92","system_id":"levelo_inurba_marseille","lat":43.27919,"lon":5.39579,"is_reserved":false,"is_disabled":false,"rental_uris":{"android":"levelo://app?vid=d2d13faa-3a5a-4450-9c48-15bca810ba92","ios":"levelo://app?vid=d2d13faa-3a5a-4450-9c48-15bca810ba92"},"vehicle_type_id":"4","last_reported":1729188662,"current_range_meters":7200,"station_id":"ce4bhf92rcd13ifvqf40","pricing_plan_id":"cebpf4jnsgd1na2vs0mg"},{"bike_id":"3d7546d0-4dba-4212-88c9-dfe9a2032237","system_id":"levelo_inurba_marseille","lat":43.2417,"lon":5.36396,"is_reserved":false,"is_disabled":false,"rental_uris":{"android":"levelo://app?vid=3d7546d0-4dba-4212-88c9-dfe9a2032237","ios":"levelo://app?vid=3d7546d0-4dba-4212-88c9-dfe9a2032237"},"vehicle_type_id":"4","last_reported":1729188662,"current_range_meters":4000,"station_id":"cpo36qri1sfpv3e86is0","pricing_plan_id":"cebpf4jnsgd1na2vs0mg"},{"bike_id":"4f033d77-9454-4a3e-a01f-969de09fb8e8","system_id":"levelo_inurba_marseille","lat":43.25824,"lon":5.39435,"is_reserved":false,"is_disabled":false,"rental_uris":{"android":"levelo://app?vid=4f033d77-9454-4a3e-a01f-969de09fb8e8","ios":"levelo://app?vid=4f033d77-9454-4a3e-a01f-969de09fb8e8"},"vehicle_type_id":"4","last_reported":1729188662,"current_range_meters":28000,"station_id":"ce4bhip2rcd13ifvqft0","pricing_plan_id":"cebpf4jnsgd1na2vs0mg"},{"bike_id":"c5b8426f-893a-4d58-bca2-4f32b0cde765","system_id":"levelo_inurba_marseille","lat":43.28152,"lon":5.42643,"is_reserved":false,"is_disabled":false,"rental_uris":{"android":"levelo://app?vid=c5b8426f-893a-4d58-bca2-4f32b0cde765","ios":"levelo://app?vid=c5b8426f-893a-4d58-bca2-4f32b0cde765"},"vehicle_type_id":"4","last_reported":1729188662,"current_range_meters":28000,"station_id":"ce4bhnh2rcd13ifvqgug","pricing_plan_id":"cebpf4jnsgd1na2vs0mg"},{"bike_id":"3a8fc019-677b-4716-b1ef-4707bb919c30","system_id":"levelo_inurba_marseille","lat":43.3164,"lon":5.39802,"is_reserved":false,"is_disabled":false,"rental_uris":{"android":"levelo://app?vid=3a8fc019-677b-4716-b1ef-4707bb919c30","ios":"levelo://app?vid=3a8fc019-677b-4716-b1ef-4707bb919c30"},"vehicle_type_id":"4","last_reported":1729188662,"current_range_meters":17200,"station_id":"ce4bhq92rcd13ifvqhkg","pricing_plan_id":"cebpf4jnsgd1na2vs0mg"},{"bike_id":"2ed64d65-5f6a-456c-9a98-ecf92229c7d1","system_id":"levelo_inurba_marseille","lat":43.2587,"lon":5.39913,"is_reserved":false,"is_disabled":false,"rental_uris":{"android":"levelo://app?vid=2ed64d65-5f6a-456c-9a98-ecf92229c7d1","ios":"levelo://app?vid=2ed64d65-5f6a-456c-9a98-ecf92229c7d1"},"vehicle_type_id":"4","last_reported":1729188662,"current_range_meters":38800,"station_id":"ce4bhl92rcd13ifvqghg","pricing_plan_id":"cebpf4jnsgd1na2vs0mg"},{"bike_id":"90b7df2b-2805-4913-a745-07d80216980c","system_id":"levelo_inurba_marseille","lat":43.30803,"lon":5.43522,"is_reserved":false,"is_disabled":false,"rental_uris":{"android":"levelo://app?vid=90b7df2b-2805-4913-a745-07d80216980c","ios":"levelo://app?vid=90b7df2b-2805-4913-a745-07d80216980c"},"vehicle_type_id":"4","last_reported":1729188662,"current_range_meters":16800,"station_id":"ce4bhph2rcd13ifvqheg","pricing_plan_id":"cebpf4jnsgd1na2vs0mg"},{"bike_id":"32ce68a3-3fc7-4257-974f-ab657619c295","system_id":"levelo_inurba_marseille","lat":43.33752,"lon":5.37447,"is_reserved":false,"is_disabled":false,"rental_uris":{"android":"levelo://app?vid=32ce68a3-3fc7-4257-974f-ab657619c295","ios":"levelo://app?vid=32ce68a3-3fc7-4257-974f-ab657619c295"},"vehicle_type_id":"4","last_reported":1729188662,"current_range_meters":34800,"station_id":"","pricing_plan_id":"cebpf4jnsgd1na2vs0mg"},{"bike_id":"5a1b62f7-8a9e-42be-aefa-217aca5b6f27","system_id":"levelo_inurba_marseille","lat":43.23959,"lon":5.36641,"is_reserved":false,"is_disabled":false,"rental_uris":{"android":"levelo://app?vid=5a1b62f7-8a9e-42be-aefa-217aca5b6f27","ios":"levelo://app?vid=5a1b62f7-8a9e-42be-aefa-217aca5b6f27"},"vehicle_type_id":"4","last_reported":1729188662,"current_range_meters":38800,"station_id":"ce4bhi12rcd13ifvqfp0","pricing_plan_id":"cebpf4jnsgd1na2vs0mg"},{"bike_id":"09d3cffe-a5b7-43ab-ac38-6d6e1feadbf7","system_id":"levelo_inurba_marseille","lat":43.26938,"lon":5.38918,"is_reserved":false,"is_disabled":false,"rental_uris":{"android":"levelo://app?vid=09d3cffe-a5b7-43ab-ac38-6d6e1feadbf7","ios":"levelo://app?vid=09d3cffe-a5b7-43ab-ac38-6d6e1feadbf7"},"vehicle_type_id":"4","last_reported":1729188662,"current_range_meters":30800,"station_id":"ce4bhhh2rcd13ifvqfl0","pricing_plan_id":"cebpf4jnsgd1na2vs0mg"},{"bike_id":"fa7bbdc9-afbe-404d-8676-647037cc76a9","system_id":"levelo_inurba_marseille","lat":43.23203,"lon":5.35549,"is_reserved":false,"is_disabled":false,"rental_uris":{"android":"levelo://app?vid=fa7bbdc9-afbe-404d-8676-647037cc76a9","ios":"levelo://app?vid=fa7bbdc9-afbe-404d-8676-647037cc76a9"},"vehicle_type_id":"4","last_reported":1729188662,"current_range_meters":32800,"station_id":"ce4bhu92rcd13ifvqi70","pricing_plan_id":"cebpf4jnsgd1na2vs0mg"},{"bike_id":"9a4b7f99-e11e-4f0b-b857-0dbeb1b8e0a6","system_id":"levelo_inurba_marseille","lat":43.33022,"lon":5.39042,"is_reserved":false,"is_disabled":false,"rental_uris":{"android":"levelo://app?vid=9a4b7f99-e11e-4f0b-b857-0dbeb1b8e0a6","ios":"levelo://app?vid=9a4b7f99-e11e-4f0b-b857-0dbeb1b8e0a6"},"vehicle_type_id":"4","last_reported":1729188662,"current_range_meters":32000,"station_id":"ce4bhr92rcd13ifvqhrg","pricing_plan_id":"cebpf4jnsgd1na2vs0mg"},{"bike_id":"752671c2-9054-492c-9263-fc5cb1c19d98","system_id":"levelo_inurba_marseille","lat":43.33029,"lon":5.39048,"is_reserved":false,"is_disabled":false,"rental_uris":{"android":"levelo://app?vid=752671c2-9054-492c-9263-fc5cb1c19d98","ios":"levelo://app?vid=752671c2-9054-492c-9263-fc5cb1c19d98"},"vehicle_type_id":"4","last_reported":1729188662,"current_range_meters":8800,"station_id":"ce4bhr92rcd13ifvqhrg","pricing_plan_id":"cebpf4jnsgd1na2vs0mg"},{"bike_id":"ff726813-2517-4302-b4b8-60455484d8f6","system_id":"levelo_inurba_marseille","lat":43.33032,"lon":5.39051,"is_reserved":false,"is_disabled":false,"rental_uris":{"android":"levelo://app?vid=ff726813-2517-4302-b4b8-60455484d8f6","ios":"levelo://app?vid=ff726813-2517-4302-b4b8-60455484d8f6"},"vehicle_type_id":"4","last_reported":1729188662,"current_range_meters":9600,"station_id":"ce4bhr92rcd13ifvqhrg","pricing_plan_id":"cebpf4jnsgd1na2vs0mg"},{"bike_id":"f8d2e239-573b-4f9d-8955-e6720aa9663e","system_id":"levelo_inurba_marseille","lat":43.24644,"lon":5.38901,"is_reserved":false,"is_disabled":false,"rental_uris":{"android":"levelo://app?vid=f8d2e239-573b-4f9d-8955-e6720aa9663e","ios":"levelo://app?vid=f8d2e239-573b-4f9d-8955-e6720aa9663e"},"vehicle_type_id":"4","last_reported":1729188662,"current_range_meters":35600,"station_id":"ce4bhg12rcd13ifvqf60","pricing_plan_id":"cebpf4jnsgd1na2vs0mg"},{"bike_id":"139c35c4-8018-4db9-ad1e-9ab572b93210","system_id":"levelo_inurba_marseille","lat":43.30897,"lon":5.37202,"is_reserved":false,"is_disabled":false,"rental_uris":{"android":"levelo://app?vid=139c35c4-8018-4db9-ad1e-9ab572b93210","ios":"levelo://app?vid=139c35c4-8018-4db9-ad1e-9ab572b93210"},"vehicle_type_id":"4","last_reported":1729188662,"current_range_meters":9600,"station_id":"ce4bguh2rcd13ifvqckg","pricing_plan_id":"cebpf4jnsgd1na2vs0mg"},{"bike_id":"9313a787-13e9-4747-aa6d-776c45943b9d","system_id":"levelo_inurba_marseille","lat":43.28077,"lon":5.39666,"is_reserved":false,"is_disabled":false,"rental_uris":{"android":"levelo://app?vid=9313a787-13e9-4747-aa6d-776c45943b9d","ios":"levelo://app?vid=9313a787-13e9-4747-aa6d-776c45943b9d"},"vehicle_type_id":"4","last_reported":1729188662,"current_range_meters":23200,"station_id":"ce4bho12rcd13ifvqh2g","pricing_plan_id":"cebpf4jnsgd1na2vs0mg"},{"bike_id":"4e82a983-4406-4fc1-9c7d-45090c1e4862","system_id":"levelo_inurba_marseille","lat":43.24536,"lon":5.39527,"is_reserved":false,"is_disabled":false,"rental_uris":{"android":"levelo://app?vid=4e82a983-4406-4fc1-9c7d-45090c1e4862","ios":"levelo://app?vid=4e82a983-4406-4fc1-9c7d-45090c1e4862"},"vehicle_type_id":"4","last_reported":1729188662,"current_range_meters":34800,"station_id":"ce4bhlp2rcd13ifvqgjg","pricing_plan_id":"cebpf4jnsgd1na2vs0mg"},{"bike_id":"8c1ec6cb-2291-4814-837b-be8625c706f3","system_id":"levelo_inurba_marseille","lat":43.23196,"lon":5.35547,"is_reserved":false,"is_disabled":false,"rental_uris":{"android":"levelo://app?vid=8c1ec6cb-2291-4814-837b-be8625c706f3","ios":"levelo://app?vid=8c1ec6cb-2291-4814-837b-be8625c706f3"},"vehicle_type_id":"4","last_reported":1729188662,"current_range_meters":36400,"station_id":"ce4bhu92rcd13ifvqi70","pricing_plan_id":"cebpf4jnsgd1na2vs0mg"},{"bike_id":"4ba0d524-228c-47ba-9ee4-e7ec9003220e","system_id":"levelo_inurba_marseille","lat":43.2481,"lon":5.37461,"is_reserved":false,"is_disabled":false,"rental_uris":{"android":"levelo://app?vid=4ba0d524-228c-47ba-9ee4-e7ec9003220e","ios":"levelo://app?vid=4ba0d524-228c-47ba-9ee4-e7ec9003220e"},"vehicle_type_id":"4","last_reported":1729188662,"current_range_meters":38800,"station_id":"ce4bhgh2rcd13ifvqfb0","pricing_plan_id":"cebpf4jnsgd1na2vs0mg"},{"bike_id":"e2e3a45a-e40e-4aa0-9fcc-a163b4789d9d","system_id":"levelo_inurba_marseille","lat":43.23184,"lon":5.39991,"is_reserved":false,"is_disabled":false,"rental_uris":{"android":"levelo://app?vid=e2e3a45a-e40e-4aa0-9fcc-a163b4789d9d","ios":"levelo://app?vid=e2e3a45a-e40e-4aa0-9fcc-a163b4789d9d"},"vehicle_type_id":"4","last_reported":1729188662,"current_range_meters":4400,"station_id":"ce4bhn12rcd13ifvqgqg","pricing_plan_id":"cebpf4jnsgd1na2vs0mg"},{"bike_id":"2eba3065-28ec-4a73-88a8-95f722698f8c","system_id":"levelo_inurba_marseille","lat":43.33024,"lon":5.39045,"is_reserved":false,"is_disabled":false,"rental_uris":{"android":"levelo://app?vid=2eba3065-28ec-4a73-88a8-95f722698f8c","ios":"levelo://app?vid=2eba3065-28ec-4a73-88a8-95f722698f8c"},"vehicle_type_id":"4","last_reported":1729188662,"current_range_meters":23200,"station_id":"ce4bhr92rcd13ifvqhrg","pricing_plan_id":"cebpf4jnsgd1na2vs0mg"},{"bike_id":"c0ce0432-7f13-4591-b35e-61ea168287d0","system_id":"levelo_inurba_marseille","lat":43.33604,"lon":5.41032,"is_reserved":false,"is_disabled":false,"rental_uris":{"android":"levelo://app?vid=c0ce0432-7f13-4591-b35e-61ea168287d0","ios":"levelo://app?vid=c0ce0432-7f13-4591-b35e-61ea168287d0"},"vehicle_type_id":"4","last_reported":1729188662,"current_range_meters":8400,"station_id":"ce4bhqh2rcd13ifvqhmg","pricing_plan_id":"cebpf4jnsgd1na2vs0mg"},{"bike_id":"c89c2319-61a9-47ef-9229-e31c9eaab143","system_id":"levelo_inurba_marseille","lat":43.23195,"lon":5.3555,"is_reserved":false,"is_disabled":false,"rental_uris":{"android":"levelo://app?vid=c89c2319-61a9-47ef-9229-e31c9eaab143","ios":"levelo://app?vid=c89c2319-61a9-47ef-9229-e31c9eaab143"},"vehicle_type_id":"4","last_reported":1729188662,"current_range_meters":38800,"station_id":"ce4bhu92rcd13ifvqi70","pricing_plan_id":"cebpf4jnsgd1na2vs0mg"},{"bike_id":"9e70f111-f55e-488f-9e29-01959ec5b34a","system_id":"levelo_inurba_marseille","lat":43.33022,"lon":5.39044,"is_reserved":false,"is_disabled":false,"rental_uris":{"android":"levelo://app?vid=9e70f111-f55e-488f-9e29-01959ec5b34a","ios":"levelo://app?vid=9e70f111-f55e-488f-9e29-01959ec5b34a"},"vehicle_type_id":"4","last_reported":1729188662,"current_range_meters":29600,"station_id":"ce4bhr92rcd13ifvqhrg","pricing_plan_id":"cebpf4jnsgd1na2vs0mg"},{"bike_id":"c1b4d58c-7d67-4800-b5de-bf664ea422e8","system_id":"levelo_inurba_marseille","lat":43.2465,"lon":5.38894,"is_reserved":false,"is_disabled":false,"rental_uris":{"android":"levelo://app?vid=c1b4d58c-7d67-4800-b5de-bf664ea422e8","ios":"levelo://app?vid=c1b4d58c-7d67-4800-b5de-bf664ea422e8"},"vehicle_type_id":"4","last_reported":1729188662,"current_range_meters":9600,"station_id":"ce4bhg12rcd13ifvqf60","pricing_plan_id":"cebpf4jnsgd1na2vs0mg"},{"bike_id":"614c1618-9f84-4474-9eea-687e0357955d","system_id":"levelo_inurba_marseille","lat":43.30082,"lon":5.39068,"is_reserved":false,"is_disabled":false,"rental_uris":{"android":"levelo://app?vid=614c1618-9f84-4474-9eea-687e0357955d","ios":"levelo://app?vid=614c1618-9f84-4474-9eea-687e0357955d"},"vehicle_type_id":"4","last_reported":1729188662,"current_range_meters":21600,"station_id":"ce4bh192rcd13ifvqdb0","pricing_plan_id":"cebpf4jnsgd1na2vs0mg"},{"bike_id":"1f83888a-b6f2-480c-87e7-6b07142c1dd0","system_id":"levelo_inurba_marseille","lat":43.29892,"lon":5.43675,"is_reserved":false,"is_disabled":false,"rental_uris":{"android":"levelo://app?vid=1f83888a-b6f2-480c-87e7-6b07142c1dd0","ios":"levelo://app?vid=1f83888a-b6f2-480c-87e7-6b07142c1dd0"},"vehicle_type_id":"4","last_reported":1729188662,"current_range_meters":29600,"station_id":"ce4bhpp2rcd13ifvqhfg","pricing_plan_id":"cebpf4jnsgd1na2vs0mg"},{"bike_id":"794acdc8-c17c-4149-b903-ed4baea396b4","system_id":"levelo_inurba_marseille","lat":43.23187,"lon":5.39983,"is_reserved":false,"is_disabled":false,"rental_uris":{"android":"levelo://app?vid=794acdc8-c17c-4149-b903-ed4baea396b4","ios":"levelo://app?vid=794acdc8-c17c-4149-b903-ed4baea396b4"},"vehicle_type_id":"4","last_reported":1729188662,"current_range_meters":16000,"station_id":"ce4bhn12rcd13ifvqgqg","pricing_plan_id":"cebpf4jnsgd1na2vs0mg"},{"bike_id":"a638a42f-2c86-4a47-9fce-e8d77bee8966","system_id":"levelo_inurba_marseille","lat":43.30799,"lon":5.43526,"is_reserved":false,"is_disabled":false,"rental_uris":{"android":"levelo://app?vid=a638a42f-2c86-4a47-9fce-e8d77bee8966","ios":"levelo://app?vid=a638a42f-2c86-4a47-9fce-e8d77bee8966"},"vehicle_type_id":"4","last_reported":1729188662,"current_range_meters":32000,"station_id":"ce4bhph2rcd13ifvqheg","pricing_plan_id":"cebpf4jnsgd1na2vs0mg"},{"bike_id":"c657a404-e355-4425-843b-339b629bd4e4","system_id":"levelo_inurba_marseille","lat":43.31075,"lon":5.38354,"is_reserved":false,"is_disabled":false,"rental_uris":{"android":"levelo://app?vid=c657a404-e355-4425-843b-339b629bd4e4","ios":"levelo://app?vid=c657a404-e355-4425-843b-339b629bd4e4"},"vehicle_type_id":"4","last_reported":1729188662,"current_range_meters":38800,"station_id":"ce4bgv92rcd13ifvqcr0","pricing_plan_id":"cebpf4jnsgd1na2vs0mg"},{"bike_id":"c6ef7807-f387-424b-8ef0-0612d41c79a5","system_id":"levelo_inurba_marseille","lat":43.28412,"lon":5.37522,"is_reserved":false,"is_disabled":false,"rental_uris":{"android":"levelo://app?vid=c6ef7807-f387-424b-8ef0-0612d41c79a5","ios":"levelo://app?vid=c6ef7807-f387-424b-8ef0-0612d41c79a5"},"vehicle_type_id":"4","last_reported":1729188662,"current_range_meters":4000,"station_id":"ce4bh412rcd13ifvqds0","pricing_plan_id":"cebpf4jnsgd1na2vs0mg"},{"bike_id":"90831790-beaa-47cf-8b23-24a5cbdf0cdb","system_id":"levelo_inurba_marseille","lat":43.3127,"lon":5.40173,"is_reserved":false,"is_disabled":false,"rental_uris":{"android":"levelo://app?vid=90831790-beaa-47cf-8b23-24a5cbdf0cdb","ios":"levelo://app?vid=90831790-beaa-47cf-8b23-24a5cbdf0cdb"},"vehicle_type_id":"4","last_reported":1729188662,"current_range_meters":4400,"station_id":"ce4bh092rcd13ifvqd30","pricing_plan_id":"cebpf4jnsgd1na2vs0mg"},{"bike_id":"874494de-7452-4f47-9fec-c5ec79478035","system_id":"levelo_inurba_marseille","lat":43.23965,"lon":5.36636,"is_reserved":false,"is_disabled":false,"rental_uris":{"android":"levelo://app?vid=874494de-7452-4f47-9fec-c5ec79478035","ios":"levelo://app?vid=874494de-7452-4f47-9fec-c5ec79478035"},"vehicle_type_id":"4","last_reported":1729188662,"current_range_meters":27600,"station_id":"ce4bhi12rcd13ifvqfp0","pricing_plan_id":"cebpf4jnsgd1na2vs0mg"},{"bike_id":"8b33911e-5d42-46bd-b00d-c1d5ce72f577","system_id":"levelo_inurba_marseille","lat":43.23185,"lon":5.39986,"is_reserved":false,"is_disabled":false,"rental_uris":{"android":"levelo://app?vid=8b33911e-5d42-46bd-b00d-c1d5ce72f577","ios":"levelo://app?vid=8b33911e-5d42-46bd-b00d-c1d5ce72f577"},"vehicle_type_id":"4","last_reported":1729188662,"current_range_meters":20400,"station_id":"ce4bhn12rcd13ifvqgqg","pricing_plan_id":"cebpf4jnsgd1na2vs0mg"},{"bike_id":"0994d7f0-fa2e-480f-b967-2b1e1b476b78","system_id":"levelo_inurba_marseille","lat":43.2319,"lon":5.35547,"is_reserved":false,"is_disabled":false,"rental_uris":{"android":"levelo://app?vid=0994d7f0-fa2e-480f-b967-2b1e1b476b78","ios":"levelo://app?vid=0994d7f0-fa2e-480f-b967-2b1e1b476b78"},"vehicle_type_id":"4","last_reported":1729188662,"current_range_meters":12800,"station_id":"ce4bhu92rcd13ifvqi70","pricing_plan_id":"cebpf4jnsgd1na2vs0mg"},{"bike_id":"cafacf31-3dc4-4662-b543-8a143108fe4d","system_id":"levelo_inurba_marseille","lat":43.23186,"lon":5.39979,"is_reserved":false,"is_disabled":false,"rental_uris":{"android":"levelo://app?vid=cafacf31-3dc4-4662-b543-8a143108fe4d","ios":"levelo://app?vid=cafacf31-3dc4-4662-b543-8a143108fe4d"},"vehicle_type_id":"4","last_reported":1729188662,"current_range_meters":24000,"station_id":"ce4bhn12rcd13ifvqgqg","pricing_plan_id":"cebpf4jnsgd1na2vs0mg"},{"bike_id":"ca127f3a-6871-4235-aa95-1fb757d1dc55","system_id":"levelo_inurba_marseille","lat":43.32287,"lon":5.38271,"is_reserved":false,"is_disabled":false,"rental_uris":{"android":"levelo://app?vid=ca127f3a-6871-4235-aa95-1fb757d1dc55","ios":"levelo://app?vid=ca127f3a-6871-4235-aa95-1fb757d1dc55"},"vehicle_type_id":"4","last_reported":1729188662,"current_range_meters":38000,"station_id":"ce4bhr12rcd13ifvqhqg","pricing_plan_id":"cebpf4jnsgd1na2vs0mg"},{"bike_id":"66ccc46d-618e-4760-b09c-27382152bdab","system_id":"levelo_inurba_marseille","lat":43.23201,"lon":5.35548,"is_reserved":false,"is_disabled":false,"rental_uris":{"android":"levelo://app?vid=66ccc46d-618e-4760-b09c-27382152bdab","ios":"levelo://app?vid=66ccc46d-618e-4760-b09c-27382152bdab"},"vehicle_type_id":"4","last_reported":1729188662,"current_range_meters":32000,"station_id":"ce4bhu92rcd13ifvqi70","pricing_plan_id":"cebpf4jnsgd1na2vs0mg"},{"bike_id":"2a1a5088-74c1-4571-b4a4-df8f6f7eb557","system_id":"levelo_inurba_marseille","lat":43.29069,"lon":5.37175,"is_reserved":false,"is_disabled":false,"rental_uris":{"android":"levelo://app?vid=2a1a5088-74c1-4571-b4a4-df8f6f7eb557","ios":"levelo://app?vid=2a1a5088-74c1-4571-b4a4-df8f6f7eb557"},"vehicle_type_id":"4","last_reported":1729188662,"current_range_meters":19600,"station_id":"ce4bh5p2rcd13ifvqe4g","pricing_plan_id":"cebpf4jnsgd1na2vs0mg"},{"bike_id":"1070ebfa-7575-426c-82da-2ce4dd1e2817","system_id":"levelo_inurba_marseille","lat":43.28453,"lon":5.35885,"is_reserved":false,"is_disabled":false,"rental_uris":{"android":"levelo://app?vid=1070ebfa-7575-426c-82da-2ce4dd1e2817","ios":"levelo://app?vid=1070ebfa-7575-426c-82da-2ce4dd1e2817"},"vehicle_type_id":"4","last_reported":1729188662,"current_range_meters":38800,"station_id":"ce4bhah2rcd13ifvqei0","pricing_plan_id":"cebpf4jnsgd1na2vs0mg"},{"bike_id":"ba090dd0-53c2-4aba-ab47-140f3962e9e9","system_id":"levelo_inurba_marseille","lat":43.29529,"lon":5.39055,"is_reserved":false,"is_disabled":false,"rental_uris":{"android":"levelo://app?vid=ba090dd0-53c2-4aba-ab47-140f3962e9e9","ios":"levelo://app?vid=ba090dd0-53c2-4aba-ab47-140f3962e9e9"},"vehicle_type_id":"4","last_reported":1729188662,"current_range_meters":32800,"station_id":"ce4bh3p2rcd13ifvqdp0","pricing_plan_id":"cebpf4jnsgd1na2vs0mg"},{"bike_id":"1a8c0c9d-2dee-4664-9657-70b06fd40d22","system_id":"levelo_inurba_marseille","lat":43.31086,"lon":5.42431,"is_reserved":false,"is_disabled":false,"rental_uris":{"android":"levelo://app?vid=1a8c0c9d-2dee-4664-9657-70b06fd40d22","ios":"levelo://app?vid=1a8c0c9d-2dee-4664-9657-70b06fd40d22"},"vehicle_type_id":"4","last_reported":1729188662,"current_range_meters":26000,"station_id":"ce4bhp92rcd13ifvqhag","pricing_plan_id":"cebpf4jnsgd1na2vs0mg"},{"bike_id":"a043de8c-dde9-4814-83fe-cc6c0074415a","system_id":"levelo_inurba_marseille","lat":43.25111,"lon":5.40324,"is_reserved":false,"is_disabled":false,"rental_uris":{"android":"levelo://app?vid=a043de8c-dde9-4814-83fe-cc6c0074415a","ios":"levelo://app?vid=a043de8c-dde9-4814-83fe-cc6c0074415a"},"vehicle_type_id":"4","last_reported":1729188662,"current_range_meters":38800,"station_id":"ce4bhlh2rcd13ifvqgig","pricing_plan_id":"cebpf4jnsgd1na2vs0mg"},{"bike_id":"b7d1982f-3646-42f1-b1d1-7e2f4731b5af","system_id":"levelo_inurba_marseille","lat":43.30423,"lon":5.41295,"is_reserved":false,"is_disabled":false,"rental_uris":{"android":"levelo://app?vid=b7d1982f-3646-42f1-b1d1-7e2f4731b5af","ios":"levelo://app?vid=b7d1982f-3646-42f1-b1d1-7e2f4731b5af"},"vehicle_type_id":"4","last_reported":1729188662,"current_range_meters":14000,"station_id":"ce4bhop2rcd13ifvqh8g","pricing_plan_id":"cebpf4jnsgd1na2vs0mg"},{"bike_id":"fbf5b2fc-cdb3-4633-9005-31a13123db57","system_id":"levelo_inurba_marseille","lat":43.315026,"lon":5.372734,"is_reserved":false,"is_disabled":false,"rental_uris":{"android":"levelo://app?vid=fbf5b2fc-cdb3-4633-9005-31a13123db57","ios":"levelo://app?vid=fbf5b2fc-cdb3-4633-9005-31a13123db57"},"vehicle_type_id":"4","last_reported":1729188662,"current_range_meters":24000,"station_id":"ce4bgt12rcd13ifvqcd0","pricing_plan_id":"cebpf4jnsgd1na2vs0mg"},{"bike_id":"6300df2c-b9fe-4275-916d-dd75e59140c9","system_id":"levelo_inurba_marseille","lat":43.23196,"lon":5.35547,"is_reserved":false,"is_disabled":false,"rental_uris":{"android":"levelo://app?vid=6300df2c-b9fe-4275-916d-dd75e59140c9","ios":"levelo://app?vid=6300df2c-b9fe-4275-916d-dd75e59140c9"},"vehicle_type_id":"4","last_reported":1729188662,"current_range_meters":32400,"station_id":"ce4bhu92rcd13ifvqi70","pricing_plan_id":"cebpf4jnsgd1na2vs0mg"},{"bike_id":"217d36cc-bb89-49d9-8719-57188c40467f","system_id":"levelo_inurba_marseille","lat":43.24994,"lon":5.38935,"is_reserved":false,"is_disabled":false,"rental_uris":{"android":"levelo://app?vid=217d36cc-bb89-49d9-8719-57188c40467f","ios":"levelo://app?vid=217d36cc-bb89-49d9-8719-57188c40467f"},"vehicle_type_id":"4","last_reported":1729188662,"current_range_meters":24000,"station_id":"ce4bhgp2rcd13ifvqfd0","pricing_plan_id":"cebpf4jnsgd1na2vs0mg"},{"bike_id":"59238a0c-de64-46a6-a64a-5a5563ed932a","system_id":"levelo_inurba_marseille","lat":43.22937,"lon":5.35378,"is_reserved":false,"is_disabled":false,"rental_uris":{"android":"levelo://app?vid=59238a0c-de64-46a6-a64a-5a5563ed932a","ios":"levelo://app?vid=59238a0c-de64-46a6-a64a-5a5563ed932a"},"vehicle_type_id":"4","last_reported":1729188662,"current_range_meters":29600,"station_id":"cpo3532slgdg3j2ikp40","pricing_plan_id":"cebpf4jnsgd1na2vs0mg"},{"bike_id":"81a59265-2c29-414a-8dfa-3e417acbe76a","system_id":"levelo_inurba_marseille","lat":43.30248,"lon":5.40059,"is_reserved":false,"is_disabled":false,"rental_uris":{"android":"levelo://app?vid=81a59265-2c29-414a-8dfa-3e417acbe76a","ios":"levelo://app?vid=81a59265-2c29-414a-8dfa-3e417acbe76a"},"vehicle_type_id":"4","last_reported":1729188662,"current_range_meters":5600,"station_id":"ce4bgvh2rcd13ifvqcs0","pricing_plan_id":"cebpf4jnsgd1na2vs0mg"},{"bike_id":"1a9ce611-6ffe-401d-b242-cca35c492325","system_id":"levelo_inurba_marseille","lat":43.27174,"lon":5.40995,"is_reserved":false,"is_disabled":false,"rental_uris":{"android":"levelo://app?vid=1a9ce611-6ffe-401d-b242-cca35c492325","ios":"levelo://app?vid=1a9ce611-6ffe-401d-b242-cca35c492325"},"vehicle_type_id":"4","last_reported":1729188662,"current_range_meters":6800,"station_id":"ce4bhl12rcd13ifvqgf0","pricing_plan_id":"cebpf4jnsgd1na2vs0mg"},{"bike_id":"c15b47ce-26c6-4fd6-ab72-248e2b851f0f","system_id":"levelo_inurba_marseille","lat":43.2942,"lon":5.38619,"is_reserved":false,"is_disabled":false,"rental_uris":{"android":"levelo://app?vid=c15b47ce-26c6-4fd6-ab72-248e2b851f0f","ios":"levelo://app?vid=c15b47ce-26c6-4fd6-ab72-248e2b851f0f"},"vehicle_type_id":"4","last_reported":1729188662,"current_range_meters":20000,"station_id":"ce4bh2h2rcd13ifvqdh0","pricing_plan_id":"cebpf4jnsgd1na2vs0mg"},{"bike_id":"ebe37f2c-cc7a-4956-95da-74e4a60fa5ad","system_id":"levelo_inurba_marseille","lat":43.27811,"lon":5.40709,"is_reserved":false,"is_disabled":false,"rental_uris":{"android":"levelo://app?vid=ebe37f2c-cc7a-4956-95da-74e4a60fa5ad","ios":"levelo://app?vid=ebe37f2c-cc7a-4956-95da-74e4a60fa5ad"},"vehicle_type_id":"4","last_reported":1729188662,"current_range_meters":39200,"station_id":"ce4bhnh2rcd13ifvqgtg","pricing_plan_id":"cebpf4jnsgd1na2vs0mg"},{"bike_id":"dc0bcfa8-2e23-4d89-b93c-cd58f6209e16","system_id":"levelo_inurba_marseille","lat":43.23963,"lon":5.36635,"is_reserved":false,"is_disabled":false,"rental_uris":{"android":"levelo://app?vid=dc0bcfa8-2e23-4d89-b93c-cd58f6209e16","ios":"levelo://app?vid=dc0bcfa8-2e23-4d89-b93c-cd58f6209e16"},"vehicle_type_id":"4","last_reported":1729188662,"current_range_meters":6800,"station_id":"ce4bhi12rcd13ifvqfp0","pricing_plan_id":"cebpf4jnsgd1na2vs0mg"},{"bike_id":"94dad7f8-6585-4b37-b691-74420d23ef13","system_id":"levelo_inurba_marseille","lat":43.30796,"lon":5.43526,"is_reserved":false,"is_disabled":false,"rental_uris":{"android":"levelo://app?vid=94dad7f8-6585-4b37-b691-74420d23ef13","ios":"levelo://app?vid=94dad7f8-6585-4b37-b691-74420d23ef13"},"vehicle_type_id":"4","last_reported":1729188662,"current_range_meters":38800,"station_id":"ce4bhph2rcd13ifvqheg","pricing_plan_id":"cebpf4jnsgd1na2vs0mg"},{"bike_id":"4562e9bb-7c1e-4e0e-95e1-858d0f8d86d1","system_id":"levelo_inurba_marseille","lat":43.23192,"lon":5.35563,"is_reserved":false,"is_disabled":false,"rental_uris":{"android":"levelo://app?vid=4562e9bb-7c1e-4e0e-95e1-858d0f8d86d1","ios":"levelo://app?vid=4562e9bb-7c1e-4e0e-95e1-858d0f8d86d1"},"vehicle_type_id":"4","last_reported":1729188662,"current_range_meters":38800,"station_id":"ce4bhu92rcd13ifvqi70","pricing_plan_id":"cebpf4jnsgd1na2vs0mg"},{"bike_id":"6837ac97-30a8-4145-8047-b6d6df61ac48","system_id":"levelo_inurba_marseille","lat":43.23188,"lon":5.39987,"is_reserved":false,"is_disabled":false,"rental_uris":{"android":"levelo://app?vid=6837ac97-30a8-4145-8047-b6d6df61ac48","ios":"levelo://app?vid=6837ac97-30a8-4145-8047-b6d6df61ac48"},"vehicle_type_id":"4","last_reported":1729188662,"current_range_meters":36800,"station_id":"ce4bhn12rcd13ifvqgqg","pricing_plan_id":"cebpf4jnsgd1na2vs0mg"},{"bike_id":"2140b6a3-5118-4150-823e-9225aeb56201","system_id":"levelo_inurba_marseille","lat":43.23197,"lon":5.3555,"is_reserved":false,"is_disabled":false,"rental_uris":{"android":"levelo://app?vid=2140b6a3-5118-4150-823e-9225aeb56201","ios":"levelo://app?vid=2140b6a3-5118-4150-823e-9225aeb56201"},"vehicle_type_id":"4","last_reported":1729188662,"current_range_meters":36000,"station_id":"ce4bhu92rcd13ifvqi70","pricing_plan_id":"cebpf4jnsgd1na2vs0mg"},{"bike_id":"2d26828d-d90f-4409-8e3f-2bdaa5ca0cb2","system_id":"levelo_inurba_marseille","lat":43.23179,"lon":5.39991,"is_reserved":false,"is_disabled":false,"rental_uris":{"android":"levelo://app?vid=2d26828d-d90f-4409-8e3f-2bdaa5ca0cb2","ios":"levelo://app?vid=2d26828d-d90f-4409-8e3f-2bdaa5ca0cb2"},"vehicle_type_id":"4","last_reported":1729188662,"current_range_meters":37600,"station_id":"ce4bhn12rcd13ifvqgqg","pricing_plan_id":"cebpf4jnsgd1na2vs0mg"},{"bike_id":"375aba81-68ac-47d6-a3f1-cc6de7755cb9","system_id":"levelo_inurba_marseille","lat":43.25575,"lon":5.38234,"is_reserved":false,"is_disabled":false,"rental_uris":{"android":"levelo://app?vid=375aba81-68ac-47d6-a3f1-cc6de7755cb9","ios":"levelo://app?vid=375aba81-68ac-47d6-a3f1-cc6de7755cb9"},"vehicle_type_id":"4","last_reported":1729188662,"current_range_meters":30800,"station_id":"ce4bhih2rcd13ifvqfs0","pricing_plan_id":"cebpf4jnsgd1na2vs0mg"},{"bike_id":"7cda3f4a-d91d-40ed-af5a-14b7cb3b421c","system_id":"levelo_inurba_marseille","lat":43.29419,"lon":5.38628,"is_reserved":false,"is_disabled":false,"rental_uris":{"android":"levelo://app?vid=7cda3f4a-d91d-40ed-af5a-14b7cb3b421c","ios":"levelo://app?vid=7cda3f4a-d91d-40ed-af5a-14b7cb3b421c"},"vehicle_type_id":"4","last_reported":1729188662,"current_range_meters":19200,"station_id":"ce4bh2h2rcd13ifvqdh0","pricing_plan_id":"cebpf4jnsgd1na2vs0mg"},{"bike_id":"7180b101-6957-496b-b5e2-67f598931762","system_id":"levelo_inurba_marseille","lat":43.27993,"lon":5.40009,"is_reserved":false,"is_disabled":false,"rental_uris":{"android":"levelo://app?vid=7180b101-6957-496b-b5e2-67f598931762","ios":"levelo://app?vid=7180b101-6957-496b-b5e2-67f598931762"},"vehicle_type_id":"4","last_reported":1729188662,"current_range_meters":6800,"station_id":"ce4bho92rcd13ifvqh4g","pricing_plan_id":"cebpf4jnsgd1na2vs0mg"},{"bike_id":"7cb834fc-6ee7-4a82-8bc6-2fdf809798f3","system_id":"levelo_inurba_marseille","lat":43.2846,"lon":5.35892,"is_reserved":false,"is_disabled":false,"rental_uris":{"android":"levelo://app?vid=7cb834fc-6ee7-4a82-8bc6-2fdf809798f3","ios":"levelo://app?vid=7cb834fc-6ee7-4a82-8bc6-2fdf809798f3"},"vehicle_type_id":"4","last_reported":1729188662,"current_range_meters":38800,"station_id":"ce4bhah2rcd13ifvqei0","pricing_plan_id":"cebpf4jnsgd1na2vs0mg"},{"bike_id":"66273aaf-4a3f-4ab1-95c9-9102359831d5","system_id":"levelo_inurba_marseille","lat":43.26028,"lon":5.37552,"is_reserved":false,"is_disabled":false,"rental_uris":{"android":"levelo://app?vid=66273aaf-4a3f-4ab1-95c9-9102359831d5","ios":"levelo://app?vid=66273aaf-4a3f-4ab1-95c9-9102359831d5"},"vehicle_type_id":"4","last_reported":1729188662,"current_range_meters":38800,"station_id":"ce4bhgh2rcd13ifvqfa0","pricing_plan_id":"cebpf4jnsgd1na2vs0mg"},{"bike_id":"974e9931-6d20-4545-9e5e-b40e518c0577","system_id":"levelo_inurba_marseille","lat":43.27813,"lon":5.40723,"is_reserved":false,"is_disabled":false,"rental_uris":{"android":"levelo://app?vid=974e9931-6d20-4545-9e5e-b40e518c0577","ios":"levelo://app?vid=974e9931-6d20-4545-9e5e-b40e518c0577"},"vehicle_type_id":"4","last_reported":1729188662,"current_range_meters":30400,"station_id":"ce4bhnh2rcd13ifvqgtg","pricing_plan_id":"cebpf4jnsgd1na2vs0mg"},{"bike_id":"8e38c3d2-b931-413b-a976-d335dbaab6fd","system_id":"levelo_inurba_marseille","lat":43.25859,"lon":5.39903,"is_reserved":false,"is_disabled":false,"rental_uris":{"android":"levelo://app?vid=8e38c3d2-b931-413b-a976-d335dbaab6fd","ios":"levelo://app?vid=8e38c3d2-b931-413b-a976-d335dbaab6fd"},"vehicle_type_id":"4","last_reported":1729188662,"current_range_meters":38800,"station_id":"ce4bhl92rcd13ifvqghg","pricing_plan_id":"cebpf4jnsgd1na2vs0mg"},{"bike_id":"036d1e7d-a659-4213-9e6f-93bce1682851","system_id":"levelo_inurba_marseille","lat":43.26555,"lon":5.37287,"is_reserved":false,"is_disabled":false,"rental_uris":{"android":"levelo://app?vid=036d1e7d-a659-4213-9e6f-93bce1682851","ios":"levelo://app?vid=036d1e7d-a659-4213-9e6f-93bce1682851"},"vehicle_type_id":"4","last_reported":1729188662,"current_range_meters":4800,"station_id":"ce4bhg12rcd13ifvqf70","pricing_plan_id":"cebpf4jnsgd1na2vs0mg"},{"bike_id":"83bcafb6-7740-4133-8b56-4bf302222f17","system_id":"levelo_inurba_marseille","lat":43.23962,"lon":5.36641,"is_reserved":false,"is_disabled":false,"rental_uris":{"android":"levelo://app?vid=83bcafb6-7740-4133-8b56-4bf302222f17","ios":"levelo://app?vid=83bcafb6-7740-4133-8b56-4bf302222f17"},"vehicle_type_id":"4","last_reported":1729188662,"current_range_meters":38800,"station_id":"ce4bhi12rcd13ifvqfp0","pricing_plan_id":"cebpf4jnsgd1na2vs0mg"},{"bike_id":"4ae184d9-36eb-4ec2-abc3-34749798da4c","system_id":"levelo_inurba_marseille","lat":43.3302,"lon":5.39045,"is_reserved":false,"is_disabled":false,"rental_uris":{"android":"levelo://app?vid=4ae184d9-36eb-4ec2-abc3-34749798da4c","ios":"levelo://app?vid=4ae184d9-36eb-4ec2-abc3-34749798da4c"},"vehicle_type_id":"4","last_reported":1729188662,"current_range_meters":14800,"station_id":"ce4bhr92rcd13ifvqhrg","pricing_plan_id":"cebpf4jnsgd1na2vs0mg"},{"bike_id":"7772d39f-5e28-445c-af91-069b0cf63793","system_id":"levelo_inurba_marseille","lat":43.33765,"lon":5.37438,"is_reserved":false,"is_disabled":false,"rental_uris":{"android":"levelo://app?vid=7772d39f-5e28-445c-af91-069b0cf63793","ios":"levelo://app?vid=7772d39f-5e28-445c-af91-069b0cf63793"},"vehicle_type_id":"4","last_reported":1729188662,"current_range_meters":16800,"station_id":"","pricing_plan_id":"cebpf4jnsgd1na2vs0mg"},{"bike_id":"15ba6c09-c7f4-4384-bb75-b77a33eb6249","system_id":"levelo_inurba_marseille","lat":43.33025,"lon":5.39053,"is_reserved":false,"is_disabled":false,"rental_uris":{"android":"levelo://app?vid=15ba6c09-c7f4-4384-bb75-b77a33eb6249","ios":"levelo://app?vid=15ba6c09-c7f4-4384-bb75-b77a33eb6249"},"vehicle_type_id":"4","last_reported":1729188662,"current_range_meters":17200,"station_id":"ce4bhr92rcd13ifvqhrg","pricing_plan_id":"cebpf4jnsgd1na2vs0mg"},{"bike_id":"d8eb113e-a350-4b67-9422-42aa94d51fec","system_id":"levelo_inurba_marseille","lat":43.28105,"lon":5.3784,"is_reserved":false,"is_disabled":false,"rental_uris":{"android":"levelo://app?vid=d8eb113e-a350-4b67-9422-42aa94d51fec","ios":"levelo://app?vid=d8eb113e-a350-4b67-9422-42aa94d51fec"},"vehicle_type_id":"4","last_reported":1729188662,"current_range_meters":11200,"station_id":"ce4bha12rcd13ifvqee0","pricing_plan_id":"cebpf4jnsgd1na2vs0mg"},{"bike_id":"3213665e-989c-4d22-9f5a-31c8522597dd","system_id":"levelo_inurba_marseille","lat":43.296,"lon":5.36142,"is_reserved":false,"is_disabled":false,"rental_uris":{"android":"levelo://app?vid=3213665e-989c-4d22-9f5a-31c8522597dd","ios":"levelo://app?vid=3213665e-989c-4d22-9f5a-31c8522597dd"},"vehicle_type_id":"4","last_reported":1729188662,"current_range_meters":27600,"station_id":"","pricing_plan_id":"cebpf4jnsgd1na2vs0mg"},{"bike_id":"891df56f-eb65-466b-908a-1fb801bc3464","system_id":"levelo_inurba_marseille","lat":43.31108,"lon":5.37772,"is_reserved":false,"is_disabled":false,"rental_uris":{"android":"levelo://app?vid=891df56f-eb65-466b-908a-1fb801bc3464","ios":"levelo://app?vid=891df56f-eb65-466b-908a-1fb801bc3464"},"vehicle_type_id":"4","last_reported":1729188662,"current_range_meters":8000,"station_id":"ce4bgt92rcd13ifvqcg0","pricing_plan_id":"cebpf4jnsgd1na2vs0mg"},{"bike_id":"cddb2538-acdb-46a5-bc95-6e0a8d74ef0c","system_id":"levelo_inurba_marseille","lat":43.30803,"lon":5.43532,"is_reserved":false,"is_disabled":false,"rental_uris":{"android":"levelo://app?vid=cddb2538-acdb-46a5-bc95-6e0a8d74ef0c","ios":"levelo://app?vid=cddb2538-acdb-46a5-bc95-6e0a8d74ef0c"},"vehicle_type_id":"4","last_reported":1729188662,"current_range_meters":36800,"station_id":"ce4bhph2rcd13ifvqheg","pricing_plan_id":"cebpf4jnsgd1na2vs0mg"},{"bike_id":"245d8487-1b88-4b97-9945-0896fa3e7cbe","system_id":"levelo_inurba_marseille","lat":43.31757,"lon":5.39021,"is_reserved":false,"is_disabled":false,"rental_uris":{"android":"levelo://app?vid=245d8487-1b88-4b97-9945-0896fa3e7cbe","ios":"levelo://app?vid=245d8487-1b88-4b97-9945-0896fa3e7cbe"},"vehicle_type_id":"4","last_reported":1729188662,"current_range_meters":18800,"station_id":"ce4bhqp2rcd13ifvqhng","pricing_plan_id":"cebpf4jnsgd1na2vs0mg"},{"bike_id":"5410f9fd-9cec-4950-ad74-b6b68e584820","system_id":"levelo_inurba_marseille","lat":43.23191,"lon":5.3999,"is_reserved":false,"is_disabled":false,"rental_uris":{"android":"levelo://app?vid=5410f9fd-9cec-4950-ad74-b6b68e584820","ios":"levelo://app?vid=5410f9fd-9cec-4950-ad74-b6b68e584820"},"vehicle_type_id":"4","last_reported":1729188662,"current_range_meters":2000,"station_id":"ce4bhn12rcd13ifvqgqg","pricing_plan_id":"cebpf4jnsgd1na2vs0mg"},{"bike_id":"15e319b1-637b-4e82-90e8-5e7ee80a529b","system_id":"levelo_inurba_marseille","lat":43.24807,"lon":5.37458,"is_reserved":false,"is_disabled":false,"rental_uris":{"android":"levelo://app?vid=15e319b1-637b-4e82-90e8-5e7ee80a529b","ios":"levelo://app?vid=15e319b1-637b-4e82-90e8-5e7ee80a529b"},"vehicle_type_id":"4","last_reported":1729188662,"current_range_meters":38800,"station_id":"ce4bhgh2rcd13ifvqfb0","pricing_plan_id":"cebpf4jnsgd1na2vs0mg"},{"bike_id":"99bac955-8d00-45ad-9d33-d9b1a6360316","system_id":"levelo_inurba_marseille","lat":43.29315,"lon":5.37183,"is_reserved":false,"is_disabled":false,"rental_uris":{"android":"levelo://app?vid=99bac955-8d00-45ad-9d33-d9b1a6360316","ios":"levelo://app?vid=99bac955-8d00-45ad-9d33-d9b1a6360316"},"vehicle_type_id":"4","last_reported":1729188662,"current_range_meters":6800,"station_id":"ce4bgh92rcd13ifvqb40","pricing_plan_id":"cebpf4jnsgd1na2vs0mg"},{"bike_id":"1641b826-604a-4181-8231-dca386f637a6","system_id":"levelo_inurba_marseille","lat":43.23195,"lon":5.35549,"is_reserved":false,"is_disabled":false,"rental_uris":{"android":"levelo://app?vid=1641b826-604a-4181-8231-dca386f637a6","ios":"levelo://app?vid=1641b826-604a-4181-8231-dca386f637a6"},"vehicle_type_id":"4","last_reported":1729188662,"current_range_meters":32800,"station_id":"ce4bhu92rcd13ifvqi70","pricing_plan_id":"cebpf4jnsgd1na2vs0mg"},{"bike_id":"89211ee2-076f-4df3-92bd-cd8885f2e76d","system_id":"levelo_inurba_marseille","lat":43.23195,"lon":5.35551,"is_reserved":false,"is_disabled":false,"rental_uris":{"android":"levelo://app?vid=89211ee2-076f-4df3-92bd-cd8885f2e76d","ios":"levelo://app?vid=89211ee2-076f-4df3-92bd-cd8885f2e76d"},"vehicle_type_id":"4","last_reported":1729188662,"current_range_meters":32000,"station_id":"ce4bhu92rcd13ifvqi70","pricing_plan_id":"cebpf4jnsgd1na2vs0mg"},{"bike_id":"8d508003-bcec-41af-9df5-af8bae736e87","system_id":"levelo_inurba_marseille","lat":43.27818,"lon":5.40704,"is_reserved":false,"is_disabled":false,"rental_uris":{"android":"levelo://app?vid=8d508003-bcec-41af-9df5-af8bae736e87","ios":"levelo://app?vid=8d508003-bcec-41af-9df5-af8bae736e87"},"vehicle_type_id":"4","last_reported":1729188662,"current_range_meters":9200,"station_id":"ce4bhnh2rcd13ifvqgtg","pricing_plan_id":"cebpf4jnsgd1na2vs0mg"},{"bike_id":"0f77762d-5c5d-4f91-b804-54eee0a4240b","system_id":"levelo_inurba_marseille","lat":43.29099,"lon":5.38147,"is_reserved":false,"is_disabled":false,"rental_uris":{"android":"levelo://app?vid=0f77762d-5c5d-4f91-b804-54eee0a4240b","ios":"levelo://app?vid=0f77762d-5c5d-4f91-b804-54eee0a4240b"},"vehicle_type_id":"4","last_reported":1729188662,"current_range_meters":19600,"station_id":"ce4bh512rcd13ifvqe2g","pricing_plan_id":"cebpf4jnsgd1na2vs0mg"},{"bike_id":"6fa72718-c3ec-4938-ab97-d70593572a1b","system_id":"levelo_inurba_marseille","lat":43.29425,"lon":5.38624,"is_reserved":false,"is_disabled":false,"rental_uris":{"android":"levelo://app?vid=6fa72718-c3ec-4938-ab97-d70593572a1b","ios":"levelo://app?vid=6fa72718-c3ec-4938-ab97-d70593572a1b"},"vehicle_type_id":"4","last_reported":1729188662,"current_range_meters":38800,"station_id":"ce4bh2h2rcd13ifvqdh0","pricing_plan_id":"cebpf4jnsgd1na2vs0mg"},{"bike_id":"6fadb2ab-1b56-4f31-b9fd-bf2c613c3fc5","system_id":"levelo_inurba_marseille","lat":43.24178,"lon":5.39737,"is_reserved":false,"is_disabled":false,"rental_uris":{"android":"levelo://app?vid=6fadb2ab-1b56-4f31-b9fd-bf2c613c3fc5","ios":"levelo://app?vid=6fadb2ab-1b56-4f31-b9fd-bf2c613c3fc5"},"vehicle_type_id":"4","last_reported":1729188662,"current_range_meters":10000,"station_id":"ce4bhn12rcd13ifvqgpg","pricing_plan_id":"cebpf4jnsgd1na2vs0mg"},{"bike_id":"f88c7e01-bc8c-4735-8a37-e29425c30c87","system_id":"levelo_inurba_marseille","lat":43.23196,"lon":5.39982,"is_reserved":false,"is_disabled":false,"rental_uris":{"android":"levelo://app?vid=f88c7e01-bc8c-4735-8a37-e29425c30c87","ios":"levelo://app?vid=f88c7e01-bc8c-4735-8a37-e29425c30c87"},"vehicle_type_id":"4","last_reported":1729188662,"current_range_meters":11200,"station_id":"ce4bhn12rcd13ifvqgqg","pricing_plan_id":"cebpf4jnsgd1na2vs0mg"},{"bike_id":"e8fa0c67-c553-4a87-9c32-6644007fca22","system_id":"levelo_inurba_marseille","lat":43.28615,"lon":5.35102,"is_reserved":false,"is_disabled":false,"rental_uris":{"android":"levelo://app?vid=e8fa0c67-c553-4a87-9c32-6644007fca22","ios":"levelo://app?vid=e8fa0c67-c553-4a87-9c32-6644007fca22"},"vehicle_type_id":"4","last_reported":1729188662,"current_range_meters":17200,"station_id":"ce4bhch2rcd13ifvqeug","pricing_plan_id":"cebpf4jnsgd1na2vs0mg"},{"bike_id":"14deb1b1-b495-4b35-97c2-895a5ef7ad23","system_id":"levelo_inurba_marseille","lat":43.32342,"lon":5.40617,"is_reserved":false,"is_disabled":false,"rental_uris":{"android":"levelo://app?vid=14deb1b1-b495-4b35-97c2-895a5ef7ad23","ios":"levelo://app?vid=14deb1b1-b495-4b35-97c2-895a5ef7ad23"},"vehicle_type_id":"4","last_reported":1729188662,"current_range_meters":39200,"station_id":"ce4bhq92rcd13ifvqhjg","pricing_plan_id":"cebpf4jnsgd1na2vs0mg"},{"bike_id":"a5ed1db1-748e-44bb-b80a-0394adffdf5f","system_id":"levelo_inurba_marseille","lat":43.3137,"lon":5.38489,"is_reserved":false,"is_disabled":false,"rental_uris":{"android":"levelo://app?vid=a5ed1db1-748e-44bb-b80a-0394adffdf5f","ios":"levelo://app?vid=a5ed1db1-748e-44bb-b80a-0394adffdf5f"},"vehicle_type_id":"4","last_reported":1729188662,"current_range_meters":10800,"station_id":"ce4bgt92rcd13ifvqcf0","pricing_plan_id":"cebpf4jnsgd1na2vs0mg"},{"bike_id":"7d510235-c3a6-45d1-a477-e6ed29578afa","system_id":"levelo_inurba_marseille","lat":43.31071,"lon":5.3835,"is_reserved":false,"is_disabled":false,"rental_uris":{"android":"levelo://app?vid=7d510235-c3a6-45d1-a477-e6ed29578afa","ios":"levelo://app?vid=7d510235-c3a6-45d1-a477-e6ed29578afa"},"vehicle_type_id":"4","last_reported":1729188662,"current_range_meters":17200,"station_id":"ce4bgv92rcd13ifvqcr0","pricing_plan_id":"cebpf4jnsgd1na2vs0mg"},{"bike_id":"87440bd7-4730-412f-b52f-03b263c3d6ba","system_id":"levelo_inurba_marseille","lat":43.23195,"lon":5.35551,"is_reserved":false,"is_disabled":false,"rental_uris":{"android":"levelo://app?vid=87440bd7-4730-412f-b52f-03b263c3d6ba","ios":"levelo://app?vid=87440bd7-4730-412f-b52f-03b263c3d6ba"},"vehicle_type_id":"4","last_reported":1729188662,"current_range_meters":17600,"station_id":"ce4bhu92rcd13ifvqi70","pricing_plan_id":"cebpf4jnsgd1na2vs0mg"},{"bike_id":"43774f75-ef7f-471a-8edd-0d38ec3efe71","system_id":"levelo_inurba_marseille","lat":43.30139,"lon":5.38778,"is_reserved":false,"is_disabled":false,"rental_uris":{"android":"levelo://app?vid=43774f75-ef7f-471a-8edd-0d38ec3efe71","ios":"levelo://app?vid=43774f75-ef7f-471a-8edd-0d38ec3efe71"},"vehicle_type_id":"4","last_reported":1729188662,"current_range_meters":25200,"station_id":"ce4bghh2rcd13ifvqb60","pricing_plan_id":"cebpf4jnsgd1na2vs0mg"},{"bike_id":"c4153079-9745-41c3-857b-88e44f1eec0d","system_id":"levelo_inurba_marseille","lat":43.28464,"lon":5.35887,"is_reserved":false,"is_disabled":false,"rental_uris":{"android":"levelo://app?vid=c4153079-9745-41c3-857b-88e44f1eec0d","ios":"levelo://app?vid=c4153079-9745-41c3-857b-88e44f1eec0d"},"vehicle_type_id":"4","last_reported":1729188662,"current_range_meters":9600,"station_id":"ce4bhah2rcd13ifvqei0","pricing_plan_id":"cebpf4jnsgd1na2vs0mg"},{"bike_id":"5f130559-a190-49b7-8dea-f216e6648a63","system_id":"levelo_inurba_marseille","lat":43.29807,"lon":5.38098,"is_reserved":false,"is_disabled":false,"rental_uris":{"android":"levelo://app?vid=5f130559-a190-49b7-8dea-f216e6648a63","ios":"levelo://app?vid=5f130559-a190-49b7-8dea-f216e6648a63"},"vehicle_type_id":"4","last_reported":1729188662,"current_range_meters":38800,"station_id":"ce4bgip2rcd13ifvqbb0","pricing_plan_id":"cebpf4jnsgd1na2vs0mg"},{"bike_id":"8b52cae9-7e47-4af1-ba65-5f35a0a09f7f","system_id":"levelo_inurba_marseille","lat":43.28456,"lon":5.35888,"is_reserved":false,"is_disabled":false,"rental_uris":{"android":"levelo://app?vid=8b52cae9-7e47-4af1-ba65-5f35a0a09f7f","ios":"levelo://app?vid=8b52cae9-7e47-4af1-ba65-5f35a0a09f7f"},"vehicle_type_id":"4","last_reported":1729188662,"current_range_meters":27600,"station_id":"ce4bhah2rcd13ifvqei0","pricing_plan_id":"cebpf4jnsgd1na2vs0mg"},{"bike_id":"384fc17d-da3f-4ef9-9eef-55479fb56c35","system_id":"levelo_inurba_marseille","lat":43.330244,"lon":5.390406,"is_reserved":false,"is_disabled":false,"rental_uris":{"android":"levelo://app?vid=384fc17d-da3f-4ef9-9eef-55479fb56c35","ios":"levelo://app?vid=384fc17d-da3f-4ef9-9eef-55479fb56c35"},"vehicle_type_id":"4","last_reported":1729188662,"current_range_meters":7200,"station_id":"ce4bhr92rcd13ifvqhrg","pricing_plan_id":"cebpf4jnsgd1na2vs0mg"},{"bike_id":"b5f59a90-1e69-4893-a2d9-7ee9b626f1e4","system_id":"levelo_inurba_marseille","lat":43.24672,"lon":5.38165,"is_reserved":false,"is_disabled":false,"rental_uris":{"android":"levelo://app?vid=b5f59a90-1e69-4893-a2d9-7ee9b626f1e4","ios":"levelo://app?vid=b5f59a90-1e69-4893-a2d9-7ee9b626f1e4"},"vehicle_type_id":"4","last_reported":1729188662,"current_range_meters":38800,"station_id":"ce4bhih2rcd13ifvqfr0","pricing_plan_id":"cebpf4jnsgd1na2vs0mg"},{"bike_id":"7e93617d-79bd-4c59-af08-1941166f95fd","system_id":"levelo_inurba_marseille","lat":43.31757,"lon":5.39015,"is_reserved":false,"is_disabled":false,"rental_uris":{"android":"levelo://app?vid=7e93617d-79bd-4c59-af08-1941166f95fd","ios":"levelo://app?vid=7e93617d-79bd-4c59-af08-1941166f95fd"},"vehicle_type_id":"4","last_reported":1729188662,"current_range_meters":2800,"station_id":"ce4bhqp2rcd13ifvqhng","pricing_plan_id":"cebpf4jnsgd1na2vs0mg"},{"bike_id":"022f7009-8acb-401e-ad09-bf05671ae2f0","system_id":"levelo_inurba_marseille","lat":43.292711,"lon":5.399739,"is_reserved":false,"is_disabled":false,"rental_uris":{"android":"levelo://app?vid=022f7009-8acb-401e-ad09-bf05671ae2f0","ios":"levelo://app?vid=022f7009-8acb-401e-ad09-bf05671ae2f0"},"vehicle_type_id":"4","last_reported":1729188662,"current_range_meters":24800,"station_id":"ce4bh192rcd13ifvqdd0","pricing_plan_id":"cebpf4jnsgd1na2vs0mg"},{"bike_id":"037e7d08-a78c-4974-ac0b-96c939dea0e0","system_id":"levelo_inurba_marseille","lat":43.30801,"lon":5.4352,"is_reserved":false,"is_disabled":false,"rental_uris":{"android":"levelo://app?vid=037e7d08-a78c-4974-ac0b-96c939dea0e0","ios":"levelo://app?vid=037e7d08-a78c-4974-ac0b-96c939dea0e0"},"vehicle_type_id":"4","last_reported":1729188662,"current_range_meters":16400,"station_id":"ce4bhph2rcd13ifvqheg","pricing_plan_id":"cebpf4jnsgd1na2vs0mg"},{"bike_id":"722be19f-2d24-44a2-b3cc-ac8597c3719b","system_id":"levelo_inurba_marseille","lat":43.28156,"lon":5.42644,"is_reserved":false,"is_disabled":false,"rental_uris":{"android":"levelo://app?vid=722be19f-2d24-44a2-b3cc-ac8597c3719b","ios":"levelo://app?vid=722be19f-2d24-44a2-b3cc-ac8597c3719b"},"vehicle_type_id":"4","last_reported":1729188662,"current_range_meters":5600,"station_id":"ce4bhnh2rcd13ifvqgug","pricing_plan_id":"cebpf4jnsgd1na2vs0mg"},{"bike_id":"6a53f35f-762f-4592-9a8f-ca1c22a37d5c","system_id":"levelo_inurba_marseille","lat":43.31719,"lon":5.42407,"is_reserved":false,"is_disabled":false,"rental_uris":{"android":"levelo://app?vid=6a53f35f-762f-4592-9a8f-ca1c22a37d5c","ios":"levelo://app?vid=6a53f35f-762f-4592-9a8f-ca1c22a37d5c"},"vehicle_type_id":"4","last_reported":1729188662,"current_range_meters":16000,"station_id":"ce4bhp92rcd13ifvqhbg","pricing_plan_id":"cebpf4jnsgd1na2vs0mg"},{"bike_id":"0bddf13a-c6ee-4477-84da-09c1c0e311d4","system_id":"levelo_inurba_marseille","lat":43.23193,"lon":5.35551,"is_reserved":false,"is_disabled":false,"rental_uris":{"android":"levelo://app?vid=0bddf13a-c6ee-4477-84da-09c1c0e311d4","ios":"levelo://app?vid=0bddf13a-c6ee-4477-84da-09c1c0e311d4"},"vehicle_type_id":"4","last_reported":1729188662,"current_range_meters":14800,"station_id":"ce4bhu92rcd13ifvqi70","pricing_plan_id":"cebpf4jnsgd1na2vs0mg"},{"bike_id":"ecdffe81-4124-4f3a-8ea8-000d22b7503b","system_id":"levelo_inurba_marseille","lat":43.2511,"lon":5.40325,"is_reserved":false,"is_disabled":false,"rental_uris":{"android":"levelo://app?vid=ecdffe81-4124-4f3a-8ea8-000d22b7503b","ios":"levelo://app?vid=ecdffe81-4124-4f3a-8ea8-000d22b7503b"},"vehicle_type_id":"4","last_reported":1729188662,"current_range_meters":24000,"station_id":"ce4bhlh2rcd13ifvqgig","pricing_plan_id":"cebpf4jnsgd1na2vs0mg"},{"bike_id":"64a9906c-ff1b-4ca1-8e36-9ae1f1643e19","system_id":"levelo_inurba_marseille","lat":43.29522,"lon":5.39031,"is_reserved":false,"is_disabled":false,"rental_uris":{"android":"levelo://app?vid=64a9906c-ff1b-4ca1-8e36-9ae1f1643e19","ios":"levelo://app?vid=64a9906c-ff1b-4ca1-8e36-9ae1f1643e19"},"vehicle_type_id":"4","last_reported":1729188662,"current_range_meters":36000,"station_id":"ce4bh3p2rcd13ifvqdp0","pricing_plan_id":"cebpf4jnsgd1na2vs0mg"},{"bike_id":"a42336f1-6fcd-4045-891e-701347f41b85","system_id":"levelo_inurba_marseille","lat":43.23181,"lon":5.3999,"is_reserved":false,"is_disabled":false,"rental_uris":{"android":"levelo://app?vid=a42336f1-6fcd-4045-891e-701347f41b85","ios":"levelo://app?vid=a42336f1-6fcd-4045-891e-701347f41b85"},"vehicle_type_id":"4","last_reported":1729188662,"current_range_meters":7200,"station_id":"ce4bhn12rcd13ifvqgqg","pricing_plan_id":"cebpf4jnsgd1na2vs0mg"},{"bike_id":"2901ff37-0119-4f7b-91fb-d7fdf0736260","system_id":"levelo_inurba_marseille","lat":43.2293,"lon":5.35374,"is_reserved":false,"is_disabled":false,"rental_uris":{"android":"levelo://app?vid=2901ff37-0119-4f7b-91fb-d7fdf0736260","ios":"levelo://app?vid=2901ff37-0119-4f7b-91fb-d7fdf0736260"},"vehicle_type_id":"4","last_reported":1729188662,"current_range_meters":30800,"station_id":"cpo3532slgdg3j2ikp40","pricing_plan_id":"cebpf4jnsgd1na2vs0mg"},{"bike_id":"cb76f825-9dab-46a9-8a65-cc589bf2be41","system_id":"levelo_inurba_marseille","lat":43.31079,"lon":5.38352,"is_reserved":false,"is_disabled":false,"rental_uris":{"android":"levelo://app?vid=cb76f825-9dab-46a9-8a65-cc589bf2be41","ios":"levelo://app?vid=cb76f825-9dab-46a9-8a65-cc589bf2be41"},"vehicle_type_id":"4","last_reported":1729188662,"current_range_meters":14800,"station_id":"ce4bgv92rcd13ifvqcr0","pricing_plan_id":"cebpf4jnsgd1na2vs0mg"},{"bike_id":"b76a5105-a423-43f5-aec7-bd99ea0efcb3","system_id":"levelo_inurba_marseille","lat":43.27994,"lon":5.40012,"is_reserved":false,"is_disabled":false,"rental_uris":{"android":"levelo://app?vid=b76a5105-a423-43f5-aec7-bd99ea0efcb3","ios":"levelo://app?vid=b76a5105-a423-43f5-aec7-bd99ea0efcb3"},"vehicle_type_id":"4","last_reported":1729188662,"current_range_meters":14800,"station_id":"ce4bho92rcd13ifvqh4g","pricing_plan_id":"cebpf4jnsgd1na2vs0mg"},{"bike_id":"61296efc-2989-4d06-bf1e-eb0e4d43d68e","system_id":"levelo_inurba_marseille","lat":43.29899,"lon":5.43664,"is_reserved":false,"is_disabled":false,"rental_uris":{"android":"levelo://app?vid=61296efc-2989-4d06-bf1e-eb0e4d43d68e","ios":"levelo://app?vid=61296efc-2989-4d06-bf1e-eb0e4d43d68e"},"vehicle_type_id":"4","last_reported":1729188662,"current_range_meters":20800,"station_id":"ce4bhpp2rcd13ifvqhfg","pricing_plan_id":"cebpf4jnsgd1na2vs0mg"},{"bike_id":"915d8fda-eaef-4a60-9d36-992c88c1e042","system_id":"levelo_inurba_marseille","lat":43.25005,"lon":5.38927,"is_reserved":false,"is_disabled":false,"rental_uris":{"android":"levelo://app?vid=915d8fda-eaef-4a60-9d36-992c88c1e042","ios":"levelo://app?vid=915d8fda-eaef-4a60-9d36-992c88c1e042"},"vehicle_type_id":"4","last_reported":1729188662,"current_range_meters":17600,"station_id":"ce4bhgp2rcd13ifvqfd0","pricing_plan_id":"cebpf4jnsgd1na2vs0mg"},{"bike_id":"7a76e164-6b75-4577-a223-fcbb4c2d551b","system_id":"levelo_inurba_marseille","lat":43.28082,"lon":5.39664,"is_reserved":false,"is_disabled":false,"rental_uris":{"android":"levelo://app?vid=7a76e164-6b75-4577-a223-fcbb4c2d551b","ios":"levelo://app?vid=7a76e164-6b75-4577-a223-fcbb4c2d551b"},"vehicle_type_id":"4","last_reported":1729188662,"current_range_meters":37600,"station_id":"ce4bho12rcd13ifvqh2g","pricing_plan_id":"cebpf4jnsgd1na2vs0mg"},{"bike_id":"11c09b33-4e99-4828-b40f-13a81e44ac67","system_id":"levelo_inurba_marseille","lat":43.29297,"lon":5.39436,"is_reserved":false,"is_disabled":false,"rental_uris":{"android":"levelo://app?vid=11c09b33-4e99-4828-b40f-13a81e44ac67","ios":"levelo://app?vid=11c09b33-4e99-4828-b40f-13a81e44ac67"},"vehicle_type_id":"4","last_reported":1729188662,"current_range_meters":29600,"station_id":"ce4bh292rcd13ifvqdf0","pricing_plan_id":"cebpf4jnsgd1na2vs0mg"},{"bike_id":"8a8e14d6-1b1a-4430-b1ad-c14354c56425","system_id":"levelo_inurba_marseille","lat":43.28468,"lon":5.35892,"is_reserved":false,"is_disabled":false,"rental_uris":{"android":"levelo://app?vid=8a8e14d6-1b1a-4430-b1ad-c14354c56425","ios":"levelo://app?vid=8a8e14d6-1b1a-4430-b1ad-c14354c56425"},"vehicle_type_id":"4","last_reported":1729188662,"current_range_meters":3200,"station_id":"ce4bhah2rcd13ifvqei0","pricing_plan_id":"cebpf4jnsgd1na2vs0mg"},{"bike_id":"292b9425-1372-40d4-bf0a-fe57aa779a41","system_id":"levelo_inurba_marseille","lat":43.23065,"lon":5.35492,"is_reserved":false,"is_disabled":false,"rental_uris":{"android":"levelo://app?vid=292b9425-1372-40d4-bf0a-fe57aa779a41","ios":"levelo://app?vid=292b9425-1372-40d4-bf0a-fe57aa779a41"},"vehicle_type_id":"4","last_reported":1729188662,"current_range_meters":23200,"station_id":"cpo3342slgdg3j2ifvpg","pricing_plan_id":"cebpf4jnsgd1na2vs0mg"},{"bike_id":"cf750752-7fc7-42bf-b72c-e39dde9b2ed0","system_id":"levelo_inurba_marseille","lat":43.27915,"lon":5.39578,"is_reserved":false,"is_disabled":false,"rental_uris":{"android":"levelo://app?vid=cf750752-7fc7-42bf-b72c-e39dde9b2ed0","ios":"levelo://app?vid=cf750752-7fc7-42bf-b72c-e39dde9b2ed0"},"vehicle_type_id":"4","last_reported":1729188662,"current_range_meters":25200,"station_id":"ce4bhf92rcd13ifvqf40","pricing_plan_id":"cebpf4jnsgd1na2vs0mg"},{"bike_id":"7a6da6be-7067-45e5-96fd-d4d8a254df82","system_id":"levelo_inurba_marseille","lat":43.2696,"lon":5.3863,"is_reserved":false,"is_disabled":false,"rental_uris":{"android":"levelo://app?vid=7a6da6be-7067-45e5-96fd-d4d8a254df82","ios":"levelo://app?vid=7a6da6be-7067-45e5-96fd-d4d8a254df82"},"vehicle_type_id":"4","last_reported":1729188662,"current_range_meters":23200,"station_id":"ce4bhh92rcd13ifvqfh0","pricing_plan_id":"cebpf4jnsgd1na2vs0mg"},{"bike_id":"afe9ff89-1b31-492e-9dea-f8a33b0bd764","system_id":"levelo_inurba_marseille","lat":43.27823,"lon":5.40717,"is_reserved":false,"is_disabled":false,"rental_uris":{"android":"levelo://app?vid=afe9ff89-1b31-492e-9dea-f8a33b0bd764","ios":"levelo://app?vid=afe9ff89-1b31-492e-9dea-f8a33b0bd764"},"vehicle_type_id":"4","last_reported":1729188662,"current_range_meters":12400,"station_id":"ce4bhnh2rcd13ifvqgtg","pricing_plan_id":"cebpf4jnsgd1na2vs0mg"},{"bike_id":"572612ea-6211-4e75-b878-624a22c01cde","system_id":"levelo_inurba_marseille","lat":43.24645,"lon":5.38893,"is_reserved":false,"is_disabled":false,"rental_uris":{"android":"levelo://app?vid=572612ea-6211-4e75-b878-624a22c01cde","ios":"levelo://app?vid=572612ea-6211-4e75-b878-624a22c01cde"},"vehicle_type_id":"4","last_reported":1729188662,"current_range_meters":38800,"station_id":"ce4bhg12rcd13ifvqf60","pricing_plan_id":"cebpf4jnsgd1na2vs0mg"},{"bike_id":"cf7ca4a9-1aae-4c3e-b6f7-b27b18b52860","system_id":"levelo_inurba_marseille","lat":43.30316,"lon":5.36905,"is_reserved":false,"is_disabled":false,"rental_uris":{"android":"levelo://app?vid=cf7ca4a9-1aae-4c3e-b6f7-b27b18b52860","ios":"levelo://app?vid=cf7ca4a9-1aae-4c3e-b6f7-b27b18b52860"},"vehicle_type_id":"4","last_reported":1729188662,"current_range_meters":9200,"station_id":"ce4bgqh2rcd13ifvqc5g","pricing_plan_id":"cebpf4jnsgd1na2vs0mg"},{"bike_id":"01cbf671-4826-495e-a376-b47a0ddca874","system_id":"levelo_inurba_marseille","lat":43.32338,"lon":5.40629,"is_reserved":false,"is_disabled":false,"rental_uris":{"android":"levelo://app?vid=01cbf671-4826-495e-a376-b47a0ddca874","ios":"levelo://app?vid=01cbf671-4826-495e-a376-b47a0ddca874"},"vehicle_type_id":"4","last_reported":1729188662,"current_range_meters":12400,"station_id":"ce4bhq92rcd13ifvqhjg","pricing_plan_id":"cebpf4jnsgd1na2vs0mg"},{"bike_id":"cd907a4e-4f2a-423f-9a17-d7a09f554397","system_id":"levelo_inurba_marseille","lat":43.27338,"lon":5.39102,"is_reserved":false,"is_disabled":false,"rental_uris":{"android":"levelo://app?vid=cd907a4e-4f2a-423f-9a17-d7a09f554397","ios":"levelo://app?vid=cd907a4e-4f2a-423f-9a17-d7a09f554397"},"vehicle_type_id":"4","last_reported":1729188662,"current_range_meters":2000,"station_id":"ce4bhgp2rcd13ifvqfe0","pricing_plan_id":"cebpf4jnsgd1na2vs0mg"},{"bike_id":"8e16fe43-e41e-4dbb-9293-564d58b7fd38","system_id":"levelo_inurba_marseille","lat":43.30144,"lon":5.37427,"is_reserved":false,"is_disabled":false,"rental_uris":{"android":"levelo://app?vid=8e16fe43-e41e-4dbb-9293-564d58b7fd38","ios":"levelo://app?vid=8e16fe43-e41e-4dbb-9293-564d58b7fd38"},"vehicle_type_id":"4","last_reported":1729188662,"current_range_meters":16000,"station_id":"ce4bgs92rcd13ifvqcc0","pricing_plan_id":"cebpf4jnsgd1na2vs0mg"},{"bike_id":"e3ca7803-aaa7-4ddf-8937-86afb5d1cee8","system_id":"levelo_inurba_marseille","lat":43.3171,"lon":5.43708,"is_reserved":false,"is_disabled":false,"rental_uris":{"android":"levelo://app?vid=e3ca7803-aaa7-4ddf-8937-86afb5d1cee8","ios":"levelo://app?vid=e3ca7803-aaa7-4ddf-8937-86afb5d1cee8"},"vehicle_type_id":"4","last_reported":1729188662,"current_range_meters":24800,"station_id":"ce4bhp92rcd13ifvqhcg","pricing_plan_id":"cebpf4jnsgd1na2vs0mg"},{"bike_id":"d8da4323-1978-489d-accb-b2a2e78b9360","system_id":"levelo_inurba_marseille","lat":43.29555,"lon":5.42273,"is_reserved":false,"is_disabled":false,"rental_uris":{"android":"levelo://app?vid=d8da4323-1978-489d-accb-b2a2e78b9360","ios":"levelo://app?vid=d8da4323-1978-489d-accb-b2a2e78b9360"},"vehicle_type_id":"4","last_reported":1729188662,"current_range_meters":34800,"station_id":"ce4bhph2rcd13ifvqhdg","pricing_plan_id":"cebpf4jnsgd1na2vs0mg"},{"bike_id":"3c450ea1-bb1c-461e-a5f8-4dbd2054ea3f","system_id":"levelo_inurba_marseille","lat":43.28153,"lon":5.42643,"is_reserved":false,"is_disabled":false,"rental_uris":{"android":"levelo://app?vid=3c450ea1-bb1c-461e-a5f8-4dbd2054ea3f","ios":"levelo://app?vid=3c450ea1-bb1c-461e-a5f8-4dbd2054ea3f"},"vehicle_type_id":"4","last_reported":1729188662,"current_range_meters":32000,"station_id":"ce4bhnh2rcd13ifvqgug","pricing_plan_id":"cebpf4jnsgd1na2vs0mg"},{"bike_id":"568ad7c3-61ab-4891-8036-e9ee4ec77a40","system_id":"levelo_inurba_marseille","lat":43.23181,"lon":5.39986,"is_reserved":false,"is_disabled":false,"rental_uris":{"android":"levelo://app?vid=568ad7c3-61ab-4891-8036-e9ee4ec77a40","ios":"levelo://app?vid=568ad7c3-61ab-4891-8036-e9ee4ec77a40"},"vehicle_type_id":"4","last_reported":1729188662,"current_range_meters":38800,"station_id":"ce4bhn12rcd13ifvqgqg","pricing_plan_id":"cebpf4jnsgd1na2vs0mg"},{"bike_id":"0a037391-6b40-44cf-8987-f9254d45bbea","system_id":"levelo_inurba_marseille","lat":43.309524,"lon":5.39027,"is_reserved":false,"is_disabled":false,"rental_uris":{"android":"levelo://app?vid=0a037391-6b40-44cf-8987-f9254d45bbea","ios":"levelo://app?vid=0a037391-6b40-44cf-8987-f9254d45bbea"},"vehicle_type_id":"4","last_reported":1729188662,"current_range_meters":35600,"station_id":"ce4bgup2rcd13ifvqco0","pricing_plan_id":"cebpf4jnsgd1na2vs0mg"},{"bike_id":"3664398f-378f-46f2-bd12-30042ad8db9d","system_id":"levelo_inurba_marseille","lat":43.23184,"lon":5.39981,"is_reserved":false,"is_disabled":false,"rental_uris":{"android":"levelo://app?vid=3664398f-378f-46f2-bd12-30042ad8db9d","ios":"levelo://app?vid=3664398f-378f-46f2-bd12-30042ad8db9d"},"vehicle_type_id":"4","last_reported":1729188662,"current_range_meters":33600,"station_id":"ce4bhn12rcd13ifvqgqg","pricing_plan_id":"cebpf4jnsgd1na2vs0mg"},{"bike_id":"f17779a9-5022-42b5-beb5-0ab99a26452b","system_id":"levelo_inurba_marseille","lat":43.27813,"lon":5.40709,"is_reserved":false,"is_disabled":false,"rental_uris":{"android":"levelo://app?vid=f17779a9-5022-42b5-beb5-0ab99a26452b","ios":"levelo://app?vid=f17779a9-5022-42b5-beb5-0ab99a26452b"},"vehicle_type_id":"4","last_reported":1729188662,"current_range_meters":32000,"station_id":"ce4bhnh2rcd13ifvqgtg","pricing_plan_id":"cebpf4jnsgd1na2vs0mg"},{"bike_id":"3c0b4095-688f-4a0f-88cc-dfe9db2b3c79","system_id":"levelo_inurba_marseille","lat":43.29852,"lon":5.36296,"is_reserved":false,"is_disabled":false,"rental_uris":{"android":"levelo://app?vid=3c0b4095-688f-4a0f-88cc-dfe9db2b3c79","ios":"levelo://app?vid=3c0b4095-688f-4a0f-88cc-dfe9db2b3c79"},"vehicle_type_id":"4","last_reported":1729188662,"current_range_meters":26000,"station_id":"ce4bgpp2rcd13ifvqc3g","pricing_plan_id":"cebpf4jnsgd1na2vs0mg"},{"bike_id":"a9d80141-cb04-4f88-bcc5-9763572e3517","system_id":"levelo_inurba_marseille","lat":43.23194,"lon":5.3555,"is_reserved":false,"is_disabled":false,"rental_uris":{"android":"levelo://app?vid=a9d80141-cb04-4f88-bcc5-9763572e3517","ios":"levelo://app?vid=a9d80141-cb04-4f88-bcc5-9763572e3517"},"vehicle_type_id":"4","last_reported":1729188662,"current_range_meters":32000,"station_id":"ce4bhu92rcd13ifvqi70","pricing_plan_id":"cebpf4jnsgd1na2vs0mg"},{"bike_id":"35a22db4-7e9d-4709-be91-f373b0a75e57","system_id":"levelo_inurba_marseille","lat":43.33756,"lon":5.37449,"is_reserved":false,"is_disabled":false,"rental_uris":{"android":"levelo://app?vid=35a22db4-7e9d-4709-be91-f373b0a75e57","ios":"levelo://app?vid=35a22db4-7e9d-4709-be91-f373b0a75e57"},"vehicle_type_id":"4","last_reported":1729188662,"current_range_meters":13600,"station_id":"","pricing_plan_id":"cebpf4jnsgd1na2vs0mg"},{"bike_id":"73c81c60-6324-48ed-a11c-a3be0f4dfdd1","system_id":"levelo_inurba_marseille","lat":43.27369,"lon":5.36265,"is_reserved":false,"is_disabled":false,"rental_uris":{"android":"levelo://app?vid=73c81c60-6324-48ed-a11c-a3be0f4dfdd1","ios":"levelo://app?vid=73c81c60-6324-48ed-a11c-a3be0f4dfdd1"},"vehicle_type_id":"4","last_reported":1729188662,"current_range_meters":37600,"station_id":"ce4bhbh2rcd13ifvqeo0","pricing_plan_id":"cebpf4jnsgd1na2vs0mg"},{"bike_id":"b19b5037-d786-4358-bed3-351d73f6b645","system_id":"levelo_inurba_marseille","lat":43.29577,"lon":5.39966,"is_reserved":false,"is_disabled":false,"rental_uris":{"android":"levelo://app?vid=b19b5037-d786-4358-bed3-351d73f6b645","ios":"levelo://app?vid=b19b5037-d786-4358-bed3-351d73f6b645"},"vehicle_type_id":"4","last_reported":1729188662,"current_range_meters":8000,"station_id":"ce4bh312rcd13ifvqdj0","pricing_plan_id":"cebpf4jnsgd1na2vs0mg"},{"bike_id":"232859b9-fe55-49da-8d70-54008c900b9a","system_id":"levelo_inurba_marseille","lat":43.29895,"lon":5.43673,"is_reserved":false,"is_disabled":false,"rental_uris":{"android":"levelo://app?vid=232859b9-fe55-49da-8d70-54008c900b9a","ios":"levelo://app?vid=232859b9-fe55-49da-8d70-54008c900b9a"},"vehicle_type_id":"4","last_reported":1729188662,"current_range_meters":21600,"station_id":"ce4bhpp2rcd13ifvqhfg","pricing_plan_id":"cebpf4jnsgd1na2vs0mg"},{"bike_id":"87257494-f52b-411f-8858-369e564667c8","system_id":"levelo_inurba_marseille","lat":43.31329,"lon":5.39699,"is_reserved":false,"is_disabled":false,"rental_uris":{"android":"levelo://app?vid=87257494-f52b-411f-8858-369e564667c8","ios":"levelo://app?vid=87257494-f52b-411f-8858-369e564667c8"},"vehicle_type_id":"4","last_reported":1729188662,"current_range_meters":1200,"station_id":"ce4bgvp2rcd13ifvqcu0","pricing_plan_id":"cebpf4jnsgd1na2vs0mg"},{"bike_id":"4ce6a8a4-f543-406e-9b3b-bf69a485e2ff","system_id":"levelo_inurba_marseille","lat":43.2465,"lon":5.38893,"is_reserved":false,"is_disabled":false,"rental_uris":{"android":"levelo://app?vid=4ce6a8a4-f543-406e-9b3b-bf69a485e2ff","ios":"levelo://app?vid=4ce6a8a4-f543-406e-9b3b-bf69a485e2ff"},"vehicle_type_id":"4","last_reported":1729188662,"current_range_meters":32000,"station_id":"ce4bhg12rcd13ifvqf60","pricing_plan_id":"cebpf4jnsgd1na2vs0mg"},{"bike_id":"c9bf4f2f-c395-4348-a61a-af22ef7e335a","system_id":"levelo_inurba_marseille","lat":43.28617,"lon":5.351,"is_reserved":false,"is_disabled":false,"rental_uris":{"android":"levelo://app?vid=c9bf4f2f-c395-4348-a61a-af22ef7e335a","ios":"levelo://app?vid=c9bf4f2f-c395-4348-a61a-af22ef7e335a"},"vehicle_type_id":"4","last_reported":1729188662,"current_range_meters":24400,"station_id":"ce4bhch2rcd13ifvqeug","pricing_plan_id":"cebpf4jnsgd1na2vs0mg"},{"bike_id":"b286c029-0182-4c84-8cdc-cc4e9fd0b845","system_id":"levelo_inurba_marseille","lat":43.30279,"lon":5.37708,"is_reserved":false,"is_disabled":false,"rental_uris":{"android":"levelo://app?vid=b286c029-0182-4c84-8cdc-cc4e9fd0b845","ios":"levelo://app?vid=b286c029-0182-4c84-8cdc-cc4e9fd0b845"},"vehicle_type_id":"4","last_reported":1729188662,"current_range_meters":28800,"station_id":"ce4bguh2rcd13ifvqcj0","pricing_plan_id":"cebpf4jnsgd1na2vs0mg"},{"bike_id":"d41309ab-1a1f-4395-acaa-455483c3f8e1","system_id":"levelo_inurba_marseille","lat":43.23194,"lon":5.35559,"is_reserved":false,"is_disabled":false,"rental_uris":{"android":"levelo://app?vid=d41309ab-1a1f-4395-acaa-455483c3f8e1","ios":"levelo://app?vid=d41309ab-1a1f-4395-acaa-455483c3f8e1"},"vehicle_type_id":"4","last_reported":1729188662,"current_range_meters":36000,"station_id":"ce4bhu92rcd13ifvqi70","pricing_plan_id":"cebpf4jnsgd1na2vs0mg"},{"bike_id":"d82a1a91-6bc4-4177-bc00-eb280bf24d20","system_id":"levelo_inurba_marseille","lat":43.29033,"lon":5.35935,"is_reserved":false,"is_disabled":false,"rental_uris":{"android":"levelo://app?vid=d82a1a91-6bc4-4177-bc00-eb280bf24d20","ios":"levelo://app?vid=d82a1a91-6bc4-4177-bc00-eb280bf24d20"},"vehicle_type_id":"4","last_reported":1729188662,"current_range_meters":38800,"station_id":"ce4bha92rcd13ifvqeg0","pricing_plan_id":"cebpf4jnsgd1na2vs0mg"},{"bike_id":"0221b1ce-9bfb-4465-9cd7-410b5e790929","system_id":"levelo_inurba_marseille","lat":43.30138,"lon":5.39871,"is_reserved":false,"is_disabled":false,"rental_uris":{"android":"levelo://app?vid=0221b1ce-9bfb-4465-9cd7-410b5e790929","ios":"levelo://app?vid=0221b1ce-9bfb-4465-9cd7-410b5e790929"},"vehicle_type_id":"4","last_reported":1729188662,"current_range_meters":26800,"station_id":"ce4bh0h2rcd13ifvqd40","pricing_plan_id":"cebpf4jnsgd1na2vs0mg"},{"bike_id":"5d7fa87f-896d-4050-b095-97a49d3728a4","system_id":"levelo_inurba_marseille","lat":43.32289,"lon":5.38272,"is_reserved":false,"is_disabled":false,"rental_uris":{"android":"levelo://app?vid=5d7fa87f-896d-4050-b095-97a49d3728a4","ios":"levelo://app?vid=5d7fa87f-896d-4050-b095-97a49d3728a4"},"vehicle_type_id":"4","last_reported":1729188662,"current_range_meters":16800,"station_id":"ce4bhr12rcd13ifvqhqg","pricing_plan_id":"cebpf4jnsgd1na2vs0mg"},{"bike_id":"8492a2cf-69a3-49e8-aa89-101d80f390e5","system_id":"levelo_inurba_marseille","lat":43.2917,"lon":5.37164,"is_reserved":false,"is_disabled":false,"rental_uris":{"android":"levelo://app?vid=8492a2cf-69a3-49e8-aa89-101d80f390e5","ios":"levelo://app?vid=8492a2cf-69a3-49e8-aa89-101d80f390e5"},"vehicle_type_id":"4","last_reported":1729188662,"current_range_meters":3600,"station_id":"ce4bha92rcd13ifvqeh0","pricing_plan_id":"cebpf4jnsgd1na2vs0mg"},{"bike_id":"d7549997-4341-483a-8fd9-86b42a4b9e0d","system_id":"levelo_inurba_marseille","lat":43.31714,"lon":5.43707,"is_reserved":false,"is_disabled":false,"rental_uris":{"android":"levelo://app?vid=d7549997-4341-483a-8fd9-86b42a4b9e0d","ios":"levelo://app?vid=d7549997-4341-483a-8fd9-86b42a4b9e0d"},"vehicle_type_id":"4","last_reported":1729188662,"current_range_meters":38800,"station_id":"ce4bhp92rcd13ifvqhcg","pricing_plan_id":"cebpf4jnsgd1na2vs0mg"},{"bike_id":"2f089458-0c46-4cfd-9e11-bdbf8618b077","system_id":"levelo_inurba_marseille","lat":43.2942,"lon":5.38629,"is_reserved":false,"is_disabled":false,"rental_uris":{"android":"levelo://app?vid=2f089458-0c46-4cfd-9e11-bdbf8618b077","ios":"levelo://app?vid=2f089458-0c46-4cfd-9e11-bdbf8618b077"},"vehicle_type_id":"4","last_reported":1729188662,"current_range_meters":38800,"station_id":"ce4bh2h2rcd13ifvqdh0","pricing_plan_id":"cebpf4jnsgd1na2vs0mg"},{"bike_id":"0b319da6-684e-4798-a59c-1ed85a0372ba","system_id":"levelo_inurba_marseille","lat":43.25084,"lon":5.39515,"is_reserved":false,"is_disabled":false,"rental_uris":{"android":"levelo://app?vid=0b319da6-684e-4798-a59c-1ed85a0372ba","ios":"levelo://app?vid=0b319da6-684e-4798-a59c-1ed85a0372ba"},"vehicle_type_id":"4","last_reported":1729188662,"current_range_meters":11600,"station_id":"ce4bhm12rcd13ifvqgkg","pricing_plan_id":"cebpf4jnsgd1na2vs0mg"},{"bike_id":"d8da1ad2-468f-4df7-9b7c-451f8f9b40d4","system_id":"levelo_inurba_marseille","lat":43.295319,"lon":5.38577,"is_reserved":false,"is_disabled":false,"rental_uris":{"android":"levelo://app?vid=d8da1ad2-468f-4df7-9b7c-451f8f9b40d4","ios":"levelo://app?vid=d8da1ad2-468f-4df7-9b7c-451f8f9b40d4"},"vehicle_type_id":"4","last_reported":1729188662,"current_range_meters":22400,"station_id":"ce4bgih2rcd13ifvqba0","pricing_plan_id":"cebpf4jnsgd1na2vs0mg"},{"bike_id":"a8daef43-5a21-4776-8b76-60c76a8caefc","system_id":"levelo_inurba_marseille","lat":43.27811,"lon":5.40711,"is_reserved":false,"is_disabled":false,"rental_uris":{"android":"levelo://app?vid=a8daef43-5a21-4776-8b76-60c76a8caefc","ios":"levelo://app?vid=a8daef43-5a21-4776-8b76-60c76a8caefc"},"vehicle_type_id":"4","last_reported":1729188662,"current_range_meters":4800,"station_id":"ce4bhnh2rcd13ifvqgtg","pricing_plan_id":"cebpf4jnsgd1na2vs0mg"},{"bike_id":"daea0827-aea6-4d46-8ffe-7d2a7d138f2b","system_id":"levelo_inurba_marseille","lat":43.24803,"lon":5.37455,"is_reserved":false,"is_disabled":false,"rental_uris":{"android":"levelo://app?vid=daea0827-aea6-4d46-8ffe-7d2a7d138f2b","ios":"levelo://app?vid=daea0827-aea6-4d46-8ffe-7d2a7d138f2b"},"vehicle_type_id":"4","last_reported":1729188662,"current_range_meters":38800,"station_id":"ce4bhgh2rcd13ifvqfb0","pricing_plan_id":"cebpf4jnsgd1na2vs0mg"},{"bike_id":"033a7f68-f273-426e-84a9-8a3b2c56f6f5","system_id":"levelo_inurba_marseille","lat":43.35133,"lon":5.36817,"is_reserved":false,"is_disabled":false,"rental_uris":{"android":"levelo://app?vid=033a7f68-f273-426e-84a9-8a3b2c56f6f5","ios":"levelo://app?vid=033a7f68-f273-426e-84a9-8a3b2c56f6f5"},"vehicle_type_id":"4","last_reported":1729188662,"current_range_meters":11600,"station_id":"","pricing_plan_id":"cebpf4jnsgd1na2vs0mg"},{"bike_id":"358b1384-bc3e-4c8d-a204-7daf642c474a","system_id":"levelo_inurba_marseille","lat":43.31359,"lon":5.38499,"is_reserved":false,"is_disabled":false,"rental_uris":{"android":"levelo://app?vid=358b1384-bc3e-4c8d-a204-7daf642c474a","ios":"levelo://app?vid=358b1384-bc3e-4c8d-a204-7daf642c474a"},"vehicle_type_id":"4","last_reported":1729188662,"current_range_meters":9200,"station_id":"ce4bgt92rcd13ifvqcf0","pricing_plan_id":"cebpf4jnsgd1na2vs0mg"},{"bike_id":"a0a459c5-42f2-40d0-a582-6984b168abad","system_id":"levelo_inurba_marseille","lat":43.25576,"lon":5.38243,"is_reserved":false,"is_disabled":false,"rental_uris":{"android":"levelo://app?vid=a0a459c5-42f2-40d0-a582-6984b168abad","ios":"levelo://app?vid=a0a459c5-42f2-40d0-a582-6984b168abad"},"vehicle_type_id":"4","last_reported":1729188662,"current_range_meters":12800,"station_id":"ce4bhih2rcd13ifvqfs0","pricing_plan_id":"cebpf4jnsgd1na2vs0mg"},{"bike_id":"c9080d43-1d43-437d-9175-33bd06167a1e","system_id":"levelo_inurba_marseille","lat":43.290042,"lon":5.356174,"is_reserved":false,"is_disabled":false,"rental_uris":{"android":"levelo://app?vid=c9080d43-1d43-437d-9175-33bd06167a1e","ios":"levelo://app?vid=c9080d43-1d43-437d-9175-33bd06167a1e"},"vehicle_type_id":"4","last_reported":1729188662,"current_range_meters":8000,"station_id":"","pricing_plan_id":"cebpf4jnsgd1na2vs0mg"},{"bike_id":"ae2a0151-1e17-4924-bac0-648619cf8e77","system_id":"levelo_inurba_marseille","lat":43.31068,"lon":5.38346,"is_reserved":false,"is_disabled":false,"rental_uris":{"android":"levelo://app?vid=ae2a0151-1e17-4924-bac0-648619cf8e77","ios":"levelo://app?vid=ae2a0151-1e17-4924-bac0-648619cf8e77"},"vehicle_type_id":"4","last_reported":1729188662,"current_range_meters":36800,"station_id":"ce4bgv92rcd13ifvqcr0","pricing_plan_id":"cebpf4jnsgd1na2vs0mg"},{"bike_id":"895463c7-46e9-40f9-a79e-ba8d0a3a9d8e","system_id":"levelo_inurba_marseille","lat":43.33023,"lon":5.39051,"is_reserved":false,"is_disabled":false,"rental_uris":{"android":"levelo://app?vid=895463c7-46e9-40f9-a79e-ba8d0a3a9d8e","ios":"levelo://app?vid=895463c7-46e9-40f9-a79e-ba8d0a3a9d8e"},"vehicle_type_id":"4","last_reported":1729188662,"current_range_meters":22800,"station_id":"ce4bhr92rcd13ifvqhrg","pricing_plan_id":"cebpf4jnsgd1na2vs0mg"},{"bike_id":"cb85dd28-f262-4dc3-8d70-491f4904940b","system_id":"levelo_inurba_marseille","lat":43.30804,"lon":5.43531,"is_reserved":false,"is_disabled":false,"rental_uris":{"android":"levelo://app?vid=cb85dd28-f262-4dc3-8d70-491f4904940b","ios":"levelo://app?vid=cb85dd28-f262-4dc3-8d70-491f4904940b"},"vehicle_type_id":"4","last_reported":1729188662,"current_range_meters":10800,"station_id":"ce4bhph2rcd13ifvqheg","pricing_plan_id":"cebpf4jnsgd1na2vs0mg"},{"bike_id":"6c752c55-2526-455b-9ad8-79330a177e42","system_id":"levelo_inurba_marseille","lat":43.31721,"lon":5.42406,"is_reserved":false,"is_disabled":false,"rental_uris":{"android":"levelo://app?vid=6c752c55-2526-455b-9ad8-79330a177e42","ios":"levelo://app?vid=6c752c55-2526-455b-9ad8-79330a177e42"},"vehicle_type_id":"4","last_reported":1729188662,"current_range_meters":3200,"station_id":"ce4bhp92rcd13ifvqhbg","pricing_plan_id":"cebpf4jnsgd1na2vs0mg"},{"bike_id":"c0d7fc43-74ac-40f0-9a12-beeb9f728395","system_id":"levelo_inurba_marseille","lat":43.31271,"lon":5.40178,"is_reserved":false,"is_disabled":false,"rental_uris":{"android":"levelo://app?vid=c0d7fc43-74ac-40f0-9a12-beeb9f728395","ios":"levelo://app?vid=c0d7fc43-74ac-40f0-9a12-beeb9f728395"},"vehicle_type_id":"4","last_reported":1729188662,"current_range_meters":38800,"station_id":"ce4bh092rcd13ifvqd30","pricing_plan_id":"cebpf4jnsgd1na2vs0mg"},{"bike_id":"f93454e1-a669-4c63-a4ca-b572042c7971","system_id":"levelo_inurba_marseille","lat":43.23198,"lon":5.35553,"is_reserved":false,"is_disabled":false,"rental_uris":{"android":"levelo://app?vid=f93454e1-a669-4c63-a4ca-b572042c7971","ios":"levelo://app?vid=f93454e1-a669-4c63-a4ca-b572042c7971"},"vehicle_type_id":"4","last_reported":1729188662,"current_range_meters":12400,"station_id":"ce4bhu92rcd13ifvqi70","pricing_plan_id":"cebpf4jnsgd1na2vs0mg"},{"bike_id":"9feebf6a-cf06-4283-9475-cface9a88761","system_id":"levelo_inurba_marseille","lat":43.30801,"lon":5.43525,"is_reserved":false,"is_disabled":false,"rental_uris":{"android":"levelo://app?vid=9feebf6a-cf06-4283-9475-cface9a88761","ios":"levelo://app?vid=9feebf6a-cf06-4283-9475-cface9a88761"},"vehicle_type_id":"4","last_reported":1729188662,"current_range_meters":37600,"station_id":"ce4bhph2rcd13ifvqheg","pricing_plan_id":"cebpf4jnsgd1na2vs0mg"},{"bike_id":"0921a89c-cdec-4d57-a0b5-b7927cde144c","system_id":"levelo_inurba_marseille","lat":43.29547,"lon":5.42283,"is_reserved":false,"is_disabled":false,"rental_uris":{"android":"levelo://app?vid=0921a89c-cdec-4d57-a0b5-b7927cde144c","ios":"levelo://app?vid=0921a89c-cdec-4d57-a0b5-b7927cde144c"},"vehicle_type_id":"4","last_reported":1729188662,"current_range_meters":38800,"station_id":"ce4bhph2rcd13ifvqhdg","pricing_plan_id":"cebpf4jnsgd1na2vs0mg"},{"bike_id":"95f14978-35e4-40a8-be2a-4ccda679ebd3","system_id":"levelo_inurba_marseille","lat":43.29308,"lon":5.37183,"is_reserved":false,"is_disabled":false,"rental_uris":{"android":"levelo://app?vid=95f14978-35e4-40a8-be2a-4ccda679ebd3","ios":"levelo://app?vid=95f14978-35e4-40a8-be2a-4ccda679ebd3"},"vehicle_type_id":"4","last_reported":1729188662,"current_range_meters":27600,"station_id":"ce4bgh92rcd13ifvqb40","pricing_plan_id":"cebpf4jnsgd1na2vs0mg"},{"bike_id":"6ede1eb5-0f17-438b-a27b-c3fe4cc434cc","system_id":"levelo_inurba_marseille","lat":43.29299,"lon":5.37463,"is_reserved":false,"is_disabled":false,"rental_uris":{"android":"levelo://app?vid=6ede1eb5-0f17-438b-a27b-c3fe4cc434cc","ios":"levelo://app?vid=6ede1eb5-0f17-438b-a27b-c3fe4cc434cc"},"vehicle_type_id":"4","last_reported":1729188662,"current_range_meters":21600,"station_id":"ce4bgi12rcd13ifvqb70","pricing_plan_id":"cebpf4jnsgd1na2vs0mg"},{"bike_id":"aa5663ec-466c-422f-ade1-44523556eada","system_id":"levelo_inurba_marseille","lat":43.25864,"lon":5.399,"is_reserved":false,"is_disabled":false,"rental_uris":{"android":"levelo://app?vid=aa5663ec-466c-422f-ade1-44523556eada","ios":"levelo://app?vid=aa5663ec-466c-422f-ade1-44523556eada"},"vehicle_type_id":"4","last_reported":1729188662,"current_range_meters":20400,"station_id":"ce4bhl92rcd13ifvqghg","pricing_plan_id":"cebpf4jnsgd1na2vs0mg"},{"bike_id":"f833b455-0ac5-4605-8048-91628d5096ad","system_id":"levelo_inurba_marseille","lat":43.28348,"lon":5.38112,"is_reserved":false,"is_disabled":false,"rental_uris":{"android":"levelo://app?vid=f833b455-0ac5-4605-8048-91628d5096ad","ios":"levelo://app?vid=f833b455-0ac5-4605-8048-91628d5096ad"},"vehicle_type_id":"4","last_reported":1729188662,"current_range_meters":36000,"station_id":"ce4bh412rcd13ifvqdr0","pricing_plan_id":"cebpf4jnsgd1na2vs0mg"},