{"last_updated":1730794360,"ttl":60,"version":"2.2","data":{"bikes":[{"bike_id":"27c3248b-c595-4ca3-8d16-fd1fce0083ca","system_id":"levelo_inurba_marseille","lat":43.3414,"lon":5.40906,"is_reserved":false,"is_disabled":false,"rental_uris":{"android":"levelo://app?vid=27c3248b-c595-4ca3-8d16-fd1fce0083ca","ios":"levelo://app?vid=27c3248b-c595-4ca3-8d16-fd1fce0083ca"},"vehicle_type_id":"4","last_reported":1730794360,"current_range_meters":24000,"station_id":"ce4bhqh2rcd13ifvqhlg","pricing_plan_id":"cebpf4jnsgd1na2vs0mg"},{"bike_id":"5b621a6c-c935-426d-baa9-321170e14cf7","system_id":"levelo_inurba_marseille","lat":43.302429,"lon":5.400728,"is_reserved":false,"is_disabled":false,"rental_uris":{"android":"levelo://app?vid=5b621a6c-c935-426d-baa9-321170e14cf7","ios":"levelo://app?vid=5b621a6c-c935-426d-baa9-321170e14cf7"},"vehicle_type_id":"4","last_reported":1730794360,"current_range_meters":36800,"station_id":"ce4bgvh2rcd13ifvqcs0","pricing_plan_id":"cebpf4jnsgd1na2vs0mg"},{"bike_id":"a1e51a9d-5b64-4aa2-9663-158ae4048b3e","system_id":"levelo_inurba_marseille","lat":43.30277,"lon":5.37717,"is_reserved":false,"is_disabled":false,"rental_uris":{"android":"levelo://app?vid=a1e51a9d-5b64-4aa2-9663-158ae4048b3e","ios":"levelo://app?vid=a1e51a9d-5b64-4aa2-9663-158ae4048b3e"},"vehicle_type_id":"4","last_reported":1730794360,"current_range_meters":22000,"station_id":"ce4bguh2rcd13ifvqcj0","pricing_plan_id":"cebpf4jnsgd1na2vs0mg"},{"bike_id":"c24fb9a5-b454-4ee1-a0d9-7727e66a5e9b","system_id":"levelo_inurba_marseille","lat":43.29088,"lon":5.38143,"is_reserved":false,"is_disabled":false,"rental_uris":{"android":"levelo://app?vid=c24fb9a5-b454-4ee1-a0d9-7727e66a5e9b","ios":"levelo://app?vid=c24fb9a5-b454-4ee1-a0d9-7727e66a5e9b"},"vehicle_type_id":"4","last_reported":1730794360,"current_range_meters":35600,"station_id":"ce4bh512rcd13ifvqe2g","pricing_plan_id":"cebpf4jnsgd1na2vs0mg"},{"bike_id":"3675d184-4550-4970-9661-d3d7f50009e5","system_id":"levelo_inurba_marseille","lat":43.31343,"lon":5.36708,"is_reserved":false,"is_disabled":false,"rental_uris":{"android":"levelo://app?vid=3675d184-4550-4970-9661-d3d7f50009e5","ios":"levelo://app?vid=3675d184-4550-4970-9661-d3d7f50009e5"},"vehicle_type_id":"4","last_reported":1730794360,"current_range_meters":23200,"station_id":"ce4bgr92rcd13ifvqc6g","pricing_plan_id":"cebpf4jnsgd1na2vs0mg"},{"bike_id":"ca942d0c-60a3-406e-8a9d-8c8dfe7da535","system_id":"levelo_inurba_marseille","lat":43.29194,"lon":5.39317,"is_reserved":false,"is_disabled":false,"rental_uris":{"android":"levelo://app?vid=ca942d0c-60a3-406e-8a9d-8c8dfe7da535","ios":"levelo://app?vid=ca942d0c-60a3-406e-8a9d-8c8dfe7da535"},"vehicle_type_id":"4","last_reported":1730794360,"current_range_meters":33600,"station_id":"ce4bh192rcd13ifvqdd0","pricing_plan_id":"cebpf4jnsgd1na2vs0mg"},{"bike_id":"22344f92-ea90-427a-af7d-3ba785b23d86","system_id":"levelo_inurba_marseille","lat":43.30156,"lon":5.38086,"is_reserved":false,"is_disabled":false,"rental_uris":{"android":"levelo://app?vid=22344f92-ea90-427a-af7d-3ba785b23d86","ios":"levelo://app?vid=22344f92-ea90-427a-af7d-3ba785b23d86"},"vehicle_type_id":"4","last_reported":1730794360,"current_range_meters":36800,"station_id":"ce4bgjp2rcd13ifvqbh0","pricing_plan_id":"cebpf4jnsgd1na2vs0mg"},{"bike_id":"47188366-9ba1-4e2e-907e-c2a5c3fd8c31","system_id":"levelo_inurba_marseille","lat":43.31338,"lon":5.36724,"is_reserved":false,"is_disabled":false,"rental_uris":{"android":"levelo://app?vid=47188366-9ba1-4e2e-907e-c2a5c3fd8c31","ios":"levelo://app?vid=47188366-9ba1-4e2e-907e-c2a5c3fd8c31"},"vehicle_type_id":"4","last_reported":1730794360,"current_range_meters":8400,"station_id":"ce4bgr92rcd13ifvqc6g","pricing_plan_id":"cebpf4jnsgd1na2vs0mg"},{"bike_id":"81f6b4c0-466f-469e-9440-cacd811d84f3","system_id":"levelo_inurba_marseille","lat":43.2408,"lon":5.37752,"is_reserved":false,"is_disabled":false,"rental_uris":{"android":"levelo://app?vid=81f6b4c0-466f-469e-9440-cacd811d84f3","ios":"levelo://app?vid=81f6b4c0-466f-469e-9440-cacd811d84f3"},"vehicle_type_id":"4","last_reported":1730794360,"current_range_meters":23200,"station_id":"ce4bhnp2rcd13ifvqgvg","pricing_plan_id":"cebpf4jnsgd1na2vs0mg"},{"bike_id":"174a80b7-02a1-411c-ad67-c7049987ad00","system_id":"levelo_inurba_marseille","lat":43.26502,"lon":5.39541,"is_reserved":false,"is_disabled":false,"rental_uris":{"android":"levelo://app?vid=174a80b7-02a1-411c-ad67-c7049987ad00","ios":"levelo://app?vid=174a80b7-02a1-411c-ad67-c7049987ad00"},"vehicle_type_id":"4","last_reported":1730794360,"current_range_meters":37600,"station_id":"ce4bhi12rcd13ifvqfq0","pricing_plan_id":"cebpf4jnsgd1na2vs0mg"},{"bike_id":"1b8aed5f-cfba-41c6-96d3-d75be206598e","system_id":"levelo_inurba_marseille","lat":43.30099,"lon":5.39086,"is_reserved":false,"is_disabled":false,"rental_uris":{"android":"levelo://app?vid=1b8aed5f-cfba-41c6-96d3-d75be206598e","ios":"levelo://app?vid=1b8aed5f-cfba-41c6-96d3-d75be206598e"},"vehicle_type_id":"4","last_reported":1730794360,"current_range_meters":14800,"station_id":"ce4bh192rcd13ifvqdb0","pricing_plan_id":"cebpf4jnsgd1na2vs0mg"},{"bike_id":"a0dd03a3-600e-4a64-a368-916fef5fa3f5","system_id":"levelo_inurba_marseille","lat":43.2594,"lon":5.40907,"is_reserved":false,"is_disabled":false,"rental_uris":{"android":"levelo://app?vid=a0dd03a3-600e-4a64-a368-916fef5fa3f5","ios":"levelo://app?vid=a0dd03a3-600e-4a64-a368-916fef5fa3f5"},"vehicle_type_id":"4","last_reported":1730794360,"current_range_meters":24000,"station_id":"ce4bhm92rcd13ifvqglg","pricing_plan_id":"cebpf4jnsgd1na2vs0mg"},{"bike_id":"590de1cb-eae9-4a79-b020-0e8321b145ef","system_id":"levelo_inurba_marseille","lat":43.231954,"lon":5.355481,"is_reserved":false,"is_disabled":false,"rental_uris":{"android":"levelo://app?vid=590de1cb-eae9-4a79-b020-0e8321b145ef","ios":"levelo://app?vid=590de1cb-eae9-4a79-b020-0e8321b145ef"},"vehicle_type_id":"4","last_reported":1730794360,"current_range_meters":20800,"station_id":"ce4bhu92rcd13ifvqi70","pricing_plan_id":"cebpf4jnsgd1na2vs0mg"},{"bike_id":"4147bbfb-4b14-4aca-b782-8ec6c0473609","system_id":"levelo_inurba_marseille","lat":43.23603,"lon":5.40347,"is_reserved":false,"is_disabled":false,"rental_uris":{"android":"levelo://app?vid=4147bbfb-4b14-4aca-b782-8ec6c0473609","ios":"levelo://app?vid=4147bbfb-4b14-4aca-b782-8ec6c0473609"},"vehicle_type_id":"4","last_reported":1730794360,"current_range_meters":9200,"station_id":"","pricing_plan_id":"cebpf4jnsgd1na2vs0mg"},{"bike_id":"fa66adb8-19da-4b56-aeb9-ccf1206b3e1e","system_id":"levelo_inurba_marseille","lat":43.32365,"lon":5.36757,"is_reserved":false,"is_disabled":false,"rental_uris":{"android":"levelo://app?vid=fa66adb8-19da-4b56-aeb9-ccf1206b3e1e","ios":"levelo://app?vid=fa66adb8-19da-4b56-aeb9-ccf1206b3e1e"},"vehicle_type_id":"4","last_reported":1730794360,"current_range_meters":35600,"station_id":"ce4bhsh2rcd13ifvqi2g","pricing_plan_id":"cebpf4jnsgd1na2vs0mg"},{"bike_id":"a3a36c97-567e-48af-9476-10214fd0d4f9","system_id":"levelo_inurba_marseille","lat":43.33756,"lon":5.3746,"is_reserved":false,"is_disabled":false,"rental_uris":{"android":"levelo://app?vid=a3a36c97-567e-48af-9476-10214fd0d4f9","ios":"levelo://app?vid=a3a36c97-567e-48af-9476-10214fd0d4f9"},"vehicle_type_id":"4","last_reported":1730794360,"current_range_meters":9200,"station_id":"","pricing_plan_id":"cebpf4jnsgd1na2vs0mg"},{"bike_id":"26524832-8824-4bc7-95ef-aedb1815c904","system_id":"levelo_inurba_marseille","lat":43.29847,"lon":5.36285,"is_reserved":false,"is_disabled":false,"rental_uris":{"android":"levelo://app?vid=26524832-8824-4bc7-95ef-aedb1815c904","ios":"levelo://app?vid=26524832-8824-4bc7-95ef-aedb1815c904"},"vehicle_type_id":"4","last_reported":1730794360,"current_range_meters":17200,"station_id":"ce4bgpp2rcd13ifvqc3g","pricing_plan_id":"cebpf4jnsgd1na2vs0mg"},{"bike_id":"47662166-db17-4d16-a97b-519c42566d41","system_id":"levelo_inurba_marseille","lat":43.27815,"lon":5.40718,"is_reserved":false,"is_disabled":false,"rental_uris":{"android":"levelo://app?vid=47662166-db17-4d16-a97b-519c42566d41","ios":"levelo://app?vid=47662166-db17-4d16-a97b-519c42566d41"},"vehicle_type_id":"4","last_reported":1730794360,"current_range_meters":38800,"station_id":"ce4bhnh2rcd13ifvqgtg","pricing_plan_id":"cebpf4jnsgd1na2vs0mg"},{"bike_id":"d3316a79-5388-4d1e-90a0-dc05613f7da2","system_id":"levelo_inurba_marseille","lat":43.31346,"lon":5.36718,"is_reserved":false,"is_disabled":false,"rental_uris":{"android":"levelo://app?vid=d3316a79-5388-4d1e-90a0-dc05613f7da2","ios":"levelo://app?vid=d3316a79-5388-4d1e-90a0-dc05613f7da2"},"vehicle_type_id":"4","last_reported":1730794360,"current_range_meters":31200,"station_id":"ce4bgr92rcd13ifvqc6g","pricing_plan_id":"cebpf4jnsgd1na2vs0mg"},{"bike_id":"5ad3f732-7e23-4ad9-b57d-10c8736d4e8f","system_id":"levelo_inurba_marseille","lat":43.32475,"lon":5.36575,"is_reserved":false,"is_disabled":false,"rental_uris":{"android":"levelo://app?vid=5ad3f732-7e23-4ad9-b57d-10c8736d4e8f","ios":"levelo://app?vid=5ad3f732-7e23-4ad9-b57d-10c8736d4e8f"},"vehicle_type_id":"4","last_reported":1730794360,"current_range_meters":20000,"station_id":"ce4bhs12rcd13ifvqhvg","pricing_plan_id":"cebpf4jnsgd1na2vs0mg"},{"bike_id":"7f908536-6e04-49cc-8765-d5522ea0f263","system_id":"levelo_inurba_marseille","lat":43.33604,"lon":5.4103,"is_reserved":false,"is_disabled":false,"rental_uris":{"android":"levelo://app?vid=7f908536-6e04-49cc-8765-d5522ea0f263","ios":"levelo://app?vid=7f908536-6e04-49cc-8765-d5522ea0f263"},"vehicle_type_id":"4","last_reported":1730794360,"current_range_meters":7200,"station_id":"ce4bhqh2rcd13ifvqhmg","pricing_plan_id":"cebpf4jnsgd1na2vs0mg"},{"bike_id":"35d46972-faca-4525-a2d2-3f928f24f16c","system_id":"levelo_inurba_marseille","lat":43.24167,"lon":5.36402,"is_reserved":false,"is_disabled":false,"rental_uris":{"android":"levelo://app?vid=35d46972-faca-4525-a2d2-3f928f24f16c","ios":"levelo://app?vid=35d46972-faca-4525-a2d2-3f928f24f16c"},"vehicle_type_id":"4","last_reported":1730794360,"current_range_meters":38000,"station_id":"cpo36qri1sfpv3e86is0","pricing_plan_id":"cebpf4jnsgd1na2vs0mg"},{"bike_id":"2db0a05d-b506-4774-b428-5f969c3d4a7d","system_id":"levelo_inurba_marseille","lat":43.296357,"lon":5.405991,"is_reserved":false,"is_disabled":false,"rental_uris":{"android":"levelo://app?vid=2db0a05d-b506-4774-b428-5f969c3d4a7d","ios":"levelo://app?vid=2db0a05d-b506-4774-b428-5f969c3d4a7d"},"vehicle_type_id":"4","last_reported":1730794360,"current_range_meters":38000,"station_id":"ce4bgop2rcd13ifvqc1g","pricing_plan_id":"cebpf4jnsgd1na2vs0mg"},{"bike_id":"2378f453-72a7-4eb2-ab3b-946285d406fd","system_id":"levelo_inurba_marseille","lat":43.29225,"lon":5.37728,"is_reserved":false,"is_disabled":false,"rental_uris":{"android":"levelo://app?vid=2378f453-72a7-4eb2-ab3b-946285d406fd","ios":"levelo://app?vid=2378f453-72a7-4eb2-ab3b-946285d406fd"},"vehicle_type_id":"4","last_reported":1730794360,"current_range_meters":4000,"station_id":"","pricing_plan_id":"cebpf4jnsgd1na2vs0mg"},{"bike_id":"3da4622c-c31c-40d3-8aab-c802043c4fb2","system_id":"levelo_inurba_marseille","lat":43.24083,"lon":5.37736,"is_reserved":false,"is_disabled":false,"rental_uris":{"android":"levelo://app?vid=3da4622c-c31c-40d3-8aab-c802043c4fb2","ios":"levelo://app?vid=3da4622c-c31c-40d3-8aab-c802043c4fb2"},"vehicle_type_id":"4","last_reported":1730794360,"current_range_meters":39200,"station_id":"ce4bhnp2rcd13ifvqgvg","pricing_plan_id":"cebpf4jnsgd1na2vs0mg"},{"bike_id":"182e91a9-0e4e-4788-9b82-32e72e41d2da","system_id":"levelo_inurba_marseille","lat":43.30272,"lon":5.37709,"is_reserved":false,"is_disabled":false,"rental_uris":{"android":"levelo://app?vid=182e91a9-0e4e-4788-9b82-32e72e41d2da","ios":"levelo://app?vid=182e91a9-0e4e-4788-9b82-32e72e41d2da"},"vehicle_type_id":"4","last_reported":1730794360,"current_range_meters":39200,"station_id":"ce4bguh2rcd13ifvqcj0","pricing_plan_id":"cebpf4jnsgd1na2vs0mg"},{"bike_id":"9f8891df-d7cc-4f88-8ea2-62db24758248","system_id":"levelo_inurba_marseille","lat":43.28929,"lon":5.39623,"is_reserved":false,"is_disabled":false,"rental_uris":{"android":"levelo://app?vid=9f8891df-d7cc-4f88-8ea2-62db24758248","ios":"levelo://app?vid=9f8891df-d7cc-4f88-8ea2-62db24758248"},"vehicle_type_id":"4","last_reported":1730794360,"current_range_meters":11600,"station_id":"ce4bhr12rcd13ifvqhqg","pricing_plan_id":"cebpf4jnsgd1na2vs0mg"},{"bike_id":"1aefd047-533f-45b3-a375-da4d77e2e254","system_id":"levelo_inurba_marseille","lat":43.25939,"lon":5.40898,"is_reserved":false,"is_disabled":false,"rental_uris":{"android":"levelo://app?vid=1aefd047-533f-45b3-a375-da4d77e2e254","ios":"levelo://app?vid=1aefd047-533f-45b3-a375-da4d77e2e254"},"vehicle_type_id":"4","last_reported":1730794360,"current_range_meters":9200,"station_id":"ce4bhm92rcd13ifvqglg","pricing_plan_id":"cebpf4jnsgd1na2vs0mg"},{"bike_id":"11357492-8d82-4d30-8195-4691dd17bc01","system_id":"levelo_inurba_marseille","lat":43.292,"lon":5.39318,"is_reserved":false,"is_disabled":false,"rental_uris":{"android":"levelo://app?vid=11357492-8d82-4d30-8195-4691dd17bc01","ios":"levelo://app?vid=11357492-8d82-4d30-8195-4691dd17bc01"},"vehicle_type_id":"4","last_reported":1730794360,"current_range_meters":22800,"station_id":"ce4bh192rcd13ifvqdd0","pricing_plan_id":"cebpf4jnsgd1na2vs0mg"},{"bike_id":"1ed8cd58-b59f-420d-9864-026ef8a58772","system_id":"levelo_inurba_marseille","lat":43.24077,"lon":5.37754,"is_reserved":false,"is_disabled":false,"rental_uris":{"android":"levelo://app?vid=1ed8cd58-b59f-420d-9864-026ef8a58772","ios":"levelo://app?vid=1ed8cd58-b59f-420d-9864-026ef8a58772"},"vehicle_type_id":"4","last_reported":1730794360,"current_range_meters":2800,"station_id":"ce4bhnp2rcd13ifvqgvg","pricing_plan_id":"cebpf4jnsgd1na2vs0mg"},{"bike_id":"551ac0ac-232d-4450-b3d3-1dea3064e4dc","system_id":"levelo_inurba_marseille","lat":43.26948,"lon":5.38626,"is_reserved":false,"is_disabled":false,"rental_uris":{"android":"levelo://app?vid=551ac0ac-232d-4450-b3d3-1dea3064e4dc","ios":"levelo://app?vid=551ac0ac-232d-4450-b3d3-1dea3064e4dc"},"vehicle_type_id":"4","last_reported":1730794360,"current_range_meters":21600,"station_id":"ce4bhh92rcd13ifvqfh0","pricing_plan_id":"cebpf4jnsgd1na2vs0mg"},{"bike_id":"ddfa70a9-9d32-48ef-99b7-f4cb9b41791d","system_id":"levelo_inurba_marseille","lat":43.2407,"lon":5.3776,"is_reserved":false,"is_disabled":false,"rental_uris":{"android":"levelo://app?vid=ddfa70a9-9d32-48ef-99b7-f4cb9b41791d","ios":"levelo://app?vid=ddfa70a9-9d32-48ef-99b7-f4cb9b41791d"},"vehicle_type_id":"4","last_reported":1730794360,"current_range_meters":10800,"station_id":"ce4bhnp2rcd13ifvqgvg","pricing_plan_id":"cebpf4jnsgd1na2vs0mg"},{"bike_id":"51b0cc7e-772d-41e9-97a0-b689f0d0604e","system_id":"levelo_inurba_marseille","lat":43.31351,"lon":5.36714,"is_reserved":false,"is_disabled":false,"rental_uris":{"android":"levelo://app?vid=51b0cc7e-772d-41e9-97a0-b689f0d0604e","ios":"levelo://app?vid=51b0cc7e-772d-41e9-97a0-b689f0d0604e"},"vehicle_type_id":"4","last_reported":1730794360,"current_range_meters":38800,"station_id":"ce4bgr92rcd13ifvqc6g","pricing_plan_id":"cebpf4jnsgd1na2vs0mg"},{"bike_id":"b4681e4e-5f30-478f-ba1d-da580c8af293","system_id":"levelo_inurba_marseille","lat":43.24073,"lon":5.37759,"is_reserved":false,"is_disabled":false,"rental_uris":{"android":"levelo://app?vid=b4681e4e-5f30-478f-ba1d-da580c8af293","ios":"levelo://app?vid=b4681e4e-5f30-478f-ba1d-da580c8af293"},"vehicle_type_id":"4","last_reported":1730794360,"current_range_meters":35200,"station_id":"ce4bhnp2rcd13ifvqgvg","pricing_plan_id":"cebpf4jnsgd1na2vs0mg"},{"bike_id":"5915853d-1303-49d1-97e7-7b6397de2baf","system_id":"levelo_inurba_marseille","lat":43.30145,"lon":5.3741,"is_reserved":false,"is_disabled":false,"rental_uris":{"android":"levelo://app?vid=5915853d-1303-49d1-97e7-7b6397de2baf","ios":"levelo://app?vid=5915853d-1303-49d1-97e7-7b6397de2baf"},"vehicle_type_id":"4","last_reported":1730794360,"current_range_meters":38000,"station_id":"ce4bgs92rcd13ifvqcc0","pricing_plan_id":"cebpf4jnsgd1na2vs0mg"},{"bike_id":"78051ff7-35b9-4662-816d-d06ec37d77e2","system_id":"levelo_inurba_marseille","lat":43.269501,"lon":5.386299,"is_reserved":false,"is_disabled":false,"rental_uris":{"android":"levelo://app?vid=78051ff7-35b9-4662-816d-d06ec37d77e2","ios":"levelo://app?vid=78051ff7-35b9-4662-816d-d06ec37d77e2"},"vehicle_type_id":"4","last_reported":1730794360,"current_range_meters":35600,"station_id":"ce4bhh92rcd13ifvqfh0","pricing_plan_id":"cebpf4jnsgd1na2vs0mg"},{"bike_id":"3993b0d6-10b6-4ad3-95e5-b50c0fa7e261","system_id":"levelo_inurba_marseille","lat":43.28155,"lon":5.42636,"is_reserved":false,"is_disabled":false,"rental_uris":{"android":"levelo://app?vid=3993b0d6-10b6-4ad3-95e5-b50c0fa7e261","ios":"levelo://app?vid=3993b0d6-10b6-4ad3-95e5-b50c0fa7e261"},"vehicle_type_id":"4","last_reported":1730794360,"current_range_meters":26000,"station_id":"ce4bhnh2rcd13ifvqgug","pricing_plan_id":"cebpf4jnsgd1na2vs0mg"},{"bike_id":"7dcbf618-7b81-4a8b-bf18-63d8efcda169","system_id":"levelo_inurba_marseille","lat":43.30954,"lon":5.39028,"is_reserved":false,"is_disabled":false,"rental_uris":{"android":"levelo://app?vid=7dcbf618-7b81-4a8b-bf18-63d8efcda169","ios":"levelo://app?vid=7dcbf618-7b81-4a8b-bf18-63d8efcda169"},"vehicle_type_id":"4","last_reported":1730794360,"current_range_meters":32800,"station_id":"ce4bgup2rcd13ifvqco0","pricing_plan_id":"cebpf4jnsgd1na2vs0mg"},{"bike_id":"99d78f6e-5bfc-4e99-baa1-b9137a41c134","system_id":"levelo_inurba_marseille","lat":43.28151,"lon":5.42645,"is_reserved":false,"is_disabled":false,"rental_uris":{"android":"levelo://app?vid=99d78f6e-5bfc-4e99-baa1-b9137a41c134","ios":"levelo://app?vid=99d78f6e-5bfc-4e99-baa1-b9137a41c134"},"vehicle_type_id":"4","last_reported":1730794360,"current_range_meters":37600,"station_id":"ce4bhnh2rcd13ifvqgug","pricing_plan_id":"cebpf4jnsgd1na2vs0mg"},{"bike_id":"280a9747-19f0-438c-8542-4725bf351313","system_id":"levelo_inurba_marseille","lat":43.29806,"lon":5.38098,"is_reserved":false,"is_disabled":false,"rental_uris":{"android":"levelo://app?vid=280a9747-19f0-438c-8542-4725bf351313","ios":"levelo://app?vid=280a9747-19f0-438c-8542-4725bf351313"},"vehicle_type_id":"4","last_reported":1730794360,"current_range_meters":8800,"station_id":"ce4bgip2rcd13ifvqbb0","pricing_plan_id":"cebpf4jnsgd1na2vs0mg"},{"bike_id":"0fb9819f-f5ed-4bc1-9006-4b1ad7d9b36e","system_id":"levelo_inurba_marseille","lat":43.32477,"lon":5.3656,"is_reserved":false,"is_disabled":false,"rental_uris":{"android":"levelo://app?vid=0fb9819f-f5ed-4bc1-9006-4b1ad7d9b36e","ios":"levelo://app?vid=0fb9819f-f5ed-4bc1-9006-4b1ad7d9b36e"},"vehicle_type_id":"4","last_reported":1730794360,"current_range_meters":14800,"station_id":"ce4bhs12rcd13ifvqhvg","pricing_plan_id":"cebpf4jnsgd1na2vs0mg"},{"bike_id":"878e1338-9921-44c7-b3fa-0c4d6e128386","system_id":"levelo_inurba_marseille","lat":43.30897,"lon":5.36859,"is_reserved":false,"is_disabled":false,"rental_uris":{"android":"levelo://app?vid=878e1338-9921-44c7-b3fa-0c4d6e128386","ios":"levelo://app?vid=878e1338-9921-44c7-b3fa-0c4d6e128386"},"vehicle_type_id":"4","last_reported":1730794360,"current_range_meters":22800,"station_id":"ce4bgn92rcd13ifvqbvg","pricing_plan_id":"cebpf4jnsgd1na2vs0mg"},{"bike_id":"8e27b20d-f4e3-43fc-818c-0ed56742fb8c","system_id":"levelo_inurba_marseille","lat":43.33761,"lon":5.37445,"is_reserved":false,"is_disabled":false,"rental_uris":{"android":"levelo://app?vid=8e27b20d-f4e3-43fc-818c-0ed56742fb8c","ios":"levelo://app?vid=8e27b20d-f4e3-43fc-818c-0ed56742fb8c"},"vehicle_type_id":"4","last_reported":1730794360,"current_range_meters":36800,"station_id":"","pricing_plan_id":"cebpf4jnsgd1na2vs0mg"},{"bike_id":"c5c22aec-2d85-4437-b8e8-52528a4d9d6a","system_id":"levelo_inurba_marseille","lat":43.29915,"lon":5.37483,"is_reserved":false,"is_disabled":false,"rental_uris":{"android":"levelo://app?vid=c5c22aec-2d85-4437-b8e8-52528a4d9d6a","ios":"levelo://app?vid=c5c22aec-2d85-4437-b8e8-52528a4d9d6a"},"vehicle_type_id":"4","last_reported":1730794360,"current_range_meters":39200,"station_id":"ce4bgjh2rcd13ifvqbg0","pricing_plan_id":"cebpf4jnsgd1na2vs0mg"},{"bike_id":"037eaf0f-9112-47d3-aa8d-7a0ef0d58625","system_id":"levelo_inurba_marseille","lat":43.24167,"lon":5.36395,"is_reserved":false,"is_disabled":false,"rental_uris":{"android":"levelo://app?vid=037eaf0f-9112-47d3-aa8d-7a0ef0d58625","ios":"levelo://app?vid=037eaf0f-9112-47d3-aa8d-7a0ef0d58625"},"vehicle_type_id":"4","last_reported":1730794360,"current_range_meters":38400,"station_id":"cpo36qri1sfpv3e86is0","pricing_plan_id":"cebpf4jnsgd1na2vs0mg"},{"bike_id":"5a8952b3-413d-4af0-8d20-ce04061f4e65","system_id":"levelo_inurba_marseille","lat":43.27171,"lon":5.40993,"is_reserved":false,"is_disabled":false,"rental_uris":{"android":"levelo://app?vid=5a8952b3-413d-4af0-8d20-ce04061f4e65","ios":"levelo://app?vid=5a8952b3-413d-4af0-8d20-ce04061f4e65"},"vehicle_type_id":"4","last_reported":1730794360,"current_range_meters":38800,"station_id":"ce4bhl12rcd13ifvqgf0","pricing_plan_id":"cebpf4jnsgd1na2vs0mg"},{"bike_id":"98b0350c-71d2-4d3f-bcc7-d7d1b37428aa","system_id":"levelo_inurba_marseille","lat":43.3047,"lon":5.37891,"is_reserved":false,"is_disabled":false,"rental_uris":{"android":"levelo://app?vid=98b0350c-71d2-4d3f-bcc7-d7d1b37428aa","ios":"levelo://app?vid=98b0350c-71d2-4d3f-bcc7-d7d1b37428aa"},"vehicle_type_id":"4","last_reported":1730794360,"current_range_meters":38400,"station_id":"ce4bgup2rcd13ifvqcn0","pricing_plan_id":"cebpf4jnsgd1na2vs0mg"},{"bike_id":"d21c28b2-c174-4e9f-ad7f-35fb94eae1cd","system_id":"levelo_inurba_marseille","lat":43.30537,"lon":5.36702,"is_reserved":false,"is_disabled":false,"rental_uris":{"android":"levelo://app?vid=d21c28b2-c174-4e9f-ad7f-35fb94eae1cd","ios":"levelo://app?vid=d21c28b2-c174-4e9f-ad7f-35fb94eae1cd"},"vehicle_type_id":"4","last_reported":1730794360,"current_range_meters":38800,"station_id":"ce4bgrp2rcd13ifvqc9g","pricing_plan_id":"cebpf4jnsgd1na2vs0mg"},{"bike_id":"d5b4a74e-b2e3-421e-8744-3b105871edf4","system_id":"levelo_inurba_marseille","lat":43.24999,"lon":5.38923,"is_reserved":false,"is_disabled":false,"rental_uris":{"android":"levelo://app?vid=d5b4a74e-b2e3-421e-8744-3b105871edf4","ios":"levelo://app?vid=d5b4a74e-b2e3-421e-8744-3b105871edf4"},"vehicle_type_id":"4","last_reported":1730794360,"current_range_meters":39200,"station_id":"ce4bhgp2rcd13ifvqfd0","pricing_plan_id":"cebpf4jnsgd1na2vs0mg"},{"bike_id":"808063db-7290-45cf-a512-4559e44653ed","system_id":"levelo_inurba_marseille","lat":43.26682,"lon":5.38261,"is_reserved":false,"is_disabled":false,"rental_uris":{"android":"levelo://app?vid=808063db-7290-45cf-a512-4559e44653ed","ios":"levelo://app?vid=808063db-7290-45cf-a512-4559e44653ed"},"vehicle_type_id":"4","last_reported":1730794360,"current_range_meters":33200,"station_id":"ce4bhg92rcd13ifvqf90","pricing_plan_id":"cebpf4jnsgd1na2vs0mg"},{"bike_id":"0883e691-6475-4823-9338-e878e3de9518","system_id":"levelo_inurba_marseille","lat":43.27327,"lon":5.39071,"is_reserved":false,"is_disabled":false,"rental_uris":{"android":"levelo://app?vid=0883e691-6475-4823-9338-e878e3de9518","ios":"levelo://app?vid=0883e691-6475-4823-9338-e878e3de9518"},"vehicle_type_id":"4","last_reported":1730794360,"current_range_meters":6800,"station_id":"ce4bhgp2rcd13ifvqfe0","pricing_plan_id":"cebpf4jnsgd1na2vs0mg"},{"bike_id":"dd216df0-2856-45de-a8d6-cd40330834f7","system_id":"levelo_inurba_marseille","lat":43.29167,"lon":5.37162,"is_reserved":false,"is_disabled":false,"rental_uris":{"android":"levelo://app?vid=dd216df0-2856-45de-a8d6-cd40330834f7","ios":"levelo://app?vid=dd216df0-2856-45de-a8d6-cd40330834f7"},"vehicle_type_id":"4","last_reported":1730794360,"current_range_meters":26000,"station_id":"ce4bha92rcd13ifvqeh0","pricing_plan_id":"cebpf4jnsgd1na2vs0mg"},{"bike_id":"acdea68a-7783-4908-bf21-09a59a510c29","system_id":"levelo_inurba_marseille","lat":43.31345,"lon":5.36714,"is_reserved":false,"is_disabled":false,"rental_uris":{"android":"levelo://app?vid=acdea68a-7783-4908-bf21-09a59a510c29","ios":"levelo://app?vid=acdea68a-7783-4908-bf21-09a59a510c29"},"vehicle_type_id":"4","last_reported":1730794360,"current_range_meters":25600,"station_id":"ce4bgr92rcd13ifvqc6g","pricing_plan_id":"cebpf4jnsgd1na2vs0mg"},{"bike_id":"516ee27e-d3c7-49a7-a4a3-a1b1bd5a69a7","system_id":"levelo_inurba_marseille","lat":43.26557,"lon":5.37285,"is_reserved":false,"is_disabled":false,"rental_uris":{"android":"levelo://app?vid=516ee27e-d3c7-49a7-a4a3-a1b1bd5a69a7","ios":"levelo://app?vid=516ee27e-d3c7-49a7-a4a3-a1b1bd5a69a7"},"vehicle_type_id":"4","last_reported":1730794360,"current_range_meters":14800,"station_id":"ce4bhg12rcd13ifvqf70","pricing_plan_id":"cebpf4jnsgd1na2vs0mg"},{"bike_id":"23566e34-5136-41a0-932e-058fa884ed23","system_id":"levelo_inurba_marseille","lat":43.296112,"lon":5.385475,"is_reserved":false,"is_disabled":false,"rental_uris":{"android":"levelo://app?vid=23566e34-5136-41a0-932e-058fa884ed23","ios":"levelo://app?vid=23566e34-5136-41a0-932e-058fa884ed23"},"vehicle_type_id":"4","last_reported":1730794360,"current_range_meters":21600,"station_id":"ce4bgih2rcd13ifvqba0","pricing_plan_id":"cebpf4jnsgd1na2vs0mg"},{"bike_id":"266bf1d3-a394-4561-89c0-b7887d92fd8c","system_id":"levelo_inurba_marseille","lat":43.30167,"lon":5.38084,"is_reserved":false,"is_disabled":false,"rental_uris":{"android":"levelo://app?vid=266bf1d3-a394-4561-89c0-b7887d92fd8c","ios":"levelo://app?vid=266bf1d3-a394-4561-89c0-b7887d92fd8c"},"vehicle_type_id":"4","last_reported":1730794360,"current_range_meters":36000,"station_id":"ce4bgjp2rcd13ifvqbh0","pricing_plan_id":"cebpf4jnsgd1na2vs0mg"},{"bike_id":"f2b92d8c-3227-448f-8678-9820255ccff4","system_id":"levelo_inurba_marseille","lat":43.30476,"lon":5.37904,"is_reserved":false,"is_disabled":false,"rental_uris":{"android":"levelo://app?vid=f2b92d8c-3227-448f-8678-9820255ccff4","ios":"levelo://app?vid=f2b92d8c-3227-448f-8678-9820255ccff4"},"vehicle_type_id":"4","last_reported":1730794360,"current_range_meters":36400,"station_id":"ce4bgup2rcd13ifvqcn0","pricing_plan_id":"cebpf4jnsgd1na2vs0mg"},{"bike_id":"8d5faf28-e526-4d5b-93d3-399bd2cb1046","system_id":"levelo_inurba_marseille","lat":43.31759,"lon":5.39013,"is_reserved":false,"is_disabled":false,"rental_uris":{"android":"levelo://app?vid=8d5faf28-e526-4d5b-93d3-399bd2cb1046","ios":"levelo://app?vid=8d5faf28-e526-4d5b-93d3-399bd2cb1046"},"vehicle_type_id":"4","last_reported":1730794360,"current_range_meters":9600,"station_id":"ce4bhqp2rcd13ifvqhng","pricing_plan_id":"cebpf4jnsgd1na2vs0mg"},{"bike_id":"340a7787-a7bb-487e-b987-8609f75ecfd6","system_id":"levelo_inurba_marseille","lat":43.30944,"lon":5.39036,"is_reserved":false,"is_disabled":false,"rental_uris":{"android":"levelo://app?vid=340a7787-a7bb-487e-b987-8609f75ecfd6","ios":"levelo://app?vid=340a7787-a7bb-487e-b987-8609f75ecfd6"},"vehicle_type_id":"4","last_reported":1730794360,"current_range_meters":9200,"station_id":"ce4bgup2rcd13ifvqco0","pricing_plan_id":"cebpf4jnsgd1na2vs0mg"},{"bike_id":"4efe1719-2091-49a9-b407-f0f4961cf2b0","system_id":"levelo_inurba_marseille","lat":43.27487,"lon":5.42458,"is_reserved":false,"is_disabled":false,"rental_uris":{"android":"levelo://app?vid=4efe1719-2091-49a9-b407-f0f4961cf2b0","ios":"levelo://app?vid=4efe1719-2091-49a9-b407-f0f4961cf2b0"},"vehicle_type_id":"4","last_reported":1730794360,"current_range_meters":25200,"station_id":"ce4bhn92rcd13ifvqgrg","pricing_plan_id":"cebpf4jnsgd1na2vs0mg"},{"bike_id":"87fe8dd9-73df-4ed1-8234-c19f2f2b962c","system_id":"levelo_inurba_marseille","lat":43.26196,"lon":5.37444,"is_reserved":false,"is_disabled":false,"rental_uris":{"android":"levelo://app?vid=87fe8dd9-73df-4ed1-8234-c19f2f2b962c","ios":"levelo://app?vid=87fe8dd9-73df-4ed1-8234-c19f2f2b962c"},"vehicle_type_id":"4","last_reported":1730794360,"current_range_meters":3600,"station_id":"ce4bhgp2rcd13ifvqfc0","pricing_plan_id":"cebpf4jnsgd1na2vs0mg"},{"bike_id":"9e8da0e3-582c-4e52-88fe-0bdeeeddffb8","system_id":"levelo_inurba_marseille","lat":43.29372,"lon":5.37861,"is_reserved":false,"is_disabled":false,"rental_uris":{"android":"levelo://app?vid=9e8da0e3-582c-4e52-88fe-0bdeeeddffb8","ios":"levelo://app?vid=9e8da0e3-582c-4e52-88fe-0bdeeeddffb8"},"vehicle_type_id":"4","last_reported":1730794360,"current_range_meters":35200,"station_id":"ce4bgjh2rcd13ifvqbf0","pricing_plan_id":"cebpf4jnsgd1na2vs0mg"},{"bike_id":"fcac2cea-8337-48c7-9b48-eec8aacf17f1","system_id":"levelo_inurba_marseille","lat":43.29705,"lon":5.37709,"is_reserved":false,"is_disabled":false,"rental_uris":{"android":"levelo://app?vid=fcac2cea-8337-48c7-9b48-eec8aacf17f1","ios":"levelo://app?vid=fcac2cea-8337-48c7-9b48-eec8aacf17f1"},"vehicle_type_id":"4","last_reported":1730794360,"current_range_meters":26000,"station_id":"ce4bgkh2rcd13ifvqbl0","pricing_plan_id":"cebpf4jnsgd1na2vs0mg"},{"bike_id":"de9bc7da-0805-4f2e-a638-6f594e31fc19","system_id":"levelo_inurba_marseille","lat":43.23152,"lon":5.43703,"is_reserved":false,"is_disabled":false,"rental_uris":{"android":"levelo://app?vid=de9bc7da-0805-4f2e-a638-6f594e31fc19","ios":"levelo://app?vid=de9bc7da-0805-4f2e-a638-6f594e31fc19"},"vehicle_type_id":"4","last_reported":1730794360,"current_range_meters":21600,"station_id":"ce4bhmp2rcd13ifvqgog","pricing_plan_id":"cebpf4jnsgd1na2vs0mg"},{"bike_id":"5fb98fcb-8467-43bc-8f32-700a3dc876c9","system_id":"levelo_inurba_marseille","lat":43.23153,"lon":5.43715,"is_reserved":false,"is_disabled":false,"rental_uris":{"android":"levelo://app?vid=5fb98fcb-8467-43bc-8f32-700a3dc876c9","ios":"levelo://app?vid=5fb98fcb-8467-43bc-8f32-700a3dc876c9"},"vehicle_type_id":"4","last_reported":1730794360,"current_range_meters":23200,"station_id":"ce4bhmp2rcd13ifvqgog","pricing_plan_id":"cebpf4jnsgd1na2vs0mg"},{"bike_id":"f2c092a2-0134-4ce9-b755-7ee8d58ab87c","system_id":"levelo_inurba_marseille","lat":43.27104,"lon":5.38175,"is_reserved":false,"is_disabled":false,"rental_uris":{"android":"levelo://app?vid=f2c092a2-0134-4ce9-b755-7ee8d58ab87c","ios":"levelo://app?vid=f2c092a2-0134-4ce9-b755-7ee8d58ab87c"},"vehicle_type_id":"4","last_reported":1730794360,"current_range_meters":22800,"station_id":"","pricing_plan_id":"cebpf4jnsgd1na2vs0mg"},{"bike_id":"f38b74f1-091f-4a53-be86-f11ff6a2b03b","system_id":"levelo_inurba_marseille","lat":43.24072,"lon":5.37757,"is_reserved":false,"is_disabled":false,"rental_uris":{"android":"levelo://app?vid=f38b74f1-091f-4a53-be86-f11ff6a2b03b","ios":"levelo://app?vid=f38b74f1-091f-4a53-be86-f11ff6a2b03b"},"vehicle_type_id":"4","last_reported":1730794360,"current_range_meters":36000,"station_id":"ce4bhnp2rcd13ifvqgvg","pricing_plan_id":"cebpf4jnsgd1na2vs0mg"},{"bike_id":"576c5343-e842-4ace-8ef5-4494705c6e20","system_id":"levelo_inurba_marseille","lat":43.275,"lon":5.42434,"is_reserved":false,"is_disabled":false,"rental_uris":{"android":"levelo://app?vid=576c5343-e842-4ace-8ef5-4494705c6e20","ios":"levelo://app?vid=576c5343-e842-4ace-8ef5-4494705c6e20"},"vehicle_type_id":"4","last_reported":1730794360,"current_range_meters":24400,"station_id":"ce4bhn92rcd13ifvqgrg","pricing_plan_id":"cebpf4jnsgd1na2vs0mg"},{"bike_id":"3cc9dd69-9c0d-41f6-8f9d-006e9497ebe4","system_id":"levelo_inurba_marseille","lat":43.33749,"lon":5.37438,"is_reserved":false,"is_disabled":false,"rental_uris":{"android":"levelo://app?vid=3cc9dd69-9c0d-41f6-8f9d-006e9497ebe4","ios":"levelo://app?vid=3cc9dd69-9c0d-41f6-8f9d-006e9497ebe4"},"vehicle_type_id":"4","last_reported":1730794360,"current_range_meters":38800,"station_id":"","pricing_plan_id":"cebpf4jnsgd1na2vs0mg"},{"bike_id":"b498b98d-e880-4ac2-b168-2cbbc804a79b","system_id":"levelo_inurba_marseille","lat":43.26683,"lon":5.38268,"is_reserved":false,"is_disabled":false,"rental_uris":{"android":"levelo://app?vid=b498b98d-e880-4ac2-b168-2cbbc804a79b","ios":"levelo://app?vid=b498b98d-e880-4ac2-b168-2cbbc804a79b"},"vehicle_type_id":"4","last_reported":1730794360,"current_range_meters":29600,"station_id":"ce4bhg92rcd13ifvqf90","pricing_plan_id":"cebpf4jnsgd1na2vs0mg"},{"bike_id":"5eeefd11-649c-499f-9856-2a20cd33e6cb","system_id":"levelo_inurba_marseille","lat":43.30547,"lon":5.36702,"is_reserved":false,"is_disabled":false,"rental_uris":{"android":"levelo://app?vid=5eeefd11-649c-499f-9856-2a20cd33e6cb","ios":"levelo://app?vid=5eeefd11-649c-499f-9856-2a20cd33e6cb"},"vehicle_type_id":"4","last_reported":1730794360,"current_range_meters":11600,"station_id":"ce4bgrp2rcd13ifvqc9g","pricing_plan_id":"cebpf4jnsgd1na2vs0mg"},{"bike_id":"377b3fbe-6788-42b9-9529-ffc939473668","system_id":"levelo_inurba_marseille","lat":43.30305,"lon":5.36907,"is_reserved":false,"is_disabled":false,"rental_uris":{"android":"levelo://app?vid=377b3fbe-6788-42b9-9529-ffc939473668","ios":"levelo://app?vid=377b3fbe-6788-42b9-9529-ffc939473668"},"vehicle_type_id":"4","last_reported":1730794360,"current_range_meters":36800,"station_id":"ce4bgqh2rcd13ifvqc5g","pricing_plan_id":"cebpf4jnsgd1na2vs0mg"},{"bike_id":"2e01336c-e619-4649-8e1c-31d6863b91fd","system_id":"levelo_inurba_marseille","lat":43.24068,"lon":5.37734,"is_reserved":false,"is_disabled":false,"rental_uris":{"android":"levelo://app?vid=2e01336c-e619-4649-8e1c-31d6863b91fd","ios":"levelo://app?vid=2e01336c-e619-4649-8e1c-31d6863b91fd"},"vehicle_type_id":"4","last_reported":1730794360,"current_range_meters":10800,"station_id":"ce4bhnp2rcd13ifvqgvg","pricing_plan_id":"cebpf4jnsgd1na2vs0mg"},{"bike_id":"4f89cd28-e8bb-461f-a3db-aaf6ada6710d","system_id":"levelo_inurba_marseille","lat":43.26954,"lon":5.38633,"is_reserved":false,"is_disabled":false,"rental_uris":{"android":"levelo://app?vid=4f89cd28-e8bb-461f-a3db-aaf6ada6710d","ios":"levelo://app?vid=4f89cd28-e8bb-461f-a3db-aaf6ada6710d"},"vehicle_type_id":"4","last_reported":1730794360,"current_range_meters":29600,"station_id":"ce4bhh92rcd13ifvqfh0","pricing_plan_id":"cebpf4jnsgd1na2vs0mg"},{"bike_id":"5cc294f4-2cf8-48d9-b05e-31cb3bc70cc9","system_id":"levelo_inurba_marseille","lat":43.29976,"lon":5.37172,"is_reserved":false,"is_disabled":false,"rental_uris":{"android":"levelo://app?vid=5cc294f4-2cf8-48d9-b05e-31cb3bc70cc9","ios":"levelo://app?vid=5cc294f4-2cf8-48d9-b05e-31cb3bc70cc9"},"vehicle_type_id":"4","last_reported":1730794360,"current_range_meters":9200,"station_id":"ce4bgr92rcd13ifvqc7g","pricing_plan_id":"cebpf4jnsgd1na2vs0mg"},{"bike_id":"9d01c3dc-d1ec-4c0f-ae83-0b24141336f2","system_id":"levelo_inurba_marseille","lat":43.24182,"lon":5.39732,"is_reserved":false,"is_disabled":false,"rental_uris":{"android":"levelo://app?vid=9d01c3dc-d1ec-4c0f-ae83-0b24141336f2","ios":"levelo://app?vid=9d01c3dc-d1ec-4c0f-ae83-0b24141336f2"},"vehicle_type_id":"4","last_reported":1730794360,"current_range_meters":17200,"station_id":"ce4bhn12rcd13ifvqgpg","pricing_plan_id":"cebpf4jnsgd1na2vs0mg"},{"bike_id":"d4472d20-9c4b-4c70-ad00-3a005519a429","system_id":"levelo_inurba_marseille","lat":43.35344,"lon":5.35738,"is_reserved":false,"is_disabled":false,"rental_uris":{"android":"levelo://app?vid=d4472d20-9c4b-4c70-ad00-3a005519a429","ios":"levelo://app?vid=d4472d20-9c4b-4c70-ad00-3a005519a429"},"vehicle_type_id":"4","last_reported":1730794360,"current_range_meters":6000,"station_id":"","pricing_plan_id":"cebpf4jnsgd1na2vs0mg"},{"bike_id":"d112ef64-8345-40dc-a437-a0aa8c5bd57d","system_id":"levelo_inurba_marseille","lat":43.30546,"lon":5.36707,"is_reserved":false,"is_disabled":false,"rental_uris":{"android":"levelo://app?vid=d112ef64-8345-40dc-a437-a0aa8c5bd57d","ios":"levelo://app?vid=d112ef64-8345-40dc-a437-a0aa8c5bd57d"},"vehicle_type_id":"4","last_reported":1730794360,"current_range_meters":40000,"station_id":"ce4bgrp2rcd13ifvqc9g","pricing_plan_id":"cebpf4jnsgd1na2vs0mg"},{"bike_id":"5931a260-1033-4cf1-9cac-35ff1b447cb6","system_id":"levelo_inurba_marseille","lat":43.24178,"lon":5.39732,"is_reserved":false,"is_disabled":false,"rental_uris":{"android":"levelo://app?vid=5931a260-1033-4cf1-9cac-35ff1b447cb6","ios":"levelo://app?vid=5931a260-1033-4cf1-9cac-35ff1b447cb6"},"vehicle_type_id":"4","last_reported":1730794360,"current_range_meters":21600,"station_id":"ce4bhn12rcd13ifvqgpg","pricing_plan_id":"cebpf4jnsgd1na2vs0mg"},{"bike_id":"c7991380-0669-4bc8-a975-8ccd31dccdf7","system_id":"levelo_inurba_marseille","lat":43.29273,"lon":5.36844,"is_reserved":false,"is_disabled":false,"rental_uris":{"android":"levelo://app?vid=c7991380-0669-4bc8-a975-8ccd31dccdf7","ios":"levelo://app?vid=c7991380-0669-4bc8-a975-8ccd31dccdf7"},"vehicle_type_id":"4","last_reported":1730794360,"current_range_meters":2800,"station_id":"ce4bhbp2rcd13ifvqesg","pricing_plan_id":"cebpf4jnsgd1na2vs0mg"},{"bike_id":"9530bb2a-0a9e-47fe-a0a5-dd128eddca06","system_id":"levelo_inurba_marseille","lat":43.2572,"lon":5.41116,"is_reserved":false,"is_disabled":false,"rental_uris":{"android":"levelo://app?vid=9530bb2a-0a9e-47fe-a0a5-dd128eddca06","ios":"levelo://app?vid=9530bb2a-0a9e-47fe-a0a5-dd128eddca06"},"vehicle_type_id":"4","last_reported":1730794360,"current_range_meters":20400,"station_id":"ce4bhkp2rcd13ifvqgd0","pricing_plan_id":"cebpf4jnsgd1na2vs0mg"},{"bike_id":"adf94568-f560-4501-938c-780d1b506fa8","system_id":"levelo_inurba_marseille","lat":43.31334,"lon":5.36709,"is_reserved":false,"is_disabled":false,"rental_uris":{"android":"levelo://app?vid=adf94568-f560-4501-938c-780d1b506fa8","ios":"levelo://app?vid=adf94568-f560-4501-938c-780d1b506fa8"},"vehicle_type_id":"4","last_reported":1730794360,"current_range_meters":35600,"station_id":"ce4bgr92rcd13ifvqc6g","pricing_plan_id":"cebpf4jnsgd1na2vs0mg"},{"bike_id":"9d3be22f-a02d-4f23-bc7d-9a074f71e253","system_id":"levelo_inurba_marseille","lat":43.23965,"lon":5.36633,"is_reserved":false,"is_disabled":false,"rental_uris":{"android":"levelo://app?vid=9d3be22f-a02d-4f23-bc7d-9a074f71e253","ios":"levelo://app?vid=9d3be22f-a02d-4f23-bc7d-9a074f71e253"},"vehicle_type_id":"4","last_reported":1730794360,"current_range_meters":23200,"station_id":"ce4bhi12rcd13ifvqfp0","pricing_plan_id":"cebpf4jnsgd1na2vs0mg"},{"bike_id":"d3a2d74b-227b-43e0-a669-db2d440f7cc1","system_id":"levelo_inurba_marseille","lat":43.30541,"lon":5.36563,"is_reserved":false,"is_disabled":false,"rental_uris":{"android":"levelo://app?vid=d3a2d74b-227b-43e0-a669-db2d440f7cc1","ios":"levelo://app?vid=d3a2d74b-227b-43e0-a669-db2d440f7cc1"},"vehicle_type_id":"4","last_reported":1730794360,"current_range_meters":10800,"station_id":"ce4bgs12rcd13ifvqcag","pricing_plan_id":"cebpf4jnsgd1na2vs0mg"},{"bike_id":"1188b6aa-11b7-4349-89c8-b72ebc2cdf8c","system_id":"levelo_inurba_marseille","lat":43.32528,"lon":5.41439,"is_reserved":false,"is_disabled":false,"rental_uris":{"android":"levelo://app?vid=1188b6aa-11b7-4349-89c8-b72ebc2cdf8c","ios":"levelo://app?vid=1188b6aa-11b7-4349-89c8-b72ebc2cdf8c"},"vehicle_type_id":"4","last_reported":1730794360,"current_range_meters":36800,"station_id":"ce4bhq12rcd13ifvqhhg","pricing_plan_id":"cebpf4jnsgd1na2vs0mg"},{"bike_id":"270381d7-813e-4fd2-8243-d2548c2487cb","system_id":"levelo_inurba_marseille","lat":43.30466,"lon":5.37906,"is_reserved":false,"is_disabled":false,"rental_uris":{"android":"levelo://app?vid=270381d7-813e-4fd2-8243-d2548c2487cb","ios":"levelo://app?vid=270381d7-813e-4fd2-8243-d2548c2487cb"},"vehicle_type_id":"4","last_reported":1730794360,"current_range_meters":28400,"station_id":"ce4bgup2rcd13ifvqcn0","pricing_plan_id":"cebpf4jnsgd1na2vs0mg"},{"bike_id":"a2e40f3a-3095-4e13-b735-28e6c447bc0e","system_id":"levelo_inurba_marseille","lat":43.31237,"lon":5.36835,"is_reserved":false,"is_disabled":false,"rental_uris":{"android":"levelo://app?vid=a2e40f3a-3095-4e13-b735-28e6c447bc0e","ios":"levelo://app?vid=a2e40f3a-3095-4e13-b735-28e6c447bc0e"},"vehicle_type_id":"4","last_reported":1730794360,"current_range_meters":32800,"station_id":"ce4bgl92rcd13ifvqbq0","pricing_plan_id":"cebpf4jnsgd1na2vs0mg"},{"bike_id":"847c65e6-6a93-4381-be99-4a8a98e578bf","system_id":"levelo_inurba_marseille","lat":43.29299,"lon":5.37443,"is_reserved":false,"is_disabled":false,"rental_uris":{"android":"levelo://app?vid=847c65e6-6a93-4381-be99-4a8a98e578bf","ios":"levelo://app?vid=847c65e6-6a93-4381-be99-4a8a98e578bf"},"vehicle_type_id":"4","last_reported":1730794360,"current_range_meters":16000,"station_id":"ce4bgi12rcd13ifvqb70","pricing_plan_id":"cebpf4jnsgd1na2vs0mg"},{"bike_id":"15038621-f50b-4d83-b76d-65a0390ac4ac","system_id":"levelo_inurba_marseille","lat":43.27489,"lon":5.42454,"is_reserved":false,"is_disabled":false,"rental_uris":{"android":"levelo://app?vid=15038621-f50b-4d83-b76d-65a0390ac4ac","ios":"levelo://app?vid=15038621-f50b-4d83-b76d-65a0390ac4ac"},"vehicle_type_id":"4","last_reported":1730794360,"current_range_meters":28400,"station_id":"ce4bhn92rcd13ifvqgrg","pricing_plan_id":"cebpf4jnsgd1na2vs0mg"},{"bike_id":"ce1ad591-1d76-47e6-af6e-ae192a20f2f2","system_id":"levelo_inurba_marseille","lat":43.29525,"lon":5.37497,"is_reserved":false,"is_disabled":false,"rental_uris":{"android":"levelo://app?vid=ce1ad591-1d76-47e6-af6e-ae192a20f2f2","ios":"levelo://app?vid=ce1ad591-1d76-47e6-af6e-ae192a20f2f2"},"vehicle_type_id":"4","last_reported":1730794360,"current_range_meters":30400,"station_id":"ce4bgkp2rcd13ifvqbmg","pricing_plan_id":"cebpf4jnsgd1na2vs0mg"},{"bike_id":"89ed3898-5787-41f0-8b05-9f68f5efd265","system_id":"levelo_inurba_marseille","lat":43.301617,"lon":5.380867,"is_reserved":false,"is_disabled":false,"rental_uris":{"android":"levelo://app?vid=89ed3898-5787-41f0-8b05-9f68f5efd265","ios":"levelo://app?vid=89ed3898-5787-41f0-8b05-9f68f5efd265"},"vehicle_type_id":"4","last_reported":1730794360,"current_range_meters":30000,"station_id":"ce4bgjp2rcd13ifvqbh0","pricing_plan_id":"cebpf4jnsgd1na2vs0mg"},{"bike_id":"2dd40e8a-347a-4069-9f04-901c41b0a3c7","system_id":"levelo_inurba_marseille","lat":43.32099,"lon":5.36776,"is_reserved":false,"is_disabled":false,"rental_uris":{"android":"levelo://app?vid=2dd40e8a-347a-4069-9f04-901c41b0a3c7","ios":"levelo://app?vid=2dd40e8a-347a-4069-9f04-901c41b0a3c7"},"vehicle_type_id":"4","last_reported":1730794360,"current_range_meters":37600,"station_id":"ce4bhrh2rcd13ifvqhug","pricing_plan_id":"cebpf4jnsgd1na2vs0mg"},{"bike_id":"f8393ef1-e244-4c26-bc37-ce7097fa55f0","system_id":"levelo_inurba_marseille","lat":43.32397,"lon":5.4561,"is_reserved":false,"is_disabled":false,"rental_uris":{"android":"levelo://app?vid=f8393ef1-e244-4c26-bc37-ce7097fa55f0","ios":"levelo://app?vid=f8393ef1-e244-4c26-bc37-ce7097fa55f0"},"vehicle_type_id":"4","last_reported":1730794360,"current_range_meters":39200,"station_id":"","pricing_plan_id":"cebpf4jnsgd1na2vs0mg"},{"bike_id":"15cd3dd1-f670-47aa-98e2-85d97dd3b37e","system_id":"levelo_inurba_marseille","lat":43.29955,"lon":5.41316,"is_reserved":false,"is_disabled":false,"rental_uris":{"android":"levelo://app?vid=15cd3dd1-f670-47aa-98e2-85d97dd3b37e","ios":"levelo://app?vid=15cd3dd1-f670-47aa-98e2-85d97dd3b37e"},"vehicle_type_id":"4","last_reported":1730794360,"current_range_meters":38400,"station_id":"ce4bhp12rcd13ifvqh9g","pricing_plan_id":"cebpf4jnsgd1na2vs0mg"},{"bike_id":"dfda8b1c-5739-4d46-bcee-9938ea212ccb","system_id":"levelo_inurba_marseille","lat":43.28101,"lon":5.40664,"is_reserved":false,"is_disabled":false,"rental_uris":{"android":"levelo://app?vid=dfda8b1c-5739-4d46-bcee-9938ea212ccb","ios":"levelo://app?vid=dfda8b1c-5739-4d46-bcee-9938ea212ccb"},"vehicle_type_id":"4","last_reported":1730794360,"current_range_meters":25200,"station_id":"","pricing_plan_id":"cebpf4jnsgd1na2vs0mg"},{"bike_id":"67dab935-1b71-438c-83ee-d4f8ffbef4c9","system_id":"levelo_inurba_marseille","lat":43.3248,"lon":5.36563,"is_reserved":false,"is_disabled":false,"rental_uris":{"android":"levelo://app?vid=67dab935-1b71-438c-83ee-d4f8ffbef4c9","ios":"levelo://app?vid=67dab935-1b71-438c-83ee-d4f8ffbef4c9"},"vehicle_type_id":"4","last_reported":1730794360,"current_range_meters":24000,"station_id":"ce4bhs12rcd13ifvqhvg","pricing_plan_id":"cebpf4jnsgd1na2vs0mg"},{"bike_id":"c8a2d708-abe4-4e54-aedc-a081f8a474e1","system_id":"levelo_inurba_marseille","lat":43.24081,"lon":5.37754,"is_reserved":false,"is_disabled":false,"rental_uris":{"android":"levelo://app?vid=c8a2d708-abe4-4e54-aedc-a081f8a474e1","ios":"levelo://app?vid=c8a2d708-abe4-4e54-aedc-a081f8a474e1"},"vehicle_type_id":"4","last_reported":1730794360,"current_range_meters":28000,"station_id":"ce4bhnp2rcd13ifvqgvg","pricing_plan_id":"cebpf4jnsgd1na2vs0mg"},{"bike_id":"ca2cdc5a-ab0e-43bb-a03b-f76d34698291","system_id":"levelo_inurba_marseille","lat":43.29065,"lon":5.3718,"is_reserved":false,"is_disabled":false,"rental_uris":{"android":"levelo://app?vid=ca2cdc5a-ab0e-43bb-a03b-f76d34698291","ios":"levelo://app?vid=ca2cdc5a-ab0e-43bb-a03b-f76d34698291"},"vehicle_type_id":"4","last_reported":1730794360,"current_range_meters":28000,"station_id":"ce4bh5p2rcd13ifvqe4g","pricing_plan_id":"cebpf4jnsgd1na2vs0mg"},{"bike_id":"937ce82d-a7d4-4dbe-af7d-b5b30ccf2148","system_id":"levelo_inurba_marseille","lat":43.3135,"lon":5.36715,"is_reserved":false,"is_disabled":false,"rental_uris":{"android":"levelo://app?vid=937ce82d-a7d4-4dbe-af7d-b5b30ccf2148","ios":"levelo://app?vid=937ce82d-a7d4-4dbe-af7d-b5b30ccf2148"},"vehicle_type_id":"4","last_reported":1730794360,"current_range_meters":36400,"station_id":"ce4bgr92rcd13ifvqc6g","pricing_plan_id":"cebpf4jnsgd1na2vs0mg"},{"bike_id":"b0a0a404-93a0-4dc9-b1e0-d43f17c83d6c","system_id":"levelo_inurba_marseille","lat":43.30155,"lon":5.38081,"is_reserved":false,"is_disabled":false,"rental_uris":{"android":"levelo://app?vid=b0a0a404-93a0-4dc9-b1e0-d43f17c83d6c","ios":"levelo://app?vid=b0a0a404-93a0-4dc9-b1e0-d43f17c83d6c"},"vehicle_type_id":"4","last_reported":1730794360,"current_range_meters":36800,"station_id":"ce4bgjp2rcd13ifvqbh0","pricing_plan_id":"cebpf4jnsgd1na2vs0mg"},{"bike_id":"c3b2b175-0fbb-4b51-a30e-0e20d92af4cd","system_id":"levelo_inurba_marseille","lat":43.29613,"lon":5.3773,"is_reserved":false,"is_disabled":false,"rental_uris":{"android":"levelo://app?vid=c3b2b175-0fbb-4b51-a30e-0e20d92af4cd","ios":"levelo://app?vid=c3b2b175-0fbb-4b51-a30e-0e20d92af4cd"},"vehicle_type_id":"4","last_reported":1730794360,"current_range_meters":32800,"station_id":"ce4bgi92rcd13ifvqb90","pricing_plan_id":"cebpf4jnsgd1na2vs0mg"},{"bike_id":"476b1032-3456-4e75-9225-7aec38b7121d","system_id":"levelo_inurba_marseille","lat":43.27813,"lon":5.40713,"is_reserved":false,"is_disabled":false,"rental_uris":{"android":"levelo://app?vid=476b1032-3456-4e75-9225-7aec38b7121d","ios":"levelo://app?vid=476b1032-3456-4e75-9225-7aec38b7121d"},"vehicle_type_id":"4","last_reported":1730794360,"current_range_meters":24000,"station_id":"ce4bhnh2rcd13ifvqgtg","pricing_plan_id":"cebpf4jnsgd1na2vs0mg"},{"bike_id":"0e82a3eb-e3e3-4ca6-b551-765f1b1e97e5","system_id":"levelo_inurba_marseille","lat":43.30554,"lon":5.36552,"is_reserved":false,"is_disabled":false,"rental_uris":{"android":"levelo://app?vid=0e82a3eb-e3e3-4ca6-b551-765f1b1e97e5","ios":"levelo://app?vid=0e82a3eb-e3e3-4ca6-b551-765f1b1e97e5"},"vehicle_type_id":"4","last_reported":1730794360,"current_range_meters":25200,"station_id":"ce4bgs12rcd13ifvqcag","pricing_plan_id":"cebpf4jnsgd1na2vs0mg"},{"bike_id":"4c5f3fbb-e665-4d3a-af8f-239bf9239d07","system_id":"levelo_inurba_marseille","lat":43.26774,"lon":5.39418,"is_reserved":false,"is_disabled":false,"rental_uris":{"android":"levelo://app?vid=4c5f3fbb-e665-4d3a-af8f-239bf9239d07","ios":"levelo://app?vid=4c5f3fbb-e665-4d3a-af8f-239bf9239d07"},"vehicle_type_id":"4","last_reported":1730794360,"current_range_meters":30400,"station_id":"ce4bhh12rcd13ifvqfg0","pricing_plan_id":"cebpf4jnsgd1na2vs0mg"},{"bike_id":"98ecf52e-74c6-45bc-a5b2-06c6ca5d158c","system_id":"levelo_inurba_marseille","lat":43.30908,"lon":5.36851,"is_reserved":false,"is_disabled":false,"rental_uris":{"android":"levelo://app?vid=98ecf52e-74c6-45bc-a5b2-06c6ca5d158c","ios":"levelo://app?vid=98ecf52e-74c6-45bc-a5b2-06c6ca5d158c"},"vehicle_type_id":"4","last_reported":1730794360,"current_range_meters":38800,"station_id":"ce4bgn92rcd13ifvqbvg","pricing_plan_id":"cebpf4jnsgd1na2vs0mg"},{"bike_id":"0d6389f7-bab8-4ebf-ad74-7e0fecb405b9","system_id":"levelo_inurba_marseille","lat":43.31341,"lon":5.36702,"is_reserved":false,"is_disabled":false,"rental_uris":{"android":"levelo://app?vid=0d6389f7-bab8-4ebf-ad74-7e0fecb405b9","ios":"levelo://app?vid=0d6389f7-bab8-4ebf-ad74-7e0fecb405b9"},"vehicle_type_id":"4","last_reported":1730794360,"current_range_meters":35200,"station_id":"ce4bgr92rcd13ifvqc6g","pricing_plan_id":"cebpf4jnsgd1na2vs0mg"},{"bike_id":"8a3e233f-ea57-4e43-ad00-a941cd32038d","system_id":"levelo_inurba_marseille","lat":43.27678,"lon":5.38871,"is_reserved":false,"is_disabled":false,"rental_uris":{"android":"levelo://app?vid=8a3e233f-ea57-4e43-ad00-a941cd32038d","ios":"levelo://app?vid=8a3e233f-ea57-4e43-ad00-a941cd32038d"},"vehicle_type_id":"4","last_reported":1730794360,"current_range_meters":39200,"station_id":"ce4bhi12rcd13ifvqfo0","pricing_plan_id":"cebpf4jnsgd1na2vs0mg"},{"bike_id":"208182cf-234f-4932-94de-8e99c739cec9","system_id":"levelo_inurba_marseille","lat":43.29618,"lon":5.37164,"is_reserved":false,"is_disabled":false,"rental_uris":{"android":"levelo://app?vid=208182cf-234f-4932-94de-8e99c739cec9","ios":"levelo://app?vid=208182cf-234f-4932-94de-8e99c739cec9"},"vehicle_type_id":"4","last_reported":1730794360,"current_range_meters":24000,"station_id":"ce4bgnh2rcd13ifvqc0g","pricing_plan_id":"cebpf4jnsgd1na2vs0mg"},{"bike_id":"fe319810-8d53-4a22-a087-96a644f89f95","system_id":"levelo_inurba_marseille","lat":43.29846,"lon":5.36264,"is_reserved":false,"is_disabled":false,"rental_uris":{"android":"levelo://app?vid=fe319810-8d53-4a22-a087-96a644f89f95","ios":"levelo://app?vid=fe319810-8d53-4a22-a087-96a644f89f95"},"vehicle_type_id":"4","last_reported":1730794360,"current_range_meters":32000,"station_id":"ce4bgpp2rcd13ifvqc3g","pricing_plan_id":"cebpf4jnsgd1na2vs0mg"},{"bike_id":"ba8f5d9a-4861-4465-b828-23e2245ef053","system_id":"levelo_inurba_marseille","lat":43.23185,"lon":5.39975,"is_reserved":false,"is_disabled":false,"rental_uris":{"android":"levelo://app?vid=ba8f5d9a-4861-4465-b828-23e2245ef053","ios":"levelo://app?vid=ba8f5d9a-4861-4465-b828-23e2245ef053"},"vehicle_type_id":"4","last_reported":1730794360,"current_range_meters":40000,"station_id":"ce4bhn12rcd13ifvqgqg","pricing_plan_id":"cebpf4jnsgd1na2vs0mg"},{"bike_id":"5b8f46d2-0726-4a5f-a9c0-70430fa0502c","system_id":"levelo_inurba_marseille","lat":43.25824,"lon":5.39427,"is_reserved":false,"is_disabled":false,"rental_uris":{"android":"levelo://app?vid=5b8f46d2-0726-4a5f-a9c0-70430fa0502c","ios":"levelo://app?vid=5b8f46d2-0726-4a5f-a9c0-70430fa0502c"},"vehicle_type_id":"4","last_reported":1730794360,"current_range_meters":26000,"station_id":"ce4bhip2rcd13ifvqft0","pricing_plan_id":"cebpf4jnsgd1na2vs0mg"},{"bike_id":"e9c24325-948c-40a0-9716-20b40a7d3bc5","system_id":"levelo_inurba_marseille","lat":43.26682,"lon":5.38274,"is_reserved":false,"is_disabled":false,"rental_uris":{"android":"levelo://app?vid=e9c24325-948c-40a0-9716-20b40a7d3bc5","ios":"levelo://app?vid=e9c24325-948c-40a0-9716-20b40a7d3bc5"},"vehicle_type_id":"4","last_reported":1730794360,"current_range_meters":38400,"station_id":"ce4bhg92rcd13ifvqf90","pricing_plan_id":"cebpf4jnsgd1na2vs0mg"},{"bike_id":"96381ffa-14b6-46af-8277-a42ff00132cb","system_id":"levelo_inurba_marseille","lat":43.29606,"lon":5.37713,"is_reserved":false,"is_disabled":false,"rental_uris":{"android":"levelo://app?vid=96381ffa-14b6-46af-8277-a42ff00132cb","ios":"levelo://app?vid=96381ffa-14b6-46af-8277-a42ff00132cb"},"vehicle_type_id":"4","last_reported":1730794360,"current_range_meters":23200,"station_id":"ce4bgi92rcd13ifvqb90","pricing_plan_id":"cebpf4jnsgd1na2vs0mg"},{"bike_id":"15de2ca6-28c5-4f21-a946-3c35db8b327d","system_id":"levelo_inurba_marseille","lat":43.24073,"lon":5.37751,"is_reserved":false,"is_disabled":false,"rental_uris":{"android":"levelo://app?vid=15de2ca6-28c5-4f21-a946-3c35db8b327d","ios":"levelo://app?vid=15de2ca6-28c5-4f21-a946-3c35db8b327d"},"vehicle_type_id":"4","last_reported":1730794360,"current_range_meters":32800,"station_id":"ce4bhnp2rcd13ifvqgvg","pricing_plan_id":"cebpf4jnsgd1na2vs0mg"},{"bike_id":"89613f0f-5b27-46f7-8ae5-dc5ac8fe7e35","system_id":"levelo_inurba_marseille","lat":43.25937,"lon":5.409,"is_reserved":false,"is_disabled":false,"rental_uris":{"android":"levelo://app?vid=89613f0f-5b27-46f7-8ae5-dc5ac8fe7e35","ios":"levelo://app?vid=89613f0f-5b27-46f7-8ae5-dc5ac8fe7e35"},"vehicle_type_id":"4","last_reported":1730794360,"current_range_meters":21600,"station_id":"ce4bhm92rcd13ifvqglg","pricing_plan_id":"cebpf4jnsgd1na2vs0mg"},{"bike_id":"16ae9290-db9a-4317-b34b-8b26fa9930fd","system_id":"levelo_inurba_marseille","lat":43.23159,"lon":5.43687,"is_reserved":false,"is_disabled":false,"rental_uris":{"android":"levelo://app?vid=16ae9290-db9a-4317-b34b-8b26fa9930fd","ios":"levelo://app?vid=16ae9290-db9a-4317-b34b-8b26fa9930fd"},"vehicle_type_id":"4","last_reported":1730794360,"current_range_meters":28400,"station_id":"ce4bhmp2rcd13ifvqgog","pricing_plan_id":"cebpf4jnsgd1na2vs0mg"},{"bike_id":"aa2395f8-9d30-4a27-9bdc-78c2fe515d0c","system_id":"levelo_inurba_marseille","lat":43.31082,"lon":5.42428,"is_reserved":false,"is_disabled":false,"rental_uris":{"android":"levelo://app?vid=aa2395f8-9d30-4a27-9bdc-78c2fe515d0c","ios":"levelo://app?vid=aa2395f8-9d30-4a27-9bdc-78c2fe515d0c"},"vehicle_type_id":"4","last_reported":1730794360,"current_range_meters":25200,"station_id":"ce4bhp92rcd13ifvqhag","pricing_plan_id":"cebpf4jnsgd1na2vs0mg"},{"bike_id":"77f75c58-df77-4d1f-b372-5b5eed455101","system_id":"levelo_inurba_marseille","lat":43.30537,"lon":5.36555,"is_reserved":false,"is_disabled":false,"rental_uris":{"android":"levelo://app?vid=77f75c58-df77-4d1f-b372-5b5eed455101","ios":"levelo://app?vid=77f75c58-df77-4d1f-b372-5b5eed455101"},"vehicle_type_id":"4","last_reported":1730794360,"current_range_meters":23200,"station_id":"ce4bgs12rcd13ifvqcag","pricing_plan_id":"cebpf4jnsgd1na2vs0mg"},{"bike_id":"23ddf6b7-63f6-41f7-a867-e52589caa855","system_id":"levelo_inurba_marseille","lat":43.32462,"lon":5.36555,"is_reserved":false,"is_disabled":false,"rental_uris":{"android":"levelo://app?vid=23ddf6b7-63f6-41f7-a867-e52589caa855","ios":"levelo://app?vid=23ddf6b7-63f6-41f7-a867-e52589caa855"},"vehicle_type_id":"4","last_reported":1730794360,"current_range_meters":26000,"station_id":"ce4bhs12rcd13ifvqhvg","pricing_plan_id":"cebpf4jnsgd1na2vs0mg"},{"bike_id":"d7eba0bc-553a-47d4-8bc6-a467f428147a","system_id":"levelo_inurba_marseille","lat":43.31341,"lon":5.36713,"is_reserved":false,"is_disabled":false,"rental_uris":{"android":"levelo://app?vid=d7eba0bc-553a-47d4-8bc6-a467f428147a","ios":"levelo://app?vid=d7eba0bc-553a-47d4-8bc6-a467f428147a"},"vehicle_type_id":"4","last_reported":1730794360,"current_range_meters":30800,"station_id":"ce4bgr92rcd13ifvqc6g","pricing_plan_id":"cebpf4jnsgd1na2vs0mg"},{"bike_id":"430e744b-bb17-4d12-9926-6897ec74cf5e","system_id":"levelo_inurba_marseille","lat":43.26939,"lon":5.38918,"is_reserved":false,"is_disabled":false,"rental_uris":{"android":"levelo://app?vid=430e744b-bb17-4d12-9926-6897ec74cf5e","ios":"levelo://app?vid=430e744b-bb17-4d12-9926-6897ec74cf5e"},"vehicle_type_id":"4","last_reported":1730794360,"current_range_meters":38400,"station_id":"ce4bhhh2rcd13ifvqfl0","pricing_plan_id":"cebpf4jnsgd1na2vs0mg"},{"bike_id":"71721fe2-35d7-41f2-9225-983e1943836f","system_id":"levelo_inurba_marseille","lat":43.33751,"lon":5.37459,"is_reserved":false,"is_disabled":false,"rental_uris":{"android":"levelo://app?vid=71721fe2-35d7-41f2-9225-983e1943836f","ios":"levelo://app?vid=71721fe2-35d7-41f2-9225-983e1943836f"},"vehicle_type_id":"4","last_reported":1730794360,"current_range_meters":38400,"station_id":"","pricing_plan_id":"cebpf4jnsgd1na2vs0mg"},{"bike_id":"bb254295-6b2f-47fa-b542-f768ed4879ee","system_id":"levelo_inurba_marseille","lat":43.23153,"lon":5.43712,"is_reserved":false,"is_disabled":false,"rental_uris":{"android":"levelo://app?vid=bb254295-6b2f-47fa-b542-f768ed4879ee","ios":"levelo://app?vid=bb254295-6b2f-47fa-b542-f768ed4879ee"},"vehicle_type_id":"4","last_reported":1730794360,"current_range_meters":18800,"station_id":"ce4bhmp2rcd13ifvqgog","pricing_plan_id":"cebpf4jnsgd1na2vs0mg"},{"bike_id":"3efb82fc-c92d-4ec5-a741-2428a9896075","system_id":"levelo_inurba_marseille","lat":43.30149,"lon":5.38071,"is_reserved":false,"is_disabled":false,"rental_uris":{"android":"levelo://app?vid=3efb82fc-c92d-4ec5-a741-2428a9896075","ios":"levelo://app?vid=3efb82fc-c92d-4ec5-a741-2428a9896075"},"vehicle_type_id":"4","last_reported":1730794360,"current_range_meters":35200,"station_id":"ce4bgjp2rcd13ifvqbh0","pricing_plan_id":"cebpf4jnsgd1na2vs0mg"},{"bike_id":"e05a988b-49b8-47f0-b4c8-d541c1e5ecbc","system_id":"levelo_inurba_marseille","lat":43.25722,"lon":5.41114,"is_reserved":false,"is_disabled":false,"rental_uris":{"android":"levelo://app?vid=e05a988b-49b8-47f0-b4c8-d541c1e5ecbc","ios":"levelo://app?vid=e05a988b-49b8-47f0-b4c8-d541c1e5ecbc"},"vehicle_type_id":"4","last_reported":1730794360,"current_range_meters":18800,"station_id":"ce4bhkp2rcd13ifvqgd0","pricing_plan_id":"cebpf4jnsgd1na2vs0mg"},{"bike_id":"3f0ac8b6-a688-4ae8-b86c-0f4e3445eb81","system_id":"levelo_inurba_marseille","lat":43.27074,"lon":5.42274,"is_reserved":false,"is_disabled":false,"rental_uris":{"android":"levelo://app?vid=3f0ac8b6-a688-4ae8-b86c-0f4e3445eb81","ios":"levelo://app?vid=3f0ac8b6-a688-4ae8-b86c-0f4e3445eb81"},"vehicle_type_id":"4","last_reported":1730794360,"current_range_meters":6400,"station_id":"ce4bhk92rcd13ifvqgb0","pricing_plan_id":"cebpf4jnsgd1na2vs0mg"},{"bike_id":"697dd118-268c-406e-bad8-371dfe74ed47","system_id":"levelo_inurba_marseille","lat":43.31763,"lon":5.39011,"is_reserved":false,"is_disabled":false,"rental_uris":{"android":"levelo://app?vid=697dd118-268c-406e-bad8-371dfe74ed47","ios":"levelo://app?vid=697dd118-268c-406e-bad8-371dfe74ed47"},"vehicle_type_id":"4","last_reported":1730794360,"current_range_meters":35200,"station_id":"ce4bhqp2rcd13ifvqhng","pricing_plan_id":"cebpf4jnsgd1na2vs0mg"},{"bike_id":"2fc55c03-c366-494d-8fbd-38e5ed427fb4","system_id":"levelo_inurba_marseille","lat":43.27433,"lon":5.42404,"is_reserved":false,"is_disabled":false,"rental_uris":{"android":"levelo://app?vid=2fc55c03-c366-494d-8fbd-38e5ed427fb4","ios":"levelo://app?vid=2fc55c03-c366-494d-8fbd-38e5ed427fb4"},"vehicle_type_id":"4","last_reported":1730794360,"current_range_meters":34000,"station_id":"","pricing_plan_id":"cebpf4jnsgd1na2vs0mg"},{"bike_id":"df631f64-1a97-490d-89e4-f911af8eac65","system_id":"levelo_inurba_marseille","lat":43.33603,"lon":5.4103,"is_reserved":false,"is_disabled":false,"rental_uris":{"android":"levelo://app?vid=df631f64-1a97-490d-89e4-f911af8eac65","ios":"levelo://app?vid=df631f64-1a97-490d-89e4-f911af8eac65"},"vehicle_type_id":"4","last_reported":1730794360,"current_range_meters":38000,"station_id":"ce4bhqh2rcd13ifvqhmg","pricing_plan_id":"cebpf4jnsgd1na2vs0mg"},{"bike_id":"f88d0f54-db67-4952-89b8-c170a3352e34","system_id":"levelo_inurba_marseille","lat":43.29927,"lon":5.37476,"is_reserved":false,"is_disabled":false,"rental_uris":{"android":"levelo://app?vid=f88d0f54-db67-4952-89b8-c170a3352e34","ios":"levelo://app?vid=f88d0f54-db67-4952-89b8-c170a3352e34"},"vehicle_type_id":"4","last_reported":1730794360,"current_range_meters":36800,"station_id":"ce4bgjh2rcd13ifvqbg0","pricing_plan_id":"cebpf4jnsgd1na2vs0mg"},{"bike_id":"3a4daf16-adfd-4e7e-964d-e1ce255aeee3","system_id":"levelo_inurba_marseille","lat":43.32541,"lon":5.41429,"is_reserved":false,"is_disabled":false,"rental_uris":{"android":"levelo://app?vid=3a4daf16-adfd-4e7e-964d-e1ce255aeee3","ios":"levelo://app?vid=3a4daf16-adfd-4e7e-964d-e1ce255aeee3"},"vehicle_type_id":"4","last_reported":1730794360,"current_range_meters":12400,"station_id":"ce4bhq12rcd13ifvqhhg","pricing_plan_id":"cebpf4jnsgd1na2vs0mg"},{"bike_id":"c76fc251-a418-400e-9280-0eacf2c8248d","system_id":"levelo_inurba_marseille","lat":43.28346,"lon":5.38106,"is_reserved":false,"is_disabled":false,"rental_uris":{"android":"levelo://app?vid=c76fc251-a418-400e-9280-0eacf2c8248d","ios":"levelo://app?vid=c76fc251-a418-400e-9280-0eacf2c8248d"},"vehicle_type_id":"4","last_reported":1730794360,"current_range_meters":35200,"station_id":"ce4bh412rcd13ifvqdr0","pricing_plan_id":"cebpf4jnsgd1na2vs0mg"},{"bike_id":"2f3fb672-e693-4cd7-8835-965da134d65f","system_id":"levelo_inurba_marseille","lat":43.27672,"lon":5.38897,"is_reserved":false,"is_disabled":false,"rental_uris":{"android":"levelo://app?vid=2f3fb672-e693-4cd7-8835-965da134d65f","ios":"levelo://app?vid=2f3fb672-e693-4cd7-8835-965da134d65f"},"vehicle_type_id":"4","last_reported":1730794360,"current_range_meters":37600,"station_id":"ce4bhi12rcd13ifvqfo0","pricing_plan_id":"cebpf4jnsgd1na2vs0mg"},{"bike_id":"57e7ea0d-136c-4ce7-8242-21c4b2cac819","system_id":"levelo_inurba_marseille","lat":43.30901,"lon":5.36858,"is_reserved":false,"is_disabled":false,"rental_uris":{"android":"levelo://app?vid=57e7ea0d-136c-4ce7-8242-21c4b2cac819","ios":"levelo://app?vid=57e7ea0d-136c-4ce7-8242-21c4b2cac819"},"vehicle_type_id":"4","last_reported":1730794360,"current_range_meters":28000,"station_id":"ce4bgn92rcd13ifvqbvg","pricing_plan_id":"cebpf4jnsgd1na2vs0mg"},{"bike_id":"154acfee-d67d-4e4b-8812-97f42357517d","system_id":"levelo_inurba_marseille","lat":43.27807,"lon":5.40708,"is_reserved":false,"is_disabled":false,"rental_uris":{"android":"levelo://app?vid=154acfee-d67d-4e4b-8812-97f42357517d","ios":"levelo://app?vid=154acfee-d67d-4e4b-8812-97f42357517d"},"vehicle_type_id":"4","last_reported":1730794360,"current_range_meters":22800,"station_id":"ce4bhnh2rcd13ifvqgtg","pricing_plan_id":"cebpf4jnsgd1na2vs0mg"},{"bike_id":"c1d0c445-164d-43eb-b9ec-414fbdb8aee2","system_id":"levelo_inurba_marseille","lat":43.29378,"lon":5.37846,"is_reserved":false,"is_disabled":false,"rental_uris":{"android":"levelo://app?vid=c1d0c445-164d-43eb-b9ec-414fbdb8aee2","ios":"levelo://app?vid=c1d0c445-164d-43eb-b9ec-414fbdb8aee2"},"vehicle_type_id":"4","last_reported":1730794360,"current_range_meters":39200,"station_id":"ce4bgjh2rcd13ifvqbf0","pricing_plan_id":"cebpf4jnsgd1na2vs0mg"},{"bike_id":"e20042a3-679d-432e-bbad-615f69049412","system_id":"levelo_inurba_marseille","lat":43.2315,"lon":5.43708,"is_reserved":false,"is_disabled":false,"rental_uris":{"android":"levelo://app?vid=e20042a3-679d-432e-bbad-615f69049412","ios":"levelo://app?vid=e20042a3-679d-432e-bbad-615f69049412"},"vehicle_type_id":"4","last_reported":1730794360,"current_range_meters":28400,"station_id":"ce4bhmp2rcd13ifvqgog","pricing_plan_id":"cebpf4jnsgd1na2vs0mg"},{"bike_id":"47a64d21-5ac6-4cb0-9d7a-360d0b956e6c","system_id":"levelo_inurba_marseille","lat":43.30272,"lon":5.37719,"is_reserved":false,"is_disabled":false,"rental_uris":{"android":"levelo://app?vid=47a64d21-5ac6-4cb0-9d7a-360d0b956e6c","ios":"levelo://app?vid=47a64d21-5ac6-4cb0-9d7a-360d0b956e6c"},"vehicle_type_id":"4","last_reported":1730794360,"current_range_meters":7200,"station_id":"ce4bguh2rcd13ifvqcj0","pricing_plan_id":"cebpf4jnsgd1na2vs0mg"},{"bike_id":"6be51281-4936-4514-8c52-945d0bc0e483","system_id":"levelo_inurba_marseille","lat":43.27811,"lon":5.40714,"is_reserved":false,"is_disabled":false,"rental_uris":{"android":"levelo://app?vid=6be51281-4936-4514-8c52-945d0bc0e483","ios":"levelo://app?vid=6be51281-4936-4514-8c52-945d0bc0e483"},"vehicle_type_id":"4","last_reported":1730794360,"current_range_meters":24800,"station_id":"ce4bhnh2rcd13ifvqgtg","pricing_plan_id":"cebpf4jnsgd1na2vs0mg"},{"bike_id":"f6fac252-bcfe-4359-8cd8-84ee90eebb7d","system_id":"levelo_inurba_marseille","lat":43.30538,"lon":5.36542,"is_reserved":false,"is_disabled":false,"rental_uris":{"android":"levelo://app?vid=f6fac252-bcfe-4359-8cd8-84ee90eebb7d","ios":"levelo://app?vid=f6fac252-bcfe-4359-8cd8-84ee90eebb7d"},"vehicle_type_id":"4","last_reported":1730794360,"current_range_meters":39200,"station_id":"ce4bgs12rcd13ifvqcag","pricing_plan_id":"cebpf4jnsgd1na2vs0mg"},{"bike_id":"660f9ab5-0ee6-45bd-9ba0-20f4579b8e99","system_id":"levelo_inurba_marseille","lat":43.33603,"lon":5.41027,"is_reserved":false,"is_disabled":false,"rental_uris":{"android":"levelo://app?vid=660f9ab5-0ee6-45bd-9ba0-20f4579b8e99","ios":"levelo://app?vid=660f9ab5-0ee6-45bd-9ba0-20f4579b8e99"},"vehicle_type_id":"4","last_reported":1730794360,"current_range_meters":40000,"station_id":"ce4bhqh2rcd13ifvqhmg","pricing_plan_id":"cebpf4jnsgd1na2vs0mg"},{"bike_id":"fc597358-2b03-4691-ad89-98e955072423","system_id":"levelo_inurba_marseille","lat":43.240601,"lon":5.377682,"is_reserved":false,"is_disabled":false,"rental_uris":{"android":"levelo://app?vid=fc597358-2b03-4691-ad89-98e955072423","ios":"levelo://app?vid=fc597358-2b03-4691-ad89-98e955072423"},"vehicle_type_id":"4","last_reported":1730794360,"current_range_meters":6000,"station_id":"ce4bhhp2rcd13ifvqfm0","pricing_plan_id":"cebpf4jnsgd1na2vs0mg"},{"bike_id":"ae041007-e592-4090-bb3e-17b320956fec","system_id":"levelo_inurba_marseille","lat":43.24072,"lon":5.37762,"is_reserved":false,"is_disabled":false,"rental_uris":{"android":"levelo://app?vid=ae041007-e592-4090-bb3e-17b320956fec","ios":"levelo://app?vid=ae041007-e592-4090-bb3e-17b320956fec"},"vehicle_type_id":"4","last_reported":1730794360,"current_range_meters":25200,"station_id":"ce4bhnp2rcd13ifvqgvg","pricing_plan_id":"cebpf4jnsgd1na2vs0mg"},{"bike_id":"32920a41-7391-4fe0-8909-574511ef3b4d","system_id":"levelo_inurba_marseille","lat":43.30144,"lon":5.37413,"is_reserved":false,"is_disabled":false,"rental_uris":{"android":"levelo://app?vid=32920a41-7391-4fe0-8909-574511ef3b4d","ios":"levelo://app?vid=32920a41-7391-4fe0-8909-574511ef3b4d"},"vehicle_type_id":"4","last_reported":1730794360,"current_range_meters":32400,"station_id":"ce4bgs92rcd13ifvqcc0","pricing_plan_id":"cebpf4jnsgd1na2vs0mg"},{"bike_id":"fc7e1c38-5ceb-4fb3-9afa-990ebfb95007","system_id":"levelo_inurba_marseille","lat":43.23156,"lon":5.43709,"is_reserved":false,"is_disabled":false,"rental_uris":{"android":"levelo://app?vid=fc7e1c38-5ceb-4fb3-9afa-990ebfb95007","ios":"levelo://app?vid=fc7e1c38-5ceb-4fb3-9afa-990ebfb95007"},"vehicle_type_id":"4","last_reported":1730794360,"current_range_meters":10000,"station_id":"ce4bhmp2rcd13ifvqgog","pricing_plan_id":"cebpf4jnsgd1na2vs0mg"},{"bike_id":"296734d8-2f60-4962-8ade-8ede9e8e46b0","system_id":"levelo_inurba_marseille","lat":43.30467,"lon":5.37896,"is_reserved":false,"is_disabled":false,"rental_uris":{"android":"levelo://app?vid=296734d8-2f60-4962-8ade-8ede9e8e46b0","ios":"levelo://app?vid=296734d8-2f60-4962-8ade-8ede9e8e46b0"},"vehicle_type_id":"4","last_reported":1730794360,"current_range_meters":38000,"station_id":"ce4bgup2rcd13ifvqcn0","pricing_plan_id":"cebpf4jnsgd1na2vs0mg"},{"bike_id":"037d120e-14f0-4fff-8231-d7e0e3c721c8","system_id":"levelo_inurba_marseille","lat":43.291692,"lon":5.371591,"is_reserved":false,"is_disabled":false,"rental_uris":{"android":"levelo://app?vid=037d120e-14f0-4fff-8231-d7e0e3c721c8","ios":"levelo://app?vid=037d120e-14f0-4fff-8231-d7e0e3c721c8"},"vehicle_type_id":"4","last_reported":1730794360,"current_range_meters":33200,"station_id":"ce4bha92rcd13ifvqeh0","pricing_plan_id":"cebpf4jnsgd1na2vs0mg"},{"bike_id":"ada3955f-a638-437f-a359-7553433b0343","system_id":"levelo_inurba_marseille","lat":43.26918,"lon":5.38676,"is_reserved":false,"is_disabled":false,"rental_uris":{"android":"levelo://app?vid=ada3955f-a638-437f-a359-7553433b0343","ios":"levelo://app?vid=ada3955f-a638-437f-a359-7553433b0343"},"vehicle_type_id":"4","last_reported":1730794360,"current_range_meters":11200,"station_id":"ce4bhh92rcd13ifvqfh0","pricing_plan_id":"cebpf4jnsgd1na2vs0mg"},{"bike_id":"8d300db8-fddf-4c19-b47b-a311848031fe","system_id":"levelo_inurba_marseille","lat":43.25937,"lon":5.409,"is_reserved":false,"is_disabled":false,"rental_uris":{"android":"levelo://app?vid=8d300db8-fddf-4c19-b47b-a311848031fe","ios":"levelo://app?vid=8d300db8-fddf-4c19-b47b-a311848031fe"},"vehicle_type_id":"4","last_reported":1730794360,"current_range_meters":17200,"station_id":"ce4bhm92rcd13ifvqglg","pricing_plan_id":"cebpf4jnsgd1na2vs0mg"},{"bike_id":"8c9e6471-103a-43e7-999a-b23785f81e92","system_id":"levelo_inurba_marseille","lat":43.30292,"lon":5.37694,"is_reserved":false,"is_disabled":false,"rental_uris":{"android":"levelo://app?vid=8c9e6471-103a-43e7-999a-b23785f81e92","ios":"levelo://app?vid=8c9e6471-103a-43e7-999a-b23785f81e92"},"vehicle_type_id":"4","last_reported":1730794360,"current_range_meters":32800,"station_id":"ce4bguh2rcd13ifvqcj0","pricing_plan_id":"cebpf4jnsgd1na2vs0mg"},{"bike_id":"4cfa7c95-7b12-4adc-937b-e1311d881e9c","system_id":"levelo_inurba_marseille","lat":43.24181,"lon":5.39727,"is_reserved":false,"is_disabled":false,"rental_uris":{"android":"levelo://app?vid=4cfa7c95-7b12-4adc-937b-e1311d881e9c","ios":"levelo://app?vid=4cfa7c95-7b12-4adc-937b-e1311d881e9c"},"vehicle_type_id":"4","last_reported":1730794360,"current_range_meters":9600,"station_id":"ce4bhn12rcd13ifvqgpg","pricing_plan_id":"cebpf4jnsgd1na2vs0mg"},{"bike_id":"823967de-5ba0-4689-8bf8-641b466fd8b1","system_id":"levelo_inurba_marseille","lat":43.23196,"lon":5.35553,"is_reserved":false,"is_disabled":false,"rental_uris":{"android":"levelo://app?vid=823967de-5ba0-4689-8bf8-641b466fd8b1","ios":"levelo://app?vid=823967de-5ba0-4689-8bf8-641b466fd8b1"},"vehicle_type_id":"4","last_reported":1730794360,"current_range_meters":39200,"station_id":"ce4bhu92rcd13ifvqi70","pricing_plan_id":"cebpf4jnsgd1na2vs0mg"},{"bike_id":"df2000e4-7ce1-46ba-980f-a90a63f2d7a2","system_id":"levelo_inurba_marseille","lat":43.29848,"lon":5.36283,"is_reserved":false,"is_disabled":false,"rental_uris":{"android":"levelo://app?vid=df2000e4-7ce1-46ba-980f-a90a63f2d7a2","ios":"levelo://app?vid=df2000e4-7ce1-46ba-980f-a90a63f2d7a2"},"vehicle_type_id":"4","last_reported":1730794360,"current_range_meters":38000,"station_id":"ce4bgpp2rcd13ifvqc3g","pricing_plan_id":"cebpf4jnsgd1na2vs0mg"},{"bike_id":"78f9e492-90d7-4f2e-b433-8a4d32d8b368","system_id":"levelo_inurba_marseille","lat":43.34148,"lon":5.40904,"is_reserved":false,"is_disabled":false,"rental_uris":{"android":"levelo://app?vid=78f9e492-90d7-4f2e-b433-8a4d32d8b368","ios":"levelo://app?vid=78f9e492-90d7-4f2e-b433-8a4d32d8b368"},"vehicle_type_id":"4","last_reported":1730794360,"current_range_meters":34000,"station_id":"ce4bhqh2rcd13ifvqhlg","pricing_plan_id":"cebpf4jnsgd1na2vs0mg"},{"bike_id":"bf40774a-e35c-4eca-812a-a942b10d41e9","system_id":"levelo_inurba_marseille","lat":43.2594,"lon":5.40909,"is_reserved":false,"is_disabled":false,"rental_uris":{"android":"levelo://app?vid=bf40774a-e35c-4eca-812a-a942b10d41e9","ios":"levelo://app?vid=bf40774a-e35c-4eca-812a-a942b10d41e9"},"vehicle_type_id":"4","last_reported":1730794360,"current_range_meters":32800,"station_id":"ce4bhm92rcd13ifvqglg","pricing_plan_id":"cebpf4jnsgd1na2vs0mg"},{"bike_id":"a277368d-791b-402a-832d-49a121abbb5e","system_id":"levelo_inurba_marseille","lat":43.31229,"lon":5.36856,"is_reserved":false,"is_disabled":false,"rental_uris":{"android":"levelo://app?vid=a277368d-791b-402a-832d-49a121abbb5e","ios":"levelo://app?vid=a277368d-791b-402a-832d-49a121abbb5e"},"vehicle_type_id":"4","last_reported":1730794360,"current_range_meters":21600,"station_id":"ce4bgl92rcd13ifvqbq0","pricing_plan_id":"cebpf4jnsgd1na2vs0mg"},{"bike_id":"9cfa28b4-1a2f-441b-9067-fc74a7741fc6","system_id":"levelo_inurba_marseille","lat":43.3112,"lon":5.37756,"is_reserved":false,"is_disabled":false,"rental_uris":{"android":"levelo://app?vid=9cfa28b4-1a2f-441b-9067-fc74a7741fc6","ios":"levelo://app?vid=9cfa28b4-1a2f-441b-9067-fc74a7741fc6"},"vehicle_type_id":"4","last_reported":1730794360,"current_range_meters":38400,"station_id":"ce4bgt92rcd13ifvqcg0","pricing_plan_id":"cebpf4jnsgd1na2vs0mg"},{"bike_id":"d1146a40-7164-4c73-bcd8-3dbabed29349","system_id":"levelo_inurba_marseille","lat":43.30948,"lon":5.39036,"is_reserved":false,"is_disabled":false,"rental_uris":{"android":"levelo://app?vid=d1146a40-7164-4c73-bcd8-3dbabed29349","ios":"levelo://app?vid=d1146a40-7164-4c73-bcd8-3dbabed29349"},"vehicle_type_id":"4","last_reported":1730794360,"current_range_meters":24800,"station_id":"ce4bgup2rcd13ifvqco0","pricing_plan_id":"cebpf4jnsgd1na2vs0mg"},{"bike_id":"d3d5bf97-ee4e-462c-9692-ff991a12530c","system_id":"levelo_inurba_marseille","lat":43.33604,"lon":5.41021,"is_reserved":false,"is_disabled":false,"rental_uris":{"android":"levelo://app?vid=d3d5bf97-ee4e-462c-9692-ff991a12530c","ios":"levelo://app?vid=d3d5bf97-ee4e-462c-9692-ff991a12530c"},"vehicle_type_id":"4","last_reported":1730794360,"current_range_meters":36800,"station_id":"ce4bhqh2rcd13ifvqhmg","pricing_plan_id":"cebpf4jnsgd1na2vs0mg"},{"bike_id":"5dd829a4-1a10-4950-b7a6-fdfcf9f9b305","system_id":"levelo_inurba_marseille","lat":43.26788,"lon":5.39409,"is_reserved":false,"is_disabled":false,"rental_uris":{"android":"levelo://app?vid=5dd829a4-1a10-4950-b7a6-fdfcf9f9b305","ios":"levelo://app?vid=5dd829a4-1a10-4950-b7a6-fdfcf9f9b305"},"vehicle_type_id":"4","last_reported":1730794360,"current_range_meters":14000,"station_id":"ce4bhh12rcd13ifvqfg0","pricing_plan_id":"cebpf4jnsgd1na2vs0mg"},{"bike_id":"a6b470c9-d823-44bc-baa3-d9eb5e2efbd3","system_id":"levelo_inurba_marseille","lat":43.28154,"lon":5.42637,"is_reserved":false,"is_disabled":false,"rental_uris":{"android":"levelo://app?vid=a6b470c9-d823-44bc-baa3-d9eb5e2efbd3","ios":"levelo://app?vid=a6b470c9-d823-44bc-baa3-d9eb5e2efbd3"},"vehicle_type_id":"4","last_reported":1730794360,"current_range_meters":7200,"station_id":"ce4bhnh2rcd13ifvqgug","pricing_plan_id":"cebpf4jnsgd1na2vs0mg"},{"bike_id":"029ff5ee-3e43-4656-bd0f-80559eb25bab","system_id":"levelo_inurba_marseille","lat":43.30461,"lon":5.37896,"is_reserved":false,"is_disabled":false,"rental_uris":{"android":"levelo://app?vid=029ff5ee-3e43-4656-bd0f-80559eb25bab","ios":"levelo://app?vid=029ff5ee-3e43-4656-bd0f-80559eb25bab"},"vehicle_type_id":"4","last_reported":1730794360,"current_range_meters":32400,"station_id":"ce4bgup2rcd13ifvqcn0","pricing_plan_id":"cebpf4jnsgd1na2vs0mg"},{"bike_id":"2378afde-7ab6-4389-847e-3cc2a2f8eafd","system_id":"levelo_inurba_marseille","lat":43.26954,"lon":5.38628,"is_reserved":false,"is_disabled":false,"rental_uris":{"android":"levelo://app?vid=2378afde-7ab6-4389-847e-3cc2a2f8eafd","ios":"levelo://app?vid=2378afde-7ab6-4389-847e-3cc2a2f8eafd"},"vehicle_type_id":"4","last_reported":1730794360,"current_range_meters":30400,"station_id":"ce4bhh92rcd13ifvqfh0","pricing_plan_id":"cebpf4jnsgd1na2vs0mg"},{"bike_id":"b3fdf145-c439-4692-a5a4-57de07f54fbf","system_id":"levelo_inurba_marseille","lat":43.29627,"lon":5.37164,"is_reserved":false,"is_disabled":false,"rental_uris":{"android":"levelo://app?vid=b3fdf145-c439-4692-a5a4-57de07f54fbf","ios":"levelo://app?vid=b3fdf145-c439-4692-a5a4-57de07f54fbf"},"vehicle_type_id":"4","last_reported":1730794360,"current_range_meters":39200,"station_id":"ce4bgnh2rcd13ifvqc0g","pricing_plan_id":"cebpf4jnsgd1na2vs0mg"},{"bike_id":"7a58136c-3165-4313-8fac-2c364b399752","system_id":"levelo_inurba_marseille","lat":43.33726,"lon":5.39185,"is_reserved":false,"is_disabled":false,"rental_uris":{"android":"levelo://app?vid=7a58136c-3165-4313-8fac-2c364b399752","ios":"levelo://app?vid=7a58136c-3165-4313-8fac-2c364b399752"},"vehicle_type_id":"4","last_reported":1730794360,"current_range_meters":24400,"station_id":"ce4bhr92rcd13ifvqhsg","pricing_plan_id":"cebpf4jnsgd1na2vs0mg"},{"bike_id":"67530428-f3f0-463d-bf0b-247618325f6b","system_id":"levelo_inurba_marseille","lat":43.26957,"lon":5.38625,"is_reserved":false,"is_disabled":false,"rental_uris":{"android":"levelo://app?vid=67530428-f3f0-463d-bf0b-247618325f6b","ios":"levelo://app?vid=67530428-f3f0-463d-bf0b-247618325f6b"},"vehicle_type_id":"4","last_reported":1730794360,"current_range_meters":8800,"station_id":"ce4bhh92rcd13ifvqfh0","pricing_plan_id":"cebpf4jnsgd1na2vs0mg"},{"bike_id":"96775ae9-4541-4156-bfb3-0d1db91f0945","system_id":"levelo_inurba_marseille","lat":43.30265,"lon":5.36836,"is_reserved":false,"is_disabled":false,"rental_uris":{"android":"levelo://app?vid=96775ae9-4541-4156-bfb3-0d1db91f0945","ios":"levelo://app?vid=96775ae9-4541-4156-bfb3-0d1db91f0945"},"vehicle_type_id":"4","last_reported":1730794360,"current_range_meters":11200,"station_id":"ce4bgrh2rcd13ifvqc8g","pricing_plan_id":"cebpf4jnsgd1na2vs0mg"},{"bike_id":"c864c025-b3b0-4077-aaf8-410eaac1ccba","system_id":"levelo_inurba_marseille","lat":43.29853,"lon":5.36275,"is_reserved":false,"is_disabled":false,"rental_uris":{"android":"levelo://app?vid=c864c025-b3b0-4077-aaf8-410eaac1ccba","ios":"levelo://app?vid=c864c025-b3b0-4077-aaf8-410eaac1ccba"},"vehicle_type_id":"4","last_reported":1730794360,"current_range_meters":16400,"station_id":"ce4bgpp2rcd13ifvqc3g","pricing_plan_id":"cebpf4jnsgd1na2vs0mg"},{"bike_id":"386e8f4e-97a7-4f8b-bed6-4fe2299c5fdf","system_id":"levelo_inurba_marseille","lat":43.30464,"lon":5.37898,"is_reserved":false,"is_disabled":false,"rental_uris":{"android":"levelo://app?vid=386e8f4e-97a7-4f8b-bed6-4fe2299c5fdf","ios":"levelo://app?vid=386e8f4e-97a7-4f8b-bed6-4fe2299c5fdf"},"vehicle_type_id":"4","last_reported":1730794360,"current_range_meters":22000,"station_id":"ce4bgup2rcd13ifvqcn0","pricing_plan_id":"cebpf4jnsgd1na2vs0mg"},{"bike_id":"b0f84664-8940-4697-9383-9a9c11196a2e","system_id":"levelo_inurba_marseille","lat":43.29303,"lon":5.37445,"is_reserved":false,"is_disabled":false,"rental_uris":{"android":"levelo://app?vid=b0f84664-8940-4697-9383-9a9c11196a2e","ios":"levelo://app?vid=b0f84664-8940-4697-9383-9a9c11196a2e"},"vehicle_type_id":"4","last_reported":1730794360,"current_range_meters":17200,"station_id":"ce4bgi12rcd13ifvqb70","pricing_plan_id":"cebpf4jnsgd1na2vs0mg"},{"bike_id":"b592aa30-9f80-4f5b-a0ff-da2be38dcc1f","system_id":"levelo_inurba_marseille","lat":43.32108,"lon":5.36776,"is_reserved":false,"is_disabled":false,"rental_uris":{"android":"levelo://app?vid=b592aa30-9f80-4f5b-a0ff-da2be38dcc1f","ios":"levelo://app?vid=b592aa30-9f80-4f5b-a0ff-da2be38dcc1f"},"vehicle_type_id":"4","last_reported":1730794360,"current_range_meters":38800,"station_id":"ce4bhrh2rcd13ifvqhug","pricing_plan_id":"cebpf4jnsgd1na2vs0mg"},{"bike_id":"47cc15c7-290c-452f-9b34-25e3332d28c3","system_id":"levelo_inurba_marseille","lat":43.30164,"lon":5.38084,"is_reserved":false,"is_disabled":false,"rental_uris":{"android":"levelo://app?vid=47cc15c7-290c-452f-9b34-25e3332d28c3","ios":"levelo://app?vid=47cc15c7-290c-452f-9b34-25e3332d28c3"},"vehicle_type_id":"4","last_reported":1730794360,"current_range_meters":12400,"station_id":"ce4bgjp2rcd13ifvqbh0","pricing_plan_id":"cebpf4jnsgd1na2vs0mg"},{"bike_id":"eab47ed5-f83a-4939-80d1-ff052743bdd1","system_id":"levelo_inurba_marseille","lat":43.3211,"lon":5.36774,"is_reserved":false,"is_disabled":false,"rental_uris":{"android":"levelo://app?vid=eab47ed5-f83a-4939-80d1-ff052743bdd1","ios":"levelo://app?vid=eab47ed5-f83a-4939-80d1-ff052743bdd1"},"vehicle_type_id":"4","last_reported":1730794360,"current_range_meters":32000,"station_id":"ce4bhrh2rcd13ifvqhug","pricing_plan_id":"cebpf4jnsgd1na2vs0mg"},{"bike_id":"1651f37a-dd78-42c3-85bf-9d337044bfda","system_id":"levelo_inurba_marseille","lat":43.30269,"lon":5.37724,"is_reserved":false,"is_disabled":false,"rental_uris":{"android":"levelo://app?vid=1651f37a-dd78-42c3-85bf-9d337044bfda","ios":"levelo://app?vid=1651f37a-dd78-42c3-85bf-9d337044bfda"},"vehicle_type_id":"4","last_reported":1730794360,"current_range_meters":38000,"station_id":"ce4bguh2rcd13ifvqcj0","pricing_plan_id":"cebpf4jnsgd1na2vs0mg"},{"bike_id":"f88e7deb-3757-413b-8276-38cd9dd64b21","system_id":"levelo_inurba_marseille","lat":43.31332,"lon":5.36714,"is_reserved":false,"is_disabled":false,"rental_uris":{"android":"levelo://app?vid=f88e7deb-3757-413b-8276-38cd9dd64b21","ios":"levelo://app?vid=f88e7deb-3757-413b-8276-38cd9dd64b21"},"vehicle_type_id":"4","last_reported":1730794360,"current_range_meters":19600,"station_id":"ce4bgr92rcd13ifvqc6g","pricing_plan_id":"cebpf4jnsgd1na2vs0mg"},{"bike_id":"841e986c-cd84-4aa1-adfc-50a3725fdb47","system_id":"levelo_inurba_marseille","lat":43.26067,"lon":5.39395,"is_reserved":false,"is_disabled":false,"rental_uris":{"android":"levelo://app?vid=841e986c-cd84-4aa1-adfc-50a3725fdb47","ios":"levelo://app?vid=841e986c-cd84-4aa1-adfc-50a3725fdb47"},"vehicle_type_id":"4","last_reported":1730794360,"current_range_meters":26800,"station_id":"ce4bhh92rcd13ifvqfj0","pricing_plan_id":"cebpf4jnsgd1na2vs0mg"},{"bike_id":"31db50c2-2307-4ebc-97b5-4be4446fd18c","system_id":"levelo_inurba_marseille","lat":43.26059,"lon":5.39394,"is_reserved":false,"is_disabled":false,"rental_uris":{"android":"levelo://app?vid=31db50c2-2307-4ebc-97b5-4be4446fd18c","ios":"levelo://app?vid=31db50c2-2307-4ebc-97b5-4be4446fd18c"},"vehicle_type_id":"4","last_reported":1730794360,"current_range_meters":38800,"station_id":"ce4bhh92rcd13ifvqfj0","pricing_plan_id":"cebpf4jnsgd1na2vs0mg"},{"bike_id":"416733c6-a0a9-4a4a-8b41-0f95618cbfc7","system_id":"levelo_inurba_marseille","lat":43.29576,"lon":5.3674,"is_reserved":false,"is_disabled":false,"rental_uris":{"android":"levelo://app?vid=416733c6-a0a9-4a4a-8b41-0f95618cbfc7","ios":"levelo://app?vid=416733c6-a0a9-4a4a-8b41-0f95618cbfc7"},"vehicle_type_id":"4","last_reported":1730794360,"current_range_meters":27600,"station_id":"ce4bgph2rcd13ifvqc2g","pricing_plan_id":"cebpf4jnsgd1na2vs0mg"},{"bike_id":"0dd1d622-4760-44e9-a9ed-3bfd4e99bf22","system_id":"levelo_inurba_marseille","lat":43.30898,"lon":5.36859,"is_reserved":false,"is_disabled":false,"rental_uris":{"android":"levelo://app?vid=0dd1d622-4760-44e9-a9ed-3bfd4e99bf22","ios":"levelo://app?vid=0dd1d622-4760-44e9-a9ed-3bfd4e99bf22"},"vehicle_type_id":"4","last_reported":1730794360,"current_range_meters":33200,"station_id":"ce4bgn92rcd13ifvqbvg","pricing_plan_id":"cebpf4jnsgd1na2vs0mg"},{"bike_id":"d7798a4a-7e24-4f13-abf6-c911fb931448","system_id":"levelo_inurba_marseille","lat":43.3414,"lon":5.40907,"is_reserved":false,"is_disabled":false,"rental_uris":{"android":"levelo://app?vid=d7798a4a-7e24-4f13-abf6-c911fb931448","ios":"levelo://app?vid=d7798a4a-7e24-4f13-abf6-c911fb931448"},"vehicle_type_id":"4","last_reported":1730794360,"current_range_meters":30400,"station_id":"ce4bhqh2rcd13ifvqhlg","pricing_plan_id":"cebpf4jnsgd1na2vs0mg"},{"bike_id":"62eea765-42db-46ae-b2f0-2eeeb578393f","system_id":"levelo_inurba_marseille","lat":43.308233,"lon":5.396248,"is_reserved":false,"is_disabled":false,"rental_uris":{"android":"levelo://app?vid=62eea765-42db-46ae-b2f0-2eeeb578393f","ios":"levelo://app?vid=62eea765-42db-46ae-b2f0-2eeeb578393f"},"vehicle_type_id":"4","last_reported":1730794360,"current_range_meters":9600,"station_id":"ce4bh012rcd13ifvqcv0","pricing_plan_id":"cebpf4jnsgd1na2vs0mg"},{"bike_id":"fa105a18-05ac-4cb0-a536-d2f554369248","system_id":"levelo_inurba_marseille","lat":43.290802,"lon":5.383148,"is_reserved":false,"is_disabled":false,"rental_uris":{"android":"levelo://app?vid=fa105a18-05ac-4cb0-a536-d2f554369248","ios":"levelo://app?vid=fa105a18-05ac-4cb0-a536-d2f554369248"},"vehicle_type_id":"4","last_reported":1730794360,"current_range_meters":16400,"station_id":"ce4bh392rcd13ifvqdl0","pricing_plan_id":"cebpf4jnsgd1na2vs0mg"},{"bike_id":"85d45bf7-37e4-4e88-952f-cd0c86ed3ea5","system_id":"levelo_inurba_marseille","lat":43.24174,"lon":5.39725,"is_reserved":false,"is_disabled":false,"rental_uris":{"android":"levelo://app?vid=85d45bf7-37e4-4e88-952f-cd0c86ed3ea5","ios":"levelo://app?vid=85d45bf7-37e4-4e88-952f-cd0c86ed3ea5"},"vehicle_type_id":"4","last_reported":1730794360,"current_range_meters":25600,"station_id":"ce4bhn12rcd13ifvqgpg","pricing_plan_id":"cebpf4jnsgd1na2vs0mg"},{"bike_id":"7682d053-f816-4a9b-a5d5-70490a2875fc","system_id":"levelo_inurba_marseille","lat":43.26953,"lon":5.38641,"is_reserved":false,"is_disabled":false,"rental_uris":{"android":"levelo://app?vid=7682d053-f816-4a9b-a5d5-70490a2875fc","ios":"levelo://app?vid=7682d053-f816-4a9b-a5d5-70490a2875fc"},"vehicle_type_id":"4","last_reported":1730794360,"current_range_meters":38000,"station_id":"ce4bhh92rcd13ifvqfh0","pricing_plan_id":"cebpf4jnsgd1na2vs0mg"},{"bike_id":"260fa75a-01a4-4465-ba93-2899bc76795b","system_id":"levelo_inurba_marseille","lat":43.27066,"lon":5.4227,"is_reserved":false,"is_disabled":false,"rental_uris":{"android":"levelo://app?vid=260fa75a-01a4-4465-ba93-2899bc76795b","ios":"levelo://app?vid=260fa75a-01a4-4465-ba93-2899bc76795b"},"vehicle_type_id":"4","last_reported":1730794360,"current_range_meters":17200,"station_id":"ce4bhk92rcd13ifvqgb0","pricing_plan_id":"cebpf4jnsgd1na2vs0mg"},{"bike_id":"3560c5ce-d02f-4630-8b3a-5ae2ad7fb9b3","system_id":"levelo_inurba_marseille","lat":43.24073,"lon":5.37761,"is_reserved":false,"is_disabled":false,"rental_uris":{"android":"levelo://app?vid=3560c5ce-d02f-4630-8b3a-5ae2ad7fb9b3","ios":"levelo://app?vid=3560c5ce-d02f-4630-8b3a-5ae2ad7fb9b3"},"vehicle_type_id":"4","last_reported":1730794360,"current_range_meters":25600,"station_id":"ce4bhnp2rcd13ifvqgvg","pricing_plan_id":"cebpf4jnsgd1na2vs0mg"},{"bike_id":"f0e379a8-9fe9-476b-aaf8-00b6314e56b6","system_id":"levelo_inurba_marseille","lat":43.30473,"lon":5.3791,"is_reserved":false,"is_disabled":false,"rental_uris":{"android":"levelo://app?vid=f0e379a8-9fe9-476b-aaf8-00b6314e56b6","ios":"levelo://app?vid=f0e379a8-9fe9-476b-aaf8-00b6314e56b6"},"vehicle_type_id":"4","last_reported":1730794360,"current_range_meters":10800,"station_id":"ce4bgup2rcd13ifvqcn0","pricing_plan_id":"cebpf4jnsgd1na2vs0mg"},{"bike_id":"2b7c7838-0b38-48ff-a34b-04cd5d917cba","system_id":"levelo_inurba_marseille","lat":43.29574,"lon":5.36736,"is_reserved":false,"is_disabled":false,"rental_uris":{"android":"levelo://app?vid=2b7c7838-0b38-48ff-a34b-04cd5d917cba","ios":"levelo://app?vid=2b7c7838-0b38-48ff-a34b-04cd5d917cba"},"vehicle_type_id":"4","last_reported":1730794360,"current_range_meters":21600,"station_id":"ce4bgph2rcd13ifvqc2g","pricing_plan_id":"cebpf4jnsgd1na2vs0mg"},{"bike_id":"97c6e090-1cd3-4284-a8ba-7e9dbaff7b57","system_id":"levelo_inurba_marseille","lat":43.27316,"lon":5.39081,"is_reserved":false,"is_disabled":false,"rental_uris":{"android":"levelo://app?vid=97c6e090-1cd3-4284-a8ba-7e9dbaff7b57","ios":"levelo://app?vid=97c6e090-1cd3-4284-a8ba-7e9dbaff7b57"},"vehicle_type_id":"4","last_reported":1730794360,"current_range_meters":8400,"station_id":"ce4bhgp2rcd13ifvqfe0","pricing_plan_id":"cebpf4jnsgd1na2vs0mg"},{"bike_id":"f605cfa1-16bb-45b0-9f38-3b83d0d5059b","system_id":"levelo_inurba_marseille","lat":43.2749,"lon":5.42452,"is_reserved":false,"is_disabled":false,"rental_uris":{"android":"levelo://app?vid=f605cfa1-16bb-45b0-9f38-3b83d0d5059b","ios":"levelo://app?vid=f605cfa1-16bb-45b0-9f38-3b83d0d5059b"},"vehicle_type_id":"4","last_reported":1730794360,"current_range_meters":38000,"station_id":"ce4bhn92rcd13ifvqgrg","pricing_plan_id":"cebpf4jnsgd1na2vs0mg"},{"bike_id":"6b203e94-dbf2-4a85-aba6-861192269bba","system_id":"levelo_inurba_marseille","lat":43.23955,"lon":5.36624,"is_reserved":false,"is_disabled":false,"rental_uris":{"android":"levelo://app?vid=6b203e94-dbf2-4a85-aba6-861192269bba","ios":"levelo://app?vid=6b203e94-dbf2-4a85-aba6-861192269bba"},"vehicle_type_id":"4","last_reported":1730794360,"current_range_meters":10000,"station_id":"ce4bhi12rcd13ifvqfp0","pricing_plan_id":"cebpf4jnsgd1na2vs0mg"},{"bike_id":"db31db70-cc20-4b5f-acb8-538f14a09b27","system_id":"levelo_inurba_marseille","lat":43.23187,"lon":5.39983,"is_reserved":false,"is_disabled":false,"rental_uris":{"android":"levelo://app?vid=db31db70-cc20-4b5f-acb8-538f14a09b27","ios":"levelo://app?vid=db31db70-cc20-4b5f-acb8-538f14a09b27"},"vehicle_type_id":"4","last_reported":1730794360,"current_range_meters":36400,"station_id":"ce4bhn12rcd13ifvqgqg","pricing_plan_id":"cebpf4jnsgd1na2vs0mg"},{"bike_id":"0f860fc7-b706-4493-80b4-8eba8bc10dff","system_id":"levelo_inurba_marseille","lat":43.29806,"lon":5.38087,"is_reserved":false,"is_disabled":false,"rental_uris":{"android":"levelo://app?vid=0f860fc7-b706-4493-80b4-8eba8bc10dff","ios":"levelo://app?vid=0f860fc7-b706-4493-80b4-8eba8bc10dff"},"vehicle_type_id":"4","last_reported":1730794360,"current_range_meters":36400,"station_id":"ce4bgip2rcd13ifvqbb0","pricing_plan_id":"cebpf4jnsgd1na2vs0mg"},{"bike_id":"be09b6c0-44b3-4026-bdc4-898fb04be535","system_id":"levelo_inurba_marseille","lat":43.33762,"lon":5.3744,"is_reserved":false,"is_disabled":false,"rental_uris":{"android":"levelo://app?vid=be09b6c0-44b3-4026-bdc4-898fb04be535","ios":"levelo://app?vid=be09b6c0-44b3-4026-bdc4-898fb04be535"},"vehicle_type_id":"4","last_reported":1730794360,"current_range_meters":38400,"station_id":"","pricing_plan_id":"cebpf4jnsgd1na2vs0mg"},{"bike_id":"d4f0984a-50a9-4a13-bcb7-a0220c9c9042","system_id":"levelo_inurba_marseille","lat":43.33612,"lon":5.41027,"is_reserved":false,"is_disabled":false,"rental_uris":{"android":"levelo://app?vid=d4f0984a-50a9-4a13-bcb7-a0220c9c9042","ios":"levelo://app?vid=d4f0984a-50a9-4a13-bcb7-a0220c9c9042"},"vehicle_type_id":"4","last_reported":1730794360,"current_range_meters":20800,"station_id":"ce4bhqh2rcd13ifvqhmg","pricing_plan_id":"cebpf4jnsgd1na2vs0mg"},{"bike_id":"d0c8dc68-c81e-4754-95ea-1197799c8609","system_id":"levelo_inurba_marseille","lat":43.33605,"lon":5.41025,"is_reserved":false,"is_disabled":false,"rental_uris":{"android":"levelo://app?vid=d0c8dc68-c81e-4754-95ea-1197799c8609","ios":"levelo://app?vid=d0c8dc68-c81e-4754-95ea-1197799c8609"},"vehicle_type_id":"4","last_reported":1730794360,"current_range_meters":4400,"station_id":"ce4bhqh2rcd13ifvqhmg","pricing_plan_id":"cebpf4jnsgd1na2vs0mg"},{"bike_id":"5d056037-4a63-411d-8f45-e73b20cb04ae","system_id":"levelo_inurba_marseille","lat":43.30154,"lon":5.38083,"is_reserved":false,"is_disabled":false,"rental_uris":{"android":"levelo://app?vid=5d056037-4a63-411d-8f45-e73b20cb04ae","ios":"levelo://app?vid=5d056037-4a63-411d-8f45-e73b20cb04ae"},"vehicle_type_id":"4","last_reported":1730794360,"current_range_meters":30800,"station_id":"ce4bgjp2rcd13ifvqbh0","pricing_plan_id":"cebpf4jnsgd1na2vs0mg"},{"bike_id":"cf6df2de-822d-4e4e-b602-cdb87f02952e","system_id":"levelo_inurba_marseille","lat":43.31341,"lon":5.36719,"is_reserved":false,"is_disabled":false,"rental_uris":{"android":"levelo://app?vid=cf6df2de-822d-4e4e-b602-cdb87f02952e","ios":"levelo://app?vid=cf6df2de-822d-4e4e-b602-cdb87f02952e"},"vehicle_type_id":"4","last_reported":1730794360,"current_range_meters":30800,"station_id":"ce4bgr92rcd13ifvqc6g","pricing_plan_id":"cebpf4jnsgd1na2vs0mg"},{"bike_id":"936de00c-7fbf-4ccc-b481-d56152b0c55c","system_id":"levelo_inurba_marseille","lat":43.29918,"lon":5.37469,"is_reserved":false,"is_disabled":false,"rental_uris":{"android":"levelo://app?vid=936de00c-7fbf-4ccc-b481-d56152b0c55c","ios":"levelo://app?vid=936de00c-7fbf-4ccc-b481-d56152b0c55c"},"vehicle_type_id":"4","last_reported":1730794360,"current_range_meters":36800,"station_id":"ce4bgjh2rcd13ifvqbg0","pricing_plan_id":"cebpf4jnsgd1na2vs0mg"},{"bike_id":"7ce7a829-f1f3-4727-95ac-b5abb289263a","system_id":"levelo_inurba_marseille","lat":43.26771,"lon":5.3942,"is_reserved":false,"is_disabled":false,"rental_uris":{"android":"levelo://app?vid=7ce7a829-f1f3-4727-95ac-b5abb289263a","ios":"levelo://app?vid=7ce7a829-f1f3-4727-95ac-b5abb289263a"},"vehicle_type_id":"4","last_reported":1730794360,"current_range_meters":35600,"station_id":"ce4bhh12rcd13ifvqfg0","pricing_plan_id":"cebpf4jnsgd1na2vs0mg"},{"bike_id":"04575049-e232-448b-97cc-f84df2aa6e6a","system_id":"levelo_inurba_marseille","lat":43.32476,"lon":5.3657,"is_reserved":false,"is_disabled":false,"rental_uris":{"android":"levelo://app?vid=04575049-e232-448b-97cc-f84df2aa6e6a","ios":"levelo://app?vid=04575049-e232-448b-97cc-f84df2aa6e6a"},"vehicle_type_id":"4","last_reported":1730794360,"current_range_meters":29600,"station_id":"ce4bhs12rcd13ifvqhvg","pricing_plan_id":"cebpf4jnsgd1na2vs0mg"},{"bike_id":"28df973b-2047-4bb2-9547-9f05e5b41f08","system_id":"levelo_inurba_marseille","lat":43.30539,"lon":5.36552,"is_reserved":false,"is_disabled":false,"rental_uris":{"android":"levelo://app?vid=28df973b-2047-4bb2-9547-9f05e5b41f08","ios":"levelo://app?vid=28df973b-2047-4bb2-9547-9f05e5b41f08"},"vehicle_type_id":"4","last_reported":1730794360,"current_range_meters":22800,"station_id":"ce4bgs12rcd13ifvqcag","pricing_plan_id":"cebpf4jnsgd1na2vs0mg"},{"bike_id":"20f328b8-830a-4d15-af7a-1358a08e6753","system_id":"levelo_inurba_marseille","lat":43.28939,"lon":5.3664,"is_reserved":false,"is_disabled":false,"rental_uris":{"android":"levelo://app?vid=20f328b8-830a-4d15-af7a-1358a08e6753","ios":"levelo://app?vid=20f328b8-830a-4d15-af7a-1358a08e6753"},"vehicle_type_id":"4","last_reported":1730794360,"current_range_meters":30400,"station_id":"ce4bhap2rcd13ifvqek0","pricing_plan_id":"cebpf4jnsgd1na2vs0mg"},{"bike_id":"9ec276ae-d80d-415a-bf60-0358ad54dffc","system_id":"levelo_inurba_marseille","lat":43.29898,"lon":5.43661,"is_reserved":false,"is_disabled":false,"rental_uris":{"android":"levelo://app?vid=9ec276ae-d80d-415a-bf60-0358ad54dffc","ios":"levelo://app?vid=9ec276ae-d80d-415a-bf60-0358ad54dffc"},"vehicle_type_id":"4","last_reported":1730794360,"current_range_meters":9200,"station_id":"ce4bhpp2rcd13ifvqhfg","pricing_plan_id":"cebpf4jnsgd1na2vs0mg"},{"bike_id":"fa296df4-ef42-4fd2-bd17-7c493f81871b","system_id":"levelo_inurba_marseille","lat":43.25937,"lon":5.4091,"is_reserved":false,"is_disabled":false,"rental_uris":{"android":"levelo://app?vid=fa296df4-ef42-4fd2-bd17-7c493f81871b","ios":"levelo://app?vid=fa296df4-ef42-4fd2-bd17-7c493f81871b"},"vehicle_type_id":"4","last_reported":1730794360,"current_range_meters":8000,"station_id":"ce4bhm92rcd13ifvqglg","pricing_plan_id":"cebpf4jnsgd1na2vs0mg"},{"bike_id":"8f5a6978-56c1-4d37-8466-a1364106c0b3","system_id":"levelo_inurba_marseille","lat":43.26952,"lon":5.38641,"is_reserved":false,"is_disabled":false,"rental_uris":{"android":"levelo://app?vid=8f5a6978-56c1-4d37-8466-a1364106c0b3","ios":"levelo://app?vid=8f5a6978-56c1-4d37-8466-a1364106c0b3"},"vehicle_type_id":"4","last_reported":1730794360,"current_range_meters":39200,"station_id":"ce4bhh92rcd13ifvqfh0","pricing_plan_id":"cebpf4jnsgd1na2vs0mg"},{"bike_id":"774c0f83-3230-4833-b539-93d5460e1a7e","system_id":"levelo_inurba_marseille","lat":43.26787,"lon":5.39411,"is_reserved":false,"is_disabled":false,"rental_uris":{"android":"levelo://app?vid=774c0f83-3230-4833-b539-93d5460e1a7e","ios":"levelo://app?vid=774c0f83-3230-4833-b539-93d5460e1a7e"},"vehicle_type_id":"4","last_reported":1730794360,"current_range_meters":16400,"station_id":"ce4bhh12rcd13ifvqfg0","pricing_plan_id":"cebpf4jnsgd1na2vs0mg"},{"bike_id":"92583e01-792e-4015-9e86-8b3550453e11","system_id":"levelo_inurba_marseille","lat":43.33753,"lon":5.3747,"is_reserved":false,"is_disabled":false,"rental_uris":{"android":"levelo://app?vid=92583e01-792e-4015-9e86-8b3550453e11","ios":"levelo://app?vid=92583e01-792e-4015-9e86-8b3550453e11"},"vehicle_type_id":"4","last_reported":1730794360,"current_range_meters":36400,"station_id":"","pricing_plan_id":"cebpf4jnsgd1na2vs0mg"},{"bike_id":"6f5ad5d4-d5db-4a37-9e95-898a411c3311","system_id":"levelo_inurba_marseille","lat":43.25003,"lon":5.3893,"is_reserved":false,"is_disabled":false,"rental_uris":{"android":"levelo://app?vid=6f5ad5d4-d5db-4a37-9e95-898a411c3311","ios":"levelo://app?vid=6f5ad5d4-d5db-4a37-9e95-898a411c3311"},"vehicle_type_id":"4","last_reported":1730794360,"current_range_meters":26800,"station_id":"ce4bhgp2rcd13ifvqfd0","pricing_plan_id":"cebpf4jnsgd1na2vs0mg"},{"bike_id":"9430e299-e1b4-46c8-868f-5fd72c528b73","system_id":"levelo_inurba_marseille","lat":43.24076,"lon":5.37756,"is_reserved":false,"is_disabled":false,"rental_uris":{"android":"levelo://app?vid=9430e299-e1b4-46c8-868f-5fd72c528b73","ios":"levelo://app?vid=9430e299-e1b4-46c8-868f-5fd72c528b73"},"vehicle_type_id":"4","last_reported":1730794360,"current_range_meters":26000,"station_id":"ce4bhnp2rcd13ifvqgvg","pricing_plan_id":"cebpf4jnsgd1na2vs0mg"},{"bike_id":"c9a051e3-bda7-49b4-b5d3-312e4dd10c77","system_id":"levelo_inurba_marseille","lat":43.30952,"lon":5.37925,"is_reserved":false,"is_disabled":false,"rental_uris":{"android":"levelo://app?vid=c9a051e3-bda7-49b4-b5d3-312e4dd10c77","ios":"levelo://app?vid=c9a051e3-bda7-49b4-b5d3-312e4dd10c77"},"vehicle_type_id":"4","last_reported":1730794360,"current_range_meters":8800,"station_id":"ce4bgt92rcd13ifvqcg0","pricing_plan_id":"cebpf4jnsgd1na2vs0mg"},{"bike_id":"bc0b7010-2b6a-45c1-8ed3-57f030790aaf","system_id":"levelo_inurba_marseille","lat":43.26058,"lon":5.39394,"is_reserved":false,"is_disabled":false,"rental_uris":{"android":"levelo://app?vid=bc0b7010-2b6a-45c1-8ed3-57f030790aaf","ios":"levelo://app?vid=bc0b7010-2b6a-45c1-8ed3-57f030790aaf"},"vehicle_type_id":"4","last_reported":1730794360,"current_range_meters":17600,"station_id":"ce4bhh92rcd13ifvqfj0","pricing_plan_id":"cebpf4jnsgd1na2vs0mg"},{"bike_id":"2e5b4eda-1e00-4de7-bf32-df40f4d56ed2","system_id":"levelo_inurba_marseille","lat":43.324808,"lon":5.365603,"is_reserved":false,"is_disabled":false,"rental_uris":{"android":"levelo://app?vid=2e5b4eda-1e00-4de7-bf32-df40f4d56ed2","ios":"levelo://app?vid=2e5b4eda-1e00-4de7-bf32-df40f4d56ed2"},"vehicle_type_id":"4","last_reported":1730794360,"current_range_meters":10800,"station_id":"ce4bhs12rcd13ifvqhvg","pricing_plan_id":"cebpf4jnsgd1na2vs0mg"},{"bike_id":"51ea6a04-5305-4773-a52e-8fce31cdcf7e","system_id":"levelo_inurba_marseille","lat":43.30129,"lon":5.39874,"is_reserved":false,"is_disabled":false,"rental_uris":{"android":"levelo://app?vid=51ea6a04-5305-4773-a52e-8fce31cdcf7e","ios":"levelo://app?vid=51ea6a04-5305-4773-a52e-8fce31cdcf7e"},"vehicle_type_id":"4","last_reported":1730794360,"current_range_meters":38400,"station_id":"ce4bh0h2rcd13ifvqd40","pricing_plan_id":"cebpf4jnsgd1na2vs0mg"},{"bike_id":"8c941800-34cc-4e89-8ad2-0b768395f319","system_id":"levelo_inurba_marseille","lat":43.32478,"lon":5.36564,"is_reserved":false,"is_disabled":false,"rental_uris":{"android":"levelo://app?vid=8c941800-34cc-4e89-8ad2-0b768395f319","ios":"levelo://app?vid=8c941800-34cc-4e89-8ad2-0b768395f319"},"vehicle_type_id":"4","last_reported":1730794360,"current_range_meters":20400,"station_id":"ce4bhs12rcd13ifvqhvg","pricing_plan_id":"cebpf4jnsgd1na2vs0mg"},{"bike_id":"64d63e69-f4b1-4a2a-809c-5c120be50f55","system_id":"levelo_inurba_marseille","lat":43.26562,"lon":5.38998,"is_reserved":false,"is_disabled":false,"rental_uris":{"android":"levelo://app?vid=64d63e69-f4b1-4a2a-809c-5c120be50f55","ios":"levelo://app?vid=64d63e69-f4b1-4a2a-809c-5c120be50f55"},"vehicle_type_id":"4","last_reported":1730794360,"current_range_meters":38000,"station_id":"ce4bhe12rcd13ifvqf30","pricing_plan_id":"cebpf4jnsgd1na2vs0mg"},{"bike_id":"4dccfd74-ae33-47a6-9d39-8d14cad4d3a7","system_id":"levelo_inurba_marseille","lat":43.27818,"lon":5.40709,"is_reserved":false,"is_disabled":false,"rental_uris":{"android":"levelo://app?vid=4dccfd74-ae33-47a6-9d39-8d14cad4d3a7","ios":"levelo://app?vid=4dccfd74-ae33-47a6-9d39-8d14cad4d3a7"},"vehicle_type_id":"4","last_reported":1730794360,"current_range_meters":36800,"station_id":"ce4bhnh2rcd13ifvqgtg","pricing_plan_id":"cebpf4jnsgd1na2vs0mg"},{"bike_id":"db9857f5-8147-47c7-ae6d-f2278e2f2444","system_id":"levelo_inurba_marseille","lat":43.25937,"lon":5.40905,"is_reserved":false,"is_disabled":false,"rental_uris":{"android":"levelo://app?vid=db9857f5-8147-47c7-ae6d-f2278e2f2444","ios":"levelo://app?vid=db9857f5-8147-47c7-ae6d-f2278e2f2444"},"vehicle_type_id":"4","last_reported":1730794360,"current_range_meters":25600,"station_id":"ce4bhm92rcd13ifvqglg","pricing_plan_id":"cebpf4jnsgd1na2vs0mg"},{"bike_id":"4c8e72b5-aba7-4439-8dcc-1e2370b4bb8a","system_id":"levelo_inurba_marseille","lat":43.30795,"lon":5.43525,"is_reserved":false,"is_disabled":false,"rental_uris":{"android":"levelo://app?vid=4c8e72b5-aba7-4439-8dcc-1e2370b4bb8a","ios":"levelo://app?vid=4c8e72b5-aba7-4439-8dcc-1e2370b4bb8a"},"vehicle_type_id":"4","last_reported":1730794360,"current_range_meters":38800,"station_id":"ce4bhph2rcd13ifvqheg","pricing_plan_id":"cebpf4jnsgd1na2vs0mg"},