{"last_updated":1714925312,"ttl":30,"version":"2.2","data":{"bikes":[{"bike_id":"f6da593e-b316-4c2a-b866-541bb6153424","system_id":"levelo_inurba_marseille","lat":43.312239,"lon":5.368562,"is_reserved":false,"is_disabled":false,"rental_uris":{"android":"levelo://app?vid=f6da593e-b316-4c2a-b866-541bb6153424","ios":"levelo://app?vid=f6da593e-b316-4c2a-b866-541bb6153424"},"vehicle_type_id":"4","last_reported":1714925312,"current_range_meters":9200,"station_id":"ce4bgl92rcd13ifvqbq0","pricing_plan_id":"cebpf4jnsgd1na2vs0mg"},{"bike_id":"a28fb4f2-3e28-4e42-a7ca-7e7d7dd0ee10","system_id":"levelo_inurba_marseille","lat":43.312239,"lon":5.368562,"is_reserved":false,"is_disabled":false,"rental_uris":{"android":"levelo://app?vid=a28fb4f2-3e28-4e42-a7ca-7e7d7dd0ee10","ios":"levelo://app?vid=a28fb4f2-3e28-4e42-a7ca-7e7d7dd0ee10"},"vehicle_type_id":"4","last_reported":1714925312,"current_range_meters":18000,"station_id":"ce4bgl92rcd13ifvqbq0","pricing_plan_id":"cebpf4jnsgd1na2vs0mg"},{"bike_id":"cbdfac75-0f2c-4a1f-9959-0b077d341595","system_id":"levelo_inurba_marseille","lat":43.31227,"lon":5.36851,"is_reserved":false,"is_disabled":false,"rental_uris":{"android":"levelo://app?vid=cbdfac75-0f2c-4a1f-9959-0b077d341595","ios":"levelo://app?vid=cbdfac75-0f2c-4a1f-9959-0b077d341595"},"vehicle_type_id":"4","last_reported":1714925312,"current_range_meters":3200,"station_id":"ce4bgl92rcd13ifvqbq0","pricing_plan_id":"cebpf4jnsgd1na2vs0mg"},{"bike_id":"73ffa200-5f2e-4e0d-b8f1-b3bb2bbb5df2","system_id":"levelo_inurba_marseille","lat":43.30912,"lon":5.36839,"is_reserved":false,"is_disabled":false,"rental_uris":{"android":"levelo://app?vid=73ffa200-5f2e-4e0d-b8f1-b3bb2bbb5df2","ios":"levelo://app?vid=73ffa200-5f2e-4e0d-b8f1-b3bb2bbb5df2"},"vehicle_type_id":"4","last_reported":1714925312,"current_range_meters":10800,"station_id":"","pricing_plan_id":"cebpf4jnsgd1na2vs0mg"},{"bike_id":"bbe780ff-fd15-411d-8ed2-5397cc33a07b","system_id":"levelo_inurba_marseille","lat":43.314811,"lon":5.373104,"is_reserved":false,"is_disabled":false,"rental_uris":{"android":"levelo://app?vid=bbe780ff-fd15-411d-8ed2-5397cc33a07b","ios":"levelo://app?vid=bbe780ff-fd15-411d-8ed2-5397cc33a07b"},"vehicle_type_id":"4","last_reported":1714925312,"current_range_meters":400,"station_id":"ce4bgt12rcd13ifvqcd0","pricing_plan_id":"cebpf4jnsgd1na2vs0mg"},{"bike_id":"eee1a8fd-8280-4322-81a9-304289a9b34a","system_id":"levelo_inurba_marseille","lat":43.309039,"lon":5.371797,"is_reserved":false,"is_disabled":false,"rental_uris":{"android":"levelo://app?vid=eee1a8fd-8280-4322-81a9-304289a9b34a","ios":"levelo://app?vid=eee1a8fd-8280-4322-81a9-304289a9b34a"},"vehicle_type_id":"4","last_reported":1714925312,"current_range_meters":5600,"station_id":"ce4bguh2rcd13ifvqckg","pricing_plan_id":"cebpf4jnsgd1na2vs0mg"},{"bike_id":"bf89aa9a-c20c-4342-8099-72813f99e9d8","system_id":"levelo_inurba_marseille","lat":43.30537,"lon":5.367345,"is_reserved":false,"is_disabled":false,"rental_uris":{"android":"levelo://app?vid=bf89aa9a-c20c-4342-8099-72813f99e9d8","ios":"levelo://app?vid=bf89aa9a-c20c-4342-8099-72813f99e9d8"},"vehicle_type_id":"4","last_reported":1714925312,"current_range_meters":8400,"station_id":"ce4bgrp2rcd13ifvqc9g","pricing_plan_id":"cebpf4jnsgd1na2vs0mg"},{"bike_id":"8c312083-f468-425b-9b64-80b883fdbd7f","system_id":"levelo_inurba_marseille","lat":43.30537,"lon":5.367345,"is_reserved":false,"is_disabled":false,"rental_uris":{"android":"levelo://app?vid=8c312083-f468-425b-9b64-80b883fdbd7f","ios":"levelo://app?vid=8c312083-f468-425b-9b64-80b883fdbd7f"},"vehicle_type_id":"4","last_reported":1714925312,"current_range_meters":18000,"station_id":"ce4bgrp2rcd13ifvqc9g","pricing_plan_id":"cebpf4jnsgd1na2vs0mg"},{"bike_id":"df310f71-5e4f-4e82-9b9d-6534f1ae1e90","system_id":"levelo_inurba_marseille","lat":43.305368,"lon":5.367343,"is_reserved":false,"is_disabled":false,"rental_uris":{"android":"levelo://app?vid=df310f71-5e4f-4e82-9b9d-6534f1ae1e90","ios":"levelo://app?vid=df310f71-5e4f-4e82-9b9d-6534f1ae1e90"},"vehicle_type_id":"4","last_reported":1714925312,"current_range_meters":26800,"station_id":"ce4bgrp2rcd13ifvqc9g","pricing_plan_id":"cebpf4jnsgd1na2vs0mg"},{"bike_id":"a101fc1c-592e-4b05-a1e7-9d868676fa41","system_id":"levelo_inurba_marseille","lat":43.30537,"lon":5.367345,"is_reserved":false,"is_disabled":false,"rental_uris":{"android":"levelo://app?vid=a101fc1c-592e-4b05-a1e7-9d868676fa41","ios":"levelo://app?vid=a101fc1c-592e-4b05-a1e7-9d868676fa41"},"vehicle_type_id":"4","last_reported":1714925312,"current_range_meters":6800,"station_id":"ce4bgrp2rcd13ifvqc9g","pricing_plan_id":"cebpf4jnsgd1na2vs0mg"},{"bike_id":"f12f7455-b789-4ea1-82c0-faf0f3e01fed","system_id":"levelo_inurba_marseille","lat":43.305706,"lon":5.365654,"is_reserved":false,"is_disabled":false,"rental_uris":{"android":"levelo://app?vid=f12f7455-b789-4ea1-82c0-faf0f3e01fed","ios":"levelo://app?vid=f12f7455-b789-4ea1-82c0-faf0f3e01fed"},"vehicle_type_id":"4","last_reported":1714925312,"current_range_meters":0,"station_id":"ce4bgs12rcd13ifvqcag","pricing_plan_id":"cebpf4jnsgd1na2vs0mg"},{"bike_id":"098ca026-98f8-4ec7-973e-5c9f2d0abd15","system_id":"levelo_inurba_marseille","lat":43.32014,"lon":5.36552,"is_reserved":false,"is_disabled":false,"rental_uris":{"android":"levelo://app?vid=098ca026-98f8-4ec7-973e-5c9f2d0abd15","ios":"levelo://app?vid=098ca026-98f8-4ec7-973e-5c9f2d0abd15"},"vehicle_type_id":"4","last_reported":1714925312,"current_range_meters":15200,"station_id":"","pricing_plan_id":"cebpf4jnsgd1na2vs0mg"},{"bike_id":"901b82c0-e4b1-4b1c-b7d5-0ac5d5f13618","system_id":"levelo_inurba_marseille","lat":43.305989,"lon":5.37225,"is_reserved":false,"is_disabled":false,"rental_uris":{"android":"levelo://app?vid=901b82c0-e4b1-4b1c-b7d5-0ac5d5f13618","ios":"levelo://app?vid=901b82c0-e4b1-4b1c-b7d5-0ac5d5f13618"},"vehicle_type_id":"4","last_reported":1714925312,"current_range_meters":30800,"station_id":"ce4bgqh2rcd13ifvqc4g","pricing_plan_id":"cebpf4jnsgd1na2vs0mg"},{"bike_id":"c4ad88fa-dbde-4b0f-bbd2-9425cefc8d18","system_id":"levelo_inurba_marseille","lat":43.31126,"lon":5.37761,"is_reserved":false,"is_disabled":false,"rental_uris":{"android":"levelo://app?vid=c4ad88fa-dbde-4b0f-bbd2-9425cefc8d18","ios":"levelo://app?vid=c4ad88fa-dbde-4b0f-bbd2-9425cefc8d18"},"vehicle_type_id":"4","last_reported":1714925312,"current_range_meters":0,"station_id":"ce4bgt92rcd13ifvqcg0","pricing_plan_id":"cebpf4jnsgd1na2vs0mg"},{"bike_id":"cfef81ba-bccd-4e9a-ac93-9becef5c1890","system_id":"levelo_inurba_marseille","lat":43.283494,"lon":5.380945,"is_reserved":false,"is_disabled":false,"rental_uris":{"android":"levelo://app?vid=cfef81ba-bccd-4e9a-ac93-9becef5c1890","ios":"levelo://app?vid=cfef81ba-bccd-4e9a-ac93-9becef5c1890"},"vehicle_type_id":"4","last_reported":1714925312,"current_range_meters":14400,"station_id":"ce4bh412rcd13ifvqdr0","pricing_plan_id":"cebpf4jnsgd1na2vs0mg"},{"bike_id":"efbb7cb3-4464-436e-a88e-d43af5671672","system_id":"levelo_inurba_marseille","lat":43.307945,"lon":5.376487,"is_reserved":false,"is_disabled":false,"rental_uris":{"android":"levelo://app?vid=efbb7cb3-4464-436e-a88e-d43af5671672","ios":"levelo://app?vid=efbb7cb3-4464-436e-a88e-d43af5671672"},"vehicle_type_id":"4","last_reported":1714925312,"current_range_meters":19600,"station_id":"ce4bgv92rcd13ifvqcq0","pricing_plan_id":"cebpf4jnsgd1na2vs0mg"},{"bike_id":"e2a91329-34c5-468d-9619-53f65a52b0fa","system_id":"levelo_inurba_marseille","lat":43.307945,"lon":5.376487,"is_reserved":false,"is_disabled":false,"rental_uris":{"android":"levelo://app?vid=e2a91329-34c5-468d-9619-53f65a52b0fa","ios":"levelo://app?vid=e2a91329-34c5-468d-9619-53f65a52b0fa"},"vehicle_type_id":"4","last_reported":1714925312,"current_range_meters":1600,"station_id":"ce4bgv92rcd13ifvqcq0","pricing_plan_id":"cebpf4jnsgd1na2vs0mg"},{"bike_id":"4540cc45-9732-4043-b800-bd316258acbf","system_id":"levelo_inurba_marseille","lat":43.307945,"lon":5.376487,"is_reserved":false,"is_disabled":false,"rental_uris":{"android":"levelo://app?vid=4540cc45-9732-4043-b800-bd316258acbf","ios":"levelo://app?vid=4540cc45-9732-4043-b800-bd316258acbf"},"vehicle_type_id":"4","last_reported":1714925312,"current_range_meters":9600,"station_id":"ce4bgv92rcd13ifvqcq0","pricing_plan_id":"cebpf4jnsgd1na2vs0mg"},{"bike_id":"c9510105-c1c7-469f-b666-51440fa54a28","system_id":"levelo_inurba_marseille","lat":43.307945,"lon":5.376487,"is_reserved":false,"is_disabled":false,"rental_uris":{"android":"levelo://app?vid=c9510105-c1c7-469f-b666-51440fa54a28","ios":"levelo://app?vid=c9510105-c1c7-469f-b666-51440fa54a28"},"vehicle_type_id":"4","last_reported":1714925312,"current_range_meters":2800,"station_id":"ce4bgv92rcd13ifvqcq0","pricing_plan_id":"cebpf4jnsgd1na2vs0mg"},{"bike_id":"f038a98b-1f78-4759-a7a3-523308896d37","system_id":"levelo_inurba_marseille","lat":43.307945,"lon":5.376487,"is_reserved":false,"is_disabled":false,"rental_uris":{"android":"levelo://app?vid=f038a98b-1f78-4759-a7a3-523308896d37","ios":"levelo://app?vid=f038a98b-1f78-4759-a7a3-523308896d37"},"vehicle_type_id":"4","last_reported":1714925312,"current_range_meters":18000,"station_id":"ce4bgv92rcd13ifvqcq0","pricing_plan_id":"cebpf4jnsgd1na2vs0mg"},{"bike_id":"d264503c-003f-4c75-a3e1-5ca62b34c054","system_id":"levelo_inurba_marseille","lat":43.307945,"lon":5.376487,"is_reserved":false,"is_disabled":false,"rental_uris":{"android":"levelo://app?vid=d264503c-003f-4c75-a3e1-5ca62b34c054","ios":"levelo://app?vid=d264503c-003f-4c75-a3e1-5ca62b34c054"},"vehicle_type_id":"4","last_reported":1714925312,"current_range_meters":0,"station_id":"ce4bgv92rcd13ifvqcq0","pricing_plan_id":"cebpf4jnsgd1na2vs0mg"},{"bike_id":"3da01d79-d096-408e-b872-802c93a38095","system_id":"levelo_inurba_marseille","lat":43.307945,"lon":5.376487,"is_reserved":false,"is_disabled":false,"rental_uris":{"android":"levelo://app?vid=3da01d79-d096-408e-b872-802c93a38095","ios":"levelo://app?vid=3da01d79-d096-408e-b872-802c93a38095"},"vehicle_type_id":"4","last_reported":1714925312,"current_range_meters":6000,"station_id":"ce4bgv92rcd13ifvqcq0","pricing_plan_id":"cebpf4jnsgd1na2vs0mg"},{"bike_id":"3b7f4451-0969-44fb-a963-97f5929cb75f","system_id":"levelo_inurba_marseille","lat":43.317093,"lon":5.37748,"is_reserved":false,"is_disabled":false,"rental_uris":{"android":"levelo://app?vid=3b7f4451-0969-44fb-a963-97f5929cb75f","ios":"levelo://app?vid=3b7f4451-0969-44fb-a963-97f5929cb75f"},"vehicle_type_id":"4","last_reported":1714925312,"current_range_meters":14000,"station_id":"ce4bgth2rcd13ifvqch0","pricing_plan_id":"cebpf4jnsgd1na2vs0mg"},{"bike_id":"99e868c0-7b59-439b-b0f5-d685b850c670","system_id":"levelo_inurba_marseille","lat":43.30491,"lon":5.37349,"is_reserved":false,"is_disabled":false,"rental_uris":{"android":"levelo://app?vid=99e868c0-7b59-439b-b0f5-d685b850c670","ios":"levelo://app?vid=99e868c0-7b59-439b-b0f5-d685b850c670"},"vehicle_type_id":"4","last_reported":1714925312,"current_range_meters":25600,"station_id":"","pricing_plan_id":"cebpf4jnsgd1na2vs0mg"},{"bike_id":"c3c0c803-d135-4e0f-a88c-91cfb2e2eb6f","system_id":"levelo_inurba_marseille","lat":43.31921,"lon":5.37613,"is_reserved":false,"is_disabled":false,"rental_uris":{"android":"levelo://app?vid=c3c0c803-d135-4e0f-a88c-91cfb2e2eb6f","ios":"levelo://app?vid=c3c0c803-d135-4e0f-a88c-91cfb2e2eb6f"},"vehicle_type_id":"4","last_reported":1714925312,"current_range_meters":0,"station_id":"","pricing_plan_id":"cebpf4jnsgd1na2vs0mg"},{"bike_id":"4ab5672d-b6a8-4cf0-8451-386f2f7f2b6a","system_id":"levelo_inurba_marseille","lat":43.312483,"lon":5.379735,"is_reserved":false,"is_disabled":false,"rental_uris":{"android":"levelo://app?vid=4ab5672d-b6a8-4cf0-8451-386f2f7f2b6a","ios":"levelo://app?vid=4ab5672d-b6a8-4cf0-8451-386f2f7f2b6a"},"vehicle_type_id":"4","last_reported":1714925312,"current_range_meters":3200,"station_id":"","pricing_plan_id":"cebpf4jnsgd1na2vs0mg"},{"bike_id":"8889d630-2e26-4fd7-ac00-bdf9a09a6d4e","system_id":"levelo_inurba_marseille","lat":43.303245,"lon":5.36901,"is_reserved":false,"is_disabled":false,"rental_uris":{"android":"levelo://app?vid=8889d630-2e26-4fd7-ac00-bdf9a09a6d4e","ios":"levelo://app?vid=8889d630-2e26-4fd7-ac00-bdf9a09a6d4e"},"vehicle_type_id":"4","last_reported":1714925312,"current_range_meters":0,"station_id":"ce4bgqh2rcd13ifvqc5g","pricing_plan_id":"cebpf4jnsgd1na2vs0mg"},{"bike_id":"0f1d3c35-f8ec-43dc-b851-3a58de439439","system_id":"levelo_inurba_marseille","lat":43.303046,"lon":5.368981,"is_reserved":false,"is_disabled":false,"rental_uris":{"android":"levelo://app?vid=0f1d3c35-f8ec-43dc-b851-3a58de439439","ios":"levelo://app?vid=0f1d3c35-f8ec-43dc-b851-3a58de439439"},"vehicle_type_id":"4","last_reported":1714925312,"current_range_meters":10800,"station_id":"ce4bgqh2rcd13ifvqc5g","pricing_plan_id":"cebpf4jnsgd1na2vs0mg"},{"bike_id":"50f1be6a-65d4-449e-9f60-d698e7d26e68","system_id":"levelo_inurba_marseille","lat":43.315289,"lon":5.380349,"is_reserved":false,"is_disabled":false,"rental_uris":{"android":"levelo://app?vid=50f1be6a-65d4-449e-9f60-d698e7d26e68","ios":"levelo://app?vid=50f1be6a-65d4-449e-9f60-d698e7d26e68"},"vehicle_type_id":"4","last_reported":1714925312,"current_range_meters":27600,"station_id":"ce4bhsp2rcd13ifvqi50","pricing_plan_id":"cebpf4jnsgd1na2vs0mg"},{"bike_id":"dc27de58-3663-49cc-950a-9d9f32fa4c6b","system_id":"levelo_inurba_marseille","lat":43.308012,"lon":5.381511,"is_reserved":false,"is_disabled":false,"rental_uris":{"android":"levelo://app?vid=dc27de58-3663-49cc-950a-9d9f32fa4c6b","ios":"levelo://app?vid=dc27de58-3663-49cc-950a-9d9f32fa4c6b"},"vehicle_type_id":"4","last_reported":1714925312,"current_range_meters":20800,"station_id":"ce4bgt12rcd13ifvqce0","pricing_plan_id":"cebpf4jnsgd1na2vs0mg"},{"bike_id":"f4a3ad3a-ce8c-4ac5-b210-87ba061c895c","system_id":"levelo_inurba_marseille","lat":43.308012,"lon":5.381511,"is_reserved":false,"is_disabled":false,"rental_uris":{"android":"levelo://app?vid=f4a3ad3a-ce8c-4ac5-b210-87ba061c895c","ios":"levelo://app?vid=f4a3ad3a-ce8c-4ac5-b210-87ba061c895c"},"vehicle_type_id":"4","last_reported":1714925312,"current_range_meters":21200,"station_id":"ce4bgt12rcd13ifvqce0","pricing_plan_id":"cebpf4jnsgd1na2vs0mg"},{"bike_id":"8909905b-9e5a-4374-b2f5-fb360420b558","system_id":"levelo_inurba_marseille","lat":43.324771,"lon":5.36557,"is_reserved":false,"is_disabled":false,"rental_uris":{"android":"levelo://app?vid=8909905b-9e5a-4374-b2f5-fb360420b558","ios":"levelo://app?vid=8909905b-9e5a-4374-b2f5-fb360420b558"},"vehicle_type_id":"4","last_reported":1714925312,"current_range_meters":9600,"station_id":"ce4bhs12rcd13ifvqhvg","pricing_plan_id":"cebpf4jnsgd1na2vs0mg"},{"bike_id":"939cff86-7f80-413e-a9b3-c12fdc3d2c47","system_id":"levelo_inurba_marseille","lat":43.310804,"lon":5.38359,"is_reserved":false,"is_disabled":false,"rental_uris":{"android":"levelo://app?vid=939cff86-7f80-413e-a9b3-c12fdc3d2c47","ios":"levelo://app?vid=939cff86-7f80-413e-a9b3-c12fdc3d2c47"},"vehicle_type_id":"4","last_reported":1714925312,"current_range_meters":21600,"station_id":"ce4bgv92rcd13ifvqcr0","pricing_plan_id":"cebpf4jnsgd1na2vs0mg"},{"bike_id":"479bb0fc-ff62-4b31-82dd-b0c8bcd159fd","system_id":"levelo_inurba_marseille","lat":43.310804,"lon":5.38359,"is_reserved":false,"is_disabled":false,"rental_uris":{"android":"levelo://app?vid=479bb0fc-ff62-4b31-82dd-b0c8bcd159fd","ios":"levelo://app?vid=479bb0fc-ff62-4b31-82dd-b0c8bcd159fd"},"vehicle_type_id":"4","last_reported":1714925312,"current_range_meters":0,"station_id":"ce4bgv92rcd13ifvqcr0","pricing_plan_id":"cebpf4jnsgd1na2vs0mg"},{"bike_id":"2bbfc07e-d9ea-490e-bdcf-45a7767ee9c0","system_id":"levelo_inurba_marseille","lat":43.310804,"lon":5.38359,"is_reserved":false,"is_disabled":false,"rental_uris":{"android":"levelo://app?vid=2bbfc07e-d9ea-490e-bdcf-45a7767ee9c0","ios":"levelo://app?vid=2bbfc07e-d9ea-490e-bdcf-45a7767ee9c0"},"vehicle_type_id":"4","last_reported":1714925312,"current_range_meters":5200,"station_id":"ce4bgv92rcd13ifvqcr0","pricing_plan_id":"cebpf4jnsgd1na2vs0mg"},{"bike_id":"b0768470-8cf1-4ebf-a3f9-c495c7d9a156","system_id":"levelo_inurba_marseille","lat":43.301429,"lon":5.37413,"is_reserved":false,"is_disabled":false,"rental_uris":{"android":"levelo://app?vid=b0768470-8cf1-4ebf-a3f9-c495c7d9a156","ios":"levelo://app?vid=b0768470-8cf1-4ebf-a3f9-c495c7d9a156"},"vehicle_type_id":"4","last_reported":1714925312,"current_range_meters":0,"station_id":"ce4bgs92rcd13ifvqcc0","pricing_plan_id":"cebpf4jnsgd1na2vs0mg"},{"bike_id":"5cd46c73-c81e-43a1-9c13-4f62e0c4f85f","system_id":"levelo_inurba_marseille","lat":43.319935,"lon":5.381699,"is_reserved":false,"is_disabled":false,"rental_uris":{"android":"levelo://app?vid=5cd46c73-c81e-43a1-9c13-4f62e0c4f85f","ios":"levelo://app?vid=5cd46c73-c81e-43a1-9c13-4f62e0c4f85f"},"vehicle_type_id":"4","last_reported":1714925312,"current_range_meters":8800,"station_id":"ce4bhr12rcd13ifvqhpg","pricing_plan_id":"cebpf4jnsgd1na2vs0mg"},{"bike_id":"1b12b9dc-10bb-48fa-971a-96580f8af409","system_id":"levelo_inurba_marseille","lat":43.29945,"lon":5.36542,"is_reserved":false,"is_disabled":false,"rental_uris":{"android":"levelo://app?vid=1b12b9dc-10bb-48fa-971a-96580f8af409","ios":"levelo://app?vid=1b12b9dc-10bb-48fa-971a-96580f8af409"},"vehicle_type_id":"4","last_reported":1714925312,"current_range_meters":0,"station_id":"ce4bgm92rcd13ifvqbr0","pricing_plan_id":"cebpf4jnsgd1na2vs0mg"},{"bike_id":"9a922c9c-6462-491d-913f-db777509b4c5","system_id":"levelo_inurba_marseille","lat":43.29945,"lon":5.36527,"is_reserved":false,"is_disabled":false,"rental_uris":{"android":"levelo://app?vid=9a922c9c-6462-491d-913f-db777509b4c5","ios":"levelo://app?vid=9a922c9c-6462-491d-913f-db777509b4c5"},"vehicle_type_id":"4","last_reported":1714925312,"current_range_meters":0,"station_id":"ce4bgm92rcd13ifvqbr0","pricing_plan_id":"cebpf4jnsgd1na2vs0mg"},{"bike_id":"7c74ce3a-6d64-431d-bf86-aaedcb3c2c19","system_id":"levelo_inurba_marseille","lat":43.29941,"lon":5.36545,"is_reserved":false,"is_disabled":false,"rental_uris":{"android":"levelo://app?vid=7c74ce3a-6d64-431d-bf86-aaedcb3c2c19","ios":"levelo://app?vid=7c74ce3a-6d64-431d-bf86-aaedcb3c2c19"},"vehicle_type_id":"4","last_reported":1714925312,"current_range_meters":0,"station_id":"ce4bgm92rcd13ifvqbr0","pricing_plan_id":"cebpf4jnsgd1na2vs0mg"},{"bike_id":"8be8d8b3-dbe0-492d-b7a0-8c2a00aaf88c","system_id":"levelo_inurba_marseille","lat":43.299222,"lon":5.365554,"is_reserved":false,"is_disabled":false,"rental_uris":{"android":"levelo://app?vid=8be8d8b3-dbe0-492d-b7a0-8c2a00aaf88c","ios":"levelo://app?vid=8be8d8b3-dbe0-492d-b7a0-8c2a00aaf88c"},"vehicle_type_id":"4","last_reported":1714925312,"current_range_meters":0,"station_id":"ce4bgm92rcd13ifvqbr0","pricing_plan_id":"cebpf4jnsgd1na2vs0mg"},{"bike_id":"fee5018e-795c-4b3d-adfb-2245555d524c","system_id":"levelo_inurba_marseille","lat":43.297163,"lon":5.365866,"is_reserved":false,"is_disabled":false,"rental_uris":{"android":"levelo://app?vid=fee5018e-795c-4b3d-adfb-2245555d524c","ios":"levelo://app?vid=fee5018e-795c-4b3d-adfb-2245555d524c"},"vehicle_type_id":"4","last_reported":1714925312,"current_range_meters":8400,"station_id":"ce4bgn12rcd13ifvqbt0","pricing_plan_id":"cebpf4jnsgd1na2vs0mg"},{"bike_id":"8e1d3838-fb87-460e-854b-2f59bdc5c93d","system_id":"levelo_inurba_marseille","lat":43.29858,"lon":5.36282,"is_reserved":false,"is_disabled":false,"rental_uris":{"android":"levelo://app?vid=8e1d3838-fb87-460e-854b-2f59bdc5c93d","ios":"levelo://app?vid=8e1d3838-fb87-460e-854b-2f59bdc5c93d"},"vehicle_type_id":"4","last_reported":1714925312,"current_range_meters":0,"station_id":"ce4bgpp2rcd13ifvqc3g","pricing_plan_id":"cebpf4jnsgd1na2vs0mg"},{"bike_id":"f00b7882-811b-409b-a206-ea17c06c1bb8","system_id":"levelo_inurba_marseille","lat":43.29856,"lon":5.36284,"is_reserved":false,"is_disabled":false,"rental_uris":{"android":"levelo://app?vid=f00b7882-811b-409b-a206-ea17c06c1bb8","ios":"levelo://app?vid=f00b7882-811b-409b-a206-ea17c06c1bb8"},"vehicle_type_id":"4","last_reported":1714925312,"current_range_meters":0,"station_id":"ce4bgpp2rcd13ifvqc3g","pricing_plan_id":"cebpf4jnsgd1na2vs0mg"},{"bike_id":"1a6ac297-538d-4633-b0e7-14b7d17f797a","system_id":"levelo_inurba_marseille","lat":43.298433,"lon":5.362774,"is_reserved":false,"is_disabled":false,"rental_uris":{"android":"levelo://app?vid=1a6ac297-538d-4633-b0e7-14b7d17f797a","ios":"levelo://app?vid=1a6ac297-538d-4633-b0e7-14b7d17f797a"},"vehicle_type_id":"4","last_reported":1714925312,"current_range_meters":400,"station_id":"ce4bgpp2rcd13ifvqc3g","pricing_plan_id":"cebpf4jnsgd1na2vs0mg"},{"bike_id":"5b7430a8-0569-4518-be4e-1fbd955f8d16","system_id":"levelo_inurba_marseille","lat":43.305364,"lon":5.384119,"is_reserved":false,"is_disabled":false,"rental_uris":{"android":"levelo://app?vid=5b7430a8-0569-4518-be4e-1fbd955f8d16","ios":"levelo://app?vid=5b7430a8-0569-4518-be4e-1fbd955f8d16"},"vehicle_type_id":"4","last_reported":1714925312,"current_range_meters":3200,"station_id":"ce4bgg92rcd13ifvqb30","pricing_plan_id":"cebpf4jnsgd1na2vs0mg"},{"bike_id":"bcdc6621-64be-4ba9-b20f-c63059f1127f","system_id":"levelo_inurba_marseille","lat":43.305364,"lon":5.384119,"is_reserved":false,"is_disabled":false,"rental_uris":{"android":"levelo://app?vid=bcdc6621-64be-4ba9-b20f-c63059f1127f","ios":"levelo://app?vid=bcdc6621-64be-4ba9-b20f-c63059f1127f"},"vehicle_type_id":"4","last_reported":1714925312,"current_range_meters":400,"station_id":"ce4bgg92rcd13ifvqb30","pricing_plan_id":"cebpf4jnsgd1na2vs0mg"},{"bike_id":"cce12cbb-ee3b-4b72-adcf-1f3c252754c9","system_id":"levelo_inurba_marseille","lat":43.298433,"lon":5.362774,"is_reserved":false,"is_disabled":false,"rental_uris":{"android":"levelo://app?vid=cce12cbb-ee3b-4b72-adcf-1f3c252754c9","ios":"levelo://app?vid=cce12cbb-ee3b-4b72-adcf-1f3c252754c9"},"vehicle_type_id":"4","last_reported":1714925312,"current_range_meters":7600,"station_id":"ce4bgpp2rcd13ifvqc3g","pricing_plan_id":"cebpf4jnsgd1na2vs0mg"},{"bike_id":"7b4c7d5c-aa54-463e-bfa6-effae97c00cb","system_id":"levelo_inurba_marseille","lat":43.298433,"lon":5.362774,"is_reserved":false,"is_disabled":false,"rental_uris":{"android":"levelo://app?vid=7b4c7d5c-aa54-463e-bfa6-effae97c00cb","ios":"levelo://app?vid=7b4c7d5c-aa54-463e-bfa6-effae97c00cb"},"vehicle_type_id":"4","last_reported":1714925312,"current_range_meters":9200,"station_id":"ce4bgpp2rcd13ifvqc3g","pricing_plan_id":"cebpf4jnsgd1na2vs0mg"},{"bike_id":"fb85da3c-0c9a-40a1-8d03-39b9c8473399","system_id":"levelo_inurba_marseille","lat":43.305364,"lon":5.384119,"is_reserved":false,"is_disabled":false,"rental_uris":{"android":"levelo://app?vid=fb85da3c-0c9a-40a1-8d03-39b9c8473399","ios":"levelo://app?vid=fb85da3c-0c9a-40a1-8d03-39b9c8473399"},"vehicle_type_id":"4","last_reported":1714925312,"current_range_meters":0,"station_id":"ce4bgg92rcd13ifvqb30","pricing_plan_id":"cebpf4jnsgd1na2vs0mg"},{"bike_id":"4c88574c-baa8-4bee-808a-403f0ed29548","system_id":"levelo_inurba_marseille","lat":43.299243,"lon":5.374807,"is_reserved":false,"is_disabled":false,"rental_uris":{"android":"levelo://app?vid=4c88574c-baa8-4bee-808a-403f0ed29548","ios":"levelo://app?vid=4c88574c-baa8-4bee-808a-403f0ed29548"},"vehicle_type_id":"4","last_reported":1714925312,"current_range_meters":7600,"station_id":"ce4bgjh2rcd13ifvqbg0","pricing_plan_id":"cebpf4jnsgd1na2vs0mg"},{"bike_id":"d6f3502b-7b08-4662-9744-c7eebde304b6","system_id":"levelo_inurba_marseille","lat":43.299207,"lon":5.37468,"is_reserved":false,"is_disabled":false,"rental_uris":{"android":"levelo://app?vid=d6f3502b-7b08-4662-9744-c7eebde304b6","ios":"levelo://app?vid=d6f3502b-7b08-4662-9744-c7eebde304b6"},"vehicle_type_id":"4","last_reported":1714925312,"current_range_meters":0,"station_id":"ce4bgjh2rcd13ifvqbg0","pricing_plan_id":"cebpf4jnsgd1na2vs0mg"},{"bike_id":"863ef587-6004-4c21-a667-24cb3a550be8","system_id":"levelo_inurba_marseille","lat":43.311722,"lon":5.387247,"is_reserved":false,"is_disabled":false,"rental_uris":{"android":"levelo://app?vid=863ef587-6004-4c21-a667-24cb3a550be8","ios":"levelo://app?vid=863ef587-6004-4c21-a667-24cb3a550be8"},"vehicle_type_id":"4","last_reported":1714925312,"current_range_meters":4800,"station_id":"ce4bgv12rcd13ifvqcp0","pricing_plan_id":"cebpf4jnsgd1na2vs0mg"},{"bike_id":"ed70ef32-26d3-4a9b-aaaa-65ab458a6935","system_id":"levelo_inurba_marseille","lat":43.311722,"lon":5.387247,"is_reserved":false,"is_disabled":false,"rental_uris":{"android":"levelo://app?vid=ed70ef32-26d3-4a9b-aaaa-65ab458a6935","ios":"levelo://app?vid=ed70ef32-26d3-4a9b-aaaa-65ab458a6935"},"vehicle_type_id":"4","last_reported":1714925312,"current_range_meters":14400,"station_id":"ce4bgv12rcd13ifvqcp0","pricing_plan_id":"cebpf4jnsgd1na2vs0mg"},{"bike_id":"81bd03ff-dd5e-4892-81e8-424751329003","system_id":"levelo_inurba_marseille","lat":43.299243,"lon":5.374807,"is_reserved":false,"is_disabled":false,"rental_uris":{"android":"levelo://app?vid=81bd03ff-dd5e-4892-81e8-424751329003","ios":"levelo://app?vid=81bd03ff-dd5e-4892-81e8-424751329003"},"vehicle_type_id":"4","last_reported":1714925312,"current_range_meters":29600,"station_id":"ce4bgjh2rcd13ifvqbg0","pricing_plan_id":"cebpf4jnsgd1na2vs0mg"},{"bike_id":"2d18849e-032d-4d81-b5a4-9ad147339139","system_id":"levelo_inurba_marseille","lat":43.29816,"lon":5.36244,"is_reserved":false,"is_disabled":false,"rental_uris":{"android":"levelo://app?vid=2d18849e-032d-4d81-b5a4-9ad147339139","ios":"levelo://app?vid=2d18849e-032d-4d81-b5a4-9ad147339139"},"vehicle_type_id":"4","last_reported":1714925312,"current_range_meters":13200,"station_id":"ce4bgpp2rcd13ifvqc3g","pricing_plan_id":"cebpf4jnsgd1na2vs0mg"},{"bike_id":"b7664564-0928-4b1d-8d21-956dc0b9cadc","system_id":"levelo_inurba_marseille","lat":43.297163,"lon":5.365866,"is_reserved":false,"is_disabled":false,"rental_uris":{"android":"levelo://app?vid=b7664564-0928-4b1d-8d21-956dc0b9cadc","ios":"levelo://app?vid=b7664564-0928-4b1d-8d21-956dc0b9cadc"},"vehicle_type_id":"4","last_reported":1714925312,"current_range_meters":7200,"station_id":"ce4bgn12rcd13ifvqbt0","pricing_plan_id":"cebpf4jnsgd1na2vs0mg"},{"bike_id":"904cd00c-b6c0-4602-a71b-c194537655e9","system_id":"levelo_inurba_marseille","lat":43.297163,"lon":5.365866,"is_reserved":false,"is_disabled":false,"rental_uris":{"android":"levelo://app?vid=904cd00c-b6c0-4602-a71b-c194537655e9","ios":"levelo://app?vid=904cd00c-b6c0-4602-a71b-c194537655e9"},"vehicle_type_id":"4","last_reported":1714925312,"current_range_meters":7600,"station_id":"ce4bgn12rcd13ifvqbt0","pricing_plan_id":"cebpf4jnsgd1na2vs0mg"},{"bike_id":"58f5b57c-b762-4376-9401-b5e2fd608f81","system_id":"levelo_inurba_marseille","lat":43.297163,"lon":5.365866,"is_reserved":false,"is_disabled":false,"rental_uris":{"android":"levelo://app?vid=58f5b57c-b762-4376-9401-b5e2fd608f81","ios":"levelo://app?vid=58f5b57c-b762-4376-9401-b5e2fd608f81"},"vehicle_type_id":"4","last_reported":1714925312,"current_range_meters":0,"station_id":"ce4bgn12rcd13ifvqbt0","pricing_plan_id":"cebpf4jnsgd1na2vs0mg"},{"bike_id":"1f701b43-8046-441e-9b56-0afcde08550d","system_id":"levelo_inurba_marseille","lat":43.296131,"lon":5.370791,"is_reserved":false,"is_disabled":false,"rental_uris":{"android":"levelo://app?vid=1f701b43-8046-441e-9b56-0afcde08550d","ios":"levelo://app?vid=1f701b43-8046-441e-9b56-0afcde08550d"},"vehicle_type_id":"4","last_reported":1714925312,"current_range_meters":0,"station_id":"ce4bgnh2rcd13ifvqc0g","pricing_plan_id":"cebpf4jnsgd1na2vs0mg"},{"bike_id":"87c1fc34-960f-4b3c-958e-172a82720cd2","system_id":"levelo_inurba_marseille","lat":43.29624,"lon":5.3715,"is_reserved":false,"is_disabled":false,"rental_uris":{"android":"levelo://app?vid=87c1fc34-960f-4b3c-958e-172a82720cd2","ios":"levelo://app?vid=87c1fc34-960f-4b3c-958e-172a82720cd2"},"vehicle_type_id":"4","last_reported":1714925312,"current_range_meters":16800,"station_id":"ce4bgnh2rcd13ifvqc0g","pricing_plan_id":"cebpf4jnsgd1na2vs0mg"},{"bike_id":"d494cfd6-9650-4e98-9313-dde7f99c8074","system_id":"levelo_inurba_marseille","lat":43.29623,"lon":5.37153,"is_reserved":false,"is_disabled":false,"rental_uris":{"android":"levelo://app?vid=d494cfd6-9650-4e98-9313-dde7f99c8074","ios":"levelo://app?vid=d494cfd6-9650-4e98-9313-dde7f99c8074"},"vehicle_type_id":"4","last_reported":1714925312,"current_range_meters":10400,"station_id":"ce4bgnh2rcd13ifvqc0g","pricing_plan_id":"cebpf4jnsgd1na2vs0mg"},{"bike_id":"34ed3acf-f35e-4d2c-9f4f-d4401206897b","system_id":"levelo_inurba_marseille","lat":43.29622,"lon":5.37155,"is_reserved":false,"is_disabled":false,"rental_uris":{"android":"levelo://app?vid=34ed3acf-f35e-4d2c-9f4f-d4401206897b","ios":"levelo://app?vid=34ed3acf-f35e-4d2c-9f4f-d4401206897b"},"vehicle_type_id":"4","last_reported":1714925312,"current_range_meters":8800,"station_id":"","pricing_plan_id":"cebpf4jnsgd1na2vs0mg"},{"bike_id":"c2c77a41-e0b2-4cc5-9b85-aa7a4978cbe7","system_id":"levelo_inurba_marseille","lat":43.296131,"lon":5.370773,"is_reserved":false,"is_disabled":false,"rental_uris":{"android":"levelo://app?vid=c2c77a41-e0b2-4cc5-9b85-aa7a4978cbe7","ios":"levelo://app?vid=c2c77a41-e0b2-4cc5-9b85-aa7a4978cbe7"},"vehicle_type_id":"4","last_reported":1714925312,"current_range_meters":0,"station_id":"ce4bgnh2rcd13ifvqc0g","pricing_plan_id":"cebpf4jnsgd1na2vs0mg"},{"bike_id":"1b1b8ab3-8359-484b-81f0-d1f9c1bbcae1","system_id":"levelo_inurba_marseille","lat":43.29573,"lon":5.367355,"is_reserved":false,"is_disabled":false,"rental_uris":{"android":"levelo://app?vid=1b1b8ab3-8359-484b-81f0-d1f9c1bbcae1","ios":"levelo://app?vid=1b1b8ab3-8359-484b-81f0-d1f9c1bbcae1"},"vehicle_type_id":"4","last_reported":1714925312,"current_range_meters":24400,"station_id":"ce4bgph2rcd13ifvqc2g","pricing_plan_id":"cebpf4jnsgd1na2vs0mg"},{"bike_id":"3bcec8da-0b93-4f30-9434-32a69dfede5c","system_id":"levelo_inurba_marseille","lat":43.296921,"lon":5.376579,"is_reserved":false,"is_disabled":false,"rental_uris":{"android":"levelo://app?vid=3bcec8da-0b93-4f30-9434-32a69dfede5c","ios":"levelo://app?vid=3bcec8da-0b93-4f30-9434-32a69dfede5c"},"vehicle_type_id":"4","last_reported":1714925312,"current_range_meters":0,"station_id":"ce4bgkh2rcd13ifvqbl0","pricing_plan_id":"cebpf4jnsgd1na2vs0mg"},{"bike_id":"799c69c7-8a64-4330-b360-6ca0ee69dea7","system_id":"levelo_inurba_marseille","lat":43.296935,"lon":5.376544,"is_reserved":false,"is_disabled":false,"rental_uris":{"android":"levelo://app?vid=799c69c7-8a64-4330-b360-6ca0ee69dea7","ios":"levelo://app?vid=799c69c7-8a64-4330-b360-6ca0ee69dea7"},"vehicle_type_id":"4","last_reported":1714925312,"current_range_meters":5200,"station_id":"ce4bgkh2rcd13ifvqbl0","pricing_plan_id":"cebpf4jnsgd1na2vs0mg"},{"bike_id":"cbd7dc33-b578-4c37-8b1c-6a24e2046c53","system_id":"levelo_inurba_marseille","lat":43.30949,"lon":5.39018,"is_reserved":false,"is_disabled":false,"rental_uris":{"android":"levelo://app?vid=cbd7dc33-b578-4c37-8b1c-6a24e2046c53","ios":"levelo://app?vid=cbd7dc33-b578-4c37-8b1c-6a24e2046c53"},"vehicle_type_id":"4","last_reported":1714925312,"current_range_meters":0,"station_id":"ce4bgup2rcd13ifvqco0","pricing_plan_id":"cebpf4jnsgd1na2vs0mg"},{"bike_id":"420141ae-0951-45f1-90cc-163a5ecbdcab","system_id":"levelo_inurba_marseille","lat":43.311125,"lon":5.377624,"is_reserved":false,"is_disabled":false,"rental_uris":{"android":"levelo://app?vid=420141ae-0951-45f1-90cc-163a5ecbdcab","ios":"levelo://app?vid=420141ae-0951-45f1-90cc-163a5ecbdcab"},"vehicle_type_id":"4","last_reported":1714925312,"current_range_meters":4800,"station_id":"ce4bgt92rcd13ifvqcg0","pricing_plan_id":"cebpf4jnsgd1na2vs0mg"},{"bike_id":"e8ae4ea9-db3d-42a1-9511-f960453df9a7","system_id":"levelo_inurba_marseille","lat":43.30954,"lon":5.39032,"is_reserved":false,"is_disabled":false,"rental_uris":{"android":"levelo://app?vid=e8ae4ea9-db3d-42a1-9511-f960453df9a7","ios":"levelo://app?vid=e8ae4ea9-db3d-42a1-9511-f960453df9a7"},"vehicle_type_id":"4","last_reported":1714925312,"current_range_meters":0,"station_id":"ce4bgup2rcd13ifvqco0","pricing_plan_id":"cebpf4jnsgd1na2vs0mg"},{"bike_id":"4d13465e-d7c5-401a-8e6a-5d6ddbc47dc9","system_id":"levelo_inurba_marseille","lat":43.3095,"lon":5.39036,"is_reserved":false,"is_disabled":false,"rental_uris":{"android":"levelo://app?vid=4d13465e-d7c5-401a-8e6a-5d6ddbc47dc9","ios":"levelo://app?vid=4d13465e-d7c5-401a-8e6a-5d6ddbc47dc9"},"vehicle_type_id":"4","last_reported":1714925312,"current_range_meters":0,"station_id":"ce4bgup2rcd13ifvqco0","pricing_plan_id":"cebpf4jnsgd1na2vs0mg"},{"bike_id":"9adf691d-0fd7-45fb-8de7-0a7d4f55cf25","system_id":"levelo_inurba_marseille","lat":43.317557,"lon":5.390173,"is_reserved":false,"is_disabled":false,"rental_uris":{"android":"levelo://app?vid=9adf691d-0fd7-45fb-8de7-0a7d4f55cf25","ios":"levelo://app?vid=9adf691d-0fd7-45fb-8de7-0a7d4f55cf25"},"vehicle_type_id":"4","last_reported":1714925312,"current_range_meters":17200,"station_id":"ce4bhqp2rcd13ifvqhng","pricing_plan_id":"cebpf4jnsgd1na2vs0mg"},{"bike_id":"35b70ffc-51ea-402e-93f7-932f466d751f","system_id":"levelo_inurba_marseille","lat":43.317592,"lon":5.390171,"is_reserved":false,"is_disabled":false,"rental_uris":{"android":"levelo://app?vid=35b70ffc-51ea-402e-93f7-932f466d751f","ios":"levelo://app?vid=35b70ffc-51ea-402e-93f7-932f466d751f"},"vehicle_type_id":"4","last_reported":1714925312,"current_range_meters":31200,"station_id":"ce4bhqp2rcd13ifvqhng","pricing_plan_id":"cebpf4jnsgd1na2vs0mg"},{"bike_id":"44db1e1c-b172-4e24-b18f-0f22e7233e08","system_id":"levelo_inurba_marseille","lat":43.29578,"lon":5.37512,"is_reserved":false,"is_disabled":false,"rental_uris":{"android":"levelo://app?vid=44db1e1c-b172-4e24-b18f-0f22e7233e08","ios":"levelo://app?vid=44db1e1c-b172-4e24-b18f-0f22e7233e08"},"vehicle_type_id":"4","last_reported":1714925312,"current_range_meters":2400,"station_id":"ce4bgh92rcd13ifvqb50","pricing_plan_id":"cebpf4jnsgd1na2vs0mg"},{"bike_id":"2a84e907-a81f-4816-a012-f8e3c0377fb1","system_id":"levelo_inurba_marseille","lat":43.304274,"lon":5.388873,"is_reserved":false,"is_disabled":false,"rental_uris":{"android":"levelo://app?vid=2a84e907-a81f-4816-a012-f8e3c0377fb1","ios":"levelo://app?vid=2a84e907-a81f-4816-a012-f8e3c0377fb1"},"vehicle_type_id":"4","last_reported":1714925312,"current_range_meters":20400,"station_id":"ce4bgk12rcd13ifvqbi0","pricing_plan_id":"cebpf4jnsgd1na2vs0mg"},{"bike_id":"02cc71ca-0648-493d-a894-89798fc75d13","system_id":"levelo_inurba_marseille","lat":43.297872,"lon":5.380987,"is_reserved":false,"is_disabled":false,"rental_uris":{"android":"levelo://app?vid=02cc71ca-0648-493d-a894-89798fc75d13","ios":"levelo://app?vid=02cc71ca-0648-493d-a894-89798fc75d13"},"vehicle_type_id":"4","last_reported":1714925312,"current_range_meters":0,"station_id":"ce4bgip2rcd13ifvqbb0","pricing_plan_id":"cebpf4jnsgd1na2vs0mg"},{"bike_id":"995c2f9c-29ed-450b-abb3-3c436d20a67a","system_id":"levelo_inurba_marseille","lat":43.2976,"lon":5.38086,"is_reserved":false,"is_disabled":false,"rental_uris":{"android":"levelo://app?vid=995c2f9c-29ed-450b-abb3-3c436d20a67a","ios":"levelo://app?vid=995c2f9c-29ed-450b-abb3-3c436d20a67a"},"vehicle_type_id":"4","last_reported":1714925312,"current_range_meters":6000,"station_id":"","pricing_plan_id":"cebpf4jnsgd1na2vs0mg"},{"bike_id":"ae570621-41f7-41a4-99cb-462faef198de","system_id":"levelo_inurba_marseille","lat":43.296263,"lon":5.377094,"is_reserved":false,"is_disabled":false,"rental_uris":{"android":"levelo://app?vid=ae570621-41f7-41a4-99cb-462faef198de","ios":"levelo://app?vid=ae570621-41f7-41a4-99cb-462faef198de"},"vehicle_type_id":"4","last_reported":1714925312,"current_range_meters":30400,"station_id":"ce4bgi92rcd13ifvqb90","pricing_plan_id":"cebpf4jnsgd1na2vs0mg"},{"bike_id":"3b3390ea-e245-43fb-89b7-1f1a07bc8e23","system_id":"levelo_inurba_marseille","lat":43.295279,"lon":5.375048,"is_reserved":false,"is_disabled":false,"rental_uris":{"android":"levelo://app?vid=3b3390ea-e245-43fb-89b7-1f1a07bc8e23","ios":"levelo://app?vid=3b3390ea-e245-43fb-89b7-1f1a07bc8e23"},"vehicle_type_id":"4","last_reported":1714925312,"current_range_meters":10000,"station_id":"ce4bgkp2rcd13ifvqbmg","pricing_plan_id":"cebpf4jnsgd1na2vs0mg"},{"bike_id":"7842309e-9988-4126-b7c2-463880fca21b","system_id":"levelo_inurba_marseille","lat":43.299717,"lon":5.384845,"is_reserved":false,"is_disabled":false,"rental_uris":{"android":"levelo://app?vid=7842309e-9988-4126-b7c2-463880fca21b","ios":"levelo://app?vid=7842309e-9988-4126-b7c2-463880fca21b"},"vehicle_type_id":"4","last_reported":1714925312,"current_range_meters":5600,"station_id":"ce4bgj92rcd13ifvqbd0","pricing_plan_id":"cebpf4jnsgd1na2vs0mg"},{"bike_id":"68b1b061-b6e7-42cb-afcc-a51a66cdf6f5","system_id":"levelo_inurba_marseille","lat":43.299717,"lon":5.384845,"is_reserved":false,"is_disabled":false,"rental_uris":{"android":"levelo://app?vid=68b1b061-b6e7-42cb-afcc-a51a66cdf6f5","ios":"levelo://app?vid=68b1b061-b6e7-42cb-afcc-a51a66cdf6f5"},"vehicle_type_id":"4","last_reported":1714925312,"current_range_meters":18000,"station_id":"ce4bgj92rcd13ifvqbd0","pricing_plan_id":"cebpf4jnsgd1na2vs0mg"},{"bike_id":"12765a35-2495-4289-b5bc-2ecc02fd33b0","system_id":"levelo_inurba_marseille","lat":43.30044,"lon":5.38659,"is_reserved":false,"is_disabled":false,"rental_uris":{"android":"levelo://app?vid=12765a35-2495-4289-b5bc-2ecc02fd33b0","ios":"levelo://app?vid=12765a35-2495-4289-b5bc-2ecc02fd33b0"},"vehicle_type_id":"4","last_reported":1714925312,"current_range_meters":19200,"station_id":"","pricing_plan_id":"cebpf4jnsgd1na2vs0mg"},{"bike_id":"682e9d29-336e-4f48-b46c-1f62f8c3f199","system_id":"levelo_inurba_marseille","lat":43.32369,"lon":5.3888,"is_reserved":false,"is_disabled":false,"rental_uris":{"android":"levelo://app?vid=682e9d29-336e-4f48-b46c-1f62f8c3f199","ios":"levelo://app?vid=682e9d29-336e-4f48-b46c-1f62f8c3f199"},"vehicle_type_id":"4","last_reported":1714925312,"current_range_meters":2400,"station_id":"ce4bhqp2rcd13ifvqhog","pricing_plan_id":"cebpf4jnsgd1na2vs0mg"},{"bike_id":"4a39b302-b5a2-4539-b586-f66857dbb7c6","system_id":"levelo_inurba_marseille","lat":43.32367,"lon":5.38886,"is_reserved":false,"is_disabled":false,"rental_uris":{"android":"levelo://app?vid=4a39b302-b5a2-4539-b586-f66857dbb7c6","ios":"levelo://app?vid=4a39b302-b5a2-4539-b586-f66857dbb7c6"},"vehicle_type_id":"4","last_reported":1714925312,"current_range_meters":0,"station_id":"ce4bhqp2rcd13ifvqhog","pricing_plan_id":"cebpf4jnsgd1na2vs0mg"},{"bike_id":"eeffdc5c-f838-457f-bd0a-cc34574453cf","system_id":"levelo_inurba_marseille","lat":43.32366,"lon":5.38887,"is_reserved":false,"is_disabled":false,"rental_uris":{"android":"levelo://app?vid=eeffdc5c-f838-457f-bd0a-cc34574453cf","ios":"levelo://app?vid=eeffdc5c-f838-457f-bd0a-cc34574453cf"},"vehicle_type_id":"4","last_reported":1714925312,"current_range_meters":400,"station_id":"ce4bhqp2rcd13ifvqhog","pricing_plan_id":"cebpf4jnsgd1na2vs0mg"},{"bike_id":"1996cb9d-ce14-4f86-85da-4f21cdfdb994","system_id":"levelo_inurba_marseille","lat":43.32367,"lon":5.388836,"is_reserved":false,"is_disabled":false,"rental_uris":{"android":"levelo://app?vid=1996cb9d-ce14-4f86-85da-4f21cdfdb994","ios":"levelo://app?vid=1996cb9d-ce14-4f86-85da-4f21cdfdb994"},"vehicle_type_id":"4","last_reported":1714925312,"current_range_meters":0,"station_id":"ce4bhqp2rcd13ifvqhog","pricing_plan_id":"cebpf4jnsgd1na2vs0mg"},{"bike_id":"9093518d-8b7c-4d3e-a047-860a7c322dd1","system_id":"levelo_inurba_marseille","lat":43.29602,"lon":5.381084,"is_reserved":false,"is_disabled":false,"rental_uris":{"android":"levelo://app?vid=9093518d-8b7c-4d3e-a047-860a7c322dd1","ios":"levelo://app?vid=9093518d-8b7c-4d3e-a047-860a7c322dd1"},"vehicle_type_id":"4","last_reported":1714925312,"current_range_meters":5600,"station_id":"ce4bgl12rcd13ifvqbo0","pricing_plan_id":"cebpf4jnsgd1na2vs0mg"},{"bike_id":"182200fe-116d-483a-a6a1-f85b04fde54d","system_id":"levelo_inurba_marseille","lat":43.293843,"lon":5.374409,"is_reserved":false,"is_disabled":false,"rental_uris":{"android":"levelo://app?vid=182200fe-116d-483a-a6a1-f85b04fde54d","ios":"levelo://app?vid=182200fe-116d-483a-a6a1-f85b04fde54d"},"vehicle_type_id":"4","last_reported":1714925312,"current_range_meters":0,"station_id":"","pricing_plan_id":"cebpf4jnsgd1na2vs0mg"},{"bike_id":"22f684e9-2597-4fed-8292-5082cd5a2155","system_id":"levelo_inurba_marseille","lat":43.30683,"lon":5.392813,"is_reserved":false,"is_disabled":false,"rental_uris":{"android":"levelo://app?vid=22f684e9-2597-4fed-8292-5082cd5a2155","ios":"levelo://app?vid=22f684e9-2597-4fed-8292-5082cd5a2155"},"vehicle_type_id":"4","last_reported":1714925312,"current_range_meters":0,"station_id":"","pricing_plan_id":"cebpf4jnsgd1na2vs0mg"},{"bike_id":"c0e9dc84-acdd-4bfc-8c09-e21d51a25ee4","system_id":"levelo_inurba_marseille","lat":43.293259,"lon":5.371586,"is_reserved":false,"is_disabled":false,"rental_uris":{"android":"levelo://app?vid=c0e9dc84-acdd-4bfc-8c09-e21d51a25ee4","ios":"levelo://app?vid=c0e9dc84-acdd-4bfc-8c09-e21d51a25ee4"},"vehicle_type_id":"4","last_reported":1714925312,"current_range_meters":0,"station_id":"ce4bgh92rcd13ifvqb40","pricing_plan_id":"cebpf4jnsgd1na2vs0mg"},{"bike_id":"c8c67f7a-e0fc-499e-a145-80a19b938bcf","system_id":"levelo_inurba_marseille","lat":43.300601,"lon":5.388498,"is_reserved":false,"is_disabled":false,"rental_uris":{"android":"levelo://app?vid=c8c67f7a-e0fc-499e-a145-80a19b938bcf","ios":"levelo://app?vid=c8c67f7a-e0fc-499e-a145-80a19b938bcf"},"vehicle_type_id":"4","last_reported":1714925312,"current_range_meters":0,"station_id":"ce4bh392rcd13ifvqdl0","pricing_plan_id":"cebpf4jnsgd1na2vs0mg"},{"bike_id":"fd4aeb81-561c-44a0-9328-f82228ae4406","system_id":"levelo_inurba_marseille","lat":43.293249,"lon":5.371578,"is_reserved":false,"is_disabled":false,"rental_uris":{"android":"levelo://app?vid=fd4aeb81-561c-44a0-9328-f82228ae4406","ios":"levelo://app?vid=fd4aeb81-561c-44a0-9328-f82228ae4406"},"vehicle_type_id":"4","last_reported":1714925312,"current_range_meters":27200,"station_id":"ce4bgh92rcd13ifvqb40","pricing_plan_id":"cebpf4jnsgd1na2vs0mg"},{"bike_id":"1a68446d-39e6-4b0d-b3ee-f7a8e6d770bb","system_id":"levelo_inurba_marseille","lat":43.29278,"lon":5.36837,"is_reserved":false,"is_disabled":false,"rental_uris":{"android":"levelo://app?vid=1a68446d-39e6-4b0d-b3ee-f7a8e6d770bb","ios":"levelo://app?vid=1a68446d-39e6-4b0d-b3ee-f7a8e6d770bb"},"vehicle_type_id":"4","last_reported":1714925312,"current_range_meters":1600,"station_id":"ce4bhbp2rcd13ifvqesg","pricing_plan_id":"cebpf4jnsgd1na2vs0mg"},{"bike_id":"c7bd524f-057f-4c3e-97ac-1a63b9b25d7c","system_id":"levelo_inurba_marseille","lat":43.29277,"lon":5.36835,"is_reserved":false,"is_disabled":false,"rental_uris":{"android":"levelo://app?vid=c7bd524f-057f-4c3e-97ac-1a63b9b25d7c","ios":"levelo://app?vid=c7bd524f-057f-4c3e-97ac-1a63b9b25d7c"},"vehicle_type_id":"4","last_reported":1714925312,"current_range_meters":0,"station_id":"ce4bhbp2rcd13ifvqesg","pricing_plan_id":"cebpf4jnsgd1na2vs0mg"},{"bike_id":"09f7cb5d-9edd-47d2-a04e-f1b90dc48fc4","system_id":"levelo_inurba_marseille","lat":43.292749,"lon":5.368402,"is_reserved":false,"is_disabled":false,"rental_uris":{"android":"levelo://app?vid=09f7cb5d-9edd-47d2-a04e-f1b90dc48fc4","ios":"levelo://app?vid=09f7cb5d-9edd-47d2-a04e-f1b90dc48fc4"},"vehicle_type_id":"4","last_reported":1714925312,"current_range_meters":20800,"station_id":"ce4bhbp2rcd13ifvqesg","pricing_plan_id":"cebpf4jnsgd1na2vs0mg"},{"bike_id":"98b23f9a-a10d-4931-b28e-27197795c3f6","system_id":"levelo_inurba_marseille","lat":43.29273,"lon":5.36837,"is_reserved":false,"is_disabled":false,"rental_uris":{"android":"levelo://app?vid=98b23f9a-a10d-4931-b28e-27197795c3f6","ios":"levelo://app?vid=98b23f9a-a10d-4931-b28e-27197795c3f6"},"vehicle_type_id":"4","last_reported":1714925312,"current_range_meters":24000,"station_id":"ce4bhbp2rcd13ifvqesg","pricing_plan_id":"cebpf4jnsgd1na2vs0mg"},{"bike_id":"de6696c5-9464-48cc-92f4-60b156cd8960","system_id":"levelo_inurba_marseille","lat":43.293009,"lon":5.374584,"is_reserved":false,"is_disabled":false,"rental_uris":{"android":"levelo://app?vid=de6696c5-9464-48cc-92f4-60b156cd8960","ios":"levelo://app?vid=de6696c5-9464-48cc-92f4-60b156cd8960"},"vehicle_type_id":"4","last_reported":1714925312,"current_range_meters":0,"station_id":"ce4bgi12rcd13ifvqb70","pricing_plan_id":"cebpf4jnsgd1na2vs0mg"},{"bike_id":"c231beb7-28b8-4d17-aa00-bf8203b8a125","system_id":"levelo_inurba_marseille","lat":43.293009,"lon":5.374584,"is_reserved":false,"is_disabled":false,"rental_uris":{"android":"levelo://app?vid=c231beb7-28b8-4d17-aa00-bf8203b8a125","ios":"levelo://app?vid=c231beb7-28b8-4d17-aa00-bf8203b8a125"},"vehicle_type_id":"4","last_reported":1714925312,"current_range_meters":0,"station_id":"ce4bgi12rcd13ifvqb70","pricing_plan_id":"cebpf4jnsgd1na2vs0mg"},{"bike_id":"0ee8100b-6296-47c4-b367-71790dd99a49","system_id":"levelo_inurba_marseille","lat":43.305994,"lon":5.393687,"is_reserved":false,"is_disabled":false,"rental_uris":{"android":"levelo://app?vid=0ee8100b-6296-47c4-b367-71790dd99a49","ios":"levelo://app?vid=0ee8100b-6296-47c4-b367-71790dd99a49"},"vehicle_type_id":"4","last_reported":1714925312,"current_range_meters":15200,"station_id":"ce4bh0p2rcd13ifvqd80","pricing_plan_id":"cebpf4jnsgd1na2vs0mg"},{"bike_id":"af905aa2-3e73-44fb-8385-f496f8803d18","system_id":"levelo_inurba_marseille","lat":43.29301,"lon":5.37454,"is_reserved":false,"is_disabled":false,"rental_uris":{"android":"levelo://app?vid=af905aa2-3e73-44fb-8385-f496f8803d18","ios":"levelo://app?vid=af905aa2-3e73-44fb-8385-f496f8803d18"},"vehicle_type_id":"4","last_reported":1714925312,"current_range_meters":0,"station_id":"ce4bgi12rcd13ifvqb70","pricing_plan_id":"cebpf4jnsgd1na2vs0mg"},{"bike_id":"6d44b263-cf22-4f0b-9f1e-e554f63d2fe6","system_id":"levelo_inurba_marseille","lat":43.293,"lon":5.37458,"is_reserved":false,"is_disabled":false,"rental_uris":{"android":"levelo://app?vid=6d44b263-cf22-4f0b-9f1e-e554f63d2fe6","ios":"levelo://app?vid=6d44b263-cf22-4f0b-9f1e-e554f63d2fe6"},"vehicle_type_id":"4","last_reported":1714925312,"current_range_meters":19600,"station_id":"ce4bgi12rcd13ifvqb70","pricing_plan_id":"cebpf4jnsgd1na2vs0mg"},{"bike_id":"6ccdc696-86eb-4126-aeeb-07352043f4d9","system_id":"levelo_inurba_marseille","lat":43.293009,"lon":5.374584,"is_reserved":false,"is_disabled":false,"rental_uris":{"android":"levelo://app?vid=6ccdc696-86eb-4126-aeeb-07352043f4d9","ios":"levelo://app?vid=6ccdc696-86eb-4126-aeeb-07352043f4d9"},"vehicle_type_id":"4","last_reported":1714925312,"current_range_meters":0,"station_id":"ce4bgi12rcd13ifvqb70","pricing_plan_id":"cebpf4jnsgd1na2vs0mg"},{"bike_id":"39608aee-df28-4e67-ad49-887385938528","system_id":"levelo_inurba_marseille","lat":43.293009,"lon":5.374584,"is_reserved":false,"is_disabled":false,"rental_uris":{"android":"levelo://app?vid=39608aee-df28-4e67-ad49-887385938528","ios":"levelo://app?vid=39608aee-df28-4e67-ad49-887385938528"},"vehicle_type_id":"4","last_reported":1714925312,"current_range_meters":4400,"station_id":"ce4bgi12rcd13ifvqb70","pricing_plan_id":"cebpf4jnsgd1na2vs0mg"},{"bike_id":"63ffb876-3f4a-4956-855e-0c1b0a89ae3e","system_id":"levelo_inurba_marseille","lat":43.305994,"lon":5.393687,"is_reserved":false,"is_disabled":false,"rental_uris":{"android":"levelo://app?vid=63ffb876-3f4a-4956-855e-0c1b0a89ae3e","ios":"levelo://app?vid=63ffb876-3f4a-4956-855e-0c1b0a89ae3e"},"vehicle_type_id":"4","last_reported":1714925312,"current_range_meters":24000,"station_id":"ce4bh0p2rcd13ifvqd80","pricing_plan_id":"cebpf4jnsgd1na2vs0mg"},{"bike_id":"88f9935c-9276-465a-9c41-cbcc768e4a0b","system_id":"levelo_inurba_marseille","lat":43.298764,"lon":5.388973,"is_reserved":false,"is_disabled":false,"rental_uris":{"android":"levelo://app?vid=88f9935c-9276-465a-9c41-cbcc768e4a0b","ios":"levelo://app?vid=88f9935c-9276-465a-9c41-cbcc768e4a0b"},"vehicle_type_id":"4","last_reported":1714925312,"current_range_meters":13200,"station_id":"ce4bh392rcd13ifvqdl0","pricing_plan_id":"cebpf4jnsgd1na2vs0mg"},{"bike_id":"0c66adba-04fc-4f1b-bebd-e4d00ce9e8e3","system_id":"levelo_inurba_marseille","lat":43.29383,"lon":5.37858,"is_reserved":false,"is_disabled":false,"rental_uris":{"android":"levelo://app?vid=0c66adba-04fc-4f1b-bebd-e4d00ce9e8e3","ios":"levelo://app?vid=0c66adba-04fc-4f1b-bebd-e4d00ce9e8e3"},"vehicle_type_id":"4","last_reported":1714925312,"current_range_meters":0,"station_id":"ce4bgjh2rcd13ifvqbf0","pricing_plan_id":"cebpf4jnsgd1na2vs0mg"},{"bike_id":"6e2d2e27-28b8-475b-93f9-d6043d082483","system_id":"levelo_inurba_marseille","lat":43.30085,"lon":5.390856,"is_reserved":false,"is_disabled":false,"rental_uris":{"android":"levelo://app?vid=6e2d2e27-28b8-475b-93f9-d6043d082483","ios":"levelo://app?vid=6e2d2e27-28b8-475b-93f9-d6043d082483"},"vehicle_type_id":"4","last_reported":1714925312,"current_range_meters":2800,"station_id":"ce4bh192rcd13ifvqdb0","pricing_plan_id":"cebpf4jnsgd1na2vs0mg"},{"bike_id":"dd732a4f-99ce-465f-b849-2642838f9d3d","system_id":"levelo_inurba_marseille","lat":43.29224,"lon":5.36054,"is_reserved":false,"is_disabled":false,"rental_uris":{"android":"levelo://app?vid=dd732a4f-99ce-465f-b849-2642838f9d3d","ios":"levelo://app?vid=dd732a4f-99ce-465f-b849-2642838f9d3d"},"vehicle_type_id":"4","last_reported":1714925312,"current_range_meters":29600,"station_id":"ce4bhbh2rcd13ifvqeqg","pricing_plan_id":"cebpf4jnsgd1na2vs0mg"},{"bike_id":"b47ff610-3f35-444d-8634-e9e111d7494a","system_id":"levelo_inurba_marseille","lat":43.292149,"lon":5.360291,"is_reserved":false,"is_disabled":false,"rental_uris":{"android":"levelo://app?vid=b47ff610-3f35-444d-8634-e9e111d7494a","ios":"levelo://app?vid=b47ff610-3f35-444d-8634-e9e111d7494a"},"vehicle_type_id":"4","last_reported":1714925312,"current_range_meters":1600,"station_id":"ce4bhbh2rcd13ifvqeqg","pricing_plan_id":"cebpf4jnsgd1na2vs0mg"},{"bike_id":"9f160769-75af-4462-a089-c188c618577c","system_id":"levelo_inurba_marseille","lat":43.29176,"lon":5.3715,"is_reserved":false,"is_disabled":false,"rental_uris":{"android":"levelo://app?vid=9f160769-75af-4462-a089-c188c618577c","ios":"levelo://app?vid=9f160769-75af-4462-a089-c188c618577c"},"vehicle_type_id":"4","last_reported":1714925312,"current_range_meters":1600,"station_id":"ce4bha92rcd13ifvqeh0","pricing_plan_id":"cebpf4jnsgd1na2vs0mg"},{"bike_id":"83a4a090-70f6-4680-8063-2b5365337912","system_id":"levelo_inurba_marseille","lat":43.298764,"lon":5.388973,"is_reserved":false,"is_disabled":false,"rental_uris":{"android":"levelo://app?vid=83a4a090-70f6-4680-8063-2b5365337912","ios":"levelo://app?vid=83a4a090-70f6-4680-8063-2b5365337912"},"vehicle_type_id":"4","last_reported":1714925312,"current_range_meters":0,"station_id":"ce4bh392rcd13ifvqdl0","pricing_plan_id":"cebpf4jnsgd1na2vs0mg"},{"bike_id":"69c9b2c9-eb53-419f-89d6-656ce4a01d4b","system_id":"levelo_inurba_marseille","lat":43.29169,"lon":5.37156,"is_reserved":false,"is_disabled":false,"rental_uris":{"android":"levelo://app?vid=69c9b2c9-eb53-419f-89d6-656ce4a01d4b","ios":"levelo://app?vid=69c9b2c9-eb53-419f-89d6-656ce4a01d4b"},"vehicle_type_id":"4","last_reported":1714925312,"current_range_meters":20400,"station_id":"ce4bha92rcd13ifvqeh0","pricing_plan_id":"cebpf4jnsgd1na2vs0mg"},{"bike_id":"dbd5a5c7-3dcf-4c2b-a130-7e7e6105e84f","system_id":"levelo_inurba_marseille","lat":43.291424,"lon":5.363111,"is_reserved":false,"is_disabled":false,"rental_uris":{"android":"levelo://app?vid=dbd5a5c7-3dcf-4c2b-a130-7e7e6105e84f","ios":"levelo://app?vid=dbd5a5c7-3dcf-4c2b-a130-7e7e6105e84f"},"vehicle_type_id":"4","last_reported":1714925312,"current_range_meters":0,"station_id":"ce4bhbh2rcd13ifvqeqg","pricing_plan_id":"cebpf4jnsgd1na2vs0mg"},{"bike_id":"5bb004c7-cd40-4906-895c-a3f61e101947","system_id":"levelo_inurba_marseille","lat":43.309038,"lon":5.396546,"is_reserved":false,"is_disabled":false,"rental_uris":{"android":"levelo://app?vid=5bb004c7-cd40-4906-895c-a3f61e101947","ios":"levelo://app?vid=5bb004c7-cd40-4906-895c-a3f61e101947"},"vehicle_type_id":"4","last_reported":1714925312,"current_range_meters":22000,"station_id":"ce4bh012rcd13ifvqcv0","pricing_plan_id":"cebpf4jnsgd1na2vs0mg"},{"bike_id":"9c85d79c-47c7-4c8d-895a-850db912b0ed","system_id":"levelo_inurba_marseille","lat":43.291994,"lon":5.357886,"is_reserved":false,"is_disabled":false,"rental_uris":{"android":"levelo://app?vid=9c85d79c-47c7-4c8d-895a-850db912b0ed","ios":"levelo://app?vid=9c85d79c-47c7-4c8d-895a-850db912b0ed"},"vehicle_type_id":"4","last_reported":1714925312,"current_range_meters":31200,"station_id":"ce4bhb12rcd13ifvqel0","pricing_plan_id":"cebpf4jnsgd1na2vs0mg"},{"bike_id":"bea54d7f-6c69-4fd8-8d61-ea3cffc1bbb3","system_id":"levelo_inurba_marseille","lat":43.291994,"lon":5.357886,"is_reserved":false,"is_disabled":false,"rental_uris":{"android":"levelo://app?vid=bea54d7f-6c69-4fd8-8d61-ea3cffc1bbb3","ios":"levelo://app?vid=bea54d7f-6c69-4fd8-8d61-ea3cffc1bbb3"},"vehicle_type_id":"4","last_reported":1714925312,"current_range_meters":16800,"station_id":"ce4bhb12rcd13ifvqel0","pricing_plan_id":"cebpf4jnsgd1na2vs0mg"},{"bike_id":"6db8e20b-f1cf-4e47-ad08-edd974181bc7","system_id":"levelo_inurba_marseille","lat":43.29201,"lon":5.35791,"is_reserved":false,"is_disabled":false,"rental_uris":{"android":"levelo://app?vid=6db8e20b-f1cf-4e47-ad08-edd974181bc7","ios":"levelo://app?vid=6db8e20b-f1cf-4e47-ad08-edd974181bc7"},"vehicle_type_id":"4","last_reported":1714925312,"current_range_meters":29600,"station_id":"ce4bhb12rcd13ifvqel0","pricing_plan_id":"cebpf4jnsgd1na2vs0mg"},{"bike_id":"9629a3b4-24cc-4570-9882-fce55d5a8eaa","system_id":"levelo_inurba_marseille","lat":43.291994,"lon":5.357886,"is_reserved":false,"is_disabled":false,"rental_uris":{"android":"levelo://app?vid=9629a3b4-24cc-4570-9882-fce55d5a8eaa","ios":"levelo://app?vid=9629a3b4-24cc-4570-9882-fce55d5a8eaa"},"vehicle_type_id":"4","last_reported":1714925312,"current_range_meters":31200,"station_id":"ce4bhb12rcd13ifvqel0","pricing_plan_id":"cebpf4jnsgd1na2vs0mg"},{"bike_id":"3a2f6e7e-3191-4dcf-a2b0-8f356ecc71d4","system_id":"levelo_inurba_marseille","lat":43.29529,"lon":5.385581,"is_reserved":false,"is_disabled":false,"rental_uris":{"android":"levelo://app?vid=3a2f6e7e-3191-4dcf-a2b0-8f356ecc71d4","ios":"levelo://app?vid=3a2f6e7e-3191-4dcf-a2b0-8f356ecc71d4"},"vehicle_type_id":"4","last_reported":1714925312,"current_range_meters":4400,"station_id":"ce4bgih2rcd13ifvqba0","pricing_plan_id":"cebpf4jnsgd1na2vs0mg"},{"bike_id":"4a90d86b-4ffe-4194-b9c5-5509a5d98b04","system_id":"levelo_inurba_marseille","lat":43.29543,"lon":5.385607,"is_reserved":false,"is_disabled":false,"rental_uris":{"android":"levelo://app?vid=4a90d86b-4ffe-4194-b9c5-5509a5d98b04","ios":"levelo://app?vid=4a90d86b-4ffe-4194-b9c5-5509a5d98b04"},"vehicle_type_id":"4","last_reported":1714925312,"current_range_meters":0,"station_id":"ce4bgih2rcd13ifvqba0","pricing_plan_id":"cebpf4jnsgd1na2vs0mg"},{"bike_id":"4735fb43-a137-451b-b508-802bec4d7731","system_id":"levelo_inurba_marseille","lat":43.29534,"lon":5.38546,"is_reserved":false,"is_disabled":false,"rental_uris":{"android":"levelo://app?vid=4735fb43-a137-451b-b508-802bec4d7731","ios":"levelo://app?vid=4735fb43-a137-451b-b508-802bec4d7731"},"vehicle_type_id":"4","last_reported":1714925312,"current_range_meters":0,"station_id":"ce4bgih2rcd13ifvqba0","pricing_plan_id":"cebpf4jnsgd1na2vs0mg"},{"bike_id":"24cc7ccb-1cae-4bae-8e8f-46288a9335b8","system_id":"levelo_inurba_marseille","lat":43.29535,"lon":5.38549,"is_reserved":false,"is_disabled":false,"rental_uris":{"android":"levelo://app?vid=24cc7ccb-1cae-4bae-8e8f-46288a9335b8","ios":"levelo://app?vid=24cc7ccb-1cae-4bae-8e8f-46288a9335b8"},"vehicle_type_id":"4","last_reported":1714925312,"current_range_meters":21600,"station_id":"ce4bgih2rcd13ifvqba0","pricing_plan_id":"cebpf4jnsgd1na2vs0mg"},{"bike_id":"3f32a16e-8212-479f-a02e-d295bf9dc5ff","system_id":"levelo_inurba_marseille","lat":43.29531,"lon":5.3855,"is_reserved":false,"is_disabled":false,"rental_uris":{"android":"levelo://app?vid=3f32a16e-8212-479f-a02e-d295bf9dc5ff","ios":"levelo://app?vid=3f32a16e-8212-479f-a02e-d295bf9dc5ff"},"vehicle_type_id":"4","last_reported":1714925312,"current_range_meters":12000,"station_id":"ce4bgih2rcd13ifvqba0","pricing_plan_id":"cebpf4jnsgd1na2vs0mg"},{"bike_id":"760d1aa3-62ec-468a-b7b6-3c3041192746","system_id":"levelo_inurba_marseille","lat":43.290779,"lon":5.371482,"is_reserved":false,"is_disabled":false,"rental_uris":{"android":"levelo://app?vid=760d1aa3-62ec-468a-b7b6-3c3041192746","ios":"levelo://app?vid=760d1aa3-62ec-468a-b7b6-3c3041192746"},"vehicle_type_id":"4","last_reported":1714925312,"current_range_meters":1600,"station_id":"ce4bh5p2rcd13ifvqe4g","pricing_plan_id":"cebpf4jnsgd1na2vs0mg"},{"bike_id":"1b5c1375-4fcb-4b23-ad4e-26b55719b1a3","system_id":"levelo_inurba_marseille","lat":43.290779,"lon":5.371482,"is_reserved":false,"is_disabled":false,"rental_uris":{"android":"levelo://app?vid=1b5c1375-4fcb-4b23-ad4e-26b55719b1a3","ios":"levelo://app?vid=1b5c1375-4fcb-4b23-ad4e-26b55719b1a3"},"vehicle_type_id":"4","last_reported":1714925312,"current_range_meters":6000,"station_id":"ce4bh5p2rcd13ifvqe4g","pricing_plan_id":"cebpf4jnsgd1na2vs0mg"},{"bike_id":"412c2e58-815e-4f25-afcb-bd631547d79c","system_id":"levelo_inurba_marseille","lat":43.294153,"lon":5.386305,"is_reserved":false,"is_disabled":false,"rental_uris":{"android":"levelo://app?vid=412c2e58-815e-4f25-afcb-bd631547d79c","ios":"levelo://app?vid=412c2e58-815e-4f25-afcb-bd631547d79c"},"vehicle_type_id":"4","last_reported":1714925312,"current_range_meters":4400,"station_id":"ce4bh2h2rcd13ifvqdh0","pricing_plan_id":"cebpf4jnsgd1na2vs0mg"},{"bike_id":"786e86eb-6cf8-46ae-b405-36ea57516176","system_id":"levelo_inurba_marseille","lat":43.30222,"lon":5.39463,"is_reserved":false,"is_disabled":false,"rental_uris":{"android":"levelo://app?vid=786e86eb-6cf8-46ae-b405-36ea57516176","ios":"levelo://app?vid=786e86eb-6cf8-46ae-b405-36ea57516176"},"vehicle_type_id":"4","last_reported":1714925312,"current_range_meters":0,"station_id":"ce4bh0p2rcd13ifvqd70","pricing_plan_id":"cebpf4jnsgd1na2vs0mg"},{"bike_id":"8f0a1a37-961b-43fa-9a97-297fcb2d8c2b","system_id":"levelo_inurba_marseille","lat":43.294153,"lon":5.386305,"is_reserved":false,"is_disabled":false,"rental_uris":{"android":"levelo://app?vid=8f0a1a37-961b-43fa-9a97-297fcb2d8c2b","ios":"levelo://app?vid=8f0a1a37-961b-43fa-9a97-297fcb2d8c2b"},"vehicle_type_id":"4","last_reported":1714925312,"current_range_meters":4800,"station_id":"ce4bh2h2rcd13ifvqdh0","pricing_plan_id":"cebpf4jnsgd1na2vs0mg"},{"bike_id":"c8cfa35b-434e-420d-a5c8-22d07e37e042","system_id":"levelo_inurba_marseille","lat":43.294153,"lon":5.386305,"is_reserved":false,"is_disabled":false,"rental_uris":{"android":"levelo://app?vid=c8cfa35b-434e-420d-a5c8-22d07e37e042","ios":"levelo://app?vid=c8cfa35b-434e-420d-a5c8-22d07e37e042"},"vehicle_type_id":"4","last_reported":1714925312,"current_range_meters":22000,"station_id":"ce4bh2h2rcd13ifvqdh0","pricing_plan_id":"cebpf4jnsgd1na2vs0mg"},{"bike_id":"b12e2a0a-4cf0-4cb6-ac41-222bef77d681","system_id":"levelo_inurba_marseille","lat":43.294153,"lon":5.386305,"is_reserved":false,"is_disabled":false,"rental_uris":{"android":"levelo://app?vid=b12e2a0a-4cf0-4cb6-ac41-222bef77d681","ios":"levelo://app?vid=b12e2a0a-4cf0-4cb6-ac41-222bef77d681"},"vehicle_type_id":"4","last_reported":1714925312,"current_range_meters":6000,"station_id":"ce4bh2h2rcd13ifvqdh0","pricing_plan_id":"cebpf4jnsgd1na2vs0mg"},{"bike_id":"725a42da-9dec-467d-84c3-b343d627b8c6","system_id":"levelo_inurba_marseille","lat":43.294153,"lon":5.386305,"is_reserved":false,"is_disabled":false,"rental_uris":{"android":"levelo://app?vid=725a42da-9dec-467d-84c3-b343d627b8c6","ios":"levelo://app?vid=725a42da-9dec-467d-84c3-b343d627b8c6"},"vehicle_type_id":"4","last_reported":1714925312,"current_range_meters":0,"station_id":"ce4bh2h2rcd13ifvqdh0","pricing_plan_id":"cebpf4jnsgd1na2vs0mg"},{"bike_id":"9244f192-20f6-4853-8085-ebfb7d3053cd","system_id":"levelo_inurba_marseille","lat":43.294153,"lon":5.386305,"is_reserved":false,"is_disabled":false,"rental_uris":{"android":"levelo://app?vid=9244f192-20f6-4853-8085-ebfb7d3053cd","ios":"levelo://app?vid=9244f192-20f6-4853-8085-ebfb7d3053cd"},"vehicle_type_id":"4","last_reported":1714925312,"current_range_meters":5200,"station_id":"ce4bh2h2rcd13ifvqdh0","pricing_plan_id":"cebpf4jnsgd1na2vs0mg"},{"bike_id":"8f035e01-08e2-489d-9e1e-06f73198f37a","system_id":"levelo_inurba_marseille","lat":43.29426,"lon":5.38623,"is_reserved":false,"is_disabled":false,"rental_uris":{"android":"levelo://app?vid=8f035e01-08e2-489d-9e1e-06f73198f37a","ios":"levelo://app?vid=8f035e01-08e2-489d-9e1e-06f73198f37a"},"vehicle_type_id":"4","last_reported":1714925312,"current_range_meters":0,"station_id":"ce4bh2h2rcd13ifvqdh0","pricing_plan_id":"cebpf4jnsgd1na2vs0mg"},{"bike_id":"df817235-3b9f-421b-805a-065cdd64affd","system_id":"levelo_inurba_marseille","lat":43.294153,"lon":5.386305,"is_reserved":false,"is_disabled":false,"rental_uris":{"android":"levelo://app?vid=df817235-3b9f-421b-805a-065cdd64affd","ios":"levelo://app?vid=df817235-3b9f-421b-805a-065cdd64affd"},"vehicle_type_id":"4","last_reported":1714925312,"current_range_meters":24000,"station_id":"ce4bh2h2rcd13ifvqdh0","pricing_plan_id":"cebpf4jnsgd1na2vs0mg"},{"bike_id":"277f1a53-aac1-4876-a148-b9185e9faae4","system_id":"levelo_inurba_marseille","lat":43.290319,"lon":5.375732,"is_reserved":false,"is_disabled":false,"rental_uris":{"android":"levelo://app?vid=277f1a53-aac1-4876-a148-b9185e9faae4","ios":"levelo://app?vid=277f1a53-aac1-4876-a148-b9185e9faae4"},"vehicle_type_id":"4","last_reported":1714925312,"current_range_meters":29200,"station_id":"ce4bh692rcd13ifvqe90","pricing_plan_id":"cebpf4jnsgd1na2vs0mg"},{"bike_id":"c22f6617-4905-4aae-934b-276250936fcb","system_id":"levelo_inurba_marseille","lat":43.29418,"lon":5.38625,"is_reserved":false,"is_disabled":false,"rental_uris":{"android":"levelo://app?vid=c22f6617-4905-4aae-934b-276250936fcb","ios":"levelo://app?vid=c22f6617-4905-4aae-934b-276250936fcb"},"vehicle_type_id":"4","last_reported":1714925312,"current_range_meters":1600,"station_id":"ce4bh2h2rcd13ifvqdh0","pricing_plan_id":"cebpf4jnsgd1na2vs0mg"},{"bike_id":"f597240f-b10d-45dc-875a-b39bceaa634c","system_id":"levelo_inurba_marseille","lat":43.29419,"lon":5.3863,"is_reserved":false,"is_disabled":false,"rental_uris":{"android":"levelo://app?vid=f597240f-b10d-45dc-875a-b39bceaa634c","ios":"levelo://app?vid=f597240f-b10d-45dc-875a-b39bceaa634c"},"vehicle_type_id":"4","last_reported":1714925312,"current_range_meters":3200,"station_id":"ce4bh2h2rcd13ifvqdh0","pricing_plan_id":"cebpf4jnsgd1na2vs0mg"},{"bike_id":"4ee84967-7004-4321-82a5-43b53eb4e424","system_id":"levelo_inurba_marseille","lat":43.294153,"lon":5.386305,"is_reserved":false,"is_disabled":false,"rental_uris":{"android":"levelo://app?vid=4ee84967-7004-4321-82a5-43b53eb4e424","ios":"levelo://app?vid=4ee84967-7004-4321-82a5-43b53eb4e424"},"vehicle_type_id":"4","last_reported":1714925312,"current_range_meters":25600,"station_id":"ce4bh2h2rcd13ifvqdh0","pricing_plan_id":"cebpf4jnsgd1na2vs0mg"},{"bike_id":"19b48d52-bde9-4c02-b692-fb8154f6e17e","system_id":"levelo_inurba_marseille","lat":43.289468,"lon":5.363719,"is_reserved":false,"is_disabled":false,"rental_uris":{"android":"levelo://app?vid=19b48d52-bde9-4c02-b692-fb8154f6e17e","ios":"levelo://app?vid=19b48d52-bde9-4c02-b692-fb8154f6e17e"},"vehicle_type_id":"4","last_reported":1714925312,"current_range_meters":8400,"station_id":"ce4bhc92rcd13ifvqetg","pricing_plan_id":"cebpf4jnsgd1na2vs0mg"},{"bike_id":"802f1cc5-d865-4218-bc66-a7602189cd22","system_id":"levelo_inurba_marseille","lat":43.289392,"lon":5.366352,"is_reserved":false,"is_disabled":false,"rental_uris":{"android":"levelo://app?vid=802f1cc5-d865-4218-bc66-a7602189cd22","ios":"levelo://app?vid=802f1cc5-d865-4218-bc66-a7602189cd22"},"vehicle_type_id":"4","last_reported":1714925312,"current_range_meters":0,"station_id":"ce4bhap2rcd13ifvqek0","pricing_plan_id":"cebpf4jnsgd1na2vs0mg"},{"bike_id":"be4ee3c7-971a-425c-a3fb-2db1b14ba321","system_id":"levelo_inurba_marseille","lat":43.289184,"lon":5.366408,"is_reserved":false,"is_disabled":false,"rental_uris":{"android":"levelo://app?vid=be4ee3c7-971a-425c-a3fb-2db1b14ba321","ios":"levelo://app?vid=be4ee3c7-971a-425c-a3fb-2db1b14ba321"},"vehicle_type_id":"4","last_reported":1714925312,"current_range_meters":24800,"station_id":"ce4bhap2rcd13ifvqek0","pricing_plan_id":"cebpf4jnsgd1na2vs0mg"},{"bike_id":"24311703-d515-44fd-936c-9db4126de5b8","system_id":"levelo_inurba_marseille","lat":43.289184,"lon":5.366408,"is_reserved":false,"is_disabled":false,"rental_uris":{"android":"levelo://app?vid=24311703-d515-44fd-936c-9db4126de5b8","ios":"levelo://app?vid=24311703-d515-44fd-936c-9db4126de5b8"},"vehicle_type_id":"4","last_reported":1714925312,"current_range_meters":12000,"station_id":"ce4bhap2rcd13ifvqek0","pricing_plan_id":"cebpf4jnsgd1na2vs0mg"},{"bike_id":"9f0f963e-e4d3-470c-b9f0-d49a4f5d5c38","system_id":"levelo_inurba_marseille","lat":43.28935,"lon":5.36649,"is_reserved":false,"is_disabled":false,"rental_uris":{"android":"levelo://app?vid=9f0f963e-e4d3-470c-b9f0-d49a4f5d5c38","ios":"levelo://app?vid=9f0f963e-e4d3-470c-b9f0-d49a4f5d5c38"},"vehicle_type_id":"4","last_reported":1714925312,"current_range_meters":0,"station_id":"","pricing_plan_id":"cebpf4jnsgd1na2vs0mg"},{"bike_id":"18659ab3-07ec-48ef-859a-c4a77b78c50f","system_id":"levelo_inurba_marseille","lat":43.28941,"lon":5.364023,"is_reserved":false,"is_disabled":false,"rental_uris":{"android":"levelo://app?vid=18659ab3-07ec-48ef-859a-c4a77b78c50f","ios":"levelo://app?vid=18659ab3-07ec-48ef-859a-c4a77b78c50f"},"vehicle_type_id":"4","last_reported":1714925312,"current_range_meters":0,"station_id":"ce4bhc92rcd13ifvqetg","pricing_plan_id":"cebpf4jnsgd1na2vs0mg"},{"bike_id":"e34144cf-d199-4f53-9d97-2d43c7aaf678","system_id":"levelo_inurba_marseille","lat":43.304296,"lon":5.397513,"is_reserved":false,"is_disabled":false,"rental_uris":{"android":"levelo://app?vid=e34144cf-d199-4f53-9d97-2d43c7aaf678","ios":"levelo://app?vid=e34144cf-d199-4f53-9d97-2d43c7aaf678"},"vehicle_type_id":"4","last_reported":1714925312,"current_range_meters":0,"station_id":"ce4bh092rcd13ifvqd20","pricing_plan_id":"cebpf4jnsgd1na2vs0mg"},{"bike_id":"7eaaa03f-f1f7-4c8b-8fa5-689f37f31ca7","system_id":"levelo_inurba_marseille","lat":43.292642,"lon":5.384254,"is_reserved":false,"is_disabled":false,"rental_uris":{"android":"levelo://app?vid=7eaaa03f-f1f7-4c8b-8fa5-689f37f31ca7","ios":"levelo://app?vid=7eaaa03f-f1f7-4c8b-8fa5-689f37f31ca7"},"vehicle_type_id":"4","last_reported":1714925312,"current_range_meters":800,"station_id":"ce4bh692rcd13ifvqea0","pricing_plan_id":"cebpf4jnsgd1na2vs0mg"},{"bike_id":"ee59f5ba-a98b-40a2-aae1-647d1b0784f7","system_id":"levelo_inurba_marseille","lat":43.292642,"lon":5.384254,"is_reserved":false,"is_disabled":false,"rental_uris":{"android":"levelo://app?vid=ee59f5ba-a98b-40a2-aae1-647d1b0784f7","ios":"levelo://app?vid=ee59f5ba-a98b-40a2-aae1-647d1b0784f7"},"vehicle_type_id":"4","last_reported":1714925312,"current_range_meters":0,"station_id":"ce4bh692rcd13ifvqea0","pricing_plan_id":"cebpf4jnsgd1na2vs0mg"},{"bike_id":"b5f49783-d007-47cc-a9ad-b3122dba336c","system_id":"levelo_inurba_marseille","lat":43.292642,"lon":5.384254,"is_reserved":false,"is_disabled":false,"rental_uris":{"android":"levelo://app?vid=b5f49783-d007-47cc-a9ad-b3122dba336c","ios":"levelo://app?vid=b5f49783-d007-47cc-a9ad-b3122dba336c"},"vehicle_type_id":"4","last_reported":1714925312,"current_range_meters":0,"station_id":"ce4bh692rcd13ifvqea0","pricing_plan_id":"cebpf4jnsgd1na2vs0mg"},{"bike_id":"deda069d-cebd-4b64-93df-8e0c7f45505c","system_id":"levelo_inurba_marseille","lat":43.2927,"lon":5.38439,"is_reserved":false,"is_disabled":false,"rental_uris":{"android":"levelo://app?vid=deda069d-cebd-4b64-93df-8e0c7f45505c","ios":"levelo://app?vid=deda069d-cebd-4b64-93df-8e0c7f45505c"},"vehicle_type_id":"4","last_reported":1714925312,"current_range_meters":16800,"station_id":"ce4bh692rcd13ifvqea0","pricing_plan_id":"cebpf4jnsgd1na2vs0mg"},{"bike_id":"2bf8dd30-45ac-4b91-bd4e-fc0f05590bb4","system_id":"levelo_inurba_marseille","lat":43.292642,"lon":5.384254,"is_reserved":false,"is_disabled":false,"rental_uris":{"android":"levelo://app?vid=2bf8dd30-45ac-4b91-bd4e-fc0f05590bb4","ios":"levelo://app?vid=2bf8dd30-45ac-4b91-bd4e-fc0f05590bb4"},"vehicle_type_id":"4","last_reported":1714925312,"current_range_meters":0,"station_id":"ce4bh692rcd13ifvqea0","pricing_plan_id":"cebpf4jnsgd1na2vs0mg"},{"bike_id":"9cc8355b-a9c4-49db-95aa-209206f6f2bd","system_id":"levelo_inurba_marseille","lat":43.304274,"lon":5.397513,"is_reserved":false,"is_disabled":false,"rental_uris":{"android":"levelo://app?vid=9cc8355b-a9c4-49db-95aa-209206f6f2bd","ios":"levelo://app?vid=9cc8355b-a9c4-49db-95aa-209206f6f2bd"},"vehicle_type_id":"4","last_reported":1714925312,"current_range_meters":24800,"station_id":"ce4bh092rcd13ifvqd20","pricing_plan_id":"cebpf4jnsgd1na2vs0mg"},{"bike_id":"2d7f9000-afa6-4257-93b2-e66aabcea718","system_id":"levelo_inurba_marseille","lat":43.29263,"lon":5.38437,"is_reserved":false,"is_disabled":false,"rental_uris":{"android":"levelo://app?vid=2d7f9000-afa6-4257-93b2-e66aabcea718","ios":"levelo://app?vid=2d7f9000-afa6-4257-93b2-e66aabcea718"},"vehicle_type_id":"4","last_reported":1714925312,"current_range_meters":12800,"station_id":"ce4bh692rcd13ifvqea0","pricing_plan_id":"cebpf4jnsgd1na2vs0mg"},{"bike_id":"ac4b5853-0801-4179-a78e-9e876a788f17","system_id":"levelo_inurba_marseille","lat":43.304274,"lon":5.397513,"is_reserved":false,"is_disabled":false,"rental_uris":{"android":"levelo://app?vid=ac4b5853-0801-4179-a78e-9e876a788f17","ios":"levelo://app?vid=ac4b5853-0801-4179-a78e-9e876a788f17"},"vehicle_type_id":"4","last_reported":1714925312,"current_range_meters":4800,"station_id":"ce4bh092rcd13ifvqd20","pricing_plan_id":"cebpf4jnsgd1na2vs0mg"},{"bike_id":"795a8a29-49aa-495b-b98a-ee9e9be86c2a","system_id":"levelo_inurba_marseille","lat":43.290104,"lon":5.356111,"is_reserved":false,"is_disabled":false,"rental_uris":{"android":"levelo://app?vid=795a8a29-49aa-495b-b98a-ee9e9be86c2a","ios":"levelo://app?vid=795a8a29-49aa-495b-b98a-ee9e9be86c2a"},"vehicle_type_id":"4","last_reported":1714925312,"current_range_meters":19600,"station_id":"ce4bhb92rcd13ifvqen0","pricing_plan_id":"cebpf4jnsgd1na2vs0mg"},{"bike_id":"1c9cdf24-cb86-4bdd-803c-0e826cf7e94d","system_id":"levelo_inurba_marseille","lat":43.290103,"lon":5.356114,"is_reserved":false,"is_disabled":false,"rental_uris":{"android":"levelo://app?vid=1c9cdf24-cb86-4bdd-803c-0e826cf7e94d","ios":"levelo://app?vid=1c9cdf24-cb86-4bdd-803c-0e826cf7e94d"},"vehicle_type_id":"4","last_reported":1714925312,"current_range_meters":16400,"station_id":"ce4bhb92rcd13ifvqen0","pricing_plan_id":"cebpf4jnsgd1na2vs0mg"},{"bike_id":"d78df49d-b4c9-4b7e-971e-6100fd136b7a","system_id":"levelo_inurba_marseille","lat":43.290103,"lon":5.356114,"is_reserved":false,"is_disabled":false,"rental_uris":{"android":"levelo://app?vid=d78df49d-b4c9-4b7e-971e-6100fd136b7a","ios":"levelo://app?vid=d78df49d-b4c9-4b7e-971e-6100fd136b7a"},"vehicle_type_id":"4","last_reported":1714925312,"current_range_meters":4000,"station_id":"ce4bhb92rcd13ifvqen0","pricing_plan_id":"cebpf4jnsgd1na2vs0mg"},{"bike_id":"31b572c7-1290-47b1-ac76-04a152e67c2a","system_id":"levelo_inurba_marseille","lat":43.290104,"lon":5.356111,"is_reserved":false,"is_disabled":false,"rental_uris":{"android":"levelo://app?vid=31b572c7-1290-47b1-ac76-04a152e67c2a","ios":"levelo://app?vid=31b572c7-1290-47b1-ac76-04a152e67c2a"},"vehicle_type_id":"4","last_reported":1714925312,"current_range_meters":31200,"station_id":"ce4bhb92rcd13ifvqen0","pricing_plan_id":"cebpf4jnsgd1na2vs0mg"},{"bike_id":"e18a2aad-298f-44ec-9026-03ebdf8a41c9","system_id":"levelo_inurba_marseille","lat":43.290103,"lon":5.356114,"is_reserved":false,"is_disabled":false,"rental_uris":{"android":"levelo://app?vid=e18a2aad-298f-44ec-9026-03ebdf8a41c9","ios":"levelo://app?vid=e18a2aad-298f-44ec-9026-03ebdf8a41c9"},"vehicle_type_id":"4","last_reported":1714925312,"current_range_meters":11200,"station_id":"ce4bhb92rcd13ifvqen0","pricing_plan_id":"cebpf4jnsgd1na2vs0mg"},{"bike_id":"f1459516-cd90-470c-89e3-2b323019e104","system_id":"levelo_inurba_marseille","lat":43.290103,"lon":5.356114,"is_reserved":false,"is_disabled":false,"rental_uris":{"android":"levelo://app?vid=f1459516-cd90-470c-89e3-2b323019e104","ios":"levelo://app?vid=f1459516-cd90-470c-89e3-2b323019e104"},"vehicle_type_id":"4","last_reported":1714925312,"current_range_meters":8800,"station_id":"ce4bhb92rcd13ifvqen0","pricing_plan_id":"cebpf4jnsgd1na2vs0mg"},{"bike_id":"5aa3e663-bf2a-48e2-aed5-cb715bedfbf8","system_id":"levelo_inurba_marseille","lat":43.290104,"lon":5.356111,"is_reserved":false,"is_disabled":false,"rental_uris":{"android":"levelo://app?vid=5aa3e663-bf2a-48e2-aed5-cb715bedfbf8","ios":"levelo://app?vid=5aa3e663-bf2a-48e2-aed5-cb715bedfbf8"},"vehicle_type_id":"4","last_reported":1714925312,"current_range_meters":400,"station_id":"ce4bhb92rcd13ifvqen0","pricing_plan_id":"cebpf4jnsgd1na2vs0mg"},{"bike_id":"bbe84023-91f7-498c-b455-af8090f4b000","system_id":"levelo_inurba_marseille","lat":43.290103,"lon":5.356114,"is_reserved":false,"is_disabled":false,"rental_uris":{"android":"levelo://app?vid=bbe84023-91f7-498c-b455-af8090f4b000","ios":"levelo://app?vid=bbe84023-91f7-498c-b455-af8090f4b000"},"vehicle_type_id":"4","last_reported":1714925312,"current_range_meters":23200,"station_id":"ce4bhb92rcd13ifvqen0","pricing_plan_id":"cebpf4jnsgd1na2vs0mg"},{"bike_id":"a1f10908-6e16-41eb-9f42-ddaa82c8bc32","system_id":"levelo_inurba_marseille","lat":43.290104,"lon":5.356111,"is_reserved":false,"is_disabled":false,"rental_uris":{"android":"levelo://app?vid=a1f10908-6e16-41eb-9f42-ddaa82c8bc32","ios":"levelo://app?vid=a1f10908-6e16-41eb-9f42-ddaa82c8bc32"},"vehicle_type_id":"4","last_reported":1714925312,"current_range_meters":29600,"station_id":"ce4bhb92rcd13ifvqen0","pricing_plan_id":"cebpf4jnsgd1na2vs0mg"},{"bike_id":"8731f18a-9de5-488c-9484-4ad73cd08e34","system_id":"levelo_inurba_marseille","lat":43.290104,"lon":5.356111,"is_reserved":false,"is_disabled":false,"rental_uris":{"android":"levelo://app?vid=8731f18a-9de5-488c-9484-4ad73cd08e34","ios":"levelo://app?vid=8731f18a-9de5-488c-9484-4ad73cd08e34"},"vehicle_type_id":"4","last_reported":1714925312,"current_range_meters":27600,"station_id":"ce4bhb92rcd13ifvqen0","pricing_plan_id":"cebpf4jnsgd1na2vs0mg"},{"bike_id":"d192534d-9ff8-4575-a864-dc81684999fb","system_id":"levelo_inurba_marseille","lat":43.289743,"lon":5.378304,"is_reserved":false,"is_disabled":false,"rental_uris":{"android":"levelo://app?vid=d192534d-9ff8-4575-a864-dc81684999fb","ios":"levelo://app?vid=d192534d-9ff8-4575-a864-dc81684999fb"},"vehicle_type_id":"4","last_reported":1714925312,"current_range_meters":17600,"station_id":"ce4bh9p2rcd13ifvqed0","pricing_plan_id":"cebpf4jnsgd1na2vs0mg"},{"bike_id":"513dbed6-4468-4708-a575-702ff5f0e88b","system_id":"levelo_inurba_marseille","lat":43.29787,"lon":5.39345,"is_reserved":false,"is_disabled":false,"rental_uris":{"android":"levelo://app?vid=513dbed6-4468-4708-a575-702ff5f0e88b","ios":"levelo://app?vid=513dbed6-4468-4708-a575-702ff5f0e88b"},"vehicle_type_id":"4","last_reported":1714925312,"current_range_meters":4000,"station_id":"chh1huq6cuj3fo74tm60","pricing_plan_id":"cebpf4jnsgd1na2vs0mg"},{"bike_id":"de76966b-4191-4dc1-9312-4440c482c32f","system_id":"levelo_inurba_marseille","lat":43.289741,"lon":5.378306,"is_reserved":false,"is_disabled":false,"rental_uris":{"android":"levelo://app?vid=de76966b-4191-4dc1-9312-4440c482c32f","ios":"levelo://app?vid=de76966b-4191-4dc1-9312-4440c482c32f"},"vehicle_type_id":"4","last_reported":1714925312,"current_range_meters":25600,"station_id":"ce4bh9p2rcd13ifvqed0","pricing_plan_id":"cebpf4jnsgd1na2vs0mg"},{"bike_id":"4ce71642-8c18-417c-9cc5-6bc2d2886c5c","system_id":"levelo_inurba_marseille","lat":43.297797,"lon":5.393457,"is_reserved":false,"is_disabled":false,"rental_uris":{"android":"levelo://app?vid=4ce71642-8c18-417c-9cc5-6bc2d2886c5c","ios":"levelo://app?vid=4ce71642-8c18-417c-9cc5-6bc2d2886c5c"},"vehicle_type_id":"4","last_reported":1714925312,"current_range_meters":2800,"station_id":"chh1huq6cuj3fo74tm60","pricing_plan_id":"cebpf4jnsgd1na2vs0mg"},{"bike_id":"35f86c37-f8ed-4e9b-a5d1-6c032de14145","system_id":"levelo_inurba_marseille","lat":43.33023,"lon":5.39037,"is_reserved":false,"is_disabled":false,"rental_uris":{"android":"levelo://app?vid=35f86c37-f8ed-4e9b-a5d1-6c032de14145","ios":"levelo://app?vid=35f86c37-f8ed-4e9b-a5d1-6c032de14145"},"vehicle_type_id":"4","last_reported":1714925312,"current_range_meters":22000,"station_id":"ce4bhr92rcd13ifvqhrg","pricing_plan_id":"cebpf4jnsgd1na2vs0mg"},{"bike_id":"cd21fdab-cd83-4e1d-b34b-01a38b8e93d8","system_id":"levelo_inurba_marseille","lat":43.289743,"lon":5.378304,"is_reserved":false,"is_disabled":false,"rental_uris":{"android":"levelo://app?vid=cd21fdab-cd83-4e1d-b34b-01a38b8e93d8","ios":"levelo://app?vid=cd21fdab-cd83-4e1d-b34b-01a38b8e93d8"},"vehicle_type_id":"4","last_reported":1714925312,"current_range_meters":0,"station_id":"ce4bh9p2rcd13ifvqed0","pricing_plan_id":"cebpf4jnsgd1na2vs0mg"},{"bike_id":"cc08eaa6-7ab6-4ecb-bd19-8e1a7d9a32fb","system_id":"levelo_inurba_marseille","lat":43.289741,"lon":5.378306,"is_reserved":false,"is_disabled":false,"rental_uris":{"android":"levelo://app?vid=cc08eaa6-7ab6-4ecb-bd19-8e1a7d9a32fb","ios":"levelo://app?vid=cc08eaa6-7ab6-4ecb-bd19-8e1a7d9a32fb"},"vehicle_type_id":"4","last_reported":1714925312,"current_range_meters":17600,"station_id":"ce4bh9p2rcd13ifvqed0","pricing_plan_id":"cebpf4jnsgd1na2vs0mg"},{"bike_id":"348f0fab-6739-400e-b631-37e37d62f129","system_id":"levelo_inurba_marseille","lat":43.330442,"lon":5.389148,"is_reserved":false,"is_disabled":false,"rental_uris":{"android":"levelo://app?vid=348f0fab-6739-400e-b631-37e37d62f129","ios":"levelo://app?vid=348f0fab-6739-400e-b631-37e37d62f129"},"vehicle_type_id":"4","last_reported":1714925312,"current_range_meters":8000,"station_id":"ce4bhr92rcd13ifvqhrg","pricing_plan_id":"cebpf4jnsgd1na2vs0mg"},{"bike_id":"4399202b-cfae-420c-bcef-9e053d0eb635","system_id":"levelo_inurba_marseille","lat":43.330442,"lon":5.389148,"is_reserved":false,"is_disabled":false,"rental_uris":{"android":"levelo://app?vid=4399202b-cfae-420c-bcef-9e053d0eb635","ios":"levelo://app?vid=4399202b-cfae-420c-bcef-9e053d0eb635"},"vehicle_type_id":"4","last_reported":1714925312,"current_range_meters":18400,"station_id":"ce4bhr92rcd13ifvqhrg","pricing_plan_id":"cebpf4jnsgd1na2vs0mg"},{"bike_id":"fb50930e-d9ab-4c58-9038-8b368f6ef1ce","system_id":"levelo_inurba_marseille","lat":43.33026,"lon":5.39045,"is_reserved":false,"is_disabled":false,"rental_uris":{"android":"levelo://app?vid=fb50930e-d9ab-4c58-9038-8b368f6ef1ce","ios":"levelo://app?vid=fb50930e-d9ab-4c58-9038-8b368f6ef1ce"},"vehicle_type_id":"4","last_reported":1714925312,"current_range_meters":16400,"station_id":"ce4bhr92rcd13ifvqhrg","pricing_plan_id":"cebpf4jnsgd1na2vs0mg"},{"bike_id":"57314cd1-6488-4d7d-b205-ad039763147e","system_id":"levelo_inurba_marseille","lat":43.289743,"lon":5.378304,"is_reserved":false,"is_disabled":false,"rental_uris":{"android":"levelo://app?vid=57314cd1-6488-4d7d-b205-ad039763147e","ios":"levelo://app?vid=57314cd1-6488-4d7d-b205-ad039763147e"},"vehicle_type_id":"4","last_reported":1714925312,"current_range_meters":6800,"station_id":"ce4bh9p2rcd13ifvqed0","pricing_plan_id":"cebpf4jnsgd1na2vs0mg"},{"bike_id":"4ac0617c-b9da-4bb8-a0f4-5d8a018432e0","system_id":"levelo_inurba_marseille","lat":43.330442,"lon":5.389148,"is_reserved":false,"is_disabled":false,"rental_uris":{"android":"levelo://app?vid=4ac0617c-b9da-4bb8-a0f4-5d8a018432e0","ios":"levelo://app?vid=4ac0617c-b9da-4bb8-a0f4-5d8a018432e0"},"vehicle_type_id":"4","last_reported":1714925312,"current_range_meters":7200,"station_id":"ce4bhr92rcd13ifvqhrg","pricing_plan_id":"cebpf4jnsgd1na2vs0mg"},{"bike_id":"1872b50c-d617-48d4-9fd5-c354cd7d832f","system_id":"levelo_inurba_marseille","lat":43.2901,"lon":5.381269,"is_reserved":false,"is_disabled":false,"rental_uris":{"android":"levelo://app?vid=1872b50c-d617-48d4-9fd5-c354cd7d832f","ios":"levelo://app?vid=1872b50c-d617-48d4-9fd5-c354cd7d832f"},"vehicle_type_id":"4","last_reported":1714925312,"current_range_meters":16000,"station_id":"ce4bh4p2rcd13ifvqe1g","pricing_plan_id":"cebpf4jnsgd1na2vs0mg"},{"bike_id":"d9abbdfb-26df-4a7d-bfdd-57b1660b47b0","system_id":"levelo_inurba_marseille","lat":43.2901,"lon":5.381269,"is_reserved":false,"is_disabled":false,"rental_uris":{"android":"levelo://app?vid=d9abbdfb-26df-4a7d-bfdd-57b1660b47b0","ios":"levelo://app?vid=d9abbdfb-26df-4a7d-bfdd-57b1660b47b0"},"vehicle_type_id":"4","last_reported":1714925312,"current_range_meters":800,"station_id":"ce4bh4p2rcd13ifvqe1g","pricing_plan_id":"cebpf4jnsgd1na2vs0mg"},{"bike_id":"b0d93d98-7da2-4f52-8e4e-f366aa8dae8a","system_id":"levelo_inurba_marseille","lat":43.2901,"lon":5.381269,"is_reserved":false,"is_disabled":false,"rental_uris":{"android":"levelo://app?vid=b0d93d98-7da2-4f52-8e4e-f366aa8dae8a","ios":"levelo://app?vid=b0d93d98-7da2-4f52-8e4e-f366aa8dae8a"},"vehicle_type_id":"4","last_reported":1714925312,"current_range_meters":0,"station_id":"ce4bh4p2rcd13ifvqe1g","pricing_plan_id":"cebpf4jnsgd1na2vs0mg"},{"bike_id":"9d3673a1-5663-4bfd-87be-7c8d44cfd5e9","system_id":"levelo_inurba_marseille","lat":43.28856,"lon":5.358371,"is_reserved":false,"is_disabled":false,"rental_uris":{"android":"levelo://app?vid=9d3673a1-5663-4bfd-87be-7c8d44cfd5e9","ios":"levelo://app?vid=9d3673a1-5663-4bfd-87be-7c8d44cfd5e9"},"vehicle_type_id":"4","last_reported":1714925312,"current_range_meters":4400,"station_id":"ce4bhb12rcd13ifvqem0","pricing_plan_id":"cebpf4jnsgd1na2vs0mg"},{"bike_id":"6d2095b4-5c81-412f-a8bc-d143bf2fd710","system_id":"levelo_inurba_marseille","lat":43.288562,"lon":5.358408,"is_reserved":false,"is_disabled":false,"rental_uris":{"android":"levelo://app?vid=6d2095b4-5c81-412f-a8bc-d143bf2fd710","ios":"levelo://app?vid=6d2095b4-5c81-412f-a8bc-d143bf2fd710"},"vehicle_type_id":"4","last_reported":1714925312,"current_range_meters":0,"station_id":"ce4bhb12rcd13ifvqem0","pricing_plan_id":"cebpf4jnsgd1na2vs0mg"},{"bike_id":"22cf14a4-f3a1-429f-ad5d-16b162b67729","system_id":"levelo_inurba_marseille","lat":43.3375,"lon":5.37453,"is_reserved":false,"is_disabled":false,"rental_uris":{"android":"levelo://app?vid=22cf14a4-f3a1-429f-ad5d-16b162b67729","ios":"levelo://app?vid=22cf14a4-f3a1-429f-ad5d-16b162b67729"},"vehicle_type_id":"4","last_reported":1714925312,"current_range_meters":4000,"station_id":"","pricing_plan_id":"cebpf4jnsgd1na2vs0mg"},{"bike_id":"01b1b7bd-5dbd-4411-9455-bdf092035ec7","system_id":"levelo_inurba_marseille","lat":43.33747,"lon":5.3748,"is_reserved":false,"is_disabled":false,"rental_uris":{"android":"levelo://app?vid=01b1b7bd-5dbd-4411-9455-bdf092035ec7","ios":"levelo://app?vid=01b1b7bd-5dbd-4411-9455-bdf092035ec7"},"vehicle_type_id":"4","last_reported":1714925312,"current_range_meters":20400,"station_id":"","pricing_plan_id":"cebpf4jnsgd1na2vs0mg"},{"bike_id":"c2965c40-030a-407b-a472-fca5d0db2691","system_id":"levelo_inurba_marseille","lat":43.33747,"lon":5.37484,"is_reserved":false,"is_disabled":false,"rental_uris":{"android":"levelo://app?vid=c2965c40-030a-407b-a472-fca5d0db2691","ios":"levelo://app?vid=c2965c40-030a-407b-a472-fca5d0db2691"},"vehicle_type_id":"4","last_reported":1714925312,"current_range_meters":20800,"station_id":"","pricing_plan_id":"cebpf4jnsgd1na2vs0mg"},{"bike_id":"49e5e279-f650-4ff2-a2bd-95b70e495049","system_id":"levelo_inurba_marseille","lat":43.306412,"lon":5.401035,"is_reserved":false,"is_disabled":false,"rental_uris":{"android":"levelo://app?vid=49e5e279-f650-4ff2-a2bd-95b70e495049","ios":"levelo://app?vid=49e5e279-f650-4ff2-a2bd-95b70e495049"},"vehicle_type_id":"4","last_reported":1714925312,"current_range_meters":10800,"station_id":"ce4bh112rcd13ifvqda0","pricing_plan_id":"cebpf4jnsgd1na2vs0mg"},{"bike_id":"b7173264-767a-4600-82d6-2fe1ae1d4552","system_id":"levelo_inurba_marseille","lat":43.33755,"lon":5.37485,"is_reserved":false,"is_disabled":false,"rental_uris":{"android":"levelo://app?vid=b7173264-767a-4600-82d6-2fe1ae1d4552","ios":"levelo://app?vid=b7173264-767a-4600-82d6-2fe1ae1d4552"},"vehicle_type_id":"4","last_reported":1714925312,"current_range_meters":30800,"station_id":"","pricing_plan_id":"cebpf4jnsgd1na2vs0mg"},{"bike_id":"ca8ccd4d-487c-497a-8708-408020f6855c","system_id":"levelo_inurba_marseille","lat":43.337669,"lon":5.374325,"is_reserved":false,"is_disabled":false,"rental_uris":{"android":"levelo://app?vid=ca8ccd4d-487c-497a-8708-408020f6855c","ios":"levelo://app?vid=ca8ccd4d-487c-497a-8708-408020f6855c"},"vehicle_type_id":"4","last_reported":1714925312,"current_range_meters":18400,"station_id":"","pricing_plan_id":"cebpf4jnsgd1na2vs0mg"},{"bike_id":"c8a3ff7b-367f-4e7c-b023-3f90fad9c9b1","system_id":"levelo_inurba_marseille","lat":43.301117,"lon":5.398795,"is_reserved":false,"is_disabled":false,"rental_uris":{"android":"levelo://app?vid=c8a3ff7b-367f-4e7c-b023-3f90fad9c9b1","ios":"levelo://app?vid=c8a3ff7b-367f-4e7c-b023-3f90fad9c9b1"},"vehicle_type_id":"4","last_reported":1714925312,"current_range_meters":17200,"station_id":"ce4bh0h2rcd13ifvqd40","pricing_plan_id":"cebpf4jnsgd1na2vs0mg"},{"bike_id":"389b0493-f246-41cb-a27f-d7af89b0073f","system_id":"levelo_inurba_marseille","lat":43.286961,"lon":5.373785,"is_reserved":false,"is_disabled":false,"rental_uris":{"android":"levelo://app?vid=389b0493-f246-41cb-a27f-d7af89b0073f","ios":"levelo://app?vid=389b0493-f246-41cb-a27f-d7af89b0073f"},"vehicle_type_id":"4","last_reported":1714925312,"current_range_meters":400,"station_id":"ce4bh3p2rcd13ifvqdq0","pricing_plan_id":"cebpf4jnsgd1na2vs0mg"},{"bike_id":"2bcc6204-5d39-4b6e-8168-f685c222458f","system_id":"levelo_inurba_marseille","lat":43.286961,"lon":5.373785,"is_reserved":false,"is_disabled":false,"rental_uris":{"android":"levelo://app?vid=2bcc6204-5d39-4b6e-8168-f685c222458f","ios":"levelo://app?vid=2bcc6204-5d39-4b6e-8168-f685c222458f"},"vehicle_type_id":"4","last_reported":1714925312,"current_range_meters":7200,"station_id":"ce4bh3p2rcd13ifvqdq0","pricing_plan_id":"cebpf4jnsgd1na2vs0mg"},{"bike_id":"c5aac3f1-984a-4e08-bba7-9f4b408ab3d2","system_id":"levelo_inurba_marseille","lat":43.286593,"lon":5.363346,"is_reserved":false,"is_disabled":false,"rental_uris":{"android":"levelo://app?vid=c5aac3f1-984a-4e08-bba7-9f4b408ab3d2","ios":"levelo://app?vid=c5aac3f1-984a-4e08-bba7-9f4b408ab3d2"},"vehicle_type_id":"4","last_reported":1714925312,"current_range_meters":13200,"station_id":"ce4bhah2rcd13ifvqej0","pricing_plan_id":"cebpf4jnsgd1na2vs0mg"},{"bike_id":"f6e95b12-76e3-4624-84c6-9b54a2ec3865","system_id":"levelo_inurba_marseille","lat":43.286961,"lon":5.373785,"is_reserved":false,"is_disabled":false,"rental_uris":{"android":"levelo://app?vid=f6e95b12-76e3-4624-84c6-9b54a2ec3865","ios":"levelo://app?vid=f6e95b12-76e3-4624-84c6-9b54a2ec3865"},"vehicle_type_id":"4","last_reported":1714925312,"current_range_meters":1200,"station_id":"ce4bh3p2rcd13ifvqdq0","pricing_plan_id":"cebpf4jnsgd1na2vs0mg"},{"bike_id":"5c625fc4-da03-4235-92cc-83ca290f33f5","system_id":"levelo_inurba_marseille","lat":43.298681,"lon":5.397225,"is_reserved":false,"is_disabled":false,"rental_uris":{"android":"levelo://app?vid=5c625fc4-da03-4235-92cc-83ca290f33f5","ios":"levelo://app?vid=5c625fc4-da03-4235-92cc-83ca290f33f5"},"vehicle_type_id":"4","last_reported":1714925312,"current_range_meters":20400,"station_id":"ce4bh0h2rcd13ifvqd50","pricing_plan_id":"cebpf4jnsgd1na2vs0mg"},{"bike_id":"cecdc0f8-4b92-4a75-9266-18705d317dbd","system_id":"levelo_inurba_marseille","lat":43.2987,"lon":5.39736,"is_reserved":false,"is_disabled":false,"rental_uris":{"android":"levelo://app?vid=cecdc0f8-4b92-4a75-9266-18705d317dbd","ios":"levelo://app?vid=cecdc0f8-4b92-4a75-9266-18705d317dbd"},"vehicle_type_id":"4","last_reported":1714925312,"current_range_meters":0,"station_id":"ce4bh0h2rcd13ifvqd50","pricing_plan_id":"cebpf4jnsgd1na2vs0mg"},{"bike_id":"76b78ca4-42ee-417e-9d64-6739a29b75d2","system_id":"levelo_inurba_marseille","lat":43.298681,"lon":5.397225,"is_reserved":false,"is_disabled":false,"rental_uris":{"android":"levelo://app?vid=76b78ca4-42ee-417e-9d64-6739a29b75d2","ios":"levelo://app?vid=76b78ca4-42ee-417e-9d64-6739a29b75d2"},"vehicle_type_id":"4","last_reported":1714925312,"current_range_meters":0,"station_id":"ce4bh0h2rcd13ifvqd50","pricing_plan_id":"cebpf4jnsgd1na2vs0mg"},{"bike_id":"4f80597c-8cc0-4c0e-977a-92284cc653de","system_id":"levelo_inurba_marseille","lat":43.295196,"lon":5.39397,"is_reserved":false,"is_disabled":false,"rental_uris":{"android":"levelo://app?vid=4f80597c-8cc0-4c0e-977a-92284cc653de","ios":"levelo://app?vid=4f80597c-8cc0-4c0e-977a-92284cc653de"},"vehicle_type_id":"4","last_reported":1714925312,"current_range_meters":5600,"station_id":"ce4bh292rcd13ifvqdf0","pricing_plan_id":"cebpf4jnsgd1na2vs0mg"},{"bike_id":"ef2317f3-5153-45b6-8a1c-a1263a9e388b","system_id":"levelo_inurba_marseille","lat":43.298681,"lon":5.397225,"is_reserved":false,"is_disabled":false,"rental_uris":{"android":"levelo://app?vid=ef2317f3-5153-45b6-8a1c-a1263a9e388b","ios":"levelo://app?vid=ef2317f3-5153-45b6-8a1c-a1263a9e388b"},"vehicle_type_id":"4","last_reported":1714925312,"current_range_meters":21200,"station_id":"ce4bh0h2rcd13ifvqd50","pricing_plan_id":"cebpf4jnsgd1na2vs0mg"},{"bike_id":"3b110e2f-5fde-41ff-b642-dcbba6b6ebf9","system_id":"levelo_inurba_marseille","lat":43.295194,"lon":5.39397,"is_reserved":false,"is_disabled":false,"rental_uris":{"android":"levelo://app?vid=3b110e2f-5fde-41ff-b642-dcbba6b6ebf9","ios":"levelo://app?vid=3b110e2f-5fde-41ff-b642-dcbba6b6ebf9"},"vehicle_type_id":"4","last_reported":1714925312,"current_range_meters":0,"station_id":"ce4bh292rcd13ifvqdf0","pricing_plan_id":"cebpf4jnsgd1na2vs0mg"},{"bike_id":"2c7703e1-694e-47eb-a303-14664fe5ab2a","system_id":"levelo_inurba_marseille","lat":43.295196,"lon":5.39397,"is_reserved":false,"is_disabled":false,"rental_uris":{"android":"levelo://app?vid=2c7703e1-694e-47eb-a303-14664fe5ab2a","ios":"levelo://app?vid=2c7703e1-694e-47eb-a303-14664fe5ab2a"},"vehicle_type_id":"4","last_reported":1714925312,"current_range_meters":16800,"station_id":"ce4bh292rcd13ifvqdf0","pricing_plan_id":"cebpf4jnsgd1na2vs0mg"},{"bike_id":"20524ca3-7a55-49d9-8d31-c5ef0c68cb9e","system_id":"levelo_inurba_marseille","lat":43.289368,"lon":5.383853,"is_reserved":false,"is_disabled":false,"rental_uris":{"android":"levelo://app?vid=20524ca3-7a55-49d9-8d31-c5ef0c68cb9e","ios":"levelo://app?vid=20524ca3-7a55-49d9-8d31-c5ef0c68cb9e"},"vehicle_type_id":"4","last_reported":1714925312,"current_range_meters":12000,"station_id":"ce4bh612rcd13ifvqe6g","pricing_plan_id":"cebpf4jnsgd1na2vs0mg"},{"bike_id":"e65d583b-0ec1-43a0-af39-5575043e010b","system_id":"levelo_inurba_marseille","lat":43.295194,"lon":5.39397,"is_reserved":false,"is_disabled":false,"rental_uris":{"android":"levelo://app?vid=e65d583b-0ec1-43a0-af39-5575043e010b","ios":"levelo://app?vid=e65d583b-0ec1-43a0-af39-5575043e010b"},"vehicle_type_id":"4","last_reported":1714925312,"current_range_meters":0,"station_id":"ce4bh292rcd13ifvqdf0","pricing_plan_id":"cebpf4jnsgd1na2vs0mg"},{"bike_id":"ffb03510-b3c7-4cb0-8339-86986a920899","system_id":"levelo_inurba_marseille","lat":43.295194,"lon":5.39397,"is_reserved":false,"is_disabled":false,"rental_uris":{"android":"levelo://app?vid=ffb03510-b3c7-4cb0-8339-86986a920899","ios":"levelo://app?vid=ffb03510-b3c7-4cb0-8339-86986a920899"},"vehicle_type_id":"4","last_reported":1714925312,"current_range_meters":2400,"station_id":"ce4bh292rcd13ifvqdf0","pricing_plan_id":"cebpf4jnsgd1na2vs0mg"},{"bike_id":"8d145b29-71a6-45d5-90ff-f5f2b1ee2dd9","system_id":"levelo_inurba_marseille","lat":43.302759,"lon":5.400793,"is_reserved":false,"is_disabled":false,"rental_uris":{"android":"levelo://app?vid=8d145b29-71a6-45d5-90ff-f5f2b1ee2dd9","ios":"levelo://app?vid=8d145b29-71a6-45d5-90ff-f5f2b1ee2dd9"},"vehicle_type_id":"4","last_reported":1714925312,"current_range_meters":2000,"station_id":"ce4bgvh2rcd13ifvqcs0","pricing_plan_id":"cebpf4jnsgd1na2vs0mg"},{"bike_id":"32a9caf0-435e-4d2c-8b09-61c2c306cebd","system_id":"levelo_inurba_marseille","lat":43.289307,"lon":5.38406,"is_reserved":false,"is_disabled":false,"rental_uris":{"android":"levelo://app?vid=32a9caf0-435e-4d2c-8b09-61c2c306cebd","ios":"levelo://app?vid=32a9caf0-435e-4d2c-8b09-61c2c306cebd"},"vehicle_type_id":"4","last_reported":1714925312,"current_range_meters":3200,"station_id":"ce4bh612rcd13ifvqe6g","pricing_plan_id":"cebpf4jnsgd1na2vs0mg"},{"bike_id":"621ad100-518d-4c35-89d6-ed2102c805cd","system_id":"levelo_inurba_marseille","lat":43.28932,"lon":5.38392,"is_reserved":false,"is_disabled":false,"rental_uris":{"android":"levelo://app?vid=621ad100-518d-4c35-89d6-ed2102c805cd","ios":"levelo://app?vid=621ad100-518d-4c35-89d6-ed2102c805cd"},"vehicle_type_id":"4","last_reported":1714925312,"current_range_meters":4000,"station_id":"ce4bh612rcd13ifvqe6g","pricing_plan_id":"cebpf4jnsgd1na2vs0mg"},{"bike_id":"2116a038-465a-4e63-b014-3e2edce7a87e","system_id":"levelo_inurba_marseille","lat":43.289307,"lon":5.38406,"is_reserved":false,"is_disabled":false,"rental_uris":{"android":"levelo://app?vid=2116a038-465a-4e63-b014-3e2edce7a87e","ios":"levelo://app?vid=2116a038-465a-4e63-b014-3e2edce7a87e"},"vehicle_type_id":"4","last_reported":1714925312,"current_range_meters":14800,"station_id":"ce4bh612rcd13ifvqe6g","pricing_plan_id":"cebpf4jnsgd1na2vs0mg"},{"bike_id":"8347cccf-930e-4d58-8d2b-4f103696cb8e","system_id":"levelo_inurba_marseille","lat":43.290345,"lon":5.38646,"is_reserved":false,"is_disabled":false,"rental_uris":{"android":"levelo://app?vid=8347cccf-930e-4d58-8d2b-4f103696cb8e","ios":"levelo://app?vid=8347cccf-930e-4d58-8d2b-4f103696cb8e"},"vehicle_type_id":"4","last_reported":1714925312,"current_range_meters":1600,"station_id":"ce4bh4p2rcd13ifvqe0g","pricing_plan_id":"cebpf4jnsgd1na2vs0mg"},{"bike_id":"7e589240-688e-40ab-9434-335f725fd31b","system_id":"levelo_inurba_marseille","lat":43.30249,"lon":5.40055,"is_reserved":false,"is_disabled":false,"rental_uris":{"android":"levelo://app?vid=7e589240-688e-40ab-9434-335f725fd31b","ios":"levelo://app?vid=7e589240-688e-40ab-9434-335f725fd31b"},"vehicle_type_id":"4","last_reported":1714925312,"current_range_meters":0,"station_id":"ce4bgvh2rcd13ifvqcs0","pricing_plan_id":"cebpf4jnsgd1na2vs0mg"},{"bike_id":"91f3feca-acc3-4f4d-b23b-fbf7e64f813e","system_id":"levelo_inurba_marseille","lat":43.290336,"lon":5.386425,"is_reserved":false,"is_disabled":false,"rental_uris":{"android":"levelo://app?vid=91f3feca-acc3-4f4d-b23b-fbf7e64f813e","ios":"levelo://app?vid=91f3feca-acc3-4f4d-b23b-fbf7e64f813e"},"vehicle_type_id":"4","last_reported":1714925312,"current_range_meters":2800,"station_id":"ce4bh4p2rcd13ifvqe0g","pricing_plan_id":"cebpf4jnsgd1na2vs0mg"},{"bike_id":"2bed8edb-810f-4421-ba76-f85cc758a1f5","system_id":"levelo_inurba_marseille","lat":43.290336,"lon":5.386425,"is_reserved":false,"is_disabled":false,"rental_uris":{"android":"levelo://app?vid=2bed8edb-810f-4421-ba76-f85cc758a1f5","ios":"levelo://app?vid=2bed8edb-810f-4421-ba76-f85cc758a1f5"},"vehicle_type_id":"4","last_reported":1714925312,"current_range_meters":2000,"station_id":"ce4bh4p2rcd13ifvqe0g","pricing_plan_id":"cebpf4jnsgd1na2vs0mg"},{"bike_id":"a8bb2fd6-bccb-4a74-a818-3f3c99b32118","system_id":"levelo_inurba_marseille","lat":43.290345,"lon":5.38646,"is_reserved":false,"is_disabled":false,"rental_uris":{"android":"levelo://app?vid=a8bb2fd6-bccb-4a74-a818-3f3c99b32118","ios":"levelo://app?vid=a8bb2fd6-bccb-4a74-a818-3f3c99b32118"},"vehicle_type_id":"4","last_reported":1714925312,"current_range_meters":1200,"station_id":"ce4bh4p2rcd13ifvqe0g","pricing_plan_id":"cebpf4jnsgd1na2vs0mg"},{"bike_id":"f582a3fa-0a2d-48be-8530-9250602f336e","system_id":"levelo_inurba_marseille","lat":43.290336,"lon":5.386425,"is_reserved":false,"is_disabled":false,"rental_uris":{"android":"levelo://app?vid=f582a3fa-0a2d-48be-8530-9250602f336e","ios":"levelo://app?vid=f582a3fa-0a2d-48be-8530-9250602f336e"},"vehicle_type_id":"4","last_reported":1714925312,"current_range_meters":0,"station_id":"ce4bh4p2rcd13ifvqe0g","pricing_plan_id":"cebpf4jnsgd1na2vs0mg"},{"bike_id":"ef12fc35-40b1-491c-861f-2c84f4e57e7e","system_id":"levelo_inurba_marseille","lat":43.289013,"lon":5.384071,"is_reserved":false,"is_disabled":false,"rental_uris":{"android":"levelo://app?vid=ef12fc35-40b1-491c-861f-2c84f4e57e7e","ios":"levelo://app?vid=ef12fc35-40b1-491c-861f-2c84f4e57e7e"},"vehicle_type_id":"4","last_reported":1714925312,"current_range_meters":24400,"station_id":"ce4bh612rcd13ifvqe6g","pricing_plan_id":"cebpf4jnsgd1na2vs0mg"},{"bike_id":"6bd1ca7a-76ad-4240-a2fd-c0960bcc481a","system_id":"levelo_inurba_marseille","lat":43.287446,"lon":5.379325,"is_reserved":false,"is_disabled":false,"rental_uris":{"android":"levelo://app?vid=6bd1ca7a-76ad-4240-a2fd-c0960bcc481a","ios":"levelo://app?vid=6bd1ca7a-76ad-4240-a2fd-c0960bcc481a"},"vehicle_type_id":"4","last_reported":1714925312,"current_range_meters":21200,"station_id":"ce4bh9p2rcd13ifvqec0","pricing_plan_id":"cebpf4jnsgd1na2vs0mg"},{"bike_id":"73ce7b67-ef6e-4de2-9c28-1c71c729ea71","system_id":"levelo_inurba_marseille","lat":43.287184,"lon":5.37937,"is_reserved":false,"is_disabled":false,"rental_uris":{"android":"levelo://app?vid=73ce7b67-ef6e-4de2-9c28-1c71c729ea71","ios":"levelo://app?vid=73ce7b67-ef6e-4de2-9c28-1c71c729ea71"},"vehicle_type_id":"4","last_reported":1714925312,"current_range_meters":12000,"station_id":"ce4bh9p2rcd13ifvqec0","pricing_plan_id":"cebpf4jnsgd1na2vs0mg"},{"bike_id":"ac19dea2-60f1-4f3a-a06a-fcb22265daef","system_id":"levelo_inurba_marseille","lat":43.287991,"lon":5.382694,"is_reserved":false,"is_disabled":false,"rental_uris":{"android":"levelo://app?vid=ac19dea2-60f1-4f3a-a06a-fcb22265daef","ios":"levelo://app?vid=ac19dea2-60f1-4f3a-a06a-fcb22265daef"},"vehicle_type_id":"4","last_reported":1714925312,"current_range_meters":14800,"station_id":"","pricing_plan_id":"cebpf4jnsgd1na2vs0mg"},{"bike_id":"af6a0936-d8ee-4eaa-9d6d-1e96ac5d149e","system_id":"levelo_inurba_marseille","lat":43.316828,"lon":5.404723,"is_reserved":false,"is_disabled":false,"rental_uris":{"android":"levelo://app?vid=af6a0936-d8ee-4eaa-9d6d-1e96ac5d149e","ios":"levelo://app?vid=af6a0936-d8ee-4eaa-9d6d-1e96ac5d149e"},"vehicle_type_id":"4","last_reported":1714925312,"current_range_meters":11200,"station_id":"ce4bh012rcd13ifvqd00","pricing_plan_id":"cebpf4jnsgd1na2vs0mg"},{"bike_id":"939bd89f-51c9-4431-b22b-a9f215c2b8ee","system_id":"levelo_inurba_marseille","lat":43.290336,"lon":5.386425,"is_reserved":false,"is_disabled":false,"rental_uris":{"android":"levelo://app?vid=939bd89f-51c9-4431-b22b-a9f215c2b8ee","ios":"levelo://app?vid=939bd89f-51c9-4431-b22b-a9f215c2b8ee"},"vehicle_type_id":"4","last_reported":1714925312,"current_range_meters":3200,"station_id":"ce4bh4p2rcd13ifvqe0g","pricing_plan_id":"cebpf4jnsgd1na2vs0mg"},{"bike_id":"16f1e347-1f0e-40b0-ac36-51e4f14d900a","system_id":"levelo_inurba_marseille","lat":43.291994,"lon":5.392907,"is_reserved":false,"is_disabled":false,"rental_uris":{"android":"levelo://app?vid=16f1e347-1f0e-40b0-ac36-51e4f14d900a","ios":"levelo://app?vid=16f1e347-1f0e-40b0-ac36-51e4f14d900a"},"vehicle_type_id":"4","last_reported":1714925312,"current_range_meters":14400,"station_id":"ce4bh192rcd13ifvqdd0","pricing_plan_id":"cebpf4jnsgd1na2vs0mg"},{"bike_id":"4bfe9eef-a0f3-45d3-885a-38738253866c","system_id":"levelo_inurba_marseille","lat":43.291994,"lon":5.392907,"is_reserved":false,"is_disabled":false,"rental_uris":{"android":"levelo://app?vid=4bfe9eef-a0f3-45d3-885a-38738253866c","ios":"levelo://app?vid=4bfe9eef-a0f3-45d3-885a-38738253866c"},"vehicle_type_id":"4","last_reported":1714925312,"current_range_meters":0,"station_id":"ce4bh192rcd13ifvqdd0","pricing_plan_id":"cebpf4jnsgd1na2vs0mg"},