{"last_updated":1719256016,"ttl":30,"version":"2.2","data":{"bikes":[{"bike_id":"736e9bf0-1711-465a-b22a-01a4b4bd2599","system_id":"levelo_inurba_marseille","lat":43.312239,"lon":5.368562,"is_reserved":false,"is_disabled":false,"rental_uris":{"android":"levelo://app?vid=736e9bf0-1711-465a-b22a-01a4b4bd2599","ios":"levelo://app?vid=736e9bf0-1711-465a-b22a-01a4b4bd2599"},"vehicle_type_id":"4","last_reported":1719256016,"current_range_meters":29200,"station_id":"ce4bgl92rcd13ifvqbq0","pricing_plan_id":"cebpf4jnsgd1na2vs0mg"},{"bike_id":"4e78aa73-29b4-4a0b-a8d7-70f682a4e11b","system_id":"levelo_inurba_marseille","lat":43.312239,"lon":5.368562,"is_reserved":false,"is_disabled":false,"rental_uris":{"android":"levelo://app?vid=4e78aa73-29b4-4a0b-a8d7-70f682a4e11b","ios":"levelo://app?vid=4e78aa73-29b4-4a0b-a8d7-70f682a4e11b"},"vehicle_type_id":"4","last_reported":1719256016,"current_range_meters":4000,"station_id":"ce4bgl92rcd13ifvqbq0","pricing_plan_id":"cebpf4jnsgd1na2vs0mg"},{"bike_id":"ec409de1-cade-42b7-867a-95377c8b07c9","system_id":"levelo_inurba_marseille","lat":43.314811,"lon":5.373103,"is_reserved":false,"is_disabled":false,"rental_uris":{"android":"levelo://app?vid=ec409de1-cade-42b7-867a-95377c8b07c9","ios":"levelo://app?vid=ec409de1-cade-42b7-867a-95377c8b07c9"},"vehicle_type_id":"4","last_reported":1719256016,"current_range_meters":3600,"station_id":"ce4bgt12rcd13ifvqcd0","pricing_plan_id":"cebpf4jnsgd1na2vs0mg"},{"bike_id":"8c98d7df-cd48-4fdf-b9f7-d27807cbf245","system_id":"levelo_inurba_marseille","lat":43.308612,"lon":5.370422,"is_reserved":false,"is_disabled":false,"rental_uris":{"android":"levelo://app?vid=8c98d7df-cd48-4fdf-b9f7-d27807cbf245","ios":"levelo://app?vid=8c98d7df-cd48-4fdf-b9f7-d27807cbf245"},"vehicle_type_id":"4","last_reported":1719256016,"current_range_meters":10000,"station_id":"","pricing_plan_id":"cebpf4jnsgd1na2vs0mg"},{"bike_id":"3e6229a9-daa1-4e8e-b7ec-60b28f97252f","system_id":"levelo_inurba_marseille","lat":43.31452,"lon":5.373706,"is_reserved":false,"is_disabled":false,"rental_uris":{"android":"levelo://app?vid=3e6229a9-daa1-4e8e-b7ec-60b28f97252f","ios":"levelo://app?vid=3e6229a9-daa1-4e8e-b7ec-60b28f97252f"},"vehicle_type_id":"4","last_reported":1719256016,"current_range_meters":2000,"station_id":"ce4bgt12rcd13ifvqcd0","pricing_plan_id":"cebpf4jnsgd1na2vs0mg"},{"bike_id":"77460ccb-960a-4153-8783-e0a172f31a95","system_id":"levelo_inurba_marseille","lat":43.314513,"lon":5.373723,"is_reserved":false,"is_disabled":false,"rental_uris":{"android":"levelo://app?vid=77460ccb-960a-4153-8783-e0a172f31a95","ios":"levelo://app?vid=77460ccb-960a-4153-8783-e0a172f31a95"},"vehicle_type_id":"4","last_reported":1719256016,"current_range_meters":5600,"station_id":"","pricing_plan_id":"cebpf4jnsgd1na2vs0mg"},{"bike_id":"1baba725-e391-4653-805c-ce213309fa5b","system_id":"levelo_inurba_marseille","lat":43.309034,"lon":5.371783,"is_reserved":false,"is_disabled":false,"rental_uris":{"android":"levelo://app?vid=1baba725-e391-4653-805c-ce213309fa5b","ios":"levelo://app?vid=1baba725-e391-4653-805c-ce213309fa5b"},"vehicle_type_id":"4","last_reported":1719256016,"current_range_meters":4400,"station_id":"ce4bguh2rcd13ifvqckg","pricing_plan_id":"cebpf4jnsgd1na2vs0mg"},{"bike_id":"d74d496a-a267-4f58-b9d3-4f468f416945","system_id":"levelo_inurba_marseille","lat":43.305405,"lon":5.366587,"is_reserved":false,"is_disabled":false,"rental_uris":{"android":"levelo://app?vid=d74d496a-a267-4f58-b9d3-4f468f416945","ios":"levelo://app?vid=d74d496a-a267-4f58-b9d3-4f468f416945"},"vehicle_type_id":"4","last_reported":1719256016,"current_range_meters":20000,"station_id":"","pricing_plan_id":"cebpf4jnsgd1na2vs0mg"},{"bike_id":"4f9b4749-8f37-43ae-9df1-0ec7cc3b89e6","system_id":"levelo_inurba_marseille","lat":43.305276,"lon":5.365829,"is_reserved":false,"is_disabled":false,"rental_uris":{"android":"levelo://app?vid=4f9b4749-8f37-43ae-9df1-0ec7cc3b89e6","ios":"levelo://app?vid=4f9b4749-8f37-43ae-9df1-0ec7cc3b89e6"},"vehicle_type_id":"4","last_reported":1719256016,"current_range_meters":29600,"station_id":"ce4bgs12rcd13ifvqcag","pricing_plan_id":"cebpf4jnsgd1na2vs0mg"},{"bike_id":"99e9f242-23f1-4c3a-8621-c0d1c935bbe1","system_id":"levelo_inurba_marseille","lat":43.305989,"lon":5.37225,"is_reserved":false,"is_disabled":false,"rental_uris":{"android":"levelo://app?vid=99e9f242-23f1-4c3a-8621-c0d1c935bbe1","ios":"levelo://app?vid=99e9f242-23f1-4c3a-8621-c0d1c935bbe1"},"vehicle_type_id":"4","last_reported":1719256016,"current_range_meters":0,"station_id":"ce4bgqh2rcd13ifvqc4g","pricing_plan_id":"cebpf4jnsgd1na2vs0mg"},{"bike_id":"cb81d902-842c-4104-90cb-875ddb39ee7f","system_id":"levelo_inurba_marseille","lat":43.304685,"lon":5.36736,"is_reserved":false,"is_disabled":false,"rental_uris":{"android":"levelo://app?vid=cb81d902-842c-4104-90cb-875ddb39ee7f","ios":"levelo://app?vid=cb81d902-842c-4104-90cb-875ddb39ee7f"},"vehicle_type_id":"4","last_reported":1719256016,"current_range_meters":19200,"station_id":"","pricing_plan_id":"cebpf4jnsgd1na2vs0mg"},{"bike_id":"25ce7da0-0642-4236-a230-0a3e1cf69694","system_id":"levelo_inurba_marseille","lat":43.31673,"lon":5.37687,"is_reserved":false,"is_disabled":false,"rental_uris":{"android":"levelo://app?vid=25ce7da0-0642-4236-a230-0a3e1cf69694","ios":"levelo://app?vid=25ce7da0-0642-4236-a230-0a3e1cf69694"},"vehicle_type_id":"4","last_reported":1719256016,"current_range_meters":0,"station_id":"","pricing_plan_id":"cebpf4jnsgd1na2vs0mg"},{"bike_id":"b9116028-bc46-4343-945b-888d4f5b4b13","system_id":"levelo_inurba_marseille","lat":43.317075,"lon":5.377367,"is_reserved":false,"is_disabled":false,"rental_uris":{"android":"levelo://app?vid=b9116028-bc46-4343-945b-888d4f5b4b13","ios":"levelo://app?vid=b9116028-bc46-4343-945b-888d4f5b4b13"},"vehicle_type_id":"4","last_reported":1719256016,"current_range_meters":18000,"station_id":"ce4bgth2rcd13ifvqch0","pricing_plan_id":"cebpf4jnsgd1na2vs0mg"},{"bike_id":"bd6eef68-084d-41c5-9f0d-588adcb09180","system_id":"levelo_inurba_marseille","lat":43.315289,"lon":5.380349,"is_reserved":false,"is_disabled":false,"rental_uris":{"android":"levelo://app?vid=bd6eef68-084d-41c5-9f0d-588adcb09180","ios":"levelo://app?vid=bd6eef68-084d-41c5-9f0d-588adcb09180"},"vehicle_type_id":"4","last_reported":1719256016,"current_range_meters":18000,"station_id":"ce4bhsp2rcd13ifvqi50","pricing_plan_id":"cebpf4jnsgd1na2vs0mg"},{"bike_id":"42b47ec4-774e-4cff-a9f8-c47a7a3d8524","system_id":"levelo_inurba_marseille","lat":43.301757,"lon":5.370427,"is_reserved":false,"is_disabled":false,"rental_uris":{"android":"levelo://app?vid=42b47ec4-774e-4cff-a9f8-c47a7a3d8524","ios":"levelo://app?vid=42b47ec4-774e-4cff-a9f8-c47a7a3d8524"},"vehicle_type_id":"4","last_reported":1719256016,"current_range_meters":21200,"station_id":"","pricing_plan_id":"cebpf4jnsgd1na2vs0mg"},{"bike_id":"f1803f32-3a29-4f77-bb25-a981604f6d12","system_id":"levelo_inurba_marseille","lat":43.308012,"lon":5.381511,"is_reserved":false,"is_disabled":false,"rental_uris":{"android":"levelo://app?vid=f1803f32-3a29-4f77-bb25-a981604f6d12","ios":"levelo://app?vid=f1803f32-3a29-4f77-bb25-a981604f6d12"},"vehicle_type_id":"4","last_reported":1719256016,"current_range_meters":14000,"station_id":"ce4bgt12rcd13ifvqce0","pricing_plan_id":"cebpf4jnsgd1na2vs0mg"},{"bike_id":"64fbeba8-465b-4df7-b313-e8bfcbb22c5a","system_id":"levelo_inurba_marseille","lat":43.308012,"lon":5.381511,"is_reserved":false,"is_disabled":false,"rental_uris":{"android":"levelo://app?vid=64fbeba8-465b-4df7-b313-e8bfcbb22c5a","ios":"levelo://app?vid=64fbeba8-465b-4df7-b313-e8bfcbb22c5a"},"vehicle_type_id":"4","last_reported":1719256016,"current_range_meters":800,"station_id":"ce4bgt12rcd13ifvqce0","pricing_plan_id":"cebpf4jnsgd1na2vs0mg"},{"bike_id":"eeb6e919-82e2-4912-8588-8f0a2865700c","system_id":"levelo_inurba_marseille","lat":43.304606,"lon":5.379026,"is_reserved":false,"is_disabled":false,"rental_uris":{"android":"levelo://app?vid=eeb6e919-82e2-4912-8588-8f0a2865700c","ios":"levelo://app?vid=eeb6e919-82e2-4912-8588-8f0a2865700c"},"vehicle_type_id":"4","last_reported":1719256016,"current_range_meters":27600,"station_id":"ce4bgup2rcd13ifvqcn0","pricing_plan_id":"cebpf4jnsgd1na2vs0mg"},{"bike_id":"9339bcc0-cc27-4575-a3ca-12d4af9ccd00","system_id":"levelo_inurba_marseille","lat":43.32477,"lon":5.36579,"is_reserved":false,"is_disabled":false,"rental_uris":{"android":"levelo://app?vid=9339bcc0-cc27-4575-a3ca-12d4af9ccd00","ios":"levelo://app?vid=9339bcc0-cc27-4575-a3ca-12d4af9ccd00"},"vehicle_type_id":"4","last_reported":1719256016,"current_range_meters":31200,"station_id":"ce4bhs12rcd13ifvqhvg","pricing_plan_id":"cebpf4jnsgd1na2vs0mg"},{"bike_id":"99940d12-8816-4939-9d2f-6c5fc5e8f53a","system_id":"levelo_inurba_marseille","lat":43.324771,"lon":5.36557,"is_reserved":false,"is_disabled":false,"rental_uris":{"android":"levelo://app?vid=99940d12-8816-4939-9d2f-6c5fc5e8f53a","ios":"levelo://app?vid=99940d12-8816-4939-9d2f-6c5fc5e8f53a"},"vehicle_type_id":"4","last_reported":1719256016,"current_range_meters":21200,"station_id":"ce4bhs12rcd13ifvqhvg","pricing_plan_id":"cebpf4jnsgd1na2vs0mg"},{"bike_id":"15992822-2bb1-46fc-a43a-68b7bf806d99","system_id":"levelo_inurba_marseille","lat":43.324771,"lon":5.36557,"is_reserved":false,"is_disabled":false,"rental_uris":{"android":"levelo://app?vid=15992822-2bb1-46fc-a43a-68b7bf806d99","ios":"levelo://app?vid=15992822-2bb1-46fc-a43a-68b7bf806d99"},"vehicle_type_id":"4","last_reported":1719256016,"current_range_meters":28000,"station_id":"ce4bhs12rcd13ifvqhvg","pricing_plan_id":"cebpf4jnsgd1na2vs0mg"},{"bike_id":"a9461242-4a57-4140-99c5-57df5f14a372","system_id":"levelo_inurba_marseille","lat":43.324771,"lon":5.36557,"is_reserved":false,"is_disabled":false,"rental_uris":{"android":"levelo://app?vid=a9461242-4a57-4140-99c5-57df5f14a372","ios":"levelo://app?vid=a9461242-4a57-4140-99c5-57df5f14a372"},"vehicle_type_id":"4","last_reported":1719256016,"current_range_meters":30400,"station_id":"ce4bhs12rcd13ifvqhvg","pricing_plan_id":"cebpf4jnsgd1na2vs0mg"},{"bike_id":"cb2c6264-0d83-4fea-920e-db5bb6781063","system_id":"levelo_inurba_marseille","lat":43.324771,"lon":5.36557,"is_reserved":false,"is_disabled":false,"rental_uris":{"android":"levelo://app?vid=cb2c6264-0d83-4fea-920e-db5bb6781063","ios":"levelo://app?vid=cb2c6264-0d83-4fea-920e-db5bb6781063"},"vehicle_type_id":"4","last_reported":1719256016,"current_range_meters":29600,"station_id":"ce4bhs12rcd13ifvqhvg","pricing_plan_id":"cebpf4jnsgd1na2vs0mg"},{"bike_id":"f4b2a785-15e1-48bc-a6b5-497f84fc92df","system_id":"levelo_inurba_marseille","lat":43.31074,"lon":5.38353,"is_reserved":false,"is_disabled":false,"rental_uris":{"android":"levelo://app?vid=f4b2a785-15e1-48bc-a6b5-497f84fc92df","ios":"levelo://app?vid=f4b2a785-15e1-48bc-a6b5-497f84fc92df"},"vehicle_type_id":"4","last_reported":1719256016,"current_range_meters":0,"station_id":"ce4bgv92rcd13ifvqcr0","pricing_plan_id":"cebpf4jnsgd1na2vs0mg"},{"bike_id":"ede679e9-2f32-4cec-a8f2-9aea29dcd60e","system_id":"levelo_inurba_marseille","lat":43.31073,"lon":5.38359,"is_reserved":false,"is_disabled":false,"rental_uris":{"android":"levelo://app?vid=ede679e9-2f32-4cec-a8f2-9aea29dcd60e","ios":"levelo://app?vid=ede679e9-2f32-4cec-a8f2-9aea29dcd60e"},"vehicle_type_id":"4","last_reported":1719256016,"current_range_meters":23600,"station_id":"ce4bgv92rcd13ifvqcr0","pricing_plan_id":"cebpf4jnsgd1na2vs0mg"},{"bike_id":"b9e87985-5b2c-4616-a050-cf7f3a3bd3c9","system_id":"levelo_inurba_marseille","lat":43.310804,"lon":5.38359,"is_reserved":false,"is_disabled":false,"rental_uris":{"android":"levelo://app?vid=b9e87985-5b2c-4616-a050-cf7f3a3bd3c9","ios":"levelo://app?vid=b9e87985-5b2c-4616-a050-cf7f3a3bd3c9"},"vehicle_type_id":"4","last_reported":1719256016,"current_range_meters":14000,"station_id":"ce4bgv92rcd13ifvqcr0","pricing_plan_id":"cebpf4jnsgd1na2vs0mg"},{"bike_id":"960f2920-09ba-4f6a-8ea0-8b45e9087afa","system_id":"levelo_inurba_marseille","lat":43.301429,"lon":5.37413,"is_reserved":false,"is_disabled":false,"rental_uris":{"android":"levelo://app?vid=960f2920-09ba-4f6a-8ea0-8b45e9087afa","ios":"levelo://app?vid=960f2920-09ba-4f6a-8ea0-8b45e9087afa"},"vehicle_type_id":"4","last_reported":1719256016,"current_range_meters":5600,"station_id":"ce4bgs92rcd13ifvqcc0","pricing_plan_id":"cebpf4jnsgd1na2vs0mg"},{"bike_id":"af6bd670-557a-4df3-906b-665716d42f99","system_id":"levelo_inurba_marseille","lat":43.319935,"lon":5.381699,"is_reserved":false,"is_disabled":false,"rental_uris":{"android":"levelo://app?vid=af6bd670-557a-4df3-906b-665716d42f99","ios":"levelo://app?vid=af6bd670-557a-4df3-906b-665716d42f99"},"vehicle_type_id":"4","last_reported":1719256016,"current_range_meters":10000,"station_id":"ce4bhr12rcd13ifvqhpg","pricing_plan_id":"cebpf4jnsgd1na2vs0mg"},{"bike_id":"73ebfcc3-95b0-41fe-afb7-fd034679f21e","system_id":"levelo_inurba_marseille","lat":43.31362,"lon":5.38489,"is_reserved":false,"is_disabled":false,"rental_uris":{"android":"levelo://app?vid=73ebfcc3-95b0-41fe-afb7-fd034679f21e","ios":"levelo://app?vid=73ebfcc3-95b0-41fe-afb7-fd034679f21e"},"vehicle_type_id":"4","last_reported":1719256016,"current_range_meters":1600,"station_id":"ce4bgt92rcd13ifvqcf0","pricing_plan_id":"cebpf4jnsgd1na2vs0mg"},{"bike_id":"c013f64c-6ca2-497b-b96b-8d4c380cee35","system_id":"levelo_inurba_marseille","lat":43.313571,"lon":5.384829,"is_reserved":false,"is_disabled":false,"rental_uris":{"android":"levelo://app?vid=c013f64c-6ca2-497b-b96b-8d4c380cee35","ios":"levelo://app?vid=c013f64c-6ca2-497b-b96b-8d4c380cee35"},"vehicle_type_id":"4","last_reported":1719256016,"current_range_meters":4800,"station_id":"ce4bgt92rcd13ifvqcf0","pricing_plan_id":"cebpf4jnsgd1na2vs0mg"},{"bike_id":"82578642-67c3-4c81-8be1-0363f9e2291d","system_id":"levelo_inurba_marseille","lat":43.31362,"lon":5.38493,"is_reserved":false,"is_disabled":false,"rental_uris":{"android":"levelo://app?vid=82578642-67c3-4c81-8be1-0363f9e2291d","ios":"levelo://app?vid=82578642-67c3-4c81-8be1-0363f9e2291d"},"vehicle_type_id":"4","last_reported":1719256016,"current_range_meters":2800,"station_id":"ce4bgt92rcd13ifvqcf0","pricing_plan_id":"cebpf4jnsgd1na2vs0mg"},{"bike_id":"55ba539a-2d00-4a64-a0c8-fc99d2645c1b","system_id":"levelo_inurba_marseille","lat":43.299222,"lon":5.365554,"is_reserved":false,"is_disabled":false,"rental_uris":{"android":"levelo://app?vid=55ba539a-2d00-4a64-a0c8-fc99d2645c1b","ios":"levelo://app?vid=55ba539a-2d00-4a64-a0c8-fc99d2645c1b"},"vehicle_type_id":"4","last_reported":1719256016,"current_range_meters":3200,"station_id":"ce4bgm92rcd13ifvqbr0","pricing_plan_id":"cebpf4jnsgd1na2vs0mg"},{"bike_id":"b3cf8401-7119-4ce8-b351-65b28a2646a3","system_id":"levelo_inurba_marseille","lat":43.299695,"lon":5.374105,"is_reserved":false,"is_disabled":false,"rental_uris":{"android":"levelo://app?vid=b3cf8401-7119-4ce8-b351-65b28a2646a3","ios":"levelo://app?vid=b3cf8401-7119-4ce8-b351-65b28a2646a3"},"vehicle_type_id":"4","last_reported":1719256016,"current_range_meters":6000,"station_id":"","pricing_plan_id":"cebpf4jnsgd1na2vs0mg"},{"bike_id":"e6864423-df6e-40c0-a106-1d23165da77a","system_id":"levelo_inurba_marseille","lat":43.29855,"lon":5.36269,"is_reserved":false,"is_disabled":false,"rental_uris":{"android":"levelo://app?vid=e6864423-df6e-40c0-a106-1d23165da77a","ios":"levelo://app?vid=e6864423-df6e-40c0-a106-1d23165da77a"},"vehicle_type_id":"4","last_reported":1719256016,"current_range_meters":26800,"station_id":"ce4bgpp2rcd13ifvqc3g","pricing_plan_id":"cebpf4jnsgd1na2vs0mg"},{"bike_id":"1f8dda50-4157-4897-9405-7c36488024da","system_id":"levelo_inurba_marseille","lat":43.298433,"lon":5.362774,"is_reserved":false,"is_disabled":false,"rental_uris":{"android":"levelo://app?vid=1f8dda50-4157-4897-9405-7c36488024da","ios":"levelo://app?vid=1f8dda50-4157-4897-9405-7c36488024da"},"vehicle_type_id":"4","last_reported":1719256016,"current_range_meters":20000,"station_id":"ce4bgpp2rcd13ifvqc3g","pricing_plan_id":"cebpf4jnsgd1na2vs0mg"},{"bike_id":"1e726e89-ba78-4a1c-8551-1e7bc92b0b07","system_id":"levelo_inurba_marseille","lat":43.298433,"lon":5.362774,"is_reserved":false,"is_disabled":false,"rental_uris":{"android":"levelo://app?vid=1e726e89-ba78-4a1c-8551-1e7bc92b0b07","ios":"levelo://app?vid=1e726e89-ba78-4a1c-8551-1e7bc92b0b07"},"vehicle_type_id":"4","last_reported":1719256016,"current_range_meters":12400,"station_id":"ce4bgpp2rcd13ifvqc3g","pricing_plan_id":"cebpf4jnsgd1na2vs0mg"},{"bike_id":"d00adec1-194a-49f4-9b45-d789c6c01558","system_id":"levelo_inurba_marseille","lat":43.29847,"lon":5.36274,"is_reserved":false,"is_disabled":false,"rental_uris":{"android":"levelo://app?vid=d00adec1-194a-49f4-9b45-d789c6c01558","ios":"levelo://app?vid=d00adec1-194a-49f4-9b45-d789c6c01558"},"vehicle_type_id":"4","last_reported":1719256016,"current_range_meters":31200,"station_id":"ce4bgpp2rcd13ifvqc3g","pricing_plan_id":"cebpf4jnsgd1na2vs0mg"},{"bike_id":"21ffb403-36aa-4dfb-ac89-bf7e8802b900","system_id":"levelo_inurba_marseille","lat":43.29848,"lon":5.36263,"is_reserved":false,"is_disabled":false,"rental_uris":{"android":"levelo://app?vid=21ffb403-36aa-4dfb-ac89-bf7e8802b900","ios":"levelo://app?vid=21ffb403-36aa-4dfb-ac89-bf7e8802b900"},"vehicle_type_id":"4","last_reported":1719256016,"current_range_meters":31200,"station_id":"ce4bgpp2rcd13ifvqc3g","pricing_plan_id":"cebpf4jnsgd1na2vs0mg"},{"bike_id":"bc9502cf-cb24-4982-98a1-d036e3a2dfc4","system_id":"levelo_inurba_marseille","lat":43.29845,"lon":5.36275,"is_reserved":false,"is_disabled":false,"rental_uris":{"android":"levelo://app?vid=bc9502cf-cb24-4982-98a1-d036e3a2dfc4","ios":"levelo://app?vid=bc9502cf-cb24-4982-98a1-d036e3a2dfc4"},"vehicle_type_id":"4","last_reported":1719256016,"current_range_meters":30800,"station_id":"ce4bgpp2rcd13ifvqc3g","pricing_plan_id":"cebpf4jnsgd1na2vs0mg"},{"bike_id":"6a482d5f-3072-461e-a8d7-36f6e6f9d143","system_id":"levelo_inurba_marseille","lat":43.305364,"lon":5.384119,"is_reserved":false,"is_disabled":false,"rental_uris":{"android":"levelo://app?vid=6a482d5f-3072-461e-a8d7-36f6e6f9d143","ios":"levelo://app?vid=6a482d5f-3072-461e-a8d7-36f6e6f9d143"},"vehicle_type_id":"4","last_reported":1719256016,"current_range_meters":29600,"station_id":"ce4bgg92rcd13ifvqb30","pricing_plan_id":"cebpf4jnsgd1na2vs0mg"},{"bike_id":"da56c60b-312e-45d0-8153-8fb2cc69087d","system_id":"levelo_inurba_marseille","lat":43.305364,"lon":5.384119,"is_reserved":false,"is_disabled":false,"rental_uris":{"android":"levelo://app?vid=da56c60b-312e-45d0-8153-8fb2cc69087d","ios":"levelo://app?vid=da56c60b-312e-45d0-8153-8fb2cc69087d"},"vehicle_type_id":"4","last_reported":1719256016,"current_range_meters":2800,"station_id":"ce4bgg92rcd13ifvqb30","pricing_plan_id":"cebpf4jnsgd1na2vs0mg"},{"bike_id":"9bbe2589-a0ee-44c5-a328-64cbc863f445","system_id":"levelo_inurba_marseille","lat":43.29844,"lon":5.36267,"is_reserved":false,"is_disabled":false,"rental_uris":{"android":"levelo://app?vid=9bbe2589-a0ee-44c5-a328-64cbc863f445","ios":"levelo://app?vid=9bbe2589-a0ee-44c5-a328-64cbc863f445"},"vehicle_type_id":"4","last_reported":1719256016,"current_range_meters":11600,"station_id":"ce4bgpp2rcd13ifvqc3g","pricing_plan_id":"cebpf4jnsgd1na2vs0mg"},{"bike_id":"25bde184-2c25-4786-a1dd-e10fce1b2f7f","system_id":"levelo_inurba_marseille","lat":43.29844,"lon":5.36266,"is_reserved":false,"is_disabled":false,"rental_uris":{"android":"levelo://app?vid=25bde184-2c25-4786-a1dd-e10fce1b2f7f","ios":"levelo://app?vid=25bde184-2c25-4786-a1dd-e10fce1b2f7f"},"vehicle_type_id":"4","last_reported":1719256016,"current_range_meters":5200,"station_id":"ce4bgpp2rcd13ifvqc3g","pricing_plan_id":"cebpf4jnsgd1na2vs0mg"},{"bike_id":"efed8482-9881-4626-be15-0e90a42dfd4f","system_id":"levelo_inurba_marseille","lat":43.298433,"lon":5.362774,"is_reserved":false,"is_disabled":false,"rental_uris":{"android":"levelo://app?vid=efed8482-9881-4626-be15-0e90a42dfd4f","ios":"levelo://app?vid=efed8482-9881-4626-be15-0e90a42dfd4f"},"vehicle_type_id":"4","last_reported":1719256016,"current_range_meters":31200,"station_id":"ce4bgpp2rcd13ifvqc3g","pricing_plan_id":"cebpf4jnsgd1na2vs0mg"},{"bike_id":"5bdc0394-9fa2-4721-9536-f5b5177dd786","system_id":"levelo_inurba_marseille","lat":43.305364,"lon":5.384119,"is_reserved":false,"is_disabled":false,"rental_uris":{"android":"levelo://app?vid=5bdc0394-9fa2-4721-9536-f5b5177dd786","ios":"levelo://app?vid=5bdc0394-9fa2-4721-9536-f5b5177dd786"},"vehicle_type_id":"4","last_reported":1719256016,"current_range_meters":6000,"station_id":"ce4bgg92rcd13ifvqb30","pricing_plan_id":"cebpf4jnsgd1na2vs0mg"},{"bike_id":"c1bfcef3-996e-4af8-885e-65054a21d4a3","system_id":"levelo_inurba_marseille","lat":43.311722,"lon":5.387247,"is_reserved":false,"is_disabled":false,"rental_uris":{"android":"levelo://app?vid=c1bfcef3-996e-4af8-885e-65054a21d4a3","ios":"levelo://app?vid=c1bfcef3-996e-4af8-885e-65054a21d4a3"},"vehicle_type_id":"4","last_reported":1719256016,"current_range_meters":20000,"station_id":"ce4bgv12rcd13ifvqcp0","pricing_plan_id":"cebpf4jnsgd1na2vs0mg"},{"bike_id":"e9afee31-ef66-472e-b7c3-896651d0896f","system_id":"levelo_inurba_marseille","lat":43.311722,"lon":5.387247,"is_reserved":false,"is_disabled":false,"rental_uris":{"android":"levelo://app?vid=e9afee31-ef66-472e-b7c3-896651d0896f","ios":"levelo://app?vid=e9afee31-ef66-472e-b7c3-896651d0896f"},"vehicle_type_id":"4","last_reported":1719256016,"current_range_meters":0,"station_id":"ce4bgv12rcd13ifvqcp0","pricing_plan_id":"cebpf4jnsgd1na2vs0mg"},{"bike_id":"b5180ddc-3001-4031-9095-18940cfecbf6","system_id":"levelo_inurba_marseille","lat":43.311722,"lon":5.387247,"is_reserved":false,"is_disabled":false,"rental_uris":{"android":"levelo://app?vid=b5180ddc-3001-4031-9095-18940cfecbf6","ios":"levelo://app?vid=b5180ddc-3001-4031-9095-18940cfecbf6"},"vehicle_type_id":"4","last_reported":1719256016,"current_range_meters":21200,"station_id":"ce4bgv12rcd13ifvqcp0","pricing_plan_id":"cebpf4jnsgd1na2vs0mg"},{"bike_id":"daa67e30-2247-45fe-8776-2e0ac727d11f","system_id":"levelo_inurba_marseille","lat":43.311722,"lon":5.387247,"is_reserved":false,"is_disabled":false,"rental_uris":{"android":"levelo://app?vid=daa67e30-2247-45fe-8776-2e0ac727d11f","ios":"levelo://app?vid=daa67e30-2247-45fe-8776-2e0ac727d11f"},"vehicle_type_id":"4","last_reported":1719256016,"current_range_meters":2800,"station_id":"ce4bgv12rcd13ifvqcp0","pricing_plan_id":"cebpf4jnsgd1na2vs0mg"},{"bike_id":"c67f5089-2900-434f-bce9-41c68cd608ce","system_id":"levelo_inurba_marseille","lat":43.311722,"lon":5.387247,"is_reserved":false,"is_disabled":false,"rental_uris":{"android":"levelo://app?vid=c67f5089-2900-434f-bce9-41c68cd608ce","ios":"levelo://app?vid=c67f5089-2900-434f-bce9-41c68cd608ce"},"vehicle_type_id":"4","last_reported":1719256016,"current_range_meters":16800,"station_id":"ce4bgv12rcd13ifvqcp0","pricing_plan_id":"cebpf4jnsgd1na2vs0mg"},{"bike_id":"77d165dd-a287-4443-9e33-e8f3dcdf5128","system_id":"levelo_inurba_marseille","lat":43.311722,"lon":5.387247,"is_reserved":false,"is_disabled":false,"rental_uris":{"android":"levelo://app?vid=77d165dd-a287-4443-9e33-e8f3dcdf5128","ios":"levelo://app?vid=77d165dd-a287-4443-9e33-e8f3dcdf5128"},"vehicle_type_id":"4","last_reported":1719256016,"current_range_meters":2000,"station_id":"ce4bgv12rcd13ifvqcp0","pricing_plan_id":"cebpf4jnsgd1na2vs0mg"},{"bike_id":"c6d09ec8-b617-442a-a713-e11146b7d611","system_id":"levelo_inurba_marseille","lat":43.311722,"lon":5.387247,"is_reserved":false,"is_disabled":false,"rental_uris":{"android":"levelo://app?vid=c6d09ec8-b617-442a-a713-e11146b7d611","ios":"levelo://app?vid=c6d09ec8-b617-442a-a713-e11146b7d611"},"vehicle_type_id":"4","last_reported":1719256016,"current_range_meters":28800,"station_id":"ce4bgv12rcd13ifvqcp0","pricing_plan_id":"cebpf4jnsgd1na2vs0mg"},{"bike_id":"c931766e-7314-4787-a212-81f0215eb9ce","system_id":"levelo_inurba_marseille","lat":43.311722,"lon":5.387247,"is_reserved":false,"is_disabled":false,"rental_uris":{"android":"levelo://app?vid=c931766e-7314-4787-a212-81f0215eb9ce","ios":"levelo://app?vid=c931766e-7314-4787-a212-81f0215eb9ce"},"vehicle_type_id":"4","last_reported":1719256016,"current_range_meters":9200,"station_id":"ce4bgv12rcd13ifvqcp0","pricing_plan_id":"cebpf4jnsgd1na2vs0mg"},{"bike_id":"06eae7a7-4388-400b-befd-30c56a71b4c5","system_id":"levelo_inurba_marseille","lat":43.297794,"lon":5.370888,"is_reserved":false,"is_disabled":false,"rental_uris":{"android":"levelo://app?vid=06eae7a7-4388-400b-befd-30c56a71b4c5","ios":"levelo://app?vid=06eae7a7-4388-400b-befd-30c56a71b4c5"},"vehicle_type_id":"4","last_reported":1719256016,"current_range_meters":14000,"station_id":"ce4bgop2rcd13ifvqc1g","pricing_plan_id":"cebpf4jnsgd1na2vs0mg"},{"bike_id":"34159617-e596-4dbf-9981-109c4ed1fa75","system_id":"levelo_inurba_marseille","lat":43.322872,"lon":5.382756,"is_reserved":false,"is_disabled":false,"rental_uris":{"android":"levelo://app?vid=34159617-e596-4dbf-9981-109c4ed1fa75","ios":"levelo://app?vid=34159617-e596-4dbf-9981-109c4ed1fa75"},"vehicle_type_id":"4","last_reported":1719256016,"current_range_meters":29200,"station_id":"ce4bhr12rcd13ifvqhqg","pricing_plan_id":"cebpf4jnsgd1na2vs0mg"},{"bike_id":"de15eb35-9a72-4513-b9b1-9d70e26e4f8e","system_id":"levelo_inurba_marseille","lat":43.322872,"lon":5.382756,"is_reserved":false,"is_disabled":false,"rental_uris":{"android":"levelo://app?vid=de15eb35-9a72-4513-b9b1-9d70e26e4f8e","ios":"levelo://app?vid=de15eb35-9a72-4513-b9b1-9d70e26e4f8e"},"vehicle_type_id":"4","last_reported":1719256016,"current_range_meters":31200,"station_id":"ce4bhr12rcd13ifvqhqg","pricing_plan_id":"cebpf4jnsgd1na2vs0mg"},{"bike_id":"4b78b0b8-d778-4c8e-8335-4a8971a23903","system_id":"levelo_inurba_marseille","lat":43.29878,"lon":5.37597,"is_reserved":false,"is_disabled":false,"rental_uris":{"android":"levelo://app?vid=4b78b0b8-d778-4c8e-8335-4a8971a23903","ios":"levelo://app?vid=4b78b0b8-d778-4c8e-8335-4a8971a23903"},"vehicle_type_id":"4","last_reported":1719256016,"current_range_meters":10400,"station_id":"","pricing_plan_id":"cebpf4jnsgd1na2vs0mg"},{"bike_id":"8a3dee68-befb-495c-8c53-779d24084da1","system_id":"levelo_inurba_marseille","lat":43.29708,"lon":5.36555,"is_reserved":false,"is_disabled":false,"rental_uris":{"android":"levelo://app?vid=8a3dee68-befb-495c-8c53-779d24084da1","ios":"levelo://app?vid=8a3dee68-befb-495c-8c53-779d24084da1"},"vehicle_type_id":"4","last_reported":1719256016,"current_range_meters":31600,"station_id":"ce4bgn12rcd13ifvqbt0","pricing_plan_id":"cebpf4jnsgd1na2vs0mg"},{"bike_id":"1a037b1f-ce04-499f-9a91-237730107098","system_id":"levelo_inurba_marseille","lat":43.29573,"lon":5.367355,"is_reserved":false,"is_disabled":false,"rental_uris":{"android":"levelo://app?vid=1a037b1f-ce04-499f-9a91-237730107098","ios":"levelo://app?vid=1a037b1f-ce04-499f-9a91-237730107098"},"vehicle_type_id":"4","last_reported":1719256016,"current_range_meters":30800,"station_id":"ce4bgph2rcd13ifvqc2g","pricing_plan_id":"cebpf4jnsgd1na2vs0mg"},{"bike_id":"52c0348b-a5cc-4813-a3c6-2f47ace124b9","system_id":"levelo_inurba_marseille","lat":43.309589,"lon":5.390258,"is_reserved":false,"is_disabled":false,"rental_uris":{"android":"levelo://app?vid=52c0348b-a5cc-4813-a3c6-2f47ace124b9","ios":"levelo://app?vid=52c0348b-a5cc-4813-a3c6-2f47ace124b9"},"vehicle_type_id":"4","last_reported":1719256016,"current_range_meters":1600,"station_id":"ce4bgup2rcd13ifvqco0","pricing_plan_id":"cebpf4jnsgd1na2vs0mg"},{"bike_id":"fa5588bd-8912-43b6-bea2-4abb03dcc8dc","system_id":"levelo_inurba_marseille","lat":43.309589,"lon":5.390258,"is_reserved":false,"is_disabled":false,"rental_uris":{"android":"levelo://app?vid=fa5588bd-8912-43b6-bea2-4abb03dcc8dc","ios":"levelo://app?vid=fa5588bd-8912-43b6-bea2-4abb03dcc8dc"},"vehicle_type_id":"4","last_reported":1719256016,"current_range_meters":22000,"station_id":"ce4bgup2rcd13ifvqco0","pricing_plan_id":"cebpf4jnsgd1na2vs0mg"},{"bike_id":"1a765c26-0311-47ae-9c59-617aaee96eff","system_id":"levelo_inurba_marseille","lat":43.317557,"lon":5.390173,"is_reserved":false,"is_disabled":false,"rental_uris":{"android":"levelo://app?vid=1a765c26-0311-47ae-9c59-617aaee96eff","ios":"levelo://app?vid=1a765c26-0311-47ae-9c59-617aaee96eff"},"vehicle_type_id":"4","last_reported":1719256016,"current_range_meters":2400,"station_id":"ce4bhqp2rcd13ifvqhng","pricing_plan_id":"cebpf4jnsgd1na2vs0mg"},{"bike_id":"2c57ec1f-ce24-4ef8-ab49-5cb807b19dac","system_id":"levelo_inurba_marseille","lat":43.31759,"lon":5.39015,"is_reserved":false,"is_disabled":false,"rental_uris":{"android":"levelo://app?vid=2c57ec1f-ce24-4ef8-ab49-5cb807b19dac","ios":"levelo://app?vid=2c57ec1f-ce24-4ef8-ab49-5cb807b19dac"},"vehicle_type_id":"4","last_reported":1719256016,"current_range_meters":3200,"station_id":"ce4bhqp2rcd13ifvqhng","pricing_plan_id":"cebpf4jnsgd1na2vs0mg"},{"bike_id":"0716a64d-5a41-4ee8-8234-a8ad841cd70e","system_id":"levelo_inurba_marseille","lat":43.31754,"lon":5.39022,"is_reserved":false,"is_disabled":false,"rental_uris":{"android":"levelo://app?vid=0716a64d-5a41-4ee8-8234-a8ad841cd70e","ios":"levelo://app?vid=0716a64d-5a41-4ee8-8234-a8ad841cd70e"},"vehicle_type_id":"4","last_reported":1719256016,"current_range_meters":31200,"station_id":"ce4bhqp2rcd13ifvqhng","pricing_plan_id":"cebpf4jnsgd1na2vs0mg"},{"bike_id":"a63af684-051c-4dbc-911b-14d3aa916b11","system_id":"levelo_inurba_marseille","lat":43.298037,"lon":5.381066,"is_reserved":false,"is_disabled":false,"rental_uris":{"android":"levelo://app?vid=a63af684-051c-4dbc-911b-14d3aa916b11","ios":"levelo://app?vid=a63af684-051c-4dbc-911b-14d3aa916b11"},"vehicle_type_id":"4","last_reported":1719256016,"current_range_meters":27200,"station_id":"ce4bgip2rcd13ifvqbb0","pricing_plan_id":"cebpf4jnsgd1na2vs0mg"},{"bike_id":"3ca9bbfa-cc5b-463a-9296-851206df919e","system_id":"levelo_inurba_marseille","lat":43.304274,"lon":5.388873,"is_reserved":false,"is_disabled":false,"rental_uris":{"android":"levelo://app?vid=3ca9bbfa-cc5b-463a-9296-851206df919e","ios":"levelo://app?vid=3ca9bbfa-cc5b-463a-9296-851206df919e"},"vehicle_type_id":"4","last_reported":1719256016,"current_range_meters":27200,"station_id":"ce4bgk12rcd13ifvqbi0","pricing_plan_id":"cebpf4jnsgd1na2vs0mg"},{"bike_id":"4aa7643b-bbfe-4e4f-9bd9-a40522707c80","system_id":"levelo_inurba_marseille","lat":43.296263,"lon":5.377094,"is_reserved":false,"is_disabled":false,"rental_uris":{"android":"levelo://app?vid=4aa7643b-bbfe-4e4f-9bd9-a40522707c80","ios":"levelo://app?vid=4aa7643b-bbfe-4e4f-9bd9-a40522707c80"},"vehicle_type_id":"4","last_reported":1719256016,"current_range_meters":29600,"station_id":"ce4bgi92rcd13ifvqb90","pricing_plan_id":"cebpf4jnsgd1na2vs0mg"},{"bike_id":"1e7f597c-89e9-4f34-9782-01a4e8bd1cd1","system_id":"levelo_inurba_marseille","lat":43.304278,"lon":5.388868,"is_reserved":false,"is_disabled":false,"rental_uris":{"android":"levelo://app?vid=1e7f597c-89e9-4f34-9782-01a4e8bd1cd1","ios":"levelo://app?vid=1e7f597c-89e9-4f34-9782-01a4e8bd1cd1"},"vehicle_type_id":"4","last_reported":1719256016,"current_range_meters":4800,"station_id":"ce4bgk12rcd13ifvqbi0","pricing_plan_id":"cebpf4jnsgd1na2vs0mg"},{"bike_id":"1e4de0ae-d786-4924-ae86-733f5d33a987","system_id":"levelo_inurba_marseille","lat":43.296277,"lon":5.377108,"is_reserved":false,"is_disabled":false,"rental_uris":{"android":"levelo://app?vid=1e4de0ae-d786-4924-ae86-733f5d33a987","ios":"levelo://app?vid=1e4de0ae-d786-4924-ae86-733f5d33a987"},"vehicle_type_id":"4","last_reported":1719256016,"current_range_meters":10400,"station_id":"ce4bgi92rcd13ifvqb90","pricing_plan_id":"cebpf4jnsgd1na2vs0mg"},{"bike_id":"03856fc2-9035-466c-bc14-4c7b3b8a55c3","system_id":"levelo_inurba_marseille","lat":43.29603,"lon":5.37727,"is_reserved":false,"is_disabled":false,"rental_uris":{"android":"levelo://app?vid=03856fc2-9035-466c-bc14-4c7b3b8a55c3","ios":"levelo://app?vid=03856fc2-9035-466c-bc14-4c7b3b8a55c3"},"vehicle_type_id":"4","last_reported":1719256016,"current_range_meters":22800,"station_id":"ce4bgi92rcd13ifvqb90","pricing_plan_id":"cebpf4jnsgd1na2vs0mg"},{"bike_id":"dd92a81b-2ef6-4f0d-bb52-67ec57f55d06","system_id":"levelo_inurba_marseille","lat":43.295279,"lon":5.375048,"is_reserved":false,"is_disabled":false,"rental_uris":{"android":"levelo://app?vid=dd92a81b-2ef6-4f0d-bb52-67ec57f55d06","ios":"levelo://app?vid=dd92a81b-2ef6-4f0d-bb52-67ec57f55d06"},"vehicle_type_id":"4","last_reported":1719256016,"current_range_meters":30800,"station_id":"ce4bgkp2rcd13ifvqbmg","pricing_plan_id":"cebpf4jnsgd1na2vs0mg"},{"bike_id":"c2c0355c-05bf-4ac5-a1b7-38d172a2f661","system_id":"levelo_inurba_marseille","lat":43.299707,"lon":5.384859,"is_reserved":false,"is_disabled":false,"rental_uris":{"android":"levelo://app?vid=c2c0355c-05bf-4ac5-a1b7-38d172a2f661","ios":"levelo://app?vid=c2c0355c-05bf-4ac5-a1b7-38d172a2f661"},"vehicle_type_id":"4","last_reported":1719256016,"current_range_meters":28000,"station_id":"ce4bgj92rcd13ifvqbd0","pricing_plan_id":"cebpf4jnsgd1na2vs0mg"},{"bike_id":"d06b1925-f6ba-4e20-9226-18aa6559c751","system_id":"levelo_inurba_marseille","lat":43.299707,"lon":5.384859,"is_reserved":false,"is_disabled":false,"rental_uris":{"android":"levelo://app?vid=d06b1925-f6ba-4e20-9226-18aa6559c751","ios":"levelo://app?vid=d06b1925-f6ba-4e20-9226-18aa6559c751"},"vehicle_type_id":"4","last_reported":1719256016,"current_range_meters":29600,"station_id":"ce4bgj92rcd13ifvqbd0","pricing_plan_id":"cebpf4jnsgd1na2vs0mg"},{"bike_id":"81eaf9b8-1220-45be-b1b3-a8f3129c16f7","system_id":"levelo_inurba_marseille","lat":43.299707,"lon":5.384859,"is_reserved":false,"is_disabled":false,"rental_uris":{"android":"levelo://app?vid=81eaf9b8-1220-45be-b1b3-a8f3129c16f7","ios":"levelo://app?vid=81eaf9b8-1220-45be-b1b3-a8f3129c16f7"},"vehicle_type_id":"4","last_reported":1719256016,"current_range_meters":4400,"station_id":"ce4bgj92rcd13ifvqbd0","pricing_plan_id":"cebpf4jnsgd1na2vs0mg"},{"bike_id":"c22f2841-34c0-41fb-bfa3-2d98d5afbeb9","system_id":"levelo_inurba_marseille","lat":43.299707,"lon":5.384859,"is_reserved":false,"is_disabled":false,"rental_uris":{"android":"levelo://app?vid=c22f2841-34c0-41fb-bfa3-2d98d5afbeb9","ios":"levelo://app?vid=c22f2841-34c0-41fb-bfa3-2d98d5afbeb9"},"vehicle_type_id":"4","last_reported":1719256016,"current_range_meters":3600,"station_id":"ce4bgj92rcd13ifvqbd0","pricing_plan_id":"cebpf4jnsgd1na2vs0mg"},{"bike_id":"fbcdcc28-919e-4daa-a7e4-ed37f73fa6ce","system_id":"levelo_inurba_marseille","lat":43.2997,"lon":5.38491,"is_reserved":false,"is_disabled":false,"rental_uris":{"android":"levelo://app?vid=fbcdcc28-919e-4daa-a7e4-ed37f73fa6ce","ios":"levelo://app?vid=fbcdcc28-919e-4daa-a7e4-ed37f73fa6ce"},"vehicle_type_id":"4","last_reported":1719256016,"current_range_meters":6800,"station_id":"ce4bgj92rcd13ifvqbd0","pricing_plan_id":"cebpf4jnsgd1na2vs0mg"},{"bike_id":"a312f235-93d9-48b6-9f51-3a639146dcae","system_id":"levelo_inurba_marseille","lat":43.29969,"lon":5.38492,"is_reserved":false,"is_disabled":false,"rental_uris":{"android":"levelo://app?vid=a312f235-93d9-48b6-9f51-3a639146dcae","ios":"levelo://app?vid=a312f235-93d9-48b6-9f51-3a639146dcae"},"vehicle_type_id":"4","last_reported":1719256016,"current_range_meters":26400,"station_id":"ce4bgj92rcd13ifvqbd0","pricing_plan_id":"cebpf4jnsgd1na2vs0mg"},{"bike_id":"b14540f1-86aa-41f2-9f37-e87a64468d0d","system_id":"levelo_inurba_marseille","lat":43.299724,"lon":5.384848,"is_reserved":false,"is_disabled":false,"rental_uris":{"android":"levelo://app?vid=b14540f1-86aa-41f2-9f37-e87a64468d0d","ios":"levelo://app?vid=b14540f1-86aa-41f2-9f37-e87a64468d0d"},"vehicle_type_id":"4","last_reported":1719256016,"current_range_meters":3600,"station_id":"ce4bgj92rcd13ifvqbd0","pricing_plan_id":"cebpf4jnsgd1na2vs0mg"},{"bike_id":"0a959170-3f61-4ced-9134-15b7799efedf","system_id":"levelo_inurba_marseille","lat":43.32367,"lon":5.388836,"is_reserved":false,"is_disabled":false,"rental_uris":{"android":"levelo://app?vid=0a959170-3f61-4ced-9134-15b7799efedf","ios":"levelo://app?vid=0a959170-3f61-4ced-9134-15b7799efedf"},"vehicle_type_id":"4","last_reported":1719256016,"current_range_meters":7600,"station_id":"ce4bhqp2rcd13ifvqhog","pricing_plan_id":"cebpf4jnsgd1na2vs0mg"},{"bike_id":"f412cd6c-57e1-4f70-a141-e862316589ac","system_id":"levelo_inurba_marseille","lat":43.32367,"lon":5.388836,"is_reserved":false,"is_disabled":false,"rental_uris":{"android":"levelo://app?vid=f412cd6c-57e1-4f70-a141-e862316589ac","ios":"levelo://app?vid=f412cd6c-57e1-4f70-a141-e862316589ac"},"vehicle_type_id":"4","last_reported":1719256016,"current_range_meters":3200,"station_id":"ce4bhqp2rcd13ifvqhog","pricing_plan_id":"cebpf4jnsgd1na2vs0mg"},{"bike_id":"fde3456b-dfe9-46e5-ab1d-aabfbbf2dd77","system_id":"levelo_inurba_marseille","lat":43.32367,"lon":5.388836,"is_reserved":false,"is_disabled":false,"rental_uris":{"android":"levelo://app?vid=fde3456b-dfe9-46e5-ab1d-aabfbbf2dd77","ios":"levelo://app?vid=fde3456b-dfe9-46e5-ab1d-aabfbbf2dd77"},"vehicle_type_id":"4","last_reported":1719256016,"current_range_meters":0,"station_id":"ce4bhqp2rcd13ifvqhog","pricing_plan_id":"cebpf4jnsgd1na2vs0mg"},{"bike_id":"6389a8c4-1d2f-434a-8385-00a200ddbab1","system_id":"levelo_inurba_marseille","lat":43.32367,"lon":5.388836,"is_reserved":false,"is_disabled":false,"rental_uris":{"android":"levelo://app?vid=6389a8c4-1d2f-434a-8385-00a200ddbab1","ios":"levelo://app?vid=6389a8c4-1d2f-434a-8385-00a200ddbab1"},"vehicle_type_id":"4","last_reported":1719256016,"current_range_meters":0,"station_id":"ce4bhqp2rcd13ifvqhog","pricing_plan_id":"cebpf4jnsgd1na2vs0mg"},{"bike_id":"3f054324-93aa-49da-8033-a39b62b3743d","system_id":"levelo_inurba_marseille","lat":43.32367,"lon":5.388836,"is_reserved":false,"is_disabled":false,"rental_uris":{"android":"levelo://app?vid=3f054324-93aa-49da-8033-a39b62b3743d","ios":"levelo://app?vid=3f054324-93aa-49da-8033-a39b62b3743d"},"vehicle_type_id":"4","last_reported":1719256016,"current_range_meters":21200,"station_id":"ce4bhqp2rcd13ifvqhog","pricing_plan_id":"cebpf4jnsgd1na2vs0mg"},{"bike_id":"822b94ae-a588-4bd4-a097-1556c4e0e2dd","system_id":"levelo_inurba_marseille","lat":43.32367,"lon":5.388836,"is_reserved":false,"is_disabled":false,"rental_uris":{"android":"levelo://app?vid=822b94ae-a588-4bd4-a097-1556c4e0e2dd","ios":"levelo://app?vid=822b94ae-a588-4bd4-a097-1556c4e0e2dd"},"vehicle_type_id":"4","last_reported":1719256016,"current_range_meters":23600,"station_id":"ce4bhqp2rcd13ifvqhog","pricing_plan_id":"cebpf4jnsgd1na2vs0mg"},{"bike_id":"ec6b4839-6b78-40f0-9b0e-17405fc7156d","system_id":"levelo_inurba_marseille","lat":43.32367,"lon":5.388836,"is_reserved":false,"is_disabled":false,"rental_uris":{"android":"levelo://app?vid=ec6b4839-6b78-40f0-9b0e-17405fc7156d","ios":"levelo://app?vid=ec6b4839-6b78-40f0-9b0e-17405fc7156d"},"vehicle_type_id":"4","last_reported":1719256016,"current_range_meters":0,"station_id":"ce4bhqp2rcd13ifvqhog","pricing_plan_id":"cebpf4jnsgd1na2vs0mg"},{"bike_id":"cd4142b0-d675-4cf8-8fca-358484835f32","system_id":"levelo_inurba_marseille","lat":43.29309,"lon":5.37189,"is_reserved":false,"is_disabled":false,"rental_uris":{"android":"levelo://app?vid=cd4142b0-d675-4cf8-8fca-358484835f32","ios":"levelo://app?vid=cd4142b0-d675-4cf8-8fca-358484835f32"},"vehicle_type_id":"4","last_reported":1719256016,"current_range_meters":31200,"station_id":"ce4bgh92rcd13ifvqb40","pricing_plan_id":"cebpf4jnsgd1na2vs0mg"},{"bike_id":"99d0b127-0e4a-48de-8820-848f7af0e51f","system_id":"levelo_inurba_marseille","lat":43.292749,"lon":5.368402,"is_reserved":false,"is_disabled":false,"rental_uris":{"android":"levelo://app?vid=99d0b127-0e4a-48de-8820-848f7af0e51f","ios":"levelo://app?vid=99d0b127-0e4a-48de-8820-848f7af0e51f"},"vehicle_type_id":"4","last_reported":1719256016,"current_range_meters":24800,"station_id":"ce4bhbp2rcd13ifvqesg","pricing_plan_id":"cebpf4jnsgd1na2vs0mg"},{"bike_id":"ff0164ce-1809-4a67-bc50-99137c17ae97","system_id":"levelo_inurba_marseille","lat":43.305994,"lon":5.393687,"is_reserved":false,"is_disabled":false,"rental_uris":{"android":"levelo://app?vid=ff0164ce-1809-4a67-bc50-99137c17ae97","ios":"levelo://app?vid=ff0164ce-1809-4a67-bc50-99137c17ae97"},"vehicle_type_id":"4","last_reported":1719256016,"current_range_meters":25600,"station_id":"ce4bh0p2rcd13ifvqd80","pricing_plan_id":"cebpf4jnsgd1na2vs0mg"},{"bike_id":"66a09f8f-b553-435a-9390-f6a7d7199834","system_id":"levelo_inurba_marseille","lat":43.302992,"lon":5.392136,"is_reserved":false,"is_disabled":false,"rental_uris":{"android":"levelo://app?vid=66a09f8f-b553-435a-9390-f6a7d7199834","ios":"levelo://app?vid=66a09f8f-b553-435a-9390-f6a7d7199834"},"vehicle_type_id":"4","last_reported":1719256016,"current_range_meters":5600,"station_id":"ce4bgkh2rcd13ifvqbk0","pricing_plan_id":"cebpf4jnsgd1na2vs0mg"},{"bike_id":"84f5cd08-d5eb-499f-b84d-4bb7050e231a","system_id":"levelo_inurba_marseille","lat":43.303002,"lon":5.392142,"is_reserved":false,"is_disabled":false,"rental_uris":{"android":"levelo://app?vid=84f5cd08-d5eb-499f-b84d-4bb7050e231a","ios":"levelo://app?vid=84f5cd08-d5eb-499f-b84d-4bb7050e231a"},"vehicle_type_id":"4","last_reported":1719256016,"current_range_meters":16000,"station_id":"ce4bgkh2rcd13ifvqbk0","pricing_plan_id":"cebpf4jnsgd1na2vs0mg"},{"bike_id":"ddb2602e-10e7-4c3f-8c0a-628948809c78","system_id":"levelo_inurba_marseille","lat":43.300673,"lon":5.390216,"is_reserved":false,"is_disabled":false,"rental_uris":{"android":"levelo://app?vid=ddb2602e-10e7-4c3f-8c0a-628948809c78","ios":"levelo://app?vid=ddb2602e-10e7-4c3f-8c0a-628948809c78"},"vehicle_type_id":"4","last_reported":1719256016,"current_range_meters":16000,"station_id":"","pricing_plan_id":"cebpf4jnsgd1na2vs0mg"},{"bike_id":"cd816066-5a13-4e7a-bf13-2734007df060","system_id":"levelo_inurba_marseille","lat":43.29235,"lon":5.36061,"is_reserved":false,"is_disabled":false,"rental_uris":{"android":"levelo://app?vid=cd816066-5a13-4e7a-bf13-2734007df060","ios":"levelo://app?vid=cd816066-5a13-4e7a-bf13-2734007df060"},"vehicle_type_id":"4","last_reported":1719256016,"current_range_meters":15200,"station_id":"ce4bhbh2rcd13ifvqeqg","pricing_plan_id":"cebpf4jnsgd1na2vs0mg"},{"bike_id":"19a0a709-15ed-452d-86a2-4803ec2caf82","system_id":"levelo_inurba_marseille","lat":43.292311,"lon":5.360731,"is_reserved":false,"is_disabled":false,"rental_uris":{"android":"levelo://app?vid=19a0a709-15ed-452d-86a2-4803ec2caf82","ios":"levelo://app?vid=19a0a709-15ed-452d-86a2-4803ec2caf82"},"vehicle_type_id":"4","last_reported":1719256016,"current_range_meters":12400,"station_id":"ce4bhbh2rcd13ifvqeqg","pricing_plan_id":"cebpf4jnsgd1na2vs0mg"},{"bike_id":"c42c81fb-8a26-4ad2-895a-5e283d63926c","system_id":"levelo_inurba_marseille","lat":43.2923,"lon":5.36062,"is_reserved":false,"is_disabled":false,"rental_uris":{"android":"levelo://app?vid=c42c81fb-8a26-4ad2-895a-5e283d63926c","ios":"levelo://app?vid=c42c81fb-8a26-4ad2-895a-5e283d63926c"},"vehicle_type_id":"4","last_reported":1719256016,"current_range_meters":21200,"station_id":"ce4bhbh2rcd13ifvqeqg","pricing_plan_id":"cebpf4jnsgd1na2vs0mg"},{"bike_id":"c75ebd16-8814-401d-9877-ac5460e9f43a","system_id":"levelo_inurba_marseille","lat":43.30085,"lon":5.390856,"is_reserved":false,"is_disabled":false,"rental_uris":{"android":"levelo://app?vid=c75ebd16-8814-401d-9877-ac5460e9f43a","ios":"levelo://app?vid=c75ebd16-8814-401d-9877-ac5460e9f43a"},"vehicle_type_id":"4","last_reported":1719256016,"current_range_meters":13600,"station_id":"ce4bh192rcd13ifvqdb0","pricing_plan_id":"cebpf4jnsgd1na2vs0mg"},{"bike_id":"03095339-f526-4079-b031-19fc99897713","system_id":"levelo_inurba_marseille","lat":43.2923,"lon":5.36046,"is_reserved":false,"is_disabled":false,"rental_uris":{"android":"levelo://app?vid=03095339-f526-4079-b031-19fc99897713","ios":"levelo://app?vid=03095339-f526-4079-b031-19fc99897713"},"vehicle_type_id":"4","last_reported":1719256016,"current_range_meters":16800,"station_id":"ce4bhbh2rcd13ifvqeqg","pricing_plan_id":"cebpf4jnsgd1na2vs0mg"},{"bike_id":"7ae5249f-3a2d-4045-a658-df58d5ffd4f8","system_id":"levelo_inurba_marseille","lat":43.29358,"lon":5.37868,"is_reserved":false,"is_disabled":false,"rental_uris":{"android":"levelo://app?vid=7ae5249f-3a2d-4045-a658-df58d5ffd4f8","ios":"levelo://app?vid=7ae5249f-3a2d-4045-a658-df58d5ffd4f8"},"vehicle_type_id":"4","last_reported":1719256016,"current_range_meters":2000,"station_id":"","pricing_plan_id":"cebpf4jnsgd1na2vs0mg"},{"bike_id":"adfd5a2e-88e5-4a30-9c4e-cad11561ad9e","system_id":"levelo_inurba_marseille","lat":43.29226,"lon":5.3606,"is_reserved":false,"is_disabled":false,"rental_uris":{"android":"levelo://app?vid=adfd5a2e-88e5-4a30-9c4e-cad11561ad9e","ios":"levelo://app?vid=adfd5a2e-88e5-4a30-9c4e-cad11561ad9e"},"vehicle_type_id":"4","last_reported":1719256016,"current_range_meters":18800,"station_id":"ce4bhbh2rcd13ifvqeqg","pricing_plan_id":"cebpf4jnsgd1na2vs0mg"},{"bike_id":"f0441fd8-fe81-4e35-8b75-64e25cf720e3","system_id":"levelo_inurba_marseille","lat":43.30085,"lon":5.3907,"is_reserved":false,"is_disabled":false,"rental_uris":{"android":"levelo://app?vid=f0441fd8-fe81-4e35-8b75-64e25cf720e3","ios":"levelo://app?vid=f0441fd8-fe81-4e35-8b75-64e25cf720e3"},"vehicle_type_id":"4","last_reported":1719256016,"current_range_meters":13600,"station_id":"ce4bh192rcd13ifvqdb0","pricing_plan_id":"cebpf4jnsgd1na2vs0mg"},{"bike_id":"313251c9-7609-4dbb-b600-99ce333c21b7","system_id":"levelo_inurba_marseille","lat":43.29225,"lon":5.36057,"is_reserved":false,"is_disabled":false,"rental_uris":{"android":"levelo://app?vid=313251c9-7609-4dbb-b600-99ce333c21b7","ios":"levelo://app?vid=313251c9-7609-4dbb-b600-99ce333c21b7"},"vehicle_type_id":"4","last_reported":1719256016,"current_range_meters":31200,"station_id":"ce4bhbh2rcd13ifvqeqg","pricing_plan_id":"cebpf4jnsgd1na2vs0mg"},{"bike_id":"16a43026-dc7c-4602-8df0-b91a93f7eee0","system_id":"levelo_inurba_marseille","lat":43.300917,"lon":5.390797,"is_reserved":false,"is_disabled":false,"rental_uris":{"android":"levelo://app?vid=16a43026-dc7c-4602-8df0-b91a93f7eee0","ios":"levelo://app?vid=16a43026-dc7c-4602-8df0-b91a93f7eee0"},"vehicle_type_id":"4","last_reported":1719256016,"current_range_meters":2800,"station_id":"ce4bh192rcd13ifvqdb0","pricing_plan_id":"cebpf4jnsgd1na2vs0mg"},{"bike_id":"21a95039-af59-4d2c-ba84-b700667006e5","system_id":"levelo_inurba_marseille","lat":43.30085,"lon":5.390856,"is_reserved":false,"is_disabled":false,"rental_uris":{"android":"levelo://app?vid=21a95039-af59-4d2c-ba84-b700667006e5","ios":"levelo://app?vid=21a95039-af59-4d2c-ba84-b700667006e5"},"vehicle_type_id":"4","last_reported":1719256016,"current_range_meters":31200,"station_id":"ce4bh192rcd13ifvqdb0","pricing_plan_id":"cebpf4jnsgd1na2vs0mg"},{"bike_id":"5c7a1af4-0c4f-4064-91e0-d7d28b8f7f5f","system_id":"levelo_inurba_marseille","lat":43.29223,"lon":5.36052,"is_reserved":false,"is_disabled":false,"rental_uris":{"android":"levelo://app?vid=5c7a1af4-0c4f-4064-91e0-d7d28b8f7f5f","ios":"levelo://app?vid=5c7a1af4-0c4f-4064-91e0-d7d28b8f7f5f"},"vehicle_type_id":"4","last_reported":1719256016,"current_range_meters":11600,"station_id":"ce4bhbh2rcd13ifvqeqg","pricing_plan_id":"cebpf4jnsgd1na2vs0mg"},{"bike_id":"5a3f5eaf-de96-4b67-b4a6-59f7fece59e0","system_id":"levelo_inurba_marseille","lat":43.30085,"lon":5.390856,"is_reserved":false,"is_disabled":false,"rental_uris":{"android":"levelo://app?vid=5a3f5eaf-de96-4b67-b4a6-59f7fece59e0","ios":"levelo://app?vid=5a3f5eaf-de96-4b67-b4a6-59f7fece59e0"},"vehicle_type_id":"4","last_reported":1719256016,"current_range_meters":31200,"station_id":"ce4bh192rcd13ifvqdb0","pricing_plan_id":"cebpf4jnsgd1na2vs0mg"},{"bike_id":"c96bb2fc-409f-456a-a748-0168c1645aed","system_id":"levelo_inurba_marseille","lat":43.29219,"lon":5.36041,"is_reserved":false,"is_disabled":false,"rental_uris":{"android":"levelo://app?vid=c96bb2fc-409f-456a-a748-0168c1645aed","ios":"levelo://app?vid=c96bb2fc-409f-456a-a748-0168c1645aed"},"vehicle_type_id":"4","last_reported":1719256016,"current_range_meters":25200,"station_id":"ce4bhbh2rcd13ifvqeqg","pricing_plan_id":"cebpf4jnsgd1na2vs0mg"},{"bike_id":"c943cc75-ee3a-4598-8f31-99ab8e4e69ed","system_id":"levelo_inurba_marseille","lat":43.303698,"lon":5.393226,"is_reserved":false,"is_disabled":false,"rental_uris":{"android":"levelo://app?vid=c943cc75-ee3a-4598-8f31-99ab8e4e69ed","ios":"levelo://app?vid=c943cc75-ee3a-4598-8f31-99ab8e4e69ed"},"vehicle_type_id":"4","last_reported":1719256016,"current_range_meters":0,"station_id":"","pricing_plan_id":"cebpf4jnsgd1na2vs0mg"},{"bike_id":"c22fb428-5673-4779-9a4e-a97025d7d92b","system_id":"levelo_inurba_marseille","lat":43.298764,"lon":5.388973,"is_reserved":false,"is_disabled":false,"rental_uris":{"android":"levelo://app?vid=c22fb428-5673-4779-9a4e-a97025d7d92b","ios":"levelo://app?vid=c22fb428-5673-4779-9a4e-a97025d7d92b"},"vehicle_type_id":"4","last_reported":1719256016,"current_range_meters":19600,"station_id":"ce4bh392rcd13ifvqdl0","pricing_plan_id":"cebpf4jnsgd1na2vs0mg"},{"bike_id":"0bfe0cd3-8bf9-46dc-aab5-7707031c0dad","system_id":"levelo_inurba_marseille","lat":43.29878,"lon":5.38905,"is_reserved":false,"is_disabled":false,"rental_uris":{"android":"levelo://app?vid=0bfe0cd3-8bf9-46dc-aab5-7707031c0dad","ios":"levelo://app?vid=0bfe0cd3-8bf9-46dc-aab5-7707031c0dad"},"vehicle_type_id":"4","last_reported":1719256016,"current_range_meters":31200,"station_id":"ce4bh392rcd13ifvqdl0","pricing_plan_id":"cebpf4jnsgd1na2vs0mg"},{"bike_id":"f4a5da99-249f-4627-9c85-c9b7bda7aae3","system_id":"levelo_inurba_marseille","lat":43.30085,"lon":5.390856,"is_reserved":false,"is_disabled":false,"rental_uris":{"android":"levelo://app?vid=f4a5da99-249f-4627-9c85-c9b7bda7aae3","ios":"levelo://app?vid=f4a5da99-249f-4627-9c85-c9b7bda7aae3"},"vehicle_type_id":"4","last_reported":1719256016,"current_range_meters":30400,"station_id":"ce4bh192rcd13ifvqdb0","pricing_plan_id":"cebpf4jnsgd1na2vs0mg"},{"bike_id":"bbd805a8-b1c2-46e4-99de-33947ad20307","system_id":"levelo_inurba_marseille","lat":43.291994,"lon":5.357886,"is_reserved":false,"is_disabled":false,"rental_uris":{"android":"levelo://app?vid=bbd805a8-b1c2-46e4-99de-33947ad20307","ios":"levelo://app?vid=bbd805a8-b1c2-46e4-99de-33947ad20307"},"vehicle_type_id":"4","last_reported":1719256016,"current_range_meters":26400,"station_id":"ce4bhb12rcd13ifvqel0","pricing_plan_id":"cebpf4jnsgd1na2vs0mg"},{"bike_id":"77aba3e0-f467-4c6b-a279-7d680c2d6190","system_id":"levelo_inurba_marseille","lat":43.31328,"lon":5.39689,"is_reserved":false,"is_disabled":false,"rental_uris":{"android":"levelo://app?vid=77aba3e0-f467-4c6b-a279-7d680c2d6190","ios":"levelo://app?vid=77aba3e0-f467-4c6b-a279-7d680c2d6190"},"vehicle_type_id":"4","last_reported":1719256016,"current_range_meters":21600,"station_id":"","pricing_plan_id":"cebpf4jnsgd1na2vs0mg"},{"bike_id":"5c414882-fd22-4937-b6aa-b5e4a2621bf3","system_id":"levelo_inurba_marseille","lat":43.313291,"lon":5.396838,"is_reserved":false,"is_disabled":false,"rental_uris":{"android":"levelo://app?vid=5c414882-fd22-4937-b6aa-b5e4a2621bf3","ios":"levelo://app?vid=5c414882-fd22-4937-b6aa-b5e4a2621bf3"},"vehicle_type_id":"4","last_reported":1719256016,"current_range_meters":18400,"station_id":"ce4bgvp2rcd13ifvqcu0","pricing_plan_id":"cebpf4jnsgd1na2vs0mg"},{"bike_id":"66150449-bab2-43bd-901b-acac75a15fda","system_id":"levelo_inurba_marseille","lat":43.313291,"lon":5.396838,"is_reserved":false,"is_disabled":false,"rental_uris":{"android":"levelo://app?vid=66150449-bab2-43bd-901b-acac75a15fda","ios":"levelo://app?vid=66150449-bab2-43bd-901b-acac75a15fda"},"vehicle_type_id":"4","last_reported":1719256016,"current_range_meters":5600,"station_id":"ce4bgvp2rcd13ifvqcu0","pricing_plan_id":"cebpf4jnsgd1na2vs0mg"},{"bike_id":"9432f900-1e2a-472d-b9c4-6183f9cffbad","system_id":"levelo_inurba_marseille","lat":43.309038,"lon":5.396546,"is_reserved":false,"is_disabled":false,"rental_uris":{"android":"levelo://app?vid=9432f900-1e2a-472d-b9c4-6183f9cffbad","ios":"levelo://app?vid=9432f900-1e2a-472d-b9c4-6183f9cffbad"},"vehicle_type_id":"4","last_reported":1719256016,"current_range_meters":2800,"station_id":"ce4bh012rcd13ifvqcv0","pricing_plan_id":"cebpf4jnsgd1na2vs0mg"},{"bike_id":"fa8aa5e4-1397-4cf1-9112-0cb564dc4089","system_id":"levelo_inurba_marseille","lat":43.29529,"lon":5.385581,"is_reserved":false,"is_disabled":false,"rental_uris":{"android":"levelo://app?vid=fa8aa5e4-1397-4cf1-9112-0cb564dc4089","ios":"levelo://app?vid=fa8aa5e4-1397-4cf1-9112-0cb564dc4089"},"vehicle_type_id":"4","last_reported":1719256016,"current_range_meters":31200,"station_id":"ce4bgih2rcd13ifvqba0","pricing_plan_id":"cebpf4jnsgd1na2vs0mg"},{"bike_id":"27528ec3-e8d3-4243-9952-cb9b08952ca8","system_id":"levelo_inurba_marseille","lat":43.29529,"lon":5.385581,"is_reserved":false,"is_disabled":false,"rental_uris":{"android":"levelo://app?vid=27528ec3-e8d3-4243-9952-cb9b08952ca8","ios":"levelo://app?vid=27528ec3-e8d3-4243-9952-cb9b08952ca8"},"vehicle_type_id":"4","last_reported":1719256016,"current_range_meters":12400,"station_id":"ce4bgih2rcd13ifvqba0","pricing_plan_id":"cebpf4jnsgd1na2vs0mg"},{"bike_id":"33347114-bd16-4611-ae43-baf9688576e5","system_id":"levelo_inurba_marseille","lat":43.290779,"lon":5.371482,"is_reserved":false,"is_disabled":false,"rental_uris":{"android":"levelo://app?vid=33347114-bd16-4611-ae43-baf9688576e5","ios":"levelo://app?vid=33347114-bd16-4611-ae43-baf9688576e5"},"vehicle_type_id":"4","last_reported":1719256016,"current_range_meters":23600,"station_id":"ce4bh5p2rcd13ifvqe4g","pricing_plan_id":"cebpf4jnsgd1na2vs0mg"},{"bike_id":"0359eb08-8b38-41c7-ab82-778f965993e6","system_id":"levelo_inurba_marseille","lat":43.302008,"lon":5.394694,"is_reserved":false,"is_disabled":false,"rental_uris":{"android":"levelo://app?vid=0359eb08-8b38-41c7-ab82-778f965993e6","ios":"levelo://app?vid=0359eb08-8b38-41c7-ab82-778f965993e6"},"vehicle_type_id":"4","last_reported":1719256016,"current_range_meters":23200,"station_id":"ce4bh0p2rcd13ifvqd70","pricing_plan_id":"cebpf4jnsgd1na2vs0mg"},{"bike_id":"0bacca89-a982-4b25-b6e9-513b5d0ad9de","system_id":"levelo_inurba_marseille","lat":43.290631,"lon":5.359244,"is_reserved":false,"is_disabled":false,"rental_uris":{"android":"levelo://app?vid=0bacca89-a982-4b25-b6e9-513b5d0ad9de","ios":"levelo://app?vid=0bacca89-a982-4b25-b6e9-513b5d0ad9de"},"vehicle_type_id":"4","last_reported":1719256016,"current_range_meters":12800,"station_id":"ce4bha92rcd13ifvqeg0","pricing_plan_id":"cebpf4jnsgd1na2vs0mg"},{"bike_id":"0070f295-95e7-41ae-9c78-c5d3c2bda5ac","system_id":"levelo_inurba_marseille","lat":43.294153,"lon":5.386305,"is_reserved":false,"is_disabled":false,"rental_uris":{"android":"levelo://app?vid=0070f295-95e7-41ae-9c78-c5d3c2bda5ac","ios":"levelo://app?vid=0070f295-95e7-41ae-9c78-c5d3c2bda5ac"},"vehicle_type_id":"4","last_reported":1719256016,"current_range_meters":0,"station_id":"ce4bh2h2rcd13ifvqdh0","pricing_plan_id":"cebpf4jnsgd1na2vs0mg"},{"bike_id":"9f6149e3-128d-4f40-89ce-614e8a192a3c","system_id":"levelo_inurba_marseille","lat":43.290327,"lon":5.375711,"is_reserved":false,"is_disabled":false,"rental_uris":{"android":"levelo://app?vid=9f6149e3-128d-4f40-89ce-614e8a192a3c","ios":"levelo://app?vid=9f6149e3-128d-4f40-89ce-614e8a192a3c"},"vehicle_type_id":"4","last_reported":1719256016,"current_range_meters":5600,"station_id":"ce4bh692rcd13ifvqe90","pricing_plan_id":"cebpf4jnsgd1na2vs0mg"},{"bike_id":"e7541119-d927-43db-b29c-b303848603d6","system_id":"levelo_inurba_marseille","lat":43.294162,"lon":5.386292,"is_reserved":false,"is_disabled":false,"rental_uris":{"android":"levelo://app?vid=e7541119-d927-43db-b29c-b303848603d6","ios":"levelo://app?vid=e7541119-d927-43db-b29c-b303848603d6"},"vehicle_type_id":"4","last_reported":1719256016,"current_range_meters":0,"station_id":"ce4bh2h2rcd13ifvqdh0","pricing_plan_id":"cebpf4jnsgd1na2vs0mg"},{"bike_id":"ac1efae7-6d97-4dfc-a5dd-b64dddbf1ea5","system_id":"levelo_inurba_marseille","lat":43.294162,"lon":5.386292,"is_reserved":false,"is_disabled":false,"rental_uris":{"android":"levelo://app?vid=ac1efae7-6d97-4dfc-a5dd-b64dddbf1ea5","ios":"levelo://app?vid=ac1efae7-6d97-4dfc-a5dd-b64dddbf1ea5"},"vehicle_type_id":"4","last_reported":1719256016,"current_range_meters":5200,"station_id":"ce4bh2h2rcd13ifvqdh0","pricing_plan_id":"cebpf4jnsgd1na2vs0mg"},{"bike_id":"24cc7486-59b9-4961-a0df-2b4ad7ff0c42","system_id":"levelo_inurba_marseille","lat":43.294153,"lon":5.386305,"is_reserved":false,"is_disabled":false,"rental_uris":{"android":"levelo://app?vid=24cc7486-59b9-4961-a0df-2b4ad7ff0c42","ios":"levelo://app?vid=24cc7486-59b9-4961-a0df-2b4ad7ff0c42"},"vehicle_type_id":"4","last_reported":1719256016,"current_range_meters":11600,"station_id":"ce4bh2h2rcd13ifvqdh0","pricing_plan_id":"cebpf4jnsgd1na2vs0mg"},{"bike_id":"5ec72fea-9985-48c0-bd03-1d5023bc2cc8","system_id":"levelo_inurba_marseille","lat":43.290319,"lon":5.375732,"is_reserved":false,"is_disabled":false,"rental_uris":{"android":"levelo://app?vid=5ec72fea-9985-48c0-bd03-1d5023bc2cc8","ios":"levelo://app?vid=5ec72fea-9985-48c0-bd03-1d5023bc2cc8"},"vehicle_type_id":"4","last_reported":1719256016,"current_range_meters":12800,"station_id":"ce4bh692rcd13ifvqe90","pricing_plan_id":"cebpf4jnsgd1na2vs0mg"},{"bike_id":"05efa3e0-481e-47f6-b079-bb40f2204c96","system_id":"levelo_inurba_marseille","lat":43.294153,"lon":5.386305,"is_reserved":false,"is_disabled":false,"rental_uris":{"android":"levelo://app?vid=05efa3e0-481e-47f6-b079-bb40f2204c96","ios":"levelo://app?vid=05efa3e0-481e-47f6-b079-bb40f2204c96"},"vehicle_type_id":"4","last_reported":1719256016,"current_range_meters":7600,"station_id":"ce4bh2h2rcd13ifvqdh0","pricing_plan_id":"cebpf4jnsgd1na2vs0mg"},{"bike_id":"dbbdd1f8-f17f-484e-a9ea-0f724b423b64","system_id":"levelo_inurba_marseille","lat":43.28941,"lon":5.36636,"is_reserved":false,"is_disabled":false,"rental_uris":{"android":"levelo://app?vid=dbbdd1f8-f17f-484e-a9ea-0f724b423b64","ios":"levelo://app?vid=dbbdd1f8-f17f-484e-a9ea-0f724b423b64"},"vehicle_type_id":"4","last_reported":1719256016,"current_range_meters":29200,"station_id":"ce4bhap2rcd13ifvqek0","pricing_plan_id":"cebpf4jnsgd1na2vs0mg"},{"bike_id":"f49df3b6-8e7d-462d-9e6f-216c833b5a0f","system_id":"levelo_inurba_marseille","lat":43.289184,"lon":5.366408,"is_reserved":false,"is_disabled":false,"rental_uris":{"android":"levelo://app?vid=f49df3b6-8e7d-462d-9e6f-216c833b5a0f","ios":"levelo://app?vid=f49df3b6-8e7d-462d-9e6f-216c833b5a0f"},"vehicle_type_id":"4","last_reported":1719256016,"current_range_meters":800,"station_id":"ce4bhap2rcd13ifvqek0","pricing_plan_id":"cebpf4jnsgd1na2vs0mg"},{"bike_id":"1c814516-8fa2-4687-ae04-2d8faa30af4a","system_id":"levelo_inurba_marseille","lat":43.28939,"lon":5.36636,"is_reserved":false,"is_disabled":false,"rental_uris":{"android":"levelo://app?vid=1c814516-8fa2-4687-ae04-2d8faa30af4a","ios":"levelo://app?vid=1c814516-8fa2-4687-ae04-2d8faa30af4a"},"vehicle_type_id":"4","last_reported":1719256016,"current_range_meters":0,"station_id":"ce4bhap2rcd13ifvqek0","pricing_plan_id":"cebpf4jnsgd1na2vs0mg"},{"bike_id":"afdaeba9-573a-41b2-a992-66f2b43f8d89","system_id":"levelo_inurba_marseille","lat":43.289468,"lon":5.363719,"is_reserved":false,"is_disabled":false,"rental_uris":{"android":"levelo://app?vid=afdaeba9-573a-41b2-a992-66f2b43f8d89","ios":"levelo://app?vid=afdaeba9-573a-41b2-a992-66f2b43f8d89"},"vehicle_type_id":"4","last_reported":1719256016,"current_range_meters":10800,"station_id":"ce4bhc92rcd13ifvqetg","pricing_plan_id":"cebpf4jnsgd1na2vs0mg"},{"bike_id":"9f7c2954-b9e3-415c-8ae3-136cd9d9397f","system_id":"levelo_inurba_marseille","lat":43.28938,"lon":5.36638,"is_reserved":false,"is_disabled":false,"rental_uris":{"android":"levelo://app?vid=9f7c2954-b9e3-415c-8ae3-136cd9d9397f","ios":"levelo://app?vid=9f7c2954-b9e3-415c-8ae3-136cd9d9397f"},"vehicle_type_id":"4","last_reported":1719256016,"current_range_meters":12800,"station_id":"ce4bhap2rcd13ifvqek0","pricing_plan_id":"cebpf4jnsgd1na2vs0mg"},{"bike_id":"f99f23c3-83d9-4401-a22b-758e465bc9bc","system_id":"levelo_inurba_marseille","lat":43.28937,"lon":5.36641,"is_reserved":false,"is_disabled":false,"rental_uris":{"android":"levelo://app?vid=f99f23c3-83d9-4401-a22b-758e465bc9bc","ios":"levelo://app?vid=f99f23c3-83d9-4401-a22b-758e465bc9bc"},"vehicle_type_id":"4","last_reported":1719256016,"current_range_meters":16800,"station_id":"ce4bhap2rcd13ifvqek0","pricing_plan_id":"cebpf4jnsgd1na2vs0mg"},{"bike_id":"22f99c39-d259-4ab5-aea2-396e3509d085","system_id":"levelo_inurba_marseille","lat":43.289184,"lon":5.366408,"is_reserved":false,"is_disabled":false,"rental_uris":{"android":"levelo://app?vid=22f99c39-d259-4ab5-aea2-396e3509d085","ios":"levelo://app?vid=22f99c39-d259-4ab5-aea2-396e3509d085"},"vehicle_type_id":"4","last_reported":1719256016,"current_range_meters":7600,"station_id":"ce4bhap2rcd13ifvqek0","pricing_plan_id":"cebpf4jnsgd1na2vs0mg"},{"bike_id":"3f3aca60-0293-4c16-a1ba-e0ffc69c5cf3","system_id":"levelo_inurba_marseille","lat":43.289184,"lon":5.366408,"is_reserved":false,"is_disabled":false,"rental_uris":{"android":"levelo://app?vid=3f3aca60-0293-4c16-a1ba-e0ffc69c5cf3","ios":"levelo://app?vid=3f3aca60-0293-4c16-a1ba-e0ffc69c5cf3"},"vehicle_type_id":"4","last_reported":1719256016,"current_range_meters":25200,"station_id":"ce4bhap2rcd13ifvqek0","pricing_plan_id":"cebpf4jnsgd1na2vs0mg"},{"bike_id":"27d7cb01-1993-43bc-a27c-bac38e9ac506","system_id":"levelo_inurba_marseille","lat":43.289468,"lon":5.363719,"is_reserved":false,"is_disabled":false,"rental_uris":{"android":"levelo://app?vid=27d7cb01-1993-43bc-a27c-bac38e9ac506","ios":"levelo://app?vid=27d7cb01-1993-43bc-a27c-bac38e9ac506"},"vehicle_type_id":"4","last_reported":1719256016,"current_range_meters":31200,"station_id":"ce4bhc92rcd13ifvqetg","pricing_plan_id":"cebpf4jnsgd1na2vs0mg"},{"bike_id":"174ca024-c270-48dd-99bd-63a463fd965e","system_id":"levelo_inurba_marseille","lat":43.290104,"lon":5.356111,"is_reserved":false,"is_disabled":false,"rental_uris":{"android":"levelo://app?vid=174ca024-c270-48dd-99bd-63a463fd965e","ios":"levelo://app?vid=174ca024-c270-48dd-99bd-63a463fd965e"},"vehicle_type_id":"4","last_reported":1719256016,"current_range_meters":6000,"station_id":"ce4bhb92rcd13ifvqen0","pricing_plan_id":"cebpf4jnsgd1na2vs0mg"},{"bike_id":"80e495cd-2cb2-4eb3-b5db-4822905071b8","system_id":"levelo_inurba_marseille","lat":43.30322,"lon":5.396853,"is_reserved":false,"is_disabled":false,"rental_uris":{"android":"levelo://app?vid=80e495cd-2cb2-4eb3-b5db-4822905071b8","ios":"levelo://app?vid=80e495cd-2cb2-4eb3-b5db-4822905071b8"},"vehicle_type_id":"4","last_reported":1719256016,"current_range_meters":0,"station_id":"","pricing_plan_id":"cebpf4jnsgd1na2vs0mg"},{"bike_id":"f289595d-3600-434f-82f5-7f3a46c4849f","system_id":"levelo_inurba_marseille","lat":43.29266,"lon":5.38443,"is_reserved":false,"is_disabled":false,"rental_uris":{"android":"levelo://app?vid=f289595d-3600-434f-82f5-7f3a46c4849f","ios":"levelo://app?vid=f289595d-3600-434f-82f5-7f3a46c4849f"},"vehicle_type_id":"4","last_reported":1719256016,"current_range_meters":18800,"station_id":"ce4bh692rcd13ifvqea0","pricing_plan_id":"cebpf4jnsgd1na2vs0mg"},{"bike_id":"9e1db539-9737-4c69-875e-77886b4ad03d","system_id":"levelo_inurba_marseille","lat":43.304296,"lon":5.397513,"is_reserved":false,"is_disabled":false,"rental_uris":{"android":"levelo://app?vid=9e1db539-9737-4c69-875e-77886b4ad03d","ios":"levelo://app?vid=9e1db539-9737-4c69-875e-77886b4ad03d"},"vehicle_type_id":"4","last_reported":1719256016,"current_range_meters":18400,"station_id":"ce4bh092rcd13ifvqd20","pricing_plan_id":"cebpf4jnsgd1na2vs0mg"},{"bike_id":"5fd7b4e5-a99f-4a05-ba74-834a234a82e0","system_id":"levelo_inurba_marseille","lat":43.292642,"lon":5.384254,"is_reserved":false,"is_disabled":false,"rental_uris":{"android":"levelo://app?vid=5fd7b4e5-a99f-4a05-ba74-834a234a82e0","ios":"levelo://app?vid=5fd7b4e5-a99f-4a05-ba74-834a234a82e0"},"vehicle_type_id":"4","last_reported":1719256016,"current_range_meters":12400,"station_id":"ce4bh692rcd13ifvqea0","pricing_plan_id":"cebpf4jnsgd1na2vs0mg"},{"bike_id":"78685706-ccd2-4765-917c-06391394f187","system_id":"levelo_inurba_marseille","lat":43.292644,"lon":5.384257,"is_reserved":false,"is_disabled":false,"rental_uris":{"android":"levelo://app?vid=78685706-ccd2-4765-917c-06391394f187","ios":"levelo://app?vid=78685706-ccd2-4765-917c-06391394f187"},"vehicle_type_id":"4","last_reported":1719256016,"current_range_meters":23600,"station_id":"ce4bh692rcd13ifvqea0","pricing_plan_id":"cebpf4jnsgd1na2vs0mg"},{"bike_id":"c2849ffe-3b8b-4123-9879-8defd26cfbbe","system_id":"levelo_inurba_marseille","lat":43.292644,"lon":5.384257,"is_reserved":false,"is_disabled":false,"rental_uris":{"android":"levelo://app?vid=c2849ffe-3b8b-4123-9879-8defd26cfbbe","ios":"levelo://app?vid=c2849ffe-3b8b-4123-9879-8defd26cfbbe"},"vehicle_type_id":"4","last_reported":1719256016,"current_range_meters":30800,"station_id":"ce4bh692rcd13ifvqea0","pricing_plan_id":"cebpf4jnsgd1na2vs0mg"},{"bike_id":"3e22f825-b90b-4425-bc9f-aef92957c318","system_id":"levelo_inurba_marseille","lat":43.290104,"lon":5.356111,"is_reserved":false,"is_disabled":false,"rental_uris":{"android":"levelo://app?vid=3e22f825-b90b-4425-bc9f-aef92957c318","ios":"levelo://app?vid=3e22f825-b90b-4425-bc9f-aef92957c318"},"vehicle_type_id":"4","last_reported":1719256016,"current_range_meters":0,"station_id":"ce4bhb92rcd13ifvqen0","pricing_plan_id":"cebpf4jnsgd1na2vs0mg"},{"bike_id":"13737bac-0ea7-4fa9-8dd3-80d0bb714eed","system_id":"levelo_inurba_marseille","lat":43.290104,"lon":5.356111,"is_reserved":false,"is_disabled":false,"rental_uris":{"android":"levelo://app?vid=13737bac-0ea7-4fa9-8dd3-80d0bb714eed","ios":"levelo://app?vid=13737bac-0ea7-4fa9-8dd3-80d0bb714eed"},"vehicle_type_id":"4","last_reported":1719256016,"current_range_meters":14400,"station_id":"ce4bhb92rcd13ifvqen0","pricing_plan_id":"cebpf4jnsgd1na2vs0mg"},{"bike_id":"d4d085d4-05a4-4537-b072-a0ca36acb737","system_id":"levelo_inurba_marseille","lat":43.290103,"lon":5.356114,"is_reserved":false,"is_disabled":false,"rental_uris":{"android":"levelo://app?vid=d4d085d4-05a4-4537-b072-a0ca36acb737","ios":"levelo://app?vid=d4d085d4-05a4-4537-b072-a0ca36acb737"},"vehicle_type_id":"4","last_reported":1719256016,"current_range_meters":19600,"station_id":"ce4bhb92rcd13ifvqen0","pricing_plan_id":"cebpf4jnsgd1na2vs0mg"},{"bike_id":"bbb72d4d-fefe-41eb-bdf3-6a7cbf01f039","system_id":"levelo_inurba_marseille","lat":43.290104,"lon":5.356111,"is_reserved":false,"is_disabled":false,"rental_uris":{"android":"levelo://app?vid=bbb72d4d-fefe-41eb-bdf3-6a7cbf01f039","ios":"levelo://app?vid=bbb72d4d-fefe-41eb-bdf3-6a7cbf01f039"},"vehicle_type_id":"4","last_reported":1719256016,"current_range_meters":12400,"station_id":"ce4bhb92rcd13ifvqen0","pricing_plan_id":"cebpf4jnsgd1na2vs0mg"},{"bike_id":"f812db54-7626-4c97-ab38-37eabc2ebe5b","system_id":"levelo_inurba_marseille","lat":43.290103,"lon":5.356114,"is_reserved":false,"is_disabled":false,"rental_uris":{"android":"levelo://app?vid=f812db54-7626-4c97-ab38-37eabc2ebe5b","ios":"levelo://app?vid=f812db54-7626-4c97-ab38-37eabc2ebe5b"},"vehicle_type_id":"4","last_reported":1719256016,"current_range_meters":16800,"station_id":"ce4bhb92rcd13ifvqen0","pricing_plan_id":"cebpf4jnsgd1na2vs0mg"},{"bike_id":"f1b53b4f-5fc1-4246-99f2-f1142a42a300","system_id":"levelo_inurba_marseille","lat":43.290104,"lon":5.356111,"is_reserved":false,"is_disabled":false,"rental_uris":{"android":"levelo://app?vid=f1b53b4f-5fc1-4246-99f2-f1142a42a300","ios":"levelo://app?vid=f1b53b4f-5fc1-4246-99f2-f1142a42a300"},"vehicle_type_id":"4","last_reported":1719256016,"current_range_meters":0,"station_id":"ce4bhb92rcd13ifvqen0","pricing_plan_id":"cebpf4jnsgd1na2vs0mg"},{"bike_id":"5fe99254-b95a-4465-a0fe-06dddcbab23b","system_id":"levelo_inurba_marseille","lat":43.290104,"lon":5.356111,"is_reserved":false,"is_disabled":false,"rental_uris":{"android":"levelo://app?vid=5fe99254-b95a-4465-a0fe-06dddcbab23b","ios":"levelo://app?vid=5fe99254-b95a-4465-a0fe-06dddcbab23b"},"vehicle_type_id":"4","last_reported":1719256016,"current_range_meters":29600,"station_id":"ce4bhb92rcd13ifvqen0","pricing_plan_id":"cebpf4jnsgd1na2vs0mg"},{"bike_id":"e044c519-be6e-401f-8c5b-9ce246abec1f","system_id":"levelo_inurba_marseille","lat":43.290104,"lon":5.356111,"is_reserved":false,"is_disabled":false,"rental_uris":{"android":"levelo://app?vid=e044c519-be6e-401f-8c5b-9ce246abec1f","ios":"levelo://app?vid=e044c519-be6e-401f-8c5b-9ce246abec1f"},"vehicle_type_id":"4","last_reported":1719256016,"current_range_meters":1200,"station_id":"ce4bhb92rcd13ifvqen0","pricing_plan_id":"cebpf4jnsgd1na2vs0mg"},{"bike_id":"aa5ed15c-88ce-4462-92aa-cdf5215965d0","system_id":"levelo_inurba_marseille","lat":43.290104,"lon":5.356111,"is_reserved":false,"is_disabled":false,"rental_uris":{"android":"levelo://app?vid=aa5ed15c-88ce-4462-92aa-cdf5215965d0","ios":"levelo://app?vid=aa5ed15c-88ce-4462-92aa-cdf5215965d0"},"vehicle_type_id":"4","last_reported":1719256016,"current_range_meters":18000,"station_id":"ce4bhb92rcd13ifvqen0","pricing_plan_id":"cebpf4jnsgd1na2vs0mg"},{"bike_id":"16fc988b-d220-485c-bed2-dcf08355ad48","system_id":"levelo_inurba_marseille","lat":43.290104,"lon":5.356111,"is_reserved":false,"is_disabled":false,"rental_uris":{"android":"levelo://app?vid=16fc988b-d220-485c-bed2-dcf08355ad48","ios":"levelo://app?vid=16fc988b-d220-485c-bed2-dcf08355ad48"},"vehicle_type_id":"4","last_reported":1719256016,"current_range_meters":11200,"station_id":"ce4bhb92rcd13ifvqen0","pricing_plan_id":"cebpf4jnsgd1na2vs0mg"},{"bike_id":"a0414976-1f8d-457c-8fa8-5b6cf736fa46","system_id":"levelo_inurba_marseille","lat":43.290103,"lon":5.356114,"is_reserved":false,"is_disabled":false,"rental_uris":{"android":"levelo://app?vid=a0414976-1f8d-457c-8fa8-5b6cf736fa46","ios":"levelo://app?vid=a0414976-1f8d-457c-8fa8-5b6cf736fa46"},"vehicle_type_id":"4","last_reported":1719256016,"current_range_meters":22800,"station_id":"ce4bhb92rcd13ifvqen0","pricing_plan_id":"cebpf4jnsgd1na2vs0mg"},{"bike_id":"2fcadda1-f8e5-4dd5-881b-d48d7d261bdb","system_id":"levelo_inurba_marseille","lat":43.290104,"lon":5.356111,"is_reserved":false,"is_disabled":false,"rental_uris":{"android":"levelo://app?vid=2fcadda1-f8e5-4dd5-881b-d48d7d261bdb","ios":"levelo://app?vid=2fcadda1-f8e5-4dd5-881b-d48d7d261bdb"},"vehicle_type_id":"4","last_reported":1719256016,"current_range_meters":31600,"station_id":"ce4bhb92rcd13ifvqen0","pricing_plan_id":"cebpf4jnsgd1na2vs0mg"},{"bike_id":"ad48bc11-5a4b-41ff-8340-1956a5073d4e","system_id":"levelo_inurba_marseille","lat":43.29004,"lon":5.3561,"is_reserved":false,"is_disabled":false,"rental_uris":{"android":"levelo://app?vid=ad48bc11-5a4b-41ff-8340-1956a5073d4e","ios":"levelo://app?vid=ad48bc11-5a4b-41ff-8340-1956a5073d4e"},"vehicle_type_id":"4","last_reported":1719256016,"current_range_meters":20800,"station_id":"ce4bhb92rcd13ifvqen0","pricing_plan_id":"cebpf4jnsgd1na2vs0mg"},{"bike_id":"c762709d-64a3-4f9d-9ac0-3a94d79941e7","system_id":"levelo_inurba_marseille","lat":43.290995,"lon":5.381361,"is_reserved":false,"is_disabled":false,"rental_uris":{"android":"levelo://app?vid=c762709d-64a3-4f9d-9ac0-3a94d79941e7","ios":"levelo://app?vid=c762709d-64a3-4f9d-9ac0-3a94d79941e7"},"vehicle_type_id":"4","last_reported":1719256016,"current_range_meters":31200,"station_id":"ce4bh512rcd13ifvqe2g","pricing_plan_id":"cebpf4jnsgd1na2vs0mg"},{"bike_id":"c61d9c7b-cb41-483e-a5a2-b53122d46c54","system_id":"levelo_inurba_marseille","lat":43.290995,"lon":5.381361,"is_reserved":false,"is_disabled":false,"rental_uris":{"android":"levelo://app?vid=c61d9c7b-cb41-483e-a5a2-b53122d46c54","ios":"levelo://app?vid=c61d9c7b-cb41-483e-a5a2-b53122d46c54"},"vehicle_type_id":"4","last_reported":1719256016,"current_range_meters":0,"station_id":"ce4bh512rcd13ifvqe2g","pricing_plan_id":"cebpf4jnsgd1na2vs0mg"},{"bike_id":"25cca56b-b7ed-43f3-a354-186cacd541ba","system_id":"levelo_inurba_marseille","lat":43.29791,"lon":5.39339,"is_reserved":false,"is_disabled":false,"rental_uris":{"android":"levelo://app?vid=25cca56b-b7ed-43f3-a354-186cacd541ba","ios":"levelo://app?vid=25cca56b-b7ed-43f3-a354-186cacd541ba"},"vehicle_type_id":"4","last_reported":1719256016,"current_range_meters":2400,"station_id":"chh1huq6cuj3fo74tm60","pricing_plan_id":"cebpf4jnsgd1na2vs0mg"},{"bike_id":"498bbb46-9655-420b-9371-4c06bd94e3f1","system_id":"levelo_inurba_marseille","lat":43.29793,"lon":5.39342,"is_reserved":false,"is_disabled":false,"rental_uris":{"android":"levelo://app?vid=498bbb46-9655-420b-9371-4c06bd94e3f1","ios":"levelo://app?vid=498bbb46-9655-420b-9371-4c06bd94e3f1"},"vehicle_type_id":"4","last_reported":1719256016,"current_range_meters":0,"station_id":"chh1huq6cuj3fo74tm60","pricing_plan_id":"cebpf4jnsgd1na2vs0mg"},{"bike_id":"75cb31fd-c80e-494e-8f90-448af3b60a27","system_id":"levelo_inurba_marseille","lat":43.2979,"lon":5.39341,"is_reserved":false,"is_disabled":false,"rental_uris":{"android":"levelo://app?vid=75cb31fd-c80e-494e-8f90-448af3b60a27","ios":"levelo://app?vid=75cb31fd-c80e-494e-8f90-448af3b60a27"},"vehicle_type_id":"4","last_reported":1719256016,"current_range_meters":20400,"station_id":"chh1huq6cuj3fo74tm60","pricing_plan_id":"cebpf4jnsgd1na2vs0mg"},{"bike_id":"40b4a400-9649-48c1-99a2-c503bb8ab8ed","system_id":"levelo_inurba_marseille","lat":43.29795,"lon":5.39352,"is_reserved":false,"is_disabled":false,"rental_uris":{"android":"levelo://app?vid=40b4a400-9649-48c1-99a2-c503bb8ab8ed","ios":"levelo://app?vid=40b4a400-9649-48c1-99a2-c503bb8ab8ed"},"vehicle_type_id":"4","last_reported":1719256016,"current_range_meters":21600,"station_id":"chh1huq6cuj3fo74tm60","pricing_plan_id":"cebpf4jnsgd1na2vs0mg"},{"bike_id":"6030e6bf-d14e-47bc-9ac6-87e40804f126","system_id":"levelo_inurba_marseille","lat":43.297815,"lon":5.393548,"is_reserved":false,"is_disabled":false,"rental_uris":{"android":"levelo://app?vid=6030e6bf-d14e-47bc-9ac6-87e40804f126","ios":"levelo://app?vid=6030e6bf-d14e-47bc-9ac6-87e40804f126"},"vehicle_type_id":"4","last_reported":1719256016,"current_range_meters":2400,"station_id":"chh1huq6cuj3fo74tm60","pricing_plan_id":"cebpf4jnsgd1na2vs0mg"},{"bike_id":"d061a77f-9020-479d-9c0f-460bb03e0a45","system_id":"levelo_inurba_marseille","lat":43.297815,"lon":5.393548,"is_reserved":false,"is_disabled":false,"rental_uris":{"android":"levelo://app?vid=d061a77f-9020-479d-9c0f-460bb03e0a45","ios":"levelo://app?vid=d061a77f-9020-479d-9c0f-460bb03e0a45"},"vehicle_type_id":"4","last_reported":1719256016,"current_range_meters":30400,"station_id":"chh1huq6cuj3fo74tm60","pricing_plan_id":"cebpf4jnsgd1na2vs0mg"},{"bike_id":"bc373b7d-04cb-4d3f-8b20-800b89af9a0b","system_id":"levelo_inurba_marseille","lat":43.29525,"lon":5.39028,"is_reserved":false,"is_disabled":false,"rental_uris":{"android":"levelo://app?vid=bc373b7d-04cb-4d3f-8b20-800b89af9a0b","ios":"levelo://app?vid=bc373b7d-04cb-4d3f-8b20-800b89af9a0b"},"vehicle_type_id":"4","last_reported":1719256016,"current_range_meters":14400,"station_id":"ce4bh3p2rcd13ifvqdp0","pricing_plan_id":"cebpf4jnsgd1na2vs0mg"},{"bike_id":"a7f17dfa-1274-4572-bccf-eb5fe11348b8","system_id":"levelo_inurba_marseille","lat":43.297815,"lon":5.393548,"is_reserved":false,"is_disabled":false,"rental_uris":{"android":"levelo://app?vid=a7f17dfa-1274-4572-bccf-eb5fe11348b8","ios":"levelo://app?vid=a7f17dfa-1274-4572-bccf-eb5fe11348b8"},"vehicle_type_id":"4","last_reported":1719256016,"current_range_meters":12000,"station_id":"chh1huq6cuj3fo74tm60","pricing_plan_id":"cebpf4jnsgd1na2vs0mg"},{"bike_id":"9c79642d-6032-4af2-83ca-ceba0582f163","system_id":"levelo_inurba_marseille","lat":43.295169,"lon":5.390426,"is_reserved":false,"is_disabled":false,"rental_uris":{"android":"levelo://app?vid=9c79642d-6032-4af2-83ca-ceba0582f163","ios":"levelo://app?vid=9c79642d-6032-4af2-83ca-ceba0582f163"},"vehicle_type_id":"4","last_reported":1719256016,"current_range_meters":19200,"station_id":"ce4bh3p2rcd13ifvqdp0","pricing_plan_id":"cebpf4jnsgd1na2vs0mg"},{"bike_id":"95aaf7e0-353a-450b-9989-16544e53ded3","system_id":"levelo_inurba_marseille","lat":43.295169,"lon":5.390426,"is_reserved":false,"is_disabled":false,"rental_uris":{"android":"levelo://app?vid=95aaf7e0-353a-450b-9989-16544e53ded3","ios":"levelo://app?vid=95aaf7e0-353a-450b-9989-16544e53ded3"},"vehicle_type_id":"4","last_reported":1719256016,"current_range_meters":14800,"station_id":"ce4bh3p2rcd13ifvqdp0","pricing_plan_id":"cebpf4jnsgd1na2vs0mg"},{"bike_id":"8556c279-2915-4866-870f-8fba1561a379","system_id":"levelo_inurba_marseille","lat":43.33023,"lon":5.39035,"is_reserved":false,"is_disabled":false,"rental_uris":{"android":"levelo://app?vid=8556c279-2915-4866-870f-8fba1561a379","ios":"levelo://app?vid=8556c279-2915-4866-870f-8fba1561a379"},"vehicle_type_id":"4","last_reported":1719256016,"current_range_meters":30000,"station_id":"ce4bhr92rcd13ifvqhrg","pricing_plan_id":"cebpf4jnsgd1na2vs0mg"},{"bike_id":"7e1dbec0-cc65-49cc-abba-4b5082710375","system_id":"levelo_inurba_marseille","lat":43.33027,"lon":5.3903,"is_reserved":false,"is_disabled":false,"rental_uris":{"android":"levelo://app?vid=7e1dbec0-cc65-49cc-abba-4b5082710375","ios":"levelo://app?vid=7e1dbec0-cc65-49cc-abba-4b5082710375"},"vehicle_type_id":"4","last_reported":1719256016,"current_range_meters":0,"station_id":"ce4bhr92rcd13ifvqhrg","pricing_plan_id":"cebpf4jnsgd1na2vs0mg"},{"bike_id":"9c16824a-634b-4996-b036-89484b2c1340","system_id":"levelo_inurba_marseille","lat":43.295169,"lon":5.390426,"is_reserved":false,"is_disabled":false,"rental_uris":{"android":"levelo://app?vid=9c16824a-634b-4996-b036-89484b2c1340","ios":"levelo://app?vid=9c16824a-634b-4996-b036-89484b2c1340"},"vehicle_type_id":"4","last_reported":1719256016,"current_range_meters":28800,"station_id":"ce4bh3p2rcd13ifvqdp0","pricing_plan_id":"cebpf4jnsgd1na2vs0mg"},{"bike_id":"1fa641cb-0b04-46bd-9724-a06f9748c4a3","system_id":"levelo_inurba_marseille","lat":43.297815,"lon":5.393548,"is_reserved":false,"is_disabled":false,"rental_uris":{"android":"levelo://app?vid=1fa641cb-0b04-46bd-9724-a06f9748c4a3","ios":"levelo://app?vid=1fa641cb-0b04-46bd-9724-a06f9748c4a3"},"vehicle_type_id":"4","last_reported":1719256016,"current_range_meters":22800,"station_id":"chh1huq6cuj3fo74tm60","pricing_plan_id":"cebpf4jnsgd1na2vs0mg"},{"bike_id":"cee82250-c1fc-4f2d-a408-1da8ca8739d7","system_id":"levelo_inurba_marseille","lat":43.29519,"lon":5.39033,"is_reserved":false,"is_disabled":false,"rental_uris":{"android":"levelo://app?vid=cee82250-c1fc-4f2d-a408-1da8ca8739d7","ios":"levelo://app?vid=cee82250-c1fc-4f2d-a408-1da8ca8739d7"},"vehicle_type_id":"4","last_reported":1719256016,"current_range_meters":29600,"station_id":"ce4bh3p2rcd13ifvqdp0","pricing_plan_id":"cebpf4jnsgd1na2vs0mg"},{"bike_id":"f202d529-7657-45ca-94d5-30bb1f4f5da8","system_id":"levelo_inurba_marseille","lat":43.295169,"lon":5.390426,"is_reserved":false,"is_disabled":false,"rental_uris":{"android":"levelo://app?vid=f202d529-7657-45ca-94d5-30bb1f4f5da8","ios":"levelo://app?vid=f202d529-7657-45ca-94d5-30bb1f4f5da8"},"vehicle_type_id":"4","last_reported":1719256016,"current_range_meters":6000,"station_id":"ce4bh3p2rcd13ifvqdp0","pricing_plan_id":"cebpf4jnsgd1na2vs0mg"},{"bike_id":"8bda701e-30ac-4f8d-ba15-a3d02136d116","system_id":"levelo_inurba_marseille","lat":43.295169,"lon":5.390426,"is_reserved":false,"is_disabled":false,"rental_uris":{"android":"levelo://app?vid=8bda701e-30ac-4f8d-ba15-a3d02136d116","ios":"levelo://app?vid=8bda701e-30ac-4f8d-ba15-a3d02136d116"},"vehicle_type_id":"4","last_reported":1719256016,"current_range_meters":27600,"station_id":"ce4bh3p2rcd13ifvqdp0","pricing_plan_id":"cebpf4jnsgd1na2vs0mg"},{"bike_id":"1e2801ec-1e2a-4406-9de8-65db04af4e59","system_id":"levelo_inurba_marseille","lat":43.295169,"lon":5.390426,"is_reserved":false,"is_disabled":false,"rental_uris":{"android":"levelo://app?vid=1e2801ec-1e2a-4406-9de8-65db04af4e59","ios":"levelo://app?vid=1e2801ec-1e2a-4406-9de8-65db04af4e59"},"vehicle_type_id":"4","last_reported":1719256016,"current_range_meters":31200,"station_id":"ce4bh3p2rcd13ifvqdp0","pricing_plan_id":"cebpf4jnsgd1na2vs0mg"},{"bike_id":"94a641b3-f6aa-4e3b-b493-c55546b66caa","system_id":"levelo_inurba_marseille","lat":43.295169,"lon":5.390426,"is_reserved":false,"is_disabled":false,"rental_uris":{"android":"levelo://app?vid=94a641b3-f6aa-4e3b-b493-c55546b66caa","ios":"levelo://app?vid=94a641b3-f6aa-4e3b-b493-c55546b66caa"},"vehicle_type_id":"4","last_reported":1719256016,"current_range_meters":17600,"station_id":"ce4bh3p2rcd13ifvqdp0","pricing_plan_id":"cebpf4jnsgd1na2vs0mg"},{"bike_id":"47d473e5-542c-45a0-ae9e-6af4221f36a2","system_id":"levelo_inurba_marseille","lat":43.29763,"lon":5.39348,"is_reserved":false,"is_disabled":false,"rental_uris":{"android":"levelo://app?vid=47d473e5-542c-45a0-ae9e-6af4221f36a2","ios":"levelo://app?vid=47d473e5-542c-45a0-ae9e-6af4221f36a2"},"vehicle_type_id":"4","last_reported":1719256016,"current_range_meters":27600,"station_id":"chh1huq6cuj3fo74tm60","pricing_plan_id":"cebpf4jnsgd1na2vs0mg"},{"bike_id":"b0d5a047-4911-40c7-ac14-e33efadaa736","system_id":"levelo_inurba_marseille","lat":43.28856,"lon":5.358371,"is_reserved":false,"is_disabled":false,"rental_uris":{"android":"levelo://app?vid=b0d5a047-4911-40c7-ac14-e33efadaa736","ios":"levelo://app?vid=b0d5a047-4911-40c7-ac14-e33efadaa736"},"vehicle_type_id":"4","last_reported":1719256016,"current_range_meters":21200,"station_id":"ce4bhb12rcd13ifvqem0","pricing_plan_id":"cebpf4jnsgd1na2vs0mg"},{"bike_id":"59734f5f-8ca5-4290-92fc-7320a0e1475f","system_id":"levelo_inurba_marseille","lat":43.28856,"lon":5.358371,"is_reserved":false,"is_disabled":false,"rental_uris":{"android":"levelo://app?vid=59734f5f-8ca5-4290-92fc-7320a0e1475f","ios":"levelo://app?vid=59734f5f-8ca5-4290-92fc-7320a0e1475f"},"vehicle_type_id":"4","last_reported":1719256016,"current_range_meters":14400,"station_id":"ce4bhb12rcd13ifvqem0","pricing_plan_id":"cebpf4jnsgd1na2vs0mg"},{"bike_id":"657ce371-b7fb-4791-8282-147009dcb104","system_id":"levelo_inurba_marseille","lat":43.28856,"lon":5.358371,"is_reserved":false,"is_disabled":false,"rental_uris":{"android":"levelo://app?vid=657ce371-b7fb-4791-8282-147009dcb104","ios":"levelo://app?vid=657ce371-b7fb-4791-8282-147009dcb104"},"vehicle_type_id":"4","last_reported":1719256016,"current_range_meters":7200,"station_id":"ce4bhb12rcd13ifvqem0","pricing_plan_id":"cebpf4jnsgd1na2vs0mg"},{"bike_id":"fb61b173-41cd-45eb-8a81-8a7f1f4fa143","system_id":"levelo_inurba_marseille","lat":43.28856,"lon":5.358371,"is_reserved":false,"is_disabled":false,"rental_uris":{"android":"levelo://app?vid=fb61b173-41cd-45eb-8a81-8a7f1f4fa143","ios":"levelo://app?vid=fb61b173-41cd-45eb-8a81-8a7f1f4fa143"},"vehicle_type_id":"4","last_reported":1719256016,"current_range_meters":7600,"station_id":"ce4bhb12rcd13ifvqem0","pricing_plan_id":"cebpf4jnsgd1na2vs0mg"},{"bike_id":"460601a0-f704-4b01-8f66-ed8f5fe6d2cf","system_id":"levelo_inurba_marseille","lat":43.28856,"lon":5.358371,"is_reserved":false,"is_disabled":false,"rental_uris":{"android":"levelo://app?vid=460601a0-f704-4b01-8f66-ed8f5fe6d2cf","ios":"levelo://app?vid=460601a0-f704-4b01-8f66-ed8f5fe6d2cf"},"vehicle_type_id":"4","last_reported":1719256016,"current_range_meters":23600,"station_id":"ce4bhb12rcd13ifvqem0","pricing_plan_id":"cebpf4jnsgd1na2vs0mg"},{"bike_id":"c558aaaa-49dd-4b2f-9339-a29dd8429e54","system_id":"levelo_inurba_marseille","lat":43.28856,"lon":5.358371,"is_reserved":false,"is_disabled":false,"rental_uris":{"android":"levelo://app?vid=c558aaaa-49dd-4b2f-9339-a29dd8429e54","ios":"levelo://app?vid=c558aaaa-49dd-4b2f-9339-a29dd8429e54"},"vehicle_type_id":"4","last_reported":1719256016,"current_range_meters":28000,"station_id":"ce4bhb12rcd13ifvqem0","pricing_plan_id":"cebpf4jnsgd1na2vs0mg"},{"bike_id":"0e17a736-52bf-478f-98b3-ac3854b4c8fc","system_id":"levelo_inurba_marseille","lat":43.28856,"lon":5.358371,"is_reserved":false,"is_disabled":false,"rental_uris":{"android":"levelo://app?vid=0e17a736-52bf-478f-98b3-ac3854b4c8fc","ios":"levelo://app?vid=0e17a736-52bf-478f-98b3-ac3854b4c8fc"},"vehicle_type_id":"4","last_reported":1719256016,"current_range_meters":22400,"station_id":"ce4bhb12rcd13ifvqem0","pricing_plan_id":"cebpf4jnsgd1na2vs0mg"},{"bike_id":"bb65fb70-df82-47d8-b27f-438620895501","system_id":"levelo_inurba_marseille","lat":43.33737,"lon":5.374646,"is_reserved":false,"is_disabled":false,"rental_uris":{"android":"levelo://app?vid=bb65fb70-df82-47d8-b27f-438620895501","ios":"levelo://app?vid=bb65fb70-df82-47d8-b27f-438620895501"},"vehicle_type_id":"0","last_reported":1719256016,"current_range_meters":22000,"station_id":"","pricing_plan_id":"cebpf4jnsgd1na2vs0mg"},{"bike_id":"14c1bf85-b075-4810-b1a7-477aaac7c29f","system_id":"levelo_inurba_marseille","lat":43.312609,"lon":5.401662,"is_reserved":false,"is_disabled":false,"rental_uris":{"android":"levelo://app?vid=14c1bf85-b075-4810-b1a7-477aaac7c29f","ios":"levelo://app?vid=14c1bf85-b075-4810-b1a7-477aaac7c29f"},"vehicle_type_id":"4","last_reported":1719256016,"current_range_meters":12400,"station_id":"ce4bh092rcd13ifvqd30","pricing_plan_id":"cebpf4jnsgd1na2vs0mg"},{"bike_id":"bd9a6c26-2db3-4e30-92c7-c85ae97147aa","system_id":"levelo_inurba_marseille","lat":43.33739,"lon":5.374686,"is_reserved":false,"is_disabled":false,"rental_uris":{"android":"levelo://app?vid=bd9a6c26-2db3-4e30-92c7-c85ae97147aa","ios":"levelo://app?vid=bd9a6c26-2db3-4e30-92c7-c85ae97147aa"},"vehicle_type_id":"0","last_reported":1719256016,"current_range_meters":29200,"station_id":"","pricing_plan_id":"cebpf4jnsgd1na2vs0mg"},{"bike_id":"8043cc8a-f702-4e45-9523-d56dfd7ee432","system_id":"levelo_inurba_marseille","lat":43.337406,"lon":5.374643,"is_reserved":false,"is_disabled":false,"rental_uris":{"android":"levelo://app?vid=8043cc8a-f702-4e45-9523-d56dfd7ee432","ios":"levelo://app?vid=8043cc8a-f702-4e45-9523-d56dfd7ee432"},"vehicle_type_id":"0","last_reported":1719256016,"current_range_meters":26800,"station_id":"","pricing_plan_id":"cebpf4jnsgd1na2vs0mg"},{"bike_id":"11da98ef-d0c3-43c2-a7e4-890f2c23ccbc","system_id":"levelo_inurba_marseille","lat":43.33741,"lon":5.37465,"is_reserved":false,"is_disabled":false,"rental_uris":{"android":"levelo://app?vid=11da98ef-d0c3-43c2-a7e4-890f2c23ccbc","ios":"levelo://app?vid=11da98ef-d0c3-43c2-a7e4-890f2c23ccbc"},"vehicle_type_id":"0","last_reported":1719256016,"current_range_meters":20800,"station_id":"","pricing_plan_id":"cebpf4jnsgd1na2vs0mg"},{"bike_id":"c3ddbe4a-157d-4893-acf1-f1f626a65d21","system_id":"levelo_inurba_marseille","lat":43.3374,"lon":5.374712,"is_reserved":false,"is_disabled":false,"rental_uris":{"android":"levelo://app?vid=c3ddbe4a-157d-4893-acf1-f1f626a65d21","ios":"levelo://app?vid=c3ddbe4a-157d-4893-acf1-f1f626a65d21"},"vehicle_type_id":"0","last_reported":1719256016,"current_range_meters":19200,"station_id":"","pricing_plan_id":"cebpf4jnsgd1na2vs0mg"},{"bike_id":"cbff8e2e-87ad-4d9e-a09d-9b1fba1c0aeb","system_id":"levelo_inurba_marseille","lat":43.337419,"lon":5.374673,"is_reserved":false,"is_disabled":false,"rental_uris":{"android":"levelo://app?vid=cbff8e2e-87ad-4d9e-a09d-9b1fba1c0aeb","ios":"levelo://app?vid=cbff8e2e-87ad-4d9e-a09d-9b1fba1c0aeb"},"vehicle_type_id":"0","last_reported":1719256016,"current_range_meters":27200,"station_id":"","pricing_plan_id":"cebpf4jnsgd1na2vs0mg"},{"bike_id":"985eda3a-8205-4c72-8b0d-a44593dd15b5","system_id":"levelo_inurba_marseille","lat":43.337426,"lon":5.374633,"is_reserved":false,"is_disabled":false,"rental_uris":{"android":"levelo://app?vid=985eda3a-8205-4c72-8b0d-a44593dd15b5","ios":"levelo://app?vid=985eda3a-8205-4c72-8b0d-a44593dd15b5"},"vehicle_type_id":"0","last_reported":1719256016,"current_range_meters":20800,"station_id":"","pricing_plan_id":"cebpf4jnsgd1na2vs0mg"},{"bike_id":"d013cc33-e736-4bbc-a491-0aee458b64b8","system_id":"levelo_inurba_marseille","lat":43.309371,"lon":5.401449,"is_reserved":false,"is_disabled":false,"rental_uris":{"android":"levelo://app?vid=d013cc33-e736-4bbc-a491-0aee458b64b8","ios":"levelo://app?vid=d013cc33-e736-4bbc-a491-0aee458b64b8"},"vehicle_type_id":"4","last_reported":1719256016,"current_range_meters":0,"station_id":"ce4bgvp2rcd13ifvqct0","pricing_plan_id":"cebpf4jnsgd1na2vs0mg"},{"bike_id":"2a0fb516-a307-4861-b129-104556c40f00","system_id":"levelo_inurba_marseille","lat":43.337428,"lon":5.374674,"is_reserved":false,"is_disabled":false,"rental_uris":{"android":"levelo://app?vid=2a0fb516-a307-4861-b129-104556c40f00","ios":"levelo://app?vid=2a0fb516-a307-4861-b129-104556c40f00"},"vehicle_type_id":"0","last_reported":1719256016,"current_range_meters":18400,"station_id":"","pricing_plan_id":"cebpf4jnsgd1na2vs0mg"},{"bike_id":"c25a3696-e1cc-43ba-8656-23d4a118ee2e","system_id":"levelo_inurba_marseille","lat":43.337437,"lon":5.374649,"is_reserved":false,"is_disabled":false,"rental_uris":{"android":"levelo://app?vid=c25a3696-e1cc-43ba-8656-23d4a118ee2e","ios":"levelo://app?vid=c25a3696-e1cc-43ba-8656-23d4a118ee2e"},"vehicle_type_id":"0","last_reported":1719256016,"current_range_meters":27600,"station_id":"","pricing_plan_id":"cebpf4jnsgd1na2vs0mg"},{"bike_id":"bf709b1a-1e81-4c69-a36a-dfef45d67fee","system_id":"levelo_inurba_marseille","lat":43.337438,"lon":5.37466,"is_reserved":false,"is_disabled":false,"rental_uris":{"android":"levelo://app?vid=bf709b1a-1e81-4c69-a36a-dfef45d67fee","ios":"levelo://app?vid=bf709b1a-1e81-4c69-a36a-dfef45d67fee"},"vehicle_type_id":"0","last_reported":1719256016,"current_range_meters":27200,"station_id":"","pricing_plan_id":"cebpf4jnsgd1na2vs0mg"},{"bike_id":"656535e7-9a8a-445a-b05c-b02792753597","system_id":"levelo_inurba_marseille","lat":43.309371,"lon":5.401449,"is_reserved":false,"is_disabled":false,"rental_uris":{"android":"levelo://app?vid=656535e7-9a8a-445a-b05c-b02792753597","ios":"levelo://app?vid=656535e7-9a8a-445a-b05c-b02792753597"},"vehicle_type_id":"4","last_reported":1719256016,"current_range_meters":23200,"station_id":"ce4bgvp2rcd13ifvqct0","pricing_plan_id":"cebpf4jnsgd1na2vs0mg"},{"bike_id":"aa527c2c-31a5-479b-bfbe-daae0d9bb514","system_id":"levelo_inurba_marseille","lat":43.33744,"lon":5.37469,"is_reserved":false,"is_disabled":false,"rental_uris":{"android":"levelo://app?vid=aa527c2c-31a5-479b-bfbe-daae0d9bb514","ios":"levelo://app?vid=aa527c2c-31a5-479b-bfbe-daae0d9bb514"},"vehicle_type_id":"0","last_reported":1719256016,"current_range_meters":17600,"station_id":"","pricing_plan_id":"cebpf4jnsgd1na2vs0mg"},{"bike_id":"9b81675f-44cd-4cbe-9733-2d36a516d8f7","system_id":"levelo_inurba_marseille","lat":43.337444,"lon":5.374674,"is_reserved":false,"is_disabled":false,"rental_uris":{"android":"levelo://app?vid=9b81675f-44cd-4cbe-9733-2d36a516d8f7","ios":"levelo://app?vid=9b81675f-44cd-4cbe-9733-2d36a516d8f7"},"vehicle_type_id":"0","last_reported":1719256016,"current_range_meters":27600,"station_id":"","pricing_plan_id":"cebpf4jnsgd1na2vs0mg"},{"bike_id":"f867320b-b3ee-4d44-8ef3-37d72db21942","system_id":"levelo_inurba_marseille","lat":43.33754,"lon":5.37456,"is_reserved":false,"is_disabled":false,"rental_uris":{"android":"levelo://app?vid=f867320b-b3ee-4d44-8ef3-37d72db21942","ios":"levelo://app?vid=f867320b-b3ee-4d44-8ef3-37d72db21942"},"vehicle_type_id":"4","last_reported":1719256016,"current_range_meters":29200,"station_id":"","pricing_plan_id":"cebpf4jnsgd1na2vs0mg"},{"bike_id":"4f975bbf-3913-40d4-9d35-6faf520e35af","system_id":"levelo_inurba_marseille","lat":43.306412,"lon":5.401035,"is_reserved":false,"is_disabled":false,"rental_uris":{"android":"levelo://app?vid=4f975bbf-3913-40d4-9d35-6faf520e35af","ios":"levelo://app?vid=4f975bbf-3913-40d4-9d35-6faf520e35af"},"vehicle_type_id":"4","last_reported":1719256016,"current_range_meters":29200,"station_id":"ce4bh112rcd13ifvqda0","pricing_plan_id":"cebpf4jnsgd1na2vs0mg"},{"bike_id":"3b6fd476-dc5b-4265-936f-967e2d99506f","system_id":"levelo_inurba_marseille","lat":43.306412,"lon":5.401035,"is_reserved":false,"is_disabled":false,"rental_uris":{"android":"levelo://app?vid=3b6fd476-dc5b-4265-936f-967e2d99506f","ios":"levelo://app?vid=3b6fd476-dc5b-4265-936f-967e2d99506f"},"vehicle_type_id":"4","last_reported":1719256016,"current_range_meters":18800,"station_id":"ce4bh112rcd13ifvqda0","pricing_plan_id":"cebpf4jnsgd1na2vs0mg"},{"bike_id":"2319d425-6f64-4f66-b5f5-68688d14311c","system_id":"levelo_inurba_marseille","lat":43.306412,"lon":5.401035,"is_reserved":false,"is_disabled":false,"rental_uris":{"android":"levelo://app?vid=2319d425-6f64-4f66-b5f5-68688d14311c","ios":"levelo://app?vid=2319d425-6f64-4f66-b5f5-68688d14311c"},"vehicle_type_id":"4","last_reported":1719256016,"current_range_meters":0,"station_id":"ce4bh112rcd13ifvqda0","pricing_plan_id":"cebpf4jnsgd1na2vs0mg"},{"bike_id":"086b1a76-882c-4dd6-a9e6-8ee41d03f054","system_id":"levelo_inurba_marseille","lat":43.306412,"lon":5.401035,"is_reserved":false,"is_disabled":false,"rental_uris":{"android":"levelo://app?vid=086b1a76-882c-4dd6-a9e6-8ee41d03f054","ios":"levelo://app?vid=086b1a76-882c-4dd6-a9e6-8ee41d03f054"},"vehicle_type_id":"4","last_reported":1719256016,"current_range_meters":0,"station_id":"ce4bh112rcd13ifvqda0","pricing_plan_id":"cebpf4jnsgd1na2vs0mg"},{"bike_id":"30234c8b-e6db-44e7-b258-ae0dd34fbb02","system_id":"levelo_inurba_marseille","lat":43.301117,"lon":5.398795,"is_reserved":false,"is_disabled":false,"rental_uris":{"android":"levelo://app?vid=30234c8b-e6db-44e7-b258-ae0dd34fbb02","ios":"levelo://app?vid=30234c8b-e6db-44e7-b258-ae0dd34fbb02"},"vehicle_type_id":"4","last_reported":1719256016,"current_range_meters":12400,"station_id":"ce4bh0h2rcd13ifvqd40","pricing_plan_id":"cebpf4jnsgd1na2vs0mg"},{"bike_id":"0732429a-7de6-4fbc-bf3b-4efe651b29eb","system_id":"levelo_inurba_marseille","lat":43.301117,"lon":5.398795,"is_reserved":false,"is_disabled":false,"rental_uris":{"android":"levelo://app?vid=0732429a-7de6-4fbc-bf3b-4efe651b29eb","ios":"levelo://app?vid=0732429a-7de6-4fbc-bf3b-4efe651b29eb"},"vehicle_type_id":"4","last_reported":1719256016,"current_range_meters":11600,"station_id":"ce4bh0h2rcd13ifvqd40","pricing_plan_id":"cebpf4jnsgd1na2vs0mg"},{"bike_id":"b4ef4e13-867b-41b2-a147-4c44f034f470","system_id":"levelo_inurba_marseille","lat":43.3012,"lon":5.39842,"is_reserved":false,"is_disabled":false,"rental_uris":{"android":"levelo://app?vid=b4ef4e13-867b-41b2-a147-4c44f034f470","ios":"levelo://app?vid=b4ef4e13-867b-41b2-a147-4c44f034f470"},"vehicle_type_id":"4","last_reported":1719256016,"current_range_meters":12000,"station_id":"ce4bh0h2rcd13ifvqd40","pricing_plan_id":"cebpf4jnsgd1na2vs0mg"},{"bike_id":"c4b6076f-826c-4c1f-a30c-efd17924d0ac","system_id":"levelo_inurba_marseille","lat":43.301117,"lon":5.398795,"is_reserved":false,"is_disabled":false,"rental_uris":{"android":"levelo://app?vid=c4b6076f-826c-4c1f-a30c-efd17924d0ac","ios":"levelo://app?vid=c4b6076f-826c-4c1f-a30c-efd17924d0ac"},"vehicle_type_id":"4","last_reported":1719256016,"current_range_meters":6800,"station_id":"ce4bh0h2rcd13ifvqd40","pricing_plan_id":"cebpf4jnsgd1na2vs0mg"},{"bike_id":"7287e0d3-b87a-4c50-a2a8-50a36877fd98","system_id":"levelo_inurba_marseille","lat":43.301117,"lon":5.398795,"is_reserved":false,"is_disabled":false,"rental_uris":{"android":"levelo://app?vid=7287e0d3-b87a-4c50-a2a8-50a36877fd98","ios":"levelo://app?vid=7287e0d3-b87a-4c50-a2a8-50a36877fd98"},"vehicle_type_id":"4","last_reported":1719256016,"current_range_meters":23200,"station_id":"ce4bh0h2rcd13ifvqd40","pricing_plan_id":"cebpf4jnsgd1na2vs0mg"},{"bike_id":"0c98ad98-176e-47da-9922-1117c4d38936","system_id":"levelo_inurba_marseille","lat":43.30139,"lon":5.39868,"is_reserved":false,"is_disabled":false,"rental_uris":{"android":"levelo://app?vid=0c98ad98-176e-47da-9922-1117c4d38936","ios":"levelo://app?vid=0c98ad98-176e-47da-9922-1117c4d38936"},"vehicle_type_id":"4","last_reported":1719256016,"current_range_meters":31200,"station_id":"ce4bh0h2rcd13ifvqd40","pricing_plan_id":"cebpf4jnsgd1na2vs0mg"},{"bike_id":"5f80a96e-3ee2-4ef1-9aa3-6267f66d1416","system_id":"levelo_inurba_marseille","lat":43.30129,"lon":5.39864,"is_reserved":false,"is_disabled":false,"rental_uris":{"android":"levelo://app?vid=5f80a96e-3ee2-4ef1-9aa3-6267f66d1416","ios":"levelo://app?vid=5f80a96e-3ee2-4ef1-9aa3-6267f66d1416"},"vehicle_type_id":"4","last_reported":1719256016,"current_range_meters":400,"station_id":"ce4bh0h2rcd13ifvqd40","pricing_plan_id":"cebpf4jnsgd1na2vs0mg"},{"bike_id":"9d544ccc-4e45-47dc-8151-5bf0c10513a9","system_id":"levelo_inurba_marseille","lat":43.28727,"lon":5.36078,"is_reserved":false,"is_disabled":false,"rental_uris":{"android":"levelo://app?vid=9d544ccc-4e45-47dc-8151-5bf0c10513a9","ios":"levelo://app?vid=9d544ccc-4e45-47dc-8151-5bf0c10513a9"},"vehicle_type_id":"4","last_reported":1719256016,"current_range_meters":3600,"station_id":"cki0cbj6b192h4jlfktg","pricing_plan_id":"cebpf4jnsgd1na2vs0mg"},{"bike_id":"83733739-1278-4b0a-9d6b-7d524acd46a6","system_id":"levelo_inurba_marseille","lat":43.301347,"lon":5.39872,"is_reserved":false,"is_disabled":false,"rental_uris":{"android":"levelo://app?vid=83733739-1278-4b0a-9d6b-7d524acd46a6","ios":"levelo://app?vid=83733739-1278-4b0a-9d6b-7d524acd46a6"},"vehicle_type_id":"4","last_reported":1719256016,"current_range_meters":29600,"station_id":"ce4bh0h2rcd13ifvqd40","pricing_plan_id":"cebpf4jnsgd1na2vs0mg"},{"bike_id":"5928bb0d-3c2a-4316-bad2-e73007042547","system_id":"levelo_inurba_marseille","lat":43.301312,"lon":5.3987,"is_reserved":false,"is_disabled":false,"rental_uris":{"android":"levelo://app?vid=5928bb0d-3c2a-4316-bad2-e73007042547","ios":"levelo://app?vid=5928bb0d-3c2a-4316-bad2-e73007042547"},"vehicle_type_id":"4","last_reported":1719256016,"current_range_meters":0,"station_id":"ce4bh0h2rcd13ifvqd40","pricing_plan_id":"cebpf4jnsgd1na2vs0mg"},{"bike_id":"db7c7db2-f711-4873-b245-2c76d1659893","system_id":"levelo_inurba_marseille","lat":43.286961,"lon":5.373785,"is_reserved":false,"is_disabled":false,"rental_uris":{"android":"levelo://app?vid=db7c7db2-f711-4873-b245-2c76d1659893","ios":"levelo://app?vid=db7c7db2-f711-4873-b245-2c76d1659893"},"vehicle_type_id":"4","last_reported":1719256016,"current_range_meters":31200,"station_id":"ce4bh3p2rcd13ifvqdq0","pricing_plan_id":"cebpf4jnsgd1na2vs0mg"},{"bike_id":"78181c18-a2cf-4a69-8eef-95b9bb2a2340","system_id":"levelo_inurba_marseille","lat":43.286961,"lon":5.373785,"is_reserved":false,"is_disabled":false,"rental_uris":{"android":"levelo://app?vid=78181c18-a2cf-4a69-8eef-95b9bb2a2340","ios":"levelo://app?vid=78181c18-a2cf-4a69-8eef-95b9bb2a2340"},"vehicle_type_id":"4","last_reported":1719256016,"current_range_meters":16400,"station_id":"ce4bh3p2rcd13ifvqdq0","pricing_plan_id":"cebpf4jnsgd1na2vs0mg"},{"bike_id":"23a51499-e3ee-4b94-b00f-320a59d838c6","system_id":"levelo_inurba_marseille","lat":43.286961,"lon":5.373785,"is_reserved":false,"is_disabled":false,"rental_uris":{"android":"levelo://app?vid=23a51499-e3ee-4b94-b00f-320a59d838c6","ios":"levelo://app?vid=23a51499-e3ee-4b94-b00f-320a59d838c6"},"vehicle_type_id":"4","last_reported":1719256016,"current_range_meters":13600,"station_id":"ce4bh3p2rcd13ifvqdq0","pricing_plan_id":"cebpf4jnsgd1na2vs0mg"},{"bike_id":"a3a3c3de-3d10-4653-b010-f724c14a43f2","system_id":"levelo_inurba_marseille","lat":43.298681,"lon":5.397225,"is_reserved":false,"is_disabled":false,"rental_uris":{"android":"levelo://app?vid=a3a3c3de-3d10-4653-b010-f724c14a43f2","ios":"levelo://app?vid=a3a3c3de-3d10-4653-b010-f724c14a43f2"},"vehicle_type_id":"4","last_reported":1719256016,"current_range_meters":8400,"station_id":"ce4bh0h2rcd13ifvqd50","pricing_plan_id":"cebpf4jnsgd1na2vs0mg"},{"bike_id":"b0f61996-b1dd-4680-90fb-69574fab4517","system_id":"levelo_inurba_marseille","lat":43.298681,"lon":5.397225,"is_reserved":false,"is_disabled":false,"rental_uris":{"android":"levelo://app?vid=b0f61996-b1dd-4680-90fb-69574fab4517","ios":"levelo://app?vid=b0f61996-b1dd-4680-90fb-69574fab4517"},"vehicle_type_id":"4","last_reported":1719256016,"current_range_meters":26800,"station_id":"ce4bh0h2rcd13ifvqd50","pricing_plan_id":"cebpf4jnsgd1na2vs0mg"},