{"last_updated":1733346553,"ttl":60,"version":"2.2","data":{"bikes":[{"bike_id":"ecd81b9c-f0d4-4035-a3f0-a74e44da2ebd","system_id":"levelo_inurba_marseille","lat":43.31073,"lon":5.38363,"is_reserved":false,"is_disabled":false,"rental_uris":{"android":"levelo://app?vid=ecd81b9c-f0d4-4035-a3f0-a74e44da2ebd","ios":"levelo://app?vid=ecd81b9c-f0d4-4035-a3f0-a74e44da2ebd"},"vehicle_type_id":"4","last_reported":1733346553,"current_range_meters":25200,"station_id":"ce4bgv92rcd13ifvqcr0","pricing_plan_id":"cebpf4jnsgd1na2vs0mg"},{"bike_id":"dd2a7dd8-92c5-4f16-9ac8-5501a00893d5","system_id":"levelo_inurba_marseille","lat":43.28474,"lon":5.38552,"is_reserved":false,"is_disabled":false,"rental_uris":{"android":"levelo://app?vid=dd2a7dd8-92c5-4f16-9ac8-5501a00893d5","ios":"levelo://app?vid=dd2a7dd8-92c5-4f16-9ac8-5501a00893d5"},"vehicle_type_id":"4","last_reported":1733346553,"current_range_meters":20000,"station_id":"ce4bh8p2rcd13ifvqeb0","pricing_plan_id":"cebpf4jnsgd1na2vs0mg"},{"bike_id":"a97ff103-80f4-4af0-ab5e-92bafcd223d0","system_id":"levelo_inurba_marseille","lat":43.27917,"lon":5.39579,"is_reserved":false,"is_disabled":false,"rental_uris":{"android":"levelo://app?vid=a97ff103-80f4-4af0-ab5e-92bafcd223d0","ios":"levelo://app?vid=a97ff103-80f4-4af0-ab5e-92bafcd223d0"},"vehicle_type_id":"4","last_reported":1733346553,"current_range_meters":38800,"station_id":"ce4bhf92rcd13ifvqf40","pricing_plan_id":"cebpf4jnsgd1na2vs0mg"},{"bike_id":"df479c2c-35ac-44ad-b9d6-81c89ed769ce","system_id":"levelo_inurba_marseille","lat":43.29699,"lon":5.37054,"is_reserved":false,"is_disabled":true,"rental_uris":{"android":"levelo://app?vid=df479c2c-35ac-44ad-b9d6-81c89ed769ce","ios":"levelo://app?vid=df479c2c-35ac-44ad-b9d6-81c89ed769ce"},"vehicle_type_id":"4","last_reported":1733346553,"current_range_meters":0,"station_id":"","pricing_plan_id":"cebpf4jnsgd1na2vs0mg"},{"bike_id":"8e029eaf-e104-4c5d-858d-6cd39de73d09","system_id":"levelo_inurba_marseille","lat":43.24175,"lon":5.36385,"is_reserved":false,"is_disabled":false,"rental_uris":{"android":"levelo://app?vid=8e029eaf-e104-4c5d-858d-6cd39de73d09","ios":"levelo://app?vid=8e029eaf-e104-4c5d-858d-6cd39de73d09"},"vehicle_type_id":"4","last_reported":1733346553,"current_range_meters":8400,"station_id":"cpo36qri1sfpv3e86is0","pricing_plan_id":"cebpf4jnsgd1na2vs0mg"},{"bike_id":"8dba55d6-af48-4b1a-8a16-2994c8ca568c","system_id":"levelo_inurba_marseille","lat":43.30214,"lon":5.39463,"is_reserved":false,"is_disabled":false,"rental_uris":{"android":"levelo://app?vid=8dba55d6-af48-4b1a-8a16-2994c8ca568c","ios":"levelo://app?vid=8dba55d6-af48-4b1a-8a16-2994c8ca568c"},"vehicle_type_id":"4","last_reported":1733346553,"current_range_meters":16400,"station_id":"ce4bh0p2rcd13ifvqd70","pricing_plan_id":"cebpf4jnsgd1na2vs0mg"},{"bike_id":"fd85f247-bc9f-4512-8957-89e7641ccdee","system_id":"levelo_inurba_marseille","lat":43.32476,"lon":5.36575,"is_reserved":false,"is_disabled":false,"rental_uris":{"android":"levelo://app?vid=fd85f247-bc9f-4512-8957-89e7641ccdee","ios":"levelo://app?vid=fd85f247-bc9f-4512-8957-89e7641ccdee"},"vehicle_type_id":"4","last_reported":1733346553,"current_range_meters":32800,"station_id":"ce4bhs12rcd13ifvqhvg","pricing_plan_id":"cebpf4jnsgd1na2vs0mg"},{"bike_id":"2b3abd02-dc37-4d98-8425-83c48f853bb9","system_id":"levelo_inurba_marseille","lat":43.2781,"lon":5.40707,"is_reserved":false,"is_disabled":false,"rental_uris":{"android":"levelo://app?vid=2b3abd02-dc37-4d98-8425-83c48f853bb9","ios":"levelo://app?vid=2b3abd02-dc37-4d98-8425-83c48f853bb9"},"vehicle_type_id":"4","last_reported":1733346553,"current_range_meters":31200,"station_id":"ce4bhnh2rcd13ifvqgtg","pricing_plan_id":"cebpf4jnsgd1na2vs0mg"},{"bike_id":"bbb00530-4c86-4fd8-a34d-927450c46857","system_id":"levelo_inurba_marseille","lat":43.29538,"lon":5.38539,"is_reserved":false,"is_disabled":false,"rental_uris":{"android":"levelo://app?vid=bbb00530-4c86-4fd8-a34d-927450c46857","ios":"levelo://app?vid=bbb00530-4c86-4fd8-a34d-927450c46857"},"vehicle_type_id":"4","last_reported":1733346553,"current_range_meters":19200,"station_id":"ce4bgih2rcd13ifvqba0","pricing_plan_id":"cebpf4jnsgd1na2vs0mg"},{"bike_id":"09016331-8199-4b96-8644-9fffcf138801","system_id":"levelo_inurba_marseille","lat":43.28156,"lon":5.42654,"is_reserved":false,"is_disabled":false,"rental_uris":{"android":"levelo://app?vid=09016331-8199-4b96-8644-9fffcf138801","ios":"levelo://app?vid=09016331-8199-4b96-8644-9fffcf138801"},"vehicle_type_id":"4","last_reported":1733346553,"current_range_meters":16800,"station_id":"ce4bhnh2rcd13ifvqgug","pricing_plan_id":"cebpf4jnsgd1na2vs0mg"},{"bike_id":"b03a6a4e-535b-4e1a-a28b-ae3d5f12709c","system_id":"levelo_inurba_marseille","lat":43.30273,"lon":5.3893,"is_reserved":false,"is_disabled":false,"rental_uris":{"android":"levelo://app?vid=b03a6a4e-535b-4e1a-a28b-ae3d5f12709c","ios":"levelo://app?vid=b03a6a4e-535b-4e1a-a28b-ae3d5f12709c"},"vehicle_type_id":"4","last_reported":1733346553,"current_range_meters":19600,"station_id":"","pricing_plan_id":"cebpf4jnsgd1na2vs0mg"},{"bike_id":"be407bbe-d1ce-48de-8db2-09114af9efd7","system_id":"levelo_inurba_marseille","lat":43.32362,"lon":5.36759,"is_reserved":false,"is_disabled":false,"rental_uris":{"android":"levelo://app?vid=be407bbe-d1ce-48de-8db2-09114af9efd7","ios":"levelo://app?vid=be407bbe-d1ce-48de-8db2-09114af9efd7"},"vehicle_type_id":"4","last_reported":1733346553,"current_range_meters":32800,"station_id":"ce4bhsh2rcd13ifvqi2g","pricing_plan_id":"cebpf4jnsgd1na2vs0mg"},{"bike_id":"2deb87bb-c3ca-431b-995a-86ed2e6ed434","system_id":"levelo_inurba_marseille","lat":43.28403,"lon":5.37521,"is_reserved":false,"is_disabled":false,"rental_uris":{"android":"levelo://app?vid=2deb87bb-c3ca-431b-995a-86ed2e6ed434","ios":"levelo://app?vid=2deb87bb-c3ca-431b-995a-86ed2e6ed434"},"vehicle_type_id":"4","last_reported":1733346553,"current_range_meters":9200,"station_id":"ce4bh412rcd13ifvqds0","pricing_plan_id":"cebpf4jnsgd1na2vs0mg"},{"bike_id":"1aec731f-9f9e-47ab-a292-ded78d9a3588","system_id":"levelo_inurba_marseille","lat":43.2767,"lon":5.38877,"is_reserved":false,"is_disabled":false,"rental_uris":{"android":"levelo://app?vid=1aec731f-9f9e-47ab-a292-ded78d9a3588","ios":"levelo://app?vid=1aec731f-9f9e-47ab-a292-ded78d9a3588"},"vehicle_type_id":"4","last_reported":1733346553,"current_range_meters":36400,"station_id":"ce4bhi12rcd13ifvqfo0","pricing_plan_id":"cebpf4jnsgd1na2vs0mg"},{"bike_id":"d15f865a-2215-4241-a130-e2aef5448854","system_id":"levelo_inurba_marseille","lat":43.27626,"lon":5.36103,"is_reserved":false,"is_disabled":false,"rental_uris":{"android":"levelo://app?vid=d15f865a-2215-4241-a130-e2aef5448854","ios":"levelo://app?vid=d15f865a-2215-4241-a130-e2aef5448854"},"vehicle_type_id":"4","last_reported":1733346553,"current_range_meters":36800,"station_id":"ce4bgj92rcd13ifvqbe0","pricing_plan_id":"cebpf4jnsgd1na2vs0mg"},{"bike_id":"9af68dd8-43e3-42f5-baeb-b051cdb8a37f","system_id":"levelo_inurba_marseille","lat":43.2847,"lon":5.35859,"is_reserved":false,"is_disabled":false,"rental_uris":{"android":"levelo://app?vid=9af68dd8-43e3-42f5-baeb-b051cdb8a37f","ios":"levelo://app?vid=9af68dd8-43e3-42f5-baeb-b051cdb8a37f"},"vehicle_type_id":"4","last_reported":1733346553,"current_range_meters":22800,"station_id":"ce4bhah2rcd13ifvqei0","pricing_plan_id":"cebpf4jnsgd1na2vs0mg"},{"bike_id":"8bd642b2-0279-44c7-9ee2-fc3b57332c83","system_id":"levelo_inurba_marseille","lat":43.27455,"lon":5.40073,"is_reserved":false,"is_disabled":true,"rental_uris":{"android":"levelo://app?vid=8bd642b2-0279-44c7-9ee2-fc3b57332c83","ios":"levelo://app?vid=8bd642b2-0279-44c7-9ee2-fc3b57332c83"},"vehicle_type_id":"4","last_reported":1733346553,"current_range_meters":0,"station_id":"","pricing_plan_id":"cebpf4jnsgd1na2vs0mg"},{"bike_id":"e092f375-5b54-4e37-b620-820befc91920","system_id":"levelo_inurba_marseille","lat":43.25727,"lon":5.41109,"is_reserved":false,"is_disabled":false,"rental_uris":{"android":"levelo://app?vid=e092f375-5b54-4e37-b620-820befc91920","ios":"levelo://app?vid=e092f375-5b54-4e37-b620-820befc91920"},"vehicle_type_id":"4","last_reported":1733346553,"current_range_meters":39200,"station_id":"ce4bhkp2rcd13ifvqgd0","pricing_plan_id":"cebpf4jnsgd1na2vs0mg"},{"bike_id":"24a99494-69c1-4fef-879e-b2c2d85c80a1","system_id":"levelo_inurba_marseille","lat":43.30643,"lon":5.40079,"is_reserved":false,"is_disabled":false,"rental_uris":{"android":"levelo://app?vid=24a99494-69c1-4fef-879e-b2c2d85c80a1","ios":"levelo://app?vid=24a99494-69c1-4fef-879e-b2c2d85c80a1"},"vehicle_type_id":"4","last_reported":1733346553,"current_range_meters":22000,"station_id":"ce4bh112rcd13ifvqda0","pricing_plan_id":"cebpf4jnsgd1na2vs0mg"},{"bike_id":"21e12c1a-54f2-4c23-a45f-2d1c79ae98ed","system_id":"levelo_inurba_marseille","lat":43.29536,"lon":5.39035,"is_reserved":false,"is_disabled":false,"rental_uris":{"android":"levelo://app?vid=21e12c1a-54f2-4c23-a45f-2d1c79ae98ed","ios":"levelo://app?vid=21e12c1a-54f2-4c23-a45f-2d1c79ae98ed"},"vehicle_type_id":"4","last_reported":1733346553,"current_range_meters":28800,"station_id":"ce4bh3p2rcd13ifvqdp0","pricing_plan_id":"cebpf4jnsgd1na2vs0mg"},{"bike_id":"7ac860e3-add0-47a6-8e54-a7fb41b5c80a","system_id":"levelo_inurba_marseille","lat":43.29446,"lon":5.39748,"is_reserved":false,"is_disabled":false,"rental_uris":{"android":"levelo://app?vid=7ac860e3-add0-47a6-8e54-a7fb41b5c80a","ios":"levelo://app?vid=7ac860e3-add0-47a6-8e54-a7fb41b5c80a"},"vehicle_type_id":"4","last_reported":1733346553,"current_range_meters":28000,"station_id":"ce4bh3h2rcd13ifvqdo0","pricing_plan_id":"cebpf4jnsgd1na2vs0mg"},{"bike_id":"323b83eb-d94c-4083-ae3d-2b79c61cf533","system_id":"levelo_inurba_marseille","lat":43.25716,"lon":5.41112,"is_reserved":false,"is_disabled":false,"rental_uris":{"android":"levelo://app?vid=323b83eb-d94c-4083-ae3d-2b79c61cf533","ios":"levelo://app?vid=323b83eb-d94c-4083-ae3d-2b79c61cf533"},"vehicle_type_id":"4","last_reported":1733346553,"current_range_meters":5600,"station_id":"ce4bhkp2rcd13ifvqgd0","pricing_plan_id":"cebpf4jnsgd1na2vs0mg"},{"bike_id":"a18b4934-8c0c-4c61-b008-883eebb45560","system_id":"levelo_inurba_marseille","lat":43.23196,"lon":5.3998,"is_reserved":false,"is_disabled":false,"rental_uris":{"android":"levelo://app?vid=a18b4934-8c0c-4c61-b008-883eebb45560","ios":"levelo://app?vid=a18b4934-8c0c-4c61-b008-883eebb45560"},"vehicle_type_id":"4","last_reported":1733346553,"current_range_meters":37600,"station_id":"ce4bhn12rcd13ifvqgqg","pricing_plan_id":"cebpf4jnsgd1na2vs0mg"},{"bike_id":"276dc8d0-d07c-4097-ade0-8d3c2e00a69d","system_id":"levelo_inurba_marseille","lat":43.30986,"lon":5.37522,"is_reserved":false,"is_disabled":true,"rental_uris":{"android":"levelo://app?vid=276dc8d0-d07c-4097-ade0-8d3c2e00a69d","ios":"levelo://app?vid=276dc8d0-d07c-4097-ade0-8d3c2e00a69d"},"vehicle_type_id":"4","last_reported":1733346553,"current_range_meters":0,"station_id":"","pricing_plan_id":"cebpf4jnsgd1na2vs0mg"},{"bike_id":"40dcf171-1099-407f-8442-baa4766cbae6","system_id":"levelo_inurba_marseille","lat":43.28074,"lon":5.3966,"is_reserved":false,"is_disabled":false,"rental_uris":{"android":"levelo://app?vid=40dcf171-1099-407f-8442-baa4766cbae6","ios":"levelo://app?vid=40dcf171-1099-407f-8442-baa4766cbae6"},"vehicle_type_id":"4","last_reported":1733346553,"current_range_meters":19200,"station_id":"ce4bho12rcd13ifvqh2g","pricing_plan_id":"cebpf4jnsgd1na2vs0mg"},{"bike_id":"1b3dfc9f-73c7-474f-9fc5-3c080495ed87","system_id":"levelo_inurba_marseille","lat":43.31172,"lon":5.38726,"is_reserved":false,"is_disabled":false,"rental_uris":{"android":"levelo://app?vid=1b3dfc9f-73c7-474f-9fc5-3c080495ed87","ios":"levelo://app?vid=1b3dfc9f-73c7-474f-9fc5-3c080495ed87"},"vehicle_type_id":"4","last_reported":1733346553,"current_range_meters":31200,"station_id":"ce4bgv12rcd13ifvqcp0","pricing_plan_id":"cebpf4jnsgd1na2vs0mg"},{"bike_id":"28b52837-d828-49e4-b4be-cfbac010c328","system_id":"levelo_inurba_marseille","lat":43.33718,"lon":5.39189,"is_reserved":false,"is_disabled":false,"rental_uris":{"android":"levelo://app?vid=28b52837-d828-49e4-b4be-cfbac010c328","ios":"levelo://app?vid=28b52837-d828-49e4-b4be-cfbac010c328"},"vehicle_type_id":"4","last_reported":1733346553,"current_range_meters":34000,"station_id":"ce4bhr92rcd13ifvqhsg","pricing_plan_id":"cebpf4jnsgd1na2vs0mg"},{"bike_id":"b3f478ac-3b05-4edf-bdbf-76399090f8e9","system_id":"levelo_inurba_marseille","lat":43.29994,"lon":5.37639,"is_reserved":false,"is_disabled":true,"rental_uris":{"android":"levelo://app?vid=b3f478ac-3b05-4edf-bdbf-76399090f8e9","ios":"levelo://app?vid=b3f478ac-3b05-4edf-bdbf-76399090f8e9"},"vehicle_type_id":"4","last_reported":1733346553,"current_range_meters":0,"station_id":"","pricing_plan_id":"cebpf4jnsgd1na2vs0mg"},{"bike_id":"c3587c28-5435-41c6-a9b7-aa468e6b19aa","system_id":"levelo_inurba_marseille","lat":43.29746,"lon":5.37916,"is_reserved":false,"is_disabled":true,"rental_uris":{"android":"levelo://app?vid=c3587c28-5435-41c6-a9b7-aa468e6b19aa","ios":"levelo://app?vid=c3587c28-5435-41c6-a9b7-aa468e6b19aa"},"vehicle_type_id":"4","last_reported":1733346553,"current_range_meters":0,"station_id":"","pricing_plan_id":"cebpf4jnsgd1na2vs0mg"},{"bike_id":"75c4f34a-89f4-4145-a2e2-7dafbc1cdf90","system_id":"levelo_inurba_marseille","lat":43.29012,"lon":5.37264,"is_reserved":false,"is_disabled":true,"rental_uris":{"android":"levelo://app?vid=75c4f34a-89f4-4145-a2e2-7dafbc1cdf90","ios":"levelo://app?vid=75c4f34a-89f4-4145-a2e2-7dafbc1cdf90"},"vehicle_type_id":"4","last_reported":1733346553,"current_range_meters":0,"station_id":"","pricing_plan_id":"cebpf4jnsgd1na2vs0mg"},{"bike_id":"c65db16c-e810-4d3a-bd65-1dac7e477222","system_id":"levelo_inurba_marseille","lat":43.31708,"lon":5.43703,"is_reserved":false,"is_disabled":false,"rental_uris":{"android":"levelo://app?vid=c65db16c-e810-4d3a-bd65-1dac7e477222","ios":"levelo://app?vid=c65db16c-e810-4d3a-bd65-1dac7e477222"},"vehicle_type_id":"4","last_reported":1733346553,"current_range_meters":38800,"station_id":"ce4bhp92rcd13ifvqhcg","pricing_plan_id":"cebpf4jnsgd1na2vs0mg"},{"bike_id":"e29b60aa-1f72-427b-a36d-c83abb4b9f12","system_id":"levelo_inurba_marseille","lat":43.29526,"lon":5.3904,"is_reserved":false,"is_disabled":false,"rental_uris":{"android":"levelo://app?vid=e29b60aa-1f72-427b-a36d-c83abb4b9f12","ios":"levelo://app?vid=e29b60aa-1f72-427b-a36d-c83abb4b9f12"},"vehicle_type_id":"4","last_reported":1733346553,"current_range_meters":39200,"station_id":"ce4bh3p2rcd13ifvqdp0","pricing_plan_id":"cebpf4jnsgd1na2vs0mg"},{"bike_id":"e8d9fcd3-6c4c-4c2e-a87e-41c5e4dfa6d0","system_id":"levelo_inurba_marseille","lat":43.25438,"lon":5.38158,"is_reserved":false,"is_disabled":true,"rental_uris":{"android":"levelo://app?vid=e8d9fcd3-6c4c-4c2e-a87e-41c5e4dfa6d0","ios":"levelo://app?vid=e8d9fcd3-6c4c-4c2e-a87e-41c5e4dfa6d0"},"vehicle_type_id":"4","last_reported":1733346553,"current_range_meters":0,"station_id":"","pricing_plan_id":"cebpf4jnsgd1na2vs0mg"},{"bike_id":"e7c2b082-ef91-42b1-9ef0-9e4329cee9cb","system_id":"levelo_inurba_marseille","lat":43.2992,"lon":5.40347,"is_reserved":false,"is_disabled":true,"rental_uris":{"android":"levelo://app?vid=e7c2b082-ef91-42b1-9ef0-9e4329cee9cb","ios":"levelo://app?vid=e7c2b082-ef91-42b1-9ef0-9e4329cee9cb"},"vehicle_type_id":"4","last_reported":1733346553,"current_range_meters":0,"station_id":"","pricing_plan_id":"cebpf4jnsgd1na2vs0mg"},{"bike_id":"1193e2de-f4a1-40ed-9859-1770abcb2343","system_id":"levelo_inurba_marseille","lat":43.29552,"lon":5.42284,"is_reserved":false,"is_disabled":false,"rental_uris":{"android":"levelo://app?vid=1193e2de-f4a1-40ed-9859-1770abcb2343","ios":"levelo://app?vid=1193e2de-f4a1-40ed-9859-1770abcb2343"},"vehicle_type_id":"4","last_reported":1733346553,"current_range_meters":17200,"station_id":"ce4bhph2rcd13ifvqhdg","pricing_plan_id":"cebpf4jnsgd1na2vs0mg"},{"bike_id":"7e8fc6cf-f0f2-4700-8557-beaab027395f","system_id":"levelo_inurba_marseille","lat":43.31481,"lon":5.37299,"is_reserved":false,"is_disabled":false,"rental_uris":{"android":"levelo://app?vid=7e8fc6cf-f0f2-4700-8557-beaab027395f","ios":"levelo://app?vid=7e8fc6cf-f0f2-4700-8557-beaab027395f"},"vehicle_type_id":"4","last_reported":1733346553,"current_range_meters":12800,"station_id":"ce4bgt12rcd13ifvqcd0","pricing_plan_id":"cebpf4jnsgd1na2vs0mg"},{"bike_id":"0fefa0dc-edeb-4cf0-b2e7-27e58965422f","system_id":"levelo_inurba_marseille","lat":43.31169,"lon":5.38708,"is_reserved":false,"is_disabled":false,"rental_uris":{"android":"levelo://app?vid=0fefa0dc-edeb-4cf0-b2e7-27e58965422f","ios":"levelo://app?vid=0fefa0dc-edeb-4cf0-b2e7-27e58965422f"},"vehicle_type_id":"4","last_reported":1733346553,"current_range_meters":30800,"station_id":"ce4bgv12rcd13ifvqcp0","pricing_plan_id":"cebpf4jnsgd1na2vs0mg"},{"bike_id":"63bbf9db-f670-4808-82d3-3fbcefc33022","system_id":"levelo_inurba_marseille","lat":43.25582,"lon":5.38239,"is_reserved":false,"is_disabled":false,"rental_uris":{"android":"levelo://app?vid=63bbf9db-f670-4808-82d3-3fbcefc33022","ios":"levelo://app?vid=63bbf9db-f670-4808-82d3-3fbcefc33022"},"vehicle_type_id":"4","last_reported":1733346553,"current_range_meters":37600,"station_id":"ce4bhih2rcd13ifvqfs0","pricing_plan_id":"cebpf4jnsgd1na2vs0mg"},{"bike_id":"21c22579-77f8-4f8e-9d69-9c4a44008a3b","system_id":"levelo_inurba_marseille","lat":43.28704,"lon":5.39991,"is_reserved":false,"is_disabled":false,"rental_uris":{"android":"levelo://app?vid=21c22579-77f8-4f8e-9d69-9c4a44008a3b","ios":"levelo://app?vid=21c22579-77f8-4f8e-9d69-9c4a44008a3b"},"vehicle_type_id":"4","last_reported":1733346553,"current_range_meters":26000,"station_id":"ce4bho92rcd13ifvqh3g","pricing_plan_id":"cebpf4jnsgd1na2vs0mg"},{"bike_id":"6d873ca7-b760-4882-8153-d6c1f0da79b6","system_id":"levelo_inurba_marseille","lat":43.29556,"lon":5.37511,"is_reserved":false,"is_disabled":false,"rental_uris":{"android":"levelo://app?vid=6d873ca7-b760-4882-8153-d6c1f0da79b6","ios":"levelo://app?vid=6d873ca7-b760-4882-8153-d6c1f0da79b6"},"vehicle_type_id":"4","last_reported":1733346553,"current_range_meters":6400,"station_id":"ce4bgh92rcd13ifvqb50","pricing_plan_id":"cebpf4jnsgd1na2vs0mg"},{"bike_id":"47446314-3377-4eeb-ac99-7c7c1d340bea","system_id":"levelo_inurba_marseille","lat":43.27812,"lon":5.40699,"is_reserved":false,"is_disabled":false,"rental_uris":{"android":"levelo://app?vid=47446314-3377-4eeb-ac99-7c7c1d340bea","ios":"levelo://app?vid=47446314-3377-4eeb-ac99-7c7c1d340bea"},"vehicle_type_id":"4","last_reported":1733346553,"current_range_meters":3200,"station_id":"ce4bhnh2rcd13ifvqgtg","pricing_plan_id":"cebpf4jnsgd1na2vs0mg"},{"bike_id":"ab526d01-0b32-4647-a077-f946d38526c2","system_id":"levelo_inurba_marseille","lat":43.27563,"lon":5.38426,"is_reserved":false,"is_disabled":false,"rental_uris":{"android":"levelo://app?vid=ab526d01-0b32-4647-a077-f946d38526c2","ios":"levelo://app?vid=ab526d01-0b32-4647-a077-f946d38526c2"},"vehicle_type_id":"4","last_reported":1733346553,"current_range_meters":11600,"station_id":"ce4bhh92rcd13ifvqfi0","pricing_plan_id":"cebpf4jnsgd1na2vs0mg"},{"bike_id":"0f30e837-871f-4a2c-aeff-7fec469dda07","system_id":"levelo_inurba_marseille","lat":43.29903,"lon":5.4366,"is_reserved":false,"is_disabled":false,"rental_uris":{"android":"levelo://app?vid=0f30e837-871f-4a2c-aeff-7fec469dda07","ios":"levelo://app?vid=0f30e837-871f-4a2c-aeff-7fec469dda07"},"vehicle_type_id":"4","last_reported":1733346553,"current_range_meters":19200,"station_id":"ce4bhpp2rcd13ifvqhfg","pricing_plan_id":"cebpf4jnsgd1na2vs0mg"},{"bike_id":"dfdab842-6863-4af8-9afd-054176295b2d","system_id":"levelo_inurba_marseille","lat":43.24668,"lon":5.38173,"is_reserved":false,"is_disabled":false,"rental_uris":{"android":"levelo://app?vid=dfdab842-6863-4af8-9afd-054176295b2d","ios":"levelo://app?vid=dfdab842-6863-4af8-9afd-054176295b2d"},"vehicle_type_id":"4","last_reported":1733346553,"current_range_meters":38800,"station_id":"ce4bhih2rcd13ifvqfr0","pricing_plan_id":"cebpf4jnsgd1na2vs0mg"},{"bike_id":"132970a3-ee02-48dc-a0cb-b3140e3325a4","system_id":"levelo_inurba_marseille","lat":43.266786,"lon":5.382698,"is_reserved":false,"is_disabled":true,"rental_uris":{"android":"levelo://app?vid=132970a3-ee02-48dc-a0cb-b3140e3325a4","ios":"levelo://app?vid=132970a3-ee02-48dc-a0cb-b3140e3325a4"},"vehicle_type_id":"4","last_reported":1733346553,"current_range_meters":0,"station_id":"ce4bhg92rcd13ifvqf90","pricing_plan_id":"cebpf4jnsgd1na2vs0mg"},{"bike_id":"2f3968e7-9336-4ee4-ba78-8e92c0a818cc","system_id":"levelo_inurba_marseille","lat":43.31322,"lon":5.36647,"is_reserved":false,"is_disabled":true,"rental_uris":{"android":"levelo://app?vid=2f3968e7-9336-4ee4-ba78-8e92c0a818cc","ios":"levelo://app?vid=2f3968e7-9336-4ee4-ba78-8e92c0a818cc"},"vehicle_type_id":"4","last_reported":1733346553,"current_range_meters":1200,"station_id":"","pricing_plan_id":"cebpf4jnsgd1na2vs0mg"},{"bike_id":"dc8d6a14-a9de-48fa-a9b7-1ff0f578bfc4","system_id":"levelo_inurba_marseille","lat":43.2923,"lon":5.3606,"is_reserved":false,"is_disabled":false,"rental_uris":{"android":"levelo://app?vid=dc8d6a14-a9de-48fa-a9b7-1ff0f578bfc4","ios":"levelo://app?vid=dc8d6a14-a9de-48fa-a9b7-1ff0f578bfc4"},"vehicle_type_id":"4","last_reported":1733346553,"current_range_meters":38800,"station_id":"ce4bhbh2rcd13ifvqeqg","pricing_plan_id":"cebpf4jnsgd1na2vs0mg"},{"bike_id":"16bea42d-3248-41fd-8b51-39fb3d7ec2c4","system_id":"levelo_inurba_marseille","lat":43.26471,"lon":5.38525,"is_reserved":false,"is_disabled":true,"rental_uris":{"android":"levelo://app?vid=16bea42d-3248-41fd-8b51-39fb3d7ec2c4","ios":"levelo://app?vid=16bea42d-3248-41fd-8b51-39fb3d7ec2c4"},"vehicle_type_id":"4","last_reported":1733346553,"current_range_meters":0,"station_id":"","pricing_plan_id":"cebpf4jnsgd1na2vs0mg"},{"bike_id":"c3e5569f-7c48-4ae2-aa1a-b9bb23c0f500","system_id":"levelo_inurba_marseille","lat":43.28406,"lon":5.37524,"is_reserved":false,"is_disabled":false,"rental_uris":{"android":"levelo://app?vid=c3e5569f-7c48-4ae2-aa1a-b9bb23c0f500","ios":"levelo://app?vid=c3e5569f-7c48-4ae2-aa1a-b9bb23c0f500"},"vehicle_type_id":"4","last_reported":1733346553,"current_range_meters":16400,"station_id":"ce4bh412rcd13ifvqds0","pricing_plan_id":"cebpf4jnsgd1na2vs0mg"},{"bike_id":"c978ea4f-7994-4771-8562-7cfcc493f3fe","system_id":"levelo_inurba_marseille","lat":43.27665,"lon":5.38919,"is_reserved":false,"is_disabled":false,"rental_uris":{"android":"levelo://app?vid=c978ea4f-7994-4771-8562-7cfcc493f3fe","ios":"levelo://app?vid=c978ea4f-7994-4771-8562-7cfcc493f3fe"},"vehicle_type_id":"4","last_reported":1733346553,"current_range_meters":38800,"station_id":"ce4bhi12rcd13ifvqfo0","pricing_plan_id":"cebpf4jnsgd1na2vs0mg"},{"bike_id":"fefed06f-f77c-4003-83aa-4b7097b9e66e","system_id":"levelo_inurba_marseille","lat":43.25561,"lon":5.40982,"is_reserved":false,"is_disabled":false,"rental_uris":{"android":"levelo://app?vid=fefed06f-f77c-4003-83aa-4b7097b9e66e","ios":"levelo://app?vid=fefed06f-f77c-4003-83aa-4b7097b9e66e"},"vehicle_type_id":"4","last_reported":1733346553,"current_range_meters":36400,"station_id":"","pricing_plan_id":"cebpf4jnsgd1na2vs0mg"},{"bike_id":"7e00f221-e10c-4cec-94db-d74cfbedeac9","system_id":"levelo_inurba_marseille","lat":43.31532,"lon":5.3802,"is_reserved":false,"is_disabled":false,"rental_uris":{"android":"levelo://app?vid=7e00f221-e10c-4cec-94db-d74cfbedeac9","ios":"levelo://app?vid=7e00f221-e10c-4cec-94db-d74cfbedeac9"},"vehicle_type_id":"4","last_reported":1733346553,"current_range_meters":21600,"station_id":"ce4bhsp2rcd13ifvqi50","pricing_plan_id":"cebpf4jnsgd1na2vs0mg"},{"bike_id":"a5acf5d2-0095-4547-bd44-4edf280e2cf8","system_id":"levelo_inurba_marseille","lat":43.31269,"lon":5.40165,"is_reserved":false,"is_disabled":false,"rental_uris":{"android":"levelo://app?vid=a5acf5d2-0095-4547-bd44-4edf280e2cf8","ios":"levelo://app?vid=a5acf5d2-0095-4547-bd44-4edf280e2cf8"},"vehicle_type_id":"4","last_reported":1733346553,"current_range_meters":28400,"station_id":"ce4bh092rcd13ifvqd30","pricing_plan_id":"cebpf4jnsgd1na2vs0mg"},{"bike_id":"64c9258e-0e50-457c-bbaf-9293f9b31992","system_id":"levelo_inurba_marseille","lat":43.29048,"lon":5.37573,"is_reserved":false,"is_disabled":false,"rental_uris":{"android":"levelo://app?vid=64c9258e-0e50-457c-bbaf-9293f9b31992","ios":"levelo://app?vid=64c9258e-0e50-457c-bbaf-9293f9b31992"},"vehicle_type_id":"4","last_reported":1733346553,"current_range_meters":38800,"station_id":"ce4bh692rcd13ifvqe90","pricing_plan_id":"cebpf4jnsgd1na2vs0mg"},{"bike_id":"bc17f359-3933-45c8-ad56-9925f6a38dca","system_id":"levelo_inurba_marseille","lat":43.32344,"lon":5.40613,"is_reserved":false,"is_disabled":false,"rental_uris":{"android":"levelo://app?vid=bc17f359-3933-45c8-ad56-9925f6a38dca","ios":"levelo://app?vid=bc17f359-3933-45c8-ad56-9925f6a38dca"},"vehicle_type_id":"4","last_reported":1733346553,"current_range_meters":26000,"station_id":"ce4bhq92rcd13ifvqhjg","pricing_plan_id":"cebpf4jnsgd1na2vs0mg"},{"bike_id":"2b355302-a869-4a30-ac84-cc560b1d5410","system_id":"levelo_inurba_marseille","lat":43.31683,"lon":5.40471,"is_reserved":false,"is_disabled":false,"rental_uris":{"android":"levelo://app?vid=2b355302-a869-4a30-ac84-cc560b1d5410","ios":"levelo://app?vid=2b355302-a869-4a30-ac84-cc560b1d5410"},"vehicle_type_id":"4","last_reported":1733346553,"current_range_meters":14400,"station_id":"ce4bh012rcd13ifvqd00","pricing_plan_id":"cebpf4jnsgd1na2vs0mg"},{"bike_id":"edf85509-ab78-418d-a76b-a6a2457f95ab","system_id":"levelo_inurba_marseille","lat":43.31329,"lon":5.39683,"is_reserved":false,"is_disabled":false,"rental_uris":{"android":"levelo://app?vid=edf85509-ab78-418d-a76b-a6a2457f95ab","ios":"levelo://app?vid=edf85509-ab78-418d-a76b-a6a2457f95ab"},"vehicle_type_id":"4","last_reported":1733346553,"current_range_meters":38800,"station_id":"ce4bgvp2rcd13ifvqcu0","pricing_plan_id":"cebpf4jnsgd1na2vs0mg"},{"bike_id":"f414f406-3c0e-4948-b1a8-40f60759094e","system_id":"levelo_inurba_marseille","lat":43.287044,"lon":5.374063,"is_reserved":false,"is_disabled":false,"rental_uris":{"android":"levelo://app?vid=f414f406-3c0e-4948-b1a8-40f60759094e","ios":"levelo://app?vid=f414f406-3c0e-4948-b1a8-40f60759094e"},"vehicle_type_id":"4","last_reported":1733346553,"current_range_meters":38400,"station_id":"ce4bh3p2rcd13ifvqdq0","pricing_plan_id":"cebpf4jnsgd1na2vs0mg"},{"bike_id":"6f1f4c8f-b22d-4d1d-88ae-6f2707bae092","system_id":"levelo_inurba_marseille","lat":43.2698,"lon":5.40036,"is_reserved":false,"is_disabled":false,"rental_uris":{"android":"levelo://app?vid=6f1f4c8f-b22d-4d1d-88ae-6f2707bae092","ios":"levelo://app?vid=6f1f4c8f-b22d-4d1d-88ae-6f2707bae092"},"vehicle_type_id":"4","last_reported":1733346553,"current_range_meters":38800,"station_id":"","pricing_plan_id":"cebpf4jnsgd1na2vs0mg"},{"bike_id":"4156462a-4735-45ee-8da0-a9945ed8f6d7","system_id":"levelo_inurba_marseille","lat":43.30633,"lon":5.40066,"is_reserved":false,"is_disabled":false,"rental_uris":{"android":"levelo://app?vid=4156462a-4735-45ee-8da0-a9945ed8f6d7","ios":"levelo://app?vid=4156462a-4735-45ee-8da0-a9945ed8f6d7"},"vehicle_type_id":"4","last_reported":1733346553,"current_range_meters":28800,"station_id":"ce4bh112rcd13ifvqda0","pricing_plan_id":"cebpf4jnsgd1na2vs0mg"},{"bike_id":"46b3db91-a2c4-44c8-b14d-7d473bb1a0f9","system_id":"levelo_inurba_marseille","lat":43.27834,"lon":5.39209,"is_reserved":false,"is_disabled":false,"rental_uris":{"android":"levelo://app?vid=46b3db91-a2c4-44c8-b14d-7d473bb1a0f9","ios":"levelo://app?vid=46b3db91-a2c4-44c8-b14d-7d473bb1a0f9"},"vehicle_type_id":"4","last_reported":1733346553,"current_range_meters":38800,"station_id":"ce4bhjp2rcd13ifvqga0","pricing_plan_id":"cebpf4jnsgd1na2vs0mg"},{"bike_id":"5a50557a-331c-47f8-82cc-e12807c908db","system_id":"levelo_inurba_marseille","lat":43.33022,"lon":5.39042,"is_reserved":false,"is_disabled":false,"rental_uris":{"android":"levelo://app?vid=5a50557a-331c-47f8-82cc-e12807c908db","ios":"levelo://app?vid=5a50557a-331c-47f8-82cc-e12807c908db"},"vehicle_type_id":"4","last_reported":1733346553,"current_range_meters":25200,"station_id":"ce4bhr92rcd13ifvqhrg","pricing_plan_id":"cebpf4jnsgd1na2vs0mg"},{"bike_id":"3f33c6d6-e03f-4644-a1ff-27c97f6daacd","system_id":"levelo_inurba_marseille","lat":43.27421,"lon":5.39417,"is_reserved":false,"is_disabled":false,"rental_uris":{"android":"levelo://app?vid=3f33c6d6-e03f-4644-a1ff-27c97f6daacd","ios":"levelo://app?vid=3f33c6d6-e03f-4644-a1ff-27c97f6daacd"},"vehicle_type_id":"4","last_reported":1733346553,"current_range_meters":18800,"station_id":"ce4bhdp2rcd13ifvqf20","pricing_plan_id":"cebpf4jnsgd1na2vs0mg"},{"bike_id":"9108fa6d-fa85-4a83-a690-1bbae5f75069","system_id":"levelo_inurba_marseille","lat":43.28075,"lon":5.39653,"is_reserved":false,"is_disabled":false,"rental_uris":{"android":"levelo://app?vid=9108fa6d-fa85-4a83-a690-1bbae5f75069","ios":"levelo://app?vid=9108fa6d-fa85-4a83-a690-1bbae5f75069"},"vehicle_type_id":"4","last_reported":1733346553,"current_range_meters":38800,"station_id":"ce4bho12rcd13ifvqh2g","pricing_plan_id":"cebpf4jnsgd1na2vs0mg"},{"bike_id":"083c0f74-65cd-4a47-a359-33d01e265a9c","system_id":"levelo_inurba_marseille","lat":43.28724,"lon":5.37951,"is_reserved":false,"is_disabled":true,"rental_uris":{"android":"levelo://app?vid=083c0f74-65cd-4a47-a359-33d01e265a9c","ios":"levelo://app?vid=083c0f74-65cd-4a47-a359-33d01e265a9c"},"vehicle_type_id":"4","last_reported":1733346553,"current_range_meters":28400,"station_id":"ce4bh9p2rcd13ifvqec0","pricing_plan_id":"cebpf4jnsgd1na2vs0mg"},{"bike_id":"e14bb60d-52dc-49c6-8312-cecc6af9d01f","system_id":"levelo_inurba_marseille","lat":43.31325,"lon":5.39695,"is_reserved":false,"is_disabled":false,"rental_uris":{"android":"levelo://app?vid=e14bb60d-52dc-49c6-8312-cecc6af9d01f","ios":"levelo://app?vid=e14bb60d-52dc-49c6-8312-cecc6af9d01f"},"vehicle_type_id":"4","last_reported":1733346553,"current_range_meters":9200,"station_id":"ce4bgvp2rcd13ifvqcu0","pricing_plan_id":"cebpf4jnsgd1na2vs0mg"},{"bike_id":"ef8dccf7-5c02-4648-910c-2c64ce488a65","system_id":"levelo_inurba_marseille","lat":43.281438,"lon":5.427904,"is_reserved":false,"is_disabled":false,"rental_uris":{"android":"levelo://app?vid=ef8dccf7-5c02-4648-910c-2c64ce488a65","ios":"levelo://app?vid=ef8dccf7-5c02-4648-910c-2c64ce488a65"},"vehicle_type_id":"4","last_reported":1733346553,"current_range_meters":9200,"station_id":"","pricing_plan_id":"cebpf4jnsgd1na2vs0mg"},{"bike_id":"afddb0ff-7658-4984-b285-b427f08dacd1","system_id":"levelo_inurba_marseille","lat":43.25093,"lon":5.40326,"is_reserved":false,"is_disabled":false,"rental_uris":{"android":"levelo://app?vid=afddb0ff-7658-4984-b285-b427f08dacd1","ios":"levelo://app?vid=afddb0ff-7658-4984-b285-b427f08dacd1"},"vehicle_type_id":"4","last_reported":1733346553,"current_range_meters":38800,"station_id":"ce4bhlh2rcd13ifvqgig","pricing_plan_id":"cebpf4jnsgd1na2vs0mg"},{"bike_id":"b73386f2-fa04-4fae-98be-ff0e17efea9c","system_id":"levelo_inurba_marseille","lat":43.32367,"lon":5.38887,"is_reserved":false,"is_disabled":false,"rental_uris":{"android":"levelo://app?vid=b73386f2-fa04-4fae-98be-ff0e17efea9c","ios":"levelo://app?vid=b73386f2-fa04-4fae-98be-ff0e17efea9c"},"vehicle_type_id":"4","last_reported":1733346553,"current_range_meters":6400,"station_id":"ce4bhqp2rcd13ifvqhog","pricing_plan_id":"cebpf4jnsgd1na2vs0mg"},{"bike_id":"8b3e6974-295b-4cad-992d-a76d04015515","system_id":"levelo_inurba_marseille","lat":43.2844,"lon":5.39195,"is_reserved":false,"is_disabled":false,"rental_uris":{"android":"levelo://app?vid=8b3e6974-295b-4cad-992d-a76d04015515","ios":"levelo://app?vid=8b3e6974-295b-4cad-992d-a76d04015515"},"vehicle_type_id":"4","last_reported":1733346553,"current_range_meters":22400,"station_id":"ce4bhoh2rcd13ifvqh5g","pricing_plan_id":"cebpf4jnsgd1na2vs0mg"},{"bike_id":"5cef358c-4d33-4f46-b1a1-56f6f4f255fd","system_id":"levelo_inurba_marseille","lat":43.29569,"lon":5.43938,"is_reserved":false,"is_disabled":true,"rental_uris":{"android":"levelo://app?vid=5cef358c-4d33-4f46-b1a1-56f6f4f255fd","ios":"levelo://app?vid=5cef358c-4d33-4f46-b1a1-56f6f4f255fd"},"vehicle_type_id":"4","last_reported":1733346553,"current_range_meters":0,"station_id":"","pricing_plan_id":"cebpf4jnsgd1na2vs0mg"},{"bike_id":"734d07dc-217f-41dd-93a2-1bef235667d0","system_id":"levelo_inurba_marseille","lat":43.24395,"lon":5.37066,"is_reserved":false,"is_disabled":true,"rental_uris":{"android":"levelo://app?vid=734d07dc-217f-41dd-93a2-1bef235667d0","ios":"levelo://app?vid=734d07dc-217f-41dd-93a2-1bef235667d0"},"vehicle_type_id":"4","last_reported":1733346553,"current_range_meters":14000,"station_id":"ce4bhhh2rcd13ifvqfk0","pricing_plan_id":"cebpf4jnsgd1na2vs0mg"},{"bike_id":"e25873f4-3a76-425b-b06c-7658e25c7bd9","system_id":"levelo_inurba_marseille","lat":43.31229,"lon":5.36858,"is_reserved":false,"is_disabled":false,"rental_uris":{"android":"levelo://app?vid=e25873f4-3a76-425b-b06c-7658e25c7bd9","ios":"levelo://app?vid=e25873f4-3a76-425b-b06c-7658e25c7bd9"},"vehicle_type_id":"4","last_reported":1733346553,"current_range_meters":12800,"station_id":"ce4bgl92rcd13ifvqbq0","pricing_plan_id":"cebpf4jnsgd1na2vs0mg"},{"bike_id":"0de1cf1d-afca-4ce8-9aaa-eb4d8ffb460a","system_id":"levelo_inurba_marseille","lat":43.26201,"lon":5.37928,"is_reserved":false,"is_disabled":false,"rental_uris":{"android":"levelo://app?vid=0de1cf1d-afca-4ce8-9aaa-eb4d8ffb460a","ios":"levelo://app?vid=0de1cf1d-afca-4ce8-9aaa-eb4d8ffb460a"},"vehicle_type_id":"4","last_reported":1733346553,"current_range_meters":30800,"station_id":"ce4bhjp2rcd13ifvqg90","pricing_plan_id":"cebpf4jnsgd1na2vs0mg"},{"bike_id":"129a4210-2541-4275-959b-7a3a4cdc5c56","system_id":"levelo_inurba_marseille","lat":43.30885,"lon":5.39639,"is_reserved":false,"is_disabled":false,"rental_uris":{"android":"levelo://app?vid=129a4210-2541-4275-959b-7a3a4cdc5c56","ios":"levelo://app?vid=129a4210-2541-4275-959b-7a3a4cdc5c56"},"vehicle_type_id":"4","last_reported":1733346553,"current_range_meters":30000,"station_id":"ce4bh012rcd13ifvqcv0","pricing_plan_id":"cebpf4jnsgd1na2vs0mg"},{"bike_id":"7fbe1f77-7e94-4430-97d7-452b0376d614","system_id":"levelo_inurba_marseille","lat":43.29271,"lon":5.38444,"is_reserved":false,"is_disabled":false,"rental_uris":{"android":"levelo://app?vid=7fbe1f77-7e94-4430-97d7-452b0376d614","ios":"levelo://app?vid=7fbe1f77-7e94-4430-97d7-452b0376d614"},"vehicle_type_id":"4","last_reported":1733346553,"current_range_meters":31200,"station_id":"ce4bh692rcd13ifvqea0","pricing_plan_id":"cebpf4jnsgd1na2vs0mg"},{"bike_id":"cdfe6590-4984-4014-86c8-6dd70747c27a","system_id":"levelo_inurba_marseille","lat":43.29737,"lon":5.37434,"is_reserved":false,"is_disabled":true,"rental_uris":{"android":"levelo://app?vid=cdfe6590-4984-4014-86c8-6dd70747c27a","ios":"levelo://app?vid=cdfe6590-4984-4014-86c8-6dd70747c27a"},"vehicle_type_id":"4","last_reported":1733346553,"current_range_meters":0,"station_id":"","pricing_plan_id":"cebpf4jnsgd1na2vs0mg"},{"bike_id":"a5fd9bee-2e92-41a6-a680-3288f7c17710","system_id":"levelo_inurba_marseille","lat":43.28152,"lon":5.42648,"is_reserved":false,"is_disabled":false,"rental_uris":{"android":"levelo://app?vid=a5fd9bee-2e92-41a6-a680-3288f7c17710","ios":"levelo://app?vid=a5fd9bee-2e92-41a6-a680-3288f7c17710"},"vehicle_type_id":"4","last_reported":1733346553,"current_range_meters":38800,"station_id":"ce4bhnh2rcd13ifvqgug","pricing_plan_id":"cebpf4jnsgd1na2vs0mg"},{"bike_id":"9309313e-316d-4707-816e-67df9a39a867","system_id":"levelo_inurba_marseille","lat":43.2895,"lon":5.36391,"is_reserved":false,"is_disabled":true,"rental_uris":{"android":"levelo://app?vid=9309313e-316d-4707-816e-67df9a39a867","ios":"levelo://app?vid=9309313e-316d-4707-816e-67df9a39a867"},"vehicle_type_id":"4","last_reported":1733346553,"current_range_meters":12000,"station_id":"ce4bhc92rcd13ifvqetg","pricing_plan_id":"cebpf4jnsgd1na2vs0mg"},{"bike_id":"6b242990-7fff-4f38-9490-f80fd76ceeeb","system_id":"levelo_inurba_marseille","lat":43.2979,"lon":5.39341,"is_reserved":false,"is_disabled":false,"rental_uris":{"android":"levelo://app?vid=6b242990-7fff-4f38-9490-f80fd76ceeeb","ios":"levelo://app?vid=6b242990-7fff-4f38-9490-f80fd76ceeeb"},"vehicle_type_id":"4","last_reported":1733346553,"current_range_meters":33600,"station_id":"chh1huq6cuj3fo74tm60","pricing_plan_id":"cebpf4jnsgd1na2vs0mg"},{"bike_id":"d4109818-53bc-4fed-b50a-7c42a9ee5d37","system_id":"levelo_inurba_marseille","lat":43.24813,"lon":5.37462,"is_reserved":false,"is_disabled":false,"rental_uris":{"android":"levelo://app?vid=d4109818-53bc-4fed-b50a-7c42a9ee5d37","ios":"levelo://app?vid=d4109818-53bc-4fed-b50a-7c42a9ee5d37"},"vehicle_type_id":"4","last_reported":1733346553,"current_range_meters":24000,"station_id":"ce4bhgh2rcd13ifvqfb0","pricing_plan_id":"cebpf4jnsgd1na2vs0mg"},{"bike_id":"987a5ab4-d60c-480c-94b6-7cab38975402","system_id":"levelo_inurba_marseille","lat":43.29748,"lon":5.37971,"is_reserved":false,"is_disabled":true,"rental_uris":{"android":"levelo://app?vid=987a5ab4-d60c-480c-94b6-7cab38975402","ios":"levelo://app?vid=987a5ab4-d60c-480c-94b6-7cab38975402"},"vehicle_type_id":"4","last_reported":1733346553,"current_range_meters":0,"station_id":"","pricing_plan_id":"cebpf4jnsgd1na2vs0mg"},{"bike_id":"2c4596ad-0ad9-4016-b92b-0093349de2b4","system_id":"levelo_inurba_marseille","lat":43.30755,"lon":5.38187,"is_reserved":false,"is_disabled":true,"rental_uris":{"android":"levelo://app?vid=2c4596ad-0ad9-4016-b92b-0093349de2b4","ios":"levelo://app?vid=2c4596ad-0ad9-4016-b92b-0093349de2b4"},"vehicle_type_id":"4","last_reported":1733346553,"current_range_meters":0,"station_id":"","pricing_plan_id":"cebpf4jnsgd1na2vs0mg"},{"bike_id":"61d7f8a2-cc7f-478c-ae5e-d1637cbbf728","system_id":"levelo_inurba_marseille","lat":43.25116,"lon":5.40323,"is_reserved":false,"is_disabled":false,"rental_uris":{"android":"levelo://app?vid=61d7f8a2-cc7f-478c-ae5e-d1637cbbf728","ios":"levelo://app?vid=61d7f8a2-cc7f-478c-ae5e-d1637cbbf728"},"vehicle_type_id":"4","last_reported":1733346553,"current_range_meters":4400,"station_id":"ce4bhlh2rcd13ifvqgig","pricing_plan_id":"cebpf4jnsgd1na2vs0mg"},{"bike_id":"4a0e059c-8780-4c1d-b155-5d5e7c974094","system_id":"levelo_inurba_marseille","lat":43.29791,"lon":5.40404,"is_reserved":false,"is_disabled":false,"rental_uris":{"android":"levelo://app?vid=4a0e059c-8780-4c1d-b155-5d5e7c974094","ios":"levelo://app?vid=4a0e059c-8780-4c1d-b155-5d5e7c974094"},"vehicle_type_id":"4","last_reported":1733346553,"current_range_meters":39200,"station_id":"ce4bh112rcd13ifvqd90","pricing_plan_id":"cebpf4jnsgd1na2vs0mg"},{"bike_id":"b7ab8c01-033f-4395-8276-23c850ad3d02","system_id":"levelo_inurba_marseille","lat":43.30348,"lon":5.36626,"is_reserved":false,"is_disabled":true,"rental_uris":{"android":"levelo://app?vid=b7ab8c01-033f-4395-8276-23c850ad3d02","ios":"levelo://app?vid=b7ab8c01-033f-4395-8276-23c850ad3d02"},"vehicle_type_id":"4","last_reported":1733346553,"current_range_meters":0,"station_id":"","pricing_plan_id":"cebpf4jnsgd1na2vs0mg"},{"bike_id":"3e5094fe-36c8-4f4a-9a18-d38d46ff20f4","system_id":"levelo_inurba_marseille","lat":43.32368,"lon":5.38888,"is_reserved":false,"is_disabled":false,"rental_uris":{"android":"levelo://app?vid=3e5094fe-36c8-4f4a-9a18-d38d46ff20f4","ios":"levelo://app?vid=3e5094fe-36c8-4f4a-9a18-d38d46ff20f4"},"vehicle_type_id":"4","last_reported":1733346553,"current_range_meters":11200,"station_id":"ce4bhqp2rcd13ifvqhog","pricing_plan_id":"cebpf4jnsgd1na2vs0mg"},{"bike_id":"64ddf7ad-d67b-418f-8ac5-39f9291c677a","system_id":"levelo_inurba_marseille","lat":43.2907,"lon":5.37167,"is_reserved":false,"is_disabled":false,"rental_uris":{"android":"levelo://app?vid=64ddf7ad-d67b-418f-8ac5-39f9291c677a","ios":"levelo://app?vid=64ddf7ad-d67b-418f-8ac5-39f9291c677a"},"vehicle_type_id":"4","last_reported":1733346553,"current_range_meters":38800,"station_id":"ce4bh5p2rcd13ifvqe4g","pricing_plan_id":"cebpf4jnsgd1na2vs0mg"},{"bike_id":"d25acaba-d8d4-43f2-8aeb-8bfae5e50811","system_id":"levelo_inurba_marseille","lat":43.25107,"lon":5.40323,"is_reserved":false,"is_disabled":false,"rental_uris":{"android":"levelo://app?vid=d25acaba-d8d4-43f2-8aeb-8bfae5e50811","ios":"levelo://app?vid=d25acaba-d8d4-43f2-8aeb-8bfae5e50811"},"vehicle_type_id":"4","last_reported":1733346553,"current_range_meters":38800,"station_id":"ce4bhlh2rcd13ifvqgig","pricing_plan_id":"cebpf4jnsgd1na2vs0mg"},{"bike_id":"19d2ce59-2b75-48a1-9810-172e15ca151e","system_id":"levelo_inurba_marseille","lat":43.23197,"lon":5.35544,"is_reserved":false,"is_disabled":false,"rental_uris":{"android":"levelo://app?vid=19d2ce59-2b75-48a1-9810-172e15ca151e","ios":"levelo://app?vid=19d2ce59-2b75-48a1-9810-172e15ca151e"},"vehicle_type_id":"4","last_reported":1733346553,"current_range_meters":6800,"station_id":"ce4bhu92rcd13ifvqi70","pricing_plan_id":"cebpf4jnsgd1na2vs0mg"},{"bike_id":"f099ee54-d871-4165-8e37-23754358d38c","system_id":"levelo_inurba_marseille","lat":43.322822,"lon":5.382764,"is_reserved":false,"is_disabled":false,"rental_uris":{"android":"levelo://app?vid=f099ee54-d871-4165-8e37-23754358d38c","ios":"levelo://app?vid=f099ee54-d871-4165-8e37-23754358d38c"},"vehicle_type_id":"4","last_reported":1733346553,"current_range_meters":33600,"station_id":"ce4bhr12rcd13ifvqhqg","pricing_plan_id":"cebpf4jnsgd1na2vs0mg"},{"bike_id":"fa2aaae2-9d60-4403-857a-340eb96269a4","system_id":"levelo_inurba_marseille","lat":43.24669,"lon":5.3817,"is_reserved":false,"is_disabled":false,"rental_uris":{"android":"levelo://app?vid=fa2aaae2-9d60-4403-857a-340eb96269a4","ios":"levelo://app?vid=fa2aaae2-9d60-4403-857a-340eb96269a4"},"vehicle_type_id":"4","last_reported":1733346553,"current_range_meters":33200,"station_id":"ce4bhih2rcd13ifvqfr0","pricing_plan_id":"cebpf4jnsgd1na2vs0mg"},{"bike_id":"0b74a8e2-4e54-4f39-b9c0-ec541f463b0c","system_id":"levelo_inurba_marseille","lat":43.30603,"lon":5.372275,"is_reserved":false,"is_disabled":false,"rental_uris":{"android":"levelo://app?vid=0b74a8e2-4e54-4f39-b9c0-ec541f463b0c","ios":"levelo://app?vid=0b74a8e2-4e54-4f39-b9c0-ec541f463b0c"},"vehicle_type_id":"4","last_reported":1733346553,"current_range_meters":15200,"station_id":"ce4bgqh2rcd13ifvqc4g","pricing_plan_id":"cebpf4jnsgd1na2vs0mg"},{"bike_id":"21b56b2e-fd94-4a3a-b1a2-bdbe6900866e","system_id":"levelo_inurba_marseille","lat":43.31322,"lon":5.39692,"is_reserved":false,"is_disabled":false,"rental_uris":{"android":"levelo://app?vid=21b56b2e-fd94-4a3a-b1a2-bdbe6900866e","ios":"levelo://app?vid=21b56b2e-fd94-4a3a-b1a2-bdbe6900866e"},"vehicle_type_id":"4","last_reported":1733346553,"current_range_meters":38800,"station_id":"ce4bgvp2rcd13ifvqcu0","pricing_plan_id":"cebpf4jnsgd1na2vs0mg"},{"bike_id":"6cc6805f-c0ca-4585-bdf1-b5a0339762b0","system_id":"levelo_inurba_marseille","lat":43.29018,"lon":5.4281,"is_reserved":false,"is_disabled":true,"rental_uris":{"android":"levelo://app?vid=6cc6805f-c0ca-4585-bdf1-b5a0339762b0","ios":"levelo://app?vid=6cc6805f-c0ca-4585-bdf1-b5a0339762b0"},"vehicle_type_id":"4","last_reported":1733346553,"current_range_meters":0,"station_id":"","pricing_plan_id":"cebpf4jnsgd1na2vs0mg"},{"bike_id":"7b4d4437-e3ba-4779-80c2-def8c06c14d8","system_id":"levelo_inurba_marseille","lat":43.27908,"lon":5.3799,"is_reserved":false,"is_disabled":true,"rental_uris":{"android":"levelo://app?vid=7b4d4437-e3ba-4779-80c2-def8c06c14d8","ios":"levelo://app?vid=7b4d4437-e3ba-4779-80c2-def8c06c14d8"},"vehicle_type_id":"4","last_reported":1733346553,"current_range_meters":0,"station_id":"ce4bhf92rcd13ifvqf50","pricing_plan_id":"cebpf4jnsgd1na2vs0mg"},{"bike_id":"0bfb3d4e-359d-4927-881b-5e84aa873cc8","system_id":"levelo_inurba_marseille","lat":43.32362,"lon":5.36762,"is_reserved":false,"is_disabled":false,"rental_uris":{"android":"levelo://app?vid=0bfb3d4e-359d-4927-881b-5e84aa873cc8","ios":"levelo://app?vid=0bfb3d4e-359d-4927-881b-5e84aa873cc8"},"vehicle_type_id":"4","last_reported":1733346553,"current_range_meters":17600,"station_id":"ce4bhsh2rcd13ifvqi2g","pricing_plan_id":"cebpf4jnsgd1na2vs0mg"},{"bike_id":"8d1c8b92-79bb-4181-b0d2-5e94db1a14d0","system_id":"levelo_inurba_marseille","lat":43.30008,"lon":5.38261,"is_reserved":false,"is_disabled":true,"rental_uris":{"android":"levelo://app?vid=8d1c8b92-79bb-4181-b0d2-5e94db1a14d0","ios":"levelo://app?vid=8d1c8b92-79bb-4181-b0d2-5e94db1a14d0"},"vehicle_type_id":"4","last_reported":1733346553,"current_range_meters":0,"station_id":"","pricing_plan_id":"cebpf4jnsgd1na2vs0mg"},{"bike_id":"acce4f8c-1492-4a04-ae48-695663eaf3a0","system_id":"levelo_inurba_marseille","lat":43.297852,"lon":5.380967,"is_reserved":false,"is_disabled":false,"rental_uris":{"android":"levelo://app?vid=acce4f8c-1492-4a04-ae48-695663eaf3a0","ios":"levelo://app?vid=acce4f8c-1492-4a04-ae48-695663eaf3a0"},"vehicle_type_id":"4","last_reported":1733346553,"current_range_meters":38000,"station_id":"","pricing_plan_id":"cebpf4jnsgd1na2vs0mg"},{"bike_id":"69902979-557b-4685-9682-e4995da6a2c0","system_id":"levelo_inurba_marseille","lat":43.27062,"lon":5.40261,"is_reserved":false,"is_disabled":false,"rental_uris":{"android":"levelo://app?vid=69902979-557b-4685-9682-e4995da6a2c0","ios":"levelo://app?vid=69902979-557b-4685-9682-e4995da6a2c0"},"vehicle_type_id":"4","last_reported":1733346553,"current_range_meters":38800,"station_id":"ce4bhk92rcd13ifvqgc0","pricing_plan_id":"cebpf4jnsgd1na2vs0mg"},{"bike_id":"1d327b1b-12d4-4ffc-95ec-43f973a2cb6c","system_id":"levelo_inurba_marseille","lat":43.23962,"lon":5.36631,"is_reserved":false,"is_disabled":false,"rental_uris":{"android":"levelo://app?vid=1d327b1b-12d4-4ffc-95ec-43f973a2cb6c","ios":"levelo://app?vid=1d327b1b-12d4-4ffc-95ec-43f973a2cb6c"},"vehicle_type_id":"4","last_reported":1733346553,"current_range_meters":16800,"station_id":"ce4bhi12rcd13ifvqfp0","pricing_plan_id":"cebpf4jnsgd1na2vs0mg"},{"bike_id":"2ea56488-64f2-43d8-9773-7c4d8ea14b65","system_id":"levelo_inurba_marseille","lat":43.29299,"lon":5.37458,"is_reserved":false,"is_disabled":false,"rental_uris":{"android":"levelo://app?vid=2ea56488-64f2-43d8-9773-7c4d8ea14b65","ios":"levelo://app?vid=2ea56488-64f2-43d8-9773-7c4d8ea14b65"},"vehicle_type_id":"4","last_reported":1733346553,"current_range_meters":4400,"station_id":"ce4bgi12rcd13ifvqb70","pricing_plan_id":"cebpf4jnsgd1na2vs0mg"},{"bike_id":"f99c98c7-6fcb-4f53-a391-e37ebd732f79","system_id":"levelo_inurba_marseille","lat":43.30934,"lon":5.40139,"is_reserved":false,"is_disabled":false,"rental_uris":{"android":"levelo://app?vid=f99c98c7-6fcb-4f53-a391-e37ebd732f79","ios":"levelo://app?vid=f99c98c7-6fcb-4f53-a391-e37ebd732f79"},"vehicle_type_id":"4","last_reported":1733346553,"current_range_meters":30400,"station_id":"ce4bgvp2rcd13ifvqct0","pricing_plan_id":"cebpf4jnsgd1na2vs0mg"},{"bike_id":"63956e89-b011-4841-b6a4-ba54afb182a1","system_id":"levelo_inurba_marseille","lat":43.29542,"lon":5.3855,"is_reserved":false,"is_disabled":true,"rental_uris":{"android":"levelo://app?vid=63956e89-b011-4841-b6a4-ba54afb182a1","ios":"levelo://app?vid=63956e89-b011-4841-b6a4-ba54afb182a1"},"vehicle_type_id":"4","last_reported":1733346553,"current_range_meters":6800,"station_id":"ce4bgih2rcd13ifvqba0","pricing_plan_id":"cebpf4jnsgd1na2vs0mg"},{"bike_id":"b3ed838e-36ad-4325-824a-a738f0ef27dd","system_id":"levelo_inurba_marseille","lat":43.26552,"lon":5.37283,"is_reserved":false,"is_disabled":false,"rental_uris":{"android":"levelo://app?vid=b3ed838e-36ad-4325-824a-a738f0ef27dd","ios":"levelo://app?vid=b3ed838e-36ad-4325-824a-a738f0ef27dd"},"vehicle_type_id":"4","last_reported":1733346553,"current_range_meters":25200,"station_id":"ce4bhg12rcd13ifvqf70","pricing_plan_id":"cebpf4jnsgd1na2vs0mg"},{"bike_id":"796bd778-a63b-4b81-b652-33d3e6cf5498","system_id":"levelo_inurba_marseille","lat":43.318793,"lon":5.40727,"is_reserved":false,"is_disabled":false,"rental_uris":{"android":"levelo://app?vid=796bd778-a63b-4b81-b652-33d3e6cf5498","ios":"levelo://app?vid=796bd778-a63b-4b81-b652-33d3e6cf5498"},"vehicle_type_id":"4","last_reported":1733346553,"current_range_meters":38800,"station_id":"ce4bhq12rcd13ifvqhig","pricing_plan_id":"cebpf4jnsgd1na2vs0mg"},{"bike_id":"1ca0aca0-4ca4-4bf8-9b1d-054345c3a341","system_id":"levelo_inurba_marseille","lat":43.2888,"lon":5.39992,"is_reserved":false,"is_disabled":false,"rental_uris":{"android":"levelo://app?vid=1ca0aca0-4ca4-4bf8-9b1d-054345c3a341","ios":"levelo://app?vid=1ca0aca0-4ca4-4bf8-9b1d-054345c3a341"},"vehicle_type_id":"4","last_reported":1733346553,"current_range_meters":27200,"station_id":"","pricing_plan_id":"cebpf4jnsgd1na2vs0mg"},{"bike_id":"7f6e112f-9381-4964-8870-7f9b9d3ccbfc","system_id":"levelo_inurba_marseille","lat":43.30645,"lon":5.40081,"is_reserved":false,"is_disabled":false,"rental_uris":{"android":"levelo://app?vid=7f6e112f-9381-4964-8870-7f9b9d3ccbfc","ios":"levelo://app?vid=7f6e112f-9381-4964-8870-7f9b9d3ccbfc"},"vehicle_type_id":"4","last_reported":1733346553,"current_range_meters":19200,"station_id":"ce4bh112rcd13ifvqda0","pricing_plan_id":"cebpf4jnsgd1na2vs0mg"},{"bike_id":"fbcb3ea9-4a15-4ba8-82fb-a0348ff2b258","system_id":"levelo_inurba_marseille","lat":43.28153,"lon":5.4264,"is_reserved":false,"is_disabled":false,"rental_uris":{"android":"levelo://app?vid=fbcb3ea9-4a15-4ba8-82fb-a0348ff2b258","ios":"levelo://app?vid=fbcb3ea9-4a15-4ba8-82fb-a0348ff2b258"},"vehicle_type_id":"4","last_reported":1733346553,"current_range_meters":26800,"station_id":"","pricing_plan_id":"cebpf4jnsgd1na2vs0mg"},{"bike_id":"31e6fc3b-f821-47c0-8265-070531f4b97c","system_id":"levelo_inurba_marseille","lat":43.24195,"lon":5.39689,"is_reserved":false,"is_disabled":false,"rental_uris":{"android":"levelo://app?vid=31e6fc3b-f821-47c0-8265-070531f4b97c","ios":"levelo://app?vid=31e6fc3b-f821-47c0-8265-070531f4b97c"},"vehicle_type_id":"4","last_reported":1733346553,"current_range_meters":38800,"station_id":"ce4bhn12rcd13ifvqgpg","pricing_plan_id":"cebpf4jnsgd1na2vs0mg"},{"bike_id":"eafd2cab-5ced-4422-81d0-d3d803524573","system_id":"levelo_inurba_marseille","lat":43.30884,"lon":5.39616,"is_reserved":false,"is_disabled":false,"rental_uris":{"android":"levelo://app?vid=eafd2cab-5ced-4422-81d0-d3d803524573","ios":"levelo://app?vid=eafd2cab-5ced-4422-81d0-d3d803524573"},"vehicle_type_id":"4","last_reported":1733346553,"current_range_meters":22000,"station_id":"ce4bh012rcd13ifvqcv0","pricing_plan_id":"cebpf4jnsgd1na2vs0mg"},{"bike_id":"cc97291d-dd54-42f5-bf82-a33e785df71f","system_id":"levelo_inurba_marseille","lat":43.29225,"lon":5.36061,"is_reserved":false,"is_disabled":false,"rental_uris":{"android":"levelo://app?vid=cc97291d-dd54-42f5-bf82-a33e785df71f","ios":"levelo://app?vid=cc97291d-dd54-42f5-bf82-a33e785df71f"},"vehicle_type_id":"4","last_reported":1733346553,"current_range_meters":27600,"station_id":"ce4bhbh2rcd13ifvqeqg","pricing_plan_id":"cebpf4jnsgd1na2vs0mg"},{"bike_id":"ab05039b-da25-4171-883f-dbeac8d952e7","system_id":"levelo_inurba_marseille","lat":43.32366,"lon":5.38894,"is_reserved":false,"is_disabled":false,"rental_uris":{"android":"levelo://app?vid=ab05039b-da25-4171-883f-dbeac8d952e7","ios":"levelo://app?vid=ab05039b-da25-4171-883f-dbeac8d952e7"},"vehicle_type_id":"4","last_reported":1733346553,"current_range_meters":24800,"station_id":"ce4bhqp2rcd13ifvqhog","pricing_plan_id":"cebpf4jnsgd1na2vs0mg"},{"bike_id":"85801836-142b-4c4f-97ab-98990bed1ecc","system_id":"levelo_inurba_marseille","lat":43.30782,"lon":5.37648,"is_reserved":false,"is_disabled":false,"rental_uris":{"android":"levelo://app?vid=85801836-142b-4c4f-97ab-98990bed1ecc","ios":"levelo://app?vid=85801836-142b-4c4f-97ab-98990bed1ecc"},"vehicle_type_id":"4","last_reported":1733346553,"current_range_meters":35200,"station_id":"ce4bgv92rcd13ifvqcq0","pricing_plan_id":"cebpf4jnsgd1na2vs0mg"},{"bike_id":"bb6b53dd-4494-4182-a216-6003a45ab165","system_id":"levelo_inurba_marseille","lat":43.24997,"lon":5.38936,"is_reserved":false,"is_disabled":false,"rental_uris":{"android":"levelo://app?vid=bb6b53dd-4494-4182-a216-6003a45ab165","ios":"levelo://app?vid=bb6b53dd-4494-4182-a216-6003a45ab165"},"vehicle_type_id":"4","last_reported":1733346553,"current_range_meters":38000,"station_id":"ce4bhgp2rcd13ifvqfd0","pricing_plan_id":"cebpf4jnsgd1na2vs0mg"},{"bike_id":"9c77a68d-2e99-44e9-b903-950fb6644d35","system_id":"levelo_inurba_marseille","lat":43.25265,"lon":5.39465,"is_reserved":false,"is_disabled":true,"rental_uris":{"android":"levelo://app?vid=9c77a68d-2e99-44e9-b903-950fb6644d35","ios":"levelo://app?vid=9c77a68d-2e99-44e9-b903-950fb6644d35"},"vehicle_type_id":"4","last_reported":1733346553,"current_range_meters":0,"station_id":"","pricing_plan_id":"cebpf4jnsgd1na2vs0mg"},{"bike_id":"92de2224-b907-44de-b12d-bbdb80c3adbb","system_id":"levelo_inurba_marseille","lat":43.27912,"lon":5.38842,"is_reserved":false,"is_disabled":false,"rental_uris":{"android":"levelo://app?vid=92de2224-b907-44de-b12d-bbdb80c3adbb","ios":"levelo://app?vid=92de2224-b907-44de-b12d-bbdb80c3adbb"},"vehicle_type_id":"4","last_reported":1733346553,"current_range_meters":38800,"station_id":"ce4bhg12rcd13ifvqf80","pricing_plan_id":"cebpf4jnsgd1na2vs0mg"},{"bike_id":"dce3be87-90c1-4c6d-92e0-cf09314d921e","system_id":"levelo_inurba_marseille","lat":43.2979,"lon":5.38116,"is_reserved":false,"is_disabled":true,"rental_uris":{"android":"levelo://app?vid=dce3be87-90c1-4c6d-92e0-cf09314d921e","ios":"levelo://app?vid=dce3be87-90c1-4c6d-92e0-cf09314d921e"},"vehicle_type_id":"4","last_reported":1733346553,"current_range_meters":24400,"station_id":"ce4bgip2rcd13ifvqbb0","pricing_plan_id":"cebpf4jnsgd1na2vs0mg"},{"bike_id":"e50049c6-4542-4f48-bc11-0f42dc6312d9","system_id":"levelo_inurba_marseille","lat":43.29537,"lon":5.38541,"is_reserved":false,"is_disabled":false,"rental_uris":{"android":"levelo://app?vid=e50049c6-4542-4f48-bc11-0f42dc6312d9","ios":"levelo://app?vid=e50049c6-4542-4f48-bc11-0f42dc6312d9"},"vehicle_type_id":"4","last_reported":1733346553,"current_range_meters":28000,"station_id":"ce4bgih2rcd13ifvqba0","pricing_plan_id":"cebpf4jnsgd1na2vs0mg"},{"bike_id":"6ed6104a-cb7d-4889-82fa-acac97c6f644","system_id":"levelo_inurba_marseille","lat":43.32335,"lon":5.406227,"is_reserved":false,"is_disabled":false,"rental_uris":{"android":"levelo://app?vid=6ed6104a-cb7d-4889-82fa-acac97c6f644","ios":"levelo://app?vid=6ed6104a-cb7d-4889-82fa-acac97c6f644"},"vehicle_type_id":"4","last_reported":1733346553,"current_range_meters":36800,"station_id":"ce4bhq92rcd13ifvqhjg","pricing_plan_id":"cebpf4jnsgd1na2vs0mg"},{"bike_id":"83985555-c848-4b28-808f-8a7e7cf8519e","system_id":"levelo_inurba_marseille","lat":43.28115,"lon":5.43955,"is_reserved":false,"is_disabled":true,"rental_uris":{"android":"levelo://app?vid=83985555-c848-4b28-808f-8a7e7cf8519e","ios":"levelo://app?vid=83985555-c848-4b28-808f-8a7e7cf8519e"},"vehicle_type_id":"4","last_reported":1733346553,"current_range_meters":0,"station_id":"","pricing_plan_id":"cebpf4jnsgd1na2vs0mg"},{"bike_id":"81e0433a-91e6-4c5d-888d-a6ec8ceea50f","system_id":"levelo_inurba_marseille","lat":43.2783,"lon":5.39197,"is_reserved":false,"is_disabled":false,"rental_uris":{"android":"levelo://app?vid=81e0433a-91e6-4c5d-888d-a6ec8ceea50f","ios":"levelo://app?vid=81e0433a-91e6-4c5d-888d-a6ec8ceea50f"},"vehicle_type_id":"4","last_reported":1733346553,"current_range_meters":9200,"station_id":"ce4bhjp2rcd13ifvqga0","pricing_plan_id":"cebpf4jnsgd1na2vs0mg"},{"bike_id":"903ec8f1-f4c3-441f-a117-ff7454fcb959","system_id":"levelo_inurba_marseille","lat":43.29473,"lon":5.39414,"is_reserved":false,"is_disabled":true,"rental_uris":{"android":"levelo://app?vid=903ec8f1-f4c3-441f-a117-ff7454fcb959","ios":"levelo://app?vid=903ec8f1-f4c3-441f-a117-ff7454fcb959"},"vehicle_type_id":"4","last_reported":1733346553,"current_range_meters":0,"station_id":"","pricing_plan_id":"cebpf4jnsgd1na2vs0mg"},{"bike_id":"07a60b7f-80b7-470a-9515-22fa33d21dee","system_id":"levelo_inurba_marseille","lat":43.302756,"lon":5.39642,"is_reserved":false,"is_disabled":true,"rental_uris":{"android":"levelo://app?vid=07a60b7f-80b7-470a-9515-22fa33d21dee","ios":"levelo://app?vid=07a60b7f-80b7-470a-9515-22fa33d21dee"},"vehicle_type_id":"4","last_reported":1733346553,"current_range_meters":0,"station_id":"","pricing_plan_id":"cebpf4jnsgd1na2vs0mg"},{"bike_id":"4377883f-11a0-4ce1-b64d-02b0fbdcb813","system_id":"levelo_inurba_marseille","lat":43.2885,"lon":5.35856,"is_reserved":false,"is_disabled":false,"rental_uris":{"android":"levelo://app?vid=4377883f-11a0-4ce1-b64d-02b0fbdcb813","ios":"levelo://app?vid=4377883f-11a0-4ce1-b64d-02b0fbdcb813"},"vehicle_type_id":"4","last_reported":1733346553,"current_range_meters":35600,"station_id":"ce4bhb12rcd13ifvqem0","pricing_plan_id":"cebpf4jnsgd1na2vs0mg"},{"bike_id":"47aa3a4c-c572-4770-b78e-a70e304e4d39","system_id":"levelo_inurba_marseille","lat":43.2509,"lon":5.39511,"is_reserved":false,"is_disabled":false,"rental_uris":{"android":"levelo://app?vid=47aa3a4c-c572-4770-b78e-a70e304e4d39","ios":"levelo://app?vid=47aa3a4c-c572-4770-b78e-a70e304e4d39"},"vehicle_type_id":"4","last_reported":1733346553,"current_range_meters":13600,"station_id":"ce4bhm12rcd13ifvqgkg","pricing_plan_id":"cebpf4jnsgd1na2vs0mg"},{"bike_id":"69c3c435-a250-4180-bdeb-d5747c470a1a","system_id":"levelo_inurba_marseille","lat":43.28038,"lon":5.3696,"is_reserved":false,"is_disabled":false,"rental_uris":{"android":"levelo://app?vid=69c3c435-a250-4180-bdeb-d5747c470a1a","ios":"levelo://app?vid=69c3c435-a250-4180-bdeb-d5747c470a1a"},"vehicle_type_id":"4","last_reported":1733346553,"current_range_meters":38800,"station_id":"ce4bha12rcd13ifvqef0","pricing_plan_id":"cebpf4jnsgd1na2vs0mg"},{"bike_id":"eb21963f-de7e-4534-aca6-bda405f0be1e","system_id":"levelo_inurba_marseille","lat":43.29873,"lon":5.39748,"is_reserved":false,"is_disabled":false,"rental_uris":{"android":"levelo://app?vid=eb21963f-de7e-4534-aca6-bda405f0be1e","ios":"levelo://app?vid=eb21963f-de7e-4534-aca6-bda405f0be1e"},"vehicle_type_id":"4","last_reported":1733346553,"current_range_meters":35200,"station_id":"ce4bh0h2rcd13ifvqd50","pricing_plan_id":"cebpf4jnsgd1na2vs0mg"},{"bike_id":"0425a4a4-4039-41f0-bf92-6e51306cbefc","system_id":"levelo_inurba_marseille","lat":43.30249,"lon":5.40066,"is_reserved":false,"is_disabled":false,"rental_uris":{"android":"levelo://app?vid=0425a4a4-4039-41f0-bf92-6e51306cbefc","ios":"levelo://app?vid=0425a4a4-4039-41f0-bf92-6e51306cbefc"},"vehicle_type_id":"4","last_reported":1733346553,"current_range_meters":35200,"station_id":"ce4bgvh2rcd13ifvqcs0","pricing_plan_id":"cebpf4jnsgd1na2vs0mg"},{"bike_id":"9a8415fa-2880-4e78-a05d-ac36153a1a71","system_id":"levelo_inurba_marseille","lat":43.26198,"lon":5.37934,"is_reserved":false,"is_disabled":false,"rental_uris":{"android":"levelo://app?vid=9a8415fa-2880-4e78-a05d-ac36153a1a71","ios":"levelo://app?vid=9a8415fa-2880-4e78-a05d-ac36153a1a71"},"vehicle_type_id":"4","last_reported":1733346553,"current_range_meters":30400,"station_id":"ce4bhjp2rcd13ifvqg90","pricing_plan_id":"cebpf4jnsgd1na2vs0mg"},{"bike_id":"e34adaed-35bb-463a-9f0e-d9d1d8edf9b5","system_id":"levelo_inurba_marseille","lat":43.26564,"lon":5.39019,"is_reserved":false,"is_disabled":false,"rental_uris":{"android":"levelo://app?vid=e34adaed-35bb-463a-9f0e-d9d1d8edf9b5","ios":"levelo://app?vid=e34adaed-35bb-463a-9f0e-d9d1d8edf9b5"},"vehicle_type_id":"4","last_reported":1733346553,"current_range_meters":17200,"station_id":"ce4bhe12rcd13ifvqf30","pricing_plan_id":"cebpf4jnsgd1na2vs0mg"},{"bike_id":"2cd8bcc2-6973-4bbb-a4df-236cf5858163","system_id":"levelo_inurba_marseille","lat":43.23194,"lon":5.35548,"is_reserved":false,"is_disabled":false,"rental_uris":{"android":"levelo://app?vid=2cd8bcc2-6973-4bbb-a4df-236cf5858163","ios":"levelo://app?vid=2cd8bcc2-6973-4bbb-a4df-236cf5858163"},"vehicle_type_id":"4","last_reported":1733346553,"current_range_meters":39200,"station_id":"ce4bhu92rcd13ifvqi70","pricing_plan_id":"cebpf4jnsgd1na2vs0mg"},{"bike_id":"fae46cba-9e23-42ca-8c30-b4b52e2e31f6","system_id":"levelo_inurba_marseille","lat":43.30544,"lon":5.36734,"is_reserved":false,"is_disabled":false,"rental_uris":{"android":"levelo://app?vid=fae46cba-9e23-42ca-8c30-b4b52e2e31f6","ios":"levelo://app?vid=fae46cba-9e23-42ca-8c30-b4b52e2e31f6"},"vehicle_type_id":"4","last_reported":1733346553,"current_range_meters":17600,"station_id":"ce4bgrp2rcd13ifvqc9g","pricing_plan_id":"cebpf4jnsgd1na2vs0mg"},{"bike_id":"791686e6-811e-43c8-ba63-00aeb6e257fa","system_id":"levelo_inurba_marseille","lat":43.27371,"lon":5.36264,"is_reserved":false,"is_disabled":false,"rental_uris":{"android":"levelo://app?vid=791686e6-811e-43c8-ba63-00aeb6e257fa","ios":"levelo://app?vid=791686e6-811e-43c8-ba63-00aeb6e257fa"},"vehicle_type_id":"4","last_reported":1733346553,"current_range_meters":5600,"station_id":"ce4bhbh2rcd13ifvqeo0","pricing_plan_id":"cebpf4jnsgd1na2vs0mg"},{"bike_id":"fc07d5ab-edb3-445e-acdb-243c74d4fc98","system_id":"levelo_inurba_marseille","lat":43.29195,"lon":5.36907,"is_reserved":false,"is_disabled":false,"rental_uris":{"android":"levelo://app?vid=fc07d5ab-edb3-445e-acdb-243c74d4fc98","ios":"levelo://app?vid=fc07d5ab-edb3-445e-acdb-243c74d4fc98"},"vehicle_type_id":"4","last_reported":1733346553,"current_range_meters":12000,"station_id":"","pricing_plan_id":"cebpf4jnsgd1na2vs0mg"},{"bike_id":"dc24279f-f126-4126-97d7-1ef0fe43b4e9","system_id":"levelo_inurba_marseille","lat":43.27368,"lon":5.36255,"is_reserved":false,"is_disabled":false,"rental_uris":{"android":"levelo://app?vid=dc24279f-f126-4126-97d7-1ef0fe43b4e9","ios":"levelo://app?vid=dc24279f-f126-4126-97d7-1ef0fe43b4e9"},"vehicle_type_id":"4","last_reported":1733346553,"current_range_meters":25600,"station_id":"ce4bhbh2rcd13ifvqeo0","pricing_plan_id":"cebpf4jnsgd1na2vs0mg"},{"bike_id":"d0f725a1-8089-48f3-9049-856fbaa201f9","system_id":"levelo_inurba_marseille","lat":43.31694,"lon":5.4048,"is_reserved":false,"is_disabled":false,"rental_uris":{"android":"levelo://app?vid=d0f725a1-8089-48f3-9049-856fbaa201f9","ios":"levelo://app?vid=d0f725a1-8089-48f3-9049-856fbaa201f9"},"vehicle_type_id":"4","last_reported":1733346553,"current_range_meters":38800,"station_id":"ce4bh012rcd13ifvqd00","pricing_plan_id":"cebpf4jnsgd1na2vs0mg"},{"bike_id":"506c09f4-6c9b-4fb3-996c-4c7f86dd75a8","system_id":"levelo_inurba_marseille","lat":43.25492,"lon":5.37652,"is_reserved":false,"is_disabled":true,"rental_uris":{"android":"levelo://app?vid=506c09f4-6c9b-4fb3-996c-4c7f86dd75a8","ios":"levelo://app?vid=506c09f4-6c9b-4fb3-996c-4c7f86dd75a8"},"vehicle_type_id":"4","last_reported":1733346553,"current_range_meters":0,"station_id":"","pricing_plan_id":"cebpf4jnsgd1na2vs0mg"},{"bike_id":"5178b99e-b2fc-47bc-a904-131fbd2e83ec","system_id":"levelo_inurba_marseille","lat":43.30138,"lon":5.39871,"is_reserved":false,"is_disabled":false,"rental_uris":{"android":"levelo://app?vid=5178b99e-b2fc-47bc-a904-131fbd2e83ec","ios":"levelo://app?vid=5178b99e-b2fc-47bc-a904-131fbd2e83ec"},"vehicle_type_id":"4","last_reported":1733346553,"current_range_meters":38800,"station_id":"ce4bh0h2rcd13ifvqd40","pricing_plan_id":"cebpf4jnsgd1na2vs0mg"},{"bike_id":"9202c63e-372c-4469-a5c1-8e35757d1940","system_id":"levelo_inurba_marseille","lat":43.30053,"lon":5.38832,"is_reserved":false,"is_disabled":true,"rental_uris":{"android":"levelo://app?vid=9202c63e-372c-4469-a5c1-8e35757d1940","ios":"levelo://app?vid=9202c63e-372c-4469-a5c1-8e35757d1940"},"vehicle_type_id":"4","last_reported":1733346553,"current_range_meters":0,"station_id":"","pricing_plan_id":"cebpf4jnsgd1na2vs0mg"},{"bike_id":"fb669fc9-1ad6-46f8-9a6e-c301ceec0398","system_id":"levelo_inurba_marseille","lat":43.25091,"lon":5.39521,"is_reserved":false,"is_disabled":false,"rental_uris":{"android":"levelo://app?vid=fb669fc9-1ad6-46f8-9a6e-c301ceec0398","ios":"levelo://app?vid=fb669fc9-1ad6-46f8-9a6e-c301ceec0398"},"vehicle_type_id":"4","last_reported":1733346553,"current_range_meters":38800,"station_id":"ce4bhm12rcd13ifvqgkg","pricing_plan_id":"cebpf4jnsgd1na2vs0mg"},{"bike_id":"3b48a78c-d708-4355-8494-22b9c2938fb6","system_id":"levelo_inurba_marseille","lat":43.30143,"lon":5.39866,"is_reserved":false,"is_disabled":false,"rental_uris":{"android":"levelo://app?vid=3b48a78c-d708-4355-8494-22b9c2938fb6","ios":"levelo://app?vid=3b48a78c-d708-4355-8494-22b9c2938fb6"},"vehicle_type_id":"4","last_reported":1733346553,"current_range_meters":35600,"station_id":"ce4bh0h2rcd13ifvqd40","pricing_plan_id":"cebpf4jnsgd1na2vs0mg"},{"bike_id":"75d0abab-06bc-437f-955e-17ad8bc515a7","system_id":"levelo_inurba_marseille","lat":43.30889,"lon":5.39645,"is_reserved":false,"is_disabled":false,"rental_uris":{"android":"levelo://app?vid=75d0abab-06bc-437f-955e-17ad8bc515a7","ios":"levelo://app?vid=75d0abab-06bc-437f-955e-17ad8bc515a7"},"vehicle_type_id":"4","last_reported":1733346553,"current_range_meters":28400,"station_id":"ce4bh012rcd13ifvqcv0","pricing_plan_id":"cebpf4jnsgd1na2vs0mg"},{"bike_id":"fa5b53c6-6e90-4243-9729-26fd8d20f163","system_id":"levelo_inurba_marseille","lat":43.28701,"lon":5.38696,"is_reserved":false,"is_disabled":false,"rental_uris":{"android":"levelo://app?vid=fa5b53c6-6e90-4243-9729-26fd8d20f163","ios":"levelo://app?vid=fa5b53c6-6e90-4243-9729-26fd8d20f163"},"vehicle_type_id":"4","last_reported":1733346553,"current_range_meters":39200,"station_id":"ce4bh492rcd13ifvqdug","pricing_plan_id":"cebpf4jnsgd1na2vs0mg"},{"bike_id":"617ae246-a2b4-4e1a-a737-88537a672a91","system_id":"levelo_inurba_marseille","lat":43.28672,"lon":5.38655,"is_reserved":false,"is_disabled":true,"rental_uris":{"android":"levelo://app?vid=617ae246-a2b4-4e1a-a737-88537a672a91","ios":"levelo://app?vid=617ae246-a2b4-4e1a-a737-88537a672a91"},"vehicle_type_id":"4","last_reported":1733346553,"current_range_meters":2800,"station_id":"ce4bh492rcd13ifvqdug","pricing_plan_id":"cebpf4jnsgd1na2vs0mg"},{"bike_id":"cf3e6ea0-09ff-406c-b357-28a6a6117f94","system_id":"levelo_inurba_marseille","lat":43.22932,"lon":5.35376,"is_reserved":false,"is_disabled":false,"rental_uris":{"android":"levelo://app?vid=cf3e6ea0-09ff-406c-b357-28a6a6117f94","ios":"levelo://app?vid=cf3e6ea0-09ff-406c-b357-28a6a6117f94"},"vehicle_type_id":"4","last_reported":1733346553,"current_range_meters":38800,"station_id":"cpo3532slgdg3j2ikp40","pricing_plan_id":"cebpf4jnsgd1na2vs0mg"},{"bike_id":"fd7dea6a-aa83-4656-baae-4085b6e7d8d6","system_id":"levelo_inurba_marseille","lat":43.33721,"lon":5.39176,"is_reserved":false,"is_disabled":false,"rental_uris":{"android":"levelo://app?vid=fd7dea6a-aa83-4656-baae-4085b6e7d8d6","ios":"levelo://app?vid=fd7dea6a-aa83-4656-baae-4085b6e7d8d6"},"vehicle_type_id":"4","last_reported":1733346553,"current_range_meters":20800,"station_id":"ce4bhr92rcd13ifvqhsg","pricing_plan_id":"cebpf4jnsgd1na2vs0mg"},{"bike_id":"33b6defc-0259-40c1-8c7c-b5f4200fa144","system_id":"levelo_inurba_marseille","lat":43.23962,"lon":5.36634,"is_reserved":false,"is_disabled":false,"rental_uris":{"android":"levelo://app?vid=33b6defc-0259-40c1-8c7c-b5f4200fa144","ios":"levelo://app?vid=33b6defc-0259-40c1-8c7c-b5f4200fa144"},"vehicle_type_id":"4","last_reported":1733346553,"current_range_meters":10800,"station_id":"ce4bhi12rcd13ifvqfp0","pricing_plan_id":"cebpf4jnsgd1na2vs0mg"},{"bike_id":"32e3b939-48c3-4ea5-b418-6c25d78f8737","system_id":"levelo_inurba_marseille","lat":43.23962,"lon":5.36635,"is_reserved":false,"is_disabled":false,"rental_uris":{"android":"levelo://app?vid=32e3b939-48c3-4ea5-b418-6c25d78f8737","ios":"levelo://app?vid=32e3b939-48c3-4ea5-b418-6c25d78f8737"},"vehicle_type_id":"4","last_reported":1733346553,"current_range_meters":4800,"station_id":"ce4bhi12rcd13ifvqfp0","pricing_plan_id":"cebpf4jnsgd1na2vs0mg"},{"bike_id":"719e509a-25e4-4b1b-9830-f708d85d7593","system_id":"levelo_inurba_marseille","lat":43.29283,"lon":5.37397,"is_reserved":false,"is_disabled":true,"rental_uris":{"android":"levelo://app?vid=719e509a-25e4-4b1b-9830-f708d85d7593","ios":"levelo://app?vid=719e509a-25e4-4b1b-9830-f708d85d7593"},"vehicle_type_id":"4","last_reported":1733346553,"current_range_meters":0,"station_id":"","pricing_plan_id":"cebpf4jnsgd1na2vs0mg"},{"bike_id":"11a2435d-8ecb-43a7-afb5-4dd41fb56afe","system_id":"levelo_inurba_marseille","lat":43.31266,"lon":5.40167,"is_reserved":false,"is_disabled":false,"rental_uris":{"android":"levelo://app?vid=11a2435d-8ecb-43a7-afb5-4dd41fb56afe","ios":"levelo://app?vid=11a2435d-8ecb-43a7-afb5-4dd41fb56afe"},"vehicle_type_id":"4","last_reported":1733346553,"current_range_meters":18800,"station_id":"ce4bh092rcd13ifvqd30","pricing_plan_id":"cebpf4jnsgd1na2vs0mg"},{"bike_id":"9524b159-b4ce-452d-96ec-e3d7294532ae","system_id":"levelo_inurba_marseille","lat":43.3078,"lon":5.37645,"is_reserved":false,"is_disabled":false,"rental_uris":{"android":"levelo://app?vid=9524b159-b4ce-452d-96ec-e3d7294532ae","ios":"levelo://app?vid=9524b159-b4ce-452d-96ec-e3d7294532ae"},"vehicle_type_id":"4","last_reported":1733346553,"current_range_meters":16400,"station_id":"ce4bgv92rcd13ifvqcq0","pricing_plan_id":"cebpf4jnsgd1na2vs0mg"},{"bike_id":"83eb17d7-c008-4521-987c-0050c2229dde","system_id":"levelo_inurba_marseille","lat":43.287,"lon":5.37388,"is_reserved":false,"is_disabled":false,"rental_uris":{"android":"levelo://app?vid=83eb17d7-c008-4521-987c-0050c2229dde","ios":"levelo://app?vid=83eb17d7-c008-4521-987c-0050c2229dde"},"vehicle_type_id":"4","last_reported":1733346553,"current_range_meters":38400,"station_id":"ce4bh3p2rcd13ifvqdq0","pricing_plan_id":"cebpf4jnsgd1na2vs0mg"},{"bike_id":"8f29d0b4-a369-4bf4-a7e4-66462f797d71","system_id":"levelo_inurba_marseille","lat":43.30539,"lon":5.38435,"is_reserved":false,"is_disabled":true,"rental_uris":{"android":"levelo://app?vid=8f29d0b4-a369-4bf4-a7e4-66462f797d71","ios":"levelo://app?vid=8f29d0b4-a369-4bf4-a7e4-66462f797d71"},"vehicle_type_id":"4","last_reported":1733346553,"current_range_meters":800,"station_id":"ce4bgg92rcd13ifvqb30","pricing_plan_id":"cebpf4jnsgd1na2vs0mg"},{"bike_id":"e1fd1a73-7553-45b6-9e50-996259ae1af6","system_id":"levelo_inurba_marseille","lat":43.26954,"lon":5.38642,"is_reserved":false,"is_disabled":false,"rental_uris":{"android":"levelo://app?vid=e1fd1a73-7553-45b6-9e50-996259ae1af6","ios":"levelo://app?vid=e1fd1a73-7553-45b6-9e50-996259ae1af6"},"vehicle_type_id":"4","last_reported":1733346553,"current_range_meters":31200,"station_id":"ce4bhh92rcd13ifvqfh0","pricing_plan_id":"cebpf4jnsgd1na2vs0mg"},{"bike_id":"72a10fc3-397f-43c3-878e-ac242a0d793c","system_id":"levelo_inurba_marseille","lat":43.26553,"lon":5.37289,"is_reserved":false,"is_disabled":false,"rental_uris":{"android":"levelo://app?vid=72a10fc3-397f-43c3-878e-ac242a0d793c","ios":"levelo://app?vid=72a10fc3-397f-43c3-878e-ac242a0d793c"},"vehicle_type_id":"4","last_reported":1733346553,"current_range_meters":36800,"station_id":"ce4bhg12rcd13ifvqf70","pricing_plan_id":"cebpf4jnsgd1na2vs0mg"},{"bike_id":"e2313035-0a27-419c-b06b-36a49898f917","system_id":"levelo_inurba_marseille","lat":43.279955,"lon":5.416565,"is_reserved":false,"is_disabled":false,"rental_uris":{"android":"levelo://app?vid=e2313035-0a27-419c-b06b-36a49898f917","ios":"levelo://app?vid=e2313035-0a27-419c-b06b-36a49898f917"},"vehicle_type_id":"4","last_reported":1733346553,"current_range_meters":17600,"station_id":"ce4bho12rcd13ifvqh1g","pricing_plan_id":"cebpf4jnsgd1na2vs0mg"},{"bike_id":"21f26508-a7b8-4e21-ae23-6bae799b0b4e","system_id":"levelo_inurba_marseille","lat":43.30638,"lon":5.40087,"is_reserved":false,"is_disabled":false,"rental_uris":{"android":"levelo://app?vid=21f26508-a7b8-4e21-ae23-6bae799b0b4e","ios":"levelo://app?vid=21f26508-a7b8-4e21-ae23-6bae799b0b4e"},"vehicle_type_id":"4","last_reported":1733346553,"current_range_meters":28400,"station_id":"ce4bh112rcd13ifvqda0","pricing_plan_id":"cebpf4jnsgd1na2vs0mg"},{"bike_id":"91d392a2-2fa0-4138-844b-2778296cb275","system_id":"levelo_inurba_marseille","lat":43.28431,"lon":5.39196,"is_reserved":false,"is_disabled":false,"rental_uris":{"android":"levelo://app?vid=91d392a2-2fa0-4138-844b-2778296cb275","ios":"levelo://app?vid=91d392a2-2fa0-4138-844b-2778296cb275"},"vehicle_type_id":"4","last_reported":1733346553,"current_range_meters":38800,"station_id":"ce4bhoh2rcd13ifvqh5g","pricing_plan_id":"cebpf4jnsgd1na2vs0mg"},{"bike_id":"1a1b02b1-559a-4ba2-bb65-580577e3a45a","system_id":"levelo_inurba_marseille","lat":43.30939,"lon":5.40152,"is_reserved":false,"is_disabled":false,"rental_uris":{"android":"levelo://app?vid=1a1b02b1-559a-4ba2-bb65-580577e3a45a","ios":"levelo://app?vid=1a1b02b1-559a-4ba2-bb65-580577e3a45a"},"vehicle_type_id":"4","last_reported":1733346553,"current_range_meters":34800,"station_id":"ce4bgvp2rcd13ifvqct0","pricing_plan_id":"cebpf4jnsgd1na2vs0mg"},{"bike_id":"84143cd6-1baa-4afc-adaf-6f8d04a0c1bc","system_id":"levelo_inurba_marseille","lat":43.31076,"lon":5.38348,"is_reserved":false,"is_disabled":false,"rental_uris":{"android":"levelo://app?vid=84143cd6-1baa-4afc-adaf-6f8d04a0c1bc","ios":"levelo://app?vid=84143cd6-1baa-4afc-adaf-6f8d04a0c1bc"},"vehicle_type_id":"4","last_reported":1733346553,"current_range_meters":22800,"station_id":"ce4bgv92rcd13ifvqcr0","pricing_plan_id":"cebpf4jnsgd1na2vs0mg"},{"bike_id":"1447a4ee-78aa-445f-9048-a97940751d81","system_id":"levelo_inurba_marseille","lat":43.2902,"lon":5.3813,"is_reserved":false,"is_disabled":false,"rental_uris":{"android":"levelo://app?vid=1447a4ee-78aa-445f-9048-a97940751d81","ios":"levelo://app?vid=1447a4ee-78aa-445f-9048-a97940751d81"},"vehicle_type_id":"4","last_reported":1733346553,"current_range_meters":9600,"station_id":"ce4bh4p2rcd13ifvqe1g","pricing_plan_id":"cebpf4jnsgd1na2vs0mg"},{"bike_id":"b01ba929-1580-401b-973d-e4a15d746d4a","system_id":"levelo_inurba_marseille","lat":43.22927,"lon":5.35375,"is_reserved":false,"is_disabled":false,"rental_uris":{"android":"levelo://app?vid=b01ba929-1580-401b-973d-e4a15d746d4a","ios":"levelo://app?vid=b01ba929-1580-401b-973d-e4a15d746d4a"},"vehicle_type_id":"4","last_reported":1733346553,"current_range_meters":20400,"station_id":"cpo3532slgdg3j2ikp40","pricing_plan_id":"cebpf4jnsgd1na2vs0mg"},{"bike_id":"f2595845-6ff5-4907-ac62-692725577057","system_id":"levelo_inurba_marseille","lat":43.27427,"lon":5.39408,"is_reserved":false,"is_disabled":false,"rental_uris":{"android":"levelo://app?vid=f2595845-6ff5-4907-ac62-692725577057","ios":"levelo://app?vid=f2595845-6ff5-4907-ac62-692725577057"},"vehicle_type_id":"4","last_reported":1733346553,"current_range_meters":38800,"station_id":"ce4bhdp2rcd13ifvqf20","pricing_plan_id":"cebpf4jnsgd1na2vs0mg"},{"bike_id":"4365dfe1-691e-4d9b-b4de-bc9c21e0d7fc","system_id":"levelo_inurba_marseille","lat":43.30544,"lon":5.38405,"is_reserved":false,"is_disabled":false,"rental_uris":{"android":"levelo://app?vid=4365dfe1-691e-4d9b-b4de-bc9c21e0d7fc","ios":"levelo://app?vid=4365dfe1-691e-4d9b-b4de-bc9c21e0d7fc"},"vehicle_type_id":"4","last_reported":1733346553,"current_range_meters":28800,"station_id":"ce4bgg92rcd13ifvqb30","pricing_plan_id":"cebpf4jnsgd1na2vs0mg"},{"bike_id":"a61845da-324b-4aee-8793-cd1f8451ee7a","system_id":"levelo_inurba_marseille","lat":43.27908,"lon":5.3802,"is_reserved":false,"is_disabled":false,"rental_uris":{"android":"levelo://app?vid=a61845da-324b-4aee-8793-cd1f8451ee7a","ios":"levelo://app?vid=a61845da-324b-4aee-8793-cd1f8451ee7a"},"vehicle_type_id":"4","last_reported":1733346553,"current_range_meters":14800,"station_id":"ce4bhf92rcd13ifvqf50","pricing_plan_id":"cebpf4jnsgd1na2vs0mg"},{"bike_id":"d5910d64-1833-4996-a001-39c9046b7384","system_id":"levelo_inurba_marseille","lat":43.29067,"lon":5.37181,"is_reserved":false,"is_disabled":false,"rental_uris":{"android":"levelo://app?vid=d5910d64-1833-4996-a001-39c9046b7384","ios":"levelo://app?vid=d5910d64-1833-4996-a001-39c9046b7384"},"vehicle_type_id":"4","last_reported":1733346553,"current_range_meters":35200,"station_id":"ce4bh5p2rcd13ifvqe4g","pricing_plan_id":"cebpf4jnsgd1na2vs0mg"},{"bike_id":"b7f7642e-bc77-4059-aa17-861022d97418","system_id":"levelo_inurba_marseille","lat":43.27821,"lon":5.40695,"is_reserved":false,"is_disabled":false,"rental_uris":{"android":"levelo://app?vid=b7f7642e-bc77-4059-aa17-861022d97418","ios":"levelo://app?vid=b7f7642e-bc77-4059-aa17-861022d97418"},"vehicle_type_id":"4","last_reported":1733346553,"current_range_meters":32400,"station_id":"ce4bhnh2rcd13ifvqgtg","pricing_plan_id":"cebpf4jnsgd1na2vs0mg"},{"bike_id":"39fb8aca-6d92-4bb3-a3d5-ec93bb1cad52","system_id":"levelo_inurba_marseille","lat":43.246815,"lon":5.381535,"is_reserved":false,"is_disabled":false,"rental_uris":{"android":"levelo://app?vid=39fb8aca-6d92-4bb3-a3d5-ec93bb1cad52","ios":"levelo://app?vid=39fb8aca-6d92-4bb3-a3d5-ec93bb1cad52"},"vehicle_type_id":"4","last_reported":1733346553,"current_range_meters":38800,"station_id":"ce4bhih2rcd13ifvqfr0","pricing_plan_id":"cebpf4jnsgd1na2vs0mg"},{"bike_id":"010f1ddc-a5dd-4595-9905-ebf82317a65f","system_id":"levelo_inurba_marseille","lat":43.33024,"lon":5.39042,"is_reserved":false,"is_disabled":false,"rental_uris":{"android":"levelo://app?vid=010f1ddc-a5dd-4595-9905-ebf82317a65f","ios":"levelo://app?vid=010f1ddc-a5dd-4595-9905-ebf82317a65f"},"vehicle_type_id":"4","last_reported":1733346553,"current_range_meters":38800,"station_id":"ce4bhr92rcd13ifvqhrg","pricing_plan_id":"cebpf4jnsgd1na2vs0mg"},{"bike_id":"3c935e4b-0b8b-43b5-b036-a4a7c2788700","system_id":"levelo_inurba_marseille","lat":43.28936,"lon":5.36637,"is_reserved":false,"is_disabled":false,"rental_uris":{"android":"levelo://app?vid=3c935e4b-0b8b-43b5-b036-a4a7c2788700","ios":"levelo://app?vid=3c935e4b-0b8b-43b5-b036-a4a7c2788700"},"vehicle_type_id":"4","last_reported":1733346553,"current_range_meters":38800,"station_id":"ce4bhap2rcd13ifvqek0","pricing_plan_id":"cebpf4jnsgd1na2vs0mg"},{"bike_id":"14872601-52c5-4df9-a2cd-dd5630a83c4c","system_id":"levelo_inurba_marseille","lat":43.29528,"lon":5.39033,"is_reserved":false,"is_disabled":false,"rental_uris":{"android":"levelo://app?vid=14872601-52c5-4df9-a2cd-dd5630a83c4c","ios":"levelo://app?vid=14872601-52c5-4df9-a2cd-dd5630a83c4c"},"vehicle_type_id":"4","last_reported":1733346553,"current_range_meters":38800,"station_id":"ce4bh3p2rcd13ifvqdp0","pricing_plan_id":"cebpf4jnsgd1na2vs0mg"},{"bike_id":"cfd39d08-d2f6-4226-83a0-16cbe3a28b33","system_id":"levelo_inurba_marseille","lat":43.31162,"lon":5.38714,"is_reserved":false,"is_disabled":false,"rental_uris":{"android":"levelo://app?vid=cfd39d08-d2f6-4226-83a0-16cbe3a28b33","ios":"levelo://app?vid=cfd39d08-d2f6-4226-83a0-16cbe3a28b33"},"vehicle_type_id":"4","last_reported":1733346553,"current_range_meters":36400,"station_id":"ce4bgv12rcd13ifvqcp0","pricing_plan_id":"cebpf4jnsgd1na2vs0mg"},{"bike_id":"d5d85f9f-a0ad-420c-b735-16273f277a96","system_id":"levelo_inurba_marseille","lat":43.22924,"lon":5.35378,"is_reserved":false,"is_disabled":false,"rental_uris":{"android":"levelo://app?vid=d5d85f9f-a0ad-420c-b735-16273f277a96","ios":"levelo://app?vid=d5d85f9f-a0ad-420c-b735-16273f277a96"},"vehicle_type_id":"4","last_reported":1733346553,"current_range_meters":28000,"station_id":"cpo3532slgdg3j2ikp40","pricing_plan_id":"cebpf4jnsgd1na2vs0mg"},{"bike_id":"41776b6e-9d3f-445f-b068-5523c904169f","system_id":"levelo_inurba_marseille","lat":43.26944,"lon":5.40239,"is_reserved":false,"is_disabled":false,"rental_uris":{"android":"levelo://app?vid=41776b6e-9d3f-445f-b068-5523c904169f","ios":"levelo://app?vid=41776b6e-9d3f-445f-b068-5523c904169f"},"vehicle_type_id":"4","last_reported":1733346553,"current_range_meters":38800,"station_id":"cjm6bp8fraef2m0cb0m0","pricing_plan_id":"cebpf4jnsgd1na2vs0mg"},{"bike_id":"79c8ea6d-5102-4a1e-b941-afdabc095945","system_id":"levelo_inurba_marseille","lat":43.29068,"lon":5.38345,"is_reserved":false,"is_disabled":true,"rental_uris":{"android":"levelo://app?vid=79c8ea6d-5102-4a1e-b941-afdabc095945","ios":"levelo://app?vid=79c8ea6d-5102-4a1e-b941-afdabc095945"},"vehicle_type_id":"4","last_reported":1733346553,"current_range_meters":17600,"station_id":"","pricing_plan_id":"cebpf4jnsgd1na2vs0mg"},{"bike_id":"84a2915d-c6ef-4af0-8c6d-2fcd615fa6c7","system_id":"levelo_inurba_marseille","lat":43.33346,"lon":5.42024,"is_reserved":false,"is_disabled":true,"rental_uris":{"android":"levelo://app?vid=84a2915d-c6ef-4af0-8c6d-2fcd615fa6c7","ios":"levelo://app?vid=84a2915d-c6ef-4af0-8c6d-2fcd615fa6c7"},"vehicle_type_id":"4","last_reported":1733346553,"current_range_meters":0,"station_id":"","pricing_plan_id":"cebpf4jnsgd1na2vs0mg"},{"bike_id":"e5f69d8c-fd1c-40c2-a503-d983b5feae4a","system_id":"levelo_inurba_marseille","lat":43.3032,"lon":5.40445,"is_reserved":false,"is_disabled":false,"rental_uris":{"android":"levelo://app?vid=e5f69d8c-fd1c-40c2-a503-d983b5feae4a","ios":"levelo://app?vid=e5f69d8c-fd1c-40c2-a503-d983b5feae4a"},"vehicle_type_id":"4","last_reported":1733346553,"current_range_meters":22800,"station_id":"ce4bh012rcd13ifvqd10","pricing_plan_id":"cebpf4jnsgd1na2vs0mg"},{"bike_id":"db6c3c15-f860-4ed9-a653-670dca70a50a","system_id":"levelo_inurba_marseille","lat":43.31483,"lon":5.37293,"is_reserved":false,"is_disabled":false,"rental_uris":{"android":"levelo://app?vid=db6c3c15-f860-4ed9-a653-670dca70a50a","ios":"levelo://app?vid=db6c3c15-f860-4ed9-a653-670dca70a50a"},"vehicle_type_id":"4","last_reported":1733346553,"current_range_meters":26000,"station_id":"ce4bgt12rcd13ifvqcd0","pricing_plan_id":"cebpf4jnsgd1na2vs0mg"},{"bike_id":"f9af7297-60c8-43d7-a968-0426c218f11f","system_id":"levelo_inurba_marseille","lat":43.25493,"lon":5.37646,"is_reserved":false,"is_disabled":true,"rental_uris":{"android":"levelo://app?vid=f9af7297-60c8-43d7-a968-0426c218f11f","ios":"levelo://app?vid=f9af7297-60c8-43d7-a968-0426c218f11f"},"vehicle_type_id":"4","last_reported":1733346553,"current_range_meters":14000,"station_id":"ce4bhh12rcd13ifvqff0","pricing_plan_id":"cebpf4jnsgd1na2vs0mg"},{"bike_id":"c1bd2f3c-72a5-4288-9456-79b212a65b19","system_id":"levelo_inurba_marseille","lat":43.25924,"lon":5.40904,"is_reserved":false,"is_disabled":true,"rental_uris":{"android":"levelo://app?vid=c1bd2f3c-72a5-4288-9456-79b212a65b19","ios":"levelo://app?vid=c1bd2f3c-72a5-4288-9456-79b212a65b19"},"vehicle_type_id":"4","last_reported":1733346553,"current_range_meters":400,"station_id":"ce4bhm92rcd13ifvqglg","pricing_plan_id":"cebpf4jnsgd1na2vs0mg"},{"bike_id":"ad95fc29-0d8a-4963-b5fc-789cd9b4b7e9","system_id":"levelo_inurba_marseille","lat":43.28456,"lon":5.35889,"is_reserved":false,"is_disabled":false,"rental_uris":{"android":"levelo://app?vid=ad95fc29-0d8a-4963-b5fc-789cd9b4b7e9","ios":"levelo://app?vid=ad95fc29-0d8a-4963-b5fc-789cd9b4b7e9"},"vehicle_type_id":"4","last_reported":1733346553,"current_range_meters":27200,"station_id":"ce4bhah2rcd13ifvqei0","pricing_plan_id":"cebpf4jnsgd1na2vs0mg"},{"bike_id":"e3a0c7b3-9cbe-4191-84c4-9cd8f64fe8c8","system_id":"levelo_inurba_marseille","lat":43.28428,"lon":5.34978,"is_reserved":false,"is_disabled":false,"rental_uris":{"android":"levelo://app?vid=e3a0c7b3-9cbe-4191-84c4-9cd8f64fe8c8","ios":"levelo://app?vid=e3a0c7b3-9cbe-4191-84c4-9cd8f64fe8c8"},"vehicle_type_id":"4","last_reported":1733346553,"current_range_meters":38400,"station_id":"ce4bhbh2rcd13ifvqepg","pricing_plan_id":"cebpf4jnsgd1na2vs0mg"},{"bike_id":"78f27d57-2bc9-4ace-bee5-4bfa35944afd","system_id":"levelo_inurba_marseille","lat":43.28434,"lon":5.39192,"is_reserved":false,"is_disabled":false,"rental_uris":{"android":"levelo://app?vid=78f27d57-2bc9-4ace-bee5-4bfa35944afd","ios":"levelo://app?vid=78f27d57-2bc9-4ace-bee5-4bfa35944afd"},"vehicle_type_id":"4","last_reported":1733346553,"current_range_meters":38800,"station_id":"ce4bhoh2rcd13ifvqh5g","pricing_plan_id":"cebpf4jnsgd1na2vs0mg"},{"bike_id":"704edf0a-9774-4ca2-8fd4-44a2b86045e9","system_id":"levelo_inurba_marseille","lat":43.27374,"lon":5.36252,"is_reserved":false,"is_disabled":false,"rental_uris":{"android":"levelo://app?vid=704edf0a-9774-4ca2-8fd4-44a2b86045e9","ios":"levelo://app?vid=704edf0a-9774-4ca2-8fd4-44a2b86045e9"},"vehicle_type_id":"4","last_reported":1733346553,"current_range_meters":23200,"station_id":"ce4bhbh2rcd13ifvqeo0","pricing_plan_id":"cebpf4jnsgd1na2vs0mg"},{"bike_id":"d08cbdef-fa5f-4eaa-9a1b-d4e2d436791f","system_id":"levelo_inurba_marseille","lat":43.32486,"lon":5.36561,"is_reserved":false,"is_disabled":false,"rental_uris":{"android":"levelo://app?vid=d08cbdef-fa5f-4eaa-9a1b-d4e2d436791f","ios":"levelo://app?vid=d08cbdef-fa5f-4eaa-9a1b-d4e2d436791f"},"vehicle_type_id":"4","last_reported":1733346553,"current_range_meters":38800,"station_id":"ce4bhs12rcd13ifvqhvg","pricing_plan_id":"cebpf4jnsgd1na2vs0mg"},{"bike_id":"5e637f80-0b43-46e1-ba82-62152e385b40","system_id":"levelo_inurba_marseille","lat":43.3112,"lon":5.3778,"is_reserved":false,"is_disabled":false,"rental_uris":{"android":"levelo://app?vid=5e637f80-0b43-46e1-ba82-62152e385b40","ios":"levelo://app?vid=5e637f80-0b43-46e1-ba82-62152e385b40"},"vehicle_type_id":"4","last_reported":1733346553,"current_range_meters":21600,"station_id":"ce4bgt92rcd13ifvqcg0","pricing_plan_id":"cebpf4jnsgd1na2vs0mg"},{"bike_id":"a4b9e425-64b8-4ce2-a5ab-5fcc5d1230a4","system_id":"levelo_inurba_marseille","lat":43.32108,"lon":5.36771,"is_reserved":false,"is_disabled":false,"rental_uris":{"android":"levelo://app?vid=a4b9e425-64b8-4ce2-a5ab-5fcc5d1230a4","ios":"levelo://app?vid=a4b9e425-64b8-4ce2-a5ab-5fcc5d1230a4"},"vehicle_type_id":"4","last_reported":1733346553,"current_range_meters":37600,"station_id":"ce4bhrh2rcd13ifvqhug","pricing_plan_id":"cebpf4jnsgd1na2vs0mg"},{"bike_id":"c2c60ae5-8a06-46dd-8518-74b6fd30f85e","system_id":"levelo_inurba_marseille","lat":43.26569,"lon":5.39041,"is_reserved":false,"is_disabled":false,"rental_uris":{"android":"levelo://app?vid=c2c60ae5-8a06-46dd-8518-74b6fd30f85e","ios":"levelo://app?vid=c2c60ae5-8a06-46dd-8518-74b6fd30f85e"},"vehicle_type_id":"4","last_reported":1733346553,"current_range_meters":30800,"station_id":"ce4bhe12rcd13ifvqf30","pricing_plan_id":"cebpf4jnsgd1na2vs0mg"},{"bike_id":"40137885-a1e3-41c7-b647-d2d285ef0375","system_id":"levelo_inurba_marseille","lat":43.28939,"lon":5.3664,"is_reserved":false,"is_disabled":false,"rental_uris":{"android":"levelo://app?vid=40137885-a1e3-41c7-b647-d2d285ef0375","ios":"levelo://app?vid=40137885-a1e3-41c7-b647-d2d285ef0375"},"vehicle_type_id":"4","last_reported":1733346553,"current_range_meters":38800,"station_id":"ce4bhap2rcd13ifvqek0","pricing_plan_id":"cebpf4jnsgd1na2vs0mg"},{"bike_id":"e9825e22-a219-4419-9c42-05f082b516ed","system_id":"levelo_inurba_marseille","lat":43.29791,"lon":5.39344,"is_reserved":false,"is_disabled":true,"rental_uris":{"android":"levelo://app?vid=e9825e22-a219-4419-9c42-05f082b516ed","ios":"levelo://app?vid=e9825e22-a219-4419-9c42-05f082b516ed"},"vehicle_type_id":"4","last_reported":1733346553,"current_range_meters":0,"station_id":"chh1huq6cuj3fo74tm60","pricing_plan_id":"cebpf4jnsgd1na2vs0mg"},{"bike_id":"411208c6-7020-429a-8870-ff4b414c939b","system_id":"levelo_inurba_marseille","lat":43.26499,"lon":5.3955,"is_reserved":false,"is_disabled":false,"rental_uris":{"android":"levelo://app?vid=411208c6-7020-429a-8870-ff4b414c939b","ios":"levelo://app?vid=411208c6-7020-429a-8870-ff4b414c939b"},"vehicle_type_id":"4","last_reported":1733346553,"current_range_meters":38800,"station_id":"ce4bhi12rcd13ifvqfq0","pricing_plan_id":"cebpf4jnsgd1na2vs0mg"},{"bike_id":"fc02bf7c-fa30-4850-9eb4-c1c04eeef081","system_id":"levelo_inurba_marseille","lat":43.33016,"lon":5.39032,"is_reserved":false,"is_disabled":false,"rental_uris":{"android":"levelo://app?vid=fc02bf7c-fa30-4850-9eb4-c1c04eeef081","ios":"levelo://app?vid=fc02bf7c-fa30-4850-9eb4-c1c04eeef081"},"vehicle_type_id":"4","last_reported":1733346553,"current_range_meters":27600,"station_id":"ce4bhr92rcd13ifvqhrg","pricing_plan_id":"cebpf4jnsgd1na2vs0mg"},{"bike_id":"c2d8a1c2-d166-4a36-b32f-beec95c93bd5","system_id":"levelo_inurba_marseille","lat":43.33756,"lon":5.37459,"is_reserved":false,"is_disabled":false,"rental_uris":{"android":"levelo://app?vid=c2d8a1c2-d166-4a36-b32f-beec95c93bd5","ios":"levelo://app?vid=c2d8a1c2-d166-4a36-b32f-beec95c93bd5"},"vehicle_type_id":"4","last_reported":1733346553,"current_range_meters":12000,"station_id":"","pricing_plan_id":"cebpf4jnsgd1na2vs0mg"},{"bike_id":"5ea21fe2-3ae9-4a70-86e8-52f81635e664","system_id":"levelo_inurba_marseille","lat":43.30803,"lon":5.38149,"is_reserved":false,"is_disabled":false,"rental_uris":{"android":"levelo://app?vid=5ea21fe2-3ae9-4a70-86e8-52f81635e664","ios":"levelo://app?vid=5ea21fe2-3ae9-4a70-86e8-52f81635e664"},"vehicle_type_id":"4","last_reported":1733346553,"current_range_meters":18000,"station_id":"ce4bgt12rcd13ifvqce0","pricing_plan_id":"cebpf4jnsgd1na2vs0mg"},{"bike_id":"6fa0e8b3-75cc-49ca-b10f-cd9cb83b8878","system_id":"levelo_inurba_marseille","lat":43.31081,"lon":5.38361,"is_reserved":false,"is_disabled":false,"rental_uris":{"android":"levelo://app?vid=6fa0e8b3-75cc-49ca-b10f-cd9cb83b8878","ios":"levelo://app?vid=6fa0e8b3-75cc-49ca-b10f-cd9cb83b8878"},"vehicle_type_id":"4","last_reported":1733346553,"current_range_meters":8000,"station_id":"ce4bgv92rcd13ifvqcr0","pricing_plan_id":"cebpf4jnsgd1na2vs0mg"},{"bike_id":"135a61d9-0198-4325-86b0-f76226ad33d8","system_id":"levelo_inurba_marseille","lat":43.24386,"lon":5.3705,"is_reserved":false,"is_disabled":false,"rental_uris":{"android":"levelo://app?vid=135a61d9-0198-4325-86b0-f76226ad33d8","ios":"levelo://app?vid=135a61d9-0198-4325-86b0-f76226ad33d8"},"vehicle_type_id":"4","last_reported":1733346553,"current_range_meters":38000,"station_id":"ce4bhhh2rcd13ifvqfk0","pricing_plan_id":"cebpf4jnsgd1na2vs0mg"},{"bike_id":"5f4b7b33-9066-484c-9c20-b70c39338231","system_id":"levelo_inurba_marseille","lat":43.26805,"lon":5.4026,"is_reserved":false,"is_disabled":false,"rental_uris":{"android":"levelo://app?vid=5f4b7b33-9066-484c-9c20-b70c39338231","ios":"levelo://app?vid=5f4b7b33-9066-484c-9c20-b70c39338231"},"vehicle_type_id":"4","last_reported":1733346553,"current_range_meters":7200,"station_id":"ce501612rcd8frsf0b60","pricing_plan_id":"cebpf4jnsgd1na2vs0mg"},{"bike_id":"6cb0d7b1-f509-4b8f-a2d8-e08152953ff5","system_id":"levelo_inurba_marseille","lat":43.24806,"lon":5.3745,"is_reserved":false,"is_disabled":false,"rental_uris":{"android":"levelo://app?vid=6cb0d7b1-f509-4b8f-a2d8-e08152953ff5","ios":"levelo://app?vid=6cb0d7b1-f509-4b8f-a2d8-e08152953ff5"},"vehicle_type_id":"4","last_reported":1733346553,"current_range_meters":38800,"station_id":"ce4bhgh2rcd13ifvqfb0","pricing_plan_id":"cebpf4jnsgd1na2vs0mg"},{"bike_id":"5605d362-7a6b-439d-b82f-b1eebcb406f8","system_id":"levelo_inurba_marseille","lat":43.26678,"lon":5.38269,"is_reserved":false,"is_disabled":false,"rental_uris":{"android":"levelo://app?vid=5605d362-7a6b-439d-b82f-b1eebcb406f8","ios":"levelo://app?vid=5605d362-7a6b-439d-b82f-b1eebcb406f8"},"vehicle_type_id":"4","last_reported":1733346553,"current_range_meters":38000,"station_id":"ce4bhg92rcd13ifvqf90","pricing_plan_id":"cebpf4jnsgd1na2vs0mg"},{"bike_id":"eb670d23-f40a-48c6-89e8-aaf1982cb889","system_id":"levelo_inurba_marseille","lat":43.268,"lon":5.40262,"is_reserved":false,"is_disabled":false,"rental_uris":{"android":"levelo://app?vid=eb670d23-f40a-48c6-89e8-aaf1982cb889","ios":"levelo://app?vid=eb670d23-f40a-48c6-89e8-aaf1982cb889"},"vehicle_type_id":"4","last_reported":1733346553,"current_range_meters":39200,"station_id":"ce501612rcd8frsf0b60","pricing_plan_id":"cebpf4jnsgd1na2vs0mg"},{"bike_id":"f618bc12-18e3-40c5-a5af-2b8c816202e5","system_id":"levelo_inurba_marseille","lat":43.29025,"lon":5.38649,"is_reserved":false,"is_disabled":false,"rental_uris":{"android":"levelo://app?vid=f618bc12-18e3-40c5-a5af-2b8c816202e5","ios":"levelo://app?vid=f618bc12-18e3-40c5-a5af-2b8c816202e5"},"vehicle_type_id":"4","last_reported":1733346553,"current_range_meters":38000,"station_id":"ce4bh4p2rcd13ifvqe0g","pricing_plan_id":"cebpf4jnsgd1na2vs0mg"},{"bike_id":"cd0eaa41-1235-44ff-ad90-46e68c1bc335","system_id":"levelo_inurba_marseille","lat":43.33014,"lon":5.3902,"is_reserved":false,"is_disabled":false,"rental_uris":{"android":"levelo://app?vid=cd0eaa41-1235-44ff-ad90-46e68c1bc335","ios":"levelo://app?vid=cd0eaa41-1235-44ff-ad90-46e68c1bc335"},"vehicle_type_id":"4","last_reported":1733346553,"current_range_meters":18000,"station_id":"ce4bhr92rcd13ifvqhrg","pricing_plan_id":"cebpf4jnsgd1na2vs0mg"},{"bike_id":"062c48bc-ce6b-4e53-bc0e-240815d75010","system_id":"levelo_inurba_marseille","lat":43.28462,"lon":5.35886,"is_reserved":false,"is_disabled":false,"rental_uris":{"android":"levelo://app?vid=062c48bc-ce6b-4e53-bc0e-240815d75010","ios":"levelo://app?vid=062c48bc-ce6b-4e53-bc0e-240815d75010"},"vehicle_type_id":"4","last_reported":1733346553,"current_range_meters":30800,"station_id":"ce4bhah2rcd13ifvqei0","pricing_plan_id":"cebpf4jnsgd1na2vs0mg"},{"bike_id":"2a08b841-4bc8-40d2-b375-8f79b071085c","system_id":"levelo_inurba_marseille","lat":43.31506,"lon":5.37314,"is_reserved":false,"is_disabled":false,"rental_uris":{"android":"levelo://app?vid=2a08b841-4bc8-40d2-b375-8f79b071085c","ios":"levelo://app?vid=2a08b841-4bc8-40d2-b375-8f79b071085c"},"vehicle_type_id":"4","last_reported":1733346553,"current_range_meters":38800,"station_id":"ce4bgt12rcd13ifvqcd0","pricing_plan_id":"cebpf4jnsgd1na2vs0mg"},{"bike_id":"261220fd-5dcf-4647-a7b7-e8a521af2bec","system_id":"levelo_inurba_marseille","lat":43.27912,"lon":5.38005,"is_reserved":false,"is_disabled":true,"rental_uris":{"android":"levelo://app?vid=261220fd-5dcf-4647-a7b7-e8a521af2bec","ios":"levelo://app?vid=261220fd-5dcf-4647-a7b7-e8a521af2bec"},"vehicle_type_id":"4","last_reported":1733346553,"current_range_meters":0,"station_id":"ce4bhf92rcd13ifvqf50","pricing_plan_id":"cebpf4jnsgd1na2vs0mg"},{"bike_id":"f423e0a3-fc0c-4e8c-a742-55c7b9f5f0ba","system_id":"levelo_inurba_marseille","lat":43.32362,"lon":5.38877,"is_reserved":false,"is_disabled":false,"rental_uris":{"android":"levelo://app?vid=f423e0a3-fc0c-4e8c-a742-55c7b9f5f0ba","ios":"levelo://app?vid=f423e0a3-fc0c-4e8c-a742-55c7b9f5f0ba"},"vehicle_type_id":"4","last_reported":1733346553,"current_range_meters":38400,"station_id":"ce4bhqp2rcd13ifvqhog","pricing_plan_id":"cebpf4jnsgd1na2vs0mg"},{"bike_id":"637a2191-0b99-4ddd-8d5c-313c825e67ee","system_id":"levelo_inurba_marseille","lat":43.33025,"lon":5.39039,"is_reserved":false,"is_disabled":false,"rental_uris":{"android":"levelo://app?vid=637a2191-0b99-4ddd-8d5c-313c825e67ee","ios":"levelo://app?vid=637a2191-0b99-4ddd-8d5c-313c825e67ee"},"vehicle_type_id":"4","last_reported":1733346553,"current_range_meters":38800,"station_id":"ce4bhr92rcd13ifvqhrg","pricing_plan_id":"cebpf4jnsgd1na2vs0mg"},{"bike_id":"a8153b1f-91f3-4f76-995b-21c531b52d34","system_id":"levelo_inurba_marseille","lat":43.29719,"lon":5.37704,"is_reserved":false,"is_disabled":false,"rental_uris":{"android":"levelo://app?vid=a8153b1f-91f3-4f76-995b-21c531b52d34","ios":"levelo://app?vid=a8153b1f-91f3-4f76-995b-21c531b52d34"},"vehicle_type_id":"4","last_reported":1733346553,"current_range_meters":29600,"station_id":"ce4bgkh2rcd13ifvqbl0","pricing_plan_id":"cebpf4jnsgd1na2vs0mg"},{"bike_id":"566d3863-5d3d-46e1-8560-48de365cc9d0","system_id":"levelo_inurba_marseille","lat":43.26547,"lon":5.37288,"is_reserved":false,"is_disabled":false,"rental_uris":{"android":"levelo://app?vid=566d3863-5d3d-46e1-8560-48de365cc9d0","ios":"levelo://app?vid=566d3863-5d3d-46e1-8560-48de365cc9d0"},"vehicle_type_id":"4","last_reported":1733346553,"current_range_meters":10000,"station_id":"ce4bhg12rcd13ifvqf70","pricing_plan_id":"cebpf4jnsgd1na2vs0mg"},{"bike_id":"fea5aec6-1ea3-4af3-b200-d65db6232061","system_id":"levelo_inurba_marseille","lat":43.23966,"lon":5.36622,"is_reserved":false,"is_disabled":false,"rental_uris":{"android":"levelo://app?vid=fea5aec6-1ea3-4af3-b200-d65db6232061","ios":"levelo://app?vid=fea5aec6-1ea3-4af3-b200-d65db6232061"},"vehicle_type_id":"4","last_reported":1733346553,"current_range_meters":26000,"station_id":"ce4bhi12rcd13ifvqfp0","pricing_plan_id":"cebpf4jnsgd1na2vs0mg"},{"bike_id":"a13e45b5-3d49-49bc-af49-fbd12d53a877","system_id":"levelo_inurba_marseille","lat":43.30552,"lon":5.36534,"is_reserved":false,"is_disabled":true,"rental_uris":{"android":"levelo://app?vid=a13e45b5-3d49-49bc-af49-fbd12d53a877","ios":"levelo://app?vid=a13e45b5-3d49-49bc-af49-fbd12d53a877"},"vehicle_type_id":"4","last_reported":1733346553,"current_range_meters":16400,"station_id":"ce4bgs12rcd13ifvqcag","pricing_plan_id":"cebpf4jnsgd1na2vs0mg"},{"bike_id":"75c675ce-a86a-4efa-8cb3-a54e393ad2c3","system_id":"levelo_inurba_marseille","lat":43.30869,"lon":5.37797,"is_reserved":false,"is_disabled":false,"rental_uris":{"android":"levelo://app?vid=75c675ce-a86a-4efa-8cb3-a54e393ad2c3","ios":"levelo://app?vid=75c675ce-a86a-4efa-8cb3-a54e393ad2c3"},"vehicle_type_id":"4","last_reported":1733346553,"current_range_meters":19200,"station_id":"","pricing_plan_id":"cebpf4jnsgd1na2vs0mg"},{"bike_id":"21c61b3f-2ae1-41ed-96e8-21fc1b01a387","system_id":"levelo_inurba_marseille","lat":43.30086,"lon":5.372471,"is_reserved":false,"is_disabled":false,"rental_uris":{"android":"levelo://app?vid=21c61b3f-2ae1-41ed-96e8-21fc1b01a387","ios":"levelo://app?vid=21c61b3f-2ae1-41ed-96e8-21fc1b01a387"},"vehicle_type_id":"4","last_reported":1733346553,"current_range_meters":19600,"station_id":"","pricing_plan_id":"cebpf4jnsgd1na2vs0mg"},{"bike_id":"eca3adaa-bb31-4004-9cf7-8b3631497d54","system_id":"levelo_inurba_marseille","lat":43.2397,"lon":5.36624,"is_reserved":false,"is_disabled":false,"rental_uris":{"android":"levelo://app?vid=eca3adaa-bb31-4004-9cf7-8b3631497d54","ios":"levelo://app?vid=eca3adaa-bb31-4004-9cf7-8b3631497d54"},"vehicle_type_id":"4","last_reported":1733346553,"current_range_meters":38800,"station_id":"ce4bhi12rcd13ifvqfp0","pricing_plan_id":"cebpf4jnsgd1na2vs0mg"},{"bike_id":"7e87d4f8-01df-4475-b68f-dae3809122d2","system_id":"levelo_inurba_marseille","lat":43.30975,"lon":5.37551,"is_reserved":false,"is_disabled":false,"rental_uris":{"android":"levelo://app?vid=7e87d4f8-01df-4475-b68f-dae3809122d2","ios":"levelo://app?vid=7e87d4f8-01df-4475-b68f-dae3809122d2"},"vehicle_type_id":"4","last_reported":1733346553,"current_range_meters":16800,"station_id":"","pricing_plan_id":"cebpf4jnsgd1na2vs0mg"},{"bike_id":"3a9149f3-357c-4d0a-859b-18382ef024a5","system_id":"levelo_inurba_marseille","lat":43.3211,"lon":5.36769,"is_reserved":false,"is_disabled":false,"rental_uris":{"android":"levelo://app?vid=3a9149f3-357c-4d0a-859b-18382ef024a5","ios":"levelo://app?vid=3a9149f3-357c-4d0a-859b-18382ef024a5"},"vehicle_type_id":"4","last_reported":1733346553,"current_range_meters":26800,"station_id":"ce4bhrh2rcd13ifvqhug","pricing_plan_id":"cebpf4jnsgd1na2vs0mg"},{"bike_id":"0bab1c9e-2da3-4daa-ad1e-51564d857306","system_id":"levelo_inurba_marseille","lat":43.30639,"lon":5.40096,"is_reserved":false,"is_disabled":false,"rental_uris":{"android":"levelo://app?vid=0bab1c9e-2da3-4daa-ad1e-51564d857306","ios":"levelo://app?vid=0bab1c9e-2da3-4daa-ad1e-51564d857306"},"vehicle_type_id":"4","last_reported":1733346553,"current_range_meters":8000,"station_id":"ce4bh112rcd13ifvqda0","pricing_plan_id":"cebpf4jnsgd1na2vs0mg"},{"bike_id":"8c3d731d-ec18-4229-9190-9f99eeca0dea","system_id":"levelo_inurba_marseille","lat":43.28071,"lon":5.3965,"is_reserved":false,"is_disabled":false,"rental_uris":{"android":"levelo://app?vid=8c3d731d-ec18-4229-9190-9f99eeca0dea","ios":"levelo://app?vid=8c3d731d-ec18-4229-9190-9f99eeca0dea"},"vehicle_type_id":"4","last_reported":1733346553,"current_range_meters":38800,"station_id":"ce4bho12rcd13ifvqh2g","pricing_plan_id":"cebpf4jnsgd1na2vs0mg"},{"bike_id":"d0989137-d29c-4671-b0aa-5eb3221f1ee6","system_id":"levelo_inurba_marseille","lat":43.29263,"lon":5.40911,"is_reserved":false,"is_disabled":false,"rental_uris":{"android":"levelo://app?vid=d0989137-d29c-4671-b0aa-5eb3221f1ee6","ios":"levelo://app?vid=d0989137-d29c-4671-b0aa-5eb3221f1ee6"},"vehicle_type_id":"4","last_reported":1733346553,"current_range_meters":38800,"station_id":"ce4bh192rcd13ifvqdc0","pricing_plan_id":"cebpf4jnsgd1na2vs0mg"},{"bike_id":"c2e22b60-40f0-40f4-b347-723d2f8cc04e","system_id":"levelo_inurba_marseille","lat":43.27574,"lon":5.384207,"is_reserved":false,"is_disabled":false,"rental_uris":{"android":"levelo://app?vid=c2e22b60-40f0-40f4-b347-723d2f8cc04e","ios":"levelo://app?vid=c2e22b60-40f0-40f4-b347-723d2f8cc04e"},