{"last_updated":1713017185,"ttl":30,"version":"2.2","data":{"bikes":[{"bike_id":"112b4366-5aef-46eb-beae-5c1521cf12f0","system_id":"levelo_inurba_marseille","lat":43.314811,"lon":5.373104,"is_reserved":false,"is_disabled":false,"rental_uris":{"android":"levelo://app?vid=112b4366-5aef-46eb-beae-5c1521cf12f0","ios":"levelo://app?vid=112b4366-5aef-46eb-beae-5c1521cf12f0"},"vehicle_type_id":"4","last_reported":1713017185,"current_range_meters":0,"station_id":"ce4bgt12rcd13ifvqcd0","pricing_plan_id":"cebpf4jnsgd1na2vs0mg"},{"bike_id":"1bf7dcf0-5728-4216-9a1b-5e4d80c7063f","system_id":"levelo_inurba_marseille","lat":43.309039,"lon":5.371797,"is_reserved":false,"is_disabled":false,"rental_uris":{"android":"levelo://app?vid=1bf7dcf0-5728-4216-9a1b-5e4d80c7063f","ios":"levelo://app?vid=1bf7dcf0-5728-4216-9a1b-5e4d80c7063f"},"vehicle_type_id":"4","last_reported":1713017185,"current_range_meters":19200,"station_id":"ce4bguh2rcd13ifvqckg","pricing_plan_id":"cebpf4jnsgd1na2vs0mg"},{"bike_id":"3a39a890-c355-425f-97a0-91f7e2fba535","system_id":"levelo_inurba_marseille","lat":43.305706,"lon":5.365654,"is_reserved":false,"is_disabled":false,"rental_uris":{"android":"levelo://app?vid=3a39a890-c355-425f-97a0-91f7e2fba535","ios":"levelo://app?vid=3a39a890-c355-425f-97a0-91f7e2fba535"},"vehicle_type_id":"4","last_reported":1713017185,"current_range_meters":21200,"station_id":"ce4bgs12rcd13ifvqcag","pricing_plan_id":"cebpf4jnsgd1na2vs0mg"},{"bike_id":"8b35822d-af05-4693-b98b-debccb741f22","system_id":"levelo_inurba_marseille","lat":43.305368,"lon":5.367343,"is_reserved":false,"is_disabled":false,"rental_uris":{"android":"levelo://app?vid=8b35822d-af05-4693-b98b-debccb741f22","ios":"levelo://app?vid=8b35822d-af05-4693-b98b-debccb741f22"},"vehicle_type_id":"4","last_reported":1713017185,"current_range_meters":0,"station_id":"ce4bgrp2rcd13ifvqc9g","pricing_plan_id":"cebpf4jnsgd1na2vs0mg"},{"bike_id":"f17a9d16-13d7-431b-924c-508cb037e3d5","system_id":"levelo_inurba_marseille","lat":43.311125,"lon":5.377624,"is_reserved":false,"is_disabled":false,"rental_uris":{"android":"levelo://app?vid=f17a9d16-13d7-431b-924c-508cb037e3d5","ios":"levelo://app?vid=f17a9d16-13d7-431b-924c-508cb037e3d5"},"vehicle_type_id":"4","last_reported":1713017185,"current_range_meters":0,"station_id":"ce4bgt92rcd13ifvqcg0","pricing_plan_id":"cebpf4jnsgd1na2vs0mg"},{"bike_id":"cce66ef5-9dc9-4264-8455-9efeb63dc2df","system_id":"levelo_inurba_marseille","lat":43.307945,"lon":5.376487,"is_reserved":false,"is_disabled":false,"rental_uris":{"android":"levelo://app?vid=cce66ef5-9dc9-4264-8455-9efeb63dc2df","ios":"levelo://app?vid=cce66ef5-9dc9-4264-8455-9efeb63dc2df"},"vehicle_type_id":"4","last_reported":1713017185,"current_range_meters":7200,"station_id":"ce4bgv92rcd13ifvqcq0","pricing_plan_id":"cebpf4jnsgd1na2vs0mg"},{"bike_id":"76c0d00e-2113-4b94-96fa-ff3de213de74","system_id":"levelo_inurba_marseille","lat":43.303046,"lon":5.368981,"is_reserved":false,"is_disabled":false,"rental_uris":{"android":"levelo://app?vid=76c0d00e-2113-4b94-96fa-ff3de213de74","ios":"levelo://app?vid=76c0d00e-2113-4b94-96fa-ff3de213de74"},"vehicle_type_id":"4","last_reported":1713017185,"current_range_meters":0,"station_id":"ce4bgqh2rcd13ifvqc5g","pricing_plan_id":"cebpf4jnsgd1na2vs0mg"},{"bike_id":"c973c696-6cf3-4ef6-9922-20142626237f","system_id":"levelo_inurba_marseille","lat":43.30282,"lon":5.37259,"is_reserved":false,"is_disabled":false,"rental_uris":{"android":"levelo://app?vid=c973c696-6cf3-4ef6-9922-20142626237f","ios":"levelo://app?vid=c973c696-6cf3-4ef6-9922-20142626237f"},"vehicle_type_id":"4","last_reported":1713017185,"current_range_meters":14800,"station_id":"","pricing_plan_id":"cebpf4jnsgd1na2vs0mg"},{"bike_id":"05a5a04e-59ad-4748-9afa-6eeddc005c9c","system_id":"levelo_inurba_marseille","lat":43.308012,"lon":5.381511,"is_reserved":false,"is_disabled":false,"rental_uris":{"android":"levelo://app?vid=05a5a04e-59ad-4748-9afa-6eeddc005c9c","ios":"levelo://app?vid=05a5a04e-59ad-4748-9afa-6eeddc005c9c"},"vehicle_type_id":"4","last_reported":1713017185,"current_range_meters":3600,"station_id":"ce4bgt12rcd13ifvqce0","pricing_plan_id":"cebpf4jnsgd1na2vs0mg"},{"bike_id":"a0a07164-c0c2-41aa-b710-99113a5fa34b","system_id":"levelo_inurba_marseille","lat":43.324771,"lon":5.36557,"is_reserved":false,"is_disabled":false,"rental_uris":{"android":"levelo://app?vid=a0a07164-c0c2-41aa-b710-99113a5fa34b","ios":"levelo://app?vid=a0a07164-c0c2-41aa-b710-99113a5fa34b"},"vehicle_type_id":"4","last_reported":1713017185,"current_range_meters":12400,"station_id":"ce4bhs12rcd13ifvqhvg","pricing_plan_id":"cebpf4jnsgd1na2vs0mg"},{"bike_id":"51c4ee23-3194-4f22-8038-261d45c1ecdc","system_id":"levelo_inurba_marseille","lat":43.324771,"lon":5.36557,"is_reserved":false,"is_disabled":false,"rental_uris":{"android":"levelo://app?vid=51c4ee23-3194-4f22-8038-261d45c1ecdc","ios":"levelo://app?vid=51c4ee23-3194-4f22-8038-261d45c1ecdc"},"vehicle_type_id":"4","last_reported":1713017185,"current_range_meters":11600,"station_id":"ce4bhs12rcd13ifvqhvg","pricing_plan_id":"cebpf4jnsgd1na2vs0mg"},{"bike_id":"aaef1d7d-f60a-4385-a432-8ff93bd10500","system_id":"levelo_inurba_marseille","lat":43.324771,"lon":5.36557,"is_reserved":false,"is_disabled":false,"rental_uris":{"android":"levelo://app?vid=aaef1d7d-f60a-4385-a432-8ff93bd10500","ios":"levelo://app?vid=aaef1d7d-f60a-4385-a432-8ff93bd10500"},"vehicle_type_id":"4","last_reported":1713017185,"current_range_meters":14000,"station_id":"ce4bhs12rcd13ifvqhvg","pricing_plan_id":"cebpf4jnsgd1na2vs0mg"},{"bike_id":"6bd30c09-c007-4c03-a14e-53bb25dc6171","system_id":"levelo_inurba_marseille","lat":43.324771,"lon":5.36557,"is_reserved":false,"is_disabled":false,"rental_uris":{"android":"levelo://app?vid=6bd30c09-c007-4c03-a14e-53bb25dc6171","ios":"levelo://app?vid=6bd30c09-c007-4c03-a14e-53bb25dc6171"},"vehicle_type_id":"4","last_reported":1713017185,"current_range_meters":25600,"station_id":"ce4bhs12rcd13ifvqhvg","pricing_plan_id":"cebpf4jnsgd1na2vs0mg"},{"bike_id":"bc6cc588-e5bf-4915-9975-685403001528","system_id":"levelo_inurba_marseille","lat":43.324771,"lon":5.36557,"is_reserved":false,"is_disabled":false,"rental_uris":{"android":"levelo://app?vid=bc6cc588-e5bf-4915-9975-685403001528","ios":"levelo://app?vid=bc6cc588-e5bf-4915-9975-685403001528"},"vehicle_type_id":"4","last_reported":1713017185,"current_range_meters":17600,"station_id":"ce4bhs12rcd13ifvqhvg","pricing_plan_id":"cebpf4jnsgd1na2vs0mg"},{"bike_id":"42f7c059-27e2-463c-adf6-ee35208b5707","system_id":"levelo_inurba_marseille","lat":43.310804,"lon":5.38359,"is_reserved":false,"is_disabled":false,"rental_uris":{"android":"levelo://app?vid=42f7c059-27e2-463c-adf6-ee35208b5707","ios":"levelo://app?vid=42f7c059-27e2-463c-adf6-ee35208b5707"},"vehicle_type_id":"4","last_reported":1713017185,"current_range_meters":23200,"station_id":"ce4bgv92rcd13ifvqcr0","pricing_plan_id":"cebpf4jnsgd1na2vs0mg"},{"bike_id":"583c8200-cfa6-4257-856a-a9dbe1ee9977","system_id":"levelo_inurba_marseille","lat":43.324771,"lon":5.36557,"is_reserved":false,"is_disabled":false,"rental_uris":{"android":"levelo://app?vid=583c8200-cfa6-4257-856a-a9dbe1ee9977","ios":"levelo://app?vid=583c8200-cfa6-4257-856a-a9dbe1ee9977"},"vehicle_type_id":"4","last_reported":1713017185,"current_range_meters":2400,"station_id":"ce4bhs12rcd13ifvqhvg","pricing_plan_id":"cebpf4jnsgd1na2vs0mg"},{"bike_id":"e366c2ed-ca1c-4586-9cfa-57680e9f9cd0","system_id":"levelo_inurba_marseille","lat":43.319935,"lon":5.381699,"is_reserved":false,"is_disabled":false,"rental_uris":{"android":"levelo://app?vid=e366c2ed-ca1c-4586-9cfa-57680e9f9cd0","ios":"levelo://app?vid=e366c2ed-ca1c-4586-9cfa-57680e9f9cd0"},"vehicle_type_id":"4","last_reported":1713017185,"current_range_meters":28800,"station_id":"ce4bhr12rcd13ifvqhpg","pricing_plan_id":"cebpf4jnsgd1na2vs0mg"},{"bike_id":"afb0dae9-a686-4fac-a85b-26c9beff4e05","system_id":"levelo_inurba_marseille","lat":43.313773,"lon":5.38495,"is_reserved":false,"is_disabled":false,"rental_uris":{"android":"levelo://app?vid=afb0dae9-a686-4fac-a85b-26c9beff4e05","ios":"levelo://app?vid=afb0dae9-a686-4fac-a85b-26c9beff4e05"},"vehicle_type_id":"4","last_reported":1713017185,"current_range_meters":0,"station_id":"ce4bgt92rcd13ifvqcf0","pricing_plan_id":"cebpf4jnsgd1na2vs0mg"},{"bike_id":"10de1fbd-e00a-4343-871c-9d127259216d","system_id":"levelo_inurba_marseille","lat":43.299222,"lon":5.365554,"is_reserved":false,"is_disabled":false,"rental_uris":{"android":"levelo://app?vid=10de1fbd-e00a-4343-871c-9d127259216d","ios":"levelo://app?vid=10de1fbd-e00a-4343-871c-9d127259216d"},"vehicle_type_id":"4","last_reported":1713017185,"current_range_meters":0,"station_id":"ce4bgm92rcd13ifvqbr0","pricing_plan_id":"cebpf4jnsgd1na2vs0mg"},{"bike_id":"c6fa391d-8c3d-4215-b7fb-b2a9fd6a928b","system_id":"levelo_inurba_marseille","lat":43.308012,"lon":5.381511,"is_reserved":false,"is_disabled":false,"rental_uris":{"android":"levelo://app?vid=c6fa391d-8c3d-4215-b7fb-b2a9fd6a928b","ios":"levelo://app?vid=c6fa391d-8c3d-4215-b7fb-b2a9fd6a928b"},"vehicle_type_id":"4","last_reported":1713017185,"current_range_meters":25600,"station_id":"ce4bgt12rcd13ifvqce0","pricing_plan_id":"cebpf4jnsgd1na2vs0mg"},{"bike_id":"887b5f04-2d65-4f94-ae81-eed279491cee","system_id":"levelo_inurba_marseille","lat":43.298433,"lon":5.362774,"is_reserved":false,"is_disabled":false,"rental_uris":{"android":"levelo://app?vid=887b5f04-2d65-4f94-ae81-eed279491cee","ios":"levelo://app?vid=887b5f04-2d65-4f94-ae81-eed279491cee"},"vehicle_type_id":"4","last_reported":1713017185,"current_range_meters":8800,"station_id":"ce4bgpp2rcd13ifvqc3g","pricing_plan_id":"cebpf4jnsgd1na2vs0mg"},{"bike_id":"66e01bb9-0f70-46c9-9245-517c7193e9ba","system_id":"levelo_inurba_marseille","lat":43.298433,"lon":5.362774,"is_reserved":false,"is_disabled":false,"rental_uris":{"android":"levelo://app?vid=66e01bb9-0f70-46c9-9245-517c7193e9ba","ios":"levelo://app?vid=66e01bb9-0f70-46c9-9245-517c7193e9ba"},"vehicle_type_id":"4","last_reported":1713017185,"current_range_meters":4800,"station_id":"ce4bgpp2rcd13ifvqc3g","pricing_plan_id":"cebpf4jnsgd1na2vs0mg"},{"bike_id":"c0a3789e-1453-4533-bff0-250b3e990c67","system_id":"levelo_inurba_marseille","lat":43.296935,"lon":5.376544,"is_reserved":false,"is_disabled":false,"rental_uris":{"android":"levelo://app?vid=c0a3789e-1453-4533-bff0-250b3e990c67","ios":"levelo://app?vid=c0a3789e-1453-4533-bff0-250b3e990c67"},"vehicle_type_id":"4","last_reported":1713017185,"current_range_meters":27200,"station_id":"ce4bgkh2rcd13ifvqbl0","pricing_plan_id":"cebpf4jnsgd1na2vs0mg"},{"bike_id":"74b7084c-7082-4074-afab-8931a2425da8","system_id":"levelo_inurba_marseille","lat":43.299243,"lon":5.374807,"is_reserved":false,"is_disabled":false,"rental_uris":{"android":"levelo://app?vid=74b7084c-7082-4074-afab-8931a2425da8","ios":"levelo://app?vid=74b7084c-7082-4074-afab-8931a2425da8"},"vehicle_type_id":"4","last_reported":1713017185,"current_range_meters":24000,"station_id":"ce4bgjh2rcd13ifvqbg0","pricing_plan_id":"cebpf4jnsgd1na2vs0mg"},{"bike_id":"6f691d96-b204-43b6-b82c-800c1ee92fc7","system_id":"levelo_inurba_marseille","lat":43.311722,"lon":5.387247,"is_reserved":false,"is_disabled":false,"rental_uris":{"android":"levelo://app?vid=6f691d96-b204-43b6-b82c-800c1ee92fc7","ios":"levelo://app?vid=6f691d96-b204-43b6-b82c-800c1ee92fc7"},"vehicle_type_id":"4","last_reported":1713017185,"current_range_meters":15200,"station_id":"ce4bgv12rcd13ifvqcp0","pricing_plan_id":"cebpf4jnsgd1na2vs0mg"},{"bike_id":"5f3e7bcc-6eee-40a6-a4fc-ac9dd9c1f8ab","system_id":"levelo_inurba_marseille","lat":43.297794,"lon":5.370888,"is_reserved":false,"is_disabled":false,"rental_uris":{"android":"levelo://app?vid=5f3e7bcc-6eee-40a6-a4fc-ac9dd9c1f8ab","ios":"levelo://app?vid=5f3e7bcc-6eee-40a6-a4fc-ac9dd9c1f8ab"},"vehicle_type_id":"4","last_reported":1713017185,"current_range_meters":1600,"station_id":"ce4bgop2rcd13ifvqc1g","pricing_plan_id":"cebpf4jnsgd1na2vs0mg"},{"bike_id":"81b9f47b-5161-4b62-977c-a3d1ce1a03bb","system_id":"levelo_inurba_marseille","lat":43.2968,"lon":5.37291,"is_reserved":false,"is_disabled":false,"rental_uris":{"android":"levelo://app?vid=81b9f47b-5161-4b62-977c-a3d1ce1a03bb","ios":"levelo://app?vid=81b9f47b-5161-4b62-977c-a3d1ce1a03bb"},"vehicle_type_id":"4","last_reported":1713017185,"current_range_meters":8000,"station_id":"ce4bgk12rcd13ifvqbj0","pricing_plan_id":"cebpf4jnsgd1na2vs0mg"},{"bike_id":"7abf6d4e-1c6c-4fa4-8bdb-9856271e02ce","system_id":"levelo_inurba_marseille","lat":43.299028,"lon":5.381509,"is_reserved":false,"is_disabled":false,"rental_uris":{"android":"levelo://app?vid=7abf6d4e-1c6c-4fa4-8bdb-9856271e02ce","ios":"levelo://app?vid=7abf6d4e-1c6c-4fa4-8bdb-9856271e02ce"},"vehicle_type_id":"4","last_reported":1713017185,"current_range_meters":20400,"station_id":"ce4bgj12rcd13ifvqbc0","pricing_plan_id":"cebpf4jnsgd1na2vs0mg"},{"bike_id":"7afd0c7b-1b11-4137-aba6-ef8c01dcc6fa","system_id":"levelo_inurba_marseille","lat":43.296131,"lon":5.370773,"is_reserved":false,"is_disabled":false,"rental_uris":{"android":"levelo://app?vid=7afd0c7b-1b11-4137-aba6-ef8c01dcc6fa","ios":"levelo://app?vid=7afd0c7b-1b11-4137-aba6-ef8c01dcc6fa"},"vehicle_type_id":"4","last_reported":1713017185,"current_range_meters":400,"station_id":"ce4bgnh2rcd13ifvqc0g","pricing_plan_id":"cebpf4jnsgd1na2vs0mg"},{"bike_id":"78a821ab-2b09-4599-9d48-20b559269d44","system_id":"levelo_inurba_marseille","lat":43.299028,"lon":5.381509,"is_reserved":false,"is_disabled":false,"rental_uris":{"android":"levelo://app?vid=78a821ab-2b09-4599-9d48-20b559269d44","ios":"levelo://app?vid=78a821ab-2b09-4599-9d48-20b559269d44"},"vehicle_type_id":"4","last_reported":1713017185,"current_range_meters":15600,"station_id":"ce4bgj12rcd13ifvqbc0","pricing_plan_id":"cebpf4jnsgd1na2vs0mg"},{"bike_id":"6dc39418-09f7-4724-82c6-2e0d4681b0e5","system_id":"levelo_inurba_marseille","lat":43.295946,"lon":5.373333,"is_reserved":false,"is_disabled":false,"rental_uris":{"android":"levelo://app?vid=6dc39418-09f7-4724-82c6-2e0d4681b0e5","ios":"levelo://app?vid=6dc39418-09f7-4724-82c6-2e0d4681b0e5"},"vehicle_type_id":"4","last_reported":1713017185,"current_range_meters":1200,"station_id":"","pricing_plan_id":"cebpf4jnsgd1na2vs0mg"},{"bike_id":"5770e4a8-13f9-48b0-91a6-391ae7e5d00f","system_id":"levelo_inurba_marseille","lat":43.317557,"lon":5.390173,"is_reserved":false,"is_disabled":false,"rental_uris":{"android":"levelo://app?vid=5770e4a8-13f9-48b0-91a6-391ae7e5d00f","ios":"levelo://app?vid=5770e4a8-13f9-48b0-91a6-391ae7e5d00f"},"vehicle_type_id":"4","last_reported":1713017185,"current_range_meters":26000,"station_id":"ce4bhqp2rcd13ifvqhng","pricing_plan_id":"cebpf4jnsgd1na2vs0mg"},{"bike_id":"ae8b90a2-b776-4688-bb9d-482a2e880a02","system_id":"levelo_inurba_marseille","lat":43.317557,"lon":5.390173,"is_reserved":false,"is_disabled":false,"rental_uris":{"android":"levelo://app?vid=ae8b90a2-b776-4688-bb9d-482a2e880a02","ios":"levelo://app?vid=ae8b90a2-b776-4688-bb9d-482a2e880a02"},"vehicle_type_id":"4","last_reported":1713017185,"current_range_meters":19600,"station_id":"ce4bhqp2rcd13ifvqhng","pricing_plan_id":"cebpf4jnsgd1na2vs0mg"},{"bike_id":"47377066-5f94-4e10-a724-49a5641caf27","system_id":"levelo_inurba_marseille","lat":43.298037,"lon":5.381066,"is_reserved":false,"is_disabled":false,"rental_uris":{"android":"levelo://app?vid=47377066-5f94-4e10-a724-49a5641caf27","ios":"levelo://app?vid=47377066-5f94-4e10-a724-49a5641caf27"},"vehicle_type_id":"4","last_reported":1713017185,"current_range_meters":0,"station_id":"ce4bgip2rcd13ifvqbb0","pricing_plan_id":"cebpf4jnsgd1na2vs0mg"},{"bike_id":"7e44e66f-bb20-4476-a368-bff354f4c73d","system_id":"levelo_inurba_marseille","lat":43.295279,"lon":5.375048,"is_reserved":false,"is_disabled":false,"rental_uris":{"android":"levelo://app?vid=7e44e66f-bb20-4476-a368-bff354f4c73d","ios":"levelo://app?vid=7e44e66f-bb20-4476-a368-bff354f4c73d"},"vehicle_type_id":"4","last_reported":1713017185,"current_range_meters":19200,"station_id":"ce4bgkp2rcd13ifvqbmg","pricing_plan_id":"cebpf4jnsgd1na2vs0mg"},{"bike_id":"4e544e3f-e07b-40de-b40a-95390babb590","system_id":"levelo_inurba_marseille","lat":43.299717,"lon":5.384845,"is_reserved":false,"is_disabled":false,"rental_uris":{"android":"levelo://app?vid=4e544e3f-e07b-40de-b40a-95390babb590","ios":"levelo://app?vid=4e544e3f-e07b-40de-b40a-95390babb590"},"vehicle_type_id":"4","last_reported":1713017185,"current_range_meters":16000,"station_id":"ce4bgj92rcd13ifvqbd0","pricing_plan_id":"cebpf4jnsgd1na2vs0mg"},{"bike_id":"3ffab8c6-eb44-42b0-ab3d-7973d65606d8","system_id":"levelo_inurba_marseille","lat":43.299717,"lon":5.384845,"is_reserved":false,"is_disabled":false,"rental_uris":{"android":"levelo://app?vid=3ffab8c6-eb44-42b0-ab3d-7973d65606d8","ios":"levelo://app?vid=3ffab8c6-eb44-42b0-ab3d-7973d65606d8"},"vehicle_type_id":"4","last_reported":1713017185,"current_range_meters":18400,"station_id":"ce4bgj92rcd13ifvqbd0","pricing_plan_id":"cebpf4jnsgd1na2vs0mg"},{"bike_id":"16be6522-4ffe-44b7-a384-4b0ca8ebd8df","system_id":"levelo_inurba_marseille","lat":43.292749,"lon":5.368398,"is_reserved":false,"is_disabled":false,"rental_uris":{"android":"levelo://app?vid=16be6522-4ffe-44b7-a384-4b0ca8ebd8df","ios":"levelo://app?vid=16be6522-4ffe-44b7-a384-4b0ca8ebd8df"},"vehicle_type_id":"4","last_reported":1713017185,"current_range_meters":0,"station_id":"ce4bhbp2rcd13ifvqesg","pricing_plan_id":"cebpf4jnsgd1na2vs0mg"},{"bike_id":"5ffa84f8-69f3-43b1-be2d-6085a79b26d4","system_id":"levelo_inurba_marseille","lat":43.293799,"lon":5.378497,"is_reserved":false,"is_disabled":false,"rental_uris":{"android":"levelo://app?vid=5ffa84f8-69f3-43b1-be2d-6085a79b26d4","ios":"levelo://app?vid=5ffa84f8-69f3-43b1-be2d-6085a79b26d4"},"vehicle_type_id":"4","last_reported":1713017185,"current_range_meters":0,"station_id":"ce4bh512rcd13ifvqe2g","pricing_plan_id":"cebpf4jnsgd1na2vs0mg"},{"bike_id":"32d25b2e-bb4c-479e-b0cb-eb443faa5fd6","system_id":"levelo_inurba_marseille","lat":43.309038,"lon":5.396546,"is_reserved":false,"is_disabled":false,"rental_uris":{"android":"levelo://app?vid=32d25b2e-bb4c-479e-b0cb-eb443faa5fd6","ios":"levelo://app?vid=32d25b2e-bb4c-479e-b0cb-eb443faa5fd6"},"vehicle_type_id":"4","last_reported":1713017185,"current_range_meters":10000,"station_id":"ce4bh012rcd13ifvqcv0","pricing_plan_id":"cebpf4jnsgd1na2vs0mg"},{"bike_id":"267242d9-beff-4ffb-b9b3-0f79fa01d51c","system_id":"levelo_inurba_marseille","lat":43.290737,"lon":5.3718,"is_reserved":false,"is_disabled":false,"rental_uris":{"android":"levelo://app?vid=267242d9-beff-4ffb-b9b3-0f79fa01d51c","ios":"levelo://app?vid=267242d9-beff-4ffb-b9b3-0f79fa01d51c"},"vehicle_type_id":"4","last_reported":1713017185,"current_range_meters":12800,"station_id":"ce4bh5p2rcd13ifvqe4g","pricing_plan_id":"cebpf4jnsgd1na2vs0mg"},{"bike_id":"e06af73f-6544-4187-ae48-a5cef311ead9","system_id":"levelo_inurba_marseille","lat":43.254947,"lon":5.376454,"is_reserved":false,"is_disabled":false,"rental_uris":{"android":"levelo://app?vid=e06af73f-6544-4187-ae48-a5cef311ead9","ios":"levelo://app?vid=e06af73f-6544-4187-ae48-a5cef311ead9"},"vehicle_type_id":"4","last_reported":1713017185,"current_range_meters":0,"station_id":"ce4bhh12rcd13ifvqff0","pricing_plan_id":"cebpf4jnsgd1na2vs0mg"},{"bike_id":"c0545b1d-13c0-4608-b39e-6f11afc0459d","system_id":"levelo_inurba_marseille","lat":43.302008,"lon":5.394694,"is_reserved":false,"is_disabled":false,"rental_uris":{"android":"levelo://app?vid=c0545b1d-13c0-4608-b39e-6f11afc0459d","ios":"levelo://app?vid=c0545b1d-13c0-4608-b39e-6f11afc0459d"},"vehicle_type_id":"4","last_reported":1713017185,"current_range_meters":3600,"station_id":"ce4bh0p2rcd13ifvqd70","pricing_plan_id":"cebpf4jnsgd1na2vs0mg"},{"bike_id":"d2a633e0-9208-446b-9b29-23b9be4df491","system_id":"levelo_inurba_marseille","lat":43.302008,"lon":5.394694,"is_reserved":false,"is_disabled":false,"rental_uris":{"android":"levelo://app?vid=d2a633e0-9208-446b-9b29-23b9be4df491","ios":"levelo://app?vid=d2a633e0-9208-446b-9b29-23b9be4df491"},"vehicle_type_id":"4","last_reported":1713017185,"current_range_meters":4400,"station_id":"ce4bh0p2rcd13ifvqd70","pricing_plan_id":"cebpf4jnsgd1na2vs0mg"},{"bike_id":"e9b7cb42-2c40-4dc3-ba33-a04d61cb4884","system_id":"levelo_inurba_marseille","lat":43.292778,"lon":5.382725,"is_reserved":false,"is_disabled":false,"rental_uris":{"android":"levelo://app?vid=e9b7cb42-2c40-4dc3-ba33-a04d61cb4884","ios":"levelo://app?vid=e9b7cb42-2c40-4dc3-ba33-a04d61cb4884"},"vehicle_type_id":"4","last_reported":1713017185,"current_range_meters":8000,"station_id":"","pricing_plan_id":"cebpf4jnsgd1na2vs0mg"},{"bike_id":"870a3a4f-8101-4db5-91b5-e46c207a58c5","system_id":"levelo_inurba_marseille","lat":43.29038,"lon":5.375575,"is_reserved":false,"is_disabled":false,"rental_uris":{"android":"levelo://app?vid=870a3a4f-8101-4db5-91b5-e46c207a58c5","ios":"levelo://app?vid=870a3a4f-8101-4db5-91b5-e46c207a58c5"},"vehicle_type_id":"4","last_reported":1713017185,"current_range_meters":0,"station_id":"ce4bh692rcd13ifvqe90","pricing_plan_id":"cebpf4jnsgd1na2vs0mg"},{"bike_id":"2cc2a59f-2378-48ae-9eac-0c82c0510caa","system_id":"levelo_inurba_marseille","lat":43.28944,"lon":5.3664,"is_reserved":false,"is_disabled":false,"rental_uris":{"android":"levelo://app?vid=2cc2a59f-2378-48ae-9eac-0c82c0510caa","ios":"levelo://app?vid=2cc2a59f-2378-48ae-9eac-0c82c0510caa"},"vehicle_type_id":"4","last_reported":1713017185,"current_range_meters":0,"station_id":"ce4bhb12rcd13ifvqem0","pricing_plan_id":"cebpf4jnsgd1na2vs0mg"},{"bike_id":"f2cdf2ec-dbfc-4353-b2e5-7d7f3176f8fb","system_id":"levelo_inurba_marseille","lat":43.29417,"lon":5.38628,"is_reserved":false,"is_disabled":false,"rental_uris":{"android":"levelo://app?vid=f2cdf2ec-dbfc-4353-b2e5-7d7f3176f8fb","ios":"levelo://app?vid=f2cdf2ec-dbfc-4353-b2e5-7d7f3176f8fb"},"vehicle_type_id":"4","last_reported":1713017185,"current_range_meters":6000,"station_id":"ce4bh2h2rcd13ifvqdh0","pricing_plan_id":"cebpf4jnsgd1na2vs0mg"},{"bike_id":"461839e4-c283-4f38-b08c-b217c9680c2e","system_id":"levelo_inurba_marseille","lat":43.291994,"lon":5.392907,"is_reserved":false,"is_disabled":false,"rental_uris":{"android":"levelo://app?vid=461839e4-c283-4f38-b08c-b217c9680c2e","ios":"levelo://app?vid=461839e4-c283-4f38-b08c-b217c9680c2e"},"vehicle_type_id":"4","last_reported":1713017185,"current_range_meters":0,"station_id":"ce4bh192rcd13ifvqdd0","pricing_plan_id":"cebpf4jnsgd1na2vs0mg"},{"bike_id":"1054765d-f280-45f4-ad69-a62e0c04b4b9","system_id":"levelo_inurba_marseille","lat":43.283498,"lon":5.380948,"is_reserved":false,"is_disabled":false,"rental_uris":{"android":"levelo://app?vid=1054765d-f280-45f4-ad69-a62e0c04b4b9","ios":"levelo://app?vid=1054765d-f280-45f4-ad69-a62e0c04b4b9"},"vehicle_type_id":"4","last_reported":1713017185,"current_range_meters":10000,"station_id":"ce4bh412rcd13ifvqdr0","pricing_plan_id":"cebpf4jnsgd1na2vs0mg"},{"bike_id":"1f66187d-ae19-4c0d-8904-357d2c36ad19","system_id":"levelo_inurba_marseille","lat":43.284219,"lon":5.3497,"is_reserved":false,"is_disabled":false,"rental_uris":{"android":"levelo://app?vid=1f66187d-ae19-4c0d-8904-357d2c36ad19","ios":"levelo://app?vid=1f66187d-ae19-4c0d-8904-357d2c36ad19"},"vehicle_type_id":"4","last_reported":1713017185,"current_range_meters":8800,"station_id":"ce4bhbh2rcd13ifvqepg","pricing_plan_id":"cebpf4jnsgd1na2vs0mg"},{"bike_id":"822a37ed-7535-4843-89d9-c715f88eaa7a","system_id":"levelo_inurba_marseille","lat":43.28856,"lon":5.358371,"is_reserved":false,"is_disabled":false,"rental_uris":{"android":"levelo://app?vid=822a37ed-7535-4843-89d9-c715f88eaa7a","ios":"levelo://app?vid=822a37ed-7535-4843-89d9-c715f88eaa7a"},"vehicle_type_id":"4","last_reported":1713017185,"current_range_meters":6400,"station_id":"ce4bhb12rcd13ifvqem0","pricing_plan_id":"cebpf4jnsgd1na2vs0mg"},{"bike_id":"a2880404-4ec4-4970-94bc-2802a8956d17","system_id":"levelo_inurba_marseille","lat":43.290345,"lon":5.38646,"is_reserved":false,"is_disabled":false,"rental_uris":{"android":"levelo://app?vid=a2880404-4ec4-4970-94bc-2802a8956d17","ios":"levelo://app?vid=a2880404-4ec4-4970-94bc-2802a8956d17"},"vehicle_type_id":"4","last_reported":1713017185,"current_range_meters":800,"station_id":"ce4bh4p2rcd13ifvqe0g","pricing_plan_id":"cebpf4jnsgd1na2vs0mg"},{"bike_id":"ee6cc55f-f0e8-46fc-81d1-5e81da971449","system_id":"levelo_inurba_marseille","lat":43.30642,"lon":5.401031,"is_reserved":false,"is_disabled":false,"rental_uris":{"android":"levelo://app?vid=ee6cc55f-f0e8-46fc-81d1-5e81da971449","ios":"levelo://app?vid=ee6cc55f-f0e8-46fc-81d1-5e81da971449"},"vehicle_type_id":"4","last_reported":1713017185,"current_range_meters":24800,"station_id":"ce4bh112rcd13ifvqda0","pricing_plan_id":"cebpf4jnsgd1na2vs0mg"},{"bike_id":"d3ea26f4-7d4d-45b7-8172-0133ecd9329b","system_id":"levelo_inurba_marseille","lat":43.337546,"lon":5.374579,"is_reserved":false,"is_disabled":false,"rental_uris":{"android":"levelo://app?vid=d3ea26f4-7d4d-45b7-8172-0133ecd9329b","ios":"levelo://app?vid=d3ea26f4-7d4d-45b7-8172-0133ecd9329b"},"vehicle_type_id":"4","last_reported":1713017185,"current_range_meters":25200,"station_id":"","pricing_plan_id":"cebpf4jnsgd1na2vs0mg"},{"bike_id":"774f6500-6424-427c-8133-e4987961144c","system_id":"levelo_inurba_marseille","lat":43.33754,"lon":5.374806,"is_reserved":false,"is_disabled":false,"rental_uris":{"android":"levelo://app?vid=774f6500-6424-427c-8133-e4987961144c","ios":"levelo://app?vid=774f6500-6424-427c-8133-e4987961144c"},"vehicle_type_id":"4","last_reported":1713017185,"current_range_meters":0,"station_id":"","pricing_plan_id":"cebpf4jnsgd1na2vs0mg"},{"bike_id":"15465677-8231-4def-9f70-33ba9962535b","system_id":"levelo_inurba_marseille","lat":43.301117,"lon":5.398795,"is_reserved":false,"is_disabled":false,"rental_uris":{"android":"levelo://app?vid=15465677-8231-4def-9f70-33ba9962535b","ios":"levelo://app?vid=15465677-8231-4def-9f70-33ba9962535b"},"vehicle_type_id":"4","last_reported":1713017185,"current_range_meters":5200,"station_id":"ce4bh0h2rcd13ifvqd40","pricing_plan_id":"cebpf4jnsgd1na2vs0mg"},{"bike_id":"b3b63f97-98eb-492c-8ee3-8c4d5ab283d9","system_id":"levelo_inurba_marseille","lat":43.301117,"lon":5.398795,"is_reserved":false,"is_disabled":false,"rental_uris":{"android":"levelo://app?vid=b3b63f97-98eb-492c-8ee3-8c4d5ab283d9","ios":"levelo://app?vid=b3b63f97-98eb-492c-8ee3-8c4d5ab283d9"},"vehicle_type_id":"4","last_reported":1713017185,"current_range_meters":18800,"station_id":"ce4bh0h2rcd13ifvqd40","pricing_plan_id":"cebpf4jnsgd1na2vs0mg"},{"bike_id":"63ce7c54-b483-4087-8e68-60bc468166c5","system_id":"levelo_inurba_marseille","lat":43.298681,"lon":5.397225,"is_reserved":false,"is_disabled":false,"rental_uris":{"android":"levelo://app?vid=63ce7c54-b483-4087-8e68-60bc468166c5","ios":"levelo://app?vid=63ce7c54-b483-4087-8e68-60bc468166c5"},"vehicle_type_id":"4","last_reported":1713017185,"current_range_meters":24800,"station_id":"ce4bh0h2rcd13ifvqd50","pricing_plan_id":"cebpf4jnsgd1na2vs0mg"},{"bike_id":"72748a4b-006c-4689-a75e-a4684bc8d83e","system_id":"levelo_inurba_marseille","lat":43.286591,"lon":5.363346,"is_reserved":false,"is_disabled":false,"rental_uris":{"android":"levelo://app?vid=72748a4b-006c-4689-a75e-a4684bc8d83e","ios":"levelo://app?vid=72748a4b-006c-4689-a75e-a4684bc8d83e"},"vehicle_type_id":"4","last_reported":1713017185,"current_range_meters":10000,"station_id":"ce4bhah2rcd13ifvqej0","pricing_plan_id":"cebpf4jnsgd1na2vs0mg"},{"bike_id":"9d4d80c8-343e-4c87-bf30-2a2da4624890","system_id":"levelo_inurba_marseille","lat":43.289307,"lon":5.38406,"is_reserved":false,"is_disabled":false,"rental_uris":{"android":"levelo://app?vid=9d4d80c8-343e-4c87-bf30-2a2da4624890","ios":"levelo://app?vid=9d4d80c8-343e-4c87-bf30-2a2da4624890"},"vehicle_type_id":"4","last_reported":1713017185,"current_range_meters":11200,"station_id":"ce4bh612rcd13ifvqe6g","pricing_plan_id":"cebpf4jnsgd1na2vs0mg"},{"bike_id":"1215636e-3280-4eeb-8acd-a14d231c136e","system_id":"levelo_inurba_marseille","lat":43.290345,"lon":5.38646,"is_reserved":false,"is_disabled":false,"rental_uris":{"android":"levelo://app?vid=1215636e-3280-4eeb-8acd-a14d231c136e","ios":"levelo://app?vid=1215636e-3280-4eeb-8acd-a14d231c136e"},"vehicle_type_id":"4","last_reported":1713017185,"current_range_meters":8400,"station_id":"ce4bh4p2rcd13ifvqe0g","pricing_plan_id":"cebpf4jnsgd1na2vs0mg"},{"bike_id":"86416150-4d71-4c3b-88a8-f8874e1b4ed4","system_id":"levelo_inurba_marseille","lat":43.302759,"lon":5.400793,"is_reserved":false,"is_disabled":false,"rental_uris":{"android":"levelo://app?vid=86416150-4d71-4c3b-88a8-f8874e1b4ed4","ios":"levelo://app?vid=86416150-4d71-4c3b-88a8-f8874e1b4ed4"},"vehicle_type_id":"4","last_reported":1713017185,"current_range_meters":10400,"station_id":"ce4bgvh2rcd13ifvqcs0","pricing_plan_id":"cebpf4jnsgd1na2vs0mg"},{"bike_id":"52b073c2-6725-46a4-a517-c25735d9132d","system_id":"levelo_inurba_marseille","lat":43.287185,"lon":5.379373,"is_reserved":false,"is_disabled":false,"rental_uris":{"android":"levelo://app?vid=52b073c2-6725-46a4-a517-c25735d9132d","ios":"levelo://app?vid=52b073c2-6725-46a4-a517-c25735d9132d"},"vehicle_type_id":"4","last_reported":1713017185,"current_range_meters":0,"station_id":"ce4bh9p2rcd13ifvqec0","pricing_plan_id":"cebpf4jnsgd1na2vs0mg"},{"bike_id":"2fca260b-bca5-4737-8b65-2264c2fc9742","system_id":"levelo_inurba_marseille","lat":43.291994,"lon":5.392907,"is_reserved":false,"is_disabled":false,"rental_uris":{"android":"levelo://app?vid=2fca260b-bca5-4737-8b65-2264c2fc9742","ios":"levelo://app?vid=2fca260b-bca5-4737-8b65-2264c2fc9742"},"vehicle_type_id":"4","last_reported":1713017185,"current_range_meters":18400,"station_id":"ce4bh192rcd13ifvqdd0","pricing_plan_id":"cebpf4jnsgd1na2vs0mg"},{"bike_id":"fe2583a9-45c8-44e7-bea1-af198d35fa6a","system_id":"levelo_inurba_marseille","lat":43.284534,"lon":5.358662,"is_reserved":false,"is_disabled":false,"rental_uris":{"android":"levelo://app?vid=fe2583a9-45c8-44e7-bea1-af198d35fa6a","ios":"levelo://app?vid=fe2583a9-45c8-44e7-bea1-af198d35fa6a"},"vehicle_type_id":"4","last_reported":1713017185,"current_range_meters":11600,"station_id":"ce4bhah2rcd13ifvqei0","pricing_plan_id":"cebpf4jnsgd1na2vs0mg"},{"bike_id":"10640d2d-8227-42b6-8e1f-8a2e3670a00c","system_id":"levelo_inurba_marseille","lat":43.284787,"lon":5.359301,"is_reserved":false,"is_disabled":false,"rental_uris":{"android":"levelo://app?vid=10640d2d-8227-42b6-8e1f-8a2e3670a00c","ios":"levelo://app?vid=10640d2d-8227-42b6-8e1f-8a2e3670a00c"},"vehicle_type_id":"4","last_reported":1713017185,"current_range_meters":12400,"station_id":"ce4bhah2rcd13ifvqei0","pricing_plan_id":"cebpf4jnsgd1na2vs0mg"},{"bike_id":"ec82c612-f6d2-4998-aa62-5e5d13c6536f","system_id":"levelo_inurba_marseille","lat":43.28468,"lon":5.35888,"is_reserved":false,"is_disabled":false,"rental_uris":{"android":"levelo://app?vid=ec82c612-f6d2-4998-aa62-5e5d13c6536f","ios":"levelo://app?vid=ec82c612-f6d2-4998-aa62-5e5d13c6536f"},"vehicle_type_id":"4","last_reported":1713017185,"current_range_meters":20400,"station_id":"ce4bhah2rcd13ifvqei0","pricing_plan_id":"cebpf4jnsgd1na2vs0mg"},{"bike_id":"dfdf9d22-1f57-4582-b837-09691561f769","system_id":"levelo_inurba_marseille","lat":43.284538,"lon":5.358657,"is_reserved":false,"is_disabled":false,"rental_uris":{"android":"levelo://app?vid=dfdf9d22-1f57-4582-b837-09691561f769","ios":"levelo://app?vid=dfdf9d22-1f57-4582-b837-09691561f769"},"vehicle_type_id":"4","last_reported":1713017185,"current_range_meters":15600,"station_id":"ce4bhah2rcd13ifvqei0","pricing_plan_id":"cebpf4jnsgd1na2vs0mg"},{"bike_id":"b02345f9-91f7-4173-ba5d-a3169abbe9ae","system_id":"levelo_inurba_marseille","lat":43.284534,"lon":5.358662,"is_reserved":false,"is_disabled":false,"rental_uris":{"android":"levelo://app?vid=b02345f9-91f7-4173-ba5d-a3169abbe9ae","ios":"levelo://app?vid=b02345f9-91f7-4173-ba5d-a3169abbe9ae"},"vehicle_type_id":"4","last_reported":1713017185,"current_range_meters":3600,"station_id":"ce4bhah2rcd13ifvqei0","pricing_plan_id":"cebpf4jnsgd1na2vs0mg"},{"bike_id":"7e67a50a-6bfb-42f4-91b8-814ed346f395","system_id":"levelo_inurba_marseille","lat":43.285856,"lon":5.350771,"is_reserved":false,"is_disabled":false,"rental_uris":{"android":"levelo://app?vid=7e67a50a-6bfb-42f4-91b8-814ed346f395","ios":"levelo://app?vid=7e67a50a-6bfb-42f4-91b8-814ed346f395"},"vehicle_type_id":"4","last_reported":1713017185,"current_range_meters":0,"station_id":"ce4bhch2rcd13ifvqeug","pricing_plan_id":"cebpf4jnsgd1na2vs0mg"},{"bike_id":"2b8ede1e-37de-4f5f-81e8-f64e88030eaa","system_id":"levelo_inurba_marseille","lat":43.254947,"lon":5.376454,"is_reserved":false,"is_disabled":false,"rental_uris":{"android":"levelo://app?vid=2b8ede1e-37de-4f5f-81e8-f64e88030eaa","ios":"levelo://app?vid=2b8ede1e-37de-4f5f-81e8-f64e88030eaa"},"vehicle_type_id":"4","last_reported":1713017185,"current_range_meters":18000,"station_id":"ce4bhh12rcd13ifvqff0","pricing_plan_id":"cebpf4jnsgd1na2vs0mg"},{"bike_id":"5a5ece15-0bbe-4ee5-9495-9c5e06115bd1","system_id":"levelo_inurba_marseille","lat":43.286768,"lon":5.386599,"is_reserved":false,"is_disabled":false,"rental_uris":{"android":"levelo://app?vid=5a5ece15-0bbe-4ee5-9495-9c5e06115bd1","ios":"levelo://app?vid=5a5ece15-0bbe-4ee5-9495-9c5e06115bd1"},"vehicle_type_id":"4","last_reported":1713017185,"current_range_meters":2000,"station_id":"ce4bh492rcd13ifvqdug","pricing_plan_id":"cebpf4jnsgd1na2vs0mg"},{"bike_id":"b36a0d55-4d12-4692-ae78-1cac18cf5e7a","system_id":"levelo_inurba_marseille","lat":43.28675,"lon":5.38657,"is_reserved":false,"is_disabled":false,"rental_uris":{"android":"levelo://app?vid=b36a0d55-4d12-4692-ae78-1cac18cf5e7a","ios":"levelo://app?vid=b36a0d55-4d12-4692-ae78-1cac18cf5e7a"},"vehicle_type_id":"4","last_reported":1713017185,"current_range_meters":0,"station_id":"ce4bh492rcd13ifvqdug","pricing_plan_id":"cebpf4jnsgd1na2vs0mg"},{"bike_id":"959c5ce9-2712-492a-803d-ecb055963d67","system_id":"levelo_inurba_marseille","lat":43.28547,"lon":5.35047,"is_reserved":false,"is_disabled":false,"rental_uris":{"android":"levelo://app?vid=959c5ce9-2712-492a-803d-ecb055963d67","ios":"levelo://app?vid=959c5ce9-2712-492a-803d-ecb055963d67"},"vehicle_type_id":"4","last_reported":1713017185,"current_range_meters":6400,"station_id":"","pricing_plan_id":"cebpf4jnsgd1na2vs0mg"},{"bike_id":"68137cd0-e3a5-4d5f-b189-fba9d9e58aa2","system_id":"levelo_inurba_marseille","lat":43.319179,"lon":5.407725,"is_reserved":false,"is_disabled":false,"rental_uris":{"android":"levelo://app?vid=68137cd0-e3a5-4d5f-b189-fba9d9e58aa2","ios":"levelo://app?vid=68137cd0-e3a5-4d5f-b189-fba9d9e58aa2"},"vehicle_type_id":"4","last_reported":1713017185,"current_range_meters":8400,"station_id":"ce4bhq12rcd13ifvqhig","pricing_plan_id":"cebpf4jnsgd1na2vs0mg"},{"bike_id":"48768494-ea7e-4fd0-a730-d33b81b8d18f","system_id":"levelo_inurba_marseille","lat":43.33717,"lon":5.391857,"is_reserved":false,"is_disabled":false,"rental_uris":{"android":"levelo://app?vid=48768494-ea7e-4fd0-a730-d33b81b8d18f","ios":"levelo://app?vid=48768494-ea7e-4fd0-a730-d33b81b8d18f"},"vehicle_type_id":"4","last_reported":1713017185,"current_range_meters":28800,"station_id":"ce4bhr92rcd13ifvqhsg","pricing_plan_id":"cebpf4jnsgd1na2vs0mg"},{"bike_id":"494b8c86-fd7c-4152-951e-41536c8e8b41","system_id":"levelo_inurba_marseille","lat":43.337168,"lon":5.391825,"is_reserved":false,"is_disabled":false,"rental_uris":{"android":"levelo://app?vid=494b8c86-fd7c-4152-951e-41536c8e8b41","ios":"levelo://app?vid=494b8c86-fd7c-4152-951e-41536c8e8b41"},"vehicle_type_id":"4","last_reported":1713017185,"current_range_meters":31200,"station_id":"ce4bhr92rcd13ifvqhsg","pricing_plan_id":"cebpf4jnsgd1na2vs0mg"},{"bike_id":"56d0a99b-51a4-4bc0-89cd-5ce61d91f824","system_id":"levelo_inurba_marseille","lat":43.287867,"lon":5.391303,"is_reserved":false,"is_disabled":false,"rental_uris":{"android":"levelo://app?vid=56d0a99b-51a4-4bc0-89cd-5ce61d91f824","ios":"levelo://app?vid=56d0a99b-51a4-4bc0-89cd-5ce61d91f824"},"vehicle_type_id":"4","last_reported":1713017185,"current_range_meters":20400,"station_id":"","pricing_plan_id":"cebpf4jnsgd1na2vs0mg"},{"bike_id":"a06209c8-c446-42b6-85b6-c3576212190b","system_id":"levelo_inurba_marseille","lat":43.28481,"lon":5.38416,"is_reserved":false,"is_disabled":false,"rental_uris":{"android":"levelo://app?vid=a06209c8-c446-42b6-85b6-c3576212190b","ios":"levelo://app?vid=a06209c8-c446-42b6-85b6-c3576212190b"},"vehicle_type_id":"4","last_reported":1713017185,"current_range_meters":27600,"station_id":"ce4bh512rcd13ifvqe3g","pricing_plan_id":"cebpf4jnsgd1na2vs0mg"},{"bike_id":"4231e44f-6e64-47d9-802b-1946e9c53ecf","system_id":"levelo_inurba_marseille","lat":43.32532,"lon":5.40558,"is_reserved":false,"is_disabled":false,"rental_uris":{"android":"levelo://app?vid=4231e44f-6e64-47d9-802b-1946e9c53ecf","ios":"levelo://app?vid=4231e44f-6e64-47d9-802b-1946e9c53ecf"},"vehicle_type_id":"4","last_reported":1713017185,"current_range_meters":4800,"station_id":"","pricing_plan_id":"cebpf4jnsgd1na2vs0mg"},{"bike_id":"7b01e74e-0183-4f57-a68d-3da972284d84","system_id":"levelo_inurba_marseille","lat":43.29795,"lon":5.404086,"is_reserved":false,"is_disabled":false,"rental_uris":{"android":"levelo://app?vid=7b01e74e-0183-4f57-a68d-3da972284d84","ios":"levelo://app?vid=7b01e74e-0183-4f57-a68d-3da972284d84"},"vehicle_type_id":"4","last_reported":1713017185,"current_range_meters":0,"station_id":"ce4bh112rcd13ifvqd90","pricing_plan_id":"cebpf4jnsgd1na2vs0mg"},{"bike_id":"ceddfde4-397f-4ad4-af70-bf454fc72f37","system_id":"levelo_inurba_marseille","lat":43.26202,"lon":5.379299,"is_reserved":false,"is_disabled":false,"rental_uris":{"android":"levelo://app?vid=ceddfde4-397f-4ad4-af70-bf454fc72f37","ios":"levelo://app?vid=ceddfde4-397f-4ad4-af70-bf454fc72f37"},"vehicle_type_id":"4","last_reported":1713017185,"current_range_meters":16800,"station_id":"ce4bhjp2rcd13ifvqg90","pricing_plan_id":"cebpf4jnsgd1na2vs0mg"},{"bike_id":"d9ca1156-ced6-4c3a-8439-a241fabfb770","system_id":"levelo_inurba_marseille","lat":43.32533,"lon":5.40562,"is_reserved":false,"is_disabled":false,"rental_uris":{"android":"levelo://app?vid=d9ca1156-ced6-4c3a-8439-a241fabfb770","ios":"levelo://app?vid=d9ca1156-ced6-4c3a-8439-a241fabfb770"},"vehicle_type_id":"4","last_reported":1713017185,"current_range_meters":8800,"station_id":"","pricing_plan_id":"cebpf4jnsgd1na2vs0mg"},{"bike_id":"16354239-de35-43ca-875c-92bb4a5ace82","system_id":"levelo_inurba_marseille","lat":43.32534,"lon":5.40567,"is_reserved":false,"is_disabled":false,"rental_uris":{"android":"levelo://app?vid=16354239-de35-43ca-875c-92bb4a5ace82","ios":"levelo://app?vid=16354239-de35-43ca-875c-92bb4a5ace82"},"vehicle_type_id":"4","last_reported":1713017185,"current_range_meters":24000,"station_id":"","pricing_plan_id":"cebpf4jnsgd1na2vs0mg"},{"bike_id":"472dcc7b-43d9-4626-b4d9-a1b1b2a77731","system_id":"levelo_inurba_marseille","lat":43.282744,"lon":5.350533,"is_reserved":false,"is_disabled":false,"rental_uris":{"android":"levelo://app?vid=472dcc7b-43d9-4626-b4d9-a1b1b2a77731","ios":"levelo://app?vid=472dcc7b-43d9-4626-b4d9-a1b1b2a77731"},"vehicle_type_id":"4","last_reported":1713017185,"current_range_meters":4000,"station_id":"ce4bhbp2rcd13ifvqerg","pricing_plan_id":"cebpf4jnsgd1na2vs0mg"},{"bike_id":"7d9d94b9-daa2-41f7-8572-e87dbced06f8","system_id":"levelo_inurba_marseille","lat":43.284274,"lon":5.349936,"is_reserved":false,"is_disabled":false,"rental_uris":{"android":"levelo://app?vid=7d9d94b9-daa2-41f7-8572-e87dbced06f8","ios":"levelo://app?vid=7d9d94b9-daa2-41f7-8572-e87dbced06f8"},"vehicle_type_id":"4","last_reported":1713017185,"current_range_meters":1600,"station_id":"","pricing_plan_id":"cebpf4jnsgd1na2vs0mg"},{"bike_id":"693ecf17-fa58-44cd-bf5a-cb8d5bf4b46e","system_id":"levelo_inurba_marseille","lat":43.284272,"lon":5.349822,"is_reserved":false,"is_disabled":false,"rental_uris":{"android":"levelo://app?vid=693ecf17-fa58-44cd-bf5a-cb8d5bf4b46e","ios":"levelo://app?vid=693ecf17-fa58-44cd-bf5a-cb8d5bf4b46e"},"vehicle_type_id":"4","last_reported":1713017185,"current_range_meters":2400,"station_id":"ce4bhbh2rcd13ifvqepg","pricing_plan_id":"cebpf4jnsgd1na2vs0mg"},{"bike_id":"9469f139-e325-41bc-a1aa-2836bbbfd326","system_id":"levelo_inurba_marseille","lat":43.28428,"lon":5.34978,"is_reserved":false,"is_disabled":false,"rental_uris":{"android":"levelo://app?vid=9469f139-e325-41bc-a1aa-2836bbbfd326","ios":"levelo://app?vid=9469f139-e325-41bc-a1aa-2836bbbfd326"},"vehicle_type_id":"4","last_reported":1713017185,"current_range_meters":18800,"station_id":"ce4bhbh2rcd13ifvqepg","pricing_plan_id":"cebpf4jnsgd1na2vs0mg"},{"bike_id":"0cebd58f-9e81-4c57-803f-4d10bffeae45","system_id":"levelo_inurba_marseille","lat":43.28425,"lon":5.34987,"is_reserved":false,"is_disabled":false,"rental_uris":{"android":"levelo://app?vid=0cebd58f-9e81-4c57-803f-4d10bffeae45","ios":"levelo://app?vid=0cebd58f-9e81-4c57-803f-4d10bffeae45"},"vehicle_type_id":"4","last_reported":1713017185,"current_range_meters":8000,"station_id":"ce4bhbh2rcd13ifvqepg","pricing_plan_id":"cebpf4jnsgd1na2vs0mg"},{"bike_id":"2f92eedb-68db-40cd-8835-9d4b4d330c19","system_id":"levelo_inurba_marseille","lat":43.284241,"lon":5.349897,"is_reserved":false,"is_disabled":false,"rental_uris":{"android":"levelo://app?vid=2f92eedb-68db-40cd-8835-9d4b4d330c19","ios":"levelo://app?vid=2f92eedb-68db-40cd-8835-9d4b4d330c19"},"vehicle_type_id":"4","last_reported":1713017185,"current_range_meters":30000,"station_id":"ce4bhbh2rcd13ifvqepg","pricing_plan_id":"cebpf4jnsgd1na2vs0mg"},{"bike_id":"6651ff3d-99df-4396-bcbd-eb0afd675650","system_id":"levelo_inurba_marseille","lat":43.28421,"lon":5.349931,"is_reserved":false,"is_disabled":false,"rental_uris":{"android":"levelo://app?vid=6651ff3d-99df-4396-bcbd-eb0afd675650","ios":"levelo://app?vid=6651ff3d-99df-4396-bcbd-eb0afd675650"},"vehicle_type_id":"4","last_reported":1713017185,"current_range_meters":16800,"station_id":"ce4bhbh2rcd13ifvqepg","pricing_plan_id":"cebpf4jnsgd1na2vs0mg"},{"bike_id":"071b34eb-a730-4cd0-8460-20eadabcb03f","system_id":"levelo_inurba_marseille","lat":43.284214,"lon":5.349706,"is_reserved":false,"is_disabled":false,"rental_uris":{"android":"levelo://app?vid=071b34eb-a730-4cd0-8460-20eadabcb03f","ios":"levelo://app?vid=071b34eb-a730-4cd0-8460-20eadabcb03f"},"vehicle_type_id":"4","last_reported":1713017185,"current_range_meters":24000,"station_id":"ce4bhbh2rcd13ifvqepg","pricing_plan_id":"cebpf4jnsgd1na2vs0mg"},{"bike_id":"cfc02cf9-56af-4b5d-9252-019617b717e0","system_id":"levelo_inurba_marseille","lat":43.28426,"lon":5.34975,"is_reserved":false,"is_disabled":false,"rental_uris":{"android":"levelo://app?vid=cfc02cf9-56af-4b5d-9252-019617b717e0","ios":"levelo://app?vid=cfc02cf9-56af-4b5d-9252-019617b717e0"},"vehicle_type_id":"4","last_reported":1713017185,"current_range_meters":16400,"station_id":"ce4bhbh2rcd13ifvqepg","pricing_plan_id":"cebpf4jnsgd1na2vs0mg"},{"bike_id":"8ede538d-c43e-47c4-aaac-569a21b944b6","system_id":"levelo_inurba_marseille","lat":43.28425,"lon":5.34978,"is_reserved":false,"is_disabled":false,"rental_uris":{"android":"levelo://app?vid=8ede538d-c43e-47c4-aaac-569a21b944b6","ios":"levelo://app?vid=8ede538d-c43e-47c4-aaac-569a21b944b6"},"vehicle_type_id":"4","last_reported":1713017185,"current_range_meters":0,"station_id":"ce4bhbh2rcd13ifvqepg","pricing_plan_id":"cebpf4jnsgd1na2vs0mg"},{"bike_id":"928ccc75-b1b6-43aa-a9a0-46222b3ee647","system_id":"levelo_inurba_marseille","lat":43.284222,"lon":5.349863,"is_reserved":false,"is_disabled":false,"rental_uris":{"android":"levelo://app?vid=928ccc75-b1b6-43aa-a9a0-46222b3ee647","ios":"levelo://app?vid=928ccc75-b1b6-43aa-a9a0-46222b3ee647"},"vehicle_type_id":"4","last_reported":1713017185,"current_range_meters":24000,"station_id":"ce4bhbh2rcd13ifvqepg","pricing_plan_id":"cebpf4jnsgd1na2vs0mg"},{"bike_id":"65baf02d-53af-4ac7-8374-7bc566159296","system_id":"levelo_inurba_marseille","lat":43.284228,"lon":5.349842,"is_reserved":false,"is_disabled":false,"rental_uris":{"android":"levelo://app?vid=65baf02d-53af-4ac7-8374-7bc566159296","ios":"levelo://app?vid=65baf02d-53af-4ac7-8374-7bc566159296"},"vehicle_type_id":"4","last_reported":1713017185,"current_range_meters":16800,"station_id":"ce4bhbh2rcd13ifvqepg","pricing_plan_id":"cebpf4jnsgd1na2vs0mg"},{"bike_id":"fb409edd-c672-44c1-9d68-9bf9877e18d3","system_id":"levelo_inurba_marseille","lat":43.28417,"lon":5.35001,"is_reserved":false,"is_disabled":false,"rental_uris":{"android":"levelo://app?vid=fb409edd-c672-44c1-9d68-9bf9877e18d3","ios":"levelo://app?vid=fb409edd-c672-44c1-9d68-9bf9877e18d3"},"vehicle_type_id":"4","last_reported":1713017185,"current_range_meters":16800,"station_id":"ce4bhbh2rcd13ifvqepg","pricing_plan_id":"cebpf4jnsgd1na2vs0mg"},{"bike_id":"b186af4f-2d9f-4a3c-b7c0-657f6dbc8e4e","system_id":"levelo_inurba_marseille","lat":43.284219,"lon":5.3497,"is_reserved":false,"is_disabled":false,"rental_uris":{"android":"levelo://app?vid=b186af4f-2d9f-4a3c-b7c0-657f6dbc8e4e","ios":"levelo://app?vid=b186af4f-2d9f-4a3c-b7c0-657f6dbc8e4e"},"vehicle_type_id":"4","last_reported":1713017185,"current_range_meters":2800,"station_id":"ce4bhbh2rcd13ifvqepg","pricing_plan_id":"cebpf4jnsgd1na2vs0mg"},{"bike_id":"bfc58375-4fbb-466c-a70e-07d7b73a254a","system_id":"levelo_inurba_marseille","lat":43.284219,"lon":5.3497,"is_reserved":false,"is_disabled":false,"rental_uris":{"android":"levelo://app?vid=bfc58375-4fbb-466c-a70e-07d7b73a254a","ios":"levelo://app?vid=bfc58375-4fbb-466c-a70e-07d7b73a254a"},"vehicle_type_id":"4","last_reported":1713017185,"current_range_meters":2400,"station_id":"ce4bhbh2rcd13ifvqepg","pricing_plan_id":"cebpf4jnsgd1na2vs0mg"},{"bike_id":"62430a3d-7bc3-467f-a344-057e6c75a491","system_id":"levelo_inurba_marseille","lat":43.2842,"lon":5.34986,"is_reserved":false,"is_disabled":false,"rental_uris":{"android":"levelo://app?vid=62430a3d-7bc3-467f-a344-057e6c75a491","ios":"levelo://app?vid=62430a3d-7bc3-467f-a344-057e6c75a491"},"vehicle_type_id":"4","last_reported":1713017185,"current_range_meters":16000,"station_id":"ce4bhbh2rcd13ifvqepg","pricing_plan_id":"cebpf4jnsgd1na2vs0mg"},{"bike_id":"7810121d-252e-49aa-93a4-6833607550af","system_id":"levelo_inurba_marseille","lat":43.28419,"lon":5.34988,"is_reserved":false,"is_disabled":false,"rental_uris":{"android":"levelo://app?vid=7810121d-252e-49aa-93a4-6833607550af","ios":"levelo://app?vid=7810121d-252e-49aa-93a4-6833607550af"},"vehicle_type_id":"4","last_reported":1713017185,"current_range_meters":16000,"station_id":"ce4bhbh2rcd13ifvqepg","pricing_plan_id":"cebpf4jnsgd1na2vs0mg"},{"bike_id":"4120ce58-0084-4b83-9756-9f243e7016a7","system_id":"levelo_inurba_marseille","lat":43.28419,"lon":5.34988,"is_reserved":false,"is_disabled":false,"rental_uris":{"android":"levelo://app?vid=4120ce58-0084-4b83-9756-9f243e7016a7","ios":"levelo://app?vid=4120ce58-0084-4b83-9756-9f243e7016a7"},"vehicle_type_id":"4","last_reported":1713017185,"current_range_meters":22800,"station_id":"ce4bhbh2rcd13ifvqepg","pricing_plan_id":"cebpf4jnsgd1na2vs0mg"},{"bike_id":"957330e6-ac62-4262-a412-659e56631f5c","system_id":"levelo_inurba_marseille","lat":43.28418,"lon":5.349901,"is_reserved":false,"is_disabled":false,"rental_uris":{"android":"levelo://app?vid=957330e6-ac62-4262-a412-659e56631f5c","ios":"levelo://app?vid=957330e6-ac62-4262-a412-659e56631f5c"},"vehicle_type_id":"4","last_reported":1713017185,"current_range_meters":14800,"station_id":"ce4bhbh2rcd13ifvqepg","pricing_plan_id":"cebpf4jnsgd1na2vs0mg"},{"bike_id":"37d8726e-2352-40ea-b096-1023f35b82cd","system_id":"levelo_inurba_marseille","lat":43.284218,"lon":5.349773,"is_reserved":false,"is_disabled":false,"rental_uris":{"android":"levelo://app?vid=37d8726e-2352-40ea-b096-1023f35b82cd","ios":"levelo://app?vid=37d8726e-2352-40ea-b096-1023f35b82cd"},"vehicle_type_id":"4","last_reported":1713017185,"current_range_meters":4800,"station_id":"ce4bhbh2rcd13ifvqepg","pricing_plan_id":"cebpf4jnsgd1na2vs0mg"},{"bike_id":"680fe025-328a-4da2-925a-dd577f054444","system_id":"levelo_inurba_marseille","lat":43.284179,"lon":5.349889,"is_reserved":false,"is_disabled":false,"rental_uris":{"android":"levelo://app?vid=680fe025-328a-4da2-925a-dd577f054444","ios":"levelo://app?vid=680fe025-328a-4da2-925a-dd577f054444"},"vehicle_type_id":"4","last_reported":1713017185,"current_range_meters":13600,"station_id":"ce4bhbh2rcd13ifvqepg","pricing_plan_id":"cebpf4jnsgd1na2vs0mg"},{"bike_id":"1e70b70d-ae92-49bf-84f1-5f192d8697a5","system_id":"levelo_inurba_marseille","lat":43.284538,"lon":5.358657,"is_reserved":false,"is_disabled":false,"rental_uris":{"android":"levelo://app?vid=1e70b70d-ae92-49bf-84f1-5f192d8697a5","ios":"levelo://app?vid=1e70b70d-ae92-49bf-84f1-5f192d8697a5"},"vehicle_type_id":"4","last_reported":1713017185,"current_range_meters":30800,"station_id":"ce4bhah2rcd13ifvqei0","pricing_plan_id":"cebpf4jnsgd1na2vs0mg"},{"bike_id":"e3e47d49-27ae-4442-8206-726760315db4","system_id":"levelo_inurba_marseille","lat":43.28417,"lon":5.34988,"is_reserved":false,"is_disabled":false,"rental_uris":{"android":"levelo://app?vid=e3e47d49-27ae-4442-8206-726760315db4","ios":"levelo://app?vid=e3e47d49-27ae-4442-8206-726760315db4"},"vehicle_type_id":"4","last_reported":1713017185,"current_range_meters":25600,"station_id":"ce4bhbh2rcd13ifvqepg","pricing_plan_id":"cebpf4jnsgd1na2vs0mg"},{"bike_id":"b24fe386-4b69-482f-aa44-84e07c62a6f9","system_id":"levelo_inurba_marseille","lat":43.2842,"lon":5.34977,"is_reserved":false,"is_disabled":false,"rental_uris":{"android":"levelo://app?vid=b24fe386-4b69-482f-aa44-84e07c62a6f9","ios":"levelo://app?vid=b24fe386-4b69-482f-aa44-84e07c62a6f9"},"vehicle_type_id":"4","last_reported":1713017185,"current_range_meters":2000,"station_id":"ce4bhbh2rcd13ifvqepg","pricing_plan_id":"cebpf4jnsgd1na2vs0mg"},{"bike_id":"247d6e05-8e6e-409c-a05c-c83789ea0f44","system_id":"levelo_inurba_marseille","lat":43.284146,"lon":5.349939,"is_reserved":false,"is_disabled":false,"rental_uris":{"android":"levelo://app?vid=247d6e05-8e6e-409c-a05c-c83789ea0f44","ios":"levelo://app?vid=247d6e05-8e6e-409c-a05c-c83789ea0f44"},"vehicle_type_id":"4","last_reported":1713017185,"current_range_meters":26400,"station_id":"ce4bhbh2rcd13ifvqepg","pricing_plan_id":"cebpf4jnsgd1na2vs0mg"},{"bike_id":"3e238bfa-0bb6-4969-9526-3fcd6c35d000","system_id":"levelo_inurba_marseille","lat":43.284157,"lon":5.349897,"is_reserved":false,"is_disabled":false,"rental_uris":{"android":"levelo://app?vid=3e238bfa-0bb6-4969-9526-3fcd6c35d000","ios":"levelo://app?vid=3e238bfa-0bb6-4969-9526-3fcd6c35d000"},"vehicle_type_id":"4","last_reported":1713017185,"current_range_meters":23600,"station_id":"ce4bhbh2rcd13ifvqepg","pricing_plan_id":"cebpf4jnsgd1na2vs0mg"},{"bike_id":"df3c0d40-11fc-41b7-ac9c-c8c7ba8cc8f4","system_id":"levelo_inurba_marseille","lat":43.284186,"lon":5.349793,"is_reserved":false,"is_disabled":false,"rental_uris":{"android":"levelo://app?vid=df3c0d40-11fc-41b7-ac9c-c8c7ba8cc8f4","ios":"levelo://app?vid=df3c0d40-11fc-41b7-ac9c-c8c7ba8cc8f4"},"vehicle_type_id":"4","last_reported":1713017185,"current_range_meters":20800,"station_id":"ce4bhbh2rcd13ifvqepg","pricing_plan_id":"cebpf4jnsgd1na2vs0mg"},{"bike_id":"fe0eefa1-bc83-41f8-86e9-c4f309c2ec9b","system_id":"levelo_inurba_marseille","lat":43.28418,"lon":5.34981,"is_reserved":false,"is_disabled":false,"rental_uris":{"android":"levelo://app?vid=fe0eefa1-bc83-41f8-86e9-c4f309c2ec9b","ios":"levelo://app?vid=fe0eefa1-bc83-41f8-86e9-c4f309c2ec9b"},"vehicle_type_id":"4","last_reported":1713017185,"current_range_meters":3600,"station_id":"ce4bhbh2rcd13ifvqepg","pricing_plan_id":"cebpf4jnsgd1na2vs0mg"},{"bike_id":"d98de919-3898-4e64-8c1f-f6c7b53a3ea5","system_id":"levelo_inurba_marseille","lat":43.284214,"lon":5.349706,"is_reserved":false,"is_disabled":false,"rental_uris":{"android":"levelo://app?vid=d98de919-3898-4e64-8c1f-f6c7b53a3ea5","ios":"levelo://app?vid=d98de919-3898-4e64-8c1f-f6c7b53a3ea5"},"vehicle_type_id":"4","last_reported":1713017185,"current_range_meters":23200,"station_id":"ce4bhbh2rcd13ifvqepg","pricing_plan_id":"cebpf4jnsgd1na2vs0mg"},{"bike_id":"557f9ea8-f044-43d2-86ba-e2ce75e4b424","system_id":"levelo_inurba_marseille","lat":43.284121,"lon":5.349984,"is_reserved":false,"is_disabled":false,"rental_uris":{"android":"levelo://app?vid=557f9ea8-f044-43d2-86ba-e2ce75e4b424","ios":"levelo://app?vid=557f9ea8-f044-43d2-86ba-e2ce75e4b424"},"vehicle_type_id":"4","last_reported":1713017185,"current_range_meters":10800,"station_id":"ce4bhbh2rcd13ifvqepg","pricing_plan_id":"cebpf4jnsgd1na2vs0mg"},{"bike_id":"d12c94f8-ac24-4ef3-8c0c-c30fda138099","system_id":"levelo_inurba_marseille","lat":43.284214,"lon":5.349706,"is_reserved":false,"is_disabled":false,"rental_uris":{"android":"levelo://app?vid=d12c94f8-ac24-4ef3-8c0c-c30fda138099","ios":"levelo://app?vid=d12c94f8-ac24-4ef3-8c0c-c30fda138099"},"vehicle_type_id":"4","last_reported":1713017185,"current_range_meters":15600,"station_id":"ce4bhbh2rcd13ifvqepg","pricing_plan_id":"cebpf4jnsgd1na2vs0mg"},{"bike_id":"01563724-1217-40de-82a5-8535c9ff8f5d","system_id":"levelo_inurba_marseille","lat":43.284149,"lon":5.349836,"is_reserved":false,"is_disabled":false,"rental_uris":{"android":"levelo://app?vid=01563724-1217-40de-82a5-8535c9ff8f5d","ios":"levelo://app?vid=01563724-1217-40de-82a5-8535c9ff8f5d"},"vehicle_type_id":"4","last_reported":1713017185,"current_range_meters":15200,"station_id":"ce4bhbh2rcd13ifvqepg","pricing_plan_id":"cebpf4jnsgd1na2vs0mg"},{"bike_id":"845baa49-a80d-462b-bc0f-ef057bd30f27","system_id":"levelo_inurba_marseille","lat":43.286593,"lon":5.363346,"is_reserved":false,"is_disabled":false,"rental_uris":{"android":"levelo://app?vid=845baa49-a80d-462b-bc0f-ef057bd30f27","ios":"levelo://app?vid=845baa49-a80d-462b-bc0f-ef057bd30f27"},"vehicle_type_id":"4","last_reported":1713017185,"current_range_meters":13600,"station_id":"ce4bhah2rcd13ifvqej0","pricing_plan_id":"cebpf4jnsgd1na2vs0mg"},{"bike_id":"332e0b64-c9d2-4f72-8833-2fbe8166cc1e","system_id":"levelo_inurba_marseille","lat":43.28415,"lon":5.349781,"is_reserved":false,"is_disabled":false,"rental_uris":{"android":"levelo://app?vid=332e0b64-c9d2-4f72-8833-2fbe8166cc1e","ios":"levelo://app?vid=332e0b64-c9d2-4f72-8833-2fbe8166cc1e"},"vehicle_type_id":"4","last_reported":1713017185,"current_range_meters":19600,"station_id":"ce4bhah2rcd13ifvqei0","pricing_plan_id":"cebpf4jnsgd1na2vs0mg"},{"bike_id":"ada28ec5-ba14-496b-b3cd-d695e70ab47e","system_id":"levelo_inurba_marseille","lat":43.28412,"lon":5.34987,"is_reserved":false,"is_disabled":false,"rental_uris":{"android":"levelo://app?vid=ada28ec5-ba14-496b-b3cd-d695e70ab47e","ios":"levelo://app?vid=ada28ec5-ba14-496b-b3cd-d695e70ab47e"},"vehicle_type_id":"4","last_reported":1713017185,"current_range_meters":14000,"station_id":"ce4bhbh2rcd13ifvqepg","pricing_plan_id":"cebpf4jnsgd1na2vs0mg"},{"bike_id":"e7848cee-d148-437b-a59e-3671d7e3d450","system_id":"levelo_inurba_marseille","lat":43.284098,"lon":5.349935,"is_reserved":false,"is_disabled":false,"rental_uris":{"android":"levelo://app?vid=e7848cee-d148-437b-a59e-3671d7e3d450","ios":"levelo://app?vid=e7848cee-d148-437b-a59e-3671d7e3d450"},"vehicle_type_id":"4","last_reported":1713017185,"current_range_meters":8800,"station_id":"ce4bhbh2rcd13ifvqepg","pricing_plan_id":"cebpf4jnsgd1na2vs0mg"},{"bike_id":"845d3f40-fe5b-4555-86eb-1f3da6f342e4","system_id":"levelo_inurba_marseille","lat":43.2841,"lon":5.3499,"is_reserved":false,"is_disabled":false,"rental_uris":{"android":"levelo://app?vid=845d3f40-fe5b-4555-86eb-1f3da6f342e4","ios":"levelo://app?vid=845d3f40-fe5b-4555-86eb-1f3da6f342e4"},"vehicle_type_id":"4","last_reported":1713017185,"current_range_meters":15200,"station_id":"ce4bhbh2rcd13ifvqepg","pricing_plan_id":"cebpf4jnsgd1na2vs0mg"},{"bike_id":"ec63401c-21e5-45f1-ba39-9a2db6911806","system_id":"levelo_inurba_marseille","lat":43.284101,"lon":5.349877,"is_reserved":false,"is_disabled":false,"rental_uris":{"android":"levelo://app?vid=ec63401c-21e5-45f1-ba39-9a2db6911806","ios":"levelo://app?vid=ec63401c-21e5-45f1-ba39-9a2db6911806"},"vehicle_type_id":"4","last_reported":1713017185,"current_range_meters":24800,"station_id":"ce4bhbh2rcd13ifvqepg","pricing_plan_id":"cebpf4jnsgd1na2vs0mg"},{"bike_id":"e70c7891-f6c9-4883-9523-edbd91cf98b8","system_id":"levelo_inurba_marseille","lat":43.28412,"lon":5.3498,"is_reserved":false,"is_disabled":false,"rental_uris":{"android":"levelo://app?vid=e70c7891-f6c9-4883-9523-edbd91cf98b8","ios":"levelo://app?vid=e70c7891-f6c9-4883-9523-edbd91cf98b8"},"vehicle_type_id":"4","last_reported":1713017185,"current_range_meters":800,"station_id":"ce4bhbh2rcd13ifvqepg","pricing_plan_id":"cebpf4jnsgd1na2vs0mg"},{"bike_id":"363675a8-fa55-40a8-8b63-1dfe3fe076c2","system_id":"levelo_inurba_marseille","lat":43.284538,"lon":5.358657,"is_reserved":false,"is_disabled":false,"rental_uris":{"android":"levelo://app?vid=363675a8-fa55-40a8-8b63-1dfe3fe076c2","ios":"levelo://app?vid=363675a8-fa55-40a8-8b63-1dfe3fe076c2"},"vehicle_type_id":"4","last_reported":1713017185,"current_range_meters":31200,"station_id":"ce4bhah2rcd13ifvqei0","pricing_plan_id":"cebpf4jnsgd1na2vs0mg"},{"bike_id":"711036c5-8aa3-47b6-8e1d-a3b041d7500d","system_id":"levelo_inurba_marseille","lat":43.28408,"lon":5.349886,"is_reserved":false,"is_disabled":false,"rental_uris":{"android":"levelo://app?vid=711036c5-8aa3-47b6-8e1d-a3b041d7500d","ios":"levelo://app?vid=711036c5-8aa3-47b6-8e1d-a3b041d7500d"},"vehicle_type_id":"4","last_reported":1713017185,"current_range_meters":18400,"station_id":"ce4bhbh2rcd13ifvqepg","pricing_plan_id":"cebpf4jnsgd1na2vs0mg"},{"bike_id":"01e34518-9d6a-47f3-a843-b9db735352bb","system_id":"levelo_inurba_marseille","lat":43.284084,"lon":5.349827,"is_reserved":false,"is_disabled":false,"rental_uris":{"android":"levelo://app?vid=01e34518-9d6a-47f3-a843-b9db735352bb","ios":"levelo://app?vid=01e34518-9d6a-47f3-a843-b9db735352bb"},"vehicle_type_id":"4","last_reported":1713017185,"current_range_meters":5600,"station_id":"ce4bhbh2rcd13ifvqepg","pricing_plan_id":"cebpf4jnsgd1na2vs0mg"},{"bike_id":"9c5a1687-9369-449c-afa2-d2d5a50b66ae","system_id":"levelo_inurba_marseille","lat":43.284076,"lon":5.349828,"is_reserved":false,"is_disabled":false,"rental_uris":{"android":"levelo://app?vid=9c5a1687-9369-449c-afa2-d2d5a50b66ae","ios":"levelo://app?vid=9c5a1687-9369-449c-afa2-d2d5a50b66ae"},"vehicle_type_id":"4","last_reported":1713017185,"current_range_meters":28000,"station_id":"ce4bhbh2rcd13ifvqepg","pricing_plan_id":"cebpf4jnsgd1na2vs0mg"},{"bike_id":"2a031065-cc1b-4bda-ab6c-7a96fb5436a3","system_id":"levelo_inurba_marseille","lat":43.28405,"lon":5.349907,"is_reserved":false,"is_disabled":false,"rental_uris":{"android":"levelo://app?vid=2a031065-cc1b-4bda-ab6c-7a96fb5436a3","ios":"levelo://app?vid=2a031065-cc1b-4bda-ab6c-7a96fb5436a3"},"vehicle_type_id":"4","last_reported":1713017185,"current_range_meters":17600,"station_id":"ce4bhbh2rcd13ifvqepg","pricing_plan_id":"cebpf4jnsgd1na2vs0mg"},{"bike_id":"c517de6e-c999-4091-8db3-d8af608e5310","system_id":"levelo_inurba_marseille","lat":43.284538,"lon":5.358657,"is_reserved":false,"is_disabled":false,"rental_uris":{"android":"levelo://app?vid=c517de6e-c999-4091-8db3-d8af608e5310","ios":"levelo://app?vid=c517de6e-c999-4091-8db3-d8af608e5310"},"vehicle_type_id":"4","last_reported":1713017185,"current_range_meters":19200,"station_id":"ce4bhah2rcd13ifvqei0","pricing_plan_id":"cebpf4jnsgd1na2vs0mg"},{"bike_id":"27217ddc-7632-43fe-87bd-67ed096c531e","system_id":"levelo_inurba_marseille","lat":43.286593,"lon":5.363346,"is_reserved":false,"is_disabled":false,"rental_uris":{"android":"levelo://app?vid=27217ddc-7632-43fe-87bd-67ed096c531e","ios":"levelo://app?vid=27217ddc-7632-43fe-87bd-67ed096c531e"},"vehicle_type_id":"4","last_reported":1713017185,"current_range_meters":14800,"station_id":"ce4bhah2rcd13ifvqej0","pricing_plan_id":"cebpf4jnsgd1na2vs0mg"},{"bike_id":"32e21b67-5148-438e-853e-c04d1362b5eb","system_id":"levelo_inurba_marseille","lat":43.283632,"lon":5.350111,"is_reserved":false,"is_disabled":false,"rental_uris":{"android":"levelo://app?vid=32e21b67-5148-438e-853e-c04d1362b5eb","ios":"levelo://app?vid=32e21b67-5148-438e-853e-c04d1362b5eb"},"vehicle_type_id":"4","last_reported":1713017185,"current_range_meters":24400,"station_id":"ce4bhah2rcd13ifvqei0","pricing_plan_id":"cebpf4jnsgd1na2vs0mg"},{"bike_id":"ee98c778-0658-4274-ab88-7bd7367417ff","system_id":"levelo_inurba_marseille","lat":43.28283,"lon":5.3507,"is_reserved":false,"is_disabled":false,"rental_uris":{"android":"levelo://app?vid=ee98c778-0658-4274-ab88-7bd7367417ff","ios":"levelo://app?vid=ee98c778-0658-4274-ab88-7bd7367417ff"},"vehicle_type_id":"4","last_reported":1713017185,"current_range_meters":28000,"station_id":"ce4bhbp2rcd13ifvqerg","pricing_plan_id":"cebpf4jnsgd1na2vs0mg"},{"bike_id":"397e99bb-5afd-4b13-99f6-69c58da92da4","system_id":"levelo_inurba_marseille","lat":43.282754,"lon":5.350519,"is_reserved":false,"is_disabled":false,"rental_uris":{"android":"levelo://app?vid=397e99bb-5afd-4b13-99f6-69c58da92da4","ios":"levelo://app?vid=397e99bb-5afd-4b13-99f6-69c58da92da4"},"vehicle_type_id":"4","last_reported":1713017185,"current_range_meters":30800,"station_id":"ce4bhbp2rcd13ifvqerg","pricing_plan_id":"cebpf4jnsgd1na2vs0mg"},{"bike_id":"209ee2dd-9669-4c11-98fc-e8b69bf1e85e","system_id":"levelo_inurba_marseille","lat":43.28278,"lon":5.35067,"is_reserved":false,"is_disabled":false,"rental_uris":{"android":"levelo://app?vid=209ee2dd-9669-4c11-98fc-e8b69bf1e85e","ios":"levelo://app?vid=209ee2dd-9669-4c11-98fc-e8b69bf1e85e"},"vehicle_type_id":"4","last_reported":1713017185,"current_range_meters":16400,"station_id":"ce4bhbp2rcd13ifvqerg","pricing_plan_id":"cebpf4jnsgd1na2vs0mg"},{"bike_id":"8ae4177a-33e4-45f0-8ce4-6d71cf0cb902","system_id":"levelo_inurba_marseille","lat":43.28272,"lon":5.35084,"is_reserved":false,"is_disabled":false,"rental_uris":{"android":"levelo://app?vid=8ae4177a-33e4-45f0-8ce4-6d71cf0cb902","ios":"levelo://app?vid=8ae4177a-33e4-45f0-8ce4-6d71cf0cb902"},"vehicle_type_id":"4","last_reported":1713017185,"current_range_meters":18000,"station_id":"ce4bhbp2rcd13ifvqerg","pricing_plan_id":"cebpf4jnsgd1na2vs0mg"},{"bike_id":"dd2f7623-22d1-4e57-befd-d3b11a40e665","system_id":"levelo_inurba_marseille","lat":43.282762,"lon":5.35067,"is_reserved":false,"is_disabled":false,"rental_uris":{"android":"levelo://app?vid=dd2f7623-22d1-4e57-befd-d3b11a40e665","ios":"levelo://app?vid=dd2f7623-22d1-4e57-befd-d3b11a40e665"},"vehicle_type_id":"4","last_reported":1713017185,"current_range_meters":31200,"station_id":"ce4bhbp2rcd13ifvqerg","pricing_plan_id":"cebpf4jnsgd1na2vs0mg"},{"bike_id":"e29ed7aa-80c4-4df6-a3eb-e25fe365a218","system_id":"levelo_inurba_marseille","lat":43.28277,"lon":5.3506,"is_reserved":false,"is_disabled":false,"rental_uris":{"android":"levelo://app?vid=e29ed7aa-80c4-4df6-a3eb-e25fe365a218","ios":"levelo://app?vid=e29ed7aa-80c4-4df6-a3eb-e25fe365a218"},"vehicle_type_id":"4","last_reported":1713017185,"current_range_meters":0,"station_id":"ce4bhbp2rcd13ifvqerg","pricing_plan_id":"cebpf4jnsgd1na2vs0mg"},{"bike_id":"08f9eec6-da00-4c15-a1c6-1938dcb60168","system_id":"levelo_inurba_marseille","lat":43.282757,"lon":5.35064,"is_reserved":false,"is_disabled":false,"rental_uris":{"android":"levelo://app?vid=08f9eec6-da00-4c15-a1c6-1938dcb60168","ios":"levelo://app?vid=08f9eec6-da00-4c15-a1c6-1938dcb60168"},"vehicle_type_id":"4","last_reported":1713017185,"current_range_meters":25600,"station_id":"ce4bhbp2rcd13ifvqerg","pricing_plan_id":"cebpf4jnsgd1na2vs0mg"},{"bike_id":"b0810d3f-f459-4c8e-a442-d65371b8be5f","system_id":"levelo_inurba_marseille","lat":43.28274,"lon":5.35068,"is_reserved":false,"is_disabled":false,"rental_uris":{"android":"levelo://app?vid=b0810d3f-f459-4c8e-a442-d65371b8be5f","ios":"levelo://app?vid=b0810d3f-f459-4c8e-a442-d65371b8be5f"},"vehicle_type_id":"4","last_reported":1713017185,"current_range_meters":3200,"station_id":"ce4bhbp2rcd13ifvqerg","pricing_plan_id":"cebpf4jnsgd1na2vs0mg"},{"bike_id":"bfb79299-90cc-4710-83e2-e6b782a3d273","system_id":"levelo_inurba_marseille","lat":43.28277,"lon":5.35056,"is_reserved":false,"is_disabled":false,"rental_uris":{"android":"levelo://app?vid=bfb79299-90cc-4710-83e2-e6b782a3d273","ios":"levelo://app?vid=bfb79299-90cc-4710-83e2-e6b782a3d273"},"vehicle_type_id":"4","last_reported":1713017185,"current_range_meters":3600,"station_id":"ce4bhbp2rcd13ifvqerg","pricing_plan_id":"cebpf4jnsgd1na2vs0mg"},{"bike_id":"b057e98b-5649-4cc8-8f04-2e66e4459eb8","system_id":"levelo_inurba_marseille","lat":43.282744,"lon":5.350533,"is_reserved":false,"is_disabled":false,"rental_uris":{"android":"levelo://app?vid=b057e98b-5649-4cc8-8f04-2e66e4459eb8","ios":"levelo://app?vid=b057e98b-5649-4cc8-8f04-2e66e4459eb8"},"vehicle_type_id":"4","last_reported":1713017185,"current_range_meters":31600,"station_id":"ce4bhbp2rcd13ifvqerg","pricing_plan_id":"cebpf4jnsgd1na2vs0mg"},{"bike_id":"b512ebfb-fd4f-48ab-8851-8d281222cb79","system_id":"levelo_inurba_marseille","lat":43.28276,"lon":5.35059,"is_reserved":false,"is_disabled":false,"rental_uris":{"android":"levelo://app?vid=b512ebfb-fd4f-48ab-8851-8d281222cb79","ios":"levelo://app?vid=b512ebfb-fd4f-48ab-8851-8d281222cb79"},"vehicle_type_id":"4","last_reported":1713017185,"current_range_meters":16000,"station_id":"ce4bhbp2rcd13ifvqerg","pricing_plan_id":"cebpf4jnsgd1na2vs0mg"},{"bike_id":"85976064-6db3-42c7-8670-e5b07726e9ad","system_id":"levelo_inurba_marseille","lat":43.28273,"lon":5.35069,"is_reserved":false,"is_disabled":false,"rental_uris":{"android":"levelo://app?vid=85976064-6db3-42c7-8670-e5b07726e9ad","ios":"levelo://app?vid=85976064-6db3-42c7-8670-e5b07726e9ad"},"vehicle_type_id":"4","last_reported":1713017185,"current_range_meters":24000,"station_id":"ce4bhbp2rcd13ifvqerg","pricing_plan_id":"cebpf4jnsgd1na2vs0mg"},{"bike_id":"ecd5d107-c326-450d-9c57-5ebde999a3d0","system_id":"levelo_inurba_marseille","lat":43.28273,"lon":5.35069,"is_reserved":false,"is_disabled":false,"rental_uris":{"android":"levelo://app?vid=ecd5d107-c326-450d-9c57-5ebde999a3d0","ios":"levelo://app?vid=ecd5d107-c326-450d-9c57-5ebde999a3d0"},"vehicle_type_id":"4","last_reported":1713017185,"current_range_meters":12000,"station_id":"ce4bhbp2rcd13ifvqerg","pricing_plan_id":"cebpf4jnsgd1na2vs0mg"},{"bike_id":"09dea75d-e477-4774-b8fd-d6b6d8f51bf1","system_id":"levelo_inurba_marseille","lat":43.28273,"lon":5.35067,"is_reserved":false,"is_disabled":false,"rental_uris":{"android":"levelo://app?vid=09dea75d-e477-4774-b8fd-d6b6d8f51bf1","ios":"levelo://app?vid=09dea75d-e477-4774-b8fd-d6b6d8f51bf1"},"vehicle_type_id":"4","last_reported":1713017185,"current_range_meters":24000,"station_id":"ce4bhbp2rcd13ifvqerg","pricing_plan_id":"cebpf4jnsgd1na2vs0mg"},{"bike_id":"423ffda4-c426-4d0b-8b66-1018fc85ec2c","system_id":"levelo_inurba_marseille","lat":43.28273,"lon":5.350664,"is_reserved":false,"is_disabled":false,"rental_uris":{"android":"levelo://app?vid=423ffda4-c426-4d0b-8b66-1018fc85ec2c","ios":"levelo://app?vid=423ffda4-c426-4d0b-8b66-1018fc85ec2c"},"vehicle_type_id":"4","last_reported":1713017185,"current_range_meters":26000,"station_id":"ce4bhbp2rcd13ifvqerg","pricing_plan_id":"cebpf4jnsgd1na2vs0mg"},{"bike_id":"0365940b-3955-4a23-a990-65a6a74362b3","system_id":"levelo_inurba_marseille","lat":43.28274,"lon":5.35063,"is_reserved":false,"is_disabled":false,"rental_uris":{"android":"levelo://app?vid=0365940b-3955-4a23-a990-65a6a74362b3","ios":"levelo://app?vid=0365940b-3955-4a23-a990-65a6a74362b3"},"vehicle_type_id":"4","last_reported":1713017185,"current_range_meters":9600,"station_id":"ce4bhbp2rcd13ifvqerg","pricing_plan_id":"cebpf4jnsgd1na2vs0mg"},{"bike_id":"e44b1814-1bdc-457b-b738-022e21094c02","system_id":"levelo_inurba_marseille","lat":43.282754,"lon":5.350519,"is_reserved":false,"is_disabled":false,"rental_uris":{"android":"levelo://app?vid=e44b1814-1bdc-457b-b738-022e21094c02","ios":"levelo://app?vid=e44b1814-1bdc-457b-b738-022e21094c02"},"vehicle_type_id":"4","last_reported":1713017185,"current_range_meters":31200,"station_id":"ce4bhbp2rcd13ifvqerg","pricing_plan_id":"cebpf4jnsgd1na2vs0mg"},{"bike_id":"8de6b88e-4429-4f08-8c5e-f71ec8ebd54d","system_id":"levelo_inurba_marseille","lat":43.282699,"lon":5.35075,"is_reserved":false,"is_disabled":false,"rental_uris":{"android":"levelo://app?vid=8de6b88e-4429-4f08-8c5e-f71ec8ebd54d","ios":"levelo://app?vid=8de6b88e-4429-4f08-8c5e-f71ec8ebd54d"},"vehicle_type_id":"4","last_reported":1713017185,"current_range_meters":6800,"station_id":"ce4bhbp2rcd13ifvqerg","pricing_plan_id":"cebpf4jnsgd1na2vs0mg"},{"bike_id":"bdaa1ac5-975e-453f-b5fc-9095d03c7e1e","system_id":"levelo_inurba_marseille","lat":43.282727,"lon":5.350637,"is_reserved":false,"is_disabled":false,"rental_uris":{"android":"levelo://app?vid=bdaa1ac5-975e-453f-b5fc-9095d03c7e1e","ios":"levelo://app?vid=bdaa1ac5-975e-453f-b5fc-9095d03c7e1e"},"vehicle_type_id":"4","last_reported":1713017185,"current_range_meters":31200,"station_id":"ce4bhbp2rcd13ifvqerg","pricing_plan_id":"cebpf4jnsgd1na2vs0mg"},{"bike_id":"c5ea61bd-f846-4171-a288-eb8b7309e35a","system_id":"levelo_inurba_marseille","lat":43.282744,"lon":5.350533,"is_reserved":false,"is_disabled":false,"rental_uris":{"android":"levelo://app?vid=c5ea61bd-f846-4171-a288-eb8b7309e35a","ios":"levelo://app?vid=c5ea61bd-f846-4171-a288-eb8b7309e35a"},"vehicle_type_id":"4","last_reported":1713017185,"current_range_meters":24800,"station_id":"ce4bhbp2rcd13ifvqerg","pricing_plan_id":"cebpf4jnsgd1na2vs0mg"},{"bike_id":"ab04f8ca-f0e5-4d7d-9d39-c9b25c83a36b","system_id":"levelo_inurba_marseille","lat":43.28274,"lon":5.35057,"is_reserved":false,"is_disabled":false,"rental_uris":{"android":"levelo://app?vid=ab04f8ca-f0e5-4d7d-9d39-c9b25c83a36b","ios":"levelo://app?vid=ab04f8ca-f0e5-4d7d-9d39-c9b25c83a36b"},"vehicle_type_id":"4","last_reported":1713017185,"current_range_meters":14400,"station_id":"ce4bhbp2rcd13ifvqerg","pricing_plan_id":"cebpf4jnsgd1na2vs0mg"},{"bike_id":"a789cc7a-6a1d-4726-b446-98f887ce5c06","system_id":"levelo_inurba_marseille","lat":43.28271,"lon":5.35067,"is_reserved":false,"is_disabled":false,"rental_uris":{"android":"levelo://app?vid=a789cc7a-6a1d-4726-b446-98f887ce5c06","ios":"levelo://app?vid=a789cc7a-6a1d-4726-b446-98f887ce5c06"},"vehicle_type_id":"4","last_reported":1713017185,"current_range_meters":24800,"station_id":"ce4bhbp2rcd13ifvqerg","pricing_plan_id":"cebpf4jnsgd1na2vs0mg"},{"bike_id":"b6014e98-785e-492d-b903-cc8d62c86dd8","system_id":"levelo_inurba_marseille","lat":43.28273,"lon":5.3506,"is_reserved":false,"is_disabled":false,"rental_uris":{"android":"levelo://app?vid=b6014e98-785e-492d-b903-cc8d62c86dd8","ios":"levelo://app?vid=b6014e98-785e-492d-b903-cc8d62c86dd8"},"vehicle_type_id":"4","last_reported":1713017185,"current_range_meters":0,"station_id":"ce4bhbp2rcd13ifvqerg","pricing_plan_id":"cebpf4jnsgd1na2vs0mg"},{"bike_id":"544a3e93-6935-44b8-aebe-e7759ff2b1e1","system_id":"levelo_inurba_marseille","lat":43.28271,"lon":5.35066,"is_reserved":false,"is_disabled":false,"rental_uris":{"android":"levelo://app?vid=544a3e93-6935-44b8-aebe-e7759ff2b1e1","ios":"levelo://app?vid=544a3e93-6935-44b8-aebe-e7759ff2b1e1"},"vehicle_type_id":"4","last_reported":1713017185,"current_range_meters":18000,"station_id":"ce4bhbp2rcd13ifvqerg","pricing_plan_id":"cebpf4jnsgd1na2vs0mg"},{"bike_id":"120abf07-18e1-4ee6-81fd-37eef0c76cb1","system_id":"levelo_inurba_marseille","lat":43.282724,"lon":5.350607,"is_reserved":false,"is_disabled":false,"rental_uris":{"android":"levelo://app?vid=120abf07-18e1-4ee6-81fd-37eef0c76cb1","ios":"levelo://app?vid=120abf07-18e1-4ee6-81fd-37eef0c76cb1"},"vehicle_type_id":"4","last_reported":1713017185,"current_range_meters":16800,"station_id":"ce4bhbp2rcd13ifvqerg","pricing_plan_id":"cebpf4jnsgd1na2vs0mg"},{"bike_id":"3ac42a4a-3344-4e25-8273-1621bf548843","system_id":"levelo_inurba_marseille","lat":43.28272,"lon":5.35062,"is_reserved":false,"is_disabled":false,"rental_uris":{"android":"levelo://app?vid=3ac42a4a-3344-4e25-8273-1621bf548843","ios":"levelo://app?vid=3ac42a4a-3344-4e25-8273-1621bf548843"},"vehicle_type_id":"4","last_reported":1713017185,"current_range_meters":2800,"station_id":"ce4bhbp2rcd13ifvqerg","pricing_plan_id":"cebpf4jnsgd1na2vs0mg"},{"bike_id":"4ec54b18-64f6-447a-92b3-98d43f54cfcb","system_id":"levelo_inurba_marseille","lat":43.299028,"lon":5.381509,"is_reserved":false,"is_disabled":false,"rental_uris":{"android":"levelo://app?vid=4ec54b18-64f6-447a-92b3-98d43f54cfcb","ios":"levelo://app?vid=4ec54b18-64f6-447a-92b3-98d43f54cfcb"},"vehicle_type_id":"4","last_reported":1713017185,"current_range_meters":19200,"station_id":"ce4bgj12rcd13ifvqbc0","pricing_plan_id":"cebpf4jnsgd1na2vs0mg"},{"bike_id":"cb41179e-eab8-4b4c-89e3-ca8697b8d568","system_id":"levelo_inurba_marseille","lat":43.282754,"lon":5.350519,"is_reserved":false,"is_disabled":false,"rental_uris":{"android":"levelo://app?vid=cb41179e-eab8-4b4c-89e3-ca8697b8d568","ios":"levelo://app?vid=cb41179e-eab8-4b4c-89e3-ca8697b8d568"},"vehicle_type_id":"4","last_reported":1713017185,"current_range_meters":28000,"station_id":"ce4bhbp2rcd13ifvqerg","pricing_plan_id":"cebpf4jnsgd1na2vs0mg"},{"bike_id":"bb7d2eb7-87ca-4f11-87a0-999953e10e29","system_id":"levelo_inurba_marseille","lat":43.28272,"lon":5.35061,"is_reserved":false,"is_disabled":false,"rental_uris":{"android":"levelo://app?vid=bb7d2eb7-87ca-4f11-87a0-999953e10e29","ios":"levelo://app?vid=bb7d2eb7-87ca-4f11-87a0-999953e10e29"},"vehicle_type_id":"4","last_reported":1713017185,"current_range_meters":3200,"station_id":"ce4bhbp2rcd13ifvqerg","pricing_plan_id":"cebpf4jnsgd1na2vs0mg"},{"bike_id":"9828eff5-ede1-417e-8793-bb7bce2da390","system_id":"levelo_inurba_marseille","lat":43.282744,"lon":5.350533,"is_reserved":false,"is_disabled":false,"rental_uris":{"android":"levelo://app?vid=9828eff5-ede1-417e-8793-bb7bce2da390","ios":"levelo://app?vid=9828eff5-ede1-417e-8793-bb7bce2da390"},"vehicle_type_id":"4","last_reported":1713017185,"current_range_meters":6800,"station_id":"ce4bhbp2rcd13ifvqerg","pricing_plan_id":"cebpf4jnsgd1na2vs0mg"},{"bike_id":"fd187a7e-9b14-4752-b11c-966ee6a54dc7","system_id":"levelo_inurba_marseille","lat":43.282744,"lon":5.350533,"is_reserved":false,"is_disabled":false,"rental_uris":{"android":"levelo://app?vid=fd187a7e-9b14-4752-b11c-966ee6a54dc7","ios":"levelo://app?vid=fd187a7e-9b14-4752-b11c-966ee6a54dc7"},"vehicle_type_id":"4","last_reported":1713017185,"current_range_meters":31600,"station_id":"ce4bhbp2rcd13ifvqerg","pricing_plan_id":"cebpf4jnsgd1na2vs0mg"},{"bike_id":"5eef2f7a-dd2f-4a23-8471-bf9643857634","system_id":"levelo_inurba_marseille","lat":43.28271,"lon":5.35062,"is_reserved":false,"is_disabled":false,"rental_uris":{"android":"levelo://app?vid=5eef2f7a-dd2f-4a23-8471-bf9643857634","ios":"levelo://app?vid=5eef2f7a-dd2f-4a23-8471-bf9643857634"},"vehicle_type_id":"4","last_reported":1713017185,"current_range_meters":15600,"station_id":"ce4bhbp2rcd13ifvqerg","pricing_plan_id":"cebpf4jnsgd1na2vs0mg"},{"bike_id":"f9095647-9f88-4908-8d6f-20882bbb2943","system_id":"levelo_inurba_marseille","lat":43.282713,"lon":5.350605,"is_reserved":false,"is_disabled":false,"rental_uris":{"android":"levelo://app?vid=f9095647-9f88-4908-8d6f-20882bbb2943","ios":"levelo://app?vid=f9095647-9f88-4908-8d6f-20882bbb2943"},"vehicle_type_id":"4","last_reported":1713017185,"current_range_meters":14800,"station_id":"ce4bhbp2rcd13ifvqerg","pricing_plan_id":"cebpf4jnsgd1na2vs0mg"},{"bike_id":"6ebe8ef3-1684-4cc6-b952-fc29ecd5a55d","system_id":"levelo_inurba_marseille","lat":43.282704,"lon":5.350631,"is_reserved":false,"is_disabled":false,"rental_uris":{"android":"levelo://app?vid=6ebe8ef3-1684-4cc6-b952-fc29ecd5a55d","ios":"levelo://app?vid=6ebe8ef3-1684-4cc6-b952-fc29ecd5a55d"},"vehicle_type_id":"4","last_reported":1713017185,"current_range_meters":14000,"station_id":"ce4bhbp2rcd13ifvqerg","pricing_plan_id":"cebpf4jnsgd1na2vs0mg"},{"bike_id":"38143185-2479-4de8-ba7b-270836eeb9e9","system_id":"levelo_inurba_marseille","lat":43.28267,"lon":5.350738,"is_reserved":false,"is_disabled":false,"rental_uris":{"android":"levelo://app?vid=38143185-2479-4de8-ba7b-270836eeb9e9","ios":"levelo://app?vid=38143185-2479-4de8-ba7b-270836eeb9e9"},"vehicle_type_id":"4","last_reported":1713017185,"current_range_meters":25600,"station_id":"ce4bhbp2rcd13ifvqerg","pricing_plan_id":"cebpf4jnsgd1na2vs0mg"},{"bike_id":"47bbdf21-96ad-45ce-bb5e-df8d9fe10138","system_id":"levelo_inurba_marseille","lat":43.282712,"lon":5.350592,"is_reserved":false,"is_disabled":false,"rental_uris":{"android":"levelo://app?vid=47bbdf21-96ad-45ce-bb5e-df8d9fe10138","ios":"levelo://app?vid=47bbdf21-96ad-45ce-bb5e-df8d9fe10138"},"vehicle_type_id":"4","last_reported":1713017185,"current_range_meters":16400,"station_id":"ce4bhbp2rcd13ifvqerg","pricing_plan_id":"cebpf4jnsgd1na2vs0mg"},{"bike_id":"666e69b6-f881-47c1-aeaf-1f08ecf16064","system_id":"levelo_inurba_marseille","lat":43.282744,"lon":5.350533,"is_reserved":false,"is_disabled":false,"rental_uris":{"android":"levelo://app?vid=666e69b6-f881-47c1-aeaf-1f08ecf16064","ios":"levelo://app?vid=666e69b6-f881-47c1-aeaf-1f08ecf16064"},"vehicle_type_id":"4","last_reported":1713017185,"current_range_meters":25600,"station_id":"ce4bhbp2rcd13ifvqerg","pricing_plan_id":"cebpf4jnsgd1na2vs0mg"},{"bike_id":"9ea475db-f974-4285-ad8c-4a2d71325a92","system_id":"levelo_inurba_marseille","lat":43.28269,"lon":5.35066,"is_reserved":false,"is_disabled":false,"rental_uris":{"android":"levelo://app?vid=9ea475db-f974-4285-ad8c-4a2d71325a92","ios":"levelo://app?vid=9ea475db-f974-4285-ad8c-4a2d71325a92"},"vehicle_type_id":"4","last_reported":1713017185,"current_range_meters":18400,"station_id":"ce4bhbp2rcd13ifvqerg","pricing_plan_id":"cebpf4jnsgd1na2vs0mg"},{"bike_id":"2bec55fa-c489-44c4-915f-8ea4c551441e","system_id":"levelo_inurba_marseille","lat":43.28269,"lon":5.35066,"is_reserved":false,"is_disabled":false,"rental_uris":{"android":"levelo://app?vid=2bec55fa-c489-44c4-915f-8ea4c551441e","ios":"levelo://app?vid=2bec55fa-c489-44c4-915f-8ea4c551441e"},"vehicle_type_id":"4","last_reported":1713017185,"current_range_meters":25200,"station_id":"ce4bhbp2rcd13ifvqerg","pricing_plan_id":"cebpf4jnsgd1na2vs0mg"},{"bike_id":"aa36d2f3-2171-4868-853a-b4061d1e5d47","system_id":"levelo_inurba_marseille","lat":43.302008,"lon":5.394694,"is_reserved":false,"is_disabled":false,"rental_uris":{"android":"levelo://app?vid=aa36d2f3-2171-4868-853a-b4061d1e5d47","ios":"levelo://app?vid=aa36d2f3-2171-4868-853a-b4061d1e5d47"},"vehicle_type_id":"4","last_reported":1713017185,"current_range_meters":8800,"station_id":"ce4bh0p2rcd13ifvqd70","pricing_plan_id":"cebpf4jnsgd1na2vs0mg"},{"bike_id":"c1435a18-9e41-452c-b810-9efc51632c1e","system_id":"levelo_inurba_marseille","lat":43.282744,"lon":5.350533,"is_reserved":false,"is_disabled":false,"rental_uris":{"android":"levelo://app?vid=c1435a18-9e41-452c-b810-9efc51632c1e","ios":"levelo://app?vid=c1435a18-9e41-452c-b810-9efc51632c1e"},"vehicle_type_id":"4","last_reported":1713017185,"current_range_meters":24400,"station_id":"ce4bhbp2rcd13ifvqerg","pricing_plan_id":"cebpf4jnsgd1na2vs0mg"},{"bike_id":"463f6f3b-9028-40ad-8f63-3403dafc493e","system_id":"levelo_inurba_marseille","lat":43.2827,"lon":5.35062,"is_reserved":false,"is_disabled":false,"rental_uris":{"android":"levelo://app?vid=463f6f3b-9028-40ad-8f63-3403dafc493e","ios":"levelo://app?vid=463f6f3b-9028-40ad-8f63-3403dafc493e"},"vehicle_type_id":"4","last_reported":1713017185,"current_range_meters":10000,"station_id":"ce4bhbp2rcd13ifvqerg","pricing_plan_id":"cebpf4jnsgd1na2vs0mg"},{"bike_id":"3992ceea-a220-43a8-9bbc-8b72eadbc50d","system_id":"levelo_inurba_marseille","lat":43.282744,"lon":5.350533,"is_reserved":false,"is_disabled":false,"rental_uris":{"android":"levelo://app?vid=3992ceea-a220-43a8-9bbc-8b72eadbc50d","ios":"levelo://app?vid=3992ceea-a220-43a8-9bbc-8b72eadbc50d"},"vehicle_type_id":"4","last_reported":1713017185,"current_range_meters":12800,"station_id":"ce4bhbp2rcd13ifvqerg","pricing_plan_id":"cebpf4jnsgd1na2vs0mg"},{"bike_id":"5aff3467-b257-410c-8d3a-bcc4cfb6134b","system_id":"levelo_inurba_marseille","lat":43.28273,"lon":5.35051,"is_reserved":false,"is_disabled":false,"rental_uris":{"android":"levelo://app?vid=5aff3467-b257-410c-8d3a-bcc4cfb6134b","ios":"levelo://app?vid=5aff3467-b257-410c-8d3a-bcc4cfb6134b"},"vehicle_type_id":"4","last_reported":1713017185,"current_range_meters":22400,"station_id":"ce4bhbp2rcd13ifvqerg","pricing_plan_id":"cebpf4jnsgd1na2vs0mg"},{"bike_id":"a8b7862c-51ba-4034-be60-9077a2cb38bb","system_id":"levelo_inurba_marseille","lat":43.282672,"lon":5.350701,"is_reserved":false,"is_disabled":false,"rental_uris":{"android":"levelo://app?vid=a8b7862c-51ba-4034-be60-9077a2cb38bb","ios":"levelo://app?vid=a8b7862c-51ba-4034-be60-9077a2cb38bb"},"vehicle_type_id":"4","last_reported":1713017185,"current_range_meters":26800,"station_id":"ce4bhbp2rcd13ifvqerg","pricing_plan_id":"cebpf4jnsgd1na2vs0mg"},{"bike_id":"6922f9ea-0ae9-4edb-9405-ca5fc76784ed","system_id":"levelo_inurba_marseille","lat":43.283502,"lon":5.386471,"is_reserved":false,"is_disabled":false,"rental_uris":{"android":"levelo://app?vid=6922f9ea-0ae9-4edb-9405-ca5fc76784ed","ios":"levelo://app?vid=6922f9ea-0ae9-4edb-9405-ca5fc76784ed"},"vehicle_type_id":"4","last_reported":1713017185,"current_range_meters":29200,"station_id":"ce4bh492rcd13ifvqdvg","pricing_plan_id":"cebpf4jnsgd1na2vs0mg"},{"bike_id":"25823ada-fd19-4af2-8cad-70cd1f39268c","system_id":"levelo_inurba_marseille","lat":43.282692,"lon":5.350622,"is_reserved":false,"is_disabled":false,"rental_uris":{"android":"levelo://app?vid=25823ada-fd19-4af2-8cad-70cd1f39268c","ios":"levelo://app?vid=25823ada-fd19-4af2-8cad-70cd1f39268c"},"vehicle_type_id":"4","last_reported":1713017185,"current_range_meters":14000,"station_id":"ce4bhbp2rcd13ifvqerg","pricing_plan_id":"cebpf4jnsgd1na2vs0mg"},{"bike_id":"1e4eaa03-2e19-43ba-8d72-0451dea67fca","system_id":"levelo_inurba_marseille","lat":43.28266,"lon":5.35073,"is_reserved":false,"is_disabled":false,"rental_uris":{"android":"levelo://app?vid=1e4eaa03-2e19-43ba-8d72-0451dea67fca","ios":"levelo://app?vid=1e4eaa03-2e19-43ba-8d72-0451dea67fca"},"vehicle_type_id":"4","last_reported":1713017185,"current_range_meters":16400,"station_id":"ce4bhbp2rcd13ifvqerg","pricing_plan_id":"cebpf4jnsgd1na2vs0mg"},{"bike_id":"1f916031-09d4-4d9c-966c-e88091616c04","system_id":"levelo_inurba_marseille","lat":43.282744,"lon":5.350533,"is_reserved":false,"is_disabled":false,"rental_uris":{"android":"levelo://app?vid=1f916031-09d4-4d9c-966c-e88091616c04","ios":"levelo://app?vid=1f916031-09d4-4d9c-966c-e88091616c04"},"vehicle_type_id":"4","last_reported":1713017185,"current_range_meters":28800,"station_id":"ce4bhbp2rcd13ifvqerg","pricing_plan_id":"cebpf4jnsgd1na2vs0mg"},{"bike_id":"e9e7ea2a-2f8d-443b-8361-9fa397f361cc","system_id":"levelo_inurba_marseille","lat":43.28265,"lon":5.35075,"is_reserved":false,"is_disabled":false,"rental_uris":{"android":"levelo://app?vid=e9e7ea2a-2f8d-443b-8361-9fa397f361cc","ios":"levelo://app?vid=e9e7ea2a-2f8d-443b-8361-9fa397f361cc"},"vehicle_type_id":"4","last_reported":1713017185,"current_range_meters":4800,"station_id":"ce4bhbp2rcd13ifvqerg","pricing_plan_id":"cebpf4jnsgd1na2vs0mg"},{"bike_id":"284f5453-fed5-4f27-bdde-32c8b48736b6","system_id":"levelo_inurba_marseille","lat":43.282684,"lon":5.350617,"is_reserved":false,"is_disabled":false,"rental_uris":{"android":"levelo://app?vid=284f5453-fed5-4f27-bdde-32c8b48736b6","ios":"levelo://app?vid=284f5453-fed5-4f27-bdde-32c8b48736b6"},"vehicle_type_id":"4","last_reported":1713017185,"current_range_meters":16800,"station_id":"ce4bhbp2rcd13ifvqerg","pricing_plan_id":"cebpf4jnsgd1na2vs0mg"},{"bike_id":"a7f86906-7add-4e76-a7f0-afab9e84ba14","system_id":"levelo_inurba_marseille","lat":43.28268,"lon":5.35063,"is_reserved":false,"is_disabled":false,"rental_uris":{"android":"levelo://app?vid=a7f86906-7add-4e76-a7f0-afab9e84ba14","ios":"levelo://app?vid=a7f86906-7add-4e76-a7f0-afab9e84ba14"},"vehicle_type_id":"4","last_reported":1713017185,"current_range_meters":21200,"station_id":"ce4bhbp2rcd13ifvqerg","pricing_plan_id":"cebpf4jnsgd1na2vs0mg"},{"bike_id":"ad9c7c41-67f0-453a-9265-21bd49a35cda","system_id":"levelo_inurba_marseille","lat":43.28265,"lon":5.35072,"is_reserved":false,"is_disabled":false,"rental_uris":{"android":"levelo://app?vid=ad9c7c41-67f0-453a-9265-21bd49a35cda","ios":"levelo://app?vid=ad9c7c41-67f0-453a-9265-21bd49a35cda"},"vehicle_type_id":"4","last_reported":1713017185,"current_range_meters":31200,"station_id":"ce4bhbp2rcd13ifvqerg","pricing_plan_id":"cebpf4jnsgd1na2vs0mg"},{"bike_id":"df681b73-ede9-4e47-8edb-c3c2bdf22905","system_id":"levelo_inurba_marseille","lat":43.282674,"lon":5.350634,"is_reserved":false,"is_disabled":false,"rental_uris":{"android":"levelo://app?vid=df681b73-ede9-4e47-8edb-c3c2bdf22905","ios":"levelo://app?vid=df681b73-ede9-4e47-8edb-c3c2bdf22905"},"vehicle_type_id":"4","last_reported":1713017185,"current_range_meters":14400,"station_id":"ce4bhbp2rcd13ifvqerg","pricing_plan_id":"cebpf4jnsgd1na2vs0mg"},{"bike_id":"db989437-3996-4e26-ad1d-76bbefd9cfe0","system_id":"levelo_inurba_marseille","lat":43.305364,"lon":5.384119,"is_reserved":false,"is_disabled":false,"rental_uris":{"android":"levelo://app?vid=db989437-3996-4e26-ad1d-76bbefd9cfe0","ios":"levelo://app?vid=db989437-3996-4e26-ad1d-76bbefd9cfe0"},"vehicle_type_id":"4","last_reported":1713017185,"current_range_meters":2400,"station_id":"ce4bgg92rcd13ifvqb30","pricing_plan_id":"cebpf4jnsgd1na2vs0mg"},{"bike_id":"3dc49ffc-66ae-487c-85a0-28bb7a38968e","system_id":"levelo_inurba_marseille","lat":43.28268,"lon":5.3506,"is_reserved":false,"is_disabled":false,"rental_uris":{"android":"levelo://app?vid=3dc49ffc-66ae-487c-85a0-28bb7a38968e","ios":"levelo://app?vid=3dc49ffc-66ae-487c-85a0-28bb7a38968e"},"vehicle_type_id":"4","last_reported":1713017185,"current_range_meters":19600,"station_id":"ce4bhbp2rcd13ifvqerg","pricing_plan_id":"cebpf4jnsgd1na2vs0mg"},{"bike_id":"03f0f3f2-07c3-4af7-bd83-7843cb20b85e","system_id":"levelo_inurba_marseille","lat":43.282656,"lon":5.35068,"is_reserved":false,"is_disabled":false,"rental_uris":{"android":"levelo://app?vid=03f0f3f2-07c3-4af7-bd83-7843cb20b85e","ios":"levelo://app?vid=03f0f3f2-07c3-4af7-bd83-7843cb20b85e"},"vehicle_type_id":"4","last_reported":1713017185,"current_range_meters":0,"station_id":"ce4bhbp2rcd13ifvqerg","pricing_plan_id":"cebpf4jnsgd1na2vs0mg"},{"bike_id":"376e8005-c7bf-4c6a-a862-4bbc6355dcce","system_id":"levelo_inurba_marseille","lat":43.28267,"lon":5.35063,"is_reserved":false,"is_disabled":false,"rental_uris":{"android":"levelo://app?vid=376e8005-c7bf-4c6a-a862-4bbc6355dcce","ios":"levelo://app?vid=376e8005-c7bf-4c6a-a862-4bbc6355dcce"},"vehicle_type_id":"4","last_reported":1713017185,"current_range_meters":3600,"station_id":"ce4bhbp2rcd13ifvqerg","pricing_plan_id":"cebpf4jnsgd1na2vs0mg"},{"bike_id":"0832f9dd-955f-4675-ba32-08fe045daa31","system_id":"levelo_inurba_marseille","lat":43.282664,"lon":5.350637,"is_reserved":false,"is_disabled":false,"rental_uris":{"android":"levelo://app?vid=0832f9dd-955f-4675-ba32-08fe045daa31","ios":"levelo://app?vid=0832f9dd-955f-4675-ba32-08fe045daa31"},"vehicle_type_id":"4","last_reported":1713017185,"current_range_meters":23200,"station_id":"ce4bhbp2rcd13ifvqerg","pricing_plan_id":"cebpf4jnsgd1na2vs0mg"},{"bike_id":"e5fb58d0-99c2-4071-a88f-83b937d72796","system_id":"levelo_inurba_marseille","lat":43.282646,"lon":5.350669,"is_reserved":false,"is_disabled":false,"rental_uris":{"android":"levelo://app?vid=e5fb58d0-99c2-4071-a88f-83b937d72796","ios":"levelo://app?vid=e5fb58d0-99c2-4071-a88f-83b937d72796"},"vehicle_type_id":"4","last_reported":1713017185,"current_range_meters":0,"station_id":"ce4bhbp2rcd13ifvqerg","pricing_plan_id":"cebpf4jnsgd1na2vs0mg"},{"bike_id":"1fb8a5c1-66eb-411c-b33f-3e2fd0f5b210","system_id":"levelo_inurba_marseille","lat":43.282668,"lon":5.350583,"is_reserved":false,"is_disabled":false,"rental_uris":{"android":"levelo://app?vid=1fb8a5c1-66eb-411c-b33f-3e2fd0f5b210","ios":"levelo://app?vid=1fb8a5c1-66eb-411c-b33f-3e2fd0f5b210"},"vehicle_type_id":"4","last_reported":1713017185,"current_range_meters":16000,"station_id":"ce4bhbp2rcd13ifvqerg","pricing_plan_id":"cebpf4jnsgd1na2vs0mg"},{"bike_id":"3762ce5c-eb24-4ab2-b738-ff13b4f95b3a","system_id":"levelo_inurba_marseille","lat":43.28264,"lon":5.35066,"is_reserved":false,"is_disabled":false,"rental_uris":{"android":"levelo://app?vid=3762ce5c-eb24-4ab2-b738-ff13b4f95b3a","ios":"levelo://app?vid=3762ce5c-eb24-4ab2-b738-ff13b4f95b3a"},"vehicle_type_id":"4","last_reported":1713017185,"current_range_meters":26800,"station_id":"ce4bhbp2rcd13ifvqerg","pricing_plan_id":"cebpf4jnsgd1na2vs0mg"},{"bike_id":"32c6cb10-66d7-43b8-8119-e80e4d2bc17f","system_id":"levelo_inurba_marseille","lat":43.28269,"lon":5.35048,"is_reserved":false,"is_disabled":false,"rental_uris":{"android":"levelo://app?vid=32c6cb10-66d7-43b8-8119-e80e4d2bc17f","ios":"levelo://app?vid=32c6cb10-66d7-43b8-8119-e80e4d2bc17f"},"vehicle_type_id":"4","last_reported":1713017185,"current_range_meters":31200,"station_id":"ce4bhbp2rcd13ifvqerg","pricing_plan_id":"cebpf4jnsgd1na2vs0mg"},{"bike_id":"43c82085-3289-4d03-84c8-9d080bf3984b","system_id":"levelo_inurba_marseille","lat":43.282654,"lon":5.350602,"is_reserved":false,"is_disabled":false,"rental_uris":{"android":"levelo://app?vid=43c82085-3289-4d03-84c8-9d080bf3984b","ios":"levelo://app?vid=43c82085-3289-4d03-84c8-9d080bf3984b"},"vehicle_type_id":"4","last_reported":1713017185,"current_range_meters":10000,"station_id":"ce4bhbp2rcd13ifvqerg","pricing_plan_id":"cebpf4jnsgd1na2vs0mg"},{"bike_id":"9af90f2d-ab63-4c1e-b780-2aea330c2401","system_id":"levelo_inurba_marseille","lat":43.28265,"lon":5.35061,"is_reserved":false,"is_disabled":false,"rental_uris":{"android":"levelo://app?vid=9af90f2d-ab63-4c1e-b780-2aea330c2401","ios":"levelo://app?vid=9af90f2d-ab63-4c1e-b780-2aea330c2401"},"vehicle_type_id":"4","last_reported":1713017185,"current_range_meters":21600,"station_id":"ce4bhbp2rcd13ifvqerg","pricing_plan_id":"cebpf4jnsgd1na2vs0mg"},{"bike_id":"f5fd5305-a15b-4908-b58d-6fa9fcdf9ded","system_id":"levelo_inurba_marseille","lat":43.28264,"lon":5.3506,"is_reserved":false,"is_disabled":false,"rental_uris":{"android":"levelo://app?vid=f5fd5305-a15b-4908-b58d-6fa9fcdf9ded","ios":"levelo://app?vid=f5fd5305-a15b-4908-b58d-6fa9fcdf9ded"},"vehicle_type_id":"4","last_reported":1713017185,"current_range_meters":19600,"station_id":"ce4bhbp2rcd13ifvqerg","pricing_plan_id":"cebpf4jnsgd1na2vs0mg"},{"bike_id":"045ae401-7793-4951-9cae-c2a00331f445","system_id":"levelo_inurba_marseille","lat":43.282617,"lon":5.35067,"is_reserved":false,"is_disabled":false,"rental_uris":{"android":"levelo://app?vid=045ae401-7793-4951-9cae-c2a00331f445","ios":"levelo://app?vid=045ae401-7793-4951-9cae-c2a00331f445"},"vehicle_type_id":"4","last_reported":1713017185,"current_range_meters":5600,"station_id":"ce4bhbp2rcd13ifvqerg","pricing_plan_id":"cebpf4jnsgd1na2vs0mg"},{"bike_id":"a69b4434-a420-4940-b1ce-6cdb4819c75d","system_id":"levelo_inurba_marseille","lat":43.282744,"lon":5.350533,"is_reserved":false,"is_disabled":false,"rental_uris":{"android":"levelo://app?vid=a69b4434-a420-4940-b1ce-6cdb4819c75d","ios":"levelo://app?vid=a69b4434-a420-4940-b1ce-6cdb4819c75d"},"vehicle_type_id":"4","last_reported":1713017185,"current_range_meters":30400,"station_id":"ce4bhbp2rcd13ifvqerg","pricing_plan_id":"cebpf4jnsgd1na2vs0mg"},{"bike_id":"ed1c27b3-3ec8-4267-a846-9c26f591a27e","system_id":"levelo_inurba_marseille","lat":43.28262,"lon":5.35062,"is_reserved":false,"is_disabled":false,"rental_uris":{"android":"levelo://app?vid=ed1c27b3-3ec8-4267-a846-9c26f591a27e","ios":"levelo://app?vid=ed1c27b3-3ec8-4267-a846-9c26f591a27e"},"vehicle_type_id":"4","last_reported":1713017185,"current_range_meters":26400,"station_id":"ce4bhbp2rcd13ifvqerg","pricing_plan_id":"cebpf4jnsgd1na2vs0mg"},{"bike_id":"17f81bd0-589f-47e8-b2f1-17ea0497b9a6","system_id":"levelo_inurba_marseille","lat":43.28261,"lon":5.35064,"is_reserved":false,"is_disabled":false,"rental_uris":{"android":"levelo://app?vid=17f81bd0-589f-47e8-b2f1-17ea0497b9a6","ios":"levelo://app?vid=17f81bd0-589f-47e8-b2f1-17ea0497b9a6"},"vehicle_type_id":"4","last_reported":1713017185,"current_range_meters":20000,"station_id":"ce4bhbp2rcd13ifvqerg","pricing_plan_id":"cebpf4jnsgd1na2vs0mg"},{"bike_id":"c24fd93a-7ecb-4d9a-828b-ca9e6d7d6d40","system_id":"levelo_inurba_marseille","lat":43.280382,"lon":5.369291,"is_reserved":false,"is_disabled":false,"rental_uris":{"android":"levelo://app?vid=c24fd93a-7ecb-4d9a-828b-ca9e6d7d6d40","ios":"levelo://app?vid=c24fd93a-7ecb-4d9a-828b-ca9e6d7d6d40"},"vehicle_type_id":"4","last_reported":1713017185,"current_range_meters":14800,"station_id":"ce4bha12rcd13ifvqef0","pricing_plan_id":"cebpf4jnsgd1na2vs0mg"},{"bike_id":"4ae5416f-9af4-4870-bbd8-1f168a213cf3","system_id":"levelo_inurba_marseille","lat":43.28258,"lon":5.35062,"is_reserved":false,"is_disabled":false,"rental_uris":{"android":"levelo://app?vid=4ae5416f-9af4-4870-bbd8-1f168a213cf3","ios":"levelo://app?vid=4ae5416f-9af4-4870-bbd8-1f168a213cf3"},"vehicle_type_id":"4","last_reported":1713017185,"current_range_meters":8800,"station_id":"ce4bhbp2rcd13ifvqerg","pricing_plan_id":"cebpf4jnsgd1na2vs0mg"},{"bike_id":"250c3167-3a37-4f80-a596-4fe7cfce7f42","system_id":"levelo_inurba_marseille","lat":43.281044,"lon":5.378308,"is_reserved":false,"is_disabled":false,"rental_uris":{"android":"levelo://app?vid=250c3167-3a37-4f80-a596-4fe7cfce7f42","ios":"levelo://app?vid=250c3167-3a37-4f80-a596-4fe7cfce7f42"},"vehicle_type_id":"4","last_reported":1713017185,"current_range_meters":0,"station_id":"ce4bha12rcd13ifvqee0","pricing_plan_id":"cebpf4jnsgd1na2vs0mg"},{"bike_id":"362e93d3-4ee8-4a7c-a99c-8692301ce0ea","system_id":"levelo_inurba_marseille","lat":43.28106,"lon":5.35074,"is_reserved":false,"is_disabled":false,"rental_uris":{"android":"levelo://app?vid=362e93d3-4ee8-4a7c-a99c-8692301ce0ea","ios":"levelo://app?vid=362e93d3-4ee8-4a7c-a99c-8692301ce0ea"},"vehicle_type_id":"4","last_reported":1713017185,"current_range_meters":18400,"station_id":"","pricing_plan_id":"cebpf4jnsgd1na2vs0mg"},{"bike_id":"092f78ae-363a-4763-ae75-9f164a88895a","system_id":"levelo_inurba_marseille","lat":43.320045,"lon":5.415048,"is_reserved":false,"is_disabled":false,"rental_uris":{"android":"levelo://app?vid=092f78ae-363a-4763-ae75-9f164a88895a","ios":"levelo://app?vid=092f78ae-363a-4763-ae75-9f164a88895a"},"vehicle_type_id":"4","last_reported":1713017185,"current_range_meters":21200,"station_id":"ce4bhq92rcd13ifvqhkg","pricing_plan_id":"cebpf4jnsgd1na2vs0mg"},{"bike_id":"ab00da04-2fa9-4b47-b7a3-fc503e449de4","system_id":"levelo_inurba_marseille","lat":43.279087,"lon":5.380114,"is_reserved":false,"is_disabled":false,"rental_uris":{"android":"levelo://app?vid=ab00da04-2fa9-4b47-b7a3-fc503e449de4","ios":"levelo://app?vid=ab00da04-2fa9-4b47-b7a3-fc503e449de4"},"vehicle_type_id":"4","last_reported":1713017185,"current_range_meters":20000,"station_id":"ce4bhf92rcd13ifvqf50","pricing_plan_id":"cebpf4jnsgd1na2vs0mg"},{"bike_id":"b2d5564c-113a-432c-bed7-a88a87bb9179","system_id":"levelo_inurba_marseille","lat":43.320045,"lon":5.415046,"is_reserved":false,"is_disabled":false,"rental_uris":{"android":"levelo://app?vid=b2d5564c-113a-432c-bed7-a88a87bb9179","ios":"levelo://app?vid=b2d5564c-113a-432c-bed7-a88a87bb9179"},"vehicle_type_id":"4","last_reported":1713017185,"current_range_meters":12800,"station_id":"ce4bhq92rcd13ifvqhkg","pricing_plan_id":"cebpf4jnsgd1na2vs0mg"},{"bike_id":"ac698d78-ab08-49ef-8218-4b2e1392bdfc","system_id":"levelo_inurba_marseille","lat":43.320045,"lon":5.415048,"is_reserved":false,"is_disabled":false,"rental_uris":{"android":"levelo://app?vid=ac698d78-ab08-49ef-8218-4b2e1392bdfc","ios":"levelo://app?vid=ac698d78-ab08-49ef-8218-4b2e1392bdfc"},"vehicle_type_id":"4","last_reported":1713017185,"current_range_meters":2800,"station_id":"ce4bhq92rcd13ifvqhkg","pricing_plan_id":"cebpf4jnsgd1na2vs0mg"},{"bike_id":"36649457-cab6-4f41-a5ec-b0c4af20017a","system_id":"levelo_inurba_marseille","lat":43.320544,"lon":5.415477,"is_reserved":false,"is_disabled":false,"rental_uris":{"android":"levelo://app?vid=36649457-cab6-4f41-a5ec-b0c4af20017a","ios":"levelo://app?vid=36649457-cab6-4f41-a5ec-b0c4af20017a"},"vehicle_type_id":"4","last_reported":1713017185,"current_range_meters":4400,"station_id":"ce4bhq92rcd13ifvqhkg","pricing_plan_id":"cebpf4jnsgd1na2vs0mg"},{"bike_id":"4d27112f-6db0-4739-82ad-fb1213b35c77","system_id":"levelo_inurba_marseille","lat":43.320045,"lon":5.415046,"is_reserved":false,"is_disabled":false,"rental_uris":{"android":"levelo://app?vid=4d27112f-6db0-4739-82ad-fb1213b35c77","ios":"levelo://app?vid=4d27112f-6db0-4739-82ad-fb1213b35c77"},"vehicle_type_id":"4","last_reported":1713017185,"current_range_meters":32000,"station_id":"ce4bhq92rcd13ifvqhkg","pricing_plan_id":"cebpf4jnsgd1na2vs0mg"},{"bike_id":"8c044764-b466-41d9-b193-88f03d307abd","system_id":"levelo_inurba_marseille","lat":43.279742,"lon":5.38744,"is_reserved":false,"is_disabled":false,"rental_uris":{"android":"levelo://app?vid=8c044764-b466-41d9-b193-88f03d307abd","ios":"levelo://app?vid=8c044764-b466-41d9-b193-88f03d307abd"},"vehicle_type_id":"4","last_reported":1713017185,"current_range_meters":14400,"station_id":"ce4bhg12rcd13ifvqf80","pricing_plan_id":"cebpf4jnsgd1na2vs0mg"},{"bike_id":"bab227b6-746d-4545-b6b7-03292e431a0a","system_id":"levelo_inurba_marseille","lat":43.325243,"lon":5.414326,"is_reserved":false,"is_disabled":false,"rental_uris":{"android":"levelo://app?vid=bab227b6-746d-4545-b6b7-03292e431a0a","ios":"levelo://app?vid=bab227b6-746d-4545-b6b7-03292e431a0a"},"vehicle_type_id":"4","last_reported":1713017185,"current_range_meters":3600,"station_id":"ce4bhq12rcd13ifvqhhg","pricing_plan_id":"cebpf4jnsgd1na2vs0mg"},{"bike_id":"6650a731-62b8-4b9d-869e-1bc8390e0ecc","system_id":"levelo_inurba_marseille","lat":43.27618,"lon":5.361009,"is_reserved":false,"is_disabled":false,"rental_uris":{"android":"levelo://app?vid=6650a731-62b8-4b9d-869e-1bc8390e0ecc","ios":"levelo://app?vid=6650a731-62b8-4b9d-869e-1bc8390e0ecc"},"vehicle_type_id":"4","last_reported":1713017185,"current_range_meters":21600,"station_id":"ce4bgj92rcd13ifvqbe0","pricing_plan_id":"cebpf4jnsgd1na2vs0mg"},{"bike_id":"bbe86d13-139b-4b2a-b1fe-7657760d22e1","system_id":"levelo_inurba_marseille","lat":43.276179,"lon":5.361009,"is_reserved":false,"is_disabled":false,"rental_uris":{"android":"levelo://app?vid=bbe86d13-139b-4b2a-b1fe-7657760d22e1","ios":"levelo://app?vid=bbe86d13-139b-4b2a-b1fe-7657760d22e1"},"vehicle_type_id":"4","last_reported":1713017185,"current_range_meters":18000,"station_id":"ce4bgj92rcd13ifvqbe0","pricing_plan_id":"cebpf4jnsgd1na2vs0mg"},{"bike_id":"8ff1811c-3b80-418b-a76a-bb411519a89b","system_id":"levelo_inurba_marseille","lat":43.325233,"lon":5.414318,"is_reserved":false,"is_disabled":false,"rental_uris":{"android":"levelo://app?vid=8ff1811c-3b80-418b-a76a-bb411519a89b","ios":"levelo://app?vid=8ff1811c-3b80-418b-a76a-bb411519a89b"},"vehicle_type_id":"4","last_reported":1713017185,"current_range_meters":20400,"station_id":"ce4bhq12rcd13ifvqhhg","pricing_plan_id":"cebpf4jnsgd1na2vs0mg"},{"bike_id":"d1c3350a-99f3-481f-b6b2-950e0c8cdf86","system_id":"levelo_inurba_marseille","lat":43.27618,"lon":5.361009,"is_reserved":false,"is_disabled":false,"rental_uris":{"android":"levelo://app?vid=d1c3350a-99f3-481f-b6b2-950e0c8cdf86","ios":"levelo://app?vid=d1c3350a-99f3-481f-b6b2-950e0c8cdf86"},"vehicle_type_id":"4","last_reported":1713017185,"current_range_meters":0,"station_id":"ce4bgj92rcd13ifvqbe0","pricing_plan_id":"cebpf4jnsgd1na2vs0mg"},{"bike_id":"942647d4-4047-477a-8165-ef74d3f4773d","system_id":"levelo_inurba_marseille","lat":43.27618,"lon":5.361009,"is_reserved":false,"is_disabled":false,"rental_uris":{"android":"levelo://app?vid=942647d4-4047-477a-8165-ef74d3f4773d","ios":"levelo://app?vid=942647d4-4047-477a-8165-ef74d3f4773d"},