{"last_updated":1686586074,"ttl":30,"version":"2.2","data":{"bikes":[{"bike_id":"2236174f-9b48-4e77-bc47-17f9275c2cb6","system_id":"levelo_inurba_marseille","lat":43.309076,"lon":5.368465,"is_reserved":false,"is_disabled":false,"rental_uris":{"android":"levelo://app?vid=2236174f-9b48-4e77-bc47-17f9275c2cb6","ios":"levelo://app?vid=2236174f-9b48-4e77-bc47-17f9275c2cb6"},"vehicle_type_id":"4","last_reported":1686586074,"current_range_meters":5200,"station_id":"ce4bgn92rcd13ifvqbvg","pricing_plan_id":"free"},{"bike_id":"3effac70-7ca4-4a23-8d19-ba58a92a19d6","system_id":"levelo_inurba_marseille","lat":43.314811,"lon":5.373103,"is_reserved":false,"is_disabled":false,"rental_uris":{"android":"levelo://app?vid=3effac70-7ca4-4a23-8d19-ba58a92a19d6","ios":"levelo://app?vid=3effac70-7ca4-4a23-8d19-ba58a92a19d6"},"vehicle_type_id":"4","last_reported":1686586074,"current_range_meters":24800,"station_id":"ce4bgt12rcd13ifvqcd0","pricing_plan_id":"free"},{"bike_id":"16b6a613-6982-4c40-a9f5-9119fe5224a0","system_id":"levelo_inurba_marseille","lat":43.31485,"lon":5.37308,"is_reserved":false,"is_disabled":false,"rental_uris":{"android":"levelo://app?vid=16b6a613-6982-4c40-a9f5-9119fe5224a0","ios":"levelo://app?vid=16b6a613-6982-4c40-a9f5-9119fe5224a0"},"vehicle_type_id":"4","last_reported":1686586074,"current_range_meters":28800,"station_id":"ce4bgt12rcd13ifvqcd0","pricing_plan_id":"free"},{"bike_id":"17592164-ed3b-4589-ba64-d3ed7bc66434","system_id":"levelo_inurba_marseille","lat":43.31509,"lon":5.37294,"is_reserved":false,"is_disabled":false,"rental_uris":{"android":"levelo://app?vid=17592164-ed3b-4589-ba64-d3ed7bc66434","ios":"levelo://app?vid=17592164-ed3b-4589-ba64-d3ed7bc66434"},"vehicle_type_id":"4","last_reported":1686586074,"current_range_meters":28000,"station_id":"ce4bgt12rcd13ifvqcd0","pricing_plan_id":"free"},{"bike_id":"212ce616-7976-4531-92b1-69cefe6e3f6a","system_id":"levelo_inurba_marseille","lat":43.31499,"lon":5.37321,"is_reserved":false,"is_disabled":false,"rental_uris":{"android":"levelo://app?vid=212ce616-7976-4531-92b1-69cefe6e3f6a","ios":"levelo://app?vid=212ce616-7976-4531-92b1-69cefe6e3f6a"},"vehicle_type_id":"4","last_reported":1686586074,"current_range_meters":29600,"station_id":"ce4bgt12rcd13ifvqcd0","pricing_plan_id":"free"},{"bike_id":"4792b473-85e2-4fdd-83a4-302c95f6ac67","system_id":"levelo_inurba_marseille","lat":43.3172,"lon":5.37177,"is_reserved":false,"is_disabled":false,"rental_uris":{"android":"levelo://app?vid=4792b473-85e2-4fdd-83a4-302c95f6ac67","ios":"levelo://app?vid=4792b473-85e2-4fdd-83a4-302c95f6ac67"},"vehicle_type_id":"4","last_reported":1686586074,"current_range_meters":29600,"station_id":"","pricing_plan_id":"free"},{"bike_id":"dff1b0e2-7c5c-414a-846b-2ef60e70ea3e","system_id":"levelo_inurba_marseille","lat":43.31685,"lon":5.37352,"is_reserved":false,"is_disabled":false,"rental_uris":{"android":"levelo://app?vid=dff1b0e2-7c5c-414a-846b-2ef60e70ea3e","ios":"levelo://app?vid=dff1b0e2-7c5c-414a-846b-2ef60e70ea3e"},"vehicle_type_id":"4","last_reported":1686586074,"current_range_meters":24000,"station_id":"","pricing_plan_id":"free"},{"bike_id":"c1fb032f-fb08-4a02-aedc-39d3c7c6c011","system_id":"levelo_inurba_marseille","lat":43.306,"lon":5.36574,"is_reserved":false,"is_disabled":false,"rental_uris":{"android":"levelo://app?vid=c1fb032f-fb08-4a02-aedc-39d3c7c6c011","ios":"levelo://app?vid=c1fb032f-fb08-4a02-aedc-39d3c7c6c011"},"vehicle_type_id":"4","last_reported":1686586074,"current_range_meters":0,"station_id":"","pricing_plan_id":"free"},{"bike_id":"7203e103-b48f-4b5f-9fc0-469c5f352d49","system_id":"levelo_inurba_marseille","lat":43.305706,"lon":5.365654,"is_reserved":false,"is_disabled":false,"rental_uris":{"android":"levelo://app?vid=7203e103-b48f-4b5f-9fc0-469c5f352d49","ios":"levelo://app?vid=7203e103-b48f-4b5f-9fc0-469c5f352d49"},"vehicle_type_id":"4","last_reported":1686586074,"current_range_meters":9200,"station_id":"ce4bgs12rcd13ifvqcag","pricing_plan_id":"free"},{"bike_id":"12133f94-bf19-4598-9e23-3ba43f2ad125","system_id":"levelo_inurba_marseille","lat":43.305989,"lon":5.37225,"is_reserved":false,"is_disabled":false,"rental_uris":{"android":"levelo://app?vid=12133f94-bf19-4598-9e23-3ba43f2ad125","ios":"levelo://app?vid=12133f94-bf19-4598-9e23-3ba43f2ad125"},"vehicle_type_id":"4","last_reported":1686586074,"current_range_meters":26800,"station_id":"ce4bgqh2rcd13ifvqc4g","pricing_plan_id":"free"},{"bike_id":"a9b0c128-1d22-440a-a654-1d28203a8032","system_id":"levelo_inurba_marseille","lat":43.305989,"lon":5.37225,"is_reserved":false,"is_disabled":false,"rental_uris":{"android":"levelo://app?vid=a9b0c128-1d22-440a-a654-1d28203a8032","ios":"levelo://app?vid=a9b0c128-1d22-440a-a654-1d28203a8032"},"vehicle_type_id":"4","last_reported":1686586074,"current_range_meters":17200,"station_id":"ce4bgqh2rcd13ifvqc4g","pricing_plan_id":"free"},{"bike_id":"4d8ad950-6ea0-4668-b284-d72fbe51c43e","system_id":"levelo_inurba_marseille","lat":43.305989,"lon":5.37225,"is_reserved":false,"is_disabled":false,"rental_uris":{"android":"levelo://app?vid=4d8ad950-6ea0-4668-b284-d72fbe51c43e","ios":"levelo://app?vid=4d8ad950-6ea0-4668-b284-d72fbe51c43e"},"vehicle_type_id":"4","last_reported":1686586074,"current_range_meters":27600,"station_id":"ce4bgqh2rcd13ifvqc4g","pricing_plan_id":"free"},{"bike_id":"e0854c63-413d-4187-88e0-4712562eb98c","system_id":"levelo_inurba_marseille","lat":43.305989,"lon":5.37225,"is_reserved":false,"is_disabled":false,"rental_uris":{"android":"levelo://app?vid=e0854c63-413d-4187-88e0-4712562eb98c","ios":"levelo://app?vid=e0854c63-413d-4187-88e0-4712562eb98c"},"vehicle_type_id":"4","last_reported":1686586074,"current_range_meters":31200,"station_id":"ce4bgqh2rcd13ifvqc4g","pricing_plan_id":"free"},{"bike_id":"017ae9d5-6f1c-48d5-b6ad-0a7c1f47749d","system_id":"levelo_inurba_marseille","lat":43.305989,"lon":5.37225,"is_reserved":false,"is_disabled":false,"rental_uris":{"android":"levelo://app?vid=017ae9d5-6f1c-48d5-b6ad-0a7c1f47749d","ios":"levelo://app?vid=017ae9d5-6f1c-48d5-b6ad-0a7c1f47749d"},"vehicle_type_id":"4","last_reported":1686586074,"current_range_meters":31200,"station_id":"ce4bgqh2rcd13ifvqc4g","pricing_plan_id":"free"},{"bike_id":"e23dec57-1da6-4e9f-a9e5-61402c657136","system_id":"levelo_inurba_marseille","lat":43.305989,"lon":5.37225,"is_reserved":false,"is_disabled":false,"rental_uris":{"android":"levelo://app?vid=e23dec57-1da6-4e9f-a9e5-61402c657136","ios":"levelo://app?vid=e23dec57-1da6-4e9f-a9e5-61402c657136"},"vehicle_type_id":"4","last_reported":1686586074,"current_range_meters":31200,"station_id":"ce4bgqh2rcd13ifvqc4g","pricing_plan_id":"free"},{"bike_id":"0c74e766-6dad-4a55-80ce-fcc72f15dc40","system_id":"levelo_inurba_marseille","lat":43.305989,"lon":5.37225,"is_reserved":false,"is_disabled":false,"rental_uris":{"android":"levelo://app?vid=0c74e766-6dad-4a55-80ce-fcc72f15dc40","ios":"levelo://app?vid=0c74e766-6dad-4a55-80ce-fcc72f15dc40"},"vehicle_type_id":"4","last_reported":1686586074,"current_range_meters":31200,"station_id":"ce4bgqh2rcd13ifvqc4g","pricing_plan_id":"free"},{"bike_id":"e3af019c-8959-4f15-8695-c5a3106f303d","system_id":"levelo_inurba_marseille","lat":43.305989,"lon":5.37225,"is_reserved":false,"is_disabled":false,"rental_uris":{"android":"levelo://app?vid=e3af019c-8959-4f15-8695-c5a3106f303d","ios":"levelo://app?vid=e3af019c-8959-4f15-8695-c5a3106f303d"},"vehicle_type_id":"4","last_reported":1686586074,"current_range_meters":13600,"station_id":"ce4bgqh2rcd13ifvqc4g","pricing_plan_id":"free"},{"bike_id":"b607f91c-1d53-4b53-92ba-c7bf7bec64ed","system_id":"levelo_inurba_marseille","lat":43.305989,"lon":5.37225,"is_reserved":false,"is_disabled":false,"rental_uris":{"android":"levelo://app?vid=b607f91c-1d53-4b53-92ba-c7bf7bec64ed","ios":"levelo://app?vid=b607f91c-1d53-4b53-92ba-c7bf7bec64ed"},"vehicle_type_id":"4","last_reported":1686586074,"current_range_meters":30800,"station_id":"ce4bgqh2rcd13ifvqc4g","pricing_plan_id":"free"},{"bike_id":"e7943a21-c6db-4784-8d26-37907da295bc","system_id":"levelo_inurba_marseille","lat":43.305989,"lon":5.37225,"is_reserved":false,"is_disabled":false,"rental_uris":{"android":"levelo://app?vid=e7943a21-c6db-4784-8d26-37907da295bc","ios":"levelo://app?vid=e7943a21-c6db-4784-8d26-37907da295bc"},"vehicle_type_id":"4","last_reported":1686586074,"current_range_meters":17200,"station_id":"ce4bgqh2rcd13ifvqc4g","pricing_plan_id":"free"},{"bike_id":"48855c44-5dd9-4072-846b-27b65af38a1f","system_id":"levelo_inurba_marseille","lat":43.315289,"lon":5.380349,"is_reserved":false,"is_disabled":false,"rental_uris":{"android":"levelo://app?vid=48855c44-5dd9-4072-846b-27b65af38a1f","ios":"levelo://app?vid=48855c44-5dd9-4072-846b-27b65af38a1f"},"vehicle_type_id":"4","last_reported":1686586074,"current_range_meters":0,"station_id":"ce4bhsp2rcd13ifvqi50","pricing_plan_id":"free"},{"bike_id":"7824dae9-2cf5-47c0-a61f-eb197c3637d6","system_id":"levelo_inurba_marseille","lat":43.309,"lon":5.3806,"is_reserved":false,"is_disabled":false,"rental_uris":{"android":"levelo://app?vid=7824dae9-2cf5-47c0-a61f-eb197c3637d6","ios":"levelo://app?vid=7824dae9-2cf5-47c0-a61f-eb197c3637d6"},"vehicle_type_id":"4","last_reported":1686586074,"current_range_meters":22000,"station_id":"","pricing_plan_id":"free"},{"bike_id":"98c2ce3a-3b2f-4dea-8e5b-c1740d16ae1e","system_id":"levelo_inurba_marseille","lat":43.3009,"lon":5.36575,"is_reserved":false,"is_disabled":false,"rental_uris":{"android":"levelo://app?vid=98c2ce3a-3b2f-4dea-8e5b-c1740d16ae1e","ios":"levelo://app?vid=98c2ce3a-3b2f-4dea-8e5b-c1740d16ae1e"},"vehicle_type_id":"4","last_reported":1686586074,"current_range_meters":8400,"station_id":"","pricing_plan_id":"free"},{"bike_id":"cfe5bff8-12ef-4661-90cb-8b02f8c1afd9","system_id":"levelo_inurba_marseille","lat":43.30143,"lon":5.37418,"is_reserved":false,"is_disabled":false,"rental_uris":{"android":"levelo://app?vid=cfe5bff8-12ef-4661-90cb-8b02f8c1afd9","ios":"levelo://app?vid=cfe5bff8-12ef-4661-90cb-8b02f8c1afd9"},"vehicle_type_id":"4","last_reported":1686586074,"current_range_meters":30000,"station_id":"ce4bgs92rcd13ifvqcc0","pricing_plan_id":"free"},{"bike_id":"88ee51c7-f69e-4020-82bd-62405bcb4d68","system_id":"levelo_inurba_marseille","lat":43.29972,"lon":5.36548,"is_reserved":false,"is_disabled":false,"rental_uris":{"android":"levelo://app?vid=88ee51c7-f69e-4020-82bd-62405bcb4d68","ios":"levelo://app?vid=88ee51c7-f69e-4020-82bd-62405bcb4d68"},"vehicle_type_id":"4","last_reported":1686586074,"current_range_meters":15600,"station_id":"ce4bgm92rcd13ifvqbr0","pricing_plan_id":"free"},{"bike_id":"b6f33de7-ece9-459a-b47c-dae2e97ac655","system_id":"levelo_inurba_marseille","lat":43.313571,"lon":5.384829,"is_reserved":false,"is_disabled":false,"rental_uris":{"android":"levelo://app?vid=b6f33de7-ece9-459a-b47c-dae2e97ac655","ios":"levelo://app?vid=b6f33de7-ece9-459a-b47c-dae2e97ac655"},"vehicle_type_id":"4","last_reported":1686586074,"current_range_meters":2400,"station_id":"ce4bgt92rcd13ifvqcf0","pricing_plan_id":"free"},{"bike_id":"951d0ed3-3211-4408-b731-3a793b45c3d4","system_id":"levelo_inurba_marseille","lat":43.299222,"lon":5.365554,"is_reserved":false,"is_disabled":false,"rental_uris":{"android":"levelo://app?vid=951d0ed3-3211-4408-b731-3a793b45c3d4","ios":"levelo://app?vid=951d0ed3-3211-4408-b731-3a793b45c3d4"},"vehicle_type_id":"4","last_reported":1686586074,"current_range_meters":8800,"station_id":"ce4bgm92rcd13ifvqbr0","pricing_plan_id":"free"},{"bike_id":"6979a48a-f3e3-477e-9bca-09c72c1e536e","system_id":"levelo_inurba_marseille","lat":43.29711,"lon":5.36604,"is_reserved":false,"is_disabled":false,"rental_uris":{"android":"levelo://app?vid=6979a48a-f3e3-477e-9bca-09c72c1e536e","ios":"levelo://app?vid=6979a48a-f3e3-477e-9bca-09c72c1e536e"},"vehicle_type_id":"4","last_reported":1686586074,"current_range_meters":15600,"station_id":"","pricing_plan_id":"free"},{"bike_id":"88d0330c-5bb0-4a19-9b65-d4683b42e015","system_id":"levelo_inurba_marseille","lat":43.29683,"lon":5.36046,"is_reserved":false,"is_disabled":false,"rental_uris":{"android":"levelo://app?vid=88d0330c-5bb0-4a19-9b65-d4683b42e015","ios":"levelo://app?vid=88d0330c-5bb0-4a19-9b65-d4683b42e015"},"vehicle_type_id":"4","last_reported":1686586074,"current_range_meters":25200,"station_id":"ce4bgpp2rcd13ifvqc3g","pricing_plan_id":"free"},{"bike_id":"4cbadd83-df2a-4786-a281-16e46c5651c4","system_id":"levelo_inurba_marseille","lat":43.296935,"lon":5.376544,"is_reserved":false,"is_disabled":false,"rental_uris":{"android":"levelo://app?vid=4cbadd83-df2a-4786-a281-16e46c5651c4","ios":"levelo://app?vid=4cbadd83-df2a-4786-a281-16e46c5651c4"},"vehicle_type_id":"4","last_reported":1686586074,"current_range_meters":30400,"station_id":"ce4bgkh2rcd13ifvqbl0","pricing_plan_id":"free"},{"bike_id":"b7e1d407-d9b0-4dcc-a21d-4e4eef06e457","system_id":"levelo_inurba_marseille","lat":43.29918,"lon":5.38154,"is_reserved":false,"is_disabled":false,"rental_uris":{"android":"levelo://app?vid=b7e1d407-d9b0-4dcc-a21d-4e4eef06e457","ios":"levelo://app?vid=b7e1d407-d9b0-4dcc-a21d-4e4eef06e457"},"vehicle_type_id":"4","last_reported":1686586074,"current_range_meters":11200,"station_id":"ce4bgj12rcd13ifvqbc0","pricing_plan_id":"free"},{"bike_id":"595ab2f3-28ed-4809-8f80-e46019d567bf","system_id":"levelo_inurba_marseille","lat":43.298037,"lon":5.381066,"is_reserved":false,"is_disabled":false,"rental_uris":{"android":"levelo://app?vid=595ab2f3-28ed-4809-8f80-e46019d567bf","ios":"levelo://app?vid=595ab2f3-28ed-4809-8f80-e46019d567bf"},"vehicle_type_id":"4","last_reported":1686586074,"current_range_meters":0,"station_id":"ce4bgip2rcd13ifvqbb0","pricing_plan_id":"free"},{"bike_id":"837ca6c1-9851-4ffa-ad72-9d27c8dea897","system_id":"levelo_inurba_marseille","lat":43.304278,"lon":5.388868,"is_reserved":false,"is_disabled":false,"rental_uris":{"android":"levelo://app?vid=837ca6c1-9851-4ffa-ad72-9d27c8dea897","ios":"levelo://app?vid=837ca6c1-9851-4ffa-ad72-9d27c8dea897"},"vehicle_type_id":"4","last_reported":1686586074,"current_range_meters":0,"station_id":"ce4bgk12rcd13ifvqbi0","pricing_plan_id":"free"},{"bike_id":"035de39f-7380-4e8a-897a-26f20e289b15","system_id":"levelo_inurba_marseille","lat":43.296277,"lon":5.377108,"is_reserved":false,"is_disabled":false,"rental_uris":{"android":"levelo://app?vid=035de39f-7380-4e8a-897a-26f20e289b15","ios":"levelo://app?vid=035de39f-7380-4e8a-897a-26f20e289b15"},"vehicle_type_id":"4","last_reported":1686586074,"current_range_meters":2800,"station_id":"ce4bgi92rcd13ifvqb90","pricing_plan_id":"free"},{"bike_id":"f5016fe0-9ed5-4a98-a37d-e2144d817fe4","system_id":"levelo_inurba_marseille","lat":43.299724,"lon":5.384848,"is_reserved":false,"is_disabled":false,"rental_uris":{"android":"levelo://app?vid=f5016fe0-9ed5-4a98-a37d-e2144d817fe4","ios":"levelo://app?vid=f5016fe0-9ed5-4a98-a37d-e2144d817fe4"},"vehicle_type_id":"4","last_reported":1686586074,"current_range_meters":31200,"station_id":"ce4bgj92rcd13ifvqbd0","pricing_plan_id":"free"},{"bike_id":"b9359164-9fdf-4786-abdf-47da72b54321","system_id":"levelo_inurba_marseille","lat":43.32368,"lon":5.38862,"is_reserved":false,"is_disabled":false,"rental_uris":{"android":"levelo://app?vid=b9359164-9fdf-4786-abdf-47da72b54321","ios":"levelo://app?vid=b9359164-9fdf-4786-abdf-47da72b54321"},"vehicle_type_id":"4","last_reported":1686586074,"current_range_meters":16400,"station_id":"ce4bhqp2rcd13ifvqhog","pricing_plan_id":"free"},{"bike_id":"bfbb24be-d884-45b1-a3c6-5157f36dba7c","system_id":"levelo_inurba_marseille","lat":43.32367,"lon":5.388836,"is_reserved":false,"is_disabled":false,"rental_uris":{"android":"levelo://app?vid=bfbb24be-d884-45b1-a3c6-5157f36dba7c","ios":"levelo://app?vid=bfbb24be-d884-45b1-a3c6-5157f36dba7c"},"vehicle_type_id":"4","last_reported":1686586074,"current_range_meters":19200,"station_id":"ce4bhqp2rcd13ifvqhog","pricing_plan_id":"free"},{"bike_id":"6987dd49-262d-4da8-b404-79c12e4f6f74","system_id":"levelo_inurba_marseille","lat":43.29334,"lon":5.36362,"is_reserved":false,"is_disabled":false,"rental_uris":{"android":"levelo://app?vid=6987dd49-262d-4da8-b404-79c12e4f6f74","ios":"levelo://app?vid=6987dd49-262d-4da8-b404-79c12e4f6f74"},"vehicle_type_id":"4","last_reported":1686586074,"current_range_meters":25200,"station_id":"","pricing_plan_id":"free"},{"bike_id":"cbb8ef42-251b-4a7b-97ff-37ef97b6ff66","system_id":"levelo_inurba_marseille","lat":43.301939,"lon":5.366286,"is_reserved":false,"is_disabled":false,"rental_uris":{"android":"levelo://app?vid=cbb8ef42-251b-4a7b-97ff-37ef97b6ff66","ios":"levelo://app?vid=cbb8ef42-251b-4a7b-97ff-37ef97b6ff66"},"vehicle_type_id":"4","last_reported":1686586074,"current_range_meters":22000,"station_id":"ce4bgrh2rcd13ifvqc8g","pricing_plan_id":"free"},{"bike_id":"3af2fafa-b0b7-41cb-91a4-40284557a088","system_id":"levelo_inurba_marseille","lat":43.305994,"lon":5.393687,"is_reserved":false,"is_disabled":false,"rental_uris":{"android":"levelo://app?vid=3af2fafa-b0b7-41cb-91a4-40284557a088","ios":"levelo://app?vid=3af2fafa-b0b7-41cb-91a4-40284557a088"},"vehicle_type_id":"4","last_reported":1686586074,"current_range_meters":5600,"station_id":"ce4bh0p2rcd13ifvqd80","pricing_plan_id":"free"},{"bike_id":"d257296b-a9b1-4fa4-b7b2-035e749a7b19","system_id":"levelo_inurba_marseille","lat":43.305994,"lon":5.393687,"is_reserved":false,"is_disabled":false,"rental_uris":{"android":"levelo://app?vid=d257296b-a9b1-4fa4-b7b2-035e749a7b19","ios":"levelo://app?vid=d257296b-a9b1-4fa4-b7b2-035e749a7b19"},"vehicle_type_id":"4","last_reported":1686586074,"current_range_meters":7200,"station_id":"ce4bh0p2rcd13ifvqd80","pricing_plan_id":"free"},{"bike_id":"3a3e1859-8924-46bf-a424-3878a394acf5","system_id":"levelo_inurba_marseille","lat":43.2936,"lon":5.37835,"is_reserved":false,"is_disabled":false,"rental_uris":{"android":"levelo://app?vid=3a3e1859-8924-46bf-a424-3878a394acf5","ios":"levelo://app?vid=3a3e1859-8924-46bf-a424-3878a394acf5"},"vehicle_type_id":"4","last_reported":1686586074,"current_range_meters":5600,"station_id":"ce4bgjh2rcd13ifvqbf0","pricing_plan_id":"free"},{"bike_id":"083ca52e-9f74-4485-938c-2ab670c60abe","system_id":"levelo_inurba_marseille","lat":43.292311,"lon":5.360731,"is_reserved":false,"is_disabled":false,"rental_uris":{"android":"levelo://app?vid=083ca52e-9f74-4485-938c-2ab670c60abe","ios":"levelo://app?vid=083ca52e-9f74-4485-938c-2ab670c60abe"},"vehicle_type_id":"4","last_reported":1686586074,"current_range_meters":0,"station_id":"ce4bhbh2rcd13ifvqeqg","pricing_plan_id":"free"},{"bike_id":"7377fb7c-102b-4fb0-b069-fb9431b315a4","system_id":"levelo_inurba_marseille","lat":43.292663,"lon":5.376389,"is_reserved":false,"is_disabled":false,"rental_uris":{"android":"levelo://app?vid=7377fb7c-102b-4fb0-b069-fb9431b315a4","ios":"levelo://app?vid=7377fb7c-102b-4fb0-b069-fb9431b315a4"},"vehicle_type_id":"4","last_reported":1686586074,"current_range_meters":0,"station_id":"ce4bgi12rcd13ifvqb80","pricing_plan_id":"free"},{"bike_id":"672c1e60-23c7-44f9-ab8d-eaa87de86d07","system_id":"levelo_inurba_marseille","lat":43.298764,"lon":5.388973,"is_reserved":false,"is_disabled":false,"rental_uris":{"android":"levelo://app?vid=672c1e60-23c7-44f9-ab8d-eaa87de86d07","ios":"levelo://app?vid=672c1e60-23c7-44f9-ab8d-eaa87de86d07"},"vehicle_type_id":"4","last_reported":1686586074,"current_range_meters":5200,"station_id":"ce4bh392rcd13ifvqdl0","pricing_plan_id":"free"},{"bike_id":"20b0f023-9495-406d-8753-e68054d337ef","system_id":"levelo_inurba_marseille","lat":43.291675,"lon":5.371583,"is_reserved":false,"is_disabled":false,"rental_uris":{"android":"levelo://app?vid=20b0f023-9495-406d-8753-e68054d337ef","ios":"levelo://app?vid=20b0f023-9495-406d-8753-e68054d337ef"},"vehicle_type_id":"4","last_reported":1686586074,"current_range_meters":0,"station_id":"ce4bha92rcd13ifvqeh0","pricing_plan_id":"free"},{"bike_id":"6fd8a199-1ec9-406e-9435-8996d4a2fdea","system_id":"levelo_inurba_marseille","lat":43.291994,"lon":5.357886,"is_reserved":false,"is_disabled":false,"rental_uris":{"android":"levelo://app?vid=6fd8a199-1ec9-406e-9435-8996d4a2fdea","ios":"levelo://app?vid=6fd8a199-1ec9-406e-9435-8996d4a2fdea"},"vehicle_type_id":"4","last_reported":1686586074,"current_range_meters":5200,"station_id":"ce4bhb12rcd13ifvqel0","pricing_plan_id":"free"},{"bike_id":"20916745-7c23-479e-985a-b20ec0b9d5f4","system_id":"levelo_inurba_marseille","lat":43.3089,"lon":5.39636,"is_reserved":false,"is_disabled":false,"rental_uris":{"android":"levelo://app?vid=20916745-7c23-479e-985a-b20ec0b9d5f4","ios":"levelo://app?vid=20916745-7c23-479e-985a-b20ec0b9d5f4"},"vehicle_type_id":"4","last_reported":1686586074,"current_range_meters":31200,"station_id":"ce4bh012rcd13ifvqcv0","pricing_plan_id":"free"},{"bike_id":"bb94bdad-9d77-46d9-b0e3-b47769c617ef","system_id":"levelo_inurba_marseille","lat":43.31329,"lon":5.39688,"is_reserved":false,"is_disabled":false,"rental_uris":{"android":"levelo://app?vid=bb94bdad-9d77-46d9-b0e3-b47769c617ef","ios":"levelo://app?vid=bb94bdad-9d77-46d9-b0e3-b47769c617ef"},"vehicle_type_id":"4","last_reported":1686586074,"current_range_meters":12800,"station_id":"ce4bgvp2rcd13ifvqcu0","pricing_plan_id":"free"},{"bike_id":"ef98f965-784c-4906-be2b-a2d1747e1848","system_id":"levelo_inurba_marseille","lat":43.3089,"lon":5.39648,"is_reserved":false,"is_disabled":false,"rental_uris":{"android":"levelo://app?vid=ef98f965-784c-4906-be2b-a2d1747e1848","ios":"levelo://app?vid=ef98f965-784c-4906-be2b-a2d1747e1848"},"vehicle_type_id":"4","last_reported":1686586074,"current_range_meters":31600,"station_id":"ce4bh012rcd13ifvqcv0","pricing_plan_id":"free"},{"bike_id":"50a191c4-7b7f-4099-9e82-92c1517f077d","system_id":"levelo_inurba_marseille","lat":43.31327,"lon":5.39695,"is_reserved":false,"is_disabled":false,"rental_uris":{"android":"levelo://app?vid=50a191c4-7b7f-4099-9e82-92c1517f077d","ios":"levelo://app?vid=50a191c4-7b7f-4099-9e82-92c1517f077d"},"vehicle_type_id":"4","last_reported":1686586074,"current_range_meters":6000,"station_id":"ce4bgvp2rcd13ifvqcu0","pricing_plan_id":"free"},{"bike_id":"b9aae160-65e8-4a95-9920-1de8accd35c8","system_id":"levelo_inurba_marseille","lat":43.29531,"lon":5.38548,"is_reserved":false,"is_disabled":false,"rental_uris":{"android":"levelo://app?vid=b9aae160-65e8-4a95-9920-1de8accd35c8","ios":"levelo://app?vid=b9aae160-65e8-4a95-9920-1de8accd35c8"},"vehicle_type_id":"4","last_reported":1686586074,"current_range_meters":800,"station_id":"ce4bgih2rcd13ifvqba0","pricing_plan_id":"free"},{"bike_id":"f7186564-e709-4d93-a27d-ce31072a7e41","system_id":"levelo_inurba_marseille","lat":43.290779,"lon":5.371482,"is_reserved":false,"is_disabled":false,"rental_uris":{"android":"levelo://app?vid=f7186564-e709-4d93-a27d-ce31072a7e41","ios":"levelo://app?vid=f7186564-e709-4d93-a27d-ce31072a7e41"},"vehicle_type_id":"4","last_reported":1686586074,"current_range_meters":22400,"station_id":"ce4bh5p2rcd13ifvqe4g","pricing_plan_id":"free"},{"bike_id":"ef2bf487-3f69-44c1-a5e0-610a5f155334","system_id":"levelo_inurba_marseille","lat":43.302008,"lon":5.394694,"is_reserved":false,"is_disabled":false,"rental_uris":{"android":"levelo://app?vid=ef2bf487-3f69-44c1-a5e0-610a5f155334","ios":"levelo://app?vid=ef2bf487-3f69-44c1-a5e0-610a5f155334"},"vehicle_type_id":"4","last_reported":1686586074,"current_range_meters":8800,"station_id":"ce4bh0p2rcd13ifvqd70","pricing_plan_id":"free"},{"bike_id":"138cb9e8-6779-45dc-a7fb-05a7965c9d43","system_id":"levelo_inurba_marseille","lat":43.302008,"lon":5.394694,"is_reserved":false,"is_disabled":false,"rental_uris":{"android":"levelo://app?vid=138cb9e8-6779-45dc-a7fb-05a7965c9d43","ios":"levelo://app?vid=138cb9e8-6779-45dc-a7fb-05a7965c9d43"},"vehicle_type_id":"4","last_reported":1686586074,"current_range_meters":26800,"station_id":"ce4bh0p2rcd13ifvqd70","pricing_plan_id":"free"},{"bike_id":"5ae19657-9d40-4c18-b20b-d7c356a95e75","system_id":"levelo_inurba_marseille","lat":43.302008,"lon":5.394694,"is_reserved":false,"is_disabled":false,"rental_uris":{"android":"levelo://app?vid=5ae19657-9d40-4c18-b20b-d7c356a95e75","ios":"levelo://app?vid=5ae19657-9d40-4c18-b20b-d7c356a95e75"},"vehicle_type_id":"4","last_reported":1686586074,"current_range_meters":27200,"station_id":"ce4bh0p2rcd13ifvqd70","pricing_plan_id":"free"},{"bike_id":"54b0c8c6-516b-487b-a797-c520c4700299","system_id":"levelo_inurba_marseille","lat":43.294162,"lon":5.386292,"is_reserved":false,"is_disabled":false,"rental_uris":{"android":"levelo://app?vid=54b0c8c6-516b-487b-a797-c520c4700299","ios":"levelo://app?vid=54b0c8c6-516b-487b-a797-c520c4700299"},"vehicle_type_id":"4","last_reported":1686586074,"current_range_meters":1200,"station_id":"ce4bh2h2rcd13ifvqdh0","pricing_plan_id":"free"},{"bike_id":"48a499c1-a341-408c-8bde-8caf70e578c0","system_id":"levelo_inurba_marseille","lat":43.289184,"lon":5.366408,"is_reserved":false,"is_disabled":false,"rental_uris":{"android":"levelo://app?vid=48a499c1-a341-408c-8bde-8caf70e578c0","ios":"levelo://app?vid=48a499c1-a341-408c-8bde-8caf70e578c0"},"vehicle_type_id":"4","last_reported":1686586074,"current_range_meters":400,"station_id":"ce4bhap2rcd13ifvqek0","pricing_plan_id":"free"},{"bike_id":"068ff674-0ee7-4e17-a19f-ba7d56dd6f51","system_id":"levelo_inurba_marseille","lat":43.289184,"lon":5.366408,"is_reserved":false,"is_disabled":false,"rental_uris":{"android":"levelo://app?vid=068ff674-0ee7-4e17-a19f-ba7d56dd6f51","ios":"levelo://app?vid=068ff674-0ee7-4e17-a19f-ba7d56dd6f51"},"vehicle_type_id":"4","last_reported":1686586074,"current_range_meters":0,"station_id":"ce4bhap2rcd13ifvqek0","pricing_plan_id":"free"},{"bike_id":"8f71f87c-a4e9-4c60-8c97-bb616096f357","system_id":"levelo_inurba_marseille","lat":43.289184,"lon":5.366408,"is_reserved":false,"is_disabled":false,"rental_uris":{"android":"levelo://app?vid=8f71f87c-a4e9-4c60-8c97-bb616096f357","ios":"levelo://app?vid=8f71f87c-a4e9-4c60-8c97-bb616096f357"},"vehicle_type_id":"4","last_reported":1686586074,"current_range_meters":0,"station_id":"ce4bhap2rcd13ifvqek0","pricing_plan_id":"free"},{"bike_id":"9617900d-ea4e-4443-9b85-2aaacc0eedbd","system_id":"levelo_inurba_marseille","lat":43.28936,"lon":5.3664,"is_reserved":false,"is_disabled":false,"rental_uris":{"android":"levelo://app?vid=9617900d-ea4e-4443-9b85-2aaacc0eedbd","ios":"levelo://app?vid=9617900d-ea4e-4443-9b85-2aaacc0eedbd"},"vehicle_type_id":"4","last_reported":1686586074,"current_range_meters":17600,"station_id":"ce4bhap2rcd13ifvqek0","pricing_plan_id":"free"},{"bike_id":"0a4beee8-1d0b-40b6-a628-dd56857f4693","system_id":"levelo_inurba_marseille","lat":43.294032,"lon":5.386342,"is_reserved":false,"is_disabled":false,"rental_uris":{"android":"levelo://app?vid=0a4beee8-1d0b-40b6-a628-dd56857f4693","ios":"levelo://app?vid=0a4beee8-1d0b-40b6-a628-dd56857f4693"},"vehicle_type_id":"4","last_reported":1686586074,"current_range_meters":15600,"station_id":"","pricing_plan_id":"free"},{"bike_id":"b3c9ef53-3ada-4e6c-8609-9cf5908f76a3","system_id":"levelo_inurba_marseille","lat":43.304185,"lon":5.397385,"is_reserved":false,"is_disabled":false,"rental_uris":{"android":"levelo://app?vid=b3c9ef53-3ada-4e6c-8609-9cf5908f76a3","ios":"levelo://app?vid=b3c9ef53-3ada-4e6c-8609-9cf5908f76a3"},"vehicle_type_id":"4","last_reported":1686586074,"current_range_meters":2000,"station_id":"ce4bh0p2rcd13ifvqd80","pricing_plan_id":"free"},{"bike_id":"5ebf3b8a-718b-4bd8-ab2b-5a582dea5c55","system_id":"levelo_inurba_marseille","lat":43.292642,"lon":5.384254,"is_reserved":false,"is_disabled":false,"rental_uris":{"android":"levelo://app?vid=5ebf3b8a-718b-4bd8-ab2b-5a582dea5c55","ios":"levelo://app?vid=5ebf3b8a-718b-4bd8-ab2b-5a582dea5c55"},"vehicle_type_id":"4","last_reported":1686586074,"current_range_meters":9600,"station_id":"ce4bh692rcd13ifvqea0","pricing_plan_id":"free"},{"bike_id":"41927411-77db-4fe3-aae6-30b8a7bf0002","system_id":"levelo_inurba_marseille","lat":43.297814,"lon":5.393513,"is_reserved":false,"is_disabled":false,"rental_uris":{"android":"levelo://app?vid=41927411-77db-4fe3-aae6-30b8a7bf0002","ios":"levelo://app?vid=41927411-77db-4fe3-aae6-30b8a7bf0002"},"vehicle_type_id":"4","last_reported":1686586074,"current_range_meters":3600,"station_id":"chh1huq6cuj3fo74tm60","pricing_plan_id":"free"},{"bike_id":"7d22da58-a363-468b-b160-f9a6bd452157","system_id":"levelo_inurba_marseille","lat":43.309371,"lon":5.401449,"is_reserved":false,"is_disabled":false,"rental_uris":{"android":"levelo://app?vid=7d22da58-a363-468b-b160-f9a6bd452157","ios":"levelo://app?vid=7d22da58-a363-468b-b160-f9a6bd452157"},"vehicle_type_id":"4","last_reported":1686586074,"current_range_meters":0,"station_id":"ce4bgvp2rcd13ifvqct0","pricing_plan_id":"free"},{"bike_id":"3d175ac5-33d2-4b07-ad04-c3c070a0e455","system_id":"levelo_inurba_marseille","lat":43.30642,"lon":5.401031,"is_reserved":false,"is_disabled":false,"rental_uris":{"android":"levelo://app?vid=3d175ac5-33d2-4b07-ad04-c3c070a0e455","ios":"levelo://app?vid=3d175ac5-33d2-4b07-ad04-c3c070a0e455"},"vehicle_type_id":"4","last_reported":1686586074,"current_range_meters":20400,"station_id":"ce4bh112rcd13ifvqda0","pricing_plan_id":"free"},{"bike_id":"e2721c59-3d64-4f81-9ddc-f46a5167d597","system_id":"levelo_inurba_marseille","lat":43.301117,"lon":5.398795,"is_reserved":false,"is_disabled":false,"rental_uris":{"android":"levelo://app?vid=e2721c59-3d64-4f81-9ddc-f46a5167d597","ios":"levelo://app?vid=e2721c59-3d64-4f81-9ddc-f46a5167d597"},"vehicle_type_id":"4","last_reported":1686586074,"current_range_meters":18400,"station_id":"ce4bh0h2rcd13ifvqd40","pricing_plan_id":"free"},{"bike_id":"6b3a675a-c14f-4d1b-8bae-c2df998daeeb","system_id":"levelo_inurba_marseille","lat":43.301117,"lon":5.398795,"is_reserved":false,"is_disabled":false,"rental_uris":{"android":"levelo://app?vid=6b3a675a-c14f-4d1b-8bae-c2df998daeeb","ios":"levelo://app?vid=6b3a675a-c14f-4d1b-8bae-c2df998daeeb"},"vehicle_type_id":"4","last_reported":1686586074,"current_range_meters":17200,"station_id":"ce4bh0h2rcd13ifvqd40","pricing_plan_id":"free"},{"bike_id":"f81999ac-57d9-4bb9-b9d2-41d5e062ae4a","system_id":"levelo_inurba_marseille","lat":43.31172,"lon":5.40241,"is_reserved":false,"is_disabled":false,"rental_uris":{"android":"levelo://app?vid=f81999ac-57d9-4bb9-b9d2-41d5e062ae4a","ios":"levelo://app?vid=f81999ac-57d9-4bb9-b9d2-41d5e062ae4a"},"vehicle_type_id":"4","last_reported":1686586074,"current_range_meters":24800,"station_id":"","pricing_plan_id":"free"},{"bike_id":"1c355661-da39-41a4-b882-d12cd4be2891","system_id":"levelo_inurba_marseille","lat":43.286591,"lon":5.363346,"is_reserved":false,"is_disabled":false,"rental_uris":{"android":"levelo://app?vid=1c355661-da39-41a4-b882-d12cd4be2891","ios":"levelo://app?vid=1c355661-da39-41a4-b882-d12cd4be2891"},"vehicle_type_id":"4","last_reported":1686586074,"current_range_meters":15200,"station_id":"ce4bhah2rcd13ifvqej0","pricing_plan_id":"free"},{"bike_id":"af17827f-99ef-430a-aa42-4028060c2630","system_id":"levelo_inurba_marseille","lat":43.28701,"lon":5.37395,"is_reserved":false,"is_disabled":false,"rental_uris":{"android":"levelo://app?vid=af17827f-99ef-430a-aa42-4028060c2630","ios":"levelo://app?vid=af17827f-99ef-430a-aa42-4028060c2630"},"vehicle_type_id":"4","last_reported":1686586074,"current_range_meters":11200,"station_id":"","pricing_plan_id":"free"},{"bike_id":"d0a68aaf-e599-4909-924b-11efdafa36fb","system_id":"levelo_inurba_marseille","lat":43.28616,"lon":5.37055,"is_reserved":false,"is_disabled":false,"rental_uris":{"android":"levelo://app?vid=d0a68aaf-e599-4909-924b-11efdafa36fb","ios":"levelo://app?vid=d0a68aaf-e599-4909-924b-11efdafa36fb"},"vehicle_type_id":"4","last_reported":1686586074,"current_range_meters":17600,"station_id":"ce4bht12rcd13ifvqi60","pricing_plan_id":"free"},{"bike_id":"e57378d0-57c6-49b8-a89d-0815193b0fad","system_id":"levelo_inurba_marseille","lat":43.28611,"lon":5.37069,"is_reserved":false,"is_disabled":false,"rental_uris":{"android":"levelo://app?vid=e57378d0-57c6-49b8-a89d-0815193b0fad","ios":"levelo://app?vid=e57378d0-57c6-49b8-a89d-0815193b0fad"},"vehicle_type_id":"4","last_reported":1686586074,"current_range_meters":9200,"station_id":"ce4bht12rcd13ifvqi60","pricing_plan_id":"free"},{"bike_id":"f81f2f9a-8c64-4584-8e32-a333bd837755","system_id":"levelo_inurba_marseille","lat":43.316523,"lon":5.404367,"is_reserved":false,"is_disabled":false,"rental_uris":{"android":"levelo://app?vid=f81f2f9a-8c64-4584-8e32-a333bd837755","ios":"levelo://app?vid=f81f2f9a-8c64-4584-8e32-a333bd837755"},"vehicle_type_id":"4","last_reported":1686586074,"current_range_meters":5200,"station_id":"ce4bh012rcd13ifvqd00","pricing_plan_id":"free"},{"bike_id":"76e42831-ac8b-4b22-bf24-fb195b346021","system_id":"levelo_inurba_marseille","lat":43.316523,"lon":5.404367,"is_reserved":false,"is_disabled":false,"rental_uris":{"android":"levelo://app?vid=76e42831-ac8b-4b22-bf24-fb195b346021","ios":"levelo://app?vid=76e42831-ac8b-4b22-bf24-fb195b346021"},"vehicle_type_id":"4","last_reported":1686586074,"current_range_meters":7200,"station_id":"ce4bh012rcd13ifvqd00","pricing_plan_id":"free"},{"bike_id":"b0ad82a8-5ec4-4193-b8ea-580c59eb7935","system_id":"levelo_inurba_marseille","lat":43.30711,"lon":5.40528,"is_reserved":false,"is_disabled":false,"rental_uris":{"android":"levelo://app?vid=b0ad82a8-5ec4-4193-b8ea-580c59eb7935","ios":"levelo://app?vid=b0ad82a8-5ec4-4193-b8ea-580c59eb7935"},"vehicle_type_id":"4","last_reported":1686586074,"current_range_meters":4000,"station_id":"","pricing_plan_id":"free"},{"bike_id":"4e9d697d-3e98-4fb7-a314-c59413911df0","system_id":"levelo_inurba_marseille","lat":43.284534,"lon":5.358662,"is_reserved":false,"is_disabled":false,"rental_uris":{"android":"levelo://app?vid=4e9d697d-3e98-4fb7-a314-c59413911df0","ios":"levelo://app?vid=4e9d697d-3e98-4fb7-a314-c59413911df0"},"vehicle_type_id":"4","last_reported":1686586074,"current_range_meters":11200,"station_id":"ce4bhah2rcd13ifvqei0","pricing_plan_id":"free"},{"bike_id":"546cd94b-6a09-41b1-b86d-18d1e41fb2c8","system_id":"levelo_inurba_marseille","lat":43.284534,"lon":5.358662,"is_reserved":false,"is_disabled":false,"rental_uris":{"android":"levelo://app?vid=546cd94b-6a09-41b1-b86d-18d1e41fb2c8","ios":"levelo://app?vid=546cd94b-6a09-41b1-b86d-18d1e41fb2c8"},"vehicle_type_id":"4","last_reported":1686586074,"current_range_meters":21600,"station_id":"ce4bhah2rcd13ifvqei0","pricing_plan_id":"free"},{"bike_id":"843c6544-b85b-47e9-b499-4efde0dded2b","system_id":"levelo_inurba_marseille","lat":43.285848,"lon":5.350787,"is_reserved":false,"is_disabled":false,"rental_uris":{"android":"levelo://app?vid=843c6544-b85b-47e9-b499-4efde0dded2b","ios":"levelo://app?vid=843c6544-b85b-47e9-b499-4efde0dded2b"},"vehicle_type_id":"4","last_reported":1686586074,"current_range_meters":10400,"station_id":"ce4bhch2rcd13ifvqeug","pricing_plan_id":"free"},{"bike_id":"a492d40b-9828-4c27-9b87-fd0081b9098e","system_id":"levelo_inurba_marseille","lat":43.285856,"lon":5.350771,"is_reserved":false,"is_disabled":false,"rental_uris":{"android":"levelo://app?vid=a492d40b-9828-4c27-9b87-fd0081b9098e","ios":"levelo://app?vid=a492d40b-9828-4c27-9b87-fd0081b9098e"},"vehicle_type_id":"4","last_reported":1686586074,"current_range_meters":24800,"station_id":"ce4bhch2rcd13ifvqeug","pricing_plan_id":"free"},{"bike_id":"52215295-726b-4c04-9d3a-a979bbd8c9d2","system_id":"levelo_inurba_marseille","lat":43.285848,"lon":5.350787,"is_reserved":false,"is_disabled":false,"rental_uris":{"android":"levelo://app?vid=52215295-726b-4c04-9d3a-a979bbd8c9d2","ios":"levelo://app?vid=52215295-726b-4c04-9d3a-a979bbd8c9d2"},"vehicle_type_id":"4","last_reported":1686586074,"current_range_meters":2800,"station_id":"ce4bhch2rcd13ifvqeug","pricing_plan_id":"free"},{"bike_id":"b2850223-59e5-410c-99b2-e26d8b26f898","system_id":"levelo_inurba_marseille","lat":43.285848,"lon":5.350787,"is_reserved":false,"is_disabled":false,"rental_uris":{"android":"levelo://app?vid=b2850223-59e5-410c-99b2-e26d8b26f898","ios":"levelo://app?vid=b2850223-59e5-410c-99b2-e26d8b26f898"},"vehicle_type_id":"4","last_reported":1686586074,"current_range_meters":23600,"station_id":"ce4bhch2rcd13ifvqeug","pricing_plan_id":"free"},{"bike_id":"5d6a64ae-f7e9-4615-9dd0-3a25a37557ce","system_id":"levelo_inurba_marseille","lat":43.296263,"lon":5.40601,"is_reserved":false,"is_disabled":false,"rental_uris":{"android":"levelo://app?vid=5d6a64ae-f7e9-4615-9dd0-3a25a37557ce","ios":"levelo://app?vid=5d6a64ae-f7e9-4615-9dd0-3a25a37557ce"},"vehicle_type_id":"4","last_reported":1686586074,"current_range_meters":16800,"station_id":"ce4bh0h2rcd13ifvqd60","pricing_plan_id":"free"},{"bike_id":"5fc8293f-7100-4c17-9023-981b82c610d1","system_id":"levelo_inurba_marseille","lat":43.28548,"lon":5.35048,"is_reserved":false,"is_disabled":false,"rental_uris":{"android":"levelo://app?vid=5fc8293f-7100-4c17-9023-981b82c610d1","ios":"levelo://app?vid=5fc8293f-7100-4c17-9023-981b82c610d1"},"vehicle_type_id":"4","last_reported":1686586074,"current_range_meters":4000,"station_id":"ce4bhbh2rcd13ifvqepg","pricing_plan_id":"free"},{"bike_id":"69c133a3-4c45-4b28-8576-a8ccdf3aeab4","system_id":"levelo_inurba_marseille","lat":43.323464,"lon":5.406297,"is_reserved":false,"is_disabled":false,"rental_uris":{"android":"levelo://app?vid=69c133a3-4c45-4b28-8576-a8ccdf3aeab4","ios":"levelo://app?vid=69c133a3-4c45-4b28-8576-a8ccdf3aeab4"},"vehicle_type_id":"4","last_reported":1686586074,"current_range_meters":29200,"station_id":"ce4bhq92rcd13ifvqhjg","pricing_plan_id":"free"},{"bike_id":"d64b7006-3ab2-424e-882f-f54d5cfa3875","system_id":"levelo_inurba_marseille","lat":43.323464,"lon":5.406297,"is_reserved":false,"is_disabled":false,"rental_uris":{"android":"levelo://app?vid=d64b7006-3ab2-424e-882f-f54d5cfa3875","ios":"levelo://app?vid=d64b7006-3ab2-424e-882f-f54d5cfa3875"},"vehicle_type_id":"4","last_reported":1686586074,"current_range_meters":16400,"station_id":"ce4bhq92rcd13ifvqhjg","pricing_plan_id":"free"},{"bike_id":"f07b1990-f4df-4ca5-823e-301a1513869e","system_id":"levelo_inurba_marseille","lat":43.323464,"lon":5.406297,"is_reserved":false,"is_disabled":false,"rental_uris":{"android":"levelo://app?vid=f07b1990-f4df-4ca5-823e-301a1513869e","ios":"levelo://app?vid=f07b1990-f4df-4ca5-823e-301a1513869e"},"vehicle_type_id":"4","last_reported":1686586074,"current_range_meters":8000,"station_id":"ce4bhq92rcd13ifvqhjg","pricing_plan_id":"free"},{"bike_id":"78ca187b-bc81-4336-9d3c-21508239d677","system_id":"levelo_inurba_marseille","lat":43.323464,"lon":5.406297,"is_reserved":false,"is_disabled":false,"rental_uris":{"android":"levelo://app?vid=78ca187b-bc81-4336-9d3c-21508239d677","ios":"levelo://app?vid=78ca187b-bc81-4336-9d3c-21508239d677"},"vehicle_type_id":"4","last_reported":1686586074,"current_range_meters":18400,"station_id":"ce4bhq92rcd13ifvqhjg","pricing_plan_id":"free"},{"bike_id":"eca3f919-b931-4ab9-846e-b60cf3fa0f70","system_id":"levelo_inurba_marseille","lat":43.28507,"lon":5.38527,"is_reserved":false,"is_disabled":false,"rental_uris":{"android":"levelo://app?vid=eca3f919-b931-4ab9-846e-b60cf3fa0f70","ios":"levelo://app?vid=eca3f919-b931-4ab9-846e-b60cf3fa0f70"},"vehicle_type_id":"4","last_reported":1686586074,"current_range_meters":19600,"station_id":"","pricing_plan_id":"free"},{"bike_id":"a7958d5d-5b23-4945-b4e8-cf488924797d","system_id":"levelo_inurba_marseille","lat":43.288501,"lon":5.393087,"is_reserved":false,"is_disabled":false,"rental_uris":{"android":"levelo://app?vid=a7958d5d-5b23-4945-b4e8-cf488924797d","ios":"levelo://app?vid=a7958d5d-5b23-4945-b4e8-cf488924797d"},"vehicle_type_id":"4","last_reported":1686586074,"current_range_meters":28400,"station_id":"ce4bh2p2rcd13ifvqdi0","pricing_plan_id":"free"},{"bike_id":"8bc30cf6-a629-4726-8378-475ab5e100e4","system_id":"levelo_inurba_marseille","lat":43.283494,"lon":5.380945,"is_reserved":false,"is_disabled":false,"rental_uris":{"android":"levelo://app?vid=8bc30cf6-a629-4726-8378-475ab5e100e4","ios":"levelo://app?vid=8bc30cf6-a629-4726-8378-475ab5e100e4"},"vehicle_type_id":"4","last_reported":1686586074,"current_range_meters":0,"station_id":"ce4bh412rcd13ifvqdr0","pricing_plan_id":"free"},{"bike_id":"dac5a86c-5c5a-4e5a-b053-ebc739732f88","system_id":"levelo_inurba_marseille","lat":43.284219,"lon":5.3497,"is_reserved":false,"is_disabled":false,"rental_uris":{"android":"levelo://app?vid=dac5a86c-5c5a-4e5a-b053-ebc739732f88","ios":"levelo://app?vid=dac5a86c-5c5a-4e5a-b053-ebc739732f88"},"vehicle_type_id":"4","last_reported":1686586074,"current_range_meters":31200,"station_id":"ce4bhbh2rcd13ifvqepg","pricing_plan_id":"free"},{"bike_id":"d11d17aa-d9af-4db5-bbff-27d69777f8ea","system_id":"levelo_inurba_marseille","lat":43.2842,"lon":5.35005,"is_reserved":false,"is_disabled":false,"rental_uris":{"android":"levelo://app?vid=d11d17aa-d9af-4db5-bbff-27d69777f8ea","ios":"levelo://app?vid=d11d17aa-d9af-4db5-bbff-27d69777f8ea"},"vehicle_type_id":"4","last_reported":1686586074,"current_range_meters":31200,"station_id":"ce4bhbh2rcd13ifvqepg","pricing_plan_id":"free"},{"bike_id":"6be06d62-3a4e-478b-a95b-d9f3c0cc341b","system_id":"levelo_inurba_marseille","lat":43.28419,"lon":5.35005,"is_reserved":false,"is_disabled":false,"rental_uris":{"android":"levelo://app?vid=6be06d62-3a4e-478b-a95b-d9f3c0cc341b","ios":"levelo://app?vid=6be06d62-3a4e-478b-a95b-d9f3c0cc341b"},"vehicle_type_id":"4","last_reported":1686586074,"current_range_meters":31200,"station_id":"ce4bhbh2rcd13ifvqepg","pricing_plan_id":"free"},{"bike_id":"603a6f77-7018-4909-b272-d6458a61e8fd","system_id":"levelo_inurba_marseille","lat":43.28421,"lon":5.34998,"is_reserved":false,"is_disabled":false,"rental_uris":{"android":"levelo://app?vid=603a6f77-7018-4909-b272-d6458a61e8fd","ios":"levelo://app?vid=603a6f77-7018-4909-b272-d6458a61e8fd"},"vehicle_type_id":"4","last_reported":1686586074,"current_range_meters":31200,"station_id":"ce4bhbh2rcd13ifvqepg","pricing_plan_id":"free"},{"bike_id":"014a6ee9-e10f-4fb7-a5d4-6d70c6774c20","system_id":"levelo_inurba_marseille","lat":43.2842,"lon":5.35001,"is_reserved":false,"is_disabled":false,"rental_uris":{"android":"levelo://app?vid=014a6ee9-e10f-4fb7-a5d4-6d70c6774c20","ios":"levelo://app?vid=014a6ee9-e10f-4fb7-a5d4-6d70c6774c20"},"vehicle_type_id":"4","last_reported":1686586074,"current_range_meters":11600,"station_id":"ce4bhbh2rcd13ifvqepg","pricing_plan_id":"free"},{"bike_id":"9dbfe7f3-470d-4faf-b63e-c31431a36191","system_id":"levelo_inurba_marseille","lat":43.28421,"lon":5.34996,"is_reserved":false,"is_disabled":false,"rental_uris":{"android":"levelo://app?vid=9dbfe7f3-470d-4faf-b63e-c31431a36191","ios":"levelo://app?vid=9dbfe7f3-470d-4faf-b63e-c31431a36191"},"vehicle_type_id":"4","last_reported":1686586074,"current_range_meters":2800,"station_id":"ce4bhbh2rcd13ifvqepg","pricing_plan_id":"free"},{"bike_id":"39212c28-fbd8-4031-969c-e82e5a971906","system_id":"levelo_inurba_marseille","lat":43.2842,"lon":5.34999,"is_reserved":false,"is_disabled":false,"rental_uris":{"android":"levelo://app?vid=39212c28-fbd8-4031-969c-e82e5a971906","ios":"levelo://app?vid=39212c28-fbd8-4031-969c-e82e5a971906"},"vehicle_type_id":"4","last_reported":1686586074,"current_range_meters":14000,"station_id":"ce4bhbh2rcd13ifvqepg","pricing_plan_id":"free"},{"bike_id":"a2255058-2727-4f9d-abdf-0f579e1fbc60","system_id":"levelo_inurba_marseille","lat":43.284219,"lon":5.3497,"is_reserved":false,"is_disabled":false,"rental_uris":{"android":"levelo://app?vid=a2255058-2727-4f9d-abdf-0f579e1fbc60","ios":"levelo://app?vid=a2255058-2727-4f9d-abdf-0f579e1fbc60"},"vehicle_type_id":"4","last_reported":1686586074,"current_range_meters":29600,"station_id":"ce4bhbh2rcd13ifvqepg","pricing_plan_id":"free"},{"bike_id":"96903d02-08c7-4cc7-be9c-e6b12f668bdb","system_id":"levelo_inurba_marseille","lat":43.28422,"lon":5.34979,"is_reserved":false,"is_disabled":false,"rental_uris":{"android":"levelo://app?vid=96903d02-08c7-4cc7-be9c-e6b12f668bdb","ios":"levelo://app?vid=96903d02-08c7-4cc7-be9c-e6b12f668bdb"},"vehicle_type_id":"4","last_reported":1686586074,"current_range_meters":12800,"station_id":"ce4bhbh2rcd13ifvqepg","pricing_plan_id":"free"},{"bike_id":"359d909a-2abf-45dc-8db0-7e80b52f8592","system_id":"levelo_inurba_marseille","lat":43.28419,"lon":5.34982,"is_reserved":false,"is_disabled":false,"rental_uris":{"android":"levelo://app?vid=359d909a-2abf-45dc-8db0-7e80b52f8592","ios":"levelo://app?vid=359d909a-2abf-45dc-8db0-7e80b52f8592"},"vehicle_type_id":"4","last_reported":1686586074,"current_range_meters":0,"station_id":"ce4bhbh2rcd13ifvqepg","pricing_plan_id":"free"},{"bike_id":"280a9aaf-a24d-4902-b94b-d79b38a74772","system_id":"levelo_inurba_marseille","lat":43.2842,"lon":5.34973,"is_reserved":false,"is_disabled":false,"rental_uris":{"android":"levelo://app?vid=280a9aaf-a24d-4902-b94b-d79b38a74772","ios":"levelo://app?vid=280a9aaf-a24d-4902-b94b-d79b38a74772"},"vehicle_type_id":"4","last_reported":1686586074,"current_range_meters":0,"station_id":"ce4bhbh2rcd13ifvqepg","pricing_plan_id":"free"},{"bike_id":"e8523406-82df-44fe-9bfc-791bc4271361","system_id":"levelo_inurba_marseille","lat":43.284203,"lon":5.349709,"is_reserved":false,"is_disabled":false,"rental_uris":{"android":"levelo://app?vid=e8523406-82df-44fe-9bfc-791bc4271361","ios":"levelo://app?vid=e8523406-82df-44fe-9bfc-791bc4271361"},"vehicle_type_id":"4","last_reported":1686586074,"current_range_meters":14000,"station_id":"ce4bhbh2rcd13ifvqepg","pricing_plan_id":"free"},{"bike_id":"3ec8aad0-b42a-4cbe-81cd-d123056be0a5","system_id":"levelo_inurba_marseille","lat":43.28416,"lon":5.3498,"is_reserved":false,"is_disabled":false,"rental_uris":{"android":"levelo://app?vid=3ec8aad0-b42a-4cbe-81cd-d123056be0a5","ios":"levelo://app?vid=3ec8aad0-b42a-4cbe-81cd-d123056be0a5"},"vehicle_type_id":"4","last_reported":1686586074,"current_range_meters":12800,"station_id":"ce4bhbh2rcd13ifvqepg","pricing_plan_id":"free"},{"bike_id":"d184e8fa-c4cf-4e50-98e8-f3ad0bf85fbd","system_id":"levelo_inurba_marseille","lat":43.28411,"lon":5.34976,"is_reserved":false,"is_disabled":false,"rental_uris":{"android":"levelo://app?vid=d184e8fa-c4cf-4e50-98e8-f3ad0bf85fbd","ios":"levelo://app?vid=d184e8fa-c4cf-4e50-98e8-f3ad0bf85fbd"},"vehicle_type_id":"4","last_reported":1686586074,"current_range_meters":15600,"station_id":"ce4bhbh2rcd13ifvqepg","pricing_plan_id":"free"},{"bike_id":"897395b2-b7f2-4fcc-aaf2-5f3c89caab9a","system_id":"levelo_inurba_marseille","lat":43.28411,"lon":5.34973,"is_reserved":false,"is_disabled":false,"rental_uris":{"android":"levelo://app?vid=897395b2-b7f2-4fcc-aaf2-5f3c89caab9a","ios":"levelo://app?vid=897395b2-b7f2-4fcc-aaf2-5f3c89caab9a"},"vehicle_type_id":"4","last_reported":1686586074,"current_range_meters":8000,"station_id":"ce4bhbh2rcd13ifvqepg","pricing_plan_id":"free"},{"bike_id":"9edc13cd-f5ea-4a55-a7b0-c2f3e14aebb7","system_id":"levelo_inurba_marseille","lat":43.289363,"lon":5.396322,"is_reserved":false,"is_disabled":false,"rental_uris":{"android":"levelo://app?vid=9edc13cd-f5ea-4a55-a7b0-c2f3e14aebb7","ios":"levelo://app?vid=9edc13cd-f5ea-4a55-a7b0-c2f3e14aebb7"},"vehicle_type_id":"4","last_reported":1686586074,"current_range_meters":21200,"station_id":"ce4bh3h2rcd13ifvqdn0","pricing_plan_id":"free"},{"bike_id":"4fe99303-df5c-4ada-9f22-4b82e31a0f59","system_id":"levelo_inurba_marseille","lat":43.28274,"lon":5.38122,"is_reserved":false,"is_disabled":false,"rental_uris":{"android":"levelo://app?vid=4fe99303-df5c-4ada-9f22-4b82e31a0f59","ios":"levelo://app?vid=4fe99303-df5c-4ada-9f22-4b82e31a0f59"},"vehicle_type_id":"4","last_reported":1686586074,"current_range_meters":30400,"station_id":"","pricing_plan_id":"free"},{"bike_id":"43495500-efb8-48b4-b690-a31026557c83","system_id":"levelo_inurba_marseille","lat":43.28274,"lon":5.35072,"is_reserved":false,"is_disabled":false,"rental_uris":{"android":"levelo://app?vid=43495500-efb8-48b4-b690-a31026557c83","ios":"levelo://app?vid=43495500-efb8-48b4-b690-a31026557c83"},"vehicle_type_id":"4","last_reported":1686586074,"current_range_meters":21200,"station_id":"ce4bhbp2rcd13ifvqerg","pricing_plan_id":"free"},{"bike_id":"64582231-fe6a-4e3c-ac6e-0d5cff442bed","system_id":"levelo_inurba_marseille","lat":43.28271,"lon":5.35077,"is_reserved":false,"is_disabled":false,"rental_uris":{"android":"levelo://app?vid=64582231-fe6a-4e3c-ac6e-0d5cff442bed","ios":"levelo://app?vid=64582231-fe6a-4e3c-ac6e-0d5cff442bed"},"vehicle_type_id":"4","last_reported":1686586074,"current_range_meters":14800,"station_id":"ce4bhbp2rcd13ifvqerg","pricing_plan_id":"free"},{"bike_id":"4aeb8eac-e4ed-440d-b06f-4415c6e790ac","system_id":"levelo_inurba_marseille","lat":43.28268,"lon":5.35075,"is_reserved":false,"is_disabled":false,"rental_uris":{"android":"levelo://app?vid=4aeb8eac-e4ed-440d-b06f-4415c6e790ac","ios":"levelo://app?vid=4aeb8eac-e4ed-440d-b06f-4415c6e790ac"},"vehicle_type_id":"4","last_reported":1686586074,"current_range_meters":4000,"station_id":"ce4bhbp2rcd13ifvqerg","pricing_plan_id":"free"},{"bike_id":"447a9719-c46a-4e3f-bae5-6e6730fa97bf","system_id":"levelo_inurba_marseille","lat":43.282744,"lon":5.350533,"is_reserved":false,"is_disabled":false,"rental_uris":{"android":"levelo://app?vid=447a9719-c46a-4e3f-bae5-6e6730fa97bf","ios":"levelo://app?vid=447a9719-c46a-4e3f-bae5-6e6730fa97bf"},"vehicle_type_id":"4","last_reported":1686586074,"current_range_meters":13600,"station_id":"ce4bhbp2rcd13ifvqerg","pricing_plan_id":"free"},{"bike_id":"f12ab028-19ff-4c2b-a8d6-458a5e8ae418","system_id":"levelo_inurba_marseille","lat":43.28266,"lon":5.35078,"is_reserved":false,"is_disabled":false,"rental_uris":{"android":"levelo://app?vid=f12ab028-19ff-4c2b-a8d6-458a5e8ae418","ios":"levelo://app?vid=f12ab028-19ff-4c2b-a8d6-458a5e8ae418"},"vehicle_type_id":"4","last_reported":1686586074,"current_range_meters":9200,"station_id":"","pricing_plan_id":"free"},{"bike_id":"d265b785-0b55-4756-8ed4-007117a6fd3d","system_id":"levelo_inurba_marseille","lat":43.28266,"lon":5.35078,"is_reserved":false,"is_disabled":false,"rental_uris":{"android":"levelo://app?vid=d265b785-0b55-4756-8ed4-007117a6fd3d","ios":"levelo://app?vid=d265b785-0b55-4756-8ed4-007117a6fd3d"},"vehicle_type_id":"4","last_reported":1686586074,"current_range_meters":16800,"station_id":"ce4bhbp2rcd13ifvqerg","pricing_plan_id":"free"},{"bike_id":"631c62ba-41ef-49a3-892b-ec1fd253c9df","system_id":"levelo_inurba_marseille","lat":43.282754,"lon":5.350519,"is_reserved":false,"is_disabled":false,"rental_uris":{"android":"levelo://app?vid=631c62ba-41ef-49a3-892b-ec1fd253c9df","ios":"levelo://app?vid=631c62ba-41ef-49a3-892b-ec1fd253c9df"},"vehicle_type_id":"4","last_reported":1686586074,"current_range_meters":27200,"station_id":"ce4bhbp2rcd13ifvqerg","pricing_plan_id":"free"},{"bike_id":"85bf7916-6b04-41fc-9f50-4f62e75f8635","system_id":"levelo_inurba_marseille","lat":43.28263,"lon":5.35084,"is_reserved":false,"is_disabled":false,"rental_uris":{"android":"levelo://app?vid=85bf7916-6b04-41fc-9f50-4f62e75f8635","ios":"levelo://app?vid=85bf7916-6b04-41fc-9f50-4f62e75f8635"},"vehicle_type_id":"4","last_reported":1686586074,"current_range_meters":0,"station_id":"","pricing_plan_id":"free"},{"bike_id":"3d5b6468-40a3-4e34-8903-0a3dd09ff54f","system_id":"levelo_inurba_marseille","lat":43.28266,"lon":5.35072,"is_reserved":false,"is_disabled":false,"rental_uris":{"android":"levelo://app?vid=3d5b6468-40a3-4e34-8903-0a3dd09ff54f","ios":"levelo://app?vid=3d5b6468-40a3-4e34-8903-0a3dd09ff54f"},"vehicle_type_id":"4","last_reported":1686586074,"current_range_meters":18400,"station_id":"ce4bhbp2rcd13ifvqerg","pricing_plan_id":"free"},{"bike_id":"a7b32356-b276-4bd3-9420-a084a62e4312","system_id":"levelo_inurba_marseille","lat":43.28265,"lon":5.35072,"is_reserved":false,"is_disabled":false,"rental_uris":{"android":"levelo://app?vid=a7b32356-b276-4bd3-9420-a084a62e4312","ios":"levelo://app?vid=a7b32356-b276-4bd3-9420-a084a62e4312"},"vehicle_type_id":"4","last_reported":1686586074,"current_range_meters":0,"station_id":"","pricing_plan_id":"free"},{"bike_id":"c636e19d-dda6-48e3-9afc-818bdd489af3","system_id":"levelo_inurba_marseille","lat":43.28266,"lon":5.35067,"is_reserved":false,"is_disabled":false,"rental_uris":{"android":"levelo://app?vid=c636e19d-dda6-48e3-9afc-818bdd489af3","ios":"levelo://app?vid=c636e19d-dda6-48e3-9afc-818bdd489af3"},"vehicle_type_id":"4","last_reported":1686586074,"current_range_meters":400,"station_id":"","pricing_plan_id":"free"},{"bike_id":"25d4a95b-63dc-40f6-ab61-47f52eddc895","system_id":"levelo_inurba_marseille","lat":43.283502,"lon":5.386471,"is_reserved":false,"is_disabled":false,"rental_uris":{"android":"levelo://app?vid=25d4a95b-63dc-40f6-ab61-47f52eddc895","ios":"levelo://app?vid=25d4a95b-63dc-40f6-ab61-47f52eddc895"},"vehicle_type_id":"4","last_reported":1686586074,"current_range_meters":9600,"station_id":"ce4bh492rcd13ifvqdvg","pricing_plan_id":"free"},{"bike_id":"c36d8e94-e4dd-4d60-9b9f-ae90365a8823","system_id":"levelo_inurba_marseille","lat":43.283502,"lon":5.386471,"is_reserved":false,"is_disabled":false,"rental_uris":{"android":"levelo://app?vid=c36d8e94-e4dd-4d60-9b9f-ae90365a8823","ios":"levelo://app?vid=c36d8e94-e4dd-4d60-9b9f-ae90365a8823"},"vehicle_type_id":"4","last_reported":1686586074,"current_range_meters":4800,"station_id":"ce4bh492rcd13ifvqdvg","pricing_plan_id":"free"},{"bike_id":"809cb7da-dd90-4eb3-8142-21f78b1915a4","system_id":"levelo_inurba_marseille","lat":43.283502,"lon":5.386471,"is_reserved":false,"is_disabled":false,"rental_uris":{"android":"levelo://app?vid=809cb7da-dd90-4eb3-8142-21f78b1915a4","ios":"levelo://app?vid=809cb7da-dd90-4eb3-8142-21f78b1915a4"},"vehicle_type_id":"4","last_reported":1686586074,"current_range_meters":3200,"station_id":"ce4bh492rcd13ifvqdvg","pricing_plan_id":"free"},{"bike_id":"592deedf-f4dc-4fe4-b272-ca7adc3ece27","system_id":"levelo_inurba_marseille","lat":43.28354,"lon":5.38634,"is_reserved":false,"is_disabled":false,"rental_uris":{"android":"levelo://app?vid=592deedf-f4dc-4fe4-b272-ca7adc3ece27","ios":"levelo://app?vid=592deedf-f4dc-4fe4-b272-ca7adc3ece27"},"vehicle_type_id":"4","last_reported":1686586074,"current_range_meters":0,"station_id":"ce4bh492rcd13ifvqdvg","pricing_plan_id":"free"},{"bike_id":"be02d7f2-d731-4f47-b830-4d083c037a07","system_id":"levelo_inurba_marseille","lat":43.281044,"lon":5.378308,"is_reserved":false,"is_disabled":false,"rental_uris":{"android":"levelo://app?vid=be02d7f2-d731-4f47-b830-4d083c037a07","ios":"levelo://app?vid=be02d7f2-d731-4f47-b830-4d083c037a07"},"vehicle_type_id":"4","last_reported":1686586074,"current_range_meters":0,"station_id":"ce4bha12rcd13ifvqee0","pricing_plan_id":"free"},{"bike_id":"355a6fcc-3804-45a0-b7c4-a45b6505e89d","system_id":"levelo_inurba_marseille","lat":43.284793,"lon":5.384119,"is_reserved":false,"is_disabled":false,"rental_uris":{"android":"levelo://app?vid=355a6fcc-3804-45a0-b7c4-a45b6505e89d","ios":"levelo://app?vid=355a6fcc-3804-45a0-b7c4-a45b6505e89d"},"vehicle_type_id":"4","last_reported":1686586074,"current_range_meters":20800,"station_id":"ce4bh512rcd13ifvqe3g","pricing_plan_id":"free"},{"bike_id":"1cf9f1e0-ae41-4213-97c6-ea1bee29b9c6","system_id":"levelo_inurba_marseille","lat":43.284462,"lon":5.392121,"is_reserved":false,"is_disabled":false,"rental_uris":{"android":"levelo://app?vid=1cf9f1e0-ae41-4213-97c6-ea1bee29b9c6","ios":"levelo://app?vid=1cf9f1e0-ae41-4213-97c6-ea1bee29b9c6"},"vehicle_type_id":"4","last_reported":1686586074,"current_range_meters":2000,"station_id":"ce4bhoh2rcd13ifvqh5g","pricing_plan_id":"free"},{"bike_id":"9c00b486-374a-499b-b23c-f92e4c735a7c","system_id":"levelo_inurba_marseille","lat":43.326605,"lon":5.409903,"is_reserved":false,"is_disabled":false,"rental_uris":{"android":"levelo://app?vid=9c00b486-374a-499b-b23c-f92e4c735a7c","ios":"levelo://app?vid=9c00b486-374a-499b-b23c-f92e4c735a7c"},"vehicle_type_id":"4","last_reported":1686586074,"current_range_meters":800,"station_id":"ce4bhpp2rcd13ifvqhgg","pricing_plan_id":"free"},{"bike_id":"738934ad-50b4-4d57-b6d5-7406ee6be347","system_id":"levelo_inurba_marseille","lat":43.320045,"lon":5.415048,"is_reserved":false,"is_disabled":false,"rental_uris":{"android":"levelo://app?vid=738934ad-50b4-4d57-b6d5-7406ee6be347","ios":"levelo://app?vid=738934ad-50b4-4d57-b6d5-7406ee6be347"},"vehicle_type_id":"4","last_reported":1686586074,"current_range_meters":16800,"station_id":"ce4bhq92rcd13ifvqhkg","pricing_plan_id":"free"},{"bike_id":"7cc504f9-b5f2-4675-8a0a-bb101a1cbf1d","system_id":"levelo_inurba_marseille","lat":43.287154,"lon":5.399979,"is_reserved":false,"is_disabled":false,"rental_uris":{"android":"levelo://app?vid=7cc504f9-b5f2-4675-8a0a-bb101a1cbf1d","ios":"levelo://app?vid=7cc504f9-b5f2-4675-8a0a-bb101a1cbf1d"},"vehicle_type_id":"4","last_reported":1686586074,"current_range_meters":9200,"station_id":"ce4bho92rcd13ifvqh3g","pricing_plan_id":"free"},{"bike_id":"af56e4c4-226a-4312-846f-d7cdefc76d71","system_id":"levelo_inurba_marseille","lat":43.320045,"lon":5.415046,"is_reserved":false,"is_disabled":false,"rental_uris":{"android":"levelo://app?vid=af56e4c4-226a-4312-846f-d7cdefc76d71","ios":"levelo://app?vid=af56e4c4-226a-4312-846f-d7cdefc76d71"},"vehicle_type_id":"4","last_reported":1686586074,"current_range_meters":17600,"station_id":"ce4bhq92rcd13ifvqhkg","pricing_plan_id":"free"},{"bike_id":"d5baa157-422a-4037-881a-d16b0b5c3885","system_id":"levelo_inurba_marseille","lat":43.292569,"lon":5.409107,"is_reserved":false,"is_disabled":false,"rental_uris":{"android":"levelo://app?vid=d5baa157-422a-4037-881a-d16b0b5c3885","ios":"levelo://app?vid=d5baa157-422a-4037-881a-d16b0b5c3885"},"vehicle_type_id":"4","last_reported":1686586074,"current_range_meters":8000,"station_id":"ce4bh192rcd13ifvqdc0","pricing_plan_id":"free"},{"bike_id":"639c1e50-f511-4099-826d-160873c2e796","system_id":"levelo_inurba_marseille","lat":43.29262,"lon":5.40915,"is_reserved":false,"is_disabled":false,"rental_uris":{"android":"levelo://app?vid=639c1e50-f511-4099-826d-160873c2e796","ios":"levelo://app?vid=639c1e50-f511-4099-826d-160873c2e796"},"vehicle_type_id":"4","last_reported":1686586074,"current_range_meters":29600,"station_id":"ce4bh192rcd13ifvqdc0","pricing_plan_id":"free"},{"bike_id":"e85ab91c-5483-4d08-a966-a53dc4060bf4","system_id":"levelo_inurba_marseille","lat":43.27623,"lon":5.3612,"is_reserved":false,"is_disabled":false,"rental_uris":{"android":"levelo://app?vid=e85ab91c-5483-4d08-a966-a53dc4060bf4","ios":"levelo://app?vid=e85ab91c-5483-4d08-a966-a53dc4060bf4"},"vehicle_type_id":"4","last_reported":1686586074,"current_range_meters":1200,"station_id":"ce4bgj92rcd13ifvqbe0","pricing_plan_id":"free"},{"bike_id":"3341ce71-1dcd-405c-876d-b27a2c9656ee","system_id":"levelo_inurba_marseille","lat":43.27621,"lon":5.36105,"is_reserved":false,"is_disabled":false,"rental_uris":{"android":"levelo://app?vid=3341ce71-1dcd-405c-876d-b27a2c9656ee","ios":"levelo://app?vid=3341ce71-1dcd-405c-876d-b27a2c9656ee"},"vehicle_type_id":"4","last_reported":1686586074,"current_range_meters":3600,"station_id":"ce4bgj92rcd13ifvqbe0","pricing_plan_id":"free"},{"bike_id":"d731976b-d2f5-46b5-955a-d17e012a8b1a","system_id":"levelo_inurba_marseille","lat":43.27619,"lon":5.36108,"is_reserved":false,"is_disabled":false,"rental_uris":{"android":"levelo://app?vid=d731976b-d2f5-46b5-955a-d17e012a8b1a","ios":"levelo://app?vid=d731976b-d2f5-46b5-955a-d17e012a8b1a"},"vehicle_type_id":"4","last_reported":1686586074,"current_range_meters":17200,"station_id":"ce4bgj92rcd13ifvqbe0","pricing_plan_id":"free"},{"bike_id":"73ab0383-3a0c-477a-918d-7da9143102b6","system_id":"levelo_inurba_marseille","lat":43.32542,"lon":5.41441,"is_reserved":false,"is_disabled":false,"rental_uris":{"android":"levelo://app?vid=73ab0383-3a0c-477a-918d-7da9143102b6","ios":"levelo://app?vid=73ab0383-3a0c-477a-918d-7da9143102b6"},"vehicle_type_id":"4","last_reported":1686586074,"current_range_meters":28400,"station_id":"ce4bhq12rcd13ifvqhhg","pricing_plan_id":"free"},{"bike_id":"2f444495-dafb-4a27-a7bb-caa72a132170","system_id":"levelo_inurba_marseille","lat":43.27617,"lon":5.36109,"is_reserved":false,"is_disabled":false,"rental_uris":{"android":"levelo://app?vid=2f444495-dafb-4a27-a7bb-caa72a132170","ios":"levelo://app?vid=2f444495-dafb-4a27-a7bb-caa72a132170"},"vehicle_type_id":"4","last_reported":1686586074,"current_range_meters":19600,"station_id":"ce4bgj92rcd13ifvqbe0","pricing_plan_id":"free"},{"bike_id":"c045fb5c-ea67-4dbf-bec0-80eefbf80547","system_id":"levelo_inurba_marseille","lat":43.325233,"lon":5.414318,"is_reserved":false,"is_disabled":false,"rental_uris":{"android":"levelo://app?vid=c045fb5c-ea67-4dbf-bec0-80eefbf80547","ios":"levelo://app?vid=c045fb5c-ea67-4dbf-bec0-80eefbf80547"},"vehicle_type_id":"4","last_reported":1686586074,"current_range_meters":31200,"station_id":"ce4bhq12rcd13ifvqhhg","pricing_plan_id":"free"},{"bike_id":"648361bc-1273-4030-87cb-940586bb145d","system_id":"levelo_inurba_marseille","lat":43.325233,"lon":5.414318,"is_reserved":false,"is_disabled":false,"rental_uris":{"android":"levelo://app?vid=648361bc-1273-4030-87cb-940586bb145d","ios":"levelo://app?vid=648361bc-1273-4030-87cb-940586bb145d"},"vehicle_type_id":"4","last_reported":1686586074,"current_range_meters":31200,"station_id":"ce4bhq12rcd13ifvqhhg","pricing_plan_id":"free"},{"bike_id":"1a51ad98-c31e-4cd1-94a9-d7ebb45a3464","system_id":"levelo_inurba_marseille","lat":43.32546,"lon":5.41448,"is_reserved":false,"is_disabled":false,"rental_uris":{"android":"levelo://app?vid=1a51ad98-c31e-4cd1-94a9-d7ebb45a3464","ios":"levelo://app?vid=1a51ad98-c31e-4cd1-94a9-d7ebb45a3464"},"vehicle_type_id":"4","last_reported":1686586074,"current_range_meters":4400,"station_id":"ce4bhq12rcd13ifvqhhg","pricing_plan_id":"free"},{"bike_id":"9b621e09-6dd1-4df0-ad98-20b74bd8a974","system_id":"levelo_inurba_marseille","lat":43.33168,"lon":5.41065,"is_reserved":false,"is_disabled":false,"rental_uris":{"android":"levelo://app?vid=9b621e09-6dd1-4df0-ad98-20b74bd8a974","ios":"levelo://app?vid=9b621e09-6dd1-4df0-ad98-20b74bd8a974"},"vehicle_type_id":"4","last_reported":1686586074,"current_range_meters":6000,"station_id":"","pricing_plan_id":"free"},{"bike_id":"68ebabff-2242-4d00-8fca-59eb39b8a924","system_id":"levelo_inurba_marseille","lat":43.289184,"lon":5.366408,"is_reserved":false,"is_disabled":false,"rental_uris":{"android":"levelo://app?vid=68ebabff-2242-4d00-8fca-59eb39b8a924","ios":"levelo://app?vid=68ebabff-2242-4d00-8fca-59eb39b8a924"},"vehicle_type_id":"4","last_reported":1686586074,"current_range_meters":0,"station_id":"ce4bhap2rcd13ifvqek0","pricing_plan_id":"free"},{"bike_id":"7072d802-d9d0-4c6b-b359-f1bf5685f4b3","system_id":"levelo_inurba_marseille","lat":43.27381,"lon":5.36253,"is_reserved":false,"is_disabled":false,"rental_uris":{"android":"levelo://app?vid=7072d802-d9d0-4c6b-b359-f1bf5685f4b3","ios":"levelo://app?vid=7072d802-d9d0-4c6b-b359-f1bf5685f4b3"},"vehicle_type_id":"4","last_reported":1686586074,"current_range_meters":20800,"station_id":"ce4bhbh2rcd13ifvqeo0","pricing_plan_id":"free"},{"bike_id":"fff71c39-fc68-4556-92ed-d6f52144aad8","system_id":"levelo_inurba_marseille","lat":43.27376,"lon":5.36257,"is_reserved":false,"is_disabled":false,"rental_uris":{"android":"levelo://app?vid=fff71c39-fc68-4556-92ed-d6f52144aad8","ios":"levelo://app?vid=fff71c39-fc68-4556-92ed-d6f52144aad8"},"vehicle_type_id":"4","last_reported":1686586074,"current_range_meters":1200,"station_id":"ce4bhbh2rcd13ifvqeo0","pricing_plan_id":"free"},{"bike_id":"018443b7-99df-485c-805d-855a516bd49e","system_id":"levelo_inurba_marseille","lat":43.27375,"lon":5.36257,"is_reserved":false,"is_disabled":false,"rental_uris":{"android":"levelo://app?vid=018443b7-99df-485c-805d-855a516bd49e","ios":"levelo://app?vid=018443b7-99df-485c-805d-855a516bd49e"},"vehicle_type_id":"4","last_reported":1686586074,"current_range_meters":24400,"station_id":"ce4bhbh2rcd13ifvqeo0","pricing_plan_id":"free"},{"bike_id":"eed40ba7-266d-4f33-8e7a-28c30fbfc424","system_id":"levelo_inurba_marseille","lat":43.33582,"lon":5.41036,"is_reserved":false,"is_disabled":false,"rental_uris":{"android":"levelo://app?vid=eed40ba7-266d-4f33-8e7a-28c30fbfc424","ios":"levelo://app?vid=eed40ba7-266d-4f33-8e7a-28c30fbfc424"},"vehicle_type_id":"4","last_reported":1686586074,"current_range_meters":800,"station_id":"","pricing_plan_id":"free"},{"bike_id":"9777f367-a930-474f-8beb-529d35d218de","system_id":"levelo_inurba_marseille","lat":43.27568,"lon":5.38425,"is_reserved":false,"is_disabled":false,"rental_uris":{"android":"levelo://app?vid=9777f367-a930-474f-8beb-529d35d218de","ios":"levelo://app?vid=9777f367-a930-474f-8beb-529d35d218de"},"vehicle_type_id":"4","last_reported":1686586074,"current_range_meters":20000,"station_id":"","pricing_plan_id":"free"},{"bike_id":"6b6dd16c-14c9-4a52-af92-29e88fcd7ca1","system_id":"levelo_inurba_marseille","lat":43.33612,"lon":5.410321,"is_reserved":false,"is_disabled":false,"rental_uris":{"android":"levelo://app?vid=6b6dd16c-14c9-4a52-af92-29e88fcd7ca1","ios":"levelo://app?vid=6b6dd16c-14c9-4a52-af92-29e88fcd7ca1"},"vehicle_type_id":"4","last_reported":1686586074,"current_range_meters":13200,"station_id":"ce4bhqh2rcd13ifvqhmg","pricing_plan_id":"free"},{"bike_id":"c7740e6f-b176-4269-ac60-2409c6400251","system_id":"levelo_inurba_marseille","lat":43.33612,"lon":5.410321,"is_reserved":false,"is_disabled":false,"rental_uris":{"android":"levelo://app?vid=c7740e6f-b176-4269-ac60-2409c6400251","ios":"levelo://app?vid=c7740e6f-b176-4269-ac60-2409c6400251"},"vehicle_type_id":"4","last_reported":1686586074,"current_range_meters":11200,"station_id":"ce4bhqh2rcd13ifvqhmg","pricing_plan_id":"free"},{"bike_id":"ace336df-8127-4cb3-ad3e-60238c8bc7d7","system_id":"levelo_inurba_marseille","lat":43.33616,"lon":5.41031,"is_reserved":false,"is_disabled":false,"rental_uris":{"android":"levelo://app?vid=ace336df-8127-4cb3-ad3e-60238c8bc7d7","ios":"levelo://app?vid=ace336df-8127-4cb3-ad3e-60238c8bc7d7"},"vehicle_type_id":"4","last_reported":1686586074,"current_range_meters":30400,"station_id":"ce4bhqh2rcd13ifvqhmg","pricing_plan_id":"free"},{"bike_id":"fdf5f688-4ba6-4507-85a0-ea7db31eb18c","system_id":"levelo_inurba_marseille","lat":43.35161,"lon":5.37576,"is_reserved":false,"is_disabled":false,"rental_uris":{"android":"levelo://app?vid=fdf5f688-4ba6-4507-85a0-ea7db31eb18c","ios":"levelo://app?vid=fdf5f688-4ba6-4507-85a0-ea7db31eb18c"},"vehicle_type_id":"4","last_reported":1686586074,"current_range_meters":9200,"station_id":"","pricing_plan_id":"free"},{"bike_id":"eb0c3dcc-5412-4dc9-a1b7-bd633bbda9a2","system_id":"levelo_inurba_marseille","lat":43.28107,"lon":5.40422,"is_reserved":false,"is_disabled":false,"rental_uris":{"android":"levelo://app?vid=eb0c3dcc-5412-4dc9-a1b7-bd633bbda9a2","ios":"levelo://app?vid=eb0c3dcc-5412-4dc9-a1b7-bd633bbda9a2"},"vehicle_type_id":"4","last_reported":1686586074,"current_range_meters":2000,"station_id":"","pricing_plan_id":"free"},{"bike_id":"60369bb0-0d71-43b9-a915-5d4c7e589c53","system_id":"levelo_inurba_marseille","lat":43.317121,"lon":5.423936,"is_reserved":false,"is_disabled":false,"rental_uris":{"android":"levelo://app?vid=60369bb0-0d71-43b9-a915-5d4c7e589c53","ios":"levelo://app?vid=60369bb0-0d71-43b9-a915-5d4c7e589c53"},"vehicle_type_id":"4","last_reported":1686586074,"current_range_meters":800,"station_id":"ce4bhp92rcd13ifvqhbg","pricing_plan_id":"free"},{"bike_id":"5dd396bb-e72d-4448-9222-13ed7b051cd7","system_id":"levelo_inurba_marseille","lat":43.310785,"lon":5.424305,"is_reserved":false,"is_disabled":false,"rental_uris":{"android":"levelo://app?vid=5dd396bb-e72d-4448-9222-13ed7b051cd7","ios":"levelo://app?vid=5dd396bb-e72d-4448-9222-13ed7b051cd7"},"vehicle_type_id":"4","last_reported":1686586074,"current_range_meters":10400,"station_id":"ce4bhp92rcd13ifvqhag","pricing_plan_id":"free"},{"bike_id":"753c6b72-ca8a-45ae-bd9d-8eca801d7a1c","system_id":"levelo_inurba_marseille","lat":43.27614,"lon":5.39489,"is_reserved":false,"is_disabled":false,"rental_uris":{"android":"levelo://app?vid=753c6b72-ca8a-45ae-bd9d-8eca801d7a1c","ios":"levelo://app?vid=753c6b72-ca8a-45ae-bd9d-8eca801d7a1c"},"vehicle_type_id":"4","last_reported":1686586074,"current_range_meters":10800,"station_id":"","pricing_plan_id":"free"},{"bike_id":"8d568e8f-e759-40ec-98fd-47d52f63e094","system_id":"levelo_inurba_marseille","lat":43.304096,"lon":5.425385,"is_reserved":false,"is_disabled":false,"rental_uris":{"android":"levelo://app?vid=8d568e8f-e759-40ec-98fd-47d52f63e094","ios":"levelo://app?vid=8d568e8f-e759-40ec-98fd-47d52f63e094"},"vehicle_type_id":"4","last_reported":1686586074,"current_range_meters":31200,"station_id":"ce4bhoh2rcd13ifvqh6g","pricing_plan_id":"free"},{"bike_id":"02ed8eba-7bd5-4773-8a28-3e9bf61de94f","system_id":"levelo_inurba_marseille","lat":43.304096,"lon":5.425385,"is_reserved":false,"is_disabled":false,"rental_uris":{"android":"levelo://app?vid=02ed8eba-7bd5-4773-8a28-3e9bf61de94f","ios":"levelo://app?vid=02ed8eba-7bd5-4773-8a28-3e9bf61de94f"},"vehicle_type_id":"4","last_reported":1686586074,"current_range_meters":5600,"station_id":"ce4bhoh2rcd13ifvqh6g","pricing_plan_id":"free"},{"bike_id":"6b6dc5f0-1fa0-4a62-95d2-a423a4463d04","system_id":"levelo_inurba_marseille","lat":43.2723,"lon":5.392,"is_reserved":false,"is_disabled":false,"rental_uris":{"android":"levelo://app?vid=6b6dc5f0-1fa0-4a62-95d2-a423a4463d04","ios":"levelo://app?vid=6b6dc5f0-1fa0-4a62-95d2-a423a4463d04"},"vehicle_type_id":"4","last_reported":1686586074,"current_range_meters":24400,"station_id":"","pricing_plan_id":"free"},{"bike_id":"966bb516-3a8d-4b9f-b143-597592f3c0ad","system_id":"levelo_inurba_marseille","lat":43.272116,"lon":5.391763,"is_reserved":false,"is_disabled":false,"rental_uris":{"android":"levelo://app?vid=966bb516-3a8d-4b9f-b143-597592f3c0ad","ios":"levelo://app?vid=966bb516-3a8d-4b9f-b143-597592f3c0ad"},"vehicle_type_id":"4","last_reported":1686586074,"current_range_meters":400,"station_id":"ce4bhhp2rcd13ifvqfm0","pricing_plan_id":"free"},{"bike_id":"dd9fc062-52ac-436e-8d8c-ce8aee0e6451","system_id":"levelo_inurba_marseille","lat":43.2696,"lon":5.38633,"is_reserved":false,"is_disabled":false,"rental_uris":{"android":"levelo://app?vid=dd9fc062-52ac-436e-8d8c-ce8aee0e6451","ios":"levelo://app?vid=dd9fc062-52ac-436e-8d8c-ce8aee0e6451"},"vehicle_type_id":"4","last_reported":1686586074,"current_range_meters":0,"station_id":"ce4bhh92rcd13ifvqfh0","pricing_plan_id":"free"},{"bike_id":"4308ee15-4055-441f-8aaa-e530fef9413f","system_id":"levelo_inurba_marseille","lat":43.26955,"lon":5.38625,"is_reserved":false,"is_disabled":false,"rental_uris":{"android":"levelo://app?vid=4308ee15-4055-441f-8aaa-e530fef9413f","ios":"levelo://app?vid=4308ee15-4055-441f-8aaa-e530fef9413f"},"vehicle_type_id":"4","last_reported":1686586074,"current_range_meters":24400,"station_id":"ce4bhh92rcd13ifvqfh0","pricing_plan_id":"free"},{"bike_id":"110f371a-7740-4b4b-8812-d6f690615b26","system_id":"levelo_inurba_marseille","lat":43.269467,"lon":5.386439,"is_reserved":false,"is_disabled":false,"rental_uris":{"android":"levelo://app?vid=110f371a-7740-4b4b-8812-d6f690615b26","ios":"levelo://app?vid=110f371a-7740-4b4b-8812-d6f690615b26"},"vehicle_type_id":"4","last_reported":1686586074,"current_range_meters":29200,"station_id":"ce4bhh92rcd13ifvqfh0","pricing_plan_id":"free"},{"bike_id":"46b81e8e-d473-4979-843a-1d098b9043c7","system_id":"levelo_inurba_marseille","lat":43.269319,"lon":5.389397,"is_reserved":false,"is_disabled":false,"rental_uris":{"android":"levelo://app?vid=46b81e8e-d473-4979-843a-1d098b9043c7","ios":"levelo://app?vid=46b81e8e-d473-4979-843a-1d098b9043c7"},"vehicle_type_id":"4","last_reported":1686586074,"current_range_meters":5600,"station_id":"ce4bhhh2rcd13ifvqfl0","pricing_plan_id":"free"},{"bike_id":"21b8ac1b-1e4c-4a2a-966f-fb63d7b37fd7","system_id":"levelo_inurba_marseille","lat":43.2799,"lon":5.41668,"is_reserved":false,"is_disabled":false,"rental_uris":{"android":"levelo://app?vid=21b8ac1b-1e4c-4a2a-966f-fb63d7b37fd7","ios":"levelo://app?vid=21b8ac1b-1e4c-4a2a-966f-fb63d7b37fd7"},"vehicle_type_id":"4","last_reported":1686586074,"current_range_meters":18000,"station_id":"ce4bho12rcd13ifvqh1g","pricing_plan_id":"free"},{"bike_id":"2610cf9f-3a05-4fb9-83e2-38346938eebe","system_id":"levelo_inurba_marseille","lat":43.267966,"lon":5.393976,"is_reserved":false,"is_disabled":false,"rental_uris":{"android":"levelo://app?vid=2610cf9f-3a05-4fb9-83e2-38346938eebe","ios":"levelo://app?vid=2610cf9f-3a05-4fb9-83e2-38346938eebe"},"vehicle_type_id":"4","last_reported":1686586074,"current_range_meters":28800,"station_id":"ce4bhh12rcd13ifvqfg0","pricing_plan_id":"free"},{"bike_id":"83879913-8206-446c-a75b-0276ba0a043d","system_id":"levelo_inurba_marseille","lat":43.26562,"lon":5.39007,"is_reserved":false,"is_disabled":false,"rental_uris":{"android":"levelo://app?vid=83879913-8206-446c-a75b-0276ba0a043d","ios":"levelo://app?vid=83879913-8206-446c-a75b-0276ba0a043d"},"vehicle_type_id":"4","last_reported":1686586074,"current_range_meters":8800,"station_id":"ce4bhe12rcd13ifvqf30","pricing_plan_id":"free"},{"bike_id":"f53bd766-fb51-4c36-ad9d-fd094e25440b","system_id":"levelo_inurba_marseille","lat":43.261782,"lon":5.374515,"is_reserved":false,"is_disabled":false,"rental_uris":{"android":"levelo://app?vid=f53bd766-fb51-4c36-ad9d-fd094e25440b","ios":"levelo://app?vid=f53bd766-fb51-4c36-ad9d-fd094e25440b"},"vehicle_type_id":"4","last_reported":1686586074,"current_range_meters":21600,"station_id":"ce4bhgp2rcd13ifvqfc0","pricing_plan_id":"free"},{"bike_id":"0172441f-d0f8-4b5f-82eb-842e0795c6a4","system_id":"levelo_inurba_marseille","lat":43.261782,"lon":5.374515,"is_reserved":false,"is_disabled":false,"rental_uris":{"android":"levelo://app?vid=0172441f-d0f8-4b5f-82eb-842e0795c6a4","ios":"levelo://app?vid=0172441f-d0f8-4b5f-82eb-842e0795c6a4"},"vehicle_type_id":"4","last_reported":1686586074,"current_range_meters":5600,"station_id":"ce4bhgp2rcd13ifvqfc0","pricing_plan_id":"free"},{"bike_id":"82fa3321-2fea-4a4e-911a-d5ce06f47ca1","system_id":"levelo_inurba_marseille","lat":43.261782,"lon":5.374515,"is_reserved":false,"is_disabled":false,"rental_uris":{"android":"levelo://app?vid=82fa3321-2fea-4a4e-911a-d5ce06f47ca1","ios":"levelo://app?vid=82fa3321-2fea-4a4e-911a-d5ce06f47ca1"},"vehicle_type_id":"4","last_reported":1686586074,"current_range_meters":7200,"station_id":"ce4bhgp2rcd13ifvqfc0","pricing_plan_id":"free"},{"bike_id":"fc603de6-10bc-460c-805a-3e45af213258","system_id":"levelo_inurba_marseille","lat":43.317104,"lon":5.436818,"is_reserved":false,"is_disabled":false,"rental_uris":{"android":"levelo://app?vid=fc603de6-10bc-460c-805a-3e45af213258","ios":"levelo://app?vid=fc603de6-10bc-460c-805a-3e45af213258"},"vehicle_type_id":"4","last_reported":1686586074,"current_range_meters":5600,"station_id":"ce4bhp92rcd13ifvqhcg","pricing_plan_id":"free"},{"bike_id":"7ce96ff6-920c-4e17-9d82-a1aae6b1d988","system_id":"levelo_inurba_marseille","lat":43.27189,"lon":5.40989,"is_reserved":false,"is_disabled":false,"rental_uris":{"android":"levelo://app?vid=7ce96ff6-920c-4e17-9d82-a1aae6b1d988","ios":"levelo://app?vid=7ce96ff6-920c-4e17-9d82-a1aae6b1d988"},"vehicle_type_id":"4","last_reported":1686586074,"current_range_meters":24000,"station_id":"","pricing_plan_id":"free"},{"bike_id":"48546f0c-80bd-41ae-ae78-7012ef2c3443","system_id":"levelo_inurba_marseille","lat":43.271388,"lon":5.409269,"is_reserved":false,"is_disabled":false,"rental_uris":{"android":"levelo://app?vid=48546f0c-80bd-41ae-ae78-7012ef2c3443","ios":"levelo://app?vid=48546f0c-80bd-41ae-ae78-7012ef2c3443"},"vehicle_type_id":"4","last_reported":1686586074,"current_range_meters":29600,"station_id":"ce4bhl12rcd13ifvqgf0","pricing_plan_id":"free"},{"bike_id":"d22a8864-2146-4129-a239-f4923d18a83b","system_id":"levelo_inurba_marseille","lat":43.27321,"lon":5.41218,"is_reserved":false,"is_disabled":false,"rental_uris":{"android":"levelo://app?vid=d22a8864-2146-4129-a239-f4923d18a83b","ios":"levelo://app?vid=d22a8864-2146-4129-a239-f4923d18a83b"},"vehicle_type_id":"4","last_reported":1686586074,"current_range_meters":17600,"station_id":"","pricing_plan_id":"free"},{"bike_id":"cc560c6b-bced-4852-9611-20ca059e5e9a","system_id":"levelo_inurba_marseille","lat":43.271368,"lon":5.40928,"is_reserved":false,"is_disabled":false,"rental_uris":{"android":"levelo://app?vid=cc560c6b-bced-4852-9611-20ca059e5e9a","ios":"levelo://app?vid=cc560c6b-bced-4852-9611-20ca059e5e9a"},"vehicle_type_id":"4","last_reported":1686586074,"current_range_meters":28800,"station_id":"ce4bhl12rcd13ifvqgf0","pricing_plan_id":"free"},{"bike_id":"06726ccc-e5cf-4771-97a9-089240426daf","system_id":"levelo_inurba_marseille","lat":43.26199,"lon":5.37932,"is_reserved":false,"is_disabled":false,"rental_uris":{"android":"levelo://app?vid=06726ccc-e5cf-4771-97a9-089240426daf","ios":"levelo://app?vid=06726ccc-e5cf-4771-97a9-089240426daf"},"vehicle_type_id":"4","last_reported":1686586074,"current_range_meters":3600,"station_id":"ce4bhjp2rcd13ifvqg90","pricing_plan_id":"free"},{"bike_id":"a6423689-511b-47a8-ac82-91a6019b738d","system_id":"levelo_inurba_marseille","lat":43.26198,"lon":5.37928,"is_reserved":false,"is_disabled":false,"rental_uris":{"android":"levelo://app?vid=a6423689-511b-47a8-ac82-91a6019b738d","ios":"levelo://app?vid=a6423689-511b-47a8-ac82-91a6019b738d"},"vehicle_type_id":"4","last_reported":1686586074,"current_range_meters":9600,"station_id":"ce4bhjp2rcd13ifvqg90","pricing_plan_id":"free"},{"bike_id":"d3dd3e31-f833-41e1-b9de-ad1eddf61ffd","system_id":"levelo_inurba_marseille","lat":43.271368,"lon":5.40928,"is_reserved":false,"is_disabled":false,"rental_uris":{"android":"levelo://app?vid=d3dd3e31-f833-41e1-b9de-ad1eddf61ffd","ios":"levelo://app?vid=d3dd3e31-f833-41e1-b9de-ad1eddf61ffd"},"vehicle_type_id":"4","last_reported":1686586074,"current_range_meters":26400,"station_id":"ce4bhl12rcd13ifvqgf0","pricing_plan_id":"free"},{"bike_id":"b7b3070a-e5a9-4170-821b-8ae2f0aab055","system_id":"levelo_inurba_marseille","lat":43.271388,"lon":5.409269,"is_reserved":false,"is_disabled":false,"rental_uris":{"android":"levelo://app?vid=b7b3070a-e5a9-4170-821b-8ae2f0aab055","ios":"levelo://app?vid=b7b3070a-e5a9-4170-821b-8ae2f0aab055"},"vehicle_type_id":"4","last_reported":1686586074,"current_range_meters":18000,"station_id":"ce4bhl12rcd13ifvqgf0","pricing_plan_id":"free"},{"bike_id":"d54936a8-32d7-4b08-ad56-7e87a9a548bf","system_id":"levelo_inurba_marseille","lat":43.26811,"lon":5.40266,"is_reserved":false,"is_disabled":false,"rental_uris":{"android":"levelo://app?vid=d54936a8-32d7-4b08-ad56-7e87a9a548bf","ios":"levelo://app?vid=d54936a8-32d7-4b08-ad56-7e87a9a548bf"},"vehicle_type_id":"4","last_reported":1686586074,"current_range_meters":17200,"station_id":"ce501612rcd8frsf0b60","pricing_plan_id":"free"},{"bike_id":"08026aa9-6071-49ba-bb4f-4634563b5892","system_id":"levelo_inurba_marseille","lat":43.26811,"lon":5.40267,"is_reserved":false,"is_disabled":false,"rental_uris":{"android":"levelo://app?vid=08026aa9-6071-49ba-bb4f-4634563b5892","ios":"levelo://app?vid=08026aa9-6071-49ba-bb4f-4634563b5892"},"vehicle_type_id":"4","last_reported":1686586074,"current_range_meters":16800,"station_id":"ce501612rcd8frsf0b60","pricing_plan_id":"free"},{"bike_id":"a14d6a27-4e4e-4a30-a743-0b6d5b650711","system_id":"levelo_inurba_marseille","lat":43.267959,"lon":5.402687,"is_reserved":false,"is_disabled":false,"rental_uris":{"android":"levelo://app?vid=a14d6a27-4e4e-4a30-a743-0b6d5b650711","ios":"levelo://app?vid=a14d6a27-4e4e-4a30-a743-0b6d5b650711"},"vehicle_type_id":"4","last_reported":1686586074,"current_range_meters":28000,"station_id":"ce501612rcd8frsf0b60","pricing_plan_id":"free"},{"bike_id":"9b49b86c-ea51-43bc-966d-d63a567c2d8f","system_id":"levelo_inurba_marseille","lat":43.267959,"lon":5.402687,"is_reserved":false,"is_disabled":false,"rental_uris":{"android":"levelo://app?vid=9b49b86c-ea51-43bc-966d-d63a567c2d8f","ios":"levelo://app?vid=9b49b86c-ea51-43bc-966d-d63a567c2d8f"},"vehicle_type_id":"4","last_reported":1686586074,"current_range_meters":11200,"station_id":"ce501612rcd8frsf0b60","pricing_plan_id":"free"},{"bike_id":"e143b75d-bf0f-408f-86ad-835c748ca0bf","system_id":"levelo_inurba_marseille","lat":43.267959,"lon":5.402687,"is_reserved":false,"is_disabled":false,"rental_uris":{"android":"levelo://app?vid=e143b75d-bf0f-408f-86ad-835c748ca0bf","ios":"levelo://app?vid=e143b75d-bf0f-408f-86ad-835c748ca0bf"},"vehicle_type_id":"4","last_reported":1686586074,"current_range_meters":18800,"station_id":"ce501612rcd8frsf0b60","pricing_plan_id":"free"},{"bike_id":"b1b6bc0a-3c09-44e0-9f6d-357d4bfa3d8d","system_id":"levelo_inurba_marseille","lat":43.27953,"lon":5.42241,"is_reserved":false,"is_disabled":false,"rental_uris":{"android":"levelo://app?vid=b1b6bc0a-3c09-44e0-9f6d-357d4bfa3d8d","ios":"levelo://app?vid=b1b6bc0a-3c09-44e0-9f6d-357d4bfa3d8d"},"vehicle_type_id":"4","last_reported":1686586074,"current_range_meters":20800,"station_id":"","pricing_plan_id":"free"},{"bike_id":"65787800-6282-46ca-9ec2-dd0ca79fa079","system_id":"levelo_inurba_marseille","lat":43.26326,"lon":5.40259,"is_reserved":false,"is_disabled":false,"rental_uris":{"android":"levelo://app?vid=65787800-6282-46ca-9ec2-dd0ca79fa079","ios":"levelo://app?vid=65787800-6282-46ca-9ec2-dd0ca79fa079"},"vehicle_type_id":"4","last_reported":1686586074,"current_range_meters":14400,"station_id":"","pricing_plan_id":"free"},{"bike_id":"608221f5-1d3a-4d6b-a493-c89ac30a0802","system_id":"levelo_inurba_marseille","lat":43.275028,"lon":5.424534,"is_reserved":false,"is_disabled":false,"rental_uris":{"android":"levelo://app?vid=608221f5-1d3a-4d6b-a493-c89ac30a0802","ios":"levelo://app?vid=608221f5-1d3a-4d6b-a493-c89ac30a0802"},"vehicle_type_id":"4","last_reported":1686586074,"current_range_meters":0,"station_id":"ce4bhn92rcd13ifvqgrg","pricing_plan_id":"free"},{"bike_id":"44c4c188-546c-4af4-a127-54a14b080193","system_id":"levelo_inurba_marseille","lat":43.25586,"lon":5.38235,"is_reserved":false,"is_disabled":false,"rental_uris":{"android":"levelo://app?vid=44c4c188-546c-4af4-a127-54a14b080193","ios":"levelo://app?vid=44c4c188-546c-4af4-a127-54a14b080193"},"vehicle_type_id":"4","last_reported":1686586074,"current_range_meters":19600,"station_id":"ce4bhih2rcd13ifvqfs0","pricing_plan_id":"free"},{"bike_id":"bb08dc88-d0e0-40a3-b632-63c6b8905614","system_id":"levelo_inurba_marseille","lat":43.25582,"lon":5.3824,"is_reserved":false,"is_disabled":false,"rental_uris":{"android":"levelo://app?vid=bb08dc88-d0e0-40a3-b632-63c6b8905614","ios":"levelo://app?vid=bb08dc88-d0e0-40a3-b632-63c6b8905614"},"vehicle_type_id":"4","last_reported":1686586074,"current_range_meters":28400,"station_id":"ce4bhih2rcd13ifvqfs0","pricing_plan_id":"free"},{"bike_id":"3d142d1e-2fe8-419b-8943-be62e7a5fe09","system_id":"levelo_inurba_marseille","lat":43.255756,"lon":5.382303,"is_reserved":false,"is_disabled":false,"rental_uris":{"android":"levelo://app?vid=3d142d1e-2fe8-419b-8943-be62e7a5fe09","ios":"levelo://app?vid=3d142d1e-2fe8-419b-8943-be62e7a5fe09"},"vehicle_type_id":"4","last_reported":1686586074,"current_range_meters":29200,"station_id":"ce4bhih2rcd13ifvqfs0","pricing_plan_id":"free"},{"bike_id":"d0e44516-4c20-4f0e-8f55-1b09be6a2618","system_id":"levelo_inurba_marseille","lat":43.25577,"lon":5.38233,"is_reserved":false,"is_disabled":false,"rental_uris":{"android":"levelo://app?vid=d0e44516-4c20-4f0e-8f55-1b09be6a2618","ios":"levelo://app?vid=d0e44516-4c20-4f0e-8f55-1b09be6a2618"},"vehicle_type_id":"4","last_reported":1686586074,"current_range_meters":6800,"station_id":"ce4bhih2rcd13ifvqfs0","pricing_plan_id":"free"},{"bike_id":"fa0399ab-3f05-41e0-8820-6a63df2f51f7","system_id":"levelo_inurba_marseille","lat":43.270721,"lon":5.422764,"is_reserved":false,"is_disabled":false,"rental_uris":{"android":"levelo://app?vid=fa0399ab-3f05-41e0-8820-6a63df2f51f7","ios":"levelo://app?vid=fa0399ab-3f05-41e0-8820-6a63df2f51f7"},"vehicle_type_id":"4","last_reported":1686586074,"current_range_meters":21200,"station_id":"ce4bhk92rcd13ifvqgb0","pricing_plan_id":"free"},{"bike_id":"65051b63-7387-43e7-a2a7-8e551bdc3a26","system_id":"levelo_inurba_marseille","lat":43.259009,"lon":5.40929,"is_reserved":false,"is_disabled":false,"rental_uris":{"android":"levelo://app?vid=65051b63-7387-43e7-a2a7-8e551bdc3a26","ios":"levelo://app?vid=65051b63-7387-43e7-a2a7-8e551bdc3a26"},"vehicle_type_id":"4","last_reported":1686586074,"current_range_meters":13200,"station_id":"ce4bhm92rcd13ifvqglg","pricing_plan_id":"free"},{"bike_id":"e0cf2e74-27b5-4d78-90e8-749a94ed84a1","system_id":"levelo_inurba_marseille","lat":43.25936,"lon":5.40912,"is_reserved":false,"is_disabled":false,"rental_uris":{"android":"levelo://app?vid=e0cf2e74-27b5-4d78-90e8-749a94ed84a1","ios":"levelo://app?vid=e0cf2e74-27b5-4d78-90e8-749a94ed84a1"},"vehicle_type_id":"4","last_reported":1686586074,"current_range_meters":13600,"station_id":"","pricing_plan_id":"free"},{"bike_id":"a3377990-0813-459f-bdf7-3e4f30e52a04","system_id":"levelo_inurba_marseille","lat":43.28279,"lon":5.44314,"is_reserved":false,"is_disabled":false,"rental_uris":{"android":"levelo://app?vid=a3377990-0813-459f-bdf7-3e4f30e52a04","ios":"levelo://app?vid=a3377990-0813-459f-bdf7-3e4f30e52a04"},"vehicle_type_id":"4","last_reported":1686586074,"current_range_meters":19200,"station_id":"","pricing_plan_id":"free"},{"bike_id":"e261203b-e76b-4496-a1dc-f1cc05f5fea7","system_id":"levelo_inurba_marseille","lat":43.250023,"lon":5.38919,"is_reserved":false,"is_disabled":false,"rental_uris":{"android":"levelo://app?vid=e261203b-e76b-4496-a1dc-f1cc05f5fea7","ios":"levelo://app?vid=e261203b-e76b-4496-a1dc-f1cc05f5fea7"},"vehicle_type_id":"4","last_reported":1686586074,"current_range_meters":11600,"station_id":"ce4bhgp2rcd13ifvqfd0","pricing_plan_id":"free"},{"bike_id":"340ae910-fa9a-42ff-b2b3-4ba26ddc8660","system_id":"levelo_inurba_marseille","lat":43.25102,"lon":5.403214,"is_reserved":false,"is_disabled":false,"rental_uris":{"android":"levelo://app?vid=340ae910-fa9a-42ff-b2b3-4ba26ddc8660","ios":"levelo://app?vid=340ae910-fa9a-42ff-b2b3-4ba26ddc8660"},"vehicle_type_id":"4","last_reported":1686586074,"current_range_meters":0,"station_id":"ce4bhlh2rcd13ifvqgig","pricing_plan_id":"free"},{"bike_id":"6cf77f71-a9e9-4fc9-bf2b-a37f44deb59a","system_id":"levelo_inurba_marseille","lat":43.2473,"lon":5.39266,"is_reserved":false,"is_disabled":false,"rental_uris":{"android":"levelo://app?vid=6cf77f71-a9e9-4fc9-bf2b-a37f44deb59a","ios":"levelo://app?vid=6cf77f71-a9e9-4fc9-bf2b-a37f44deb59a"},"vehicle_type_id":"4","last_reported":1686586074,"current_range_meters":3600,"station_id":"","pricing_plan_id":"free"},{"bike_id":"f8a69be2-23f1-415d-bca3-50af6e317d06","system_id":"levelo_inurba_marseille","lat":43.246461,"lon":5.389014,"is_reserved":false,"is_disabled":false,"rental_uris":{"android":"levelo://app?vid=f8a69be2-23f1-415d-bca3-50af6e317d06","ios":"levelo://app?vid=f8a69be2-23f1-415d-bca3-50af6e317d06"},"vehicle_type_id":"4","last_reported":1686586074,"current_range_meters":8400,"station_id":"ce4bhg12rcd13ifvqf60","pricing_plan_id":"free"},{"bike_id":"189e0681-dacc-441a-8656-e66b8d04f9ee","system_id":"levelo_inurba_marseille","lat":43.246467,"lon":5.388984,"is_reserved":false,"is_disabled":false,"rental_uris":{"android":"levelo://app?vid=189e0681-dacc-441a-8656-e66b8d04f9ee","ios":"levelo://app?vid=189e0681-dacc-441a-8656-e66b8d04f9ee"},"vehicle_type_id":"4","last_reported":1686586074,"current_range_meters":10400,"station_id":"ce4bhg12rcd13ifvqf60","pricing_plan_id":"free"},{"bike_id":"45141a1a-21f1-4e9d-8401-803648c990d1","system_id":"levelo_inurba_marseille","lat":43.24392,"lon":5.37052,"is_reserved":false,"is_disabled":false,"rental_uris":{"android":"levelo://app?vid=45141a1a-21f1-4e9d-8401-803648c990d1","ios":"levelo://app?vid=45141a1a-21f1-4e9d-8401-803648c990d1"},"vehicle_type_id":"4","last_reported":1686586074,"current_range_meters":19600,"station_id":"ce4bhhh2rcd13ifvqfk0","pricing_plan_id":"free"},{"bike_id":"428f32ff-b59a-4b24-b60c-d5f978d7c303","system_id":"levelo_inurba_marseille","lat":43.24391,"lon":5.37056,"is_reserved":false,"is_disabled":false,"rental_uris":{"android":"levelo://app?vid=428f32ff-b59a-4b24-b60c-d5f978d7c303","ios":"levelo://app?vid=428f32ff-b59a-4b24-b60c-d5f978d7c303"},"vehicle_type_id":"4","last_reported":1686586074,"current_range_meters":0,"station_id":"ce4bhhh2rcd13ifvqfk0","pricing_plan_id":"free"},{"bike_id":"61553ffc-3b52-4ef2-bb48-b812b1bd6ff7","system_id":"levelo_inurba_marseille","lat":43.24388,"lon":5.37066,"is_reserved":false,"is_disabled":false,"rental_uris":{"android":"levelo://app?vid=61553ffc-3b52-4ef2-bb48-b812b1bd6ff7","ios":"levelo://app?vid=61553ffc-3b52-4ef2-bb48-b812b1bd6ff7"},"vehicle_type_id":"4","last_reported":1686586074,"current_range_meters":17200,"station_id":"ce4bhhh2rcd13ifvqfk0","pricing_plan_id":"free"},{"bike_id":"9aec4c27-43dc-4a49-a56d-a78c68ebd98a","system_id":"levelo_inurba_marseille","lat":43.34675,"lon":5.44953,"is_reserved":false,"is_disabled":false,"rental_uris":{"android":"levelo://app?vid=9aec4c27-43dc-4a49-a56d-a78c68ebd98a","ios":"levelo://app?vid=9aec4c27-43dc-4a49-a56d-a78c68ebd98a"},"vehicle_type_id":"4","last_reported":1686586074,"current_range_meters":2800,"station_id":"","pricing_plan_id":"free"},{"bike_id":"ed3c93bf-a2e4-40a2-ae5f-0cfd3eced18f","system_id":"levelo_inurba_marseille","lat":43.245581,"lon":5.395069,"is_reserved":false,"is_disabled":false,"rental_uris":{"android":"levelo://app?vid=ed3c93bf-a2e4-40a2-ae5f-0cfd3eced18f","ios":"levelo://app?vid=ed3c93bf-a2e4-40a2-ae5f-0cfd3eced18f"},"vehicle_type_id":"4","last_reported":1686586074,"current_range_meters":31200,"station_id":"ce4bhlp2rcd13ifvqgjg","pricing_plan_id":"free"},{"bike_id":"f82a699c-d350-4ff9-8ed4-00e2be762806","system_id":"levelo_inurba_marseille","lat":43.245581,"lon":5.395069,"is_reserved":false,"is_disabled":false,"rental_uris":{"android":"levelo://app?vid=f82a699c-d350-4ff9-8ed4-00e2be762806","ios":"levelo://app?vid=f82a699c-d350-4ff9-8ed4-00e2be762806"},"vehicle_type_id":"4","last_reported":1686586074,"current_range_meters":3600,"station_id":"ce4bhlp2rcd13ifvqgjg","pricing_plan_id":"free"},{"bike_id":"877d97f1-41d3-42b8-be57-fd8b85259d30","system_id":"levelo_inurba_marseille","lat":43.245581,"lon":5.395069,"is_reserved":false,"is_disabled":false,"rental_uris":{"android":"levelo://app?vid=877d97f1-41d3-42b8-be57-fd8b85259d30","ios":"levelo://app?vid=877d97f1-41d3-42b8-be57-fd8b85259d30"},"vehicle_type_id":"4","last_reported":1686586074,"current_range_meters":25600,"station_id":"ce4bhlp2rcd13ifvqgjg","pricing_plan_id":"free"},{"bike_id":"1e61593d-33a7-4911-93fe-0a3107f5d6d0","system_id":"levelo_inurba_marseille","lat":43.28886,"lon":5.45952,"is_reserved":false,"is_disabled":false,"rental_uris":{"android":"levelo://app?vid=1e61593d-33a7-4911-93fe-0a3107f5d6d0","ios":"levelo://app?vid=1e61593d-33a7-4911-93fe-0a3107f5d6d0"},"vehicle_type_id":"4","last_reported":1686586074,"current_range_meters":24000,"station_id":"","pricing_plan_id":"free"},{"bike_id":"f7cf6146-488c-42e2-b5a9-4151a42e5bb9","system_id":"levelo_inurba_marseille","lat":43.239588,"lon":5.366238,"is_reserved":false,"is_disabled":false,"rental_uris":{"android":"levelo://app?vid=f7cf6146-488c-42e2-b5a9-4151a42e5bb9","ios":"levelo://app?vid=f7cf6146-488c-42e2-b5a9-4151a42e5bb9"},"vehicle_type_id":"4","last_reported":1686586074,"current_range_meters":20800,"station_id":"ce4bhi12rcd13ifvqfp0","pricing_plan_id":"free"},{"bike_id":"68fee721-acd9-489d-99bb-f2feade34652","system_id":"levelo_inurba_marseille","lat":43.239588,"lon":5.366238,"is_reserved":false,"is_disabled":false,"rental_uris":{"android":"levelo://app?vid=68fee721-acd9-489d-99bb-f2feade34652","ios":"levelo://app?vid=68fee721-acd9-489d-99bb-f2feade34652"},"vehicle_type_id":"4","last_reported":1686586074,"current_range_meters":14400,"station_id":"ce4bhi12rcd13ifvqfp0","pricing_plan_id":"free"},{"bike_id":"4db311db-a9dd-4eaf-96b9-8df887ac9fca","system_id":"levelo_inurba_marseille","lat":43.239588,"lon":5.366238,"is_reserved":false,"is_disabled":false,"rental_uris":{"android":"levelo://app?vid=4db311db-a9dd-4eaf-96b9-8df887ac9fca","ios":"levelo://app?vid=4db311db-a9dd-4eaf-96b9-8df887ac9fca"},"vehicle_type_id":"4","last_reported":1686586074,"current_range_meters":16800,"station_id":"ce4bhi12rcd13ifvqfp0","pricing_plan_id":"free"},{"bike_id":"3b9c37bf-9efc-4073-adbc-b2b16e44d8a3","system_id":"levelo_inurba_marseille","lat":43.23539,"lon":5.36079,"is_reserved":false,"is_disabled":false,"rental_uris":{"android":"levelo://app?vid=3b9c37bf-9efc-4073-adbc-b2b16e44d8a3","ios":"levelo://app?vid=3b9c37bf-9efc-4073-adbc-b2b16e44d8a3"},"vehicle_type_id":"4","last_reported":1686586074,"current_range_meters":24000,"station_id":"","pricing_plan_id":"free"},{"bike_id":"81d3dfca-9696-455a-a3ee-dd3f429df80e","system_id":"levelo_inurba_marseille","lat":43.232,"lon":5.35551,"is_reserved":false,"is_disabled":false,"rental_uris":{"android":"levelo://app?vid=81d3dfca-9696-455a-a3ee-dd3f429df80e","ios":"levelo://app?vid=81d3dfca-9696-455a-a3ee-dd3f429df80e"},"vehicle_type_id":"4","last_reported":1686586074,"current_range_meters":27600,"station_id":"ce4bhu92rcd13ifvqi70","pricing_plan_id":"free"},{"bike_id":"dc6cefd3-ef15-4d5b-b9d1-8562882675ef","system_id":"levelo_inurba_marseille","lat":43.232,"lon":5.35542,"is_reserved":false,"is_disabled":false,"rental_uris":{"android":"levelo://app?vid=dc6cefd3-ef15-4d5b-b9d1-8562882675ef","ios":"levelo://app?vid=dc6cefd3-ef15-4d5b-b9d1-8562882675ef"},"vehicle_type_id":"4","last_reported":1686586074,"current_range_meters":17200,"station_id":"ce4bhu92rcd13ifvqi70","pricing_plan_id":"free"},{"bike_id":"a40ebabe-c138-4b30-922a-c71c8631ae1e","system_id":"levelo_inurba_marseille","lat":43.23198,"lon":5.35552,"is_reserved":false,"is_disabled":false,"rental_uris":{"android":"levelo://app?vid=a40ebabe-c138-4b30-922a-c71c8631ae1e","ios":"levelo://app?vid=a40ebabe-c138-4b30-922a-c71c8631ae1e"},"vehicle_type_id":"4","last_reported":1686586074,"current_range_meters":19600,"station_id":"ce4bhu92rcd13ifvqi70","pricing_plan_id":"free"},{"bike_id":"544dbedd-e80c-44a3-9bc9-4b68dbfb9bb3","system_id":"levelo_inurba_marseille","lat":43.231923,"lon":5.355545,"is_reserved":false,"is_disabled":false,"rental_uris":{"android":"levelo://app?vid=544dbedd-e80c-44a3-9bc9-4b68dbfb9bb3","ios":"levelo://app?vid=544dbedd-e80c-44a3-9bc9-4b68dbfb9bb3"},"vehicle_type_id":"4","last_reported":1686586074,"current_range_meters":28400,"station_id":"ce4bhu92rcd13ifvqi70","pricing_plan_id":"free"},{"bike_id":"cac8a200-b776-4d13-855e-f91244456da2","system_id":"levelo_inurba_marseille","lat":43.23197,"lon":5.35545,"is_reserved":false,"is_disabled":false,"rental_uris":{"android":"levelo://app?vid=cac8a200-b776-4d13-855e-f91244456da2","ios":"levelo://app?vid=cac8a200-b776-4d13-855e-f91244456da2"},"vehicle_type_id":"4","last_reported":1686586074,"current_range_meters":28400,"station_id":"ce4bhu92rcd13ifvqi70","pricing_plan_id":"free"},{"bike_id":"b6d6f65f-4d27-4c5e-b1ea-2d92b441fad1","system_id":"levelo_inurba_marseille","lat":43.231923,"lon":5.355545,"is_reserved":false,"is_disabled":false,"rental_uris":{"android":"levelo://app?vid=b6d6f65f-4d27-4c5e-b1ea-2d92b441fad1","ios":"levelo://app?vid=b6d6f65f-4d27-4c5e-b1ea-2d92b441fad1"},"vehicle_type_id":"4","last_reported":1686586074,"current_range_meters":3200,"station_id":"ce4bhu92rcd13ifvqi70","pricing_plan_id":"free"},{"bike_id":"2e1023a8-40fb-46c3-8bd0-6b77bde6bbe6","system_id":"levelo_inurba_marseille","lat":43.23196,"lon":5.3555,"is_reserved":false,"is_disabled":false,"rental_uris":{"android":"levelo://app?vid=2e1023a8-40fb-46c3-8bd0-6b77bde6bbe6","ios":"levelo://app?vid=2e1023a8-40fb-46c3-8bd0-6b77bde6bbe6"},"vehicle_type_id":"4","last_reported":1686586074,"current_range_meters":26400,"station_id":"ce4bhu92rcd13ifvqi70","pricing_plan_id":"free"},{"bike_id":"01cce6ab-aabd-4937-86f6-902f839d1a71","system_id":"levelo_inurba_marseille","lat":43.23194,"lon":5.35556,"is_reserved":false,"is_disabled":false,"rental_uris":{"android":"levelo://app?vid=01cce6ab-aabd-4937-86f6-902f839d1a71","ios":"levelo://app?vid=01cce6ab-aabd-4937-86f6-902f839d1a71"},"vehicle_type_id":"4","last_reported":1686586074,"current_range_meters":7200,"station_id":"ce4bhu92rcd13ifvqi70","pricing_plan_id":"free"},{"bike_id":"b92fb200-5308-4ff3-9cae-3f31dfd3856b","system_id":"levelo_inurba_marseille","lat":43.231923,"lon":5.355545,"is_reserved":false,"is_disabled":false,"rental_uris":{"android":"levelo://app?vid=b92fb200-5308-4ff3-9cae-3f31dfd3856b","ios":"levelo://app?vid=b92fb200-5308-4ff3-9cae-3f31dfd3856b"},"vehicle_type_id":"4","last_reported":1686586074,"current_range_meters":5200,"station_id":"ce4bhu92rcd13ifvqi70","pricing_plan_id":"free"},{"bike_id":"8bd5b410-648b-4b15-8fd9-80dd09c4c29b","system_id":"levelo_inurba_marseille","lat":43.23193,"lon":5.3555,"is_reserved":false,"is_disabled":false,"rental_uris":{"android":"levelo://app?vid=8bd5b410-648b-4b15-8fd9-80dd09c4c29b","ios":"levelo://app?vid=8bd5b410-648b-4b15-8fd9-80dd09c4c29b"},"vehicle_type_id":"4","last_reported":1686586074,"current_range_meters":22000,"station_id":"ce4bhu92rcd13ifvqi70","pricing_plan_id":"free"},{"bike_id":"f8df9aaa-b600-4040-9802-e4cf2937d7f0","system_id":"levelo_inurba_marseille","lat":43.23192,"lon":5.35558,"is_reserved":false,"is_disabled":false,"rental_uris":{"android":"levelo://app?vid=f8df9aaa-b600-4040-9802-e4cf2937d7f0","ios":"levelo://app?vid=f8df9aaa-b600-4040-9802-e4cf2937d7f0"},"vehicle_type_id":"4","last_reported":1686586074,"current_range_meters":9200,"station_id":"ce4bhu92rcd13ifvqi70","pricing_plan_id":"free"},{"bike_id":"efce4c02-57c7-4d75-bdfe-7bc21fd08b77","system_id":"levelo_inurba_marseille","lat":43.23192,"lon":5.35551,"is_reserved":false,"is_disabled":false,"rental_uris":{"android":"levelo://app?vid=efce4c02-57c7-4d75-bdfe-7bc21fd08b77","ios":"levelo://app?vid=efce4c02-57c7-4d75-bdfe-7bc21fd08b77"},"vehicle_type_id":"4","last_reported":1686586074,"current_range_meters":23200,"station_id":"ce4bhu92rcd13ifvqi70","pricing_plan_id":"free"},{"bike_id":"64e13acb-4a3a-4baa-954f-e9e742354a51","system_id":"levelo_inurba_marseille","lat":43.231923,"lon":5.355545,"is_reserved":false,"is_disabled":false,"rental_uris":{"android":"levelo://app?vid=64e13acb-4a3a-4baa-954f-e9e742354a51","ios":"levelo://app?vid=64e13acb-4a3a-4baa-954f-e9e742354a51"},"vehicle_type_id":"4","last_reported":1686586074,"current_range_meters":8800,"station_id":"ce4bhu92rcd13ifvqi70","pricing_plan_id":"free"},{"bike_id":"8ee635d3-a7f3-469e-8963-97d928ce2b93","system_id":"levelo_inurba_marseille","lat":43.231923,"lon":5.355545,"is_reserved":false,"is_disabled":false,"rental_uris":{"android":"levelo://app?vid=8ee635d3-a7f3-469e-8963-97d928ce2b93","ios":"levelo://app?vid=8ee635d3-a7f3-469e-8963-97d928ce2b93"},"vehicle_type_id":"4","last_reported":1686586074,"current_range_meters":14000,"station_id":"ce4bhu92rcd13ifvqi70","pricing_plan_id":"free"},{"bike_id":"0c135cd0-30eb-4535-8eae-7bf4f00bca6b","system_id":"levelo_inurba_marseille","lat":43.23191,"lon":5.35552,"is_reserved":false,"is_disabled":false,"rental_uris":{"android":"levelo://app?vid=0c135cd0-30eb-4535-8eae-7bf4f00bca6b","ios":"levelo://app?vid=0c135cd0-30eb-4535-8eae-7bf4f00bca6b"},"vehicle_type_id":"4","last_reported":1686586074,"current_range_meters":14000,"station_id":"ce4bhu92rcd13ifvqi70","pricing_plan_id":"free"},{"bike_id":"3ab7a0ed-6f1f-40dc-abfc-c8635562d3b1","system_id":"levelo_inurba_marseille","lat":43.23188,"lon":5.35563,"is_reserved":false,"is_disabled":false,"rental_uris":{"android":"levelo://app?vid=3ab7a0ed-6f1f-40dc-abfc-c8635562d3b1","ios":"levelo://app?vid=3ab7a0ed-6f1f-40dc-abfc-c8635562d3b1"},"vehicle_type_id":"4","last_reported":1686586074,"current_range_meters":24000,"station_id":"ce4bhu92rcd13ifvqi70","pricing_plan_id":"free"},{"bike_id":"fc8e0b4f-584b-48fd-885a-0f66b6e992b2","system_id":"levelo_inurba_marseille","lat":43.231794,"lon":5.400052,"is_reserved":false,"is_disabled":false,"rental_uris":{"android":"levelo://app?vid=fc8e0b4f-584b-48fd-885a-0f66b6e992b2","ios":"levelo://app?vid=fc8e0b4f-584b-48fd-885a-0f66b6e992b2"},"vehicle_type_id":"4","last_reported":1686586074,"current_range_meters":10400,"station_id":"ce4bhn12rcd13ifvqgqg","pricing_plan_id":"free"},