{"last_updated":1723230374,"ttl":30,"version":"2.2","data":{"bikes":[{"bike_id":"7f315160-1d64-4bc7-9783-954928d90999","system_id":"levelo_inurba_marseille","lat":43.31136,"lon":5.36781,"is_reserved":false,"is_disabled":false,"rental_uris":{"android":"levelo://app?vid=7f315160-1d64-4bc7-9783-954928d90999","ios":"levelo://app?vid=7f315160-1d64-4bc7-9783-954928d90999"},"vehicle_type_id":"4","last_reported":1723230374,"current_range_meters":1200,"station_id":"","pricing_plan_id":"cebpf4jnsgd1na2vs0mg"},{"bike_id":"dceb7393-da0f-449c-abe1-ce72972c64b4","system_id":"levelo_inurba_marseille","lat":43.315686,"lon":5.372364,"is_reserved":false,"is_disabled":false,"rental_uris":{"android":"levelo://app?vid=dceb7393-da0f-449c-abe1-ce72972c64b4","ios":"levelo://app?vid=dceb7393-da0f-449c-abe1-ce72972c64b4"},"vehicle_type_id":"4","last_reported":1723230374,"current_range_meters":14400,"station_id":"","pricing_plan_id":"cebpf4jnsgd1na2vs0mg"},{"bike_id":"457a3b98-7909-4f1d-baf4-f9ed2effe854","system_id":"levelo_inurba_marseille","lat":43.305714,"lon":5.365633,"is_reserved":false,"is_disabled":false,"rental_uris":{"android":"levelo://app?vid=457a3b98-7909-4f1d-baf4-f9ed2effe854","ios":"levelo://app?vid=457a3b98-7909-4f1d-baf4-f9ed2effe854"},"vehicle_type_id":"4","last_reported":1723230374,"current_range_meters":16800,"station_id":"ce4bgs12rcd13ifvqcag","pricing_plan_id":"cebpf4jnsgd1na2vs0mg"},{"bike_id":"f75c3b79-7ee6-4be5-9c8a-f06be26ffda2","system_id":"levelo_inurba_marseille","lat":43.305368,"lon":5.367343,"is_reserved":false,"is_disabled":false,"rental_uris":{"android":"levelo://app?vid=f75c3b79-7ee6-4be5-9c8a-f06be26ffda2","ios":"levelo://app?vid=f75c3b79-7ee6-4be5-9c8a-f06be26ffda2"},"vehicle_type_id":"4","last_reported":1723230374,"current_range_meters":2000,"station_id":"ce4bgrp2rcd13ifvqc9g","pricing_plan_id":"cebpf4jnsgd1na2vs0mg"},{"bike_id":"2a2b2ad5-89f6-4a0c-84ff-53c28b425f29","system_id":"levelo_inurba_marseille","lat":43.311125,"lon":5.377624,"is_reserved":false,"is_disabled":false,"rental_uris":{"android":"levelo://app?vid=2a2b2ad5-89f6-4a0c-84ff-53c28b425f29","ios":"levelo://app?vid=2a2b2ad5-89f6-4a0c-84ff-53c28b425f29"},"vehicle_type_id":"4","last_reported":1723230374,"current_range_meters":15600,"station_id":"ce4bgt92rcd13ifvqcg0","pricing_plan_id":"cebpf4jnsgd1na2vs0mg"},{"bike_id":"13ca3804-3666-4222-8552-0980af59905b","system_id":"levelo_inurba_marseille","lat":43.307945,"lon":5.376487,"is_reserved":false,"is_disabled":false,"rental_uris":{"android":"levelo://app?vid=13ca3804-3666-4222-8552-0980af59905b","ios":"levelo://app?vid=13ca3804-3666-4222-8552-0980af59905b"},"vehicle_type_id":"4","last_reported":1723230374,"current_range_meters":5600,"station_id":"ce4bgv92rcd13ifvqcq0","pricing_plan_id":"cebpf4jnsgd1na2vs0mg"},{"bike_id":"04b211a8-048a-4cbd-86b9-7b20b700b7c9","system_id":"levelo_inurba_marseille","lat":43.307945,"lon":5.376487,"is_reserved":false,"is_disabled":false,"rental_uris":{"android":"levelo://app?vid=04b211a8-048a-4cbd-86b9-7b20b700b7c9","ios":"levelo://app?vid=04b211a8-048a-4cbd-86b9-7b20b700b7c9"},"vehicle_type_id":"4","last_reported":1723230374,"current_range_meters":5600,"station_id":"ce4bgv92rcd13ifvqcq0","pricing_plan_id":"cebpf4jnsgd1na2vs0mg"},{"bike_id":"09dd09d7-2641-48cc-babf-bff6f9018875","system_id":"levelo_inurba_marseille","lat":43.307788,"lon":5.3796,"is_reserved":false,"is_disabled":false,"rental_uris":{"android":"levelo://app?vid=09dd09d7-2641-48cc-babf-bff6f9018875","ios":"levelo://app?vid=09dd09d7-2641-48cc-babf-bff6f9018875"},"vehicle_type_id":"4","last_reported":1723230374,"current_range_meters":0,"station_id":"","pricing_plan_id":"cebpf4jnsgd1na2vs0mg"},{"bike_id":"51e6af96-7ba7-42b1-8de7-11defe9e23d3","system_id":"levelo_inurba_marseille","lat":43.301939,"lon":5.366286,"is_reserved":false,"is_disabled":false,"rental_uris":{"android":"levelo://app?vid=51e6af96-7ba7-42b1-8de7-11defe9e23d3","ios":"levelo://app?vid=51e6af96-7ba7-42b1-8de7-11defe9e23d3"},"vehicle_type_id":"4","last_reported":1723230374,"current_range_meters":25600,"station_id":"ce4bgrh2rcd13ifvqc8g","pricing_plan_id":"cebpf4jnsgd1na2vs0mg"},{"bike_id":"192bc778-be1f-402d-b1df-16d7172e5519","system_id":"levelo_inurba_marseille","lat":43.31359,"lon":5.38283,"is_reserved":false,"is_disabled":false,"rental_uris":{"android":"levelo://app?vid=192bc778-be1f-402d-b1df-16d7172e5519","ios":"levelo://app?vid=192bc778-be1f-402d-b1df-16d7172e5519"},"vehicle_type_id":"4","last_reported":1723230374,"current_range_meters":4000,"station_id":"","pricing_plan_id":"cebpf4jnsgd1na2vs0mg"},{"bike_id":"c940de5e-5874-4e2e-bfa2-555a9cc4053b","system_id":"levelo_inurba_marseille","lat":43.307957,"lon":5.381573,"is_reserved":false,"is_disabled":false,"rental_uris":{"android":"levelo://app?vid=c940de5e-5874-4e2e-bfa2-555a9cc4053b","ios":"levelo://app?vid=c940de5e-5874-4e2e-bfa2-555a9cc4053b"},"vehicle_type_id":"4","last_reported":1723230374,"current_range_meters":0,"station_id":"ce4bgt12rcd13ifvqce0","pricing_plan_id":"cebpf4jnsgd1na2vs0mg"},{"bike_id":"1aadfab7-de1a-41e1-a9b7-7ef075846de7","system_id":"levelo_inurba_marseille","lat":43.308012,"lon":5.381511,"is_reserved":false,"is_disabled":false,"rental_uris":{"android":"levelo://app?vid=1aadfab7-de1a-41e1-a9b7-7ef075846de7","ios":"levelo://app?vid=1aadfab7-de1a-41e1-a9b7-7ef075846de7"},"vehicle_type_id":"4","last_reported":1723230374,"current_range_meters":26800,"station_id":"ce4bgt12rcd13ifvqce0","pricing_plan_id":"cebpf4jnsgd1na2vs0mg"},{"bike_id":"53c78229-f79c-449d-b617-734a9cddb32a","system_id":"levelo_inurba_marseille","lat":43.304606,"lon":5.379026,"is_reserved":false,"is_disabled":false,"rental_uris":{"android":"levelo://app?vid=53c78229-f79c-449d-b617-734a9cddb32a","ios":"levelo://app?vid=53c78229-f79c-449d-b617-734a9cddb32a"},"vehicle_type_id":"4","last_reported":1723230374,"current_range_meters":0,"station_id":"ce4bgup2rcd13ifvqcn0","pricing_plan_id":"cebpf4jnsgd1na2vs0mg"},{"bike_id":"ecb5d65b-96d2-4a27-bada-c16349eaca44","system_id":"levelo_inurba_marseille","lat":43.324771,"lon":5.36557,"is_reserved":false,"is_disabled":false,"rental_uris":{"android":"levelo://app?vid=ecb5d65b-96d2-4a27-bada-c16349eaca44","ios":"levelo://app?vid=ecb5d65b-96d2-4a27-bada-c16349eaca44"},"vehicle_type_id":"4","last_reported":1723230374,"current_range_meters":20400,"station_id":"ce4bhs12rcd13ifvqhvg","pricing_plan_id":"cebpf4jnsgd1na2vs0mg"},{"bike_id":"5b0a1a33-95a6-4fb3-80c3-64ee05781116","system_id":"levelo_inurba_marseille","lat":43.324771,"lon":5.36557,"is_reserved":false,"is_disabled":false,"rental_uris":{"android":"levelo://app?vid=5b0a1a33-95a6-4fb3-80c3-64ee05781116","ios":"levelo://app?vid=5b0a1a33-95a6-4fb3-80c3-64ee05781116"},"vehicle_type_id":"4","last_reported":1723230374,"current_range_meters":11200,"station_id":"ce4bhs12rcd13ifvqhvg","pricing_plan_id":"cebpf4jnsgd1na2vs0mg"},{"bike_id":"4764cba4-0d66-467d-8f55-d44f1d182a4f","system_id":"levelo_inurba_marseille","lat":43.310804,"lon":5.38359,"is_reserved":false,"is_disabled":false,"rental_uris":{"android":"levelo://app?vid=4764cba4-0d66-467d-8f55-d44f1d182a4f","ios":"levelo://app?vid=4764cba4-0d66-467d-8f55-d44f1d182a4f"},"vehicle_type_id":"4","last_reported":1723230374,"current_range_meters":0,"station_id":"ce4bgv92rcd13ifvqcr0","pricing_plan_id":"cebpf4jnsgd1na2vs0mg"},{"bike_id":"67602b25-188e-4c9a-95e8-67832db7644a","system_id":"levelo_inurba_marseille","lat":43.310804,"lon":5.38359,"is_reserved":false,"is_disabled":false,"rental_uris":{"android":"levelo://app?vid=67602b25-188e-4c9a-95e8-67832db7644a","ios":"levelo://app?vid=67602b25-188e-4c9a-95e8-67832db7644a"},"vehicle_type_id":"4","last_reported":1723230374,"current_range_meters":7200,"station_id":"ce4bgv92rcd13ifvqcr0","pricing_plan_id":"cebpf4jnsgd1na2vs0mg"},{"bike_id":"bdbe9093-996f-4aeb-97e8-a795b99719e6","system_id":"levelo_inurba_marseille","lat":43.31086,"lon":5.3836,"is_reserved":false,"is_disabled":false,"rental_uris":{"android":"levelo://app?vid=bdbe9093-996f-4aeb-97e8-a795b99719e6","ios":"levelo://app?vid=bdbe9093-996f-4aeb-97e8-a795b99719e6"},"vehicle_type_id":"4","last_reported":1723230374,"current_range_meters":6800,"station_id":"ce4bgv92rcd13ifvqcr0","pricing_plan_id":"cebpf4jnsgd1na2vs0mg"},{"bike_id":"a7e568bc-a051-4a28-ae6a-f7294f1b17d0","system_id":"levelo_inurba_marseille","lat":43.310804,"lon":5.38359,"is_reserved":false,"is_disabled":false,"rental_uris":{"android":"levelo://app?vid=a7e568bc-a051-4a28-ae6a-f7294f1b17d0","ios":"levelo://app?vid=a7e568bc-a051-4a28-ae6a-f7294f1b17d0"},"vehicle_type_id":"4","last_reported":1723230374,"current_range_meters":800,"station_id":"ce4bgv92rcd13ifvqcr0","pricing_plan_id":"cebpf4jnsgd1na2vs0mg"},{"bike_id":"1ef19689-13a5-4ab7-bd08-17fb402a8528","system_id":"levelo_inurba_marseille","lat":43.302784,"lon":5.377158,"is_reserved":false,"is_disabled":false,"rental_uris":{"android":"levelo://app?vid=1ef19689-13a5-4ab7-bd08-17fb402a8528","ios":"levelo://app?vid=1ef19689-13a5-4ab7-bd08-17fb402a8528"},"vehicle_type_id":"4","last_reported":1723230374,"current_range_meters":0,"station_id":"ce4bguh2rcd13ifvqcj0","pricing_plan_id":"cebpf4jnsgd1na2vs0mg"},{"bike_id":"a963a751-f8b3-4fb3-91da-59429bae1c78","system_id":"levelo_inurba_marseille","lat":43.30148,"lon":5.37421,"is_reserved":false,"is_disabled":false,"rental_uris":{"android":"levelo://app?vid=a963a751-f8b3-4fb3-91da-59429bae1c78","ios":"levelo://app?vid=a963a751-f8b3-4fb3-91da-59429bae1c78"},"vehicle_type_id":"4","last_reported":1723230374,"current_range_meters":10400,"station_id":"ce4bgs92rcd13ifvqcc0","pricing_plan_id":"cebpf4jnsgd1na2vs0mg"},{"bike_id":"af7244ea-aab5-4d88-b56e-f36581a6e8a4","system_id":"levelo_inurba_marseille","lat":43.313571,"lon":5.384829,"is_reserved":false,"is_disabled":false,"rental_uris":{"android":"levelo://app?vid=af7244ea-aab5-4d88-b56e-f36581a6e8a4","ios":"levelo://app?vid=af7244ea-aab5-4d88-b56e-f36581a6e8a4"},"vehicle_type_id":"4","last_reported":1723230374,"current_range_meters":400,"station_id":"ce4bgt92rcd13ifvqcf0","pricing_plan_id":"cebpf4jnsgd1na2vs0mg"},{"bike_id":"b378ad64-dbf8-4b95-b8be-0199076ea551","system_id":"levelo_inurba_marseille","lat":43.313571,"lon":5.384829,"is_reserved":false,"is_disabled":false,"rental_uris":{"android":"levelo://app?vid=b378ad64-dbf8-4b95-b8be-0199076ea551","ios":"levelo://app?vid=b378ad64-dbf8-4b95-b8be-0199076ea551"},"vehicle_type_id":"4","last_reported":1723230374,"current_range_meters":8000,"station_id":"ce4bgt92rcd13ifvqcf0","pricing_plan_id":"cebpf4jnsgd1na2vs0mg"},{"bike_id":"3066a995-55cf-4771-a048-ca3a6daf6515","system_id":"levelo_inurba_marseille","lat":43.31352,"lon":5.3849,"is_reserved":false,"is_disabled":false,"rental_uris":{"android":"levelo://app?vid=3066a995-55cf-4771-a048-ca3a6daf6515","ios":"levelo://app?vid=3066a995-55cf-4771-a048-ca3a6daf6515"},"vehicle_type_id":"4","last_reported":1723230374,"current_range_meters":800,"station_id":"ce4bgt92rcd13ifvqcf0","pricing_plan_id":"cebpf4jnsgd1na2vs0mg"},{"bike_id":"6e3c4f74-a986-44fc-851b-87d39451fe44","system_id":"levelo_inurba_marseille","lat":43.313571,"lon":5.384829,"is_reserved":false,"is_disabled":false,"rental_uris":{"android":"levelo://app?vid=6e3c4f74-a986-44fc-851b-87d39451fe44","ios":"levelo://app?vid=6e3c4f74-a986-44fc-851b-87d39451fe44"},"vehicle_type_id":"4","last_reported":1723230374,"current_range_meters":17600,"station_id":"ce4bgt92rcd13ifvqcf0","pricing_plan_id":"cebpf4jnsgd1na2vs0mg"},{"bike_id":"421d952f-103c-4d86-85cf-d78498e91b72","system_id":"levelo_inurba_marseille","lat":43.313571,"lon":5.384829,"is_reserved":false,"is_disabled":false,"rental_uris":{"android":"levelo://app?vid=421d952f-103c-4d86-85cf-d78498e91b72","ios":"levelo://app?vid=421d952f-103c-4d86-85cf-d78498e91b72"},"vehicle_type_id":"4","last_reported":1723230374,"current_range_meters":0,"station_id":"ce4bgt92rcd13ifvqcf0","pricing_plan_id":"cebpf4jnsgd1na2vs0mg"},{"bike_id":"9124bcb4-33a5-45a2-a39a-2d0c738aabf6","system_id":"levelo_inurba_marseille","lat":43.31368,"lon":5.38495,"is_reserved":false,"is_disabled":false,"rental_uris":{"android":"levelo://app?vid=9124bcb4-33a5-45a2-a39a-2d0c738aabf6","ios":"levelo://app?vid=9124bcb4-33a5-45a2-a39a-2d0c738aabf6"},"vehicle_type_id":"4","last_reported":1723230374,"current_range_meters":4800,"station_id":"ce4bgt92rcd13ifvqcf0","pricing_plan_id":"cebpf4jnsgd1na2vs0mg"},{"bike_id":"6346901d-2e78-445f-a84f-ecffcf09db72","system_id":"levelo_inurba_marseille","lat":43.313571,"lon":5.384829,"is_reserved":false,"is_disabled":false,"rental_uris":{"android":"levelo://app?vid=6346901d-2e78-445f-a84f-ecffcf09db72","ios":"levelo://app?vid=6346901d-2e78-445f-a84f-ecffcf09db72"},"vehicle_type_id":"4","last_reported":1723230374,"current_range_meters":21600,"station_id":"ce4bgt92rcd13ifvqcf0","pricing_plan_id":"cebpf4jnsgd1na2vs0mg"},{"bike_id":"bbeb70d1-6e43-44a8-bcb3-feae65172ff5","system_id":"levelo_inurba_marseille","lat":43.299222,"lon":5.365554,"is_reserved":false,"is_disabled":false,"rental_uris":{"android":"levelo://app?vid=bbeb70d1-6e43-44a8-bcb3-feae65172ff5","ios":"levelo://app?vid=bbeb70d1-6e43-44a8-bcb3-feae65172ff5"},"vehicle_type_id":"4","last_reported":1723230374,"current_range_meters":18800,"station_id":"ce4bgm92rcd13ifvqbr0","pricing_plan_id":"cebpf4jnsgd1na2vs0mg"},{"bike_id":"f5d8a625-3118-45ca-97a1-a2acc0c2801e","system_id":"levelo_inurba_marseille","lat":43.299222,"lon":5.365554,"is_reserved":false,"is_disabled":false,"rental_uris":{"android":"levelo://app?vid=f5d8a625-3118-45ca-97a1-a2acc0c2801e","ios":"levelo://app?vid=f5d8a625-3118-45ca-97a1-a2acc0c2801e"},"vehicle_type_id":"4","last_reported":1723230374,"current_range_meters":0,"station_id":"ce4bgm92rcd13ifvqbr0","pricing_plan_id":"cebpf4jnsgd1na2vs0mg"},{"bike_id":"59109bda-f735-477a-8698-48b989459ab0","system_id":"levelo_inurba_marseille","lat":43.299222,"lon":5.365554,"is_reserved":false,"is_disabled":false,"rental_uris":{"android":"levelo://app?vid=59109bda-f735-477a-8698-48b989459ab0","ios":"levelo://app?vid=59109bda-f735-477a-8698-48b989459ab0"},"vehicle_type_id":"4","last_reported":1723230374,"current_range_meters":19600,"station_id":"ce4bgm92rcd13ifvqbr0","pricing_plan_id":"cebpf4jnsgd1na2vs0mg"},{"bike_id":"02d3e7eb-c88e-40bd-bc52-52f7456e6619","system_id":"levelo_inurba_marseille","lat":43.299222,"lon":5.365554,"is_reserved":false,"is_disabled":false,"rental_uris":{"android":"levelo://app?vid=02d3e7eb-c88e-40bd-bc52-52f7456e6619","ios":"levelo://app?vid=02d3e7eb-c88e-40bd-bc52-52f7456e6619"},"vehicle_type_id":"4","last_reported":1723230374,"current_range_meters":9200,"station_id":"ce4bgm92rcd13ifvqbr0","pricing_plan_id":"cebpf4jnsgd1na2vs0mg"},{"bike_id":"7f43549e-f6c6-4b34-aa10-55922a82ca79","system_id":"levelo_inurba_marseille","lat":43.299222,"lon":5.365554,"is_reserved":false,"is_disabled":false,"rental_uris":{"android":"levelo://app?vid=7f43549e-f6c6-4b34-aa10-55922a82ca79","ios":"levelo://app?vid=7f43549e-f6c6-4b34-aa10-55922a82ca79"},"vehicle_type_id":"4","last_reported":1723230374,"current_range_meters":12400,"station_id":"ce4bgm92rcd13ifvqbr0","pricing_plan_id":"cebpf4jnsgd1na2vs0mg"},{"bike_id":"2ae40741-da31-4cad-910c-0f313579e45a","system_id":"levelo_inurba_marseille","lat":43.299706,"lon":5.371828,"is_reserved":false,"is_disabled":false,"rental_uris":{"android":"levelo://app?vid=2ae40741-da31-4cad-910c-0f313579e45a","ios":"levelo://app?vid=2ae40741-da31-4cad-910c-0f313579e45a"},"vehicle_type_id":"4","last_reported":1723230374,"current_range_meters":0,"station_id":"ce4bgr92rcd13ifvqc7g","pricing_plan_id":"cebpf4jnsgd1na2vs0mg"},{"bike_id":"db23c384-4a92-4c51-9c6f-2587a4f3047b","system_id":"levelo_inurba_marseille","lat":43.298433,"lon":5.362774,"is_reserved":false,"is_disabled":false,"rental_uris":{"android":"levelo://app?vid=db23c384-4a92-4c51-9c6f-2587a4f3047b","ios":"levelo://app?vid=db23c384-4a92-4c51-9c6f-2587a4f3047b"},"vehicle_type_id":"4","last_reported":1723230374,"current_range_meters":1600,"station_id":"ce4bgpp2rcd13ifvqc3g","pricing_plan_id":"cebpf4jnsgd1na2vs0mg"},{"bike_id":"2fa8a668-1860-4606-a214-58885ac57f01","system_id":"levelo_inurba_marseille","lat":43.29849,"lon":5.36283,"is_reserved":false,"is_disabled":false,"rental_uris":{"android":"levelo://app?vid=2fa8a668-1860-4606-a214-58885ac57f01","ios":"levelo://app?vid=2fa8a668-1860-4606-a214-58885ac57f01"},"vehicle_type_id":"4","last_reported":1723230374,"current_range_meters":7200,"station_id":"ce4bgpp2rcd13ifvqc3g","pricing_plan_id":"cebpf4jnsgd1na2vs0mg"},{"bike_id":"ea3e366d-337f-46d2-8532-229c1cb1cfaf","system_id":"levelo_inurba_marseille","lat":43.305364,"lon":5.384119,"is_reserved":false,"is_disabled":false,"rental_uris":{"android":"levelo://app?vid=ea3e366d-337f-46d2-8532-229c1cb1cfaf","ios":"levelo://app?vid=ea3e366d-337f-46d2-8532-229c1cb1cfaf"},"vehicle_type_id":"4","last_reported":1723230374,"current_range_meters":21600,"station_id":"ce4bgg92rcd13ifvqb30","pricing_plan_id":"cebpf4jnsgd1na2vs0mg"},{"bike_id":"f8ea541e-347d-49bb-a052-b9969e51a62c","system_id":"levelo_inurba_marseille","lat":43.305364,"lon":5.384119,"is_reserved":false,"is_disabled":false,"rental_uris":{"android":"levelo://app?vid=f8ea541e-347d-49bb-a052-b9969e51a62c","ios":"levelo://app?vid=f8ea541e-347d-49bb-a052-b9969e51a62c"},"vehicle_type_id":"4","last_reported":1723230374,"current_range_meters":0,"station_id":"ce4bgg92rcd13ifvqb30","pricing_plan_id":"cebpf4jnsgd1na2vs0mg"},{"bike_id":"1444ae6c-6629-46ab-882b-af6b7b77d350","system_id":"levelo_inurba_marseille","lat":43.305364,"lon":5.384119,"is_reserved":false,"is_disabled":false,"rental_uris":{"android":"levelo://app?vid=1444ae6c-6629-46ab-882b-af6b7b77d350","ios":"levelo://app?vid=1444ae6c-6629-46ab-882b-af6b7b77d350"},"vehicle_type_id":"4","last_reported":1723230374,"current_range_meters":3600,"station_id":"ce4bgg92rcd13ifvqb30","pricing_plan_id":"cebpf4jnsgd1na2vs0mg"},{"bike_id":"b2db3957-afcc-48a8-9357-554e0e3ea941","system_id":"levelo_inurba_marseille","lat":43.30541,"lon":5.38429,"is_reserved":false,"is_disabled":false,"rental_uris":{"android":"levelo://app?vid=b2db3957-afcc-48a8-9357-554e0e3ea941","ios":"levelo://app?vid=b2db3957-afcc-48a8-9357-554e0e3ea941"},"vehicle_type_id":"4","last_reported":1723230374,"current_range_meters":0,"station_id":"ce4bgg92rcd13ifvqb30","pricing_plan_id":"cebpf4jnsgd1na2vs0mg"},{"bike_id":"5c0369d3-5f53-43d6-a6dd-a9635fcba2c4","system_id":"levelo_inurba_marseille","lat":43.2984,"lon":5.36269,"is_reserved":false,"is_disabled":false,"rental_uris":{"android":"levelo://app?vid=5c0369d3-5f53-43d6-a6dd-a9635fcba2c4","ios":"levelo://app?vid=5c0369d3-5f53-43d6-a6dd-a9635fcba2c4"},"vehicle_type_id":"4","last_reported":1723230374,"current_range_meters":15200,"station_id":"ce4bgpp2rcd13ifvqc3g","pricing_plan_id":"cebpf4jnsgd1na2vs0mg"},{"bike_id":"d1c5e1ca-9a47-4ef8-a277-95e51fad1f06","system_id":"levelo_inurba_marseille","lat":43.311722,"lon":5.387247,"is_reserved":false,"is_disabled":false,"rental_uris":{"android":"levelo://app?vid=d1c5e1ca-9a47-4ef8-a277-95e51fad1f06","ios":"levelo://app?vid=d1c5e1ca-9a47-4ef8-a277-95e51fad1f06"},"vehicle_type_id":"4","last_reported":1723230374,"current_range_meters":22400,"station_id":"ce4bgv12rcd13ifvqcp0","pricing_plan_id":"cebpf4jnsgd1na2vs0mg"},{"bike_id":"6aca5d6d-4f81-4f67-b0b1-7bcc978318b3","system_id":"levelo_inurba_marseille","lat":43.311722,"lon":5.387247,"is_reserved":false,"is_disabled":false,"rental_uris":{"android":"levelo://app?vid=6aca5d6d-4f81-4f67-b0b1-7bcc978318b3","ios":"levelo://app?vid=6aca5d6d-4f81-4f67-b0b1-7bcc978318b3"},"vehicle_type_id":"4","last_reported":1723230374,"current_range_meters":30400,"station_id":"ce4bgv12rcd13ifvqcp0","pricing_plan_id":"cebpf4jnsgd1na2vs0mg"},{"bike_id":"bf71bd14-be8a-4634-b006-db899d46f266","system_id":"levelo_inurba_marseille","lat":43.31173,"lon":5.38716,"is_reserved":false,"is_disabled":false,"rental_uris":{"android":"levelo://app?vid=bf71bd14-be8a-4634-b006-db899d46f266","ios":"levelo://app?vid=bf71bd14-be8a-4634-b006-db899d46f266"},"vehicle_type_id":"4","last_reported":1723230374,"current_range_meters":24400,"station_id":"ce4bgv12rcd13ifvqcp0","pricing_plan_id":"cebpf4jnsgd1na2vs0mg"},{"bike_id":"675a1e6d-f52d-4d82-89ad-0e64d46d9c46","system_id":"levelo_inurba_marseille","lat":43.299222,"lon":5.365554,"is_reserved":false,"is_disabled":false,"rental_uris":{"android":"levelo://app?vid=675a1e6d-f52d-4d82-89ad-0e64d46d9c46","ios":"levelo://app?vid=675a1e6d-f52d-4d82-89ad-0e64d46d9c46"},"vehicle_type_id":"4","last_reported":1723230374,"current_range_meters":0,"station_id":"ce4bgm92rcd13ifvqbr0","pricing_plan_id":"cebpf4jnsgd1na2vs0mg"},{"bike_id":"0bdba93f-4e1d-444c-80aa-b3bcf8ae04fe","system_id":"levelo_inurba_marseille","lat":43.311722,"lon":5.387247,"is_reserved":false,"is_disabled":false,"rental_uris":{"android":"levelo://app?vid=0bdba93f-4e1d-444c-80aa-b3bcf8ae04fe","ios":"levelo://app?vid=0bdba93f-4e1d-444c-80aa-b3bcf8ae04fe"},"vehicle_type_id":"4","last_reported":1723230374,"current_range_meters":31200,"station_id":"ce4bgv12rcd13ifvqcp0","pricing_plan_id":"cebpf4jnsgd1na2vs0mg"},{"bike_id":"7d85f653-7375-49d0-9be2-a94114487cb0","system_id":"levelo_inurba_marseille","lat":43.29908,"lon":5.37571,"is_reserved":false,"is_disabled":false,"rental_uris":{"android":"levelo://app?vid=7d85f653-7375-49d0-9be2-a94114487cb0","ios":"levelo://app?vid=7d85f653-7375-49d0-9be2-a94114487cb0"},"vehicle_type_id":"4","last_reported":1723230374,"current_range_meters":4800,"station_id":"","pricing_plan_id":"cebpf4jnsgd1na2vs0mg"},{"bike_id":"35194bdd-0094-40e7-b9a0-7e8e9e1cead9","system_id":"levelo_inurba_marseille","lat":43.32277,"lon":5.38275,"is_reserved":false,"is_disabled":false,"rental_uris":{"android":"levelo://app?vid=35194bdd-0094-40e7-b9a0-7e8e9e1cead9","ios":"levelo://app?vid=35194bdd-0094-40e7-b9a0-7e8e9e1cead9"},"vehicle_type_id":"4","last_reported":1723230374,"current_range_meters":0,"station_id":"ce4bhr12rcd13ifvqhqg","pricing_plan_id":"cebpf4jnsgd1na2vs0mg"},{"bike_id":"7e83a1bc-bff7-4ee5-884b-2bbf8c6f939c","system_id":"levelo_inurba_marseille","lat":43.3235,"lon":5.38188,"is_reserved":false,"is_disabled":false,"rental_uris":{"android":"levelo://app?vid=7e83a1bc-bff7-4ee5-884b-2bbf8c6f939c","ios":"levelo://app?vid=7e83a1bc-bff7-4ee5-884b-2bbf8c6f939c"},"vehicle_type_id":"4","last_reported":1723230374,"current_range_meters":4000,"station_id":"","pricing_plan_id":"cebpf4jnsgd1na2vs0mg"},{"bike_id":"216240ef-238f-48ba-bd26-5d1c9cf540df","system_id":"levelo_inurba_marseille","lat":43.31456,"lon":5.38784,"is_reserved":false,"is_disabled":false,"rental_uris":{"android":"levelo://app?vid=216240ef-238f-48ba-bd26-5d1c9cf540df","ios":"levelo://app?vid=216240ef-238f-48ba-bd26-5d1c9cf540df"},"vehicle_type_id":"4","last_reported":1723230374,"current_range_meters":3600,"station_id":"","pricing_plan_id":"cebpf4jnsgd1na2vs0mg"},{"bike_id":"1feae6c5-c2d2-4d8f-aa26-cc0f7a1cbbe1","system_id":"levelo_inurba_marseille","lat":43.297163,"lon":5.365866,"is_reserved":false,"is_disabled":false,"rental_uris":{"android":"levelo://app?vid=1feae6c5-c2d2-4d8f-aa26-cc0f7a1cbbe1","ios":"levelo://app?vid=1feae6c5-c2d2-4d8f-aa26-cc0f7a1cbbe1"},"vehicle_type_id":"4","last_reported":1723230374,"current_range_meters":4400,"station_id":"ce4bgn12rcd13ifvqbt0","pricing_plan_id":"cebpf4jnsgd1na2vs0mg"},{"bike_id":"42a0b499-4752-4804-bd09-cc7205cd2bf8","system_id":"levelo_inurba_marseille","lat":43.29715,"lon":5.36618,"is_reserved":false,"is_disabled":false,"rental_uris":{"android":"levelo://app?vid=42a0b499-4752-4804-bd09-cc7205cd2bf8","ios":"levelo://app?vid=42a0b499-4752-4804-bd09-cc7205cd2bf8"},"vehicle_type_id":"4","last_reported":1723230374,"current_range_meters":0,"station_id":"ce4bgn12rcd13ifvqbt0","pricing_plan_id":"cebpf4jnsgd1na2vs0mg"},{"bike_id":"cdafa527-e40b-4cb9-9a31-bf948c26d6bd","system_id":"levelo_inurba_marseille","lat":43.29713,"lon":5.36604,"is_reserved":false,"is_disabled":false,"rental_uris":{"android":"levelo://app?vid=cdafa527-e40b-4cb9-9a31-bf948c26d6bd","ios":"levelo://app?vid=cdafa527-e40b-4cb9-9a31-bf948c26d6bd"},"vehicle_type_id":"4","last_reported":1723230374,"current_range_meters":0,"station_id":"ce4bgn12rcd13ifvqbt0","pricing_plan_id":"cebpf4jnsgd1na2vs0mg"},{"bike_id":"1e4fffee-5265-454f-a0bd-82ffcc308717","system_id":"levelo_inurba_marseille","lat":43.29676,"lon":5.36678,"is_reserved":false,"is_disabled":false,"rental_uris":{"android":"levelo://app?vid=1e4fffee-5265-454f-a0bd-82ffcc308717","ios":"levelo://app?vid=1e4fffee-5265-454f-a0bd-82ffcc308717"},"vehicle_type_id":"4","last_reported":1723230374,"current_range_meters":0,"station_id":"","pricing_plan_id":"cebpf4jnsgd1na2vs0mg"},{"bike_id":"d2f915bd-b23d-4052-9c87-e3aedd9e2c24","system_id":"levelo_inurba_marseille","lat":43.2968,"lon":5.37291,"is_reserved":false,"is_disabled":false,"rental_uris":{"android":"levelo://app?vid=d2f915bd-b23d-4052-9c87-e3aedd9e2c24","ios":"levelo://app?vid=d2f915bd-b23d-4052-9c87-e3aedd9e2c24"},"vehicle_type_id":"4","last_reported":1723230374,"current_range_meters":0,"station_id":"ce4bgk12rcd13ifvqbj0","pricing_plan_id":"cebpf4jnsgd1na2vs0mg"},{"bike_id":"249f9917-ffd3-42cb-8f95-6620c4d18fc5","system_id":"levelo_inurba_marseille","lat":43.29621,"lon":5.37158,"is_reserved":false,"is_disabled":false,"rental_uris":{"android":"levelo://app?vid=249f9917-ffd3-42cb-8f95-6620c4d18fc5","ios":"levelo://app?vid=249f9917-ffd3-42cb-8f95-6620c4d18fc5"},"vehicle_type_id":"4","last_reported":1723230374,"current_range_meters":25600,"station_id":"ce4bgnh2rcd13ifvqc0g","pricing_plan_id":"cebpf4jnsgd1na2vs0mg"},{"bike_id":"16a0d19b-2fd8-4293-8b13-bd3e00bc5a8c","system_id":"levelo_inurba_marseille","lat":43.29618,"lon":5.37152,"is_reserved":false,"is_disabled":false,"rental_uris":{"android":"levelo://app?vid=16a0d19b-2fd8-4293-8b13-bd3e00bc5a8c","ios":"levelo://app?vid=16a0d19b-2fd8-4293-8b13-bd3e00bc5a8c"},"vehicle_type_id":"4","last_reported":1723230374,"current_range_meters":0,"station_id":"ce4bgnh2rcd13ifvqc0g","pricing_plan_id":"cebpf4jnsgd1na2vs0mg"},{"bike_id":"84e9a433-16f7-414c-b205-37505c501ae4","system_id":"levelo_inurba_marseille","lat":43.29573,"lon":5.367355,"is_reserved":false,"is_disabled":false,"rental_uris":{"android":"levelo://app?vid=84e9a433-16f7-414c-b205-37505c501ae4","ios":"levelo://app?vid=84e9a433-16f7-414c-b205-37505c501ae4"},"vehicle_type_id":"4","last_reported":1723230374,"current_range_meters":17200,"station_id":"ce4bgph2rcd13ifvqc2g","pricing_plan_id":"cebpf4jnsgd1na2vs0mg"},{"bike_id":"b5350496-cbe1-407f-a041-b99df92e981b","system_id":"levelo_inurba_marseille","lat":43.299028,"lon":5.381509,"is_reserved":false,"is_disabled":false,"rental_uris":{"android":"levelo://app?vid=b5350496-cbe1-407f-a041-b99df92e981b","ios":"levelo://app?vid=b5350496-cbe1-407f-a041-b99df92e981b"},"vehicle_type_id":"4","last_reported":1723230374,"current_range_meters":27200,"station_id":"ce4bgj12rcd13ifvqbc0","pricing_plan_id":"cebpf4jnsgd1na2vs0mg"},{"bike_id":"124038c2-b647-4159-9c0b-340e24420b57","system_id":"levelo_inurba_marseille","lat":43.30949,"lon":5.39012,"is_reserved":false,"is_disabled":false,"rental_uris":{"android":"levelo://app?vid=124038c2-b647-4159-9c0b-340e24420b57","ios":"levelo://app?vid=124038c2-b647-4159-9c0b-340e24420b57"},"vehicle_type_id":"4","last_reported":1723230374,"current_range_meters":8800,"station_id":"ce4bgup2rcd13ifvqco0","pricing_plan_id":"cebpf4jnsgd1na2vs0mg"},{"bike_id":"6fb52111-496b-458d-8470-89713bbb89f4","system_id":"levelo_inurba_marseille","lat":43.299028,"lon":5.381509,"is_reserved":false,"is_disabled":false,"rental_uris":{"android":"levelo://app?vid=6fb52111-496b-458d-8470-89713bbb89f4","ios":"levelo://app?vid=6fb52111-496b-458d-8470-89713bbb89f4"},"vehicle_type_id":"4","last_reported":1723230374,"current_range_meters":3600,"station_id":"ce4bgj12rcd13ifvqbc0","pricing_plan_id":"cebpf4jnsgd1na2vs0mg"},{"bike_id":"f826df34-ec19-4f47-90e0-7e3cbdd67efa","system_id":"levelo_inurba_marseille","lat":43.29907,"lon":5.38134,"is_reserved":false,"is_disabled":false,"rental_uris":{"android":"levelo://app?vid=f826df34-ec19-4f47-90e0-7e3cbdd67efa","ios":"levelo://app?vid=f826df34-ec19-4f47-90e0-7e3cbdd67efa"},"vehicle_type_id":"4","last_reported":1723230374,"current_range_meters":0,"station_id":"ce4bgj12rcd13ifvqbc0","pricing_plan_id":"cebpf4jnsgd1na2vs0mg"},{"bike_id":"6d0d653a-be1d-4e35-8035-56e9678f020c","system_id":"levelo_inurba_marseille","lat":43.309589,"lon":5.390258,"is_reserved":false,"is_disabled":false,"rental_uris":{"android":"levelo://app?vid=6d0d653a-be1d-4e35-8035-56e9678f020c","ios":"levelo://app?vid=6d0d653a-be1d-4e35-8035-56e9678f020c"},"vehicle_type_id":"4","last_reported":1723230374,"current_range_meters":31200,"station_id":"ce4bgup2rcd13ifvqco0","pricing_plan_id":"cebpf4jnsgd1na2vs0mg"},{"bike_id":"8b6f3069-2f41-403c-9394-8658440116e4","system_id":"levelo_inurba_marseille","lat":43.30944,"lon":5.39019,"is_reserved":false,"is_disabled":false,"rental_uris":{"android":"levelo://app?vid=8b6f3069-2f41-403c-9394-8658440116e4","ios":"levelo://app?vid=8b6f3069-2f41-403c-9394-8658440116e4"},"vehicle_type_id":"4","last_reported":1723230374,"current_range_meters":8800,"station_id":"ce4bgup2rcd13ifvqco0","pricing_plan_id":"cebpf4jnsgd1na2vs0mg"},{"bike_id":"2edd4b96-8aae-4c75-af3b-19a2d6d4edc5","system_id":"levelo_inurba_marseille","lat":43.3095,"lon":5.39021,"is_reserved":false,"is_disabled":false,"rental_uris":{"android":"levelo://app?vid=2edd4b96-8aae-4c75-af3b-19a2d6d4edc5","ios":"levelo://app?vid=2edd4b96-8aae-4c75-af3b-19a2d6d4edc5"},"vehicle_type_id":"4","last_reported":1723230374,"current_range_meters":19200,"station_id":"ce4bgup2rcd13ifvqco0","pricing_plan_id":"cebpf4jnsgd1na2vs0mg"},{"bike_id":"34be3b59-3ac0-435e-8a05-81b7fbf31f55","system_id":"levelo_inurba_marseille","lat":43.30951,"lon":5.39022,"is_reserved":false,"is_disabled":false,"rental_uris":{"android":"levelo://app?vid=34be3b59-3ac0-435e-8a05-81b7fbf31f55","ios":"levelo://app?vid=34be3b59-3ac0-435e-8a05-81b7fbf31f55"},"vehicle_type_id":"4","last_reported":1723230374,"current_range_meters":25200,"station_id":"ce4bgup2rcd13ifvqco0","pricing_plan_id":"cebpf4jnsgd1na2vs0mg"},{"bike_id":"2f327680-870a-45a6-8ff1-4175cf58e28f","system_id":"levelo_inurba_marseille","lat":43.30954,"lon":5.39023,"is_reserved":false,"is_disabled":false,"rental_uris":{"android":"levelo://app?vid=2f327680-870a-45a6-8ff1-4175cf58e28f","ios":"levelo://app?vid=2f327680-870a-45a6-8ff1-4175cf58e28f"},"vehicle_type_id":"4","last_reported":1723230374,"current_range_meters":14000,"station_id":"ce4bgup2rcd13ifvqco0","pricing_plan_id":"cebpf4jnsgd1na2vs0mg"},{"bike_id":"68d81127-f51e-4d4e-bb38-09e142fb5a3f","system_id":"levelo_inurba_marseille","lat":43.309553,"lon":5.390235,"is_reserved":false,"is_disabled":false,"rental_uris":{"android":"levelo://app?vid=68d81127-f51e-4d4e-bb38-09e142fb5a3f","ios":"levelo://app?vid=68d81127-f51e-4d4e-bb38-09e142fb5a3f"},"vehicle_type_id":"4","last_reported":1723230374,"current_range_meters":31200,"station_id":"ce4bgup2rcd13ifvqco0","pricing_plan_id":"cebpf4jnsgd1na2vs0mg"},{"bike_id":"2db2d598-63f4-4353-9905-0b1cf619ce74","system_id":"levelo_inurba_marseille","lat":43.30953,"lon":5.39023,"is_reserved":false,"is_disabled":false,"rental_uris":{"android":"levelo://app?vid=2db2d598-63f4-4353-9905-0b1cf619ce74","ios":"levelo://app?vid=2db2d598-63f4-4353-9905-0b1cf619ce74"},"vehicle_type_id":"4","last_reported":1723230374,"current_range_meters":18000,"station_id":"ce4bgup2rcd13ifvqco0","pricing_plan_id":"cebpf4jnsgd1na2vs0mg"},{"bike_id":"839c28b6-72e9-4931-8c37-22583c66b385","system_id":"levelo_inurba_marseille","lat":43.30949,"lon":5.39022,"is_reserved":false,"is_disabled":false,"rental_uris":{"android":"levelo://app?vid=839c28b6-72e9-4931-8c37-22583c66b385","ios":"levelo://app?vid=839c28b6-72e9-4931-8c37-22583c66b385"},"vehicle_type_id":"4","last_reported":1723230374,"current_range_meters":3600,"station_id":"ce4bgup2rcd13ifvqco0","pricing_plan_id":"cebpf4jnsgd1na2vs0mg"},{"bike_id":"63d2c164-be8d-47a5-a0f1-e7d708d58b32","system_id":"levelo_inurba_marseille","lat":43.3095,"lon":5.39023,"is_reserved":false,"is_disabled":false,"rental_uris":{"android":"levelo://app?vid=63d2c164-be8d-47a5-a0f1-e7d708d58b32","ios":"levelo://app?vid=63d2c164-be8d-47a5-a0f1-e7d708d58b32"},"vehicle_type_id":"4","last_reported":1723230374,"current_range_meters":28800,"station_id":"ce4bgup2rcd13ifvqco0","pricing_plan_id":"cebpf4jnsgd1na2vs0mg"},{"bike_id":"d67c8e29-7205-4ce2-8a9d-a25824ee130a","system_id":"levelo_inurba_marseille","lat":43.30949,"lon":5.39023,"is_reserved":false,"is_disabled":false,"rental_uris":{"android":"levelo://app?vid=d67c8e29-7205-4ce2-8a9d-a25824ee130a","ios":"levelo://app?vid=d67c8e29-7205-4ce2-8a9d-a25824ee130a"},"vehicle_type_id":"4","last_reported":1723230374,"current_range_meters":16400,"station_id":"ce4bgup2rcd13ifvqco0","pricing_plan_id":"cebpf4jnsgd1na2vs0mg"},{"bike_id":"abedd177-9fdd-4a0c-ae0d-87a246505754","system_id":"levelo_inurba_marseille","lat":43.30948,"lon":5.39023,"is_reserved":false,"is_disabled":false,"rental_uris":{"android":"levelo://app?vid=abedd177-9fdd-4a0c-ae0d-87a246505754","ios":"levelo://app?vid=abedd177-9fdd-4a0c-ae0d-87a246505754"},"vehicle_type_id":"4","last_reported":1723230374,"current_range_meters":18000,"station_id":"ce4bgup2rcd13ifvqco0","pricing_plan_id":"cebpf4jnsgd1na2vs0mg"},{"bike_id":"ab43db2f-eddd-4fe8-bb37-241bc8027ccc","system_id":"levelo_inurba_marseille","lat":43.309723,"lon":5.3903,"is_reserved":false,"is_disabled":false,"rental_uris":{"android":"levelo://app?vid=ab43db2f-eddd-4fe8-bb37-241bc8027ccc","ios":"levelo://app?vid=ab43db2f-eddd-4fe8-bb37-241bc8027ccc"},"vehicle_type_id":"4","last_reported":1723230374,"current_range_meters":30000,"station_id":"ce4bgup2rcd13ifvqco0","pricing_plan_id":"cebpf4jnsgd1na2vs0mg"},{"bike_id":"76fcb8a9-9470-4ef5-99be-f27842753d16","system_id":"levelo_inurba_marseille","lat":43.3095,"lon":5.39025,"is_reserved":false,"is_disabled":false,"rental_uris":{"android":"levelo://app?vid=76fcb8a9-9470-4ef5-99be-f27842753d16","ios":"levelo://app?vid=76fcb8a9-9470-4ef5-99be-f27842753d16"},"vehicle_type_id":"4","last_reported":1723230374,"current_range_meters":18400,"station_id":"ce4bgup2rcd13ifvqco0","pricing_plan_id":"cebpf4jnsgd1na2vs0mg"},{"bike_id":"3c262c98-76a9-4c31-9398-fbc893114a51","system_id":"levelo_inurba_marseille","lat":43.309589,"lon":5.390258,"is_reserved":false,"is_disabled":false,"rental_uris":{"android":"levelo://app?vid=3c262c98-76a9-4c31-9398-fbc893114a51","ios":"levelo://app?vid=3c262c98-76a9-4c31-9398-fbc893114a51"},"vehicle_type_id":"4","last_reported":1723230374,"current_range_meters":27200,"station_id":"ce4bgup2rcd13ifvqco0","pricing_plan_id":"cebpf4jnsgd1na2vs0mg"},{"bike_id":"f47befc7-5f5c-4a11-841a-7a8dc36c51d2","system_id":"levelo_inurba_marseille","lat":43.30958,"lon":5.39028,"is_reserved":false,"is_disabled":false,"rental_uris":{"android":"levelo://app?vid=f47befc7-5f5c-4a11-841a-7a8dc36c51d2","ios":"levelo://app?vid=f47befc7-5f5c-4a11-841a-7a8dc36c51d2"},"vehicle_type_id":"4","last_reported":1723230374,"current_range_meters":26800,"station_id":"ce4bgup2rcd13ifvqco0","pricing_plan_id":"cebpf4jnsgd1na2vs0mg"},{"bike_id":"1429ed85-bd67-4ed6-935e-e88e00e8fd03","system_id":"levelo_inurba_marseille","lat":43.309589,"lon":5.390258,"is_reserved":false,"is_disabled":false,"rental_uris":{"android":"levelo://app?vid=1429ed85-bd67-4ed6-935e-e88e00e8fd03","ios":"levelo://app?vid=1429ed85-bd67-4ed6-935e-e88e00e8fd03"},"vehicle_type_id":"4","last_reported":1723230374,"current_range_meters":21600,"station_id":"ce4bgup2rcd13ifvqco0","pricing_plan_id":"cebpf4jnsgd1na2vs0mg"},{"bike_id":"dbd79ad9-627a-4a64-9696-c194c1b96d83","system_id":"levelo_inurba_marseille","lat":43.309598,"lon":5.390289,"is_reserved":false,"is_disabled":false,"rental_uris":{"android":"levelo://app?vid=dbd79ad9-627a-4a64-9696-c194c1b96d83","ios":"levelo://app?vid=dbd79ad9-627a-4a64-9696-c194c1b96d83"},"vehicle_type_id":"4","last_reported":1723230374,"current_range_meters":30000,"station_id":"ce4bgup2rcd13ifvqco0","pricing_plan_id":"cebpf4jnsgd1na2vs0mg"},{"bike_id":"935a8a13-6a1d-4fe4-8c47-79d34176241c","system_id":"levelo_inurba_marseille","lat":43.309523,"lon":5.39027,"is_reserved":false,"is_disabled":false,"rental_uris":{"android":"levelo://app?vid=935a8a13-6a1d-4fe4-8c47-79d34176241c","ios":"levelo://app?vid=935a8a13-6a1d-4fe4-8c47-79d34176241c"},"vehicle_type_id":"4","last_reported":1723230374,"current_range_meters":28800,"station_id":"ce4bgup2rcd13ifvqco0","pricing_plan_id":"cebpf4jnsgd1na2vs0mg"},{"bike_id":"8e414a2a-c1a9-4536-9c37-2800a20a9ffd","system_id":"levelo_inurba_marseille","lat":43.30954,"lon":5.390278,"is_reserved":false,"is_disabled":false,"rental_uris":{"android":"levelo://app?vid=8e414a2a-c1a9-4536-9c37-2800a20a9ffd","ios":"levelo://app?vid=8e414a2a-c1a9-4536-9c37-2800a20a9ffd"},"vehicle_type_id":"4","last_reported":1723230374,"current_range_meters":31600,"station_id":"ce4bgup2rcd13ifvqco0","pricing_plan_id":"cebpf4jnsgd1na2vs0mg"},{"bike_id":"f086619d-6123-4646-be35-29d0dbf25a68","system_id":"levelo_inurba_marseille","lat":43.309489,"lon":5.390271,"is_reserved":false,"is_disabled":false,"rental_uris":{"android":"levelo://app?vid=f086619d-6123-4646-be35-29d0dbf25a68","ios":"levelo://app?vid=f086619d-6123-4646-be35-29d0dbf25a68"},"vehicle_type_id":"4","last_reported":1723230374,"current_range_meters":31200,"station_id":"ce4bgup2rcd13ifvqco0","pricing_plan_id":"cebpf4jnsgd1na2vs0mg"},{"bike_id":"819b6352-bb5a-4318-bc5d-16347e697ff6","system_id":"levelo_inurba_marseille","lat":43.30952,"lon":5.39028,"is_reserved":false,"is_disabled":false,"rental_uris":{"android":"levelo://app?vid=819b6352-bb5a-4318-bc5d-16347e697ff6","ios":"levelo://app?vid=819b6352-bb5a-4318-bc5d-16347e697ff6"},"vehicle_type_id":"4","last_reported":1723230374,"current_range_meters":18400,"station_id":"ce4bgup2rcd13ifvqco0","pricing_plan_id":"cebpf4jnsgd1na2vs0mg"},{"bike_id":"6c85dda2-36e5-4545-ad52-909f5d6e9663","system_id":"levelo_inurba_marseille","lat":43.309589,"lon":5.390258,"is_reserved":false,"is_disabled":false,"rental_uris":{"android":"levelo://app?vid=6c85dda2-36e5-4545-ad52-909f5d6e9663","ios":"levelo://app?vid=6c85dda2-36e5-4545-ad52-909f5d6e9663"},"vehicle_type_id":"4","last_reported":1723230374,"current_range_meters":25200,"station_id":"ce4bgup2rcd13ifvqco0","pricing_plan_id":"cebpf4jnsgd1na2vs0mg"},{"bike_id":"842bebdf-605c-4639-9d77-865a64d512cc","system_id":"levelo_inurba_marseille","lat":43.30954,"lon":5.3903,"is_reserved":false,"is_disabled":false,"rental_uris":{"android":"levelo://app?vid=842bebdf-605c-4639-9d77-865a64d512cc","ios":"levelo://app?vid=842bebdf-605c-4639-9d77-865a64d512cc"},"vehicle_type_id":"4","last_reported":1723230374,"current_range_meters":6400,"station_id":"ce4bgup2rcd13ifvqco0","pricing_plan_id":"cebpf4jnsgd1na2vs0mg"},{"bike_id":"c6a9890c-0636-4312-bfb9-fe332f513c74","system_id":"levelo_inurba_marseille","lat":43.309589,"lon":5.390258,"is_reserved":false,"is_disabled":false,"rental_uris":{"android":"levelo://app?vid=c6a9890c-0636-4312-bfb9-fe332f513c74","ios":"levelo://app?vid=c6a9890c-0636-4312-bfb9-fe332f513c74"},"vehicle_type_id":"4","last_reported":1723230374,"current_range_meters":31200,"station_id":"ce4bgup2rcd13ifvqco0","pricing_plan_id":"cebpf4jnsgd1na2vs0mg"},{"bike_id":"bba906c2-90c5-4cf0-a9f1-d865369d046e","system_id":"levelo_inurba_marseille","lat":43.309589,"lon":5.390258,"is_reserved":false,"is_disabled":false,"rental_uris":{"android":"levelo://app?vid=bba906c2-90c5-4cf0-a9f1-d865369d046e","ios":"levelo://app?vid=bba906c2-90c5-4cf0-a9f1-d865369d046e"},"vehicle_type_id":"4","last_reported":1723230374,"current_range_meters":2800,"station_id":"ce4bgup2rcd13ifvqco0","pricing_plan_id":"cebpf4jnsgd1na2vs0mg"},{"bike_id":"7707d947-56bb-48b8-a010-e0ff76502f9f","system_id":"levelo_inurba_marseille","lat":43.309589,"lon":5.390258,"is_reserved":false,"is_disabled":false,"rental_uris":{"android":"levelo://app?vid=7707d947-56bb-48b8-a010-e0ff76502f9f","ios":"levelo://app?vid=7707d947-56bb-48b8-a010-e0ff76502f9f"},"vehicle_type_id":"4","last_reported":1723230374,"current_range_meters":12800,"station_id":"ce4bgup2rcd13ifvqco0","pricing_plan_id":"cebpf4jnsgd1na2vs0mg"},{"bike_id":"e68754cd-20d2-4b8c-8889-92f302ac364f","system_id":"levelo_inurba_marseille","lat":43.30953,"lon":5.39031,"is_reserved":false,"is_disabled":false,"rental_uris":{"android":"levelo://app?vid=e68754cd-20d2-4b8c-8889-92f302ac364f","ios":"levelo://app?vid=e68754cd-20d2-4b8c-8889-92f302ac364f"},"vehicle_type_id":"4","last_reported":1723230374,"current_range_meters":21600,"station_id":"ce4bgup2rcd13ifvqco0","pricing_plan_id":"cebpf4jnsgd1na2vs0mg"},{"bike_id":"2533df20-515a-45a1-a56f-b9fe0abe9867","system_id":"levelo_inurba_marseille","lat":43.309477,"lon":5.390297,"is_reserved":false,"is_disabled":false,"rental_uris":{"android":"levelo://app?vid=2533df20-515a-45a1-a56f-b9fe0abe9867","ios":"levelo://app?vid=2533df20-515a-45a1-a56f-b9fe0abe9867"},"vehicle_type_id":"4","last_reported":1723230374,"current_range_meters":5200,"station_id":"ce4bgup2rcd13ifvqco0","pricing_plan_id":"cebpf4jnsgd1na2vs0mg"},{"bike_id":"577aea62-1b97-41ab-9732-85970a4a71dd","system_id":"levelo_inurba_marseille","lat":43.309589,"lon":5.390258,"is_reserved":false,"is_disabled":false,"rental_uris":{"android":"levelo://app?vid=577aea62-1b97-41ab-9732-85970a4a71dd","ios":"levelo://app?vid=577aea62-1b97-41ab-9732-85970a4a71dd"},"vehicle_type_id":"4","last_reported":1723230374,"current_range_meters":30000,"station_id":"ce4bgup2rcd13ifvqco0","pricing_plan_id":"cebpf4jnsgd1na2vs0mg"},{"bike_id":"5ab691ab-9605-40b4-bcec-eb2dceed4b63","system_id":"levelo_inurba_marseille","lat":43.309497,"lon":5.390311,"is_reserved":false,"is_disabled":false,"rental_uris":{"android":"levelo://app?vid=5ab691ab-9605-40b4-bcec-eb2dceed4b63","ios":"levelo://app?vid=5ab691ab-9605-40b4-bcec-eb2dceed4b63"},"vehicle_type_id":"4","last_reported":1723230374,"current_range_meters":31200,"station_id":"ce4bgup2rcd13ifvqco0","pricing_plan_id":"cebpf4jnsgd1na2vs0mg"},{"bike_id":"d677c143-bef4-42d2-84cd-625cf833c316","system_id":"levelo_inurba_marseille","lat":43.309589,"lon":5.390258,"is_reserved":false,"is_disabled":false,"rental_uris":{"android":"levelo://app?vid=d677c143-bef4-42d2-84cd-625cf833c316","ios":"levelo://app?vid=d677c143-bef4-42d2-84cd-625cf833c316"},"vehicle_type_id":"4","last_reported":1723230374,"current_range_meters":22400,"station_id":"ce4bgup2rcd13ifvqco0","pricing_plan_id":"cebpf4jnsgd1na2vs0mg"},{"bike_id":"434532ed-af1d-4b5d-84bd-be4e21f77f67","system_id":"levelo_inurba_marseille","lat":43.30952,"lon":5.39033,"is_reserved":false,"is_disabled":false,"rental_uris":{"android":"levelo://app?vid=434532ed-af1d-4b5d-84bd-be4e21f77f67","ios":"levelo://app?vid=434532ed-af1d-4b5d-84bd-be4e21f77f67"},"vehicle_type_id":"4","last_reported":1723230374,"current_range_meters":13200,"station_id":"ce4bgup2rcd13ifvqco0","pricing_plan_id":"cebpf4jnsgd1na2vs0mg"},{"bike_id":"bc1fee8f-e298-41cc-ab14-d19e249a4294","system_id":"levelo_inurba_marseille","lat":43.309541,"lon":5.390341,"is_reserved":false,"is_disabled":false,"rental_uris":{"android":"levelo://app?vid=bc1fee8f-e298-41cc-ab14-d19e249a4294","ios":"levelo://app?vid=bc1fee8f-e298-41cc-ab14-d19e249a4294"},"vehicle_type_id":"4","last_reported":1723230374,"current_range_meters":25200,"station_id":"ce4bgup2rcd13ifvqco0","pricing_plan_id":"cebpf4jnsgd1na2vs0mg"},{"bike_id":"8b81bf12-c1cd-4234-b107-a6386fd6943b","system_id":"levelo_inurba_marseille","lat":43.309535,"lon":5.390348,"is_reserved":false,"is_disabled":false,"rental_uris":{"android":"levelo://app?vid=8b81bf12-c1cd-4234-b107-a6386fd6943b","ios":"levelo://app?vid=8b81bf12-c1cd-4234-b107-a6386fd6943b"},"vehicle_type_id":"4","last_reported":1723230374,"current_range_meters":4800,"station_id":"ce4bgup2rcd13ifvqco0","pricing_plan_id":"cebpf4jnsgd1na2vs0mg"},{"bike_id":"08aafff5-ba63-494c-81e0-016c2349cb70","system_id":"levelo_inurba_marseille","lat":43.30958,"lon":5.39036,"is_reserved":false,"is_disabled":false,"rental_uris":{"android":"levelo://app?vid=08aafff5-ba63-494c-81e0-016c2349cb70","ios":"levelo://app?vid=08aafff5-ba63-494c-81e0-016c2349cb70"},"vehicle_type_id":"4","last_reported":1723230374,"current_range_meters":31200,"station_id":"ce4bgup2rcd13ifvqco0","pricing_plan_id":"cebpf4jnsgd1na2vs0mg"},{"bike_id":"c7ed0964-1873-44ae-8c6b-ce8e1aa65688","system_id":"levelo_inurba_marseille","lat":43.309589,"lon":5.390258,"is_reserved":false,"is_disabled":false,"rental_uris":{"android":"levelo://app?vid=c7ed0964-1873-44ae-8c6b-ce8e1aa65688","ios":"levelo://app?vid=c7ed0964-1873-44ae-8c6b-ce8e1aa65688"},"vehicle_type_id":"4","last_reported":1723230374,"current_range_meters":31200,"station_id":"ce4bgup2rcd13ifvqco0","pricing_plan_id":"cebpf4jnsgd1na2vs0mg"},{"bike_id":"5b84900e-94b4-49c4-82ed-79631c8efd56","system_id":"levelo_inurba_marseille","lat":43.309521,"lon":5.390368,"is_reserved":false,"is_disabled":false,"rental_uris":{"android":"levelo://app?vid=5b84900e-94b4-49c4-82ed-79631c8efd56","ios":"levelo://app?vid=5b84900e-94b4-49c4-82ed-79631c8efd56"},"vehicle_type_id":"4","last_reported":1723230374,"current_range_meters":25200,"station_id":"ce4bgup2rcd13ifvqco0","pricing_plan_id":"cebpf4jnsgd1na2vs0mg"},{"bike_id":"a05da720-9c36-4953-a982-09685a3ec689","system_id":"levelo_inurba_marseille","lat":43.309589,"lon":5.390258,"is_reserved":false,"is_disabled":false,"rental_uris":{"android":"levelo://app?vid=a05da720-9c36-4953-a982-09685a3ec689","ios":"levelo://app?vid=a05da720-9c36-4953-a982-09685a3ec689"},"vehicle_type_id":"4","last_reported":1723230374,"current_range_meters":10000,"station_id":"ce4bgup2rcd13ifvqco0","pricing_plan_id":"cebpf4jnsgd1na2vs0mg"},{"bike_id":"f8186275-0bd0-445b-9cc8-5f05bc52bcb7","system_id":"levelo_inurba_marseille","lat":43.296935,"lon":5.376544,"is_reserved":false,"is_disabled":false,"rental_uris":{"android":"levelo://app?vid=f8186275-0bd0-445b-9cc8-5f05bc52bcb7","ios":"levelo://app?vid=f8186275-0bd0-445b-9cc8-5f05bc52bcb7"},"vehicle_type_id":"4","last_reported":1723230374,"current_range_meters":6000,"station_id":"ce4bgkh2rcd13ifvqbl0","pricing_plan_id":"cebpf4jnsgd1na2vs0mg"},{"bike_id":"66fa0fa7-0b2e-4f47-90a5-1a0b4f5efd49","system_id":"levelo_inurba_marseille","lat":43.30954,"lon":5.39044,"is_reserved":false,"is_disabled":false,"rental_uris":{"android":"levelo://app?vid=66fa0fa7-0b2e-4f47-90a5-1a0b4f5efd49","ios":"levelo://app?vid=66fa0fa7-0b2e-4f47-90a5-1a0b4f5efd49"},"vehicle_type_id":"4","last_reported":1723230374,"current_range_meters":4800,"station_id":"ce4bgup2rcd13ifvqco0","pricing_plan_id":"cebpf4jnsgd1na2vs0mg"},{"bike_id":"cceef251-04de-48ac-93a8-30590922cb68","system_id":"levelo_inurba_marseille","lat":43.309589,"lon":5.390258,"is_reserved":false,"is_disabled":false,"rental_uris":{"android":"levelo://app?vid=cceef251-04de-48ac-93a8-30590922cb68","ios":"levelo://app?vid=cceef251-04de-48ac-93a8-30590922cb68"},"vehicle_type_id":"4","last_reported":1723230374,"current_range_meters":31200,"station_id":"ce4bgup2rcd13ifvqco0","pricing_plan_id":"cebpf4jnsgd1na2vs0mg"},{"bike_id":"f19198d1-50b5-44b5-b6c6-8b0cdd4352bf","system_id":"levelo_inurba_marseille","lat":43.309589,"lon":5.390258,"is_reserved":false,"is_disabled":false,"rental_uris":{"android":"levelo://app?vid=f19198d1-50b5-44b5-b6c6-8b0cdd4352bf","ios":"levelo://app?vid=f19198d1-50b5-44b5-b6c6-8b0cdd4352bf"},"vehicle_type_id":"4","last_reported":1723230374,"current_range_meters":31200,"station_id":"ce4bgup2rcd13ifvqco0","pricing_plan_id":"cebpf4jnsgd1na2vs0mg"},{"bike_id":"cc88674a-9d93-4646-81b1-04c4de3bb250","system_id":"levelo_inurba_marseille","lat":43.309589,"lon":5.390258,"is_reserved":false,"is_disabled":false,"rental_uris":{"android":"levelo://app?vid=cc88674a-9d93-4646-81b1-04c4de3bb250","ios":"levelo://app?vid=cc88674a-9d93-4646-81b1-04c4de3bb250"},"vehicle_type_id":"4","last_reported":1723230374,"current_range_meters":800,"station_id":"ce4bgup2rcd13ifvqco0","pricing_plan_id":"cebpf4jnsgd1na2vs0mg"},{"bike_id":"d7eb1e3f-a794-47a9-9508-fa930a0b647e","system_id":"levelo_inurba_marseille","lat":43.309862,"lon":5.390736,"is_reserved":false,"is_disabled":false,"rental_uris":{"android":"levelo://app?vid=d7eb1e3f-a794-47a9-9508-fa930a0b647e","ios":"levelo://app?vid=d7eb1e3f-a794-47a9-9508-fa930a0b647e"},"vehicle_type_id":"4","last_reported":1723230374,"current_range_meters":31200,"station_id":"ce4bgup2rcd13ifvqco0","pricing_plan_id":"cebpf4jnsgd1na2vs0mg"},{"bike_id":"66bdad6a-77f6-47c8-be6d-b993d2f402f7","system_id":"levelo_inurba_marseille","lat":43.295748,"lon":5.37522,"is_reserved":false,"is_disabled":false,"rental_uris":{"android":"levelo://app?vid=66bdad6a-77f6-47c8-be6d-b993d2f402f7","ios":"levelo://app?vid=66bdad6a-77f6-47c8-be6d-b993d2f402f7"},"vehicle_type_id":"4","last_reported":1723230374,"current_range_meters":0,"station_id":"ce4bgh92rcd13ifvqb50","pricing_plan_id":"cebpf4jnsgd1na2vs0mg"},{"bike_id":"f62137d5-9292-4f14-bc2d-11e11974d83b","system_id":"levelo_inurba_marseille","lat":43.29566,"lon":5.37513,"is_reserved":false,"is_disabled":false,"rental_uris":{"android":"levelo://app?vid=f62137d5-9292-4f14-bc2d-11e11974d83b","ios":"levelo://app?vid=f62137d5-9292-4f14-bc2d-11e11974d83b"},"vehicle_type_id":"4","last_reported":1723230374,"current_range_meters":10400,"station_id":"ce4bgh92rcd13ifvqb50","pricing_plan_id":"cebpf4jnsgd1na2vs0mg"},{"bike_id":"139d8cb1-651c-49e8-9b70-fe80b1aafe18","system_id":"levelo_inurba_marseille","lat":43.296263,"lon":5.377094,"is_reserved":false,"is_disabled":false,"rental_uris":{"android":"levelo://app?vid=139d8cb1-651c-49e8-9b70-fe80b1aafe18","ios":"levelo://app?vid=139d8cb1-651c-49e8-9b70-fe80b1aafe18"},"vehicle_type_id":"4","last_reported":1723230374,"current_range_meters":31200,"station_id":"ce4bgi92rcd13ifvqb90","pricing_plan_id":"cebpf4jnsgd1na2vs0mg"},{"bike_id":"e8eb9726-d8c5-4b7e-b0df-ffcdfe849da2","system_id":"levelo_inurba_marseille","lat":43.29621,"lon":5.37708,"is_reserved":false,"is_disabled":false,"rental_uris":{"android":"levelo://app?vid=e8eb9726-d8c5-4b7e-b0df-ffcdfe849da2","ios":"levelo://app?vid=e8eb9726-d8c5-4b7e-b0df-ffcdfe849da2"},"vehicle_type_id":"4","last_reported":1723230374,"current_range_meters":22000,"station_id":"ce4bgi92rcd13ifvqb90","pricing_plan_id":"cebpf4jnsgd1na2vs0mg"},{"bike_id":"fc886fae-6e8c-413d-b47a-e939ecb51cfc","system_id":"levelo_inurba_marseille","lat":43.299724,"lon":5.384848,"is_reserved":false,"is_disabled":false,"rental_uris":{"android":"levelo://app?vid=fc886fae-6e8c-413d-b47a-e939ecb51cfc","ios":"levelo://app?vid=fc886fae-6e8c-413d-b47a-e939ecb51cfc"},"vehicle_type_id":"4","last_reported":1723230374,"current_range_meters":0,"station_id":"ce4bgj92rcd13ifvqbd0","pricing_plan_id":"cebpf4jnsgd1na2vs0mg"},{"bike_id":"c42c5c0b-eaa8-4b94-a6a1-0c1b56372cba","system_id":"levelo_inurba_marseille","lat":43.30085,"lon":5.390856,"is_reserved":false,"is_disabled":false,"rental_uris":{"android":"levelo://app?vid=c42c5c0b-eaa8-4b94-a6a1-0c1b56372cba","ios":"levelo://app?vid=c42c5c0b-eaa8-4b94-a6a1-0c1b56372cba"},"vehicle_type_id":"4","last_reported":1723230374,"current_range_meters":2000,"station_id":"ce4bh192rcd13ifvqdb0","pricing_plan_id":"cebpf4jnsgd1na2vs0mg"},{"bike_id":"dd86642d-9647-44b6-8011-13588790bca1","system_id":"levelo_inurba_marseille","lat":43.29607,"lon":5.38101,"is_reserved":false,"is_disabled":false,"rental_uris":{"android":"levelo://app?vid=dd86642d-9647-44b6-8011-13588790bca1","ios":"levelo://app?vid=dd86642d-9647-44b6-8011-13588790bca1"},"vehicle_type_id":"4","last_reported":1723230374,"current_range_meters":22800,"station_id":"ce4bgl12rcd13ifvqbo0","pricing_plan_id":"cebpf4jnsgd1na2vs0mg"},{"bike_id":"8fb4a537-5985-455d-93fe-3bc7ddd8a4bc","system_id":"levelo_inurba_marseille","lat":43.295985,"lon":5.38099,"is_reserved":false,"is_disabled":false,"rental_uris":{"android":"levelo://app?vid=8fb4a537-5985-455d-93fe-3bc7ddd8a4bc","ios":"levelo://app?vid=8fb4a537-5985-455d-93fe-3bc7ddd8a4bc"},"vehicle_type_id":"4","last_reported":1723230374,"current_range_meters":15600,"station_id":"ce4bgl12rcd13ifvqbo0","pricing_plan_id":"cebpf4jnsgd1na2vs0mg"},{"bike_id":"8e07813b-69c5-418f-9be0-e81a8136bae5","system_id":"levelo_inurba_marseille","lat":43.29602,"lon":5.381084,"is_reserved":false,"is_disabled":false,"rental_uris":{"android":"levelo://app?vid=8e07813b-69c5-418f-9be0-e81a8136bae5","ios":"levelo://app?vid=8e07813b-69c5-418f-9be0-e81a8136bae5"},"vehicle_type_id":"4","last_reported":1723230374,"current_range_meters":30000,"station_id":"ce4bgl12rcd13ifvqbo0","pricing_plan_id":"cebpf4jnsgd1na2vs0mg"},{"bike_id":"16a4f122-09fc-4b38-ad9d-41005cb0fa59","system_id":"levelo_inurba_marseille","lat":43.29602,"lon":5.381084,"is_reserved":false,"is_disabled":false,"rental_uris":{"android":"levelo://app?vid=16a4f122-09fc-4b38-ad9d-41005cb0fa59","ios":"levelo://app?vid=16a4f122-09fc-4b38-ad9d-41005cb0fa59"},"vehicle_type_id":"4","last_reported":1723230374,"current_range_meters":31600,"station_id":"ce4bgl12rcd13ifvqbo0","pricing_plan_id":"cebpf4jnsgd1na2vs0mg"},{"bike_id":"3c3b3e37-56ef-4662-9780-74143bac4091","system_id":"levelo_inurba_marseille","lat":43.309589,"lon":5.390258,"is_reserved":false,"is_disabled":false,"rental_uris":{"android":"levelo://app?vid=3c3b3e37-56ef-4662-9780-74143bac4091","ios":"levelo://app?vid=3c3b3e37-56ef-4662-9780-74143bac4091"},"vehicle_type_id":"4","last_reported":1723230374,"current_range_meters":8800,"station_id":"ce4bgup2rcd13ifvqco0","pricing_plan_id":"cebpf4jnsgd1na2vs0mg"},{"bike_id":"650ac5bc-7629-433d-8bed-b00cb016a459","system_id":"levelo_inurba_marseille","lat":43.293974,"lon":5.376532,"is_reserved":false,"is_disabled":false,"rental_uris":{"android":"levelo://app?vid=650ac5bc-7629-433d-8bed-b00cb016a459","ios":"levelo://app?vid=650ac5bc-7629-433d-8bed-b00cb016a459"},"vehicle_type_id":"4","last_reported":1723230374,"current_range_meters":28800,"station_id":"","pricing_plan_id":"cebpf4jnsgd1na2vs0mg"},{"bike_id":"cb28aa7e-30ac-40d3-bf82-fc1920504953","system_id":"levelo_inurba_marseille","lat":43.292749,"lon":5.368398,"is_reserved":false,"is_disabled":false,"rental_uris":{"android":"levelo://app?vid=cb28aa7e-30ac-40d3-bf82-fc1920504953","ios":"levelo://app?vid=cb28aa7e-30ac-40d3-bf82-fc1920504953"},"vehicle_type_id":"4","last_reported":1723230374,"current_range_meters":0,"station_id":"ce4bhbp2rcd13ifvqesg","pricing_plan_id":"cebpf4jnsgd1na2vs0mg"},{"bike_id":"acb79c1a-0784-45aa-8e1e-2b4938eb0bdc","system_id":"levelo_inurba_marseille","lat":43.294527,"lon":5.379293,"is_reserved":false,"is_disabled":false,"rental_uris":{"android":"levelo://app?vid=acb79c1a-0784-45aa-8e1e-2b4938eb0bdc","ios":"levelo://app?vid=acb79c1a-0784-45aa-8e1e-2b4938eb0bdc"},"vehicle_type_id":"4","last_reported":1723230374,"current_range_meters":0,"station_id":"","pricing_plan_id":"cebpf4jnsgd1na2vs0mg"},{"bike_id":"93d11bfa-e898-4c01-9cb5-5313d1546bde","system_id":"levelo_inurba_marseille","lat":43.305994,"lon":5.393687,"is_reserved":false,"is_disabled":false,"rental_uris":{"android":"levelo://app?vid=93d11bfa-e898-4c01-9cb5-5313d1546bde","ios":"levelo://app?vid=93d11bfa-e898-4c01-9cb5-5313d1546bde"},"vehicle_type_id":"4","last_reported":1723230374,"current_range_meters":1600,"station_id":"ce4bh0p2rcd13ifvqd80","pricing_plan_id":"cebpf4jnsgd1na2vs0mg"},{"bike_id":"287c04eb-93ff-41aa-ad48-48844d6a2ace","system_id":"levelo_inurba_marseille","lat":43.305994,"lon":5.393687,"is_reserved":false,"is_disabled":false,"rental_uris":{"android":"levelo://app?vid=287c04eb-93ff-41aa-ad48-48844d6a2ace","ios":"levelo://app?vid=287c04eb-93ff-41aa-ad48-48844d6a2ace"},"vehicle_type_id":"4","last_reported":1723230374,"current_range_meters":11600,"station_id":"ce4bh0p2rcd13ifvqd80","pricing_plan_id":"cebpf4jnsgd1na2vs0mg"},{"bike_id":"f6514f60-8235-464d-be6b-6d04c37f227f","system_id":"levelo_inurba_marseille","lat":43.293009,"lon":5.374584,"is_reserved":false,"is_disabled":false,"rental_uris":{"android":"levelo://app?vid=f6514f60-8235-464d-be6b-6d04c37f227f","ios":"levelo://app?vid=f6514f60-8235-464d-be6b-6d04c37f227f"},"vehicle_type_id":"4","last_reported":1723230374,"current_range_meters":31200,"station_id":"ce4bgi12rcd13ifvqb70","pricing_plan_id":"cebpf4jnsgd1na2vs0mg"},{"bike_id":"8d37495d-9961-45f8-ba67-ee81725ae3ae","system_id":"levelo_inurba_marseille","lat":43.29228,"lon":5.36363,"is_reserved":false,"is_disabled":false,"rental_uris":{"android":"levelo://app?vid=8d37495d-9961-45f8-ba67-ee81725ae3ae","ios":"levelo://app?vid=8d37495d-9961-45f8-ba67-ee81725ae3ae"},"vehicle_type_id":"4","last_reported":1723230374,"current_range_meters":12000,"station_id":"","pricing_plan_id":"cebpf4jnsgd1na2vs0mg"},{"bike_id":"e14d600f-b536-4613-af7b-8a2889d9ac02","system_id":"levelo_inurba_marseille","lat":43.302926,"lon":5.391879,"is_reserved":false,"is_disabled":false,"rental_uris":{"android":"levelo://app?vid=e14d600f-b536-4613-af7b-8a2889d9ac02","ios":"levelo://app?vid=e14d600f-b536-4613-af7b-8a2889d9ac02"},"vehicle_type_id":"4","last_reported":1723230374,"current_range_meters":13600,"station_id":"","pricing_plan_id":"cebpf4jnsgd1na2vs0mg"},{"bike_id":"49810c3b-becc-442d-9df6-188c497a0a29","system_id":"levelo_inurba_marseille","lat":43.303002,"lon":5.392142,"is_reserved":false,"is_disabled":false,"rental_uris":{"android":"levelo://app?vid=49810c3b-becc-442d-9df6-188c497a0a29","ios":"levelo://app?vid=49810c3b-becc-442d-9df6-188c497a0a29"},"vehicle_type_id":"4","last_reported":1723230374,"current_range_meters":31200,"station_id":"ce4bgkh2rcd13ifvqbk0","pricing_plan_id":"cebpf4jnsgd1na2vs0mg"},{"bike_id":"4a39b376-b93f-45c0-ae84-3656865812df","system_id":"levelo_inurba_marseille","lat":43.303133,"lon":5.392127,"is_reserved":false,"is_disabled":false,"rental_uris":{"android":"levelo://app?vid=4a39b376-b93f-45c0-ae84-3656865812df","ios":"levelo://app?vid=4a39b376-b93f-45c0-ae84-3656865812df"},"vehicle_type_id":"4","last_reported":1723230374,"current_range_meters":31200,"station_id":"ce4bgkh2rcd13ifvqbk0","pricing_plan_id":"cebpf4jnsgd1na2vs0mg"},{"bike_id":"548e0947-3b7f-4f3a-b773-a0acf00017e1","system_id":"levelo_inurba_marseille","lat":43.303002,"lon":5.392142,"is_reserved":false,"is_disabled":false,"rental_uris":{"android":"levelo://app?vid=548e0947-3b7f-4f3a-b773-a0acf00017e1","ios":"levelo://app?vid=548e0947-3b7f-4f3a-b773-a0acf00017e1"},"vehicle_type_id":"4","last_reported":1723230374,"current_range_meters":31200,"station_id":"ce4bgkh2rcd13ifvqbk0","pricing_plan_id":"cebpf4jnsgd1na2vs0mg"},{"bike_id":"a1c650b2-1be6-493f-acb1-6cd2416eff8f","system_id":"levelo_inurba_marseille","lat":43.2936,"lon":5.37835,"is_reserved":false,"is_disabled":false,"rental_uris":{"android":"levelo://app?vid=a1c650b2-1be6-493f-acb1-6cd2416eff8f","ios":"levelo://app?vid=a1c650b2-1be6-493f-acb1-6cd2416eff8f"},"vehicle_type_id":"4","last_reported":1723230374,"current_range_meters":2800,"station_id":"ce4bgjh2rcd13ifvqbf0","pricing_plan_id":"cebpf4jnsgd1na2vs0mg"},{"bike_id":"c06d7c83-9679-4642-9b9c-8e36ac2a988d","system_id":"levelo_inurba_marseille","lat":43.303002,"lon":5.392142,"is_reserved":false,"is_disabled":false,"rental_uris":{"android":"levelo://app?vid=c06d7c83-9679-4642-9b9c-8e36ac2a988d","ios":"levelo://app?vid=c06d7c83-9679-4642-9b9c-8e36ac2a988d"},"vehicle_type_id":"4","last_reported":1723230374,"current_range_meters":31200,"station_id":"ce4bgkh2rcd13ifvqbk0","pricing_plan_id":"cebpf4jnsgd1na2vs0mg"},{"bike_id":"22c410cc-0261-4126-a77e-a7d0a888fe89","system_id":"levelo_inurba_marseille","lat":43.303087,"lon":5.392167,"is_reserved":false,"is_disabled":false,"rental_uris":{"android":"levelo://app?vid=22c410cc-0261-4126-a77e-a7d0a888fe89","ios":"levelo://app?vid=22c410cc-0261-4126-a77e-a7d0a888fe89"},"vehicle_type_id":"4","last_reported":1723230374,"current_range_meters":31200,"station_id":"ce4bgkh2rcd13ifvqbk0","pricing_plan_id":"cebpf4jnsgd1na2vs0mg"},{"bike_id":"983cb0e5-7932-4c07-a6be-21d762a65467","system_id":"levelo_inurba_marseille","lat":43.2936,"lon":5.37835,"is_reserved":false,"is_disabled":false,"rental_uris":{"android":"levelo://app?vid=983cb0e5-7932-4c07-a6be-21d762a65467","ios":"levelo://app?vid=983cb0e5-7932-4c07-a6be-21d762a65467"},"vehicle_type_id":"4","last_reported":1723230374,"current_range_meters":12800,"station_id":"ce4bgjh2rcd13ifvqbf0","pricing_plan_id":"cebpf4jnsgd1na2vs0mg"},{"bike_id":"0fa7b6f3-c76e-44f0-8add-5d71cc3ce8be","system_id":"levelo_inurba_marseille","lat":43.292311,"lon":5.360731,"is_reserved":false,"is_disabled":false,"rental_uris":{"android":"levelo://app?vid=0fa7b6f3-c76e-44f0-8add-5d71cc3ce8be","ios":"levelo://app?vid=0fa7b6f3-c76e-44f0-8add-5d71cc3ce8be"},"vehicle_type_id":"4","last_reported":1723230374,"current_range_meters":7200,"station_id":"ce4bhbh2rcd13ifvqeqg","pricing_plan_id":"cebpf4jnsgd1na2vs0mg"},{"bike_id":"ffd265da-71a0-4efe-ad41-0a92b74640f3","system_id":"levelo_inurba_marseille","lat":43.29232,"lon":5.36062,"is_reserved":false,"is_disabled":false,"rental_uris":{"android":"levelo://app?vid=ffd265da-71a0-4efe-ad41-0a92b74640f3","ios":"levelo://app?vid=ffd265da-71a0-4efe-ad41-0a92b74640f3"},"vehicle_type_id":"4","last_reported":1723230374,"current_range_meters":0,"station_id":"ce4bhbh2rcd13ifvqeqg","pricing_plan_id":"cebpf4jnsgd1na2vs0mg"},{"bike_id":"da0e4d8c-1f09-4ec1-a6d9-26b2e1b484bd","system_id":"levelo_inurba_marseille","lat":43.292273,"lon":5.360708,"is_reserved":false,"is_disabled":false,"rental_uris":{"android":"levelo://app?vid=da0e4d8c-1f09-4ec1-a6d9-26b2e1b484bd","ios":"levelo://app?vid=da0e4d8c-1f09-4ec1-a6d9-26b2e1b484bd"},"vehicle_type_id":"4","last_reported":1723230374,"current_range_meters":12800,"station_id":"","pricing_plan_id":"cebpf4jnsgd1na2vs0mg"},{"bike_id":"d5de5265-d4a4-49a5-927d-3ba3fb760d98","system_id":"levelo_inurba_marseille","lat":43.29226,"lon":5.36066,"is_reserved":false,"is_disabled":false,"rental_uris":{"android":"levelo://app?vid=d5de5265-d4a4-49a5-927d-3ba3fb760d98","ios":"levelo://app?vid=d5de5265-d4a4-49a5-927d-3ba3fb760d98"},"vehicle_type_id":"4","last_reported":1723230374,"current_range_meters":2800,"station_id":"ce4bhbh2rcd13ifvqeqg","pricing_plan_id":"cebpf4jnsgd1na2vs0mg"},{"bike_id":"2ef1ffd4-40d5-4c1f-b691-ab935ef25082","system_id":"levelo_inurba_marseille","lat":43.292243,"lon":5.360643,"is_reserved":false,"is_disabled":false,"rental_uris":{"android":"levelo://app?vid=2ef1ffd4-40d5-4c1f-b691-ab935ef25082","ios":"levelo://app?vid=2ef1ffd4-40d5-4c1f-b691-ab935ef25082"},"vehicle_type_id":"4","last_reported":1723230374,"current_range_meters":0,"station_id":"ce4bhbh2rcd13ifvqeqg","pricing_plan_id":"cebpf4jnsgd1na2vs0mg"},{"bike_id":"02c7f1cc-0245-4c0c-95cf-bd5e5d70b091","system_id":"levelo_inurba_marseille","lat":43.29226,"lon":5.36051,"is_reserved":false,"is_disabled":false,"rental_uris":{"android":"levelo://app?vid=02c7f1cc-0245-4c0c-95cf-bd5e5d70b091","ios":"levelo://app?vid=02c7f1cc-0245-4c0c-95cf-bd5e5d70b091"},"vehicle_type_id":"4","last_reported":1723230374,"current_range_meters":0,"station_id":"ce4bhbh2rcd13ifvqeqg","pricing_plan_id":"cebpf4jnsgd1na2vs0mg"},{"bike_id":"8669c215-f64f-4991-918a-38e605b47e3d","system_id":"levelo_inurba_marseille","lat":43.292917,"lon":5.355551,"is_reserved":false,"is_disabled":false,"rental_uris":{"android":"levelo://app?vid=8669c215-f64f-4991-918a-38e605b47e3d","ios":"levelo://app?vid=8669c215-f64f-4991-918a-38e605b47e3d"},"vehicle_type_id":"4","last_reported":1723230374,"current_range_meters":11600,"station_id":"","pricing_plan_id":"cebpf4jnsgd1na2vs0mg"},{"bike_id":"ce4894c9-4e2c-4a02-9909-cd17f137e916","system_id":"levelo_inurba_marseille","lat":43.292,"lon":5.35794,"is_reserved":false,"is_disabled":false,"rental_uris":{"android":"levelo://app?vid=ce4894c9-4e2c-4a02-9909-cd17f137e916","ios":"levelo://app?vid=ce4894c9-4e2c-4a02-9909-cd17f137e916"},"vehicle_type_id":"4","last_reported":1723230374,"current_range_meters":8400,"station_id":"ce4bhb12rcd13ifvqel0","pricing_plan_id":"cebpf4jnsgd1na2vs0mg"},{"bike_id":"af92f072-cd5e-409b-9fc5-fd36e08d6c7e","system_id":"levelo_inurba_marseille","lat":43.29195,"lon":5.35809,"is_reserved":false,"is_disabled":false,"rental_uris":{"android":"levelo://app?vid=af92f072-cd5e-409b-9fc5-fd36e08d6c7e","ios":"levelo://app?vid=af92f072-cd5e-409b-9fc5-fd36e08d6c7e"},"vehicle_type_id":"4","last_reported":1723230374,"current_range_meters":24000,"station_id":"ce4bhb12rcd13ifvqel0","pricing_plan_id":"cebpf4jnsgd1na2vs0mg"},{"bike_id":"96a238d7-24e4-4386-8ffd-ccc9c6ac90f9","system_id":"levelo_inurba_marseille","lat":43.29192,"lon":5.35804,"is_reserved":false,"is_disabled":false,"rental_uris":{"android":"levelo://app?vid=96a238d7-24e4-4386-8ffd-ccc9c6ac90f9","ios":"levelo://app?vid=96a238d7-24e4-4386-8ffd-ccc9c6ac90f9"},"vehicle_type_id":"4","last_reported":1723230374,"current_range_meters":0,"station_id":"ce4bhb12rcd13ifvqel0","pricing_plan_id":"cebpf4jnsgd1na2vs0mg"},{"bike_id":"4e956296-7cd4-47f8-be3c-b561479e97a7","system_id":"levelo_inurba_marseille","lat":43.29195,"lon":5.3579,"is_reserved":false,"is_disabled":false,"rental_uris":{"android":"levelo://app?vid=4e956296-7cd4-47f8-be3c-b561479e97a7","ios":"levelo://app?vid=4e956296-7cd4-47f8-be3c-b561479e97a7"},"vehicle_type_id":"4","last_reported":1723230374,"current_range_meters":0,"station_id":"ce4bhb12rcd13ifvqel0","pricing_plan_id":"cebpf4jnsgd1na2vs0mg"},{"bike_id":"9d4b68a5-c93f-4844-a235-5ff4a055b660","system_id":"levelo_inurba_marseille","lat":43.292385,"lon":5.37767,"is_reserved":false,"is_disabled":false,"rental_uris":{"android":"levelo://app?vid=9d4b68a5-c93f-4844-a235-5ff4a055b660","ios":"levelo://app?vid=9d4b68a5-c93f-4844-a235-5ff4a055b660"},"vehicle_type_id":"4","last_reported":1723230374,"current_range_meters":14800,"station_id":"","pricing_plan_id":"cebpf4jnsgd1na2vs0mg"},{"bike_id":"8ab5a978-2554-442d-9e0a-42006075a3c5","system_id":"levelo_inurba_marseille","lat":43.309038,"lon":5.396546,"is_reserved":false,"is_disabled":false,"rental_uris":{"android":"levelo://app?vid=8ab5a978-2554-442d-9e0a-42006075a3c5","ios":"levelo://app?vid=8ab5a978-2554-442d-9e0a-42006075a3c5"},"vehicle_type_id":"4","last_reported":1723230374,"current_range_meters":4800,"station_id":"ce4bh012rcd13ifvqcv0","pricing_plan_id":"cebpf4jnsgd1na2vs0mg"},{"bike_id":"78296aee-4fdf-4f68-9947-d1f4e040bc2d","system_id":"levelo_inurba_marseille","lat":43.301553,"lon":5.392853,"is_reserved":false,"is_disabled":false,"rental_uris":{"android":"levelo://app?vid=78296aee-4fdf-4f68-9947-d1f4e040bc2d","ios":"levelo://app?vid=78296aee-4fdf-4f68-9947-d1f4e040bc2d"},"vehicle_type_id":"4","last_reported":1723230374,"current_range_meters":27600,"station_id":"","pricing_plan_id":"cebpf4jnsgd1na2vs0mg"},{"bike_id":"424cb830-7d02-4cd9-8215-73f5bb79e568","system_id":"levelo_inurba_marseille","lat":43.309038,"lon":5.396546,"is_reserved":false,"is_disabled":false,"rental_uris":{"android":"levelo://app?vid=424cb830-7d02-4cd9-8215-73f5bb79e568","ios":"levelo://app?vid=424cb830-7d02-4cd9-8215-73f5bb79e568"},"vehicle_type_id":"4","last_reported":1723230374,"current_range_meters":27200,"station_id":"ce4bh012rcd13ifvqcv0","pricing_plan_id":"cebpf4jnsgd1na2vs0mg"},{"bike_id":"c4c02c58-6d55-4755-9327-bf33b3b0bc1a","system_id":"levelo_inurba_marseille","lat":43.33334,"lon":5.37979,"is_reserved":false,"is_disabled":false,"rental_uris":{"android":"levelo://app?vid=c4c02c58-6d55-4755-9327-bf33b3b0bc1a","ios":"levelo://app?vid=c4c02c58-6d55-4755-9327-bf33b3b0bc1a"},"vehicle_type_id":"4","last_reported":1723230374,"current_range_meters":23200,"station_id":"","pricing_plan_id":"cebpf4jnsgd1na2vs0mg"},{"bike_id":"2a8d49c3-6a58-45cc-8443-920c12a7de30","system_id":"levelo_inurba_marseille","lat":43.302008,"lon":5.394694,"is_reserved":false,"is_disabled":false,"rental_uris":{"android":"levelo://app?vid=2a8d49c3-6a58-45cc-8443-920c12a7de30","ios":"levelo://app?vid=2a8d49c3-6a58-45cc-8443-920c12a7de30"},"vehicle_type_id":"4","last_reported":1723230374,"current_range_meters":27600,"station_id":"ce4bh0p2rcd13ifvqd70","pricing_plan_id":"cebpf4jnsgd1na2vs0mg"},{"bike_id":"5fac096b-f0c6-4d94-8d63-db4961c1446a","system_id":"levelo_inurba_marseille","lat":43.290319,"lon":5.375732,"is_reserved":false,"is_disabled":false,"rental_uris":{"android":"levelo://app?vid=5fac096b-f0c6-4d94-8d63-db4961c1446a","ios":"levelo://app?vid=5fac096b-f0c6-4d94-8d63-db4961c1446a"},"vehicle_type_id":"4","last_reported":1723230374,"current_range_meters":25200,"station_id":"ce4bh692rcd13ifvqe90","pricing_plan_id":"cebpf4jnsgd1na2vs0mg"},{"bike_id":"52cea8c5-0e38-49f2-ac95-06472531746a","system_id":"levelo_inurba_marseille","lat":43.290327,"lon":5.375711,"is_reserved":false,"is_disabled":false,"rental_uris":{"android":"levelo://app?vid=52cea8c5-0e38-49f2-ac95-06472531746a","ios":"levelo://app?vid=52cea8c5-0e38-49f2-ac95-06472531746a"},"vehicle_type_id":"4","last_reported":1723230374,"current_range_meters":20800,"station_id":"ce4bh692rcd13ifvqe90","pricing_plan_id":"cebpf4jnsgd1na2vs0mg"},{"bike_id":"9e4f5872-f8d4-41e9-ac5f-68cc08d2b32f","system_id":"levelo_inurba_marseille","lat":43.289184,"lon":5.366408,"is_reserved":false,"is_disabled":false,"rental_uris":{"android":"levelo://app?vid=9e4f5872-f8d4-41e9-ac5f-68cc08d2b32f","ios":"levelo://app?vid=9e4f5872-f8d4-41e9-ac5f-68cc08d2b32f"},"vehicle_type_id":"4","last_reported":1723230374,"current_range_meters":2400,"station_id":"ce4bhap2rcd13ifvqek0","pricing_plan_id":"cebpf4jnsgd1na2vs0mg"},{"bike_id":"606012d3-11ad-41ce-8de3-df92421a418d","system_id":"levelo_inurba_marseille","lat":43.289184,"lon":5.366408,"is_reserved":false,"is_disabled":false,"rental_uris":{"android":"levelo://app?vid=606012d3-11ad-41ce-8de3-df92421a418d","ios":"levelo://app?vid=606012d3-11ad-41ce-8de3-df92421a418d"},"vehicle_type_id":"4","last_reported":1723230374,"current_range_meters":22000,"station_id":"ce4bhap2rcd13ifvqek0","pricing_plan_id":"cebpf4jnsgd1na2vs0mg"},{"bike_id":"cc7a0f04-1b07-406b-8d58-05650f2b68dd","system_id":"levelo_inurba_marseille","lat":43.292642,"lon":5.384254,"is_reserved":false,"is_disabled":false,"rental_uris":{"android":"levelo://app?vid=cc7a0f04-1b07-406b-8d58-05650f2b68dd","ios":"levelo://app?vid=cc7a0f04-1b07-406b-8d58-05650f2b68dd"},"vehicle_type_id":"4","last_reported":1723230374,"current_range_meters":26800,"station_id":"ce4bh692rcd13ifvqea0","pricing_plan_id":"cebpf4jnsgd1na2vs0mg"},{"bike_id":"0dfcce1c-6e91-4fde-a3dd-ca6305220719","system_id":"levelo_inurba_marseille","lat":43.29277,"lon":5.38449,"is_reserved":false,"is_disabled":false,"rental_uris":{"android":"levelo://app?vid=0dfcce1c-6e91-4fde-a3dd-ca6305220719","ios":"levelo://app?vid=0dfcce1c-6e91-4fde-a3dd-ca6305220719"},"vehicle_type_id":"4","last_reported":1723230374,"current_range_meters":29200,"station_id":"ce4bh692rcd13ifvqea0","pricing_plan_id":"cebpf4jnsgd1na2vs0mg"},{"bike_id":"7e790ea4-4945-48ee-988d-fa67a5ae14dc","system_id":"levelo_inurba_marseille","lat":43.29275,"lon":5.38446,"is_reserved":false,"is_disabled":false,"rental_uris":{"android":"levelo://app?vid=7e790ea4-4945-48ee-988d-fa67a5ae14dc","ios":"levelo://app?vid=7e790ea4-4945-48ee-988d-fa67a5ae14dc"},"vehicle_type_id":"4","last_reported":1723230374,"current_range_meters":24400,"station_id":"ce4bh692rcd13ifvqea0","pricing_plan_id":"cebpf4jnsgd1na2vs0mg"},{"bike_id":"7b762cc3-9db5-410e-9508-8d2a80f7ed59","system_id":"levelo_inurba_marseille","lat":43.292642,"lon":5.384254,"is_reserved":false,"is_disabled":false,"rental_uris":{"android":"levelo://app?vid=7b762cc3-9db5-410e-9508-8d2a80f7ed59","ios":"levelo://app?vid=7b762cc3-9db5-410e-9508-8d2a80f7ed59"},"vehicle_type_id":"4","last_reported":1723230374,"current_range_meters":2000,"station_id":"ce4bh692rcd13ifvqea0","pricing_plan_id":"cebpf4jnsgd1na2vs0mg"},{"bike_id":"18f9f448-76d8-477b-976d-b482bf1e2563","system_id":"levelo_inurba_marseille","lat":43.290995,"lon":5.381361,"is_reserved":false,"is_disabled":false,"rental_uris":{"android":"levelo://app?vid=18f9f448-76d8-477b-976d-b482bf1e2563","ios":"levelo://app?vid=18f9f448-76d8-477b-976d-b482bf1e2563"},"vehicle_type_id":"4","last_reported":1723230374,"current_range_meters":18800,"station_id":"ce4bh512rcd13ifvqe2g","pricing_plan_id":"cebpf4jnsgd1na2vs0mg"},{"bike_id":"d0460fc6-576f-4a76-9538-8a65c823a0b2","system_id":"levelo_inurba_marseille","lat":43.29279,"lon":5.38457,"is_reserved":false,"is_disabled":false,"rental_uris":{"android":"levelo://app?vid=d0460fc6-576f-4a76-9538-8a65c823a0b2","ios":"levelo://app?vid=d0460fc6-576f-4a76-9538-8a65c823a0b2"},"vehicle_type_id":"4","last_reported":1723230374,"current_range_meters":8000,"station_id":"ce4bh692rcd13ifvqea0","pricing_plan_id":"cebpf4jnsgd1na2vs0mg"},{"bike_id":"85f9725f-7d5c-428d-8639-516e9269f6db","system_id":"levelo_inurba_marseille","lat":43.29271,"lon":5.3844,"is_reserved":false,"is_disabled":false,"rental_uris":{"android":"levelo://app?vid=85f9725f-7d5c-428d-8639-516e9269f6db","ios":"levelo://app?vid=85f9725f-7d5c-428d-8639-516e9269f6db"},"vehicle_type_id":"4","last_reported":1723230374,"current_range_meters":18000,"station_id":"ce4bh692rcd13ifvqea0","pricing_plan_id":"cebpf4jnsgd1na2vs0mg"},{"bike_id":"fdaa6053-7e47-4982-bd84-4e12fc9a9db5","system_id":"levelo_inurba_marseille","lat":43.292642,"lon":5.384254,"is_reserved":false,"is_disabled":false,"rental_uris":{"android":"levelo://app?vid=fdaa6053-7e47-4982-bd84-4e12fc9a9db5","ios":"levelo://app?vid=fdaa6053-7e47-4982-bd84-4e12fc9a9db5"},"vehicle_type_id":"4","last_reported":1723230374,"current_range_meters":0,"station_id":"ce4bh692rcd13ifvqea0","pricing_plan_id":"cebpf4jnsgd1na2vs0mg"},{"bike_id":"cd3fdb9b-3ec4-47be-90e3-6597e92f449e","system_id":"levelo_inurba_marseille","lat":43.304277,"lon":5.39742,"is_reserved":false,"is_disabled":false,"rental_uris":{"android":"levelo://app?vid=cd3fdb9b-3ec4-47be-90e3-6597e92f449e","ios":"levelo://app?vid=cd3fdb9b-3ec4-47be-90e3-6597e92f449e"},"vehicle_type_id":"4","last_reported":1723230374,"current_range_meters":0,"station_id":"ce4bh092rcd13ifvqd20","pricing_plan_id":"cebpf4jnsgd1na2vs0mg"},{"bike_id":"a639d8ec-b4bb-4c97-8491-537ee395673d","system_id":"levelo_inurba_marseille","lat":43.29267,"lon":5.38441,"is_reserved":false,"is_disabled":false,"rental_uris":{"android":"levelo://app?vid=a639d8ec-b4bb-4c97-8491-537ee395673d","ios":"levelo://app?vid=a639d8ec-b4bb-4c97-8491-537ee395673d"},"vehicle_type_id":"4","last_reported":1723230374,"current_range_meters":0,"station_id":"ce4bh692rcd13ifvqea0","pricing_plan_id":"cebpf4jnsgd1na2vs0mg"},{"bike_id":"02a801bb-7a3e-4853-afb3-4cdac54013a4","system_id":"levelo_inurba_marseille","lat":43.292642,"lon":5.384254,"is_reserved":false,"is_disabled":false,"rental_uris":{"android":"levelo://app?vid=02a801bb-7a3e-4853-afb3-4cdac54013a4","ios":"levelo://app?vid=02a801bb-7a3e-4853-afb3-4cdac54013a4"},"vehicle_type_id":"4","last_reported":1723230374,"current_range_meters":16800,"station_id":"ce4bh692rcd13ifvqea0","pricing_plan_id":"cebpf4jnsgd1na2vs0mg"},{"bike_id":"d657a5c0-db28-4761-a593-d794f3faac06","system_id":"levelo_inurba_marseille","lat":43.292642,"lon":5.384254,"is_reserved":false,"is_disabled":false,"rental_uris":{"android":"levelo://app?vid=d657a5c0-db28-4761-a593-d794f3faac06","ios":"levelo://app?vid=d657a5c0-db28-4761-a593-d794f3faac06"},"vehicle_type_id":"4","last_reported":1723230374,"current_range_meters":1200,"station_id":"ce4bh692rcd13ifvqea0","pricing_plan_id":"cebpf4jnsgd1na2vs0mg"},{"bike_id":"7a02b892-6ae4-439e-84dd-08f8572dd457","system_id":"levelo_inurba_marseille","lat":43.2927,"lon":5.38454,"is_reserved":false,"is_disabled":false,"rental_uris":{"android":"levelo://app?vid=7a02b892-6ae4-439e-84dd-08f8572dd457","ios":"levelo://app?vid=7a02b892-6ae4-439e-84dd-08f8572dd457"},"vehicle_type_id":"4","last_reported":1723230374,"current_range_meters":21600,"station_id":"ce4bh692rcd13ifvqea0","pricing_plan_id":"cebpf4jnsgd1na2vs0mg"},{"bike_id":"c2396924-d9e0-4beb-8f7b-b506724891a3","system_id":"levelo_inurba_marseille","lat":43.292642,"lon":5.384254,"is_reserved":false,"is_disabled":false,"rental_uris":{"android":"levelo://app?vid=c2396924-d9e0-4beb-8f7b-b506724891a3","ios":"levelo://app?vid=c2396924-d9e0-4beb-8f7b-b506724891a3"},"vehicle_type_id":"4","last_reported":1723230374,"current_range_meters":31600,"station_id":"ce4bh692rcd13ifvqea0","pricing_plan_id":"cebpf4jnsgd1na2vs0mg"},{"bike_id":"639e5d94-1c74-4c3e-89d7-5735075dbc5f","system_id":"levelo_inurba_marseille","lat":43.29261,"lon":5.38435,"is_reserved":false,"is_disabled":false,"rental_uris":{"android":"levelo://app?vid=639e5d94-1c74-4c3e-89d7-5735075dbc5f","ios":"levelo://app?vid=639e5d94-1c74-4c3e-89d7-5735075dbc5f"},"vehicle_type_id":"4","last_reported":1723230374,"current_range_meters":27200,"station_id":"ce4bh692rcd13ifvqea0","pricing_plan_id":"cebpf4jnsgd1na2vs0mg"},{"bike_id":"6c7ce4e9-1bd4-4f0b-a906-e50d3c2a1cc1","system_id":"levelo_inurba_marseille","lat":43.292642,"lon":5.384254,"is_reserved":false,"is_disabled":false,"rental_uris":{"android":"levelo://app?vid=6c7ce4e9-1bd4-4f0b-a906-e50d3c2a1cc1","ios":"levelo://app?vid=6c7ce4e9-1bd4-4f0b-a906-e50d3c2a1cc1"},"vehicle_type_id":"4","last_reported":1723230374,"current_range_meters":0,"station_id":"ce4bh692rcd13ifvqea0","pricing_plan_id":"cebpf4jnsgd1na2vs0mg"},{"bike_id":"38ddc316-753d-47f9-92f5-fdc66f021907","system_id":"levelo_inurba_marseille","lat":43.30426,"lon":5.39754,"is_reserved":false,"is_disabled":false,"rental_uris":{"android":"levelo://app?vid=38ddc316-753d-47f9-92f5-fdc66f021907","ios":"levelo://app?vid=38ddc316-753d-47f9-92f5-fdc66f021907"},"vehicle_type_id":"4","last_reported":1723230374,"current_range_meters":0,"station_id":"ce4bh092rcd13ifvqd20","pricing_plan_id":"cebpf4jnsgd1na2vs0mg"},{"bike_id":"53f396e4-4ba6-4851-a793-554a5b3623e5","system_id":"levelo_inurba_marseille","lat":43.29261,"lon":5.384473,"is_reserved":false,"is_disabled":false,"rental_uris":{"android":"levelo://app?vid=53f396e4-4ba6-4851-a793-554a5b3623e5","ios":"levelo://app?vid=53f396e4-4ba6-4851-a793-554a5b3623e5"},"vehicle_type_id":"4","last_reported":1723230374,"current_range_meters":31200,"station_id":"ce4bh692rcd13ifvqea0","pricing_plan_id":"cebpf4jnsgd1na2vs0mg"},{"bike_id":"ec5800b1-9c63-4120-928e-14e13d59f637","system_id":"levelo_inurba_marseille","lat":43.290995,"lon":5.381361,"is_reserved":false,"is_disabled":false,"rental_uris":{"android":"levelo://app?vid=ec5800b1-9c63-4120-928e-14e13d59f637","ios":"levelo://app?vid=ec5800b1-9c63-4120-928e-14e13d59f637"},"vehicle_type_id":"4","last_reported":1723230374,"current_range_meters":31600,"station_id":"ce4bh512rcd13ifvqe2g","pricing_plan_id":"cebpf4jnsgd1na2vs0mg"},{"bike_id":"da53f27d-56a3-4519-8302-b70a9465fac6","system_id":"levelo_inurba_marseille","lat":43.290995,"lon":5.381361,"is_reserved":false,"is_disabled":false,"rental_uris":{"android":"levelo://app?vid=da53f27d-56a3-4519-8302-b70a9465fac6","ios":"levelo://app?vid=da53f27d-56a3-4519-8302-b70a9465fac6"},"vehicle_type_id":"4","last_reported":1723230374,"current_range_meters":9600,"station_id":"ce4bh512rcd13ifvqe2g","pricing_plan_id":"cebpf4jnsgd1na2vs0mg"},{"bike_id":"b9f79713-5b5e-4f2f-a18e-b671e23378fb","system_id":"levelo_inurba_marseille","lat":43.29105,"lon":5.38162,"is_reserved":false,"is_disabled":false,"rental_uris":{"android":"levelo://app?vid=b9f79713-5b5e-4f2f-a18e-b671e23378fb","ios":"levelo://app?vid=b9f79713-5b5e-4f2f-a18e-b671e23378fb"},"vehicle_type_id":"4","last_reported":1723230374,"current_range_meters":0,"station_id":"ce4bh512rcd13ifvqe2g","pricing_plan_id":"cebpf4jnsgd1na2vs0mg"},{"bike_id":"7ffcd5f0-6bcc-404b-9e4d-c8a134f294d9","system_id":"levelo_inurba_marseille","lat":43.297807,"lon":5.393533,"is_reserved":false,"is_disabled":false,"rental_uris":{"android":"levelo://app?vid=7ffcd5f0-6bcc-404b-9e4d-c8a134f294d9","ios":"levelo://app?vid=7ffcd5f0-6bcc-404b-9e4d-c8a134f294d9"},"vehicle_type_id":"4","last_reported":1723230374,"current_range_meters":31200,"station_id":"chh1huq6cuj3fo74tm60","pricing_plan_id":"cebpf4jnsgd1na2vs0mg"},{"bike_id":"2f5675ce-23cd-4455-b99c-89586f502fd8","system_id":"levelo_inurba_marseille","lat":43.297908,"lon":5.393402,"is_reserved":false,"is_disabled":false,"rental_uris":{"android":"levelo://app?vid=2f5675ce-23cd-4455-b99c-89586f502fd8","ios":"levelo://app?vid=2f5675ce-23cd-4455-b99c-89586f502fd8"},"vehicle_type_id":"4","last_reported":1723230374,"current_range_meters":6800,"station_id":"","pricing_plan_id":"cebpf4jnsgd1na2vs0mg"},{"bike_id":"b3f74091-a26f-4da8-bc9d-6da753554d51","system_id":"levelo_inurba_marseille","lat":43.297807,"lon":5.393533,"is_reserved":false,"is_disabled":false,"rental_uris":{"android":"levelo://app?vid=b3f74091-a26f-4da8-bc9d-6da753554d51","ios":"levelo://app?vid=b3f74091-a26f-4da8-bc9d-6da753554d51"},"vehicle_type_id":"4","last_reported":1723230374,"current_range_meters":31200,"station_id":"chh1huq6cuj3fo74tm60","pricing_plan_id":"cebpf4jnsgd1na2vs0mg"},{"bike_id":"ef8b7789-c1e6-4cb4-aaf1-78217b519977","system_id":"levelo_inurba_marseille","lat":43.330442,"lon":5.389148,"is_reserved":false,"is_disabled":false,"rental_uris":{"android":"levelo://app?vid=ef8b7789-c1e6-4cb4-aaf1-78217b519977","ios":"levelo://app?vid=ef8b7789-c1e6-4cb4-aaf1-78217b519977"},"vehicle_type_id":"4","last_reported":1723230374,"current_range_meters":15200,"station_id":"ce4bhr92rcd13ifvqhrg","pricing_plan_id":"cebpf4jnsgd1na2vs0mg"},{"bike_id":"9d0283cb-9b83-4fcb-a2b5-fe6a19c140ce","system_id":"levelo_inurba_marseille","lat":43.330442,"lon":5.389148,"is_reserved":false,"is_disabled":false,"rental_uris":{"android":"levelo://app?vid=9d0283cb-9b83-4fcb-a2b5-fe6a19c140ce","ios":"levelo://app?vid=9d0283cb-9b83-4fcb-a2b5-fe6a19c140ce"},"vehicle_type_id":"4","last_reported":1723230374,"current_range_meters":28800,"station_id":"ce4bhr92rcd13ifvqhrg","pricing_plan_id":"cebpf4jnsgd1na2vs0mg"},{"bike_id":"620a0c1b-dba4-40ec-8220-fbf7d939ba56","system_id":"levelo_inurba_marseille","lat":43.330442,"lon":5.389148,"is_reserved":false,"is_disabled":false,"rental_uris":{"android":"levelo://app?vid=620a0c1b-dba4-40ec-8220-fbf7d939ba56","ios":"levelo://app?vid=620a0c1b-dba4-40ec-8220-fbf7d939ba56"},"vehicle_type_id":"4","last_reported":1723230374,"current_range_meters":12400,"station_id":"ce4bhr92rcd13ifvqhrg","pricing_plan_id":"cebpf4jnsgd1na2vs0mg"},{"bike_id":"f9824a99-f963-4d72-ade0-f6c563ba6dd3","system_id":"levelo_inurba_marseille","lat":43.330442,"lon":5.389148,"is_reserved":false,"is_disabled":false,"rental_uris":{"android":"levelo://app?vid=f9824a99-f963-4d72-ade0-f6c563ba6dd3","ios":"levelo://app?vid=f9824a99-f963-4d72-ade0-f6c563ba6dd3"},"vehicle_type_id":"4","last_reported":1723230374,"current_range_meters":4400,"station_id":"ce4bhr92rcd13ifvqhrg","pricing_plan_id":"cebpf4jnsgd1na2vs0mg"},{"bike_id":"694d3846-9ab4-4c65-8870-ff5f6f3c9125","system_id":"levelo_inurba_marseille","lat":43.330442,"lon":5.389148,"is_reserved":false,"is_disabled":false,"rental_uris":{"android":"levelo://app?vid=694d3846-9ab4-4c65-8870-ff5f6f3c9125","ios":"levelo://app?vid=694d3846-9ab4-4c65-8870-ff5f6f3c9125"},"vehicle_type_id":"4","last_reported":1723230374,"current_range_meters":31200,"station_id":"ce4bhr92rcd13ifvqhrg","pricing_plan_id":"cebpf4jnsgd1na2vs0mg"},{"bike_id":"2cfdf70f-f3d0-43ec-bb23-3887119a11d4","system_id":"levelo_inurba_marseille","lat":43.33026,"lon":5.39044,"is_reserved":false,"is_disabled":false,"rental_uris":{"android":"levelo://app?vid=2cfdf70f-f3d0-43ec-bb23-3887119a11d4","ios":"levelo://app?vid=2cfdf70f-f3d0-43ec-bb23-3887119a11d4"},"vehicle_type_id":"4","last_reported":1723230374,"current_range_meters":30800,"station_id":"ce4bhr92rcd13ifvqhrg","pricing_plan_id":"cebpf4jnsgd1na2vs0mg"},{"bike_id":"dafd410b-a6f0-411b-932b-5e2f02dad9be","system_id":"levelo_inurba_marseille","lat":43.295169,"lon":5.390426,"is_reserved":false,"is_disabled":false,"rental_uris":{"android":"levelo://app?vid=dafd410b-a6f0-411b-932b-5e2f02dad9be","ios":"levelo://app?vid=dafd410b-a6f0-411b-932b-5e2f02dad9be"},"vehicle_type_id":"4","last_reported":1723230374,"current_range_meters":800,"station_id":"ce4bh3p2rcd13ifvqdp0","pricing_plan_id":"cebpf4jnsgd1na2vs0mg"},{"bike_id":"cb4c29a3-65ac-4e57-8203-3357e6025bbe","system_id":"levelo_inurba_marseille","lat":43.330442,"lon":5.389148,"is_reserved":false,"is_disabled":false,"rental_uris":{"android":"levelo://app?vid=cb4c29a3-65ac-4e57-8203-3357e6025bbe","ios":"levelo://app?vid=cb4c29a3-65ac-4e57-8203-3357e6025bbe"},"vehicle_type_id":"4","last_reported":1723230374,"current_range_meters":29600,"station_id":"ce4bhr92rcd13ifvqhrg","pricing_plan_id":"cebpf4jnsgd1na2vs0mg"},{"bike_id":"9e4137e2-7265-4286-b47b-8920065735b0","system_id":"levelo_inurba_marseille","lat":43.2901,"lon":5.381269,"is_reserved":false,"is_disabled":false,"rental_uris":{"android":"levelo://app?vid=9e4137e2-7265-4286-b47b-8920065735b0","ios":"levelo://app?vid=9e4137e2-7265-4286-b47b-8920065735b0"},"vehicle_type_id":"4","last_reported":1723230374,"current_range_meters":16800,"station_id":"ce4bh4p2rcd13ifvqe1g","pricing_plan_id":"cebpf4jnsgd1na2vs0mg"},{"bike_id":"9761ee0f-4a28-4d89-8b4a-8b74db362fd2","system_id":"levelo_inurba_marseille","lat":43.290094,"lon":5.381264,"is_reserved":false,"is_disabled":false,"rental_uris":{"android":"levelo://app?vid=9761ee0f-4a28-4d89-8b4a-8b74db362fd2","ios":"levelo://app?vid=9761ee0f-4a28-4d89-8b4a-8b74db362fd2"},"vehicle_type_id":"4","last_reported":1723230374,"current_range_meters":0,"station_id":"ce4bh4p2rcd13ifvqe1g","pricing_plan_id":"cebpf4jnsgd1na2vs0mg"},{"bike_id":"2f464a61-f1ea-4d4b-978c-71055abade83","system_id":"levelo_inurba_marseille","lat":43.2885,"lon":5.35839,"is_reserved":false,"is_disabled":false,"rental_uris":{"android":"levelo://app?vid=2f464a61-f1ea-4d4b-978c-71055abade83","ios":"levelo://app?vid=2f464a61-f1ea-4d4b-978c-71055abade83"},"vehicle_type_id":"4","last_reported":1723230374,"current_range_meters":28000,"station_id":"ce4bhb12rcd13ifvqem0","pricing_plan_id":"cebpf4jnsgd1na2vs0mg"},{"bike_id":"f7be96d0-1e81-4673-8750-9c757babd00f","system_id":"levelo_inurba_marseille","lat":43.310234,"lon":5.401213,"is_reserved":false,"is_disabled":false,"rental_uris":{"android":"levelo://app?vid=f7be96d0-1e81-4673-8750-9c757babd00f","ios":"levelo://app?vid=f7be96d0-1e81-4673-8750-9c757babd00f"},"vehicle_type_id":"4","last_reported":1723230374,"current_range_meters":27600,"station_id":"","pricing_plan_id":"cebpf4jnsgd1na2vs0mg"},{"bike_id":"d9f1ff18-2be9-446a-8de6-95abc76e234a","system_id":"levelo_inurba_marseille","lat":43.312609,"lon":5.401662,"is_reserved":false,"is_disabled":false,"rental_uris":{"android":"levelo://app?vid=d9f1ff18-2be9-446a-8de6-95abc76e234a","ios":"levelo://app?vid=d9f1ff18-2be9-446a-8de6-95abc76e234a"},"vehicle_type_id":"4","last_reported":1723230374,"current_range_meters":6000,"station_id":"ce4bh092rcd13ifvqd30","pricing_plan_id":"cebpf4jnsgd1na2vs0mg"},{"bike_id":"edaf87d6-2a02-430b-8ef4-d2668b7e140d","system_id":"levelo_inurba_marseille","lat":43.312609,"lon":5.401662,"is_reserved":false,"is_disabled":false,"rental_uris":{"android":"levelo://app?vid=edaf87d6-2a02-430b-8ef4-d2668b7e140d","ios":"levelo://app?vid=edaf87d6-2a02-430b-8ef4-d2668b7e140d"},"vehicle_type_id":"4","last_reported":1723230374,"current_range_meters":29200,"station_id":"ce4bh092rcd13ifvqd30","pricing_plan_id":"cebpf4jnsgd1na2vs0mg"},{"bike_id":"b82d858a-91a0-49bf-a6fc-8ae898ab18fa","system_id":"levelo_inurba_marseille","lat":43.312609,"lon":5.401662,"is_reserved":false,"is_disabled":false,"rental_uris":{"android":"levelo://app?vid=b82d858a-91a0-49bf-a6fc-8ae898ab18fa","ios":"levelo://app?vid=b82d858a-91a0-49bf-a6fc-8ae898ab18fa"},"vehicle_type_id":"4","last_reported":1723230374,"current_range_meters":31200,"station_id":"ce4bh092rcd13ifvqd30","pricing_plan_id":"cebpf4jnsgd1na2vs0mg"},{"bike_id":"ae6a9f1e-b137-4b67-876f-6cccd8493fa4","system_id":"levelo_inurba_marseille","lat":43.309371,"lon":5.401449,"is_reserved":false,"is_disabled":false,"rental_uris":{"android":"levelo://app?vid=ae6a9f1e-b137-4b67-876f-6cccd8493fa4","ios":"levelo://app?vid=ae6a9f1e-b137-4b67-876f-6cccd8493fa4"},"vehicle_type_id":"4","last_reported":1723230374,"current_range_meters":12000,"station_id":"ce4bgvp2rcd13ifvqct0","pricing_plan_id":"cebpf4jnsgd1na2vs0mg"},{"bike_id":"e1a52c05-4f14-446d-a01f-0e946a9aa98f","system_id":"levelo_inurba_marseille","lat":43.309371,"lon":5.401449,"is_reserved":false,"is_disabled":false,"rental_uris":{"android":"levelo://app?vid=e1a52c05-4f14-446d-a01f-0e946a9aa98f","ios":"levelo://app?vid=e1a52c05-4f14-446d-a01f-0e946a9aa98f"},"vehicle_type_id":"4","last_reported":1723230374,"current_range_meters":14800,"station_id":"ce4bgvp2rcd13ifvqct0","pricing_plan_id":"cebpf4jnsgd1na2vs0mg"},{"bike_id":"ac75d8e5-5139-4e43-a64e-51e7994c2517","system_id":"levelo_inurba_marseille","lat":43.337444,"lon":5.374475,"is_reserved":false,"is_disabled":false,"rental_uris":{"android":"levelo://app?vid=ac75d8e5-5139-4e43-a64e-51e7994c2517","ios":"levelo://app?vid=ac75d8e5-5139-4e43-a64e-51e7994c2517"},"vehicle_type_id":"3","last_reported":1723230374,"current_range_meters":24800,"station_id":"","pricing_plan_id":"cebpf4jnsgd1na2vs0mg"},{"bike_id":"0d3ccbe8-7761-4981-9c24-0dc61d38421e","system_id":"levelo_inurba_marseille","lat":43.309371,"lon":5.401449,"is_reserved":false,"is_disabled":false,"rental_uris":{"android":"levelo://app?vid=0d3ccbe8-7761-4981-9c24-0dc61d38421e","ios":"levelo://app?vid=0d3ccbe8-7761-4981-9c24-0dc61d38421e"},"vehicle_type_id":"4","last_reported":1723230374,"current_range_meters":14800,"station_id":"ce4bgvp2rcd13ifvqct0","pricing_plan_id":"cebpf4jnsgd1na2vs0mg"},{"bike_id":"a843ba9f-aa34-4fa0-b668-ce81ab5d6f59","system_id":"levelo_inurba_marseille","lat":43.309371,"lon":5.401449,"is_reserved":false,"is_disabled":false,"rental_uris":{"android":"levelo://app?vid=a843ba9f-aa34-4fa0-b668-ce81ab5d6f59","ios":"levelo://app?vid=a843ba9f-aa34-4fa0-b668-ce81ab5d6f59"},"vehicle_type_id":"4","last_reported":1723230374,"current_range_meters":18000,"station_id":"ce4bgvp2rcd13ifvqct0","pricing_plan_id":"cebpf4jnsgd1na2vs0mg"},{"bike_id":"1596ed5a-2748-4147-884b-51e994b2b8ca","system_id":"levelo_inurba_marseille","lat":43.337482,"lon":5.374568,"is_reserved":false,"is_disabled":false,"rental_uris":{"android":"levelo://app?vid=1596ed5a-2748-4147-884b-51e994b2b8ca","ios":"levelo://app?vid=1596ed5a-2748-4147-884b-51e994b2b8ca"},"vehicle_type_id":"4","last_reported":1723230374,"current_range_meters":19600,"station_id":"","pricing_plan_id":"cebpf4jnsgd1na2vs0mg"},{"bike_id":"98486282-6ed3-4814-aeae-354df4f6451a","system_id":"levelo_inurba_marseille","lat":43.309371,"lon":5.401449,"is_reserved":false,"is_disabled":false,"rental_uris":{"android":"levelo://app?vid=98486282-6ed3-4814-aeae-354df4f6451a","ios":"levelo://app?vid=98486282-6ed3-4814-aeae-354df4f6451a"},"vehicle_type_id":"4","last_reported":1723230374,"current_range_meters":1600,"station_id":"ce4bgvp2rcd13ifvqct0","pricing_plan_id":"cebpf4jnsgd1na2vs0mg"},{"bike_id":"ed1c105b-e0c3-46fc-bce8-8cbfdf82e0b1","system_id":"levelo_inurba_marseille","lat":43.312609,"lon":5.401662,"is_reserved":false,"is_disabled":false,"rental_uris":{"android":"levelo://app?vid=ed1c105b-e0c3-46fc-bce8-8cbfdf82e0b1","ios":"levelo://app?vid=ed1c105b-e0c3-46fc-bce8-8cbfdf82e0b1"},"vehicle_type_id":"4","last_reported":1723230374,"current_range_meters":0,"station_id":"ce4bh092rcd13ifvqd30","pricing_plan_id":"cebpf4jnsgd1na2vs0mg"},{"bike_id":"6137b86e-8de9-4c4f-94ef-bfa372175031","system_id":"levelo_inurba_marseille","lat":43.337513,"lon":5.37454,"is_reserved":false,"is_disabled":false,"rental_uris":{"android":"levelo://app?vid=6137b86e-8de9-4c4f-94ef-bfa372175031","ios":"levelo://app?vid=6137b86e-8de9-4c4f-94ef-bfa372175031"},"vehicle_type_id":"4","last_reported":1723230374,"current_range_meters":18800,"station_id":"","pricing_plan_id":"cebpf4jnsgd1na2vs0mg"},{"bike_id":"f2c39657-f64b-4c05-b0b3-af94dc52094d","system_id":"levelo_inurba_marseille","lat":43.33756,"lon":5.37441,"is_reserved":false,"is_disabled":false,"rental_uris":{"android":"levelo://app?vid=f2c39657-f64b-4c05-b0b3-af94dc52094d","ios":"levelo://app?vid=f2c39657-f64b-4c05-b0b3-af94dc52094d"},"vehicle_type_id":"4","last_reported":1723230374,"current_range_meters":3200,"station_id":"","pricing_plan_id":"cebpf4jnsgd1na2vs0mg"},{"bike_id":"c24ccdf3-8374-4625-a41a-8280c7fc42b0","system_id":"levelo_inurba_marseille","lat":43.337554,"lon":5.374452,"is_reserved":false,"is_disabled":false,"rental_uris":{"android":"levelo://app?vid=c24ccdf3-8374-4625-a41a-8280c7fc42b0","ios":"levelo://app?vid=c24ccdf3-8374-4625-a41a-8280c7fc42b0"},"vehicle_type_id":"4","last_reported":1723230374,"current_range_meters":28000,"station_id":"","pricing_plan_id":"cebpf4jnsgd1na2vs0mg"},{"bike_id":"95e665ed-afbb-4ece-97e4-ecc3d1a7e7e9","system_id":"levelo_inurba_marseille","lat":43.337641,"lon":5.374361,"is_reserved":false,"is_disabled":false,"rental_uris":{"android":"levelo://app?vid=95e665ed-afbb-4ece-97e4-ecc3d1a7e7e9","ios":"levelo://app?vid=95e665ed-afbb-4ece-97e4-ecc3d1a7e7e9"},"vehicle_type_id":"4","last_reported":1723230374,"current_range_meters":30400,"station_id":"","pricing_plan_id":"cebpf4jnsgd1na2vs0mg"},{"bike_id":"9c370677-6c6f-4d23-8cf0-7d8de4f71f2a","system_id":"levelo_inurba_marseille","lat":43.337673,"lon":5.374345,"is_reserved":false,"is_disabled":false,"rental_uris":{"android":"levelo://app?vid=9c370677-6c6f-4d23-8cf0-7d8de4f71f2a","ios":"levelo://app?vid=9c370677-6c6f-4d23-8cf0-7d8de4f71f2a"},"vehicle_type_id":"4","last_reported":1723230374,"current_range_meters":22400,"station_id":"","pricing_plan_id":"cebpf4jnsgd1na2vs0mg"},{"bike_id":"475ed14f-5d86-4ce1-9e44-9d4d1bef7035","system_id":"levelo_inurba_marseille","lat":43.33771,"lon":5.37479,"is_reserved":false,"is_disabled":false,"rental_uris":{"android":"levelo://app?vid=475ed14f-5d86-4ce1-9e44-9d4d1bef7035","ios":"levelo://app?vid=475ed14f-5d86-4ce1-9e44-9d4d1bef7035"},"vehicle_type_id":"4","last_reported":1723230374,"current_range_meters":27200,"station_id":"","pricing_plan_id":"cebpf4jnsgd1na2vs0mg"},{"bike_id":"45361d88-2001-490a-92b8-72d31f003a2f","system_id":"levelo_inurba_marseille","lat":43.301117,"lon":5.398795,"is_reserved":false,"is_disabled":false,"rental_uris":{"android":"levelo://app?vid=45361d88-2001-490a-92b8-72d31f003a2f","ios":"levelo://app?vid=45361d88-2001-490a-92b8-72d31f003a2f"},"vehicle_type_id":"4","last_reported":1723230374,"current_range_meters":21600,"station_id":"ce4bh0h2rcd13ifvqd40","pricing_plan_id":"cebpf4jnsgd1na2vs0mg"},{"bike_id":"e3c3e775-5169-4e23-9568-e65c6d2deda3","system_id":"levelo_inurba_marseille","lat":43.301117,"lon":5.398795,"is_reserved":false,"is_disabled":false,"rental_uris":{"android":"levelo://app?vid=e3c3e775-5169-4e23-9568-e65c6d2deda3","ios":"levelo://app?vid=e3c3e775-5169-4e23-9568-e65c6d2deda3"},"vehicle_type_id":"4","last_reported":1723230374,"current_range_meters":28800,"station_id":"ce4bh0h2rcd13ifvqd40","pricing_plan_id":"cebpf4jnsgd1na2vs0mg"},{"bike_id":"c907c6ee-a25b-4c4d-998d-08e1dde9d32a","system_id":"levelo_inurba_marseille","lat":43.30141,"lon":5.39881,"is_reserved":false,"is_disabled":false,"rental_uris":{"android":"levelo://app?vid=c907c6ee-a25b-4c4d-998d-08e1dde9d32a","ios":"levelo://app?vid=c907c6ee-a25b-4c4d-998d-08e1dde9d32a"},"vehicle_type_id":"4","last_reported":1723230374,"current_range_meters":0,"station_id":"ce4bh0h2rcd13ifvqd40","pricing_plan_id":"cebpf4jnsgd1na2vs0mg"},{"bike_id":"1ffac88e-3fa2-4280-a185-3e290b55a034","system_id":"levelo_inurba_marseille","lat":43.30137,"lon":5.39879,"is_reserved":false,"is_disabled":false,"rental_uris":{"android":"levelo://app?vid=1ffac88e-3fa2-4280-a185-3e290b55a034","ios":"levelo://app?vid=1ffac88e-3fa2-4280-a185-3e290b55a034"},"vehicle_type_id":"4","last_reported":1723230374,"current_range_meters":0,"station_id":"ce4bh0h2rcd13ifvqd40","pricing_plan_id":"cebpf4jnsgd1na2vs0mg"},{"bike_id":"d685b03c-795e-417b-af0c-567ad42f20cb","system_id":"levelo_inurba_marseille","lat":43.287774,"lon":5.357301,"is_reserved":false,"is_disabled":false,"rental_uris":{"android":"levelo://app?vid=d685b03c-795e-417b-af0c-567ad42f20cb","ios":"levelo://app?vid=d685b03c-795e-417b-af0c-567ad42f20cb"},"vehicle_type_id":"4","last_reported":1723230374,"current_range_meters":11200,"station_id":"","pricing_plan_id":"cebpf4jnsgd1na2vs0mg"},{"bike_id":"3cf1fccb-788b-4fe9-854b-bee772fa00f1","system_id":"levelo_inurba_marseille","lat":43.286961,"lon":5.373785,"is_reserved":false,"is_disabled":false,"rental_uris":{"android":"levelo://app?vid=3cf1fccb-788b-4fe9-854b-bee772fa00f1","ios":"levelo://app?vid=3cf1fccb-788b-4fe9-854b-bee772fa00f1"},"vehicle_type_id":"4","last_reported":1723230374,"current_range_meters":1600,"station_id":"ce4bh3p2rcd13ifvqdq0","pricing_plan_id":"cebpf4jnsgd1na2vs0mg"},{"bike_id":"b9662395-17d8-4046-a77e-280d49edcd70","system_id":"levelo_inurba_marseille","lat":43.298681,"lon":5.397225,"is_reserved":false,"is_disabled":false,"rental_uris":{"android":"levelo://app?vid=b9662395-17d8-4046-a77e-280d49edcd70","ios":"levelo://app?vid=b9662395-17d8-4046-a77e-280d49edcd70"},"vehicle_type_id":"4","last_reported":1723230374,"current_range_meters":400,"station_id":"ce4bh0h2rcd13ifvqd50","pricing_plan_id":"cebpf4jnsgd1na2vs0mg"},{"bike_id":"b2e91dfe-9e03-4530-aea8-ad384f3809f0","system_id":"levelo_inurba_marseille","lat":43.298681,"lon":5.397225,"is_reserved":false,"is_disabled":false,"rental_uris":{"android":"levelo://app?vid=b2e91dfe-9e03-4530-aea8-ad384f3809f0","ios":"levelo://app?vid=b2e91dfe-9e03-4530-aea8-ad384f3809f0"},"vehicle_type_id":"4","last_reported":1723230374,"current_range_meters":4400,"station_id":"ce4bh0h2rcd13ifvqd50","pricing_plan_id":"cebpf4jnsgd1na2vs0mg"},{"bike_id":"ee9db5f5-111d-41a1-a9cd-e2e0a7336666","system_id":"levelo_inurba_marseille","lat":43.287047,"lon":5.373843,"is_reserved":false,"is_disabled":false,"rental_uris":{"android":"levelo://app?vid=ee9db5f5-111d-41a1-a9cd-e2e0a7336666","ios":"levelo://app?vid=ee9db5f5-111d-41a1-a9cd-e2e0a7336666"},"vehicle_type_id":"4","last_reported":1723230374,"current_range_meters":0,"station_id":"ce4bh3p2rcd13ifvqdq0","pricing_plan_id":"cebpf4jnsgd1na2vs0mg"},{"bike_id":"ea24d6b6-932c-45be-a912-a79cb5ec0d9b","system_id":"levelo_inurba_marseille","lat":43.286591,"lon":5.363346,"is_reserved":false,"is_disabled":false,"rental_uris":{"android":"levelo://app?vid=ea24d6b6-932c-45be-a912-a79cb5ec0d9b","ios":"levelo://app?vid=ea24d6b6-932c-45be-a912-a79cb5ec0d9b"},"vehicle_type_id":"4","last_reported":1723230374,"current_range_meters":30400,"station_id":"ce4bhah2rcd13ifvqej0","pricing_plan_id":"cebpf4jnsgd1na2vs0mg"},{"bike_id":"c5a82232-1538-4cae-99a8-99db717e7dcc","system_id":"levelo_inurba_marseille","lat":43.286961,"lon":5.373785,"is_reserved":false,"is_disabled":false,"rental_uris":{"android":"levelo://app?vid=c5a82232-1538-4cae-99a8-99db717e7dcc","ios":"levelo://app?vid=c5a82232-1538-4cae-99a8-99db717e7dcc"},"vehicle_type_id":"4","last_reported":1723230374,"current_range_meters":14800,"station_id":"ce4bh3p2rcd13ifvqdq0","pricing_plan_id":"cebpf4jnsgd1na2vs0mg"},{"bike_id":"c57425d0-2830-4753-839e-a68a31245428","system_id":"levelo_inurba_marseille","lat":43.286591,"lon":5.363346,"is_reserved":false,"is_disabled":false,"rental_uris":{"android":"levelo://app?vid=c57425d0-2830-4753-839e-a68a31245428","ios":"levelo://app?vid=c57425d0-2830-4753-839e-a68a31245428"},"vehicle_type_id":"4","last_reported":1723230374,"current_range_meters":0,"station_id":"ce4bhah2rcd13ifvqej0","pricing_plan_id":"cebpf4jnsgd1na2vs0mg"},{"bike_id":"7b1d5912-2821-4f71-86d8-1a2ea3afa3c6","system_id":"levelo_inurba_marseille","lat":43.302573,"lon":5.400577,"is_reserved":false,"is_disabled":false,"rental_uris":{"android":"levelo://app?vid=7b1d5912-2821-4f71-86d8-1a2ea3afa3c6","ios":"levelo://app?vid=7b1d5912-2821-4f71-86d8-1a2ea3afa3c6"},"vehicle_type_id":"4","last_reported":1723230374,"current_range_meters":0,"station_id":"ce4bgvh2rcd13ifvqcs0","pricing_plan_id":"cebpf4jnsgd1na2vs0mg"},{"bike_id":"3875a16b-3e22-49cf-8a86-d14639d872c5","system_id":"levelo_inurba_marseille","lat":43.302759,"lon":5.400793,"is_reserved":false,"is_disabled":false,"rental_uris":{"android":"levelo://app?vid=3875a16b-3e22-49cf-8a86-d14639d872c5","ios":"levelo://app?vid=3875a16b-3e22-49cf-8a86-d14639d872c5"},