{"last_updated":1753287299,"ttl":60,"version":"2.2","data":{"bikes":[{"bike_id":"91d35377-7459-4dcb-9e1f-27deea8293d8","system_id":"levelo_inurba_marseille","lat":43.29976,"lon":5.38494,"is_reserved":false,"is_disabled":false,"rental_uris":{"android":"levelo://app?vid=91d35377-7459-4dcb-9e1f-27deea8293d8","ios":"levelo://app?vid=91d35377-7459-4dcb-9e1f-27deea8293d8"},"vehicle_type_id":"4","last_reported":1753287300,"current_range_meters":2800,"station_id":"ce4bgj92rcd13ifvqbd0","pricing_plan_id":"cebpf4jnsgd1na2vs0mg"},{"bike_id":"42413a25-16d1-4419-b44a-45580e0c6ac6","system_id":"levelo_inurba_marseille","lat":43.33764,"lon":5.37496,"is_reserved":false,"is_disabled":false,"rental_uris":{"android":"levelo://app?vid=42413a25-16d1-4419-b44a-45580e0c6ac6","ios":"levelo://app?vid=42413a25-16d1-4419-b44a-45580e0c6ac6"},"vehicle_type_id":"4","last_reported":1753287300,"current_range_meters":3200,"station_id":"","pricing_plan_id":"cebpf4jnsgd1na2vs0mg"},{"bike_id":"c8ff8498-7c07-43c5-9f30-20c6b01c1c04","system_id":"levelo_inurba_marseille","lat":43.2857,"lon":5.39496,"is_reserved":false,"is_disabled":false,"rental_uris":{"android":"levelo://app?vid=c8ff8498-7c07-43c5-9f30-20c6b01c1c04","ios":"levelo://app?vid=c8ff8498-7c07-43c5-9f30-20c6b01c1c04"},"vehicle_type_id":"4","last_reported":1753287300,"current_range_meters":3200,"station_id":"ce4bh292rcd13ifvqdg0","pricing_plan_id":"cebpf4jnsgd1na2vs0mg"},{"bike_id":"a35e0d3b-7b45-4544-b22a-dfb6ea3016e8","system_id":"levelo_inurba_marseille","lat":43.29501,"lon":5.38185,"is_reserved":false,"is_disabled":false,"rental_uris":{"android":"levelo://app?vid=a35e0d3b-7b45-4544-b22a-dfb6ea3016e8","ios":"levelo://app?vid=a35e0d3b-7b45-4544-b22a-dfb6ea3016e8"},"vehicle_type_id":"4","last_reported":1753287300,"current_range_meters":3200,"station_id":"","pricing_plan_id":"cebpf4jnsgd1na2vs0mg"},{"bike_id":"338d5c8c-c201-4687-b356-7cfe48872beb","system_id":"levelo_inurba_marseille","lat":43.286102,"lon":5.351052,"is_reserved":false,"is_disabled":true,"rental_uris":{"android":"levelo://app?vid=338d5c8c-c201-4687-b356-7cfe48872beb","ios":"levelo://app?vid=338d5c8c-c201-4687-b356-7cfe48872beb"},"vehicle_type_id":"4","last_reported":1753287300,"current_range_meters":3200,"station_id":"ce4bhch2rcd13ifvqeug","pricing_plan_id":"cebpf4jnsgd1na2vs0mg"},{"bike_id":"154868c1-b4a0-4320-b38e-b9e016b383f0","system_id":"levelo_inurba_marseille","lat":43.30654,"lon":5.40097,"is_reserved":false,"is_disabled":false,"rental_uris":{"android":"levelo://app?vid=154868c1-b4a0-4320-b38e-b9e016b383f0","ios":"levelo://app?vid=154868c1-b4a0-4320-b38e-b9e016b383f0"},"vehicle_type_id":"4","last_reported":1753287300,"current_range_meters":3200,"station_id":"ce4bh112rcd13ifvqda0","pricing_plan_id":"cebpf4jnsgd1na2vs0mg"},{"bike_id":"2e115007-6cdb-4d5b-962c-39d36dc8406e","system_id":"levelo_inurba_marseille","lat":43.28942,"lon":5.36639,"is_reserved":false,"is_disabled":false,"rental_uris":{"android":"levelo://app?vid=2e115007-6cdb-4d5b-962c-39d36dc8406e","ios":"levelo://app?vid=2e115007-6cdb-4d5b-962c-39d36dc8406e"},"vehicle_type_id":"4","last_reported":1753287300,"current_range_meters":3200,"station_id":"ce4bhap2rcd13ifvqek0","pricing_plan_id":"cebpf4jnsgd1na2vs0mg"},{"bike_id":"75e4b30e-8f5e-40da-8fa0-0a88da3cede8","system_id":"levelo_inurba_marseille","lat":43.27625,"lon":5.3612,"is_reserved":false,"is_disabled":false,"rental_uris":{"android":"levelo://app?vid=75e4b30e-8f5e-40da-8fa0-0a88da3cede8","ios":"levelo://app?vid=75e4b30e-8f5e-40da-8fa0-0a88da3cede8"},"vehicle_type_id":"4","last_reported":1753287300,"current_range_meters":3200,"station_id":"ce4bgj92rcd13ifvqbe0","pricing_plan_id":"cebpf4jnsgd1na2vs0mg"},{"bike_id":"bed8b1a0-6251-4c66-bcb0-6491f7090019","system_id":"levelo_inurba_marseille","lat":43.29678,"lon":5.37292,"is_reserved":false,"is_disabled":false,"rental_uris":{"android":"levelo://app?vid=bed8b1a0-6251-4c66-bcb0-6491f7090019","ios":"levelo://app?vid=bed8b1a0-6251-4c66-bcb0-6491f7090019"},"vehicle_type_id":"4","last_reported":1753287300,"current_range_meters":4000,"station_id":"ce4bgk12rcd13ifvqbj0","pricing_plan_id":"cebpf4jnsgd1na2vs0mg"},{"bike_id":"7e198834-0fd1-4197-a0ba-adf375a5945d","system_id":"levelo_inurba_marseille","lat":43.30424,"lon":5.38885,"is_reserved":false,"is_disabled":false,"rental_uris":{"android":"levelo://app?vid=7e198834-0fd1-4197-a0ba-adf375a5945d","ios":"levelo://app?vid=7e198834-0fd1-4197-a0ba-adf375a5945d"},"vehicle_type_id":"4","last_reported":1753287300,"current_range_meters":4000,"station_id":"ce4bgk12rcd13ifvqbi0","pricing_plan_id":"cebpf4jnsgd1na2vs0mg"},{"bike_id":"efbfa019-d973-4fa7-bbe0-4014eaff2d6f","system_id":"levelo_inurba_marseille","lat":43.29037,"lon":5.39963,"is_reserved":false,"is_disabled":false,"rental_uris":{"android":"levelo://app?vid=efbfa019-d973-4fa7-bbe0-4014eaff2d6f","ios":"levelo://app?vid=efbfa019-d973-4fa7-bbe0-4014eaff2d6f"},"vehicle_type_id":"4","last_reported":1753287300,"current_range_meters":4000,"station_id":"ce4bh392rcd13ifvqdm0","pricing_plan_id":"cebpf4jnsgd1na2vs0mg"},{"bike_id":"76232532-1a72-4c02-b30b-6a6c31533af6","system_id":"levelo_inurba_marseille","lat":43.30884,"lon":5.39652,"is_reserved":false,"is_disabled":false,"rental_uris":{"android":"levelo://app?vid=76232532-1a72-4c02-b30b-6a6c31533af6","ios":"levelo://app?vid=76232532-1a72-4c02-b30b-6a6c31533af6"},"vehicle_type_id":"4","last_reported":1753287300,"current_range_meters":4000,"station_id":"ce4bh012rcd13ifvqcv0","pricing_plan_id":"cebpf4jnsgd1na2vs0mg"},{"bike_id":"c4ab8b6f-b9e7-4d47-91c0-82fcf9196b75","system_id":"levelo_inurba_marseille","lat":43.302578,"lon":5.400709,"is_reserved":false,"is_disabled":true,"rental_uris":{"android":"levelo://app?vid=c4ab8b6f-b9e7-4d47-91c0-82fcf9196b75","ios":"levelo://app?vid=c4ab8b6f-b9e7-4d47-91c0-82fcf9196b75"},"vehicle_type_id":"4","last_reported":1753287300,"current_range_meters":4000,"station_id":"ce4bgvh2rcd13ifvqcs0","pricing_plan_id":"cebpf4jnsgd1na2vs0mg"},{"bike_id":"39a121ab-c0a7-4462-8da1-9961ff0ee990","system_id":"levelo_inurba_marseille","lat":43.25589,"lon":5.38233,"is_reserved":false,"is_disabled":false,"rental_uris":{"android":"levelo://app?vid=39a121ab-c0a7-4462-8da1-9961ff0ee990","ios":"levelo://app?vid=39a121ab-c0a7-4462-8da1-9961ff0ee990"},"vehicle_type_id":"4","last_reported":1753287300,"current_range_meters":4000,"station_id":"ce4bhih2rcd13ifvqfs0","pricing_plan_id":"cebpf4jnsgd1na2vs0mg"},{"bike_id":"c77756ee-c330-4a0f-a768-fd98a5878397","system_id":"levelo_inurba_marseille","lat":43.29285,"lon":5.36842,"is_reserved":false,"is_disabled":false,"rental_uris":{"android":"levelo://app?vid=c77756ee-c330-4a0f-a768-fd98a5878397","ios":"levelo://app?vid=c77756ee-c330-4a0f-a768-fd98a5878397"},"vehicle_type_id":"4","last_reported":1753287300,"current_range_meters":4000,"station_id":"ce4bhbp2rcd13ifvqesg","pricing_plan_id":"cebpf4jnsgd1na2vs0mg"},{"bike_id":"e4e08c49-64a9-42c1-b69f-8dc923bbf1ea","system_id":"levelo_inurba_marseille","lat":43.305362,"lon":5.384253,"is_reserved":false,"is_disabled":false,"rental_uris":{"android":"levelo://app?vid=e4e08c49-64a9-42c1-b69f-8dc923bbf1ea","ios":"levelo://app?vid=e4e08c49-64a9-42c1-b69f-8dc923bbf1ea"},"vehicle_type_id":"4","last_reported":1753287300,"current_range_meters":4800,"station_id":"ce4bgg92rcd13ifvqb30","pricing_plan_id":"cebpf4jnsgd1na2vs0mg"},{"bike_id":"dfcb65c3-e917-4376-b55c-53fc2f10dbcd","system_id":"levelo_inurba_marseille","lat":43.26582,"lon":5.39008,"is_reserved":false,"is_disabled":false,"rental_uris":{"android":"levelo://app?vid=dfcb65c3-e917-4376-b55c-53fc2f10dbcd","ios":"levelo://app?vid=dfcb65c3-e917-4376-b55c-53fc2f10dbcd"},"vehicle_type_id":"4","last_reported":1753287300,"current_range_meters":4800,"station_id":"ce4bhe12rcd13ifvqf30","pricing_plan_id":"cebpf4jnsgd1na2vs0mg"},{"bike_id":"b8b4f3db-55b5-41cd-b46c-04d2e5d6ef85","system_id":"levelo_inurba_marseille","lat":43.29526,"lon":5.3904,"is_reserved":false,"is_disabled":false,"rental_uris":{"android":"levelo://app?vid=b8b4f3db-55b5-41cd-b46c-04d2e5d6ef85","ios":"levelo://app?vid=b8b4f3db-55b5-41cd-b46c-04d2e5d6ef85"},"vehicle_type_id":"4","last_reported":1753287300,"current_range_meters":4800,"station_id":"ce4bh3p2rcd13ifvqdp0","pricing_plan_id":"cebpf4jnsgd1na2vs0mg"},{"bike_id":"4a02d7ec-c41b-4954-aa46-1f3310d9cfce","system_id":"levelo_inurba_marseille","lat":43.29713,"lon":5.36605,"is_reserved":false,"is_disabled":false,"rental_uris":{"android":"levelo://app?vid=4a02d7ec-c41b-4954-aa46-1f3310d9cfce","ios":"levelo://app?vid=4a02d7ec-c41b-4954-aa46-1f3310d9cfce"},"vehicle_type_id":"4","last_reported":1753287300,"current_range_meters":4800,"station_id":"ce4bgn12rcd13ifvqbt0","pricing_plan_id":"cebpf4jnsgd1na2vs0mg"},{"bike_id":"c9b87cdf-4b93-44cd-8221-8349718627e4","system_id":"levelo_inurba_marseille","lat":43.30886,"lon":5.37204,"is_reserved":false,"is_disabled":false,"rental_uris":{"android":"levelo://app?vid=c9b87cdf-4b93-44cd-8221-8349718627e4","ios":"levelo://app?vid=c9b87cdf-4b93-44cd-8221-8349718627e4"},"vehicle_type_id":"4","last_reported":1753287300,"current_range_meters":4800,"station_id":"ce4bguh2rcd13ifvqckg","pricing_plan_id":"cebpf4jnsgd1na2vs0mg"},{"bike_id":"d1c7ee87-919f-42f6-af1a-3b5cc315f52a","system_id":"levelo_inurba_marseille","lat":43.27208,"lon":5.39177,"is_reserved":false,"is_disabled":false,"rental_uris":{"android":"levelo://app?vid=d1c7ee87-919f-42f6-af1a-3b5cc315f52a","ios":"levelo://app?vid=d1c7ee87-919f-42f6-af1a-3b5cc315f52a"},"vehicle_type_id":"4","last_reported":1753287300,"current_range_meters":4800,"station_id":"ce4bhhp2rcd13ifvqfm0","pricing_plan_id":"cebpf4jnsgd1na2vs0mg"},{"bike_id":"e7664ee6-5763-45de-8769-4715342d004c","system_id":"levelo_inurba_marseille","lat":43.29709,"lon":5.36608,"is_reserved":false,"is_disabled":false,"rental_uris":{"android":"levelo://app?vid=e7664ee6-5763-45de-8769-4715342d004c","ios":"levelo://app?vid=e7664ee6-5763-45de-8769-4715342d004c"},"vehicle_type_id":"4","last_reported":1753287300,"current_range_meters":5600,"station_id":"ce4bgn12rcd13ifvqbt0","pricing_plan_id":"cebpf4jnsgd1na2vs0mg"},{"bike_id":"1f7e2836-080b-4d8d-a7c9-43f7cbf5b3b6","system_id":"levelo_inurba_marseille","lat":43.30533,"lon":5.36558,"is_reserved":false,"is_disabled":false,"rental_uris":{"android":"levelo://app?vid=1f7e2836-080b-4d8d-a7c9-43f7cbf5b3b6","ios":"levelo://app?vid=1f7e2836-080b-4d8d-a7c9-43f7cbf5b3b6"},"vehicle_type_id":"4","last_reported":1753287300,"current_range_meters":6000,"station_id":"ce4bgs12rcd13ifvqcag","pricing_plan_id":"cebpf4jnsgd1na2vs0mg"},{"bike_id":"e74c9d07-51ed-48e8-9391-9064ba4a4bf1","system_id":"levelo_inurba_marseille","lat":43.29701,"lon":5.37701,"is_reserved":false,"is_disabled":false,"rental_uris":{"android":"levelo://app?vid=e74c9d07-51ed-48e8-9391-9064ba4a4bf1","ios":"levelo://app?vid=e74c9d07-51ed-48e8-9391-9064ba4a4bf1"},"vehicle_type_id":"4","last_reported":1753287300,"current_range_meters":6400,"station_id":"ce4bgkh2rcd13ifvqbl0","pricing_plan_id":"cebpf4jnsgd1na2vs0mg"},{"bike_id":"83766871-d64f-4fc8-9d3b-2ceaf03b1036","system_id":"levelo_inurba_marseille","lat":43.211934,"lon":5.350697,"is_reserved":false,"is_disabled":false,"rental_uris":{"android":"levelo://app?vid=83766871-d64f-4fc8-9d3b-2ceaf03b1036","ios":"levelo://app?vid=83766871-d64f-4fc8-9d3b-2ceaf03b1036"},"vehicle_type_id":"4","last_reported":1753287300,"current_range_meters":6400,"station_id":"st_cvj6sg6p6f1abm77japg","pricing_plan_id":"cebpf4jnsgd1na2vs0mg"},{"bike_id":"b5ac6728-6e2d-40fd-b93a-9942150f3a95","system_id":"levelo_inurba_marseille","lat":43.29529,"lon":5.39035,"is_reserved":false,"is_disabled":false,"rental_uris":{"android":"levelo://app?vid=b5ac6728-6e2d-40fd-b93a-9942150f3a95","ios":"levelo://app?vid=b5ac6728-6e2d-40fd-b93a-9942150f3a95"},"vehicle_type_id":"4","last_reported":1753287300,"current_range_meters":6000,"station_id":"ce4bh3p2rcd13ifvqdp0","pricing_plan_id":"cebpf4jnsgd1na2vs0mg"},{"bike_id":"ea9735cd-25d7-44f8-be4f-04c0e6419854","system_id":"levelo_inurba_marseille","lat":43.29306,"lon":5.37455,"is_reserved":false,"is_disabled":false,"rental_uris":{"android":"levelo://app?vid=ea9735cd-25d7-44f8-be4f-04c0e6419854","ios":"levelo://app?vid=ea9735cd-25d7-44f8-be4f-04c0e6419854"},"vehicle_type_id":"4","last_reported":1753287300,"current_range_meters":6800,"station_id":"ce4bgi12rcd13ifvqb70","pricing_plan_id":"cebpf4jnsgd1na2vs0mg"},{"bike_id":"2c844d4e-fd4c-47af-894c-df7317f1b1d4","system_id":"levelo_inurba_marseille","lat":43.299683,"lon":5.384876,"is_reserved":false,"is_disabled":false,"rental_uris":{"android":"levelo://app?vid=2c844d4e-fd4c-47af-894c-df7317f1b1d4","ios":"levelo://app?vid=2c844d4e-fd4c-47af-894c-df7317f1b1d4"},"vehicle_type_id":"4","last_reported":1753287300,"current_range_meters":6800,"station_id":"ce4bgj92rcd13ifvqbd0","pricing_plan_id":"cebpf4jnsgd1na2vs0mg"},{"bike_id":"d2348285-4ebf-4e30-8841-8eebd86d7384","system_id":"levelo_inurba_marseille","lat":43.23543,"lon":5.36011,"is_reserved":false,"is_disabled":false,"rental_uris":{"android":"levelo://app?vid=d2348285-4ebf-4e30-8841-8eebd86d7384","ios":"levelo://app?vid=d2348285-4ebf-4e30-8841-8eebd86d7384"},"vehicle_type_id":"4","last_reported":1753287300,"current_range_meters":6800,"station_id":"","pricing_plan_id":"cebpf4jnsgd1na2vs0mg"},{"bike_id":"fdded3ca-eae0-46f1-87e6-563b7bd98ec0","system_id":"levelo_inurba_marseille","lat":43.301355,"lon":5.398635,"is_reserved":false,"is_disabled":false,"rental_uris":{"android":"levelo://app?vid=fdded3ca-eae0-46f1-87e6-563b7bd98ec0","ios":"levelo://app?vid=fdded3ca-eae0-46f1-87e6-563b7bd98ec0"},"vehicle_type_id":"4","last_reported":1753287300,"current_range_meters":6800,"station_id":"ce4bh0h2rcd13ifvqd40","pricing_plan_id":"cebpf4jnsgd1na2vs0mg"},{"bike_id":"6bb68d04-f578-4d71-9c3b-e9d99ed3ce43","system_id":"levelo_inurba_marseille","lat":43.28158,"lon":5.42645,"is_reserved":false,"is_disabled":false,"rental_uris":{"android":"levelo://app?vid=6bb68d04-f578-4d71-9c3b-e9d99ed3ce43","ios":"levelo://app?vid=6bb68d04-f578-4d71-9c3b-e9d99ed3ce43"},"vehicle_type_id":"4","last_reported":1753287300,"current_range_meters":6800,"station_id":"ce4bhnh2rcd13ifvqgug","pricing_plan_id":"cebpf4jnsgd1na2vs0mg"},{"bike_id":"4275d0af-d01c-45ee-b7a8-5c10e237e240","system_id":"levelo_inurba_marseille","lat":43.28078,"lon":5.39657,"is_reserved":false,"is_disabled":false,"rental_uris":{"android":"levelo://app?vid=4275d0af-d01c-45ee-b7a8-5c10e237e240","ios":"levelo://app?vid=4275d0af-d01c-45ee-b7a8-5c10e237e240"},"vehicle_type_id":"4","last_reported":1753287300,"current_range_meters":7200,"station_id":"ce4bho12rcd13ifvqh2g","pricing_plan_id":"cebpf4jnsgd1na2vs0mg"},{"bike_id":"0eba955d-893f-4513-88f4-1b373c27941d","system_id":"levelo_inurba_marseille","lat":43.29702,"lon":5.36603,"is_reserved":false,"is_disabled":false,"rental_uris":{"android":"levelo://app?vid=0eba955d-893f-4513-88f4-1b373c27941d","ios":"levelo://app?vid=0eba955d-893f-4513-88f4-1b373c27941d"},"vehicle_type_id":"4","last_reported":1753287300,"current_range_meters":7200,"station_id":"ce4bgn12rcd13ifvqbt0","pricing_plan_id":"cebpf4jnsgd1na2vs0mg"},{"bike_id":"8e0de611-381e-4033-aa29-6d83b246ca34","system_id":"levelo_inurba_marseille","lat":43.29588,"lon":5.37483,"is_reserved":false,"is_disabled":true,"rental_uris":{"android":"levelo://app?vid=8e0de611-381e-4033-aa29-6d83b246ca34","ios":"levelo://app?vid=8e0de611-381e-4033-aa29-6d83b246ca34"},"vehicle_type_id":"4","last_reported":1753287300,"current_range_meters":7200,"station_id":"ce4bgh92rcd13ifvqb50","pricing_plan_id":"cebpf4jnsgd1na2vs0mg"},{"bike_id":"6664b110-6024-4d10-904c-70f0e732d65e","system_id":"levelo_inurba_marseille","lat":43.26214,"lon":5.3744,"is_reserved":false,"is_disabled":true,"rental_uris":{"android":"levelo://app?vid=6664b110-6024-4d10-904c-70f0e732d65e","ios":"levelo://app?vid=6664b110-6024-4d10-904c-70f0e732d65e"},"vehicle_type_id":"4","last_reported":1753287300,"current_range_meters":7200,"station_id":"ce4bhgp2rcd13ifvqfc0","pricing_plan_id":"cebpf4jnsgd1na2vs0mg"},{"bike_id":"ce976055-cd0e-4773-8a5c-62630b98b142","system_id":"levelo_inurba_marseille","lat":43.32344,"lon":5.40614,"is_reserved":false,"is_disabled":false,"rental_uris":{"android":"levelo://app?vid=ce976055-cd0e-4773-8a5c-62630b98b142","ios":"levelo://app?vid=ce976055-cd0e-4773-8a5c-62630b98b142"},"vehicle_type_id":"4","last_reported":1753287300,"current_range_meters":7200,"station_id":"ce4bhq92rcd13ifvqhjg","pricing_plan_id":"cebpf4jnsgd1na2vs0mg"},{"bike_id":"ce1b5be6-c883-46e7-9484-eb271df42379","system_id":"levelo_inurba_marseille","lat":43.26557,"lon":5.37284,"is_reserved":false,"is_disabled":false,"rental_uris":{"android":"levelo://app?vid=ce1b5be6-c883-46e7-9484-eb271df42379","ios":"levelo://app?vid=ce1b5be6-c883-46e7-9484-eb271df42379"},"vehicle_type_id":"4","last_reported":1753287300,"current_range_meters":7200,"station_id":"ce4bhg12rcd13ifvqf70","pricing_plan_id":"cebpf4jnsgd1na2vs0mg"},{"bike_id":"cd3eadeb-9374-4df1-9ffe-9b33d7c64552","system_id":"levelo_inurba_marseille","lat":43.27175,"lon":5.4099,"is_reserved":false,"is_disabled":false,"rental_uris":{"android":"levelo://app?vid=cd3eadeb-9374-4df1-9ffe-9b33d7c64552","ios":"levelo://app?vid=cd3eadeb-9374-4df1-9ffe-9b33d7c64552"},"vehicle_type_id":"4","last_reported":1753287300,"current_range_meters":7200,"station_id":"ce4bhl12rcd13ifvqgf0","pricing_plan_id":"cebpf4jnsgd1na2vs0mg"},{"bike_id":"2ff29623-fd01-46ea-9b2c-fde56983554a","system_id":"levelo_inurba_marseille","lat":43.3044,"lon":5.38879,"is_reserved":false,"is_disabled":false,"rental_uris":{"android":"levelo://app?vid=2ff29623-fd01-46ea-9b2c-fde56983554a","ios":"levelo://app?vid=2ff29623-fd01-46ea-9b2c-fde56983554a"},"vehicle_type_id":"4","last_reported":1753287300,"current_range_meters":7200,"station_id":"ce4bgk12rcd13ifvqbi0","pricing_plan_id":"cebpf4jnsgd1na2vs0mg"},{"bike_id":"ec0adf83-6184-4d63-a8bd-8a4c46331101","system_id":"levelo_inurba_marseille","lat":43.260648,"lon":5.393978,"is_reserved":false,"is_disabled":true,"rental_uris":{"android":"levelo://app?vid=ec0adf83-6184-4d63-a8bd-8a4c46331101","ios":"levelo://app?vid=ec0adf83-6184-4d63-a8bd-8a4c46331101"},"vehicle_type_id":"4","last_reported":1753287300,"current_range_meters":7200,"station_id":"ce4bhh92rcd13ifvqfj0","pricing_plan_id":"cebpf4jnsgd1na2vs0mg"},{"bike_id":"6f9b4912-a5cf-412f-b950-06f3ef4db3e8","system_id":"levelo_inurba_marseille","lat":43.26555,"lon":5.37295,"is_reserved":false,"is_disabled":false,"rental_uris":{"android":"levelo://app?vid=6f9b4912-a5cf-412f-b950-06f3ef4db3e8","ios":"levelo://app?vid=6f9b4912-a5cf-412f-b950-06f3ef4db3e8"},"vehicle_type_id":"4","last_reported":1753287300,"current_range_meters":7200,"station_id":"ce4bhg12rcd13ifvqf70","pricing_plan_id":"cebpf4jnsgd1na2vs0mg"},{"bike_id":"aa0e8290-9c02-445d-90b1-c18723a44c21","system_id":"levelo_inurba_marseille","lat":43.29636,"lon":5.40597,"is_reserved":false,"is_disabled":false,"rental_uris":{"android":"levelo://app?vid=aa0e8290-9c02-445d-90b1-c18723a44c21","ios":"levelo://app?vid=aa0e8290-9c02-445d-90b1-c18723a44c21"},"vehicle_type_id":"4","last_reported":1753287300,"current_range_meters":8000,"station_id":"ce4bh0h2rcd13ifvqd60","pricing_plan_id":"cebpf4jnsgd1na2vs0mg"},{"bike_id":"9ae7d50c-a3ea-4136-8080-315c191e000a","system_id":"levelo_inurba_marseille","lat":43.28761,"lon":5.38407,"is_reserved":false,"is_disabled":false,"rental_uris":{"android":"levelo://app?vid=9ae7d50c-a3ea-4136-8080-315c191e000a","ios":"levelo://app?vid=9ae7d50c-a3ea-4136-8080-315c191e000a"},"vehicle_type_id":"4","last_reported":1753287300,"current_range_meters":8000,"station_id":"","pricing_plan_id":"cebpf4jnsgd1na2vs0mg"},{"bike_id":"b1dab757-9db1-4330-b99e-ef20d2024542","system_id":"levelo_inurba_marseille","lat":43.21194,"lon":5.35068,"is_reserved":false,"is_disabled":false,"rental_uris":{"android":"levelo://app?vid=b1dab757-9db1-4330-b99e-ef20d2024542","ios":"levelo://app?vid=b1dab757-9db1-4330-b99e-ef20d2024542"},"vehicle_type_id":"4","last_reported":1753287300,"current_range_meters":8000,"station_id":"st_cvj6sg6p6f1abm77japg","pricing_plan_id":"cebpf4jnsgd1na2vs0mg"},{"bike_id":"246a6d93-5b27-4179-91cd-5e53b4d6152d","system_id":"levelo_inurba_marseille","lat":43.29502,"lon":5.37492,"is_reserved":false,"is_disabled":false,"rental_uris":{"android":"levelo://app?vid=246a6d93-5b27-4179-91cd-5e53b4d6152d","ios":"levelo://app?vid=246a6d93-5b27-4179-91cd-5e53b4d6152d"},"vehicle_type_id":"4","last_reported":1753287300,"current_range_meters":8000,"station_id":"ce4bgkp2rcd13ifvqbmg","pricing_plan_id":"cebpf4jnsgd1na2vs0mg"},{"bike_id":"81f48beb-cba8-4a10-929a-d7834448108c","system_id":"levelo_inurba_marseille","lat":43.33248,"lon":5.39912,"is_reserved":false,"is_disabled":false,"rental_uris":{"android":"levelo://app?vid=81f48beb-cba8-4a10-929a-d7834448108c","ios":"levelo://app?vid=81f48beb-cba8-4a10-929a-d7834448108c"},"vehicle_type_id":"4","last_reported":1753287300,"current_range_meters":8000,"station_id":"","pricing_plan_id":"cebpf4jnsgd1na2vs0mg"},{"bike_id":"a72a3e32-c560-453c-b594-b27df4190e71","system_id":"levelo_inurba_marseille","lat":43.28441,"lon":5.39195,"is_reserved":false,"is_disabled":false,"rental_uris":{"android":"levelo://app?vid=a72a3e32-c560-453c-b594-b27df4190e71","ios":"levelo://app?vid=a72a3e32-c560-453c-b594-b27df4190e71"},"vehicle_type_id":"4","last_reported":1753287300,"current_range_meters":8000,"station_id":"ce4bhoh2rcd13ifvqh5g","pricing_plan_id":"cebpf4jnsgd1na2vs0mg"},{"bike_id":"fb0f5431-dcbd-4b2a-90c5-ce6175c433a0","system_id":"levelo_inurba_marseille","lat":43.29029,"lon":5.38643,"is_reserved":false,"is_disabled":false,"rental_uris":{"android":"levelo://app?vid=fb0f5431-dcbd-4b2a-90c5-ce6175c433a0","ios":"levelo://app?vid=fb0f5431-dcbd-4b2a-90c5-ce6175c433a0"},"vehicle_type_id":"4","last_reported":1753287300,"current_range_meters":8400,"station_id":"ce4bh4p2rcd13ifvqe0g","pricing_plan_id":"cebpf4jnsgd1na2vs0mg"},{"bike_id":"d07f0755-aca6-4050-807e-9c5aaf0dd619","system_id":"levelo_inurba_marseille","lat":43.296823,"lon":5.372723,"is_reserved":false,"is_disabled":false,"rental_uris":{"android":"levelo://app?vid=d07f0755-aca6-4050-807e-9c5aaf0dd619","ios":"levelo://app?vid=d07f0755-aca6-4050-807e-9c5aaf0dd619"},"vehicle_type_id":"4","last_reported":1753287300,"current_range_meters":8400,"station_id":"ce4bgk12rcd13ifvqbj0","pricing_plan_id":"cebpf4jnsgd1na2vs0mg"},{"bike_id":"5eed9fa5-5444-4e01-9ca6-2f35add3d73a","system_id":"levelo_inurba_marseille","lat":43.308148,"lon":5.381399,"is_reserved":false,"is_disabled":true,"rental_uris":{"android":"levelo://app?vid=5eed9fa5-5444-4e01-9ca6-2f35add3d73a","ios":"levelo://app?vid=5eed9fa5-5444-4e01-9ca6-2f35add3d73a"},"vehicle_type_id":"4","last_reported":1753287300,"current_range_meters":8400,"station_id":"ce4bgt12rcd13ifvqce0","pricing_plan_id":"cebpf4jnsgd1na2vs0mg"},{"bike_id":"19346c15-7f65-4706-a55f-356304e34db4","system_id":"levelo_inurba_marseille","lat":43.2903,"lon":5.3864,"is_reserved":false,"is_disabled":false,"rental_uris":{"android":"levelo://app?vid=19346c15-7f65-4706-a55f-356304e34db4","ios":"levelo://app?vid=19346c15-7f65-4706-a55f-356304e34db4"},"vehicle_type_id":"4","last_reported":1753287300,"current_range_meters":8400,"station_id":"ce4bh4p2rcd13ifvqe0g","pricing_plan_id":"cebpf4jnsgd1na2vs0mg"},{"bike_id":"a7d707ae-2781-4482-8ab5-8049521e23d4","system_id":"levelo_inurba_marseille","lat":43.30432,"lon":5.39753,"is_reserved":false,"is_disabled":false,"rental_uris":{"android":"levelo://app?vid=a7d707ae-2781-4482-8ab5-8049521e23d4","ios":"levelo://app?vid=a7d707ae-2781-4482-8ab5-8049521e23d4"},"vehicle_type_id":"4","last_reported":1753287300,"current_range_meters":8800,"station_id":"ce4bh092rcd13ifvqd20","pricing_plan_id":"cebpf4jnsgd1na2vs0mg"},{"bike_id":"a9864b22-419d-4a03-b71c-9b5cd2886d5e","system_id":"levelo_inurba_marseille","lat":43.29225,"lon":5.36051,"is_reserved":false,"is_disabled":false,"rental_uris":{"android":"levelo://app?vid=a9864b22-419d-4a03-b71c-9b5cd2886d5e","ios":"levelo://app?vid=a9864b22-419d-4a03-b71c-9b5cd2886d5e"},"vehicle_type_id":"4","last_reported":1753287300,"current_range_meters":8800,"station_id":"ce4bhbh2rcd13ifvqeqg","pricing_plan_id":"cebpf4jnsgd1na2vs0mg"},{"bike_id":"a5f1f0d6-c678-45f4-9b29-96eaa29a3e36","system_id":"levelo_inurba_marseille","lat":43.25157,"lon":5.37309,"is_reserved":false,"is_disabled":true,"rental_uris":{"android":"levelo://app?vid=a5f1f0d6-c678-45f4-9b29-96eaa29a3e36","ios":"levelo://app?vid=a5f1f0d6-c678-45f4-9b29-96eaa29a3e36"},"vehicle_type_id":"4","last_reported":1753287300,"current_range_meters":8800,"station_id":"","pricing_plan_id":"cebpf4jnsgd1na2vs0mg"},{"bike_id":"0797ab7f-9859-4473-8708-dacc9fdceb55","system_id":"levelo_inurba_marseille","lat":43.30307,"lon":5.3919,"is_reserved":false,"is_disabled":false,"rental_uris":{"android":"levelo://app?vid=0797ab7f-9859-4473-8708-dacc9fdceb55","ios":"levelo://app?vid=0797ab7f-9859-4473-8708-dacc9fdceb55"},"vehicle_type_id":"4","last_reported":1753287300,"current_range_meters":9200,"station_id":"ce4bgkh2rcd13ifvqbk0","pricing_plan_id":"cebpf4jnsgd1na2vs0mg"},{"bike_id":"acd104aa-5374-477e-9adb-9f64ba626a60","system_id":"levelo_inurba_marseille","lat":43.2927,"lon":5.38432,"is_reserved":false,"is_disabled":false,"rental_uris":{"android":"levelo://app?vid=acd104aa-5374-477e-9adb-9f64ba626a60","ios":"levelo://app?vid=acd104aa-5374-477e-9adb-9f64ba626a60"},"vehicle_type_id":"4","last_reported":1753287300,"current_range_meters":9200,"station_id":"ce4bh692rcd13ifvqea0","pricing_plan_id":"cebpf4jnsgd1na2vs0mg"},{"bike_id":"30be9669-ec3c-43ce-9c03-b0996a647269","system_id":"levelo_inurba_marseille","lat":43.2944,"lon":5.39741,"is_reserved":false,"is_disabled":false,"rental_uris":{"android":"levelo://app?vid=30be9669-ec3c-43ce-9c03-b0996a647269","ios":"levelo://app?vid=30be9669-ec3c-43ce-9c03-b0996a647269"},"vehicle_type_id":"4","last_reported":1753287300,"current_range_meters":9200,"station_id":"ce4bh3h2rcd13ifvqdo0","pricing_plan_id":"cebpf4jnsgd1na2vs0mg"},{"bike_id":"2a80872e-7e5b-4008-9d0d-d9849fbdaad9","system_id":"levelo_inurba_marseille","lat":43.2923,"lon":5.3847,"is_reserved":false,"is_disabled":false,"rental_uris":{"android":"levelo://app?vid=2a80872e-7e5b-4008-9d0d-d9849fbdaad9","ios":"levelo://app?vid=2a80872e-7e5b-4008-9d0d-d9849fbdaad9"},"vehicle_type_id":"4","last_reported":1753287300,"current_range_meters":9200,"station_id":"","pricing_plan_id":"cebpf4jnsgd1na2vs0mg"},{"bike_id":"2a7dd72f-bdf3-4547-90e6-34b8049722b6","system_id":"levelo_inurba_marseille","lat":43.225,"lon":5.3478,"is_reserved":false,"is_disabled":false,"rental_uris":{"android":"levelo://app?vid=2a7dd72f-bdf3-4547-90e6-34b8049722b6","ios":"levelo://app?vid=2a7dd72f-bdf3-4547-90e6-34b8049722b6"},"vehicle_type_id":"4","last_reported":1753287300,"current_range_meters":9200,"station_id":"st_cvj5dfep6f1abm77gieg","pricing_plan_id":"cebpf4jnsgd1na2vs0mg"},{"bike_id":"d2399d0e-03a7-4aec-a56e-5e743131ef67","system_id":"levelo_inurba_marseille","lat":43.29981,"lon":5.38495,"is_reserved":false,"is_disabled":false,"rental_uris":{"android":"levelo://app?vid=d2399d0e-03a7-4aec-a56e-5e743131ef67","ios":"levelo://app?vid=d2399d0e-03a7-4aec-a56e-5e743131ef67"},"vehicle_type_id":"4","last_reported":1753287300,"current_range_meters":9600,"station_id":"ce4bgj92rcd13ifvqbd0","pricing_plan_id":"cebpf4jnsgd1na2vs0mg"},{"bike_id":"e4761578-ae86-4dfa-b146-0428e5d8cca7","system_id":"levelo_inurba_marseille","lat":43.24155,"lon":5.36402,"is_reserved":false,"is_disabled":true,"rental_uris":{"android":"levelo://app?vid=e4761578-ae86-4dfa-b146-0428e5d8cca7","ios":"levelo://app?vid=e4761578-ae86-4dfa-b146-0428e5d8cca7"},"vehicle_type_id":"4","last_reported":1753287300,"current_range_meters":9600,"station_id":"cpo36qri1sfpv3e86is0","pricing_plan_id":"cebpf4jnsgd1na2vs0mg"},{"bike_id":"3d5168bd-af03-4e59-9d75-9b661f5c13b3","system_id":"levelo_inurba_marseille","lat":43.32359,"lon":5.36755,"is_reserved":false,"is_disabled":false,"rental_uris":{"android":"levelo://app?vid=3d5168bd-af03-4e59-9d75-9b661f5c13b3","ios":"levelo://app?vid=3d5168bd-af03-4e59-9d75-9b661f5c13b3"},"vehicle_type_id":"4","last_reported":1753287300,"current_range_meters":9600,"station_id":"ce4bhsh2rcd13ifvqi2g","pricing_plan_id":"cebpf4jnsgd1na2vs0mg"},{"bike_id":"3c21b9e1-b296-4844-a6d5-b8d19c7f36c9","system_id":"levelo_inurba_marseille","lat":43.29187,"lon":5.38477,"is_reserved":false,"is_disabled":false,"rental_uris":{"android":"levelo://app?vid=3c21b9e1-b296-4844-a6d5-b8d19c7f36c9","ios":"levelo://app?vid=3c21b9e1-b296-4844-a6d5-b8d19c7f36c9"},"vehicle_type_id":"4","last_reported":1753287300,"current_range_meters":9600,"station_id":"","pricing_plan_id":"cebpf4jnsgd1na2vs0mg"},{"bike_id":"3c456e2d-65b9-4092-9490-8529e7d9ef6a","system_id":"levelo_inurba_marseille","lat":43.30651,"lon":5.401,"is_reserved":false,"is_disabled":false,"rental_uris":{"android":"levelo://app?vid=3c456e2d-65b9-4092-9490-8529e7d9ef6a","ios":"levelo://app?vid=3c456e2d-65b9-4092-9490-8529e7d9ef6a"},"vehicle_type_id":"4","last_reported":1753287300,"current_range_meters":9600,"station_id":"ce4bh112rcd13ifvqda0","pricing_plan_id":"cebpf4jnsgd1na2vs0mg"},{"bike_id":"aa5097b6-6968-4aec-b711-e7780938924b","system_id":"levelo_inurba_marseille","lat":43.32965,"lon":5.3588,"is_reserved":false,"is_disabled":false,"rental_uris":{"android":"levelo://app?vid=aa5097b6-6968-4aec-b711-e7780938924b","ios":"levelo://app?vid=aa5097b6-6968-4aec-b711-e7780938924b"},"vehicle_type_id":"4","last_reported":1753287300,"current_range_meters":9600,"station_id":"","pricing_plan_id":"cebpf4jnsgd1na2vs0mg"},{"bike_id":"4ed53733-af25-445e-a02c-ed79e516b393","system_id":"levelo_inurba_marseille","lat":43.28612,"lon":5.35105,"is_reserved":false,"is_disabled":false,"rental_uris":{"android":"levelo://app?vid=4ed53733-af25-445e-a02c-ed79e516b393","ios":"levelo://app?vid=4ed53733-af25-445e-a02c-ed79e516b393"},"vehicle_type_id":"4","last_reported":1753287300,"current_range_meters":10000,"station_id":"ce4bhch2rcd13ifvqeug","pricing_plan_id":"cebpf4jnsgd1na2vs0mg"},{"bike_id":"ee3d3c7e-5cbf-4648-8b6a-9c8da6f5717c","system_id":"levelo_inurba_marseille","lat":43.27691,"lon":5.3891,"is_reserved":false,"is_disabled":false,"rental_uris":{"android":"levelo://app?vid=ee3d3c7e-5cbf-4648-8b6a-9c8da6f5717c","ios":"levelo://app?vid=ee3d3c7e-5cbf-4648-8b6a-9c8da6f5717c"},"vehicle_type_id":"4","last_reported":1753287300,"current_range_meters":10000,"station_id":"ce4bhi12rcd13ifvqfo0","pricing_plan_id":"cebpf4jnsgd1na2vs0mg"},{"bike_id":"c9dbd36b-479c-4a5c-b200-3aa7673340d9","system_id":"levelo_inurba_marseille","lat":43.241448,"lon":5.363743,"is_reserved":false,"is_disabled":true,"rental_uris":{"android":"levelo://app?vid=c9dbd36b-479c-4a5c-b200-3aa7673340d9","ios":"levelo://app?vid=c9dbd36b-479c-4a5c-b200-3aa7673340d9"},"vehicle_type_id":"4","last_reported":1753287300,"current_range_meters":10000,"station_id":"","pricing_plan_id":"cebpf4jnsgd1na2vs0mg"},{"bike_id":"cdd50adb-c2e6-47e9-8e5c-8887dcbc09aa","system_id":"levelo_inurba_marseille","lat":43.229377,"lon":5.35373,"is_reserved":false,"is_disabled":false,"rental_uris":{"android":"levelo://app?vid=cdd50adb-c2e6-47e9-8e5c-8887dcbc09aa","ios":"levelo://app?vid=cdd50adb-c2e6-47e9-8e5c-8887dcbc09aa"},"vehicle_type_id":"4","last_reported":1753287300,"current_range_meters":10000,"station_id":"cpo3532slgdg3j2ikp40","pricing_plan_id":"cebpf4jnsgd1na2vs0mg"},{"bike_id":"baca8154-7e82-4bd8-a0cb-6a4d79f767f0","system_id":"levelo_inurba_marseille","lat":43.29058,"lon":5.3717,"is_reserved":false,"is_disabled":false,"rental_uris":{"android":"levelo://app?vid=baca8154-7e82-4bd8-a0cb-6a4d79f767f0","ios":"levelo://app?vid=baca8154-7e82-4bd8-a0cb-6a4d79f767f0"},"vehicle_type_id":"4","last_reported":1753287300,"current_range_meters":10000,"station_id":"ce4bgh92rcd13ifvqb40","pricing_plan_id":"cebpf4jnsgd1na2vs0mg"},{"bike_id":"7edced45-49e1-4abd-8579-b92aeda4ad2d","system_id":"levelo_inurba_marseille","lat":43.29887,"lon":5.39732,"is_reserved":false,"is_disabled":false,"rental_uris":{"android":"levelo://app?vid=7edced45-49e1-4abd-8579-b92aeda4ad2d","ios":"levelo://app?vid=7edced45-49e1-4abd-8579-b92aeda4ad2d"},"vehicle_type_id":"4","last_reported":1753287300,"current_range_meters":10000,"station_id":"ce4bh0h2rcd13ifvqd50","pricing_plan_id":"cebpf4jnsgd1na2vs0mg"},{"bike_id":"37cc4c2b-00b4-4fe7-9e1b-043e0d769171","system_id":"levelo_inurba_marseille","lat":43.27809,"lon":5.40707,"is_reserved":false,"is_disabled":false,"rental_uris":{"android":"levelo://app?vid=37cc4c2b-00b4-4fe7-9e1b-043e0d769171","ios":"levelo://app?vid=37cc4c2b-00b4-4fe7-9e1b-043e0d769171"},"vehicle_type_id":"4","last_reported":1753287300,"current_range_meters":10000,"station_id":"ce4bhnh2rcd13ifvqgtg","pricing_plan_id":"cebpf4jnsgd1na2vs0mg"},{"bike_id":"88a8a559-cdf8-4647-86d7-206b8ecaa6ae","system_id":"levelo_inurba_marseille","lat":43.30647,"lon":5.40089,"is_reserved":false,"is_disabled":false,"rental_uris":{"android":"levelo://app?vid=88a8a559-cdf8-4647-86d7-206b8ecaa6ae","ios":"levelo://app?vid=88a8a559-cdf8-4647-86d7-206b8ecaa6ae"},"vehicle_type_id":"4","last_reported":1753287300,"current_range_meters":9600,"station_id":"ce4bh112rcd13ifvqda0","pricing_plan_id":"cebpf4jnsgd1na2vs0mg"},{"bike_id":"79f12e20-c8ae-4769-bb3d-e7445dfa339a","system_id":"levelo_inurba_marseille","lat":43.29872,"lon":5.39734,"is_reserved":false,"is_disabled":false,"rental_uris":{"android":"levelo://app?vid=79f12e20-c8ae-4769-bb3d-e7445dfa339a","ios":"levelo://app?vid=79f12e20-c8ae-4769-bb3d-e7445dfa339a"},"vehicle_type_id":"4","last_reported":1753287300,"current_range_meters":10000,"station_id":"ce4bh0h2rcd13ifvqd50","pricing_plan_id":"cebpf4jnsgd1na2vs0mg"},{"bike_id":"860aa9f0-bd1b-4259-8c5b-debb8d346a6a","system_id":"levelo_inurba_marseille","lat":43.29984,"lon":5.38499,"is_reserved":false,"is_disabled":false,"rental_uris":{"android":"levelo://app?vid=860aa9f0-bd1b-4259-8c5b-debb8d346a6a","ios":"levelo://app?vid=860aa9f0-bd1b-4259-8c5b-debb8d346a6a"},"vehicle_type_id":"4","last_reported":1753287300,"current_range_meters":10800,"station_id":"ce4bgj92rcd13ifvqbd0","pricing_plan_id":"cebpf4jnsgd1na2vs0mg"},{"bike_id":"e98d0c05-ed33-48f2-9022-3dbbbda935bb","system_id":"levelo_inurba_marseille","lat":43.29517,"lon":5.3751,"is_reserved":false,"is_disabled":false,"rental_uris":{"android":"levelo://app?vid=e98d0c05-ed33-48f2-9022-3dbbbda935bb","ios":"levelo://app?vid=e98d0c05-ed33-48f2-9022-3dbbbda935bb"},"vehicle_type_id":"4","last_reported":1753287300,"current_range_meters":10800,"station_id":"ce4bgkp2rcd13ifvqbmg","pricing_plan_id":"cebpf4jnsgd1na2vs0mg"},{"bike_id":"41332adb-c373-4327-8f4d-ce968591a18b","system_id":"levelo_inurba_marseille","lat":43.29201,"lon":5.35808,"is_reserved":false,"is_disabled":false,"rental_uris":{"android":"levelo://app?vid=41332adb-c373-4327-8f4d-ce968591a18b","ios":"levelo://app?vid=41332adb-c373-4327-8f4d-ce968591a18b"},"vehicle_type_id":"4","last_reported":1753287300,"current_range_meters":10800,"station_id":"ce4bhb12rcd13ifvqel0","pricing_plan_id":"cebpf4jnsgd1na2vs0mg"},{"bike_id":"af2bf1de-1644-44ff-8bc3-b68d1a2e6a9c","system_id":"levelo_inurba_marseille","lat":43.28113,"lon":5.3785,"is_reserved":false,"is_disabled":false,"rental_uris":{"android":"levelo://app?vid=af2bf1de-1644-44ff-8bc3-b68d1a2e6a9c","ios":"levelo://app?vid=af2bf1de-1644-44ff-8bc3-b68d1a2e6a9c"},"vehicle_type_id":"4","last_reported":1753287300,"current_range_meters":10800,"station_id":"ce4bha12rcd13ifvqee0","pricing_plan_id":"cebpf4jnsgd1na2vs0mg"},{"bike_id":"9938a80e-05f7-401f-9a5e-cabc7a758cc4","system_id":"levelo_inurba_marseille","lat":43.299061,"lon":5.397286,"is_reserved":false,"is_disabled":false,"rental_uris":{"android":"levelo://app?vid=9938a80e-05f7-401f-9a5e-cabc7a758cc4","ios":"levelo://app?vid=9938a80e-05f7-401f-9a5e-cabc7a758cc4"},"vehicle_type_id":"4","last_reported":1753287300,"current_range_meters":11200,"station_id":"ce4bh0h2rcd13ifvqd50","pricing_plan_id":"cebpf4jnsgd1na2vs0mg"},{"bike_id":"180da4bd-38a8-4c70-bafd-4adf09db5434","system_id":"levelo_inurba_marseille","lat":43.29266,"lon":5.38438,"is_reserved":false,"is_disabled":false,"rental_uris":{"android":"levelo://app?vid=180da4bd-38a8-4c70-bafd-4adf09db5434","ios":"levelo://app?vid=180da4bd-38a8-4c70-bafd-4adf09db5434"},"vehicle_type_id":"4","last_reported":1753287300,"current_range_meters":11200,"station_id":"ce4bh692rcd13ifvqea0","pricing_plan_id":"cebpf4jnsgd1na2vs0mg"},{"bike_id":"02ab4b43-b826-459b-ad84-ef2179490a74","system_id":"levelo_inurba_marseille","lat":43.29025,"lon":5.38142,"is_reserved":false,"is_disabled":false,"rental_uris":{"android":"levelo://app?vid=02ab4b43-b826-459b-ad84-ef2179490a74","ios":"levelo://app?vid=02ab4b43-b826-459b-ad84-ef2179490a74"},"vehicle_type_id":"4","last_reported":1753287300,"current_range_meters":11200,"station_id":"ce4bh4p2rcd13ifvqe1g","pricing_plan_id":"cebpf4jnsgd1na2vs0mg"},{"bike_id":"7f63f9a0-7ea4-40f1-844d-1425837a99f2","system_id":"levelo_inurba_marseille","lat":43.29641,"lon":5.38032,"is_reserved":false,"is_disabled":false,"rental_uris":{"android":"levelo://app?vid=7f63f9a0-7ea4-40f1-844d-1425837a99f2","ios":"levelo://app?vid=7f63f9a0-7ea4-40f1-844d-1425837a99f2"},"vehicle_type_id":"4","last_reported":1753287300,"current_range_meters":11600,"station_id":"","pricing_plan_id":"cebpf4jnsgd1na2vs0mg"},{"bike_id":"c3b4c842-89f1-49ff-abb9-fc4b30df4519","system_id":"levelo_inurba_marseille","lat":43.25576,"lon":5.38214,"is_reserved":false,"is_disabled":false,"rental_uris":{"android":"levelo://app?vid=c3b4c842-89f1-49ff-abb9-fc4b30df4519","ios":"levelo://app?vid=c3b4c842-89f1-49ff-abb9-fc4b30df4519"},"vehicle_type_id":"4","last_reported":1753287300,"current_range_meters":11600,"station_id":"ce4bhih2rcd13ifvqfs0","pricing_plan_id":"cebpf4jnsgd1na2vs0mg"},{"bike_id":"5ff57074-bc6b-4442-b651-f8cd3db0f890","system_id":"levelo_inurba_marseille","lat":43.29569,"lon":5.39989,"is_reserved":false,"is_disabled":false,"rental_uris":{"android":"levelo://app?vid=5ff57074-bc6b-4442-b651-f8cd3db0f890","ios":"levelo://app?vid=5ff57074-bc6b-4442-b651-f8cd3db0f890"},"vehicle_type_id":"4","last_reported":1753287300,"current_range_meters":12000,"station_id":"ce4bh312rcd13ifvqdj0","pricing_plan_id":"cebpf4jnsgd1na2vs0mg"},{"bike_id":"0ab54d0e-f00e-43c8-b2a5-faa649d5f7e1","system_id":"levelo_inurba_marseille","lat":43.27937,"lon":5.41046,"is_reserved":false,"is_disabled":false,"rental_uris":{"android":"levelo://app?vid=0ab54d0e-f00e-43c8-b2a5-faa649d5f7e1","ios":"levelo://app?vid=0ab54d0e-f00e-43c8-b2a5-faa649d5f7e1"},"vehicle_type_id":"4","last_reported":1753287300,"current_range_meters":12000,"station_id":"ce4bhnp2rcd13ifvqh0g","pricing_plan_id":"cebpf4jnsgd1na2vs0mg"},{"bike_id":"f9062784-0417-4840-bb15-81c56a64826f","system_id":"levelo_inurba_marseille","lat":43.22504,"lon":5.3478,"is_reserved":false,"is_disabled":false,"rental_uris":{"android":"levelo://app?vid=f9062784-0417-4840-bb15-81c56a64826f","ios":"levelo://app?vid=f9062784-0417-4840-bb15-81c56a64826f"},"vehicle_type_id":"4","last_reported":1753287300,"current_range_meters":12000,"station_id":"","pricing_plan_id":"cebpf4jnsgd1na2vs0mg"},{"bike_id":"c017fc37-6c05-4446-89b3-11cb60c8172b","system_id":"levelo_inurba_marseille","lat":43.29515,"lon":5.39396,"is_reserved":false,"is_disabled":false,"rental_uris":{"android":"levelo://app?vid=c017fc37-6c05-4446-89b3-11cb60c8172b","ios":"levelo://app?vid=c017fc37-6c05-4446-89b3-11cb60c8172b"},"vehicle_type_id":"4","last_reported":1753287300,"current_range_meters":12000,"station_id":"ce4bh292rcd13ifvqdf0","pricing_plan_id":"cebpf4jnsgd1na2vs0mg"},{"bike_id":"da6b3b5b-2489-492a-88b6-1622f7a834d4","system_id":"levelo_inurba_marseille","lat":43.29877,"lon":5.3973,"is_reserved":false,"is_disabled":false,"rental_uris":{"android":"levelo://app?vid=da6b3b5b-2489-492a-88b6-1622f7a834d4","ios":"levelo://app?vid=da6b3b5b-2489-492a-88b6-1622f7a834d4"},"vehicle_type_id":"4","last_reported":1753287300,"current_range_meters":12000,"station_id":"ce4bh0h2rcd13ifvqd50","pricing_plan_id":"cebpf4jnsgd1na2vs0mg"},{"bike_id":"78eeeab8-efa2-4b83-9e5e-3f5da48e7d23","system_id":"levelo_inurba_marseille","lat":43.29799,"lon":5.40399,"is_reserved":false,"is_disabled":false,"rental_uris":{"android":"levelo://app?vid=78eeeab8-efa2-4b83-9e5e-3f5da48e7d23","ios":"levelo://app?vid=78eeeab8-efa2-4b83-9e5e-3f5da48e7d23"},"vehicle_type_id":"4","last_reported":1753287300,"current_range_meters":12000,"station_id":"ce4bh112rcd13ifvqd90","pricing_plan_id":"cebpf4jnsgd1na2vs0mg"},{"bike_id":"4363800f-1e1b-4fc1-a6c1-6a1af720d432","system_id":"levelo_inurba_marseille","lat":43.25511,"lon":5.37641,"is_reserved":false,"is_disabled":false,"rental_uris":{"android":"levelo://app?vid=4363800f-1e1b-4fc1-a6c1-6a1af720d432","ios":"levelo://app?vid=4363800f-1e1b-4fc1-a6c1-6a1af720d432"},"vehicle_type_id":"4","last_reported":1753287300,"current_range_meters":12000,"station_id":"ce4bhh12rcd13ifvqff0","pricing_plan_id":"cebpf4jnsgd1na2vs0mg"},{"bike_id":"de63d755-de3c-4c15-83c0-8d820fe1e544","system_id":"levelo_inurba_marseille","lat":43.24168,"lon":5.36394,"is_reserved":false,"is_disabled":false,"rental_uris":{"android":"levelo://app?vid=de63d755-de3c-4c15-83c0-8d820fe1e544","ios":"levelo://app?vid=de63d755-de3c-4c15-83c0-8d820fe1e544"},"vehicle_type_id":"4","last_reported":1753287300,"current_range_meters":12000,"station_id":"cpo36qri1sfpv3e86is0","pricing_plan_id":"cebpf4jnsgd1na2vs0mg"},{"bike_id":"ec15ad8a-0ea3-4f63-83be-f6aec521d9e5","system_id":"levelo_inurba_marseille","lat":43.27962,"lon":5.41018,"is_reserved":false,"is_disabled":false,"rental_uris":{"android":"levelo://app?vid=ec15ad8a-0ea3-4f63-83be-f6aec521d9e5","ios":"levelo://app?vid=ec15ad8a-0ea3-4f63-83be-f6aec521d9e5"},"vehicle_type_id":"4","last_reported":1753287300,"current_range_meters":12000,"station_id":"ce4bhnp2rcd13ifvqh0g","pricing_plan_id":"cebpf4jnsgd1na2vs0mg"},{"bike_id":"cc926983-7496-48df-9677-b8723ddc96b9","system_id":"levelo_inurba_marseille","lat":43.229183,"lon":5.353866,"is_reserved":false,"is_disabled":false,"rental_uris":{"android":"levelo://app?vid=cc926983-7496-48df-9677-b8723ddc96b9","ios":"levelo://app?vid=cc926983-7496-48df-9677-b8723ddc96b9"},"vehicle_type_id":"4","last_reported":1753287300,"current_range_meters":12400,"station_id":"cpo3532slgdg3j2ikp40","pricing_plan_id":"cebpf4jnsgd1na2vs0mg"},{"bike_id":"d12805d7-1662-4dbb-9a04-c031f34d470a","system_id":"levelo_inurba_marseille","lat":43.30593,"lon":5.37205,"is_reserved":false,"is_disabled":false,"rental_uris":{"android":"levelo://app?vid=d12805d7-1662-4dbb-9a04-c031f34d470a","ios":"levelo://app?vid=d12805d7-1662-4dbb-9a04-c031f34d470a"},"vehicle_type_id":"4","last_reported":1753287300,"current_range_meters":12400,"station_id":"ce4bgqh2rcd13ifvqc4g","pricing_plan_id":"cebpf4jnsgd1na2vs0mg"},{"bike_id":"77d276c4-073b-43d0-9c45-418693f1b7e0","system_id":"levelo_inurba_marseille","lat":43.29932,"lon":5.3655,"is_reserved":false,"is_disabled":false,"rental_uris":{"android":"levelo://app?vid=77d276c4-073b-43d0-9c45-418693f1b7e0","ios":"levelo://app?vid=77d276c4-073b-43d0-9c45-418693f1b7e0"},"vehicle_type_id":"4","last_reported":1753287300,"current_range_meters":12400,"station_id":"ce4bgm92rcd13ifvqbr0","pricing_plan_id":"cebpf4jnsgd1na2vs0mg"},{"bike_id":"2da13ae6-8774-42be-8b44-4fc9f0fe9aac","system_id":"levelo_inurba_marseille","lat":43.30739,"lon":5.42447,"is_reserved":false,"is_disabled":false,"rental_uris":{"android":"levelo://app?vid=2da13ae6-8774-42be-8b44-4fc9f0fe9aac","ios":"levelo://app?vid=2da13ae6-8774-42be-8b44-4fc9f0fe9aac"},"vehicle_type_id":"4","last_reported":1753287300,"current_range_meters":12400,"station_id":"st_cvj6ca6bvosntc0bfgr0","pricing_plan_id":"cebpf4jnsgd1na2vs0mg"},{"bike_id":"db4f7d16-4447-4752-b9fa-314b60a317e8","system_id":"levelo_inurba_marseille","lat":43.2992,"lon":5.37912,"is_reserved":false,"is_disabled":false,"rental_uris":{"android":"levelo://app?vid=db4f7d16-4447-4752-b9fa-314b60a317e8","ios":"levelo://app?vid=db4f7d16-4447-4752-b9fa-314b60a317e8"},"vehicle_type_id":"4","last_reported":1753287300,"current_range_meters":12400,"station_id":"","pricing_plan_id":"cebpf4jnsgd1na2vs0mg"},{"bike_id":"a26f5db3-37c5-4bfa-af73-7d1f4c5115f6","system_id":"levelo_inurba_marseille","lat":43.278434,"lon":5.357573,"is_reserved":false,"is_disabled":false,"rental_uris":{"android":"levelo://app?vid=a26f5db3-37c5-4bfa-af73-7d1f4c5115f6","ios":"levelo://app?vid=a26f5db3-37c5-4bfa-af73-7d1f4c5115f6"},"vehicle_type_id":"4","last_reported":1753287300,"current_range_meters":12400,"station_id":"ce4bhch2rcd13ifvqeug","pricing_plan_id":"cebpf4jnsgd1na2vs0mg"},{"bike_id":"fec3b07e-037a-4fea-a191-679ee2b99950","system_id":"levelo_inurba_marseille","lat":43.24175,"lon":5.36402,"is_reserved":false,"is_disabled":false,"rental_uris":{"android":"levelo://app?vid=fec3b07e-037a-4fea-a191-679ee2b99950","ios":"levelo://app?vid=fec3b07e-037a-4fea-a191-679ee2b99950"},"vehicle_type_id":"4","last_reported":1753287300,"current_range_meters":12400,"station_id":"cpo36qri1sfpv3e86is0","pricing_plan_id":"cebpf4jnsgd1na2vs0mg"},{"bike_id":"f891985a-34d0-4f26-8741-f39f0e73a73c","system_id":"levelo_inurba_marseille","lat":43.25127,"lon":5.40315,"is_reserved":false,"is_disabled":false,"rental_uris":{"android":"levelo://app?vid=f891985a-34d0-4f26-8741-f39f0e73a73c","ios":"levelo://app?vid=f891985a-34d0-4f26-8741-f39f0e73a73c"},"vehicle_type_id":"4","last_reported":1753287300,"current_range_meters":12400,"station_id":"ce4bhlh2rcd13ifvqgig","pricing_plan_id":"cebpf4jnsgd1na2vs0mg"},{"bike_id":"15d67f1a-24b7-4550-966a-d477e93ba9de","system_id":"levelo_inurba_marseille","lat":43.29582,"lon":5.375,"is_reserved":false,"is_disabled":false,"rental_uris":{"android":"levelo://app?vid=15d67f1a-24b7-4550-966a-d477e93ba9de","ios":"levelo://app?vid=15d67f1a-24b7-4550-966a-d477e93ba9de"},"vehicle_type_id":"4","last_reported":1753287300,"current_range_meters":12400,"station_id":"ce4bgh92rcd13ifvqb50","pricing_plan_id":"cebpf4jnsgd1na2vs0mg"},{"bike_id":"3c67b204-f0d1-4e30-b8e4-cbe7380cad60","system_id":"levelo_inurba_marseille","lat":43.30145,"lon":5.38783,"is_reserved":false,"is_disabled":false,"rental_uris":{"android":"levelo://app?vid=3c67b204-f0d1-4e30-b8e4-cbe7380cad60","ios":"levelo://app?vid=3c67b204-f0d1-4e30-b8e4-cbe7380cad60"},"vehicle_type_id":"4","last_reported":1753287300,"current_range_meters":12800,"station_id":"ce4bghh2rcd13ifvqb60","pricing_plan_id":"cebpf4jnsgd1na2vs0mg"},{"bike_id":"d8d96eac-8597-4b19-9d87-66881fe438d9","system_id":"levelo_inurba_marseille","lat":43.25585,"lon":5.38224,"is_reserved":false,"is_disabled":false,"rental_uris":{"android":"levelo://app?vid=d8d96eac-8597-4b19-9d87-66881fe438d9","ios":"levelo://app?vid=d8d96eac-8597-4b19-9d87-66881fe438d9"},"vehicle_type_id":"4","last_reported":1753287300,"current_range_meters":12800,"station_id":"ce4bhih2rcd13ifvqfs0","pricing_plan_id":"cebpf4jnsgd1na2vs0mg"},{"bike_id":"bb2c0421-f102-44d5-bd43-20c3020bf516","system_id":"levelo_inurba_marseille","lat":43.27059,"lon":5.40256,"is_reserved":false,"is_disabled":false,"rental_uris":{"android":"levelo://app?vid=bb2c0421-f102-44d5-bd43-20c3020bf516","ios":"levelo://app?vid=bb2c0421-f102-44d5-bd43-20c3020bf516"},"vehicle_type_id":"4","last_reported":1753287300,"current_range_meters":12800,"station_id":"ce4bhk92rcd13ifvqgc0","pricing_plan_id":"cebpf4jnsgd1na2vs0mg"},{"bike_id":"0b24f40c-f501-4d8c-bc50-7e0ff3d0b864","system_id":"levelo_inurba_marseille","lat":43.29003,"lon":5.35603,"is_reserved":false,"is_disabled":false,"rental_uris":{"android":"levelo://app?vid=0b24f40c-f501-4d8c-bc50-7e0ff3d0b864","ios":"levelo://app?vid=0b24f40c-f501-4d8c-bc50-7e0ff3d0b864"},"vehicle_type_id":"4","last_reported":1753287300,"current_range_meters":12800,"station_id":"ce4bhb92rcd13ifvqen0","pricing_plan_id":"cebpf4jnsgd1na2vs0mg"},{"bike_id":"5ea636b6-7db1-45f7-ab7b-2f73f0e49681","system_id":"levelo_inurba_marseille","lat":43.21192,"lon":5.35074,"is_reserved":false,"is_disabled":false,"rental_uris":{"android":"levelo://app?vid=5ea636b6-7db1-45f7-ab7b-2f73f0e49681","ios":"levelo://app?vid=5ea636b6-7db1-45f7-ab7b-2f73f0e49681"},"vehicle_type_id":"4","last_reported":1753287300,"current_range_meters":12800,"station_id":"st_cvj6sg6p6f1abm77japg","pricing_plan_id":"cebpf4jnsgd1na2vs0mg"},{"bike_id":"bbc2b271-396f-4875-9f1d-0fcc163d87b6","system_id":"levelo_inurba_marseille","lat":43.29049,"lon":5.39895,"is_reserved":false,"is_disabled":false,"rental_uris":{"android":"levelo://app?vid=bbc2b271-396f-4875-9f1d-0fcc163d87b6","ios":"levelo://app?vid=bbc2b271-396f-4875-9f1d-0fcc163d87b6"},"vehicle_type_id":"4","last_reported":1753287300,"current_range_meters":13600,"station_id":"","pricing_plan_id":"cebpf4jnsgd1na2vs0mg"},{"bike_id":"dfd7337f-b55a-4a87-8bd2-4b2d6c238c4c","system_id":"levelo_inurba_marseille","lat":43.29039,"lon":5.37554,"is_reserved":false,"is_disabled":false,"rental_uris":{"android":"levelo://app?vid=dfd7337f-b55a-4a87-8bd2-4b2d6c238c4c","ios":"levelo://app?vid=dfd7337f-b55a-4a87-8bd2-4b2d6c238c4c"},"vehicle_type_id":"4","last_reported":1753287300,"current_range_meters":13600,"station_id":"ce4bh692rcd13ifvqe90","pricing_plan_id":"cebpf4jnsgd1na2vs0mg"},{"bike_id":"b147d87d-ad6b-4ee0-89e1-f2e85a2edd30","system_id":"levelo_inurba_marseille","lat":43.32111,"lon":5.36762,"is_reserved":false,"is_disabled":false,"rental_uris":{"android":"levelo://app?vid=b147d87d-ad6b-4ee0-89e1-f2e85a2edd30","ios":"levelo://app?vid=b147d87d-ad6b-4ee0-89e1-f2e85a2edd30"},"vehicle_type_id":"4","last_reported":1753287300,"current_range_meters":13600,"station_id":"ce4bhrh2rcd13ifvqhug","pricing_plan_id":"cebpf4jnsgd1na2vs0mg"},{"bike_id":"f78ba993-866c-430c-b3f9-7f8955930b33","system_id":"levelo_inurba_marseille","lat":43.284959,"lon":5.375798,"is_reserved":false,"is_disabled":false,"rental_uris":{"android":"levelo://app?vid=f78ba993-866c-430c-b3f9-7f8955930b33","ios":"levelo://app?vid=f78ba993-866c-430c-b3f9-7f8955930b33"},"vehicle_type_id":"4","last_reported":1753287300,"current_range_meters":14000,"station_id":"ce4bh412rcd13ifvqds0","pricing_plan_id":"cebpf4jnsgd1na2vs0mg"},{"bike_id":"89c59684-a1d3-4462-83a5-68d04467ab5c","system_id":"levelo_inurba_marseille","lat":43.30307,"lon":5.39187,"is_reserved":false,"is_disabled":false,"rental_uris":{"android":"levelo://app?vid=89c59684-a1d3-4462-83a5-68d04467ab5c","ios":"levelo://app?vid=89c59684-a1d3-4462-83a5-68d04467ab5c"},"vehicle_type_id":"4","last_reported":1753287300,"current_range_meters":13600,"station_id":"ce4bgkh2rcd13ifvqbk0","pricing_plan_id":"cebpf4jnsgd1na2vs0mg"},{"bike_id":"e5547459-05ca-478c-8259-ee1c4d55abc6","system_id":"levelo_inurba_marseille","lat":43.29227,"lon":5.36051,"is_reserved":false,"is_disabled":false,"rental_uris":{"android":"levelo://app?vid=e5547459-05ca-478c-8259-ee1c4d55abc6","ios":"levelo://app?vid=e5547459-05ca-478c-8259-ee1c4d55abc6"},"vehicle_type_id":"4","last_reported":1753287300,"current_range_meters":14000,"station_id":"ce4bhbh2rcd13ifvqeqg","pricing_plan_id":"cebpf4jnsgd1na2vs0mg"},{"bike_id":"b266dce4-9dd8-4af0-87e8-156ad7696fae","system_id":"levelo_inurba_marseille","lat":43.28932,"lon":5.38395,"is_reserved":false,"is_disabled":false,"rental_uris":{"android":"levelo://app?vid=b266dce4-9dd8-4af0-87e8-156ad7696fae","ios":"levelo://app?vid=b266dce4-9dd8-4af0-87e8-156ad7696fae"},"vehicle_type_id":"4","last_reported":1753287300,"current_range_meters":14000,"station_id":"ce4bh612rcd13ifvqe6g","pricing_plan_id":"cebpf4jnsgd1na2vs0mg"},{"bike_id":"5055da19-6222-4cdb-82d5-4be88f0cc834","system_id":"levelo_inurba_marseille","lat":43.29534,"lon":5.38544,"is_reserved":false,"is_disabled":false,"rental_uris":{"android":"levelo://app?vid=5055da19-6222-4cdb-82d5-4be88f0cc834","ios":"levelo://app?vid=5055da19-6222-4cdb-82d5-4be88f0cc834"},"vehicle_type_id":"4","last_reported":1753287300,"current_range_meters":14400,"station_id":"ce4bgih2rcd13ifvqba0","pricing_plan_id":"cebpf4jnsgd1na2vs0mg"},{"bike_id":"7b00bd47-e849-4d9a-8cb3-5d4e94f53214","system_id":"levelo_inurba_marseille","lat":43.28724,"lon":5.36086,"is_reserved":false,"is_disabled":false,"rental_uris":{"android":"levelo://app?vid=7b00bd47-e849-4d9a-8cb3-5d4e94f53214","ios":"levelo://app?vid=7b00bd47-e849-4d9a-8cb3-5d4e94f53214"},"vehicle_type_id":"4","last_reported":1753287300,"current_range_meters":14000,"station_id":"cki0cbj6b192h4jlfktg","pricing_plan_id":"cebpf4jnsgd1na2vs0mg"},{"bike_id":"5cdd3a95-8340-4aea-88c7-e779699200b9","system_id":"levelo_inurba_marseille","lat":43.29933,"lon":5.36545,"is_reserved":false,"is_disabled":false,"rental_uris":{"android":"levelo://app?vid=5cdd3a95-8340-4aea-88c7-e779699200b9","ios":"levelo://app?vid=5cdd3a95-8340-4aea-88c7-e779699200b9"},"vehicle_type_id":"4","last_reported":1753287300,"current_range_meters":14400,"station_id":"ce4bgm92rcd13ifvqbr0","pricing_plan_id":"cebpf4jnsgd1na2vs0mg"},{"bike_id":"1bfcb149-f199-4c17-b4f8-5d7a795b284f","system_id":"levelo_inurba_marseille","lat":43.30352,"lon":5.41873,"is_reserved":false,"is_disabled":false,"rental_uris":{"android":"levelo://app?vid=1bfcb149-f199-4c17-b4f8-5d7a795b284f","ios":"levelo://app?vid=1bfcb149-f199-4c17-b4f8-5d7a795b284f"},"vehicle_type_id":"4","last_reported":1753287300,"current_range_meters":14400,"station_id":"ce4bhop2rcd13ifvqh7g","pricing_plan_id":"cebpf4jnsgd1na2vs0mg"},{"bike_id":"3c8c8450-a767-4a89-b895-39c7e1d469a3","system_id":"levelo_inurba_marseille","lat":43.25499,"lon":5.37639,"is_reserved":false,"is_disabled":false,"rental_uris":{"android":"levelo://app?vid=3c8c8450-a767-4a89-b895-39c7e1d469a3","ios":"levelo://app?vid=3c8c8450-a767-4a89-b895-39c7e1d469a3"},"vehicle_type_id":"4","last_reported":1753287300,"current_range_meters":14400,"station_id":"ce4bhh12rcd13ifvqff0","pricing_plan_id":"cebpf4jnsgd1na2vs0mg"},{"bike_id":"3efe6d72-b7f8-4147-8605-706aa62c289a","system_id":"levelo_inurba_marseille","lat":43.30129,"lon":5.39852,"is_reserved":false,"is_disabled":false,"rental_uris":{"android":"levelo://app?vid=3efe6d72-b7f8-4147-8605-706aa62c289a","ios":"levelo://app?vid=3efe6d72-b7f8-4147-8605-706aa62c289a"},"vehicle_type_id":"4","last_reported":1753287300,"current_range_meters":14800,"station_id":"ce4bh0h2rcd13ifvqd40","pricing_plan_id":"cebpf4jnsgd1na2vs0mg"},{"bike_id":"d9d607f1-dc74-4c2b-b08b-f46fc640b199","system_id":"levelo_inurba_marseille","lat":43.24166,"lon":5.3639,"is_reserved":false,"is_disabled":false,"rental_uris":{"android":"levelo://app?vid=d9d607f1-dc74-4c2b-b08b-f46fc640b199","ios":"levelo://app?vid=d9d607f1-dc74-4c2b-b08b-f46fc640b199"},"vehicle_type_id":"4","last_reported":1753287300,"current_range_meters":14800,"station_id":"cpo36qri1sfpv3e86is0","pricing_plan_id":"cebpf4jnsgd1na2vs0mg"},{"bike_id":"8ad9373f-1e64-4e47-a7d7-1142480c28ef","system_id":"levelo_inurba_marseille","lat":43.27066,"lon":5.42267,"is_reserved":false,"is_disabled":false,"rental_uris":{"android":"levelo://app?vid=8ad9373f-1e64-4e47-a7d7-1142480c28ef","ios":"levelo://app?vid=8ad9373f-1e64-4e47-a7d7-1142480c28ef"},"vehicle_type_id":"4","last_reported":1753287300,"current_range_meters":14800,"station_id":"ce4bhk92rcd13ifvqgb0","pricing_plan_id":"cebpf4jnsgd1na2vs0mg"},{"bike_id":"541e3f7a-640b-4d8c-977d-949ca2a087ab","system_id":"levelo_inurba_marseille","lat":43.30796,"lon":5.379577,"is_reserved":false,"is_disabled":true,"rental_uris":{"android":"levelo://app?vid=541e3f7a-640b-4d8c-977d-949ca2a087ab","ios":"levelo://app?vid=541e3f7a-640b-4d8c-977d-949ca2a087ab"},"vehicle_type_id":"4","last_reported":1753287300,"current_range_meters":14800,"station_id":"ce4bgt12rcd13ifvqce0","pricing_plan_id":"cebpf4jnsgd1na2vs0mg"},{"bike_id":"8ebe434f-5d79-4aab-96e5-a8436d434fd7","system_id":"levelo_inurba_marseille","lat":43.324,"lon":5.40612,"is_reserved":false,"is_disabled":false,"rental_uris":{"android":"levelo://app?vid=8ebe434f-5d79-4aab-96e5-a8436d434fd7","ios":"levelo://app?vid=8ebe434f-5d79-4aab-96e5-a8436d434fd7"},"vehicle_type_id":"4","last_reported":1753287300,"current_range_meters":14800,"station_id":"ce4bhq92rcd13ifvqhjg","pricing_plan_id":"cebpf4jnsgd1na2vs0mg"},{"bike_id":"6ba8bf23-faf4-4e7f-a0da-6f0984da5df1","system_id":"levelo_inurba_marseille","lat":43.2621,"lon":5.37441,"is_reserved":false,"is_disabled":false,"rental_uris":{"android":"levelo://app?vid=6ba8bf23-faf4-4e7f-a0da-6f0984da5df1","ios":"levelo://app?vid=6ba8bf23-faf4-4e7f-a0da-6f0984da5df1"},"vehicle_type_id":"4","last_reported":1753287300,"current_range_meters":14800,"station_id":"ce4bhgp2rcd13ifvqfc0","pricing_plan_id":"cebpf4jnsgd1na2vs0mg"},{"bike_id":"e02c7e84-478b-4396-88dd-2640f9765250","system_id":"levelo_inurba_marseille","lat":43.28418,"lon":5.34982,"is_reserved":false,"is_disabled":false,"rental_uris":{"android":"levelo://app?vid=e02c7e84-478b-4396-88dd-2640f9765250","ios":"levelo://app?vid=e02c7e84-478b-4396-88dd-2640f9765250"},"vehicle_type_id":"4","last_reported":1753287300,"current_range_meters":15200,"station_id":"ce4bhbh2rcd13ifvqepg","pricing_plan_id":"cebpf4jnsgd1na2vs0mg"},{"bike_id":"cb49e495-c72d-476d-9f57-533b7de65695","system_id":"levelo_inurba_marseille","lat":43.28108,"lon":5.37834,"is_reserved":false,"is_disabled":false,"rental_uris":{"android":"levelo://app?vid=cb49e495-c72d-476d-9f57-533b7de65695","ios":"levelo://app?vid=cb49e495-c72d-476d-9f57-533b7de65695"},"vehicle_type_id":"4","last_reported":1753287300,"current_range_meters":15200,"station_id":"ce4bha12rcd13ifvqee0","pricing_plan_id":"cebpf4jnsgd1na2vs0mg"},{"bike_id":"f9c9ff83-8548-4acb-a33b-495af4adeef4","system_id":"levelo_inurba_marseille","lat":43.32361,"lon":5.36728,"is_reserved":false,"is_disabled":false,"rental_uris":{"android":"levelo://app?vid=f9c9ff83-8548-4acb-a33b-495af4adeef4","ios":"levelo://app?vid=f9c9ff83-8548-4acb-a33b-495af4adeef4"},"vehicle_type_id":"4","last_reported":1753287300,"current_range_meters":15200,"station_id":"ce4bhsh2rcd13ifvqi2g","pricing_plan_id":"cebpf4jnsgd1na2vs0mg"},{"bike_id":"b5ce8d93-17c0-45a5-b2b1-eefce45c2d79","system_id":"levelo_inurba_marseille","lat":43.318136,"lon":5.435294,"is_reserved":false,"is_disabled":false,"rental_uris":{"android":"levelo://app?vid=b5ce8d93-17c0-45a5-b2b1-eefce45c2d79","ios":"levelo://app?vid=b5ce8d93-17c0-45a5-b2b1-eefce45c2d79"},"vehicle_type_id":"4","last_reported":1753287300,"current_range_meters":15200,"station_id":"","pricing_plan_id":"cebpf4jnsgd1na2vs0mg"},{"bike_id":"d6069fd5-7265-4738-ad74-a2dc5ed3e4f6","system_id":"levelo_inurba_marseille","lat":43.26552,"lon":5.37285,"is_reserved":false,"is_disabled":false,"rental_uris":{"android":"levelo://app?vid=d6069fd5-7265-4738-ad74-a2dc5ed3e4f6","ios":"levelo://app?vid=d6069fd5-7265-4738-ad74-a2dc5ed3e4f6"},"vehicle_type_id":"4","last_reported":1753287300,"current_range_meters":15200,"station_id":"ce4bhg12rcd13ifvqf70","pricing_plan_id":"cebpf4jnsgd1na2vs0mg"},{"bike_id":"83f515a8-f71e-4c6c-8571-8ffe2bfdf2c4","system_id":"levelo_inurba_marseille","lat":43.28158,"lon":5.42638,"is_reserved":false,"is_disabled":true,"rental_uris":{"android":"levelo://app?vid=83f515a8-f71e-4c6c-8571-8ffe2bfdf2c4","ios":"levelo://app?vid=83f515a8-f71e-4c6c-8571-8ffe2bfdf2c4"},"vehicle_type_id":"4","last_reported":1753287300,"current_range_meters":15200,"station_id":"ce4bhnh2rcd13ifvqgug","pricing_plan_id":"cebpf4jnsgd1na2vs0mg"},{"bike_id":"ca4f0b6d-4c29-4898-a84b-4bb1d3f092ea","system_id":"levelo_inurba_marseille","lat":43.24806,"lon":5.37447,"is_reserved":false,"is_disabled":false,"rental_uris":{"android":"levelo://app?vid=ca4f0b6d-4c29-4898-a84b-4bb1d3f092ea","ios":"levelo://app?vid=ca4f0b6d-4c29-4898-a84b-4bb1d3f092ea"},"vehicle_type_id":"4","last_reported":1753287300,"current_range_meters":15200,"station_id":"ce4bhgh2rcd13ifvqfb0","pricing_plan_id":"cebpf4jnsgd1na2vs0mg"},{"bike_id":"a0de01aa-cd68-4a4d-8bab-65fa167b8610","system_id":"levelo_inurba_marseille","lat":43.23191,"lon":5.35549,"is_reserved":false,"is_disabled":false,"rental_uris":{"android":"levelo://app?vid=a0de01aa-cd68-4a4d-8bab-65fa167b8610","ios":"levelo://app?vid=a0de01aa-cd68-4a4d-8bab-65fa167b8610"},"vehicle_type_id":"4","last_reported":1753287300,"current_range_meters":15200,"station_id":"ce4bhu92rcd13ifvqi70","pricing_plan_id":"cebpf4jnsgd1na2vs0mg"},{"bike_id":"1d9e4d77-027b-4cd8-b564-022777eff5ef","system_id":"levelo_inurba_marseille","lat":43.290626,"lon":5.399688,"is_reserved":false,"is_disabled":false,"rental_uris":{"android":"levelo://app?vid=1d9e4d77-027b-4cd8-b564-022777eff5ef","ios":"levelo://app?vid=1d9e4d77-027b-4cd8-b564-022777eff5ef"},"vehicle_type_id":"4","last_reported":1753287300,"current_range_meters":15200,"station_id":"ce4bh392rcd13ifvqdm0","pricing_plan_id":"cebpf4jnsgd1na2vs0mg"},{"bike_id":"9ce312f1-cb07-4159-91d6-c11a68a5ee71","system_id":"levelo_inurba_marseille","lat":43.21205,"lon":5.35078,"is_reserved":false,"is_disabled":false,"rental_uris":{"android":"levelo://app?vid=9ce312f1-cb07-4159-91d6-c11a68a5ee71","ios":"levelo://app?vid=9ce312f1-cb07-4159-91d6-c11a68a5ee71"},"vehicle_type_id":"4","last_reported":1753287300,"current_range_meters":15200,"station_id":"st_cvj6sg6p6f1abm77japg","pricing_plan_id":"cebpf4jnsgd1na2vs0mg"},{"bike_id":"ba76db10-50a8-49c8-a085-29fde1bd1673","system_id":"levelo_inurba_marseille","lat":43.30951,"lon":5.39031,"is_reserved":false,"is_disabled":false,"rental_uris":{"android":"levelo://app?vid=ba76db10-50a8-49c8-a085-29fde1bd1673","ios":"levelo://app?vid=ba76db10-50a8-49c8-a085-29fde1bd1673"},"vehicle_type_id":"4","last_reported":1753287300,"current_range_meters":16000,"station_id":"ce4bgup2rcd13ifvqco0","pricing_plan_id":"cebpf4jnsgd1na2vs0mg"},{"bike_id":"a9b34db6-9dda-4a93-b2ea-bb33db5692fc","system_id":"levelo_inurba_marseille","lat":43.29113,"lon":5.38136,"is_reserved":false,"is_disabled":false,"rental_uris":{"android":"levelo://app?vid=a9b34db6-9dda-4a93-b2ea-bb33db5692fc","ios":"levelo://app?vid=a9b34db6-9dda-4a93-b2ea-bb33db5692fc"},"vehicle_type_id":"4","last_reported":1753287300,"current_range_meters":15200,"station_id":"ce4bh512rcd13ifvqe2g","pricing_plan_id":"cebpf4jnsgd1na2vs0mg"},{"bike_id":"f3217e35-0bb5-43ab-beb0-dd5e233a7114","system_id":"levelo_inurba_marseille","lat":43.25611,"lon":5.38234,"is_reserved":false,"is_disabled":false,"rental_uris":{"android":"levelo://app?vid=f3217e35-0bb5-43ab-beb0-dd5e233a7114","ios":"levelo://app?vid=f3217e35-0bb5-43ab-beb0-dd5e233a7114"},"vehicle_type_id":"4","last_reported":1753287300,"current_range_meters":16000,"station_id":"ce4bhih2rcd13ifvqfs0","pricing_plan_id":"cebpf4jnsgd1na2vs0mg"},{"bike_id":"8006020a-6cfe-4131-82ca-a6c8f07671d2","system_id":"levelo_inurba_marseille","lat":43.31187,"lon":5.37715,"is_reserved":false,"is_disabled":false,"rental_uris":{"android":"levelo://app?vid=8006020a-6cfe-4131-82ca-a6c8f07671d2","ios":"levelo://app?vid=8006020a-6cfe-4131-82ca-a6c8f07671d2"},"vehicle_type_id":"4","last_reported":1753287300,"current_range_meters":16000,"station_id":"","pricing_plan_id":"cebpf4jnsgd1na2vs0mg"},{"bike_id":"9e7bef7c-53f8-4848-95ce-ebad9a02dd2f","system_id":"levelo_inurba_marseille","lat":43.258539,"lon":5.398885,"is_reserved":false,"is_disabled":false,"rental_uris":{"android":"levelo://app?vid=9e7bef7c-53f8-4848-95ce-ebad9a02dd2f","ios":"levelo://app?vid=9e7bef7c-53f8-4848-95ce-ebad9a02dd2f"},"vehicle_type_id":"4","last_reported":1753287300,"current_range_meters":16000,"station_id":"ce4bhl92rcd13ifvqghg","pricing_plan_id":"cebpf4jnsgd1na2vs0mg"},{"bike_id":"5c5e0234-b284-4ee9-9ccf-b6fff3125ffa","system_id":"levelo_inurba_marseille","lat":43.29263,"lon":5.37619,"is_reserved":false,"is_disabled":false,"rental_uris":{"android":"levelo://app?vid=5c5e0234-b284-4ee9-9ccf-b6fff3125ffa","ios":"levelo://app?vid=5c5e0234-b284-4ee9-9ccf-b6fff3125ffa"},"vehicle_type_id":"4","last_reported":1753287300,"current_range_meters":16000,"station_id":"ce4bgi12rcd13ifvqb80","pricing_plan_id":"cebpf4jnsgd1na2vs0mg"},{"bike_id":"2c6c41da-60a9-4792-86ac-c53edacadd07","system_id":"levelo_inurba_marseille","lat":43.23179,"lon":5.39989,"is_reserved":false,"is_disabled":false,"rental_uris":{"android":"levelo://app?vid=2c6c41da-60a9-4792-86ac-c53edacadd07","ios":"levelo://app?vid=2c6c41da-60a9-4792-86ac-c53edacadd07"},"vehicle_type_id":"4","last_reported":1753287300,"current_range_meters":16000,"station_id":"ce4bhn12rcd13ifvqgqg","pricing_plan_id":"cebpf4jnsgd1na2vs0mg"},{"bike_id":"5dc142af-2a5e-4fb3-8ff7-e7f29f991918","system_id":"levelo_inurba_marseille","lat":43.28677,"lon":5.39974,"is_reserved":false,"is_disabled":false,"rental_uris":{"android":"levelo://app?vid=5dc142af-2a5e-4fb3-8ff7-e7f29f991918","ios":"levelo://app?vid=5dc142af-2a5e-4fb3-8ff7-e7f29f991918"},"vehicle_type_id":"4","last_reported":1753287300,"current_range_meters":16000,"station_id":"ce4bho92rcd13ifvqh3g","pricing_plan_id":"cebpf4jnsgd1na2vs0mg"},{"bike_id":"a3640f8d-e562-4f12-8803-79ea76a806b7","system_id":"levelo_inurba_marseille","lat":43.26549,"lon":5.37283,"is_reserved":false,"is_disabled":false,"rental_uris":{"android":"levelo://app?vid=a3640f8d-e562-4f12-8803-79ea76a806b7","ios":"levelo://app?vid=a3640f8d-e562-4f12-8803-79ea76a806b7"},"vehicle_type_id":"4","last_reported":1753287300,"current_range_meters":16000,"station_id":"ce4bhg12rcd13ifvqf70","pricing_plan_id":"cebpf4jnsgd1na2vs0mg"},{"bike_id":"f8232130-db52-4ff5-b354-f78033a04c00","system_id":"levelo_inurba_marseille","lat":43.279624,"lon":5.410367,"is_reserved":false,"is_disabled":false,"rental_uris":{"android":"levelo://app?vid=f8232130-db52-4ff5-b354-f78033a04c00","ios":"levelo://app?vid=f8232130-db52-4ff5-b354-f78033a04c00"},"vehicle_type_id":"4","last_reported":1753287300,"current_range_meters":16000,"station_id":"ce4bhnp2rcd13ifvqh0g","pricing_plan_id":"cebpf4jnsgd1na2vs0mg"},{"bike_id":"d4e5dd79-2b52-4d97-8cab-d2aa23e54cd3","system_id":"levelo_inurba_marseille","lat":43.29262,"lon":5.3844,"is_reserved":false,"is_disabled":false,"rental_uris":{"android":"levelo://app?vid=d4e5dd79-2b52-4d97-8cab-d2aa23e54cd3","ios":"levelo://app?vid=d4e5dd79-2b52-4d97-8cab-d2aa23e54cd3"},"vehicle_type_id":"4","last_reported":1753287300,"current_range_meters":16400,"station_id":"ce4bh692rcd13ifvqea0","pricing_plan_id":"cebpf4jnsgd1na2vs0mg"},{"bike_id":"c12bdd82-6560-4bec-8247-8528f05e2374","system_id":"levelo_inurba_marseille","lat":43.293,"lon":5.37461,"is_reserved":false,"is_disabled":false,"rental_uris":{"android":"levelo://app?vid=c12bdd82-6560-4bec-8247-8528f05e2374","ios":"levelo://app?vid=c12bdd82-6560-4bec-8247-8528f05e2374"},"vehicle_type_id":"4","last_reported":1753287300,"current_range_meters":16400,"station_id":"ce4bgi12rcd13ifvqb70","pricing_plan_id":"cebpf4jnsgd1na2vs0mg"},{"bike_id":"ca49b5c0-f829-4f16-a66a-1ba3fed2db07","system_id":"levelo_inurba_marseille","lat":43.295331,"lon":5.385369,"is_reserved":false,"is_disabled":false,"rental_uris":{"android":"levelo://app?vid=ca49b5c0-f829-4f16-a66a-1ba3fed2db07","ios":"levelo://app?vid=ca49b5c0-f829-4f16-a66a-1ba3fed2db07"},"vehicle_type_id":"4","last_reported":1753287300,"current_range_meters":16400,"station_id":"","pricing_plan_id":"cebpf4jnsgd1na2vs0mg"},{"bike_id":"5f2477ac-722e-4809-a430-cedf73ed063f","system_id":"levelo_inurba_marseille","lat":43.289396,"lon":5.355022,"is_reserved":false,"is_disabled":false,"rental_uris":{"android":"levelo://app?vid=5f2477ac-722e-4809-a430-cedf73ed063f","ios":"levelo://app?vid=5f2477ac-722e-4809-a430-cedf73ed063f"},"vehicle_type_id":"4","last_reported":1753287300,"current_range_meters":16400,"station_id":"ce4bgj92rcd13ifvqbe0","pricing_plan_id":"cebpf4jnsgd1na2vs0mg"},{"bike_id":"1c49cc0d-1a2f-4adb-9c9b-f826e5dd24e2","system_id":"levelo_inurba_marseille","lat":43.29233,"lon":5.38361,"is_reserved":false,"is_disabled":false,"rental_uris":{"android":"levelo://app?vid=1c49cc0d-1a2f-4adb-9c9b-f826e5dd24e2","ios":"levelo://app?vid=1c49cc0d-1a2f-4adb-9c9b-f826e5dd24e2"},"vehicle_type_id":"4","last_reported":1753287300,"current_range_meters":16400,"station_id":"","pricing_plan_id":"cebpf4jnsgd1na2vs0mg"},{"bike_id":"b2b7f5e4-9a64-46ef-9d20-104d4c275bfa","system_id":"levelo_inurba_marseille","lat":43.21198,"lon":5.35065,"is_reserved":false,"is_disabled":false,"rental_uris":{"android":"levelo://app?vid=b2b7f5e4-9a64-46ef-9d20-104d4c275bfa","ios":"levelo://app?vid=b2b7f5e4-9a64-46ef-9d20-104d4c275bfa"},"vehicle_type_id":"4","last_reported":1753287300,"current_range_meters":16400,"station_id":"st_cvj6sg6p6f1abm77japg","pricing_plan_id":"cebpf4jnsgd1na2vs0mg"},{"bike_id":"872d6688-34e9-4e87-9a71-30f9e710a775","system_id":"levelo_inurba_marseille","lat":43.26539,"lon":5.37219,"is_reserved":false,"is_disabled":false,"rental_uris":{"android":"levelo://app?vid=872d6688-34e9-4e87-9a71-30f9e710a775","ios":"levelo://app?vid=872d6688-34e9-4e87-9a71-30f9e710a775"},"vehicle_type_id":"4","last_reported":1753287300,"current_range_meters":16400,"station_id":"","pricing_plan_id":"cebpf4jnsgd1na2vs0mg"},{"bike_id":"f493a3a9-7f6b-470e-bce7-7019418af039","system_id":"levelo_inurba_marseille","lat":43.279074,"lon":5.380089,"is_reserved":false,"is_disabled":false,"rental_uris":{"android":"levelo://app?vid=f493a3a9-7f6b-470e-bce7-7019418af039","ios":"levelo://app?vid=f493a3a9-7f6b-470e-bce7-7019418af039"},"vehicle_type_id":"4","last_reported":1753287300,"current_range_meters":16400,"station_id":"ce4bhf92rcd13ifvqf50","pricing_plan_id":"cebpf4jnsgd1na2vs0mg"},{"bike_id":"75921511-23bf-408f-9470-1062209789d6","system_id":"levelo_inurba_marseille","lat":43.25579,"lon":5.38239,"is_reserved":false,"is_disabled":false,"rental_uris":{"android":"levelo://app?vid=75921511-23bf-408f-9470-1062209789d6","ios":"levelo://app?vid=75921511-23bf-408f-9470-1062209789d6"},"vehicle_type_id":"4","last_reported":1753287300,"current_range_meters":16800,"station_id":"ce4bhih2rcd13ifvqfs0","pricing_plan_id":"cebpf4jnsgd1na2vs0mg"},{"bike_id":"6754b993-00aa-411a-a65a-57e016aa5bca","system_id":"levelo_inurba_marseille","lat":43.291014,"lon":5.381315,"is_reserved":false,"is_disabled":false,"rental_uris":{"android":"levelo://app?vid=6754b993-00aa-411a-a65a-57e016aa5bca","ios":"levelo://app?vid=6754b993-00aa-411a-a65a-57e016aa5bca"},"vehicle_type_id":"4","last_reported":1753287300,"current_range_meters":16800,"station_id":"ce4bh512rcd13ifvqe2g","pricing_plan_id":"cebpf4jnsgd1na2vs0mg"},{"bike_id":"3d2b5cb0-7eb7-4c74-8f95-8e74c0e87ea7","system_id":"levelo_inurba_marseille","lat":43.29639,"lon":5.37141,"is_reserved":false,"is_disabled":false,"rental_uris":{"android":"levelo://app?vid=3d2b5cb0-7eb7-4c74-8f95-8e74c0e87ea7","ios":"levelo://app?vid=3d2b5cb0-7eb7-4c74-8f95-8e74c0e87ea7"},"vehicle_type_id":"4","last_reported":1753287300,"current_range_meters":16800,"station_id":"ce4bgnh2rcd13ifvqc0g","pricing_plan_id":"cebpf4jnsgd1na2vs0mg"},{"bike_id":"496cac02-0e91-4f64-97b9-cb34cf0ab931","system_id":"levelo_inurba_marseille","lat":43.22503,"lon":5.34787,"is_reserved":false,"is_disabled":false,"rental_uris":{"android":"levelo://app?vid=496cac02-0e91-4f64-97b9-cb34cf0ab931","ios":"levelo://app?vid=496cac02-0e91-4f64-97b9-cb34cf0ab931"},"vehicle_type_id":"4","last_reported":1753287300,"current_range_meters":16800,"station_id":"st_cvj5dfep6f1abm77gieg","pricing_plan_id":"cebpf4jnsgd1na2vs0mg"},{"bike_id":"ccbcedb2-9dbc-4ee9-8baa-a4e195d13cdd","system_id":"levelo_inurba_marseille","lat":43.2417,"lon":5.36396,"is_reserved":false,"is_disabled":false,"rental_uris":{"android":"levelo://app?vid=ccbcedb2-9dbc-4ee9-8baa-a4e195d13cdd","ios":"levelo://app?vid=ccbcedb2-9dbc-4ee9-8baa-a4e195d13cdd"},"vehicle_type_id":"4","last_reported":1753287300,"current_range_meters":16800,"station_id":"cpo36qri1sfpv3e86is0","pricing_plan_id":"cebpf4jnsgd1na2vs0mg"},{"bike_id":"0648eb3b-38dc-45ba-994e-ffad74a620d8","system_id":"levelo_inurba_marseille","lat":43.29031,"lon":5.38653,"is_reserved":false,"is_disabled":true,"rental_uris":{"android":"levelo://app?vid=0648eb3b-38dc-45ba-994e-ffad74a620d8","ios":"levelo://app?vid=0648eb3b-38dc-45ba-994e-ffad74a620d8"},"vehicle_type_id":"4","last_reported":1753287300,"current_range_meters":16800,"station_id":"ce4bh4p2rcd13ifvqe0g","pricing_plan_id":"cebpf4jnsgd1na2vs0mg"},{"bike_id":"3cd09fc8-9554-4236-8496-0931a7be09d1","system_id":"levelo_inurba_marseille","lat":43.2119,"lon":5.35064,"is_reserved":false,"is_disabled":false,"rental_uris":{"android":"levelo://app?vid=3cd09fc8-9554-4236-8496-0931a7be09d1","ios":"levelo://app?vid=3cd09fc8-9554-4236-8496-0931a7be09d1"},"vehicle_type_id":"4","last_reported":1753287300,"current_range_meters":16800,"station_id":"st_cvj6sg6p6f1abm77japg","pricing_plan_id":"cebpf4jnsgd1na2vs0mg"},{"bike_id":"bc464731-84e5-4d79-8404-44fc9b22647b","system_id":"levelo_inurba_marseille","lat":43.28616,"lon":5.35102,"is_reserved":false,"is_disabled":false,"rental_uris":{"android":"levelo://app?vid=bc464731-84e5-4d79-8404-44fc9b22647b","ios":"levelo://app?vid=bc464731-84e5-4d79-8404-44fc9b22647b"},"vehicle_type_id":"4","last_reported":1753287300,"current_range_meters":16800,"station_id":"ce4bhch2rcd13ifvqeug","pricing_plan_id":"cebpf4jnsgd1na2vs0mg"},{"bike_id":"6bb1f31c-9335-4f39-9585-31374a4775f9","system_id":"levelo_inurba_marseille","lat":43.325583,"lon":5.379059,"is_reserved":false,"is_disabled":false,"rental_uris":{"android":"levelo://app?vid=6bb1f31c-9335-4f39-9585-31374a4775f9","ios":"levelo://app?vid=6bb1f31c-9335-4f39-9585-31374a4775f9"},"vehicle_type_id":"4","last_reported":1753287300,"current_range_meters":16800,"station_id":"","pricing_plan_id":"cebpf4jnsgd1na2vs0mg"},{"bike_id":"ecf210ae-5256-4961-8931-0870e8bf0ee1","system_id":"levelo_inurba_marseille","lat":43.286204,"lon":5.351065,"is_reserved":false,"is_disabled":false,"rental_uris":{"android":"levelo://app?vid=ecf210ae-5256-4961-8931-0870e8bf0ee1","ios":"levelo://app?vid=ecf210ae-5256-4961-8931-0870e8bf0ee1"},"vehicle_type_id":"4","last_reported":1753287300,"current_range_meters":16800,"station_id":"ce4bhch2rcd13ifvqeug","pricing_plan_id":"cebpf4jnsgd1na2vs0mg"},{"bike_id":"5d8ca27c-6653-4147-a9b6-fb59b053107e","system_id":"levelo_inurba_marseille","lat":43.2417,"lon":5.36397,"is_reserved":false,"is_disabled":false,"rental_uris":{"android":"levelo://app?vid=5d8ca27c-6653-4147-a9b6-fb59b053107e","ios":"levelo://app?vid=5d8ca27c-6653-4147-a9b6-fb59b053107e"},"vehicle_type_id":"4","last_reported":1753287300,"current_range_meters":16800,"station_id":"cpo36qri1sfpv3e86is0","pricing_plan_id":"cebpf4jnsgd1na2vs0mg"},{"bike_id":"0a7e2862-d8ec-4c77-89d9-cfcdd51f8d75","system_id":"levelo_inurba_marseille","lat":43.31698,"lon":5.3733,"is_reserved":false,"is_disabled":false,"rental_uris":{"android":"levelo://app?vid=0a7e2862-d8ec-4c77-89d9-cfcdd51f8d75","ios":"levelo://app?vid=0a7e2862-d8ec-4c77-89d9-cfcdd51f8d75"},"vehicle_type_id":"4","last_reported":1753287300,"current_range_meters":16800,"station_id":"","pricing_plan_id":"cebpf4jnsgd1na2vs0mg"},{"bike_id":"6ae252ef-0f2a-4c8b-a989-289c5f04dd75","system_id":"levelo_inurba_marseille","lat":43.30764,"lon":5.382129,"is_reserved":false,"is_disabled":false,"rental_uris":{"android":"levelo://app?vid=6ae252ef-0f2a-4c8b-a989-289c5f04dd75","ios":"levelo://app?vid=6ae252ef-0f2a-4c8b-a989-289c5f04dd75"},"vehicle_type_id":"4","last_reported":1753287300,"current_range_meters":16400,"station_id":"ce4bgt12rcd13ifvqce0","pricing_plan_id":"cebpf4jnsgd1na2vs0mg"},{"bike_id":"c7a253c5-ca69-4ff0-ba87-e978142f864d","system_id":"levelo_inurba_marseille","lat":43.26213,"lon":5.37438,"is_reserved":false,"is_disabled":false,"rental_uris":{"android":"levelo://app?vid=c7a253c5-ca69-4ff0-ba87-e978142f864d","ios":"levelo://app?vid=c7a253c5-ca69-4ff0-ba87-e978142f864d"},"vehicle_type_id":"4","last_reported":1753287300,"current_range_meters":17200,"station_id":"ce4bhgp2rcd13ifvqfc0","pricing_plan_id":"cebpf4jnsgd1na2vs0mg"},{"bike_id":"5ac85406-65d0-4336-aa89-4b04b2e6689e","system_id":"levelo_inurba_marseille","lat":43.33285,"lon":5.4198,"is_reserved":false,"is_disabled":false,"rental_uris":{"android":"levelo://app?vid=5ac85406-65d0-4336-aa89-4b04b2e6689e","ios":"levelo://app?vid=5ac85406-65d0-4336-aa89-4b04b2e6689e"},"vehicle_type_id":"4","last_reported":1753287300,"current_range_meters":17200,"station_id":"","pricing_plan_id":"cebpf4jnsgd1na2vs0mg"},{"bike_id":"c056311f-78c9-4e18-8685-91c659ddb125","system_id":"levelo_inurba_marseille","lat":43.31632,"lon":5.39006,"is_reserved":false,"is_disabled":false,"rental_uris":{"android":"levelo://app?vid=c056311f-78c9-4e18-8685-91c659ddb125","ios":"levelo://app?vid=c056311f-78c9-4e18-8685-91c659ddb125"},"vehicle_type_id":"4","last_reported":1753287300,"current_range_meters":17200,"station_id":"","pricing_plan_id":"cebpf4jnsgd1na2vs0mg"},{"bike_id":"70737bad-8214-4681-8a7d-fa98042cf105","system_id":"levelo_inurba_marseille","lat":43.290459,"lon":5.399959,"is_reserved":false,"is_disabled":false,"rental_uris":{"android":"levelo://app?vid=70737bad-8214-4681-8a7d-fa98042cf105","ios":"levelo://app?vid=70737bad-8214-4681-8a7d-fa98042cf105"},"vehicle_type_id":"4","last_reported":1753287300,"current_range_meters":17200,"station_id":"","pricing_plan_id":"cebpf4jnsgd1na2vs0mg"},{"bike_id":"ae131367-d818-44a0-9e1d-4aa65dcdb16a","system_id":"levelo_inurba_marseille","lat":43.2754,"lon":5.39665,"is_reserved":false,"is_disabled":false,"rental_uris":{"android":"levelo://app?vid=ae131367-d818-44a0-9e1d-4aa65dcdb16a","ios":"levelo://app?vid=ae131367-d818-44a0-9e1d-4aa65dcdb16a"},"vehicle_type_id":"4","last_reported":1753287300,"current_range_meters":17200,"station_id":"","pricing_plan_id":"cebpf4jnsgd1na2vs0mg"},{"bike_id":"eabf8af7-0ba6-4ed7-9dc1-8770e1d0db11","system_id":"levelo_inurba_marseille","lat":43.305287,"lon":5.367015,"is_reserved":false,"is_disabled":false,"rental_uris":{"android":"levelo://app?vid=eabf8af7-0ba6-4ed7-9dc1-8770e1d0db11","ios":"levelo://app?vid=eabf8af7-0ba6-4ed7-9dc1-8770e1d0db11"},"vehicle_type_id":"4","last_reported":1753287300,"current_range_meters":17200,"station_id":"ce4bgrp2rcd13ifvqc9g","pricing_plan_id":"cebpf4jnsgd1na2vs0mg"},{"bike_id":"b6b8c031-0609-4230-b642-25bc0ff457a7","system_id":"levelo_inurba_marseille","lat":43.2655,"lon":5.37284,"is_reserved":false,"is_disabled":false,"rental_uris":{"android":"levelo://app?vid=b6b8c031-0609-4230-b642-25bc0ff457a7","ios":"levelo://app?vid=b6b8c031-0609-4230-b642-25bc0ff457a7"},"vehicle_type_id":"4","last_reported":1753287300,"current_range_meters":17200,"station_id":"ce4bhg12rcd13ifvqf70","pricing_plan_id":"cebpf4jnsgd1na2vs0mg"},{"bike_id":"5e2c60d5-dcd1-4112-8f9d-8e41995c0628","system_id":"levelo_inurba_marseille","lat":43.29534,"lon":5.38546,"is_reserved":false,"is_disabled":false,"rental_uris":{"android":"levelo://app?vid=5e2c60d5-dcd1-4112-8f9d-8e41995c0628","ios":"levelo://app?vid=5e2c60d5-dcd1-4112-8f9d-8e41995c0628"},"vehicle_type_id":"4","last_reported":1753287300,"current_range_meters":17200,"station_id":"ce4bgih2rcd13ifvqba0","pricing_plan_id":"cebpf4jnsgd1na2vs0mg"},{"bike_id":"34dbc56b-d75f-4a6b-8779-c255e35783da","system_id":"levelo_inurba_marseille","lat":43.29255,"lon":5.40917,"is_reserved":false,"is_disabled":false,"rental_uris":{"android":"levelo://app?vid=34dbc56b-d75f-4a6b-8779-c255e35783da","ios":"levelo://app?vid=34dbc56b-d75f-4a6b-8779-c255e35783da"},"vehicle_type_id":"4","last_reported":1753287300,"current_range_meters":17200,"station_id":"ce4bh192rcd13ifvqdc0","pricing_plan_id":"cebpf4jnsgd1na2vs0mg"},{"bike_id":"54943e91-61ee-496b-9667-a7c6c3a25bb5","system_id":"levelo_inurba_marseille","lat":43.26232,"lon":5.37449,"is_reserved":false,"is_disabled":false,"rental_uris":{"android":"levelo://app?vid=54943e91-61ee-496b-9667-a7c6c3a25bb5","ios":"levelo://app?vid=54943e91-61ee-496b-9667-a7c6c3a25bb5"},"vehicle_type_id":"4","last_reported":1753287300,"current_range_meters":17200,"station_id":"ce4bhgp2rcd13ifvqfc0","pricing_plan_id":"cebpf4jnsgd1na2vs0mg"},{"bike_id":"d5bb2edd-40b9-4d77-a1e8-a8717f6959b2","system_id":"levelo_inurba_marseille","lat":43.29622,"lon":5.37705,"is_reserved":false,"is_disabled":false,"rental_uris":{"android":"levelo://app?vid=d5bb2edd-40b9-4d77-a1e8-a8717f6959b2","ios":"levelo://app?vid=d5bb2edd-40b9-4d77-a1e8-a8717f6959b2"},"vehicle_type_id":"4","last_reported":1753287300,"current_range_meters":17600,"station_id":"ce4bgi92rcd13ifvqb90","pricing_plan_id":"cebpf4jnsgd1na2vs0mg"},{"bike_id":"15d2f02a-ccf4-4204-94d7-d78c15aaed1b","system_id":"levelo_inurba_marseille","lat":43.29583,"lon":5.36741,"is_reserved":false,"is_disabled":false,"rental_uris":{"android":"levelo://app?vid=15d2f02a-ccf4-4204-94d7-d78c15aaed1b","ios":"levelo://app?vid=15d2f02a-ccf4-4204-94d7-d78c15aaed1b"},"vehicle_type_id":"4","last_reported":1753287300,"current_range_meters":17600,"station_id":"ce4bgph2rcd13ifvqc2g","pricing_plan_id":"cebpf4jnsgd1na2vs0mg"},{"bike_id":"d30f66f5-9995-4a0a-832b-41fe2c74d0c0","system_id":"levelo_inurba_marseille","lat":43.22507,"lon":5.34782,"is_reserved":false,"is_disabled":false,"rental_uris":{"android":"levelo://app?vid=d30f66f5-9995-4a0a-832b-41fe2c74d0c0","ios":"levelo://app?vid=d30f66f5-9995-4a0a-832b-41fe2c74d0c0"},"vehicle_type_id":"4","last_reported":1753287300,"current_range_meters":17600,"station_id":"st_cvj5dfep6f1abm77gieg","pricing_plan_id":"cebpf4jnsgd1na2vs0mg"},{"bike_id":"4ef94968-d425-463e-9a0c-d59966f02049","system_id":"levelo_inurba_marseille","lat":43.29011,"lon":5.3561,"is_reserved":false,"is_disabled":false,"rental_uris":{"android":"levelo://app?vid=4ef94968-d425-463e-9a0c-d59966f02049","ios":"levelo://app?vid=4ef94968-d425-463e-9a0c-d59966f02049"},"vehicle_type_id":"4","last_reported":1753287300,"current_range_meters":17600,"station_id":"ce4bhb92rcd13ifvqen0","pricing_plan_id":"cebpf4jnsgd1na2vs0mg"},{"bike_id":"1699da3b-157a-4d07-ba4d-8fe9df7d93c7","system_id":"levelo_inurba_marseille","lat":43.30375,"lon":5.41931,"is_reserved":false,"is_disabled":false,"rental_uris":{"android":"levelo://app?vid=1699da3b-157a-4d07-ba4d-8fe9df7d93c7","ios":"levelo://app?vid=1699da3b-157a-4d07-ba4d-8fe9df7d93c7"},"vehicle_type_id":"4","last_reported":1753287300,"current_range_meters":17600,"station_id":"","pricing_plan_id":"cebpf4jnsgd1na2vs0mg"},{"bike_id":"88ba686c-e916-48b4-a187-3089cccb5922","system_id":"levelo_inurba_marseille","lat":43.314898,"lon":5.372968,"is_reserved":false,"is_disabled":false,"rental_uris":{"android":"levelo://app?vid=88ba686c-e916-48b4-a187-3089cccb5922","ios":"levelo://app?vid=88ba686c-e916-48b4-a187-3089cccb5922"},"vehicle_type_id":"4","last_reported":1753287300,"current_range_meters":17600,"station_id":"ce4bgt12rcd13ifvqcd0","pricing_plan_id":"cebpf4jnsgd1na2vs0mg"},{"bike_id":"3798d6d5-52c1-46ce-9038-ab48f5a2eee7","system_id":"levelo_inurba_marseille","lat":43.31073,"lon":5.38353,"is_reserved":false,"is_disabled":false,"rental_uris":{"android":"levelo://app?vid=3798d6d5-52c1-46ce-9038-ab48f5a2eee7","ios":"levelo://app?vid=3798d6d5-52c1-46ce-9038-ab48f5a2eee7"},"vehicle_type_id":"4","last_reported":1753287300,"current_range_meters":17600,"station_id":"ce4bgv92rcd13ifvqcr0","pricing_plan_id":"cebpf4jnsgd1na2vs0mg"},{"bike_id":"18b86593-4f21-41ed-81b3-f3a5b378dc91","system_id":"levelo_inurba_marseille","lat":43.312339,"lon":5.381309,"is_reserved":false,"is_disabled":false,"rental_uris":{"android":"levelo://app?vid=18b86593-4f21-41ed-81b3-f3a5b378dc91","ios":"levelo://app?vid=18b86593-4f21-41ed-81b3-f3a5b378dc91"},"vehicle_type_id":"4","last_reported":1753287300,"current_range_meters":17600,"station_id":"","pricing_plan_id":"cebpf4jnsgd1na2vs0mg"},{"bike_id":"b52e74cd-ff69-4417-b50e-80e0e49ad997","system_id":"levelo_inurba_marseille","lat":43.22514,"lon":5.34772,"is_reserved":false,"is_disabled":false,"rental_uris":{"android":"levelo://app?vid=b52e74cd-ff69-4417-b50e-80e0e49ad997","ios":"levelo://app?vid=b52e74cd-ff69-4417-b50e-80e0e49ad997"},"vehicle_type_id":"4","last_reported":1753287300,"current_range_meters":17600,"station_id":"st_cvj5dfep6f1abm77gieg","pricing_plan_id":"cebpf4jnsgd1na2vs0mg"},{"bike_id":"6a79a396-2f47-4b1c-9dce-b0d5464f72e4","system_id":"levelo_inurba_marseille","lat":43.22935,"lon":5.35374,"is_reserved":false,"is_disabled":false,"rental_uris":{"android":"levelo://app?vid=6a79a396-2f47-4b1c-9dce-b0d5464f72e4","ios":"levelo://app?vid=6a79a396-2f47-4b1c-9dce-b0d5464f72e4"},"vehicle_type_id":"4","last_reported":1753287300,"current_range_meters":17600,"station_id":"cpo3532slgdg3j2ikp40","pricing_plan_id":"cebpf4jnsgd1na2vs0mg"},{"bike_id":"d33a195d-1aba-4725-a7a9-74d21f9597a0","system_id":"levelo_inurba_marseille","lat":43.26225,"lon":5.37435,"is_reserved":false,"is_disabled":false,"rental_uris":{"android":"levelo://app?vid=d33a195d-1aba-4725-a7a9-74d21f9597a0","ios":"levelo://app?vid=d33a195d-1aba-4725-a7a9-74d21f9597a0"},"vehicle_type_id":"4","last_reported":1753287300,"current_range_meters":18000,"station_id":"ce4bhgp2rcd13ifvqfc0","pricing_plan_id":"cebpf4jnsgd1na2vs0mg"},{"bike_id":"61cb5b9a-9cee-4d3f-8bba-365148ee2e42","system_id":"levelo_inurba_marseille","lat":43.259,"lon":5.399,"is_reserved":false,"is_disabled":false,"rental_uris":{"android":"levelo://app?vid=61cb5b9a-9cee-4d3f-8bba-365148ee2e42","ios":"levelo://app?vid=61cb5b9a-9cee-4d3f-8bba-365148ee2e42"},"vehicle_type_id":"4","last_reported":1753287300,"current_range_meters":18000,"station_id":"ce4bhl92rcd13ifvqghg","pricing_plan_id":"cebpf4jnsgd1na2vs0mg"},{"bike_id":"9a1f0d4e-6e70-4e90-8fac-0fa890fd3c58","system_id":"levelo_inurba_marseille","lat":43.27949,"lon":5.41036,"is_reserved":false,"is_disabled":false,"rental_uris":{"android":"levelo://app?vid=9a1f0d4e-6e70-4e90-8fac-0fa890fd3c58","ios":"levelo://app?vid=9a1f0d4e-6e70-4e90-8fac-0fa890fd3c58"},"vehicle_type_id":"4","last_reported":1753287300,"current_range_meters":18000,"station_id":"ce4bhnp2rcd13ifvqh0g","pricing_plan_id":"cebpf4jnsgd1na2vs0mg"},{"bike_id":"750d370d-abb4-47b3-b4f7-7ef76b03801f","system_id":"levelo_inurba_marseille","lat":43.29754,"lon":5.37871,"is_reserved":false,"is_disabled":false,"rental_uris":{"android":"levelo://app?vid=750d370d-abb4-47b3-b4f7-7ef76b03801f","ios":"levelo://app?vid=750d370d-abb4-47b3-b4f7-7ef76b03801f"},"vehicle_type_id":"4","last_reported":1753287300,"current_range_meters":18000,"station_id":"","pricing_plan_id":"cebpf4jnsgd1na2vs0mg"},{"bike_id":"6a903974-5f4f-446c-8003-095348e0cda0","system_id":"levelo_inurba_marseille","lat":43.25868,"lon":5.39896,"is_reserved":false,"is_disabled":false,"rental_uris":{"android":"levelo://app?vid=6a903974-5f4f-446c-8003-095348e0cda0","ios":"levelo://app?vid=6a903974-5f4f-446c-8003-095348e0cda0"},"vehicle_type_id":"4","last_reported":1753287300,"current_range_meters":18000,"station_id":"ce4bhl92rcd13ifvqghg","pricing_plan_id":"cebpf4jnsgd1na2vs0mg"},{"bike_id":"a5c474fd-2247-4651-8125-cd6e486d34d9","system_id":"levelo_inurba_marseille","lat":43.32149,"lon":5.38439,"is_reserved":false,"is_disabled":false,"rental_uris":{"android":"levelo://app?vid=a5c474fd-2247-4651-8125-cd6e486d34d9","ios":"levelo://app?vid=a5c474fd-2247-4651-8125-cd6e486d34d9"},"vehicle_type_id":"4","last_reported":1753287300,"current_range_meters":18000,"station_id":"","pricing_plan_id":"cebpf4jnsgd1na2vs0mg"},{"bike_id":"663e3869-13e1-4b8d-8d66-911d619296cd","system_id":"levelo_inurba_marseille","lat":43.2622,"lon":5.37432,"is_reserved":false,"is_disabled":false,"rental_uris":{"android":"levelo://app?vid=663e3869-13e1-4b8d-8d66-911d619296cd","ios":"levelo://app?vid=663e3869-13e1-4b8d-8d66-911d619296cd"},"vehicle_type_id":"4","last_reported":1753287300,"current_range_meters":18000,"station_id":"ce4bhgp2rcd13ifvqfc0","pricing_plan_id":"cebpf4jnsgd1na2vs0mg"},{"bike_id":"f0f73c71-7331-4628-b623-754b73a8546a","system_id":"levelo_inurba_marseille","lat":43.30144,"lon":5.39867,"is_reserved":false,"is_disabled":true,"rental_uris":{"android":"levelo://app?vid=f0f73c71-7331-4628-b623-754b73a8546a","ios":"levelo://app?vid=f0f73c71-7331-4628-b623-754b73a8546a"},"vehicle_type_id":"4","last_reported":1753287300,"current_range_meters":18000,"station_id":"ce4bh0h2rcd13ifvqd40","pricing_plan_id":"cebpf4jnsgd1na2vs0mg"},{"bike_id":"76c65f84-3b49-4269-890c-8259fe6ade74","system_id":"levelo_inurba_marseille","lat":43.32382,"lon":5.36777,"is_reserved":false,"is_disabled":false,"rental_uris":{"android":"levelo://app?vid=76c65f84-3b49-4269-890c-8259fe6ade74","ios":"levelo://app?vid=76c65f84-3b49-4269-890c-8259fe6ade74"},"vehicle_type_id":"4","last_reported":1753287300,"current_range_meters":18000,"station_id":"ce4bhsh2rcd13ifvqi2g","pricing_plan_id":"cebpf4jnsgd1na2vs0mg"},{"bike_id":"ba1fdaeb-f713-4a97-852d-7ed6e7385b60","system_id":"levelo_inurba_marseille","lat":43.23972,"lon":5.36626,"is_reserved":false,"is_disabled":false,"rental_uris":{"android":"levelo://app?vid=ba1fdaeb-f713-4a97-852d-7ed6e7385b60","ios":"levelo://app?vid=ba1fdaeb-f713-4a97-852d-7ed6e7385b60"},"vehicle_type_id":"4","last_reported":1753287300,"current_range_meters":17600,"station_id":"ce4bhi12rcd13ifvqfp0","pricing_plan_id":"cebpf4jnsgd1na2vs0mg"},{"bike_id":"1ad257b5-7f83-42c1-867f-92635ff1abbf","system_id":"levelo_inurba_marseille","lat":43.22962,"lon":5.35399,"is_reserved":false,"is_disabled":false,"rental_uris":{"android":"levelo://app?vid=1ad257b5-7f83-42c1-867f-92635ff1abbf","ios":"levelo://app?vid=1ad257b5-7f83-42c1-867f-92635ff1abbf"},"vehicle_type_id":"4","last_reported":1753287300,"current_range_meters":18000,"station_id":"cpo3532slgdg3j2ikp40","pricing_plan_id":"cebpf4jnsgd1na2vs0mg"},{"bike_id":"b1611388-74da-4bd8-aa35-2fd1ff7cb76e","system_id":"levelo_inurba_marseille","lat":43.27071,"lon":5.42279,"is_reserved":false,"is_disabled":false,"rental_uris":{"android":"levelo://app?vid=b1611388-74da-4bd8-aa35-2fd1ff7cb76e","ios":"levelo://app?vid=b1611388-74da-4bd8-aa35-2fd1ff7cb76e"},"vehicle_type_id":"4","last_reported":1753287300,"current_range_meters":18800,"station_id":"ce4bhk92rcd13ifvqgb0","pricing_plan_id":"cebpf4jnsgd1na2vs0mg"},{"bike_id":"613cea6d-10cb-4676-be52-171d7625baf6","system_id":"levelo_inurba_marseille","lat":43.29538,"lon":5.3941,"is_reserved":false,"is_disabled":false,"rental_uris":{"android":"levelo://app?vid=613cea6d-10cb-4676-be52-171d7625baf6","ios":"levelo://app?vid=613cea6d-10cb-4676-be52-171d7625baf6"},"vehicle_type_id":"4","last_reported":1753287300,"current_range_meters":18800,"station_id":"ce4bh292rcd13ifvqdf0","pricing_plan_id":"cebpf4jnsgd1na2vs0mg"},{"bike_id":"dfd81880-ec86-43d6-80d8-5f6ce3357cb5","system_id":"levelo_inurba_marseille","lat":43.298798,"lon":5.397324,"is_reserved":false,"is_disabled":false,"rental_uris":{"android":"levelo://app?vid=dfd81880-ec86-43d6-80d8-5f6ce3357cb5","ios":"levelo://app?vid=dfd81880-ec86-43d6-80d8-5f6ce3357cb5"},"vehicle_type_id":"4","last_reported":1753287300,"current_range_meters":18800,"station_id":"ce4bh0h2rcd13ifvqd50","pricing_plan_id":"cebpf4jnsgd1na2vs0mg"},{"bike_id":"aacd237f-7cc2-4023-acdd-438bc68d14fa","system_id":"levelo_inurba_marseille","lat":43.28429,"lon":5.37496,"is_reserved":false,"is_disabled":false,"rental_uris":{"android":"levelo://app?vid=aacd237f-7cc2-4023-acdd-438bc68d14fa","ios":"levelo://app?vid=aacd237f-7cc2-4023-acdd-438bc68d14fa"},"vehicle_type_id":"4","last_reported":1753287300,"current_range_meters":18800,"station_id":"ce4bh412rcd13ifvqds0","pricing_plan_id":"cebpf4jnsgd1na2vs0mg"},{"bike_id":"dbb38c25-646f-448c-90d4-073c058b0dc6","system_id":"levelo_inurba_marseille","lat":43.31281,"lon":5.40165,"is_reserved":false,"is_disabled":false,"rental_uris":{"android":"levelo://app?vid=dbb38c25-646f-448c-90d4-073c058b0dc6","ios":"levelo://app?vid=dbb38c25-646f-448c-90d4-073c058b0dc6"},"vehicle_type_id":"4","last_reported":1753287300,"current_range_meters":18800,"station_id":"ce4bh092rcd13ifvqd30","pricing_plan_id":"cebpf4jnsgd1na2vs0mg"},{"bike_id":"cb6e42a8-e13c-4257-b6e6-cd07bacb2735","system_id":"levelo_inurba_marseille","lat":43.24659,"lon":5.38158,"is_reserved":false,"is_disabled":false,"rental_uris":{"android":"levelo://app?vid=cb6e42a8-e13c-4257-b6e6-cd07bacb2735","ios":"levelo://app?vid=cb6e42a8-e13c-4257-b6e6-cd07bacb2735"},"vehicle_type_id":"4","last_reported":1753287300,"current_range_meters":18800,"station_id":"ce4bhih2rcd13ifvqfr0","pricing_plan_id":"cebpf4jnsgd1na2vs0mg"},{"bike_id":"2dab6fb2-3815-49dc-8081-6b26bf95093d","system_id":"levelo_inurba_marseille","lat":43.295703,"lon":5.399757,"is_reserved":false,"is_disabled":false,"rental_uris":{"android":"levelo://app?vid=2dab6fb2-3815-49dc-8081-6b26bf95093d","ios":"levelo://app?vid=2dab6fb2-3815-49dc-8081-6b26bf95093d"},"vehicle_type_id":"4","last_reported":1753287300,"current_range_meters":18800,"station_id":"ce4bh312rcd13ifvqdj0","pricing_plan_id":"cebpf4jnsgd1na2vs0mg"},{"bike_id":"35a86048-76dd-4de0-afb2-7da8772fad44","system_id":"levelo_inurba_marseille","lat":43.215312,"lon":5.347313,"is_reserved":false,"is_disabled":false,"rental_uris":{"android":"levelo://app?vid=35a86048-76dd-4de0-afb2-7da8772fad44","ios":"levelo://app?vid=35a86048-76dd-4de0-afb2-7da8772fad44"},"vehicle_type_id":"4","last_reported":1753287300,"current_range_meters":18800,"station_id":"","pricing_plan_id":"cebpf4jnsgd1na2vs0mg"},{"bike_id":"154842fb-66cb-4d03-b336-ad8705751d21","system_id":"levelo_inurba_marseille","lat":43.27955,"lon":5.41037,"is_reserved":false,"is_disabled":false,"rental_uris":{"android":"levelo://app?vid=154842fb-66cb-4d03-b336-ad8705751d21","ios":"levelo://app?vid=154842fb-66cb-4d03-b336-ad8705751d21"},"vehicle_type_id":"4","last_reported":1753287300,"current_range_meters":18800,"station_id":"ce4bhnp2rcd13ifvqh0g","pricing_plan_id":"cebpf4jnsgd1na2vs0mg"},{"bike_id":"8ddbed69-2bde-4e62-ad1b-76c7a930615c","system_id":"levelo_inurba_marseille","lat":43.31708,"lon":5.43705,"is_reserved":false,"is_disabled":false,"rental_uris":{"android":"levelo://app?vid=8ddbed69-2bde-4e62-ad1b-76c7a930615c","ios":"levelo://app?vid=8ddbed69-2bde-4e62-ad1b-76c7a930615c"},"vehicle_type_id":"4","last_reported":1753287300,"current_range_meters":18800,"station_id":"ce4bhp92rcd13ifvqhcg","pricing_plan_id":"cebpf4jnsgd1na2vs0mg"},{"bike_id":"1ccc4675-4b3d-408f-8846-21b4d6083fa6","system_id":"levelo_inurba_marseille","lat":43.30601,"lon":5.37231,"is_reserved":false,"is_disabled":false,"rental_uris":{"android":"levelo://app?vid=1ccc4675-4b3d-408f-8846-21b4d6083fa6","ios":"levelo://app?vid=1ccc4675-4b3d-408f-8846-21b4d6083fa6"},"vehicle_type_id":"4","last_reported":1753287300,"current_range_meters":18800,"station_id":"ce4bgqh2rcd13ifvqc4g","pricing_plan_id":"cebpf4jnsgd1na2vs0mg"},{"bike_id":"419e4f16-0f9e-4355-8e20-211c1c752a70","system_id":"levelo_inurba_marseille","lat":43.28361,"lon":5.38097,"is_reserved":false,"is_disabled":false,"rental_uris":{"android":"levelo://app?vid=419e4f16-0f9e-4355-8e20-211c1c752a70","ios":"levelo://app?vid=419e4f16-0f9e-4355-8e20-211c1c752a70"},"vehicle_type_id":"4","last_reported":1753287300,"current_range_meters":19200,"station_id":"ce4bh412rcd13ifvqdr0","pricing_plan_id":"cebpf4jnsgd1na2vs0mg"},{"bike_id":"ba729fd0-5751-4d64-8c58-fc614078847e","system_id":"levelo_inurba_marseille","lat":43.29715,"lon":5.36604,"is_reserved":false,"is_disabled":false,"rental_uris":{"android":"levelo://app?vid=ba729fd0-5751-4d64-8c58-fc614078847e","ios":"levelo://app?vid=ba729fd0-5751-4d64-8c58-fc614078847e"},"vehicle_type_id":"4","last_reported":1753287300,"current_range_meters":19200,"station_id":"ce4bgn12rcd13ifvqbt0","pricing_plan_id":"cebpf4jnsgd1na2vs0mg"},{"bike_id":"e2a58165-f02e-4d71-8aef-68d886432e28","system_id":"levelo_inurba_marseille","lat":43.3065,"lon":5.40074,"is_reserved":false,"is_disabled":false,"rental_uris":{"android":"levelo://app?vid=e2a58165-f02e-4d71-8aef-68d886432e28","ios":"levelo://app?vid=e2a58165-f02e-4d71-8aef-68d886432e28"},"vehicle_type_id":"4","last_reported":1753287300,"current_range_meters":19200,"station_id":"ce4bh112rcd13ifvqda0","pricing_plan_id":"cebpf4jnsgd1na2vs0mg"},{"bike_id":"36934cf4-a976-489b-8f3e-dd0ab036ca3e","system_id":"levelo_inurba_marseille","lat":43.2558,"lon":5.3824,"is_reserved":false,"is_disabled":false,"rental_uris":{"android":"levelo://app?vid=36934cf4-a976-489b-8f3e-dd0ab036ca3e","ios":"levelo://app?vid=36934cf4-a976-489b-8f3e-dd0ab036ca3e"},"vehicle_type_id":"4","last_reported":1753287300,"current_range_meters":19200,"station_id":"ce4bhih2rcd13ifvqfs0","pricing_plan_id":"cebpf4jnsgd1na2vs0mg"},{"bike_id":"730d1fa2-be07-47c7-b984-18d5e85417fc","system_id":"levelo_inurba_marseille","lat":43.27622,"lon":5.36109,"is_reserved":false,"is_disabled":false,"rental_uris":{"android":"levelo://app?vid=730d1fa2-be07-47c7-b984-18d5e85417fc","ios":"levelo://app?vid=730d1fa2-be07-47c7-b984-18d5e85417fc"},"vehicle_type_id":"4","last_reported":1753287300,"current_range_meters":19200,"station_id":"ce4bgj92rcd13ifvqbe0","pricing_plan_id":"cebpf4jnsgd1na2vs0mg"},{"bike_id":"5f824980-27aa-4ef2-856d-b766bebead8a","system_id":"levelo_inurba_marseille","lat":43.22501,"lon":5.34784,"is_reserved":false,"is_disabled":false,"rental_uris":{"android":"levelo://app?vid=5f824980-27aa-4ef2-856d-b766bebead8a","ios":"levelo://app?vid=5f824980-27aa-4ef2-856d-b766bebead8a"},"vehicle_type_id":"4","last_reported":1753287300,"current_range_meters":19200,"station_id":"st_cvj5dfep6f1abm77gieg","pricing_plan_id":"cebpf4jnsgd1na2vs0mg"},{"bike_id":"bc4eccde-4b00-49da-8915-a2f6772f9c39","system_id":"levelo_inurba_marseille","lat":43.28631,"lon":5.35099,"is_reserved":false,"is_disabled":false,"rental_uris":{"android":"levelo://app?vid=bc4eccde-4b00-49da-8915-a2f6772f9c39","ios":"levelo://app?vid=bc4eccde-4b00-49da-8915-a2f6772f9c39"},"vehicle_type_id":"4","last_reported":1753287300,"current_range_meters":19200,"station_id":"ce4bhch2rcd13ifvqeug","pricing_plan_id":"cebpf4jnsgd1na2vs0mg"},{"bike_id":"f7f07796-c7c9-4a74-80e9-fb85744448b8","system_id":"levelo_inurba_marseille","lat":43.22941,"lon":5.35402,"is_reserved":false,"is_disabled":false,"rental_uris":{"android":"levelo://app?vid=f7f07796-c7c9-4a74-80e9-fb85744448b8","ios":"levelo://app?vid=f7f07796-c7c9-4a74-80e9-fb85744448b8"},"vehicle_type_id":"4","last_reported":1753287300,"current_range_meters":19200,"station_id":"cpo3532slgdg3j2ikp40","pricing_plan_id":"cebpf4jnsgd1na2vs0mg"},{"bike_id":"aba546f3-1dc5-4536-b180-fe1d67d17b53","system_id":"levelo_inurba_marseille","lat":43.29708,"lon":5.37699,"is_reserved":false,"is_disabled":false,"rental_uris":{"android":"levelo://app?vid=aba546f3-1dc5-4536-b180-fe1d67d17b53","ios":"levelo://app?vid=aba546f3-1dc5-4536-b180-fe1d67d17b53"},"vehicle_type_id":"4","last_reported":1753287300,"current_range_meters":19200,"station_id":"ce4bgkh2rcd13ifvqbl0","pricing_plan_id":"cebpf4jnsgd1na2vs0mg"},{"bike_id":"255cdaa4-e97d-4238-b5b8-64ec55bd0973","system_id":"levelo_inurba_marseille","lat":43.28615,"lon":5.35102,"is_reserved":false,"is_disabled":false,"rental_uris":{"android":"levelo://app?vid=255cdaa4-e97d-4238-b5b8-64ec55bd0973","ios":"levelo://app?vid=255cdaa4-e97d-4238-b5b8-64ec55bd0973"},"vehicle_type_id":"4","last_reported":1753287300,"current_range_meters":19200,"station_id":"ce4bhch2rcd13ifvqeug","pricing_plan_id":"cebpf4jnsgd1na2vs0mg"},{"bike_id":"15d367de-17b0-4dc7-a6ae-9f74942a498e","system_id":"levelo_inurba_marseille","lat":43.30625,"lon":5.37246,"is_reserved":false,"is_disabled":false,"rental_uris":{"android":"levelo://app?vid=15d367de-17b0-4dc7-a6ae-9f74942a498e","ios":"levelo://app?vid=15d367de-17b0-4dc7-a6ae-9f74942a498e"},"vehicle_type_id":"4","last_reported":1753287300,"current_range_meters":19200,"station_id":"ce4bgqh2rcd13ifvqc4g","pricing_plan_id":"cebpf4jnsgd1na2vs0mg"},{"bike_id":"ace7e9f2-d583-4157-aafd-35aba7652150","system_id":"levelo_inurba_marseille","lat":43.284185,"lon":5.349871,"is_reserved":false,"is_disabled":false,"rental_uris":{"android":"levelo://app?vid=ace7e9f2-d583-4157-aafd-35aba7652150","ios":"levelo://app?vid=ace7e9f2-d583-4157-aafd-35aba7652150"},"vehicle_type_id":"4","last_reported":1753287300,"current_range_meters":19200,"station_id":"ce4bhbh2rcd13ifvqepg","pricing_plan_id":"cebpf4jnsgd1na2vs0mg"},{"bike_id":"f17f5c6b-4111-48b9-8d89-340566d4801b","system_id":"levelo_inurba_marseille","lat":43.30602,"lon":5.37201,"is_reserved":false,"is_disabled":false,"rental_uris":{"android":"levelo://app?vid=f17f5c6b-4111-48b9-8d89-340566d4801b","ios":"levelo://app?vid=f17f5c6b-4111-48b9-8d89-340566d4801b"},"vehicle_type_id":"4","last_reported":1753287300,"current_range_meters":19200,"station_id":"ce4bgqh2rcd13ifvqc4g","pricing_plan_id":"cebpf4jnsgd1na2vs0mg"},