{"last_updated":1678464623,"ttl":30,"version":"2.2","data":{"bikes":[{"bike_id":"0ac6ec0f-dee4-4f3d-b6ae-1d0264fbae3c","system_id":"levelo_inurba_marseille","lat":43.31227,"lon":5.36849,"is_reserved":false,"is_disabled":false,"rental_uris":{"android":"levelo://app?vid=0ac6ec0f-dee4-4f3d-b6ae-1d0264fbae3c","ios":"levelo://app?vid=0ac6ec0f-dee4-4f3d-b6ae-1d0264fbae3c"},"vehicle_type_id":"4","last_reported":1678464629,"current_range_meters":400,"station_id":"","pricing_plan_id":"free"},{"bike_id":"a96af551-a532-4953-8478-448d786c1b3b","system_id":"levelo_inurba_marseille","lat":43.314811,"lon":5.373103,"is_reserved":false,"is_disabled":false,"rental_uris":{"android":"levelo://app?vid=a96af551-a532-4953-8478-448d786c1b3b","ios":"levelo://app?vid=a96af551-a532-4953-8478-448d786c1b3b"},"vehicle_type_id":"4","last_reported":1678464629,"current_range_meters":17200,"station_id":"ce4bgt12rcd13ifvqcd0","pricing_plan_id":"free"},{"bike_id":"c8491762-5afe-41a1-8284-4f0ae470bb17","system_id":"levelo_inurba_marseille","lat":43.314811,"lon":5.373103,"is_reserved":false,"is_disabled":false,"rental_uris":{"android":"levelo://app?vid=c8491762-5afe-41a1-8284-4f0ae470bb17","ios":"levelo://app?vid=c8491762-5afe-41a1-8284-4f0ae470bb17"},"vehicle_type_id":"4","last_reported":1678464629,"current_range_meters":13200,"station_id":"ce4bgt12rcd13ifvqcd0","pricing_plan_id":"free"},{"bike_id":"fc0f5e50-4220-4885-80cb-5a558b5a1dd8","system_id":"levelo_inurba_marseille","lat":43.31792,"lon":5.36817,"is_reserved":false,"is_disabled":false,"rental_uris":{"android":"levelo://app?vid=fc0f5e50-4220-4885-80cb-5a558b5a1dd8","ios":"levelo://app?vid=fc0f5e50-4220-4885-80cb-5a558b5a1dd8"},"vehicle_type_id":"4","last_reported":1678464629,"current_range_meters":18400,"station_id":"","pricing_plan_id":"free"},{"bike_id":"90c21c0e-8801-42f9-8b68-0811af638c9d","system_id":"levelo_inurba_marseille","lat":43.308614,"lon":5.372098,"is_reserved":false,"is_disabled":false,"rental_uris":{"android":"levelo://app?vid=90c21c0e-8801-42f9-8b68-0811af638c9d","ios":"levelo://app?vid=90c21c0e-8801-42f9-8b68-0811af638c9d"},"vehicle_type_id":"4","last_reported":1678464629,"current_range_meters":0,"station_id":"ce4bguh2rcd13ifvqckg","pricing_plan_id":"free"},{"bike_id":"14f35de2-e011-470f-a086-a273b398490a","system_id":"levelo_inurba_marseille","lat":43.30416,"lon":5.36864,"is_reserved":false,"is_disabled":false,"rental_uris":{"android":"levelo://app?vid=14f35de2-e011-470f-a086-a273b398490a","ios":"levelo://app?vid=14f35de2-e011-470f-a086-a273b398490a"},"vehicle_type_id":"4","last_reported":1678464629,"current_range_meters":23200,"station_id":"","pricing_plan_id":"free"},{"bike_id":"116c1f4e-2823-49b0-ad90-c6aacf757b6d","system_id":"levelo_inurba_marseille","lat":43.30342,"lon":5.37255,"is_reserved":false,"is_disabled":false,"rental_uris":{"android":"levelo://app?vid=116c1f4e-2823-49b0-ad90-c6aacf757b6d","ios":"levelo://app?vid=116c1f4e-2823-49b0-ad90-c6aacf757b6d"},"vehicle_type_id":"4","last_reported":1678464629,"current_range_meters":5200,"station_id":"","pricing_plan_id":"free"},{"bike_id":"afbb9399-a2d5-42e8-89a1-061c87d1570d","system_id":"levelo_inurba_marseille","lat":43.301963,"lon":5.366127,"is_reserved":false,"is_disabled":false,"rental_uris":{"android":"levelo://app?vid=afbb9399-a2d5-42e8-89a1-061c87d1570d","ios":"levelo://app?vid=afbb9399-a2d5-42e8-89a1-061c87d1570d"},"vehicle_type_id":"4","last_reported":1678464629,"current_range_meters":17200,"station_id":"ce4bgrh2rcd13ifvqc8g","pricing_plan_id":"free"},{"bike_id":"5ab6be86-1c75-48cd-9f9f-ecfc12255d60","system_id":"levelo_inurba_marseille","lat":43.308012,"lon":5.381511,"is_reserved":false,"is_disabled":false,"rental_uris":{"android":"levelo://app?vid=5ab6be86-1c75-48cd-9f9f-ecfc12255d60","ios":"levelo://app?vid=5ab6be86-1c75-48cd-9f9f-ecfc12255d60"},"vehicle_type_id":"4","last_reported":1678464629,"current_range_meters":0,"station_id":"ce4bgt12rcd13ifvqce0","pricing_plan_id":"free"},{"bike_id":"69ab0a7a-b09f-470d-85ff-2e5bca571b45","system_id":"levelo_inurba_marseille","lat":43.3047,"lon":5.37906,"is_reserved":false,"is_disabled":false,"rental_uris":{"android":"levelo://app?vid=69ab0a7a-b09f-470d-85ff-2e5bca571b45","ios":"levelo://app?vid=69ab0a7a-b09f-470d-85ff-2e5bca571b45"},"vehicle_type_id":"4","last_reported":1678464629,"current_range_meters":18400,"station_id":"","pricing_plan_id":"free"},{"bike_id":"f14f5f68-a05d-4690-a39d-ff9d76cef4e5","system_id":"levelo_inurba_marseille","lat":43.304606,"lon":5.379026,"is_reserved":false,"is_disabled":false,"rental_uris":{"android":"levelo://app?vid=f14f5f68-a05d-4690-a39d-ff9d76cef4e5","ios":"levelo://app?vid=f14f5f68-a05d-4690-a39d-ff9d76cef4e5"},"vehicle_type_id":"4","last_reported":1678464629,"current_range_meters":11200,"station_id":"ce4bgup2rcd13ifvqcn0","pricing_plan_id":"free"},{"bike_id":"a0e05e49-81fd-4d6b-baef-a2a11474934b","system_id":"levelo_inurba_marseille","lat":43.30143,"lon":5.37413,"is_reserved":false,"is_disabled":false,"rental_uris":{"android":"levelo://app?vid=a0e05e49-81fd-4d6b-baef-a2a11474934b","ios":"levelo://app?vid=a0e05e49-81fd-4d6b-baef-a2a11474934b"},"vehicle_type_id":"4","last_reported":1678464629,"current_range_meters":25200,"station_id":"ce4bgs92rcd13ifvqcc0","pricing_plan_id":"free"},{"bike_id":"23311f7a-1b46-4659-a53b-6a08e8a12fa8","system_id":"levelo_inurba_marseille","lat":43.30143,"lon":5.37413,"is_reserved":false,"is_disabled":false,"rental_uris":{"android":"levelo://app?vid=23311f7a-1b46-4659-a53b-6a08e8a12fa8","ios":"levelo://app?vid=23311f7a-1b46-4659-a53b-6a08e8a12fa8"},"vehicle_type_id":"4","last_reported":1678464629,"current_range_meters":26000,"station_id":"ce4bgs92rcd13ifvqcc0","pricing_plan_id":"free"},{"bike_id":"7a2081b9-c3f6-435a-a5a0-133943786c3e","system_id":"levelo_inurba_marseille","lat":43.30143,"lon":5.37413,"is_reserved":false,"is_disabled":false,"rental_uris":{"android":"levelo://app?vid=7a2081b9-c3f6-435a-a5a0-133943786c3e","ios":"levelo://app?vid=7a2081b9-c3f6-435a-a5a0-133943786c3e"},"vehicle_type_id":"4","last_reported":1678464629,"current_range_meters":0,"station_id":"ce4bgs92rcd13ifvqcc0","pricing_plan_id":"free"},{"bike_id":"0ba930dc-4271-401d-9b7e-189e9df89094","system_id":"levelo_inurba_marseille","lat":43.30143,"lon":5.37413,"is_reserved":false,"is_disabled":false,"rental_uris":{"android":"levelo://app?vid=0ba930dc-4271-401d-9b7e-189e9df89094","ios":"levelo://app?vid=0ba930dc-4271-401d-9b7e-189e9df89094"},"vehicle_type_id":"4","last_reported":1678464629,"current_range_meters":24800,"station_id":"ce4bgs92rcd13ifvqcc0","pricing_plan_id":"free"},{"bike_id":"2f5ba722-14db-498e-906a-52fe45d3c94c","system_id":"levelo_inurba_marseille","lat":43.30143,"lon":5.37413,"is_reserved":false,"is_disabled":false,"rental_uris":{"android":"levelo://app?vid=2f5ba722-14db-498e-906a-52fe45d3c94c","ios":"levelo://app?vid=2f5ba722-14db-498e-906a-52fe45d3c94c"},"vehicle_type_id":"4","last_reported":1678464629,"current_range_meters":11200,"station_id":"ce4bgs92rcd13ifvqcc0","pricing_plan_id":"free"},{"bike_id":"c2da9a29-d90b-47fd-b7f7-4bd2912c5e3c","system_id":"levelo_inurba_marseille","lat":43.30143,"lon":5.37413,"is_reserved":false,"is_disabled":false,"rental_uris":{"android":"levelo://app?vid=c2da9a29-d90b-47fd-b7f7-4bd2912c5e3c","ios":"levelo://app?vid=c2da9a29-d90b-47fd-b7f7-4bd2912c5e3c"},"vehicle_type_id":"4","last_reported":1678464629,"current_range_meters":12400,"station_id":"ce4bgs92rcd13ifvqcc0","pricing_plan_id":"free"},{"bike_id":"ca726f75-8b6b-483e-a183-e296fc658bd9","system_id":"levelo_inurba_marseille","lat":43.2985,"lon":5.3628,"is_reserved":false,"is_disabled":false,"rental_uris":{"android":"levelo://app?vid=ca726f75-8b6b-483e-a183-e296fc658bd9","ios":"levelo://app?vid=ca726f75-8b6b-483e-a183-e296fc658bd9"},"vehicle_type_id":"4","last_reported":1678464629,"current_range_meters":16800,"station_id":"","pricing_plan_id":"free"},{"bike_id":"25ee22e0-f081-44fd-89a4-ce0974b4fbc9","system_id":"levelo_inurba_marseille","lat":43.311722,"lon":5.387247,"is_reserved":false,"is_disabled":false,"rental_uris":{"android":"levelo://app?vid=25ee22e0-f081-44fd-89a4-ce0974b4fbc9","ios":"levelo://app?vid=25ee22e0-f081-44fd-89a4-ce0974b4fbc9"},"vehicle_type_id":"4","last_reported":1678464629,"current_range_meters":10400,"station_id":"ce4bgv12rcd13ifvqcp0","pricing_plan_id":"free"},{"bike_id":"94d567b4-0e34-43bf-aa06-43e70c5962c3","system_id":"levelo_inurba_marseille","lat":43.311722,"lon":5.387247,"is_reserved":false,"is_disabled":false,"rental_uris":{"android":"levelo://app?vid=94d567b4-0e34-43bf-aa06-43e70c5962c3","ios":"levelo://app?vid=94d567b4-0e34-43bf-aa06-43e70c5962c3"},"vehicle_type_id":"4","last_reported":1678464629,"current_range_meters":7600,"station_id":"ce4bgv12rcd13ifvqcp0","pricing_plan_id":"free"},{"bike_id":"7728a15b-dc8d-48f8-9b80-c356a814f315","system_id":"levelo_inurba_marseille","lat":43.3281,"lon":5.36683,"is_reserved":false,"is_disabled":false,"rental_uris":{"android":"levelo://app?vid=7728a15b-dc8d-48f8-9b80-c356a814f315","ios":"levelo://app?vid=7728a15b-dc8d-48f8-9b80-c356a814f315"},"vehicle_type_id":"4","last_reported":1678464629,"current_range_meters":20400,"station_id":"","pricing_plan_id":"free"},{"bike_id":"da8287f9-ab85-4b25-84bf-2f07d8c9f712","system_id":"levelo_inurba_marseille","lat":43.328258,"lon":5.366828,"is_reserved":false,"is_disabled":false,"rental_uris":{"android":"levelo://app?vid=da8287f9-ab85-4b25-84bf-2f07d8c9f712","ios":"levelo://app?vid=da8287f9-ab85-4b25-84bf-2f07d8c9f712"},"vehicle_type_id":"4","last_reported":1678464629,"current_range_meters":7600,"station_id":"ce4bhs92rcd13ifvqi0g","pricing_plan_id":"free"},{"bike_id":"f848e452-ba6e-42bb-9ddb-0155fa7b789c","system_id":"levelo_inurba_marseille","lat":43.328371,"lon":5.366909,"is_reserved":false,"is_disabled":false,"rental_uris":{"android":"levelo://app?vid=f848e452-ba6e-42bb-9ddb-0155fa7b789c","ios":"levelo://app?vid=f848e452-ba6e-42bb-9ddb-0155fa7b789c"},"vehicle_type_id":"4","last_reported":1678464629,"current_range_meters":2400,"station_id":"ce4bhs92rcd13ifvqi0g","pricing_plan_id":"free"},{"bike_id":"62d10470-2789-4599-94c8-05536f7584c7","system_id":"levelo_inurba_marseille","lat":43.32828,"lon":5.367,"is_reserved":false,"is_disabled":false,"rental_uris":{"android":"levelo://app?vid=62d10470-2789-4599-94c8-05536f7584c7","ios":"levelo://app?vid=62d10470-2789-4599-94c8-05536f7584c7"},"vehicle_type_id":"4","last_reported":1678464629,"current_range_meters":6800,"station_id":"","pricing_plan_id":"free"},{"bike_id":"0a61b157-0486-4818-a0df-f08f00e62f61","system_id":"levelo_inurba_marseille","lat":43.328371,"lon":5.366909,"is_reserved":false,"is_disabled":false,"rental_uris":{"android":"levelo://app?vid=0a61b157-0486-4818-a0df-f08f00e62f61","ios":"levelo://app?vid=0a61b157-0486-4818-a0df-f08f00e62f61"},"vehicle_type_id":"4","last_reported":1678464629,"current_range_meters":800,"station_id":"ce4bhs92rcd13ifvqi0g","pricing_plan_id":"free"},{"bike_id":"95cbf81a-20d0-46c6-8719-f9b04d191e4c","system_id":"levelo_inurba_marseille","lat":43.328371,"lon":5.366909,"is_reserved":false,"is_disabled":false,"rental_uris":{"android":"levelo://app?vid=95cbf81a-20d0-46c6-8719-f9b04d191e4c","ios":"levelo://app?vid=95cbf81a-20d0-46c6-8719-f9b04d191e4c"},"vehicle_type_id":"4","last_reported":1678464629,"current_range_meters":8400,"station_id":"ce4bhs92rcd13ifvqi0g","pricing_plan_id":"free"},{"bike_id":"6e6ceb92-a164-45f9-b130-fb3e6e7f11b6","system_id":"levelo_inurba_marseille","lat":43.328371,"lon":5.366909,"is_reserved":false,"is_disabled":false,"rental_uris":{"android":"levelo://app?vid=6e6ceb92-a164-45f9-b130-fb3e6e7f11b6","ios":"levelo://app?vid=6e6ceb92-a164-45f9-b130-fb3e6e7f11b6"},"vehicle_type_id":"4","last_reported":1678464629,"current_range_meters":1200,"station_id":"ce4bhs92rcd13ifvqi0g","pricing_plan_id":"free"},{"bike_id":"e559e30d-10be-4be0-b67a-3d0b565ffa7e","system_id":"levelo_inurba_marseille","lat":43.328371,"lon":5.366909,"is_reserved":false,"is_disabled":false,"rental_uris":{"android":"levelo://app?vid=e559e30d-10be-4be0-b67a-3d0b565ffa7e","ios":"levelo://app?vid=e559e30d-10be-4be0-b67a-3d0b565ffa7e"},"vehicle_type_id":"4","last_reported":1678464629,"current_range_meters":6800,"station_id":"ce4bhs92rcd13ifvqi0g","pricing_plan_id":"free"},{"bike_id":"0badd199-5685-4fd1-a588-cb21483bf70e","system_id":"levelo_inurba_marseille","lat":43.296131,"lon":5.370791,"is_reserved":false,"is_disabled":false,"rental_uris":{"android":"levelo://app?vid=0badd199-5685-4fd1-a588-cb21483bf70e","ios":"levelo://app?vid=0badd199-5685-4fd1-a588-cb21483bf70e"},"vehicle_type_id":"4","last_reported":1678464629,"current_range_meters":22800,"station_id":"ce4bgnh2rcd13ifvqc0g","pricing_plan_id":"free"},{"bike_id":"e49b4c9c-8fe7-48b1-9a23-a04191bc7505","system_id":"levelo_inurba_marseille","lat":43.29583,"lon":5.36742,"is_reserved":false,"is_disabled":false,"rental_uris":{"android":"levelo://app?vid=e49b4c9c-8fe7-48b1-9a23-a04191bc7505","ios":"levelo://app?vid=e49b4c9c-8fe7-48b1-9a23-a04191bc7505"},"vehicle_type_id":"4","last_reported":1678464629,"current_range_meters":0,"station_id":"","pricing_plan_id":"free"},{"bike_id":"1c1700b3-6b17-4fc8-888c-9a2f1c086a12","system_id":"levelo_inurba_marseille","lat":43.29573,"lon":5.367355,"is_reserved":false,"is_disabled":false,"rental_uris":{"android":"levelo://app?vid=1c1700b3-6b17-4fc8-888c-9a2f1c086a12","ios":"levelo://app?vid=1c1700b3-6b17-4fc8-888c-9a2f1c086a12"},"vehicle_type_id":"4","last_reported":1678464629,"current_range_meters":0,"station_id":"ce4bgph2rcd13ifvqc2g","pricing_plan_id":"free"},{"bike_id":"74f21d6a-0526-43d5-9f33-6ad35ce0a2f3","system_id":"levelo_inurba_marseille","lat":43.304096,"lon":5.425385,"is_reserved":false,"is_disabled":false,"rental_uris":{"android":"levelo://app?vid=74f21d6a-0526-43d5-9f33-6ad35ce0a2f3","ios":"levelo://app?vid=74f21d6a-0526-43d5-9f33-6ad35ce0a2f3"},"vehicle_type_id":"4","last_reported":1678464629,"current_range_meters":10400,"station_id":"ce4bhoh2rcd13ifvqh6g","pricing_plan_id":"free"},{"bike_id":"fba2e67d-f401-4913-aaf8-9115a95e3178","system_id":"levelo_inurba_marseille","lat":43.299028,"lon":5.381509,"is_reserved":false,"is_disabled":false,"rental_uris":{"android":"levelo://app?vid=fba2e67d-f401-4913-aaf8-9115a95e3178","ios":"levelo://app?vid=fba2e67d-f401-4913-aaf8-9115a95e3178"},"vehicle_type_id":"4","last_reported":1678464629,"current_range_meters":7200,"station_id":"ce4bgj12rcd13ifvqbc0","pricing_plan_id":"free"},{"bike_id":"d03d4fc0-0f5b-4d35-9f86-55fe0705238c","system_id":"levelo_inurba_marseille","lat":43.296958,"lon":5.377557,"is_reserved":false,"is_disabled":false,"rental_uris":{"android":"levelo://app?vid=d03d4fc0-0f5b-4d35-9f86-55fe0705238c","ios":"levelo://app?vid=d03d4fc0-0f5b-4d35-9f86-55fe0705238c"},"vehicle_type_id":"4","last_reported":1678464629,"current_range_meters":0,"station_id":"","pricing_plan_id":"free"},{"bike_id":"3d2234cb-9b03-4d55-b9c5-3fb0ba6d8d24","system_id":"levelo_inurba_marseille","lat":43.29794,"lon":5.38089,"is_reserved":false,"is_disabled":false,"rental_uris":{"android":"levelo://app?vid=3d2234cb-9b03-4d55-b9c5-3fb0ba6d8d24","ios":"levelo://app?vid=3d2234cb-9b03-4d55-b9c5-3fb0ba6d8d24"},"vehicle_type_id":"4","last_reported":1678464629,"current_range_meters":31600,"station_id":"","pricing_plan_id":"free"},{"bike_id":"9d60f699-e796-4824-8f81-2f56ee3a668f","system_id":"levelo_inurba_marseille","lat":43.298012,"lon":5.381089,"is_reserved":false,"is_disabled":false,"rental_uris":{"android":"levelo://app?vid=9d60f699-e796-4824-8f81-2f56ee3a668f","ios":"levelo://app?vid=9d60f699-e796-4824-8f81-2f56ee3a668f"},"vehicle_type_id":"4","last_reported":1678464629,"current_range_meters":0,"station_id":"","pricing_plan_id":"free"},{"bike_id":"b440e746-34de-4698-992b-5033e45bbc9d","system_id":"levelo_inurba_marseille","lat":43.295748,"lon":5.37522,"is_reserved":false,"is_disabled":false,"rental_uris":{"android":"levelo://app?vid=b440e746-34de-4698-992b-5033e45bbc9d","ios":"levelo://app?vid=b440e746-34de-4698-992b-5033e45bbc9d"},"vehicle_type_id":"4","last_reported":1678464629,"current_range_meters":15200,"station_id":"ce4bgh92rcd13ifvqb50","pricing_plan_id":"free"},{"bike_id":"0d041fdd-e5d8-4557-af2c-163a6c51f4be","system_id":"levelo_inurba_marseille","lat":43.29788,"lon":5.38092,"is_reserved":false,"is_disabled":false,"rental_uris":{"android":"levelo://app?vid=0d041fdd-e5d8-4557-af2c-163a6c51f4be","ios":"levelo://app?vid=0d041fdd-e5d8-4557-af2c-163a6c51f4be"},"vehicle_type_id":"4","last_reported":1678464629,"current_range_meters":6800,"station_id":"ce4bgip2rcd13ifvqbb0","pricing_plan_id":"free"},{"bike_id":"84c8aebf-0696-4206-930f-2a5aab74f6b9","system_id":"levelo_inurba_marseille","lat":43.295748,"lon":5.37522,"is_reserved":false,"is_disabled":false,"rental_uris":{"android":"levelo://app?vid=84c8aebf-0696-4206-930f-2a5aab74f6b9","ios":"levelo://app?vid=84c8aebf-0696-4206-930f-2a5aab74f6b9"},"vehicle_type_id":"4","last_reported":1678464629,"current_range_meters":0,"station_id":"ce4bgh92rcd13ifvqb50","pricing_plan_id":"free"},{"bike_id":"cb55112c-5e6c-4c53-af88-ed6bf42d217b","system_id":"levelo_inurba_marseille","lat":43.304358,"lon":5.388966,"is_reserved":false,"is_disabled":false,"rental_uris":{"android":"levelo://app?vid=cb55112c-5e6c-4c53-af88-ed6bf42d217b","ios":"levelo://app?vid=cb55112c-5e6c-4c53-af88-ed6bf42d217b"},"vehicle_type_id":"4","last_reported":1678464629,"current_range_meters":16800,"station_id":"ce4bgk12rcd13ifvqbi0","pricing_plan_id":"free"},{"bike_id":"a7f5af0f-7f6b-4850-b52c-ed7d8b67b27b","system_id":"levelo_inurba_marseille","lat":43.296087,"lon":5.377114,"is_reserved":false,"is_disabled":false,"rental_uris":{"android":"levelo://app?vid=a7f5af0f-7f6b-4850-b52c-ed7d8b67b27b","ios":"levelo://app?vid=a7f5af0f-7f6b-4850-b52c-ed7d8b67b27b"},"vehicle_type_id":"4","last_reported":1678464629,"current_range_meters":0,"station_id":"","pricing_plan_id":"free"},{"bike_id":"a9e7caeb-f341-48cd-b5b3-69d521490de4","system_id":"levelo_inurba_marseille","lat":43.299737,"lon":5.384998,"is_reserved":false,"is_disabled":false,"rental_uris":{"android":"levelo://app?vid=a9e7caeb-f341-48cd-b5b3-69d521490de4","ios":"levelo://app?vid=a9e7caeb-f341-48cd-b5b3-69d521490de4"},"vehicle_type_id":"4","last_reported":1678464629,"current_range_meters":0,"station_id":"ce4bgj92rcd13ifvqbd0","pricing_plan_id":"free"},{"bike_id":"a279d5e3-e021-470e-ac93-8f51e9caa577","system_id":"levelo_inurba_marseille","lat":43.323703,"lon":5.388613,"is_reserved":false,"is_disabled":false,"rental_uris":{"android":"levelo://app?vid=a279d5e3-e021-470e-ac93-8f51e9caa577","ios":"levelo://app?vid=a279d5e3-e021-470e-ac93-8f51e9caa577"},"vehicle_type_id":"4","last_reported":1678464629,"current_range_meters":31200,"station_id":"ce4bhqp2rcd13ifvqhog","pricing_plan_id":"free"},{"bike_id":"335b37de-a48d-40d4-9070-5c002562c561","system_id":"levelo_inurba_marseille","lat":43.32367,"lon":5.388836,"is_reserved":false,"is_disabled":false,"rental_uris":{"android":"levelo://app?vid=335b37de-a48d-40d4-9070-5c002562c561","ios":"levelo://app?vid=335b37de-a48d-40d4-9070-5c002562c561"},"vehicle_type_id":"4","last_reported":1678464629,"current_range_meters":4800,"station_id":"ce4bhqp2rcd13ifvqhog","pricing_plan_id":"free"},{"bike_id":"9dded74b-35b6-4972-8ed3-40fceeec2791","system_id":"levelo_inurba_marseille","lat":43.298338,"lon":5.385314,"is_reserved":false,"is_disabled":false,"rental_uris":{"android":"levelo://app?vid=9dded74b-35b6-4972-8ed3-40fceeec2791","ios":"levelo://app?vid=9dded74b-35b6-4972-8ed3-40fceeec2791"},"vehicle_type_id":"4","last_reported":1678464629,"current_range_meters":0,"station_id":"","pricing_plan_id":"free"},{"bike_id":"d1c0f3f4-5d27-41c1-a87b-e366c2b0800f","system_id":"levelo_inurba_marseille","lat":43.31282,"lon":5.39423,"is_reserved":false,"is_disabled":false,"rental_uris":{"android":"levelo://app?vid=d1c0f3f4-5d27-41c1-a87b-e366c2b0800f","ios":"levelo://app?vid=d1c0f3f4-5d27-41c1-a87b-e366c2b0800f"},"vehicle_type_id":"4","last_reported":1678464629,"current_range_meters":3600,"station_id":"","pricing_plan_id":"free"},{"bike_id":"9ba4a030-5acc-4bc1-a49d-f7356e66cd03","system_id":"levelo_inurba_marseille","lat":43.30742,"lon":5.3935,"is_reserved":false,"is_disabled":false,"rental_uris":{"android":"levelo://app?vid=9ba4a030-5acc-4bc1-a49d-f7356e66cd03","ios":"levelo://app?vid=9ba4a030-5acc-4bc1-a49d-f7356e66cd03"},"vehicle_type_id":"4","last_reported":1678464629,"current_range_meters":0,"station_id":"","pricing_plan_id":"free"},{"bike_id":"15f64aa1-8a96-406a-b817-45466550535a","system_id":"levelo_inurba_marseille","lat":43.293091,"lon":5.37454,"is_reserved":false,"is_disabled":false,"rental_uris":{"android":"levelo://app?vid=15f64aa1-8a96-406a-b817-45466550535a","ios":"levelo://app?vid=15f64aa1-8a96-406a-b817-45466550535a"},"vehicle_type_id":"4","last_reported":1678464629,"current_range_meters":3600,"station_id":"","pricing_plan_id":"free"},{"bike_id":"8441f2a2-7b2b-4422-b7e0-6b57846db13a","system_id":"levelo_inurba_marseille","lat":43.293009,"lon":5.374584,"is_reserved":false,"is_disabled":false,"rental_uris":{"android":"levelo://app?vid=8441f2a2-7b2b-4422-b7e0-6b57846db13a","ios":"levelo://app?vid=8441f2a2-7b2b-4422-b7e0-6b57846db13a"},"vehicle_type_id":"4","last_reported":1678464629,"current_range_meters":400,"station_id":"ce4bgi12rcd13ifvqb70","pricing_plan_id":"free"},{"bike_id":"254ec97b-2b78-45be-81ab-6e48c8581b47","system_id":"levelo_inurba_marseille","lat":43.30093,"lon":5.39073,"is_reserved":false,"is_disabled":false,"rental_uris":{"android":"levelo://app?vid=254ec97b-2b78-45be-81ab-6e48c8581b47","ios":"levelo://app?vid=254ec97b-2b78-45be-81ab-6e48c8581b47"},"vehicle_type_id":"4","last_reported":1678464629,"current_range_meters":0,"station_id":"ce4bh192rcd13ifvqdb0","pricing_plan_id":"free"},{"bike_id":"6ce48151-56ff-4b5a-95ce-10ae1dcbb7ac","system_id":"levelo_inurba_marseille","lat":43.2922,"lon":5.36049,"is_reserved":false,"is_disabled":false,"rental_uris":{"android":"levelo://app?vid=6ce48151-56ff-4b5a-95ce-10ae1dcbb7ac","ios":"levelo://app?vid=6ce48151-56ff-4b5a-95ce-10ae1dcbb7ac"},"vehicle_type_id":"4","last_reported":1678464629,"current_range_meters":0,"station_id":"ce4bhbh2rcd13ifvqeqg","pricing_plan_id":"free"},{"bike_id":"6b7073fc-4fd2-47b5-9d17-b98c0ecc6a9e","system_id":"levelo_inurba_marseille","lat":43.291714,"lon":5.371559,"is_reserved":false,"is_disabled":false,"rental_uris":{"android":"levelo://app?vid=6b7073fc-4fd2-47b5-9d17-b98c0ecc6a9e","ios":"levelo://app?vid=6b7073fc-4fd2-47b5-9d17-b98c0ecc6a9e"},"vehicle_type_id":"4","last_reported":1678464629,"current_range_meters":0,"station_id":"","pricing_plan_id":"free"},{"bike_id":"e27483ea-8002-4487-a5ca-484d09724c6c","system_id":"levelo_inurba_marseille","lat":43.29879,"lon":5.38917,"is_reserved":false,"is_disabled":false,"rental_uris":{"android":"levelo://app?vid=e27483ea-8002-4487-a5ca-484d09724c6c","ios":"levelo://app?vid=e27483ea-8002-4487-a5ca-484d09724c6c"},"vehicle_type_id":"4","last_reported":1678464629,"current_range_meters":0,"station_id":"ce4bh392rcd13ifvqdl0","pricing_plan_id":"free"},{"bike_id":"6e1b711c-a5b3-47e0-9a74-12b0d938e471","system_id":"levelo_inurba_marseille","lat":43.313291,"lon":5.396838,"is_reserved":false,"is_disabled":false,"rental_uris":{"android":"levelo://app?vid=6e1b711c-a5b3-47e0-9a74-12b0d938e471","ios":"levelo://app?vid=6e1b711c-a5b3-47e0-9a74-12b0d938e471"},"vehicle_type_id":"4","last_reported":1678464629,"current_range_meters":22000,"station_id":"ce4bgvp2rcd13ifvqcu0","pricing_plan_id":"free"},{"bike_id":"0d664e3a-7bee-4f04-9e6b-17a01cd94cc9","system_id":"levelo_inurba_marseille","lat":43.313291,"lon":5.396838,"is_reserved":false,"is_disabled":false,"rental_uris":{"android":"levelo://app?vid=0d664e3a-7bee-4f04-9e6b-17a01cd94cc9","ios":"levelo://app?vid=0d664e3a-7bee-4f04-9e6b-17a01cd94cc9"},"vehicle_type_id":"4","last_reported":1678464629,"current_range_meters":3200,"station_id":"ce4bgvp2rcd13ifvqcu0","pricing_plan_id":"free"},{"bike_id":"32a59c29-54d5-488b-a75d-11e9280693dd","system_id":"levelo_inurba_marseille","lat":43.295385,"lon":5.385425,"is_reserved":false,"is_disabled":false,"rental_uris":{"android":"levelo://app?vid=32a59c29-54d5-488b-a75d-11e9280693dd","ios":"levelo://app?vid=32a59c29-54d5-488b-a75d-11e9280693dd"},"vehicle_type_id":"4","last_reported":1678464629,"current_range_meters":12400,"station_id":"ce4bgih2rcd13ifvqba0","pricing_plan_id":"free"},{"bike_id":"85f4dd06-c26f-426a-90a5-24d78e3d002b","system_id":"levelo_inurba_marseille","lat":43.29529,"lon":5.385581,"is_reserved":false,"is_disabled":false,"rental_uris":{"android":"levelo://app?vid=85f4dd06-c26f-426a-90a5-24d78e3d002b","ios":"levelo://app?vid=85f4dd06-c26f-426a-90a5-24d78e3d002b"},"vehicle_type_id":"4","last_reported":1678464629,"current_range_meters":1200,"station_id":"ce4bgih2rcd13ifvqba0","pricing_plan_id":"free"},{"bike_id":"5b82977e-63d7-4b3f-9684-caabcffca1b7","system_id":"levelo_inurba_marseille","lat":43.29529,"lon":5.385581,"is_reserved":false,"is_disabled":false,"rental_uris":{"android":"levelo://app?vid=5b82977e-63d7-4b3f-9684-caabcffca1b7","ios":"levelo://app?vid=5b82977e-63d7-4b3f-9684-caabcffca1b7"},"vehicle_type_id":"4","last_reported":1678464629,"current_range_meters":3200,"station_id":"ce4bgih2rcd13ifvqba0","pricing_plan_id":"free"},{"bike_id":"2ae74692-4493-479f-b432-e4849a500df6","system_id":"levelo_inurba_marseille","lat":43.29041,"lon":5.35913,"is_reserved":false,"is_disabled":false,"rental_uris":{"android":"levelo://app?vid=2ae74692-4493-479f-b432-e4849a500df6","ios":"levelo://app?vid=2ae74692-4493-479f-b432-e4849a500df6"},"vehicle_type_id":"4","last_reported":1678464629,"current_range_meters":24400,"station_id":"ce4bha92rcd13ifvqeg0","pricing_plan_id":"free"},{"bike_id":"c9ac4266-eee0-480b-ad3d-0875302afb2d","system_id":"levelo_inurba_marseille","lat":43.290319,"lon":5.375732,"is_reserved":false,"is_disabled":false,"rental_uris":{"android":"levelo://app?vid=c9ac4266-eee0-480b-ad3d-0875302afb2d","ios":"levelo://app?vid=c9ac4266-eee0-480b-ad3d-0875302afb2d"},"vehicle_type_id":"4","last_reported":1678464629,"current_range_meters":19600,"station_id":"ce4bh692rcd13ifvqe90","pricing_plan_id":"free"},{"bike_id":"fa492006-6d9b-4909-93ac-bc669d607be2","system_id":"levelo_inurba_marseille","lat":43.33047,"lon":5.38911,"is_reserved":false,"is_disabled":false,"rental_uris":{"android":"levelo://app?vid=fa492006-6d9b-4909-93ac-bc669d607be2","ios":"levelo://app?vid=fa492006-6d9b-4909-93ac-bc669d607be2"},"vehicle_type_id":"4","last_reported":1678464629,"current_range_meters":19600,"station_id":"","pricing_plan_id":"free"},{"bike_id":"bb25021b-1550-4be2-9e87-79e40e0bab1e","system_id":"levelo_inurba_marseille","lat":43.33044,"lon":5.38917,"is_reserved":false,"is_disabled":false,"rental_uris":{"android":"levelo://app?vid=bb25021b-1550-4be2-9e87-79e40e0bab1e","ios":"levelo://app?vid=bb25021b-1550-4be2-9e87-79e40e0bab1e"},"vehicle_type_id":"4","last_reported":1678464629,"current_range_meters":0,"station_id":"","pricing_plan_id":"free"},{"bike_id":"b57cf42f-ef2a-4add-9358-cfc3e72fe47c","system_id":"levelo_inurba_marseille","lat":43.3304,"lon":5.38924,"is_reserved":false,"is_disabled":false,"rental_uris":{"android":"levelo://app?vid=b57cf42f-ef2a-4add-9358-cfc3e72fe47c","ios":"levelo://app?vid=b57cf42f-ef2a-4add-9358-cfc3e72fe47c"},"vehicle_type_id":"4","last_reported":1678464629,"current_range_meters":0,"station_id":"","pricing_plan_id":"free"},{"bike_id":"278058b8-c39c-476e-9bc6-09213c4e2e41","system_id":"levelo_inurba_marseille","lat":43.330442,"lon":5.389148,"is_reserved":false,"is_disabled":false,"rental_uris":{"android":"levelo://app?vid=278058b8-c39c-476e-9bc6-09213c4e2e41","ios":"levelo://app?vid=278058b8-c39c-476e-9bc6-09213c4e2e41"},"vehicle_type_id":"4","last_reported":1678464629,"current_range_meters":6800,"station_id":"ce4bhr92rcd13ifvqhrg","pricing_plan_id":"free"},{"bike_id":"ffb88864-e747-4b35-84ae-7905ab6f31c0","system_id":"levelo_inurba_marseille","lat":43.33042,"lon":5.38923,"is_reserved":false,"is_disabled":false,"rental_uris":{"android":"levelo://app?vid=ffb88864-e747-4b35-84ae-7905ab6f31c0","ios":"levelo://app?vid=ffb88864-e747-4b35-84ae-7905ab6f31c0"},"vehicle_type_id":"4","last_reported":1678464629,"current_range_meters":6400,"station_id":"ce4bhr92rcd13ifvqhrg","pricing_plan_id":"free"},{"bike_id":"c5c70f3e-9a7d-428d-931b-dc68f9720596","system_id":"levelo_inurba_marseille","lat":43.330442,"lon":5.389148,"is_reserved":false,"is_disabled":false,"rental_uris":{"android":"levelo://app?vid=c5c70f3e-9a7d-428d-931b-dc68f9720596","ios":"levelo://app?vid=c5c70f3e-9a7d-428d-931b-dc68f9720596"},"vehicle_type_id":"4","last_reported":1678464629,"current_range_meters":22000,"station_id":"ce4bhr92rcd13ifvqhrg","pricing_plan_id":"free"},{"bike_id":"fd336356-7487-4f1b-86f7-49b9e3e3540d","system_id":"levelo_inurba_marseille","lat":43.330442,"lon":5.389148,"is_reserved":false,"is_disabled":false,"rental_uris":{"android":"levelo://app?vid=fd336356-7487-4f1b-86f7-49b9e3e3540d","ios":"levelo://app?vid=fd336356-7487-4f1b-86f7-49b9e3e3540d"},"vehicle_type_id":"4","last_reported":1678464629,"current_range_meters":21600,"station_id":"ce4bhr92rcd13ifvqhrg","pricing_plan_id":"free"},{"bike_id":"36e23813-374b-4cbc-b810-83a3c46decd9","system_id":"levelo_inurba_marseille","lat":43.330442,"lon":5.389148,"is_reserved":false,"is_disabled":false,"rental_uris":{"android":"levelo://app?vid=36e23813-374b-4cbc-b810-83a3c46decd9","ios":"levelo://app?vid=36e23813-374b-4cbc-b810-83a3c46decd9"},"vehicle_type_id":"4","last_reported":1678464629,"current_range_meters":2800,"station_id":"ce4bhr92rcd13ifvqhrg","pricing_plan_id":"free"},{"bike_id":"480fb6bd-f976-4dc7-a82a-a8aaf8533fa5","system_id":"levelo_inurba_marseille","lat":43.330442,"lon":5.389148,"is_reserved":false,"is_disabled":false,"rental_uris":{"android":"levelo://app?vid=480fb6bd-f976-4dc7-a82a-a8aaf8533fa5","ios":"levelo://app?vid=480fb6bd-f976-4dc7-a82a-a8aaf8533fa5"},"vehicle_type_id":"4","last_reported":1678464629,"current_range_meters":6800,"station_id":"ce4bhr92rcd13ifvqhrg","pricing_plan_id":"free"},{"bike_id":"fb18d5c6-32ae-4dae-b808-211cb56887b7","system_id":"levelo_inurba_marseille","lat":43.33046,"lon":5.38922,"is_reserved":false,"is_disabled":false,"rental_uris":{"android":"levelo://app?vid=fb18d5c6-32ae-4dae-b808-211cb56887b7","ios":"levelo://app?vid=fb18d5c6-32ae-4dae-b808-211cb56887b7"},"vehicle_type_id":"4","last_reported":1678464629,"current_range_meters":11200,"station_id":"","pricing_plan_id":"free"},{"bike_id":"5e92a2fe-3ec2-488b-b0ea-40be7633a959","system_id":"levelo_inurba_marseille","lat":43.330455,"lon":5.389231,"is_reserved":false,"is_disabled":false,"rental_uris":{"android":"levelo://app?vid=5e92a2fe-3ec2-488b-b0ea-40be7633a959","ios":"levelo://app?vid=5e92a2fe-3ec2-488b-b0ea-40be7633a959"},"vehicle_type_id":"4","last_reported":1678464629,"current_range_meters":2000,"station_id":"ce4bhr92rcd13ifvqhrg","pricing_plan_id":"free"},{"bike_id":"29a7c10e-0f2e-40fb-940d-1250d0abec19","system_id":"levelo_inurba_marseille","lat":43.3305,"lon":5.38917,"is_reserved":false,"is_disabled":false,"rental_uris":{"android":"levelo://app?vid=29a7c10e-0f2e-40fb-940d-1250d0abec19","ios":"levelo://app?vid=29a7c10e-0f2e-40fb-940d-1250d0abec19"},"vehicle_type_id":"4","last_reported":1678464629,"current_range_meters":30000,"station_id":"","pricing_plan_id":"free"},{"bike_id":"d4fb6c11-6eb6-4e48-8008-e162ac3a03d0","system_id":"levelo_inurba_marseille","lat":43.330442,"lon":5.389148,"is_reserved":false,"is_disabled":false,"rental_uris":{"android":"levelo://app?vid=d4fb6c11-6eb6-4e48-8008-e162ac3a03d0","ios":"levelo://app?vid=d4fb6c11-6eb6-4e48-8008-e162ac3a03d0"},"vehicle_type_id":"4","last_reported":1678464629,"current_range_meters":7600,"station_id":"ce4bhr92rcd13ifvqhrg","pricing_plan_id":"free"},{"bike_id":"03d8ea31-5bb9-4f9c-9a1c-935027f14d9d","system_id":"levelo_inurba_marseille","lat":43.290945,"lon":5.381272,"is_reserved":false,"is_disabled":false,"rental_uris":{"android":"levelo://app?vid=03d8ea31-5bb9-4f9c-9a1c-935027f14d9d","ios":"levelo://app?vid=03d8ea31-5bb9-4f9c-9a1c-935027f14d9d"},"vehicle_type_id":"4","last_reported":1678464629,"current_range_meters":19600,"station_id":"ce4bh512rcd13ifvqe2g","pricing_plan_id":"free"},{"bike_id":"d7551dc3-302b-4dd6-9c42-cc4692823b31","system_id":"levelo_inurba_marseille","lat":43.2909,"lon":5.38149,"is_reserved":false,"is_disabled":false,"rental_uris":{"android":"levelo://app?vid=d7551dc3-302b-4dd6-9c42-cc4692823b31","ios":"levelo://app?vid=d7551dc3-302b-4dd6-9c42-cc4692823b31"},"vehicle_type_id":"4","last_reported":1678464629,"current_range_meters":16000,"station_id":"","pricing_plan_id":"free"},{"bike_id":"5daec4d7-b8f1-4ba0-bbdb-6e2f410fd4d0","system_id":"levelo_inurba_marseille","lat":43.289743,"lon":5.378304,"is_reserved":false,"is_disabled":false,"rental_uris":{"android":"levelo://app?vid=5daec4d7-b8f1-4ba0-bbdb-6e2f410fd4d0","ios":"levelo://app?vid=5daec4d7-b8f1-4ba0-bbdb-6e2f410fd4d0"},"vehicle_type_id":"4","last_reported":1678464629,"current_range_meters":0,"station_id":"ce4bh9p2rcd13ifvqed0","pricing_plan_id":"free"},{"bike_id":"896df140-90e2-4bc1-a661-2dd9b33fbe4c","system_id":"levelo_inurba_marseille","lat":43.28856,"lon":5.358371,"is_reserved":false,"is_disabled":false,"rental_uris":{"android":"levelo://app?vid=896df140-90e2-4bc1-a661-2dd9b33fbe4c","ios":"levelo://app?vid=896df140-90e2-4bc1-a661-2dd9b33fbe4c"},"vehicle_type_id":"4","last_reported":1678464629,"current_range_meters":24000,"station_id":"ce4bhb12rcd13ifvqem0","pricing_plan_id":"free"},{"bike_id":"5422a16d-23d5-49f2-b771-a29907f7e3f4","system_id":"levelo_inurba_marseille","lat":43.28856,"lon":5.358371,"is_reserved":false,"is_disabled":false,"rental_uris":{"android":"levelo://app?vid=5422a16d-23d5-49f2-b771-a29907f7e3f4","ios":"levelo://app?vid=5422a16d-23d5-49f2-b771-a29907f7e3f4"},"vehicle_type_id":"4","last_reported":1678464629,"current_range_meters":18400,"station_id":"ce4bhb12rcd13ifvqem0","pricing_plan_id":"free"},{"bike_id":"5f9598f3-c303-4701-99cc-7859dc31fb1d","system_id":"levelo_inurba_marseille","lat":43.30642,"lon":5.401031,"is_reserved":false,"is_disabled":false,"rental_uris":{"android":"levelo://app?vid=5f9598f3-c303-4701-99cc-7859dc31fb1d","ios":"levelo://app?vid=5f9598f3-c303-4701-99cc-7859dc31fb1d"},"vehicle_type_id":"4","last_reported":1678464629,"current_range_meters":0,"station_id":"ce4bh112rcd13ifvqda0","pricing_plan_id":"free"},{"bike_id":"22530697-4037-42a0-9fd4-9d73899dc80c","system_id":"levelo_inurba_marseille","lat":43.31541,"lon":5.40235,"is_reserved":false,"is_disabled":false,"rental_uris":{"android":"levelo://app?vid=22530697-4037-42a0-9fd4-9d73899dc80c","ios":"levelo://app?vid=22530697-4037-42a0-9fd4-9d73899dc80c"},"vehicle_type_id":"4","last_reported":1678464629,"current_range_meters":10400,"station_id":"","pricing_plan_id":"free"},{"bike_id":"d0872f0f-42cc-41f5-8b5b-31b66e3c9fba","system_id":"levelo_inurba_marseille","lat":43.28666,"lon":5.36356,"is_reserved":false,"is_disabled":false,"rental_uris":{"android":"levelo://app?vid=d0872f0f-42cc-41f5-8b5b-31b66e3c9fba","ios":"levelo://app?vid=d0872f0f-42cc-41f5-8b5b-31b66e3c9fba"},"vehicle_type_id":"4","last_reported":1678464629,"current_range_meters":400,"station_id":"ce4bhah2rcd13ifvqej0","pricing_plan_id":"free"},{"bike_id":"3518968f-afed-4382-9840-32fe83c35b61","system_id":"levelo_inurba_marseille","lat":43.286619,"lon":5.363586,"is_reserved":false,"is_disabled":false,"rental_uris":{"android":"levelo://app?vid=3518968f-afed-4382-9840-32fe83c35b61","ios":"levelo://app?vid=3518968f-afed-4382-9840-32fe83c35b61"},"vehicle_type_id":"4","last_reported":1678464629,"current_range_meters":0,"station_id":"ce4bhah2rcd13ifvqej0","pricing_plan_id":"free"},{"bike_id":"a7d51842-b673-45ca-8a1a-1cdf5fddaef5","system_id":"levelo_inurba_marseille","lat":43.295211,"lon":5.394026,"is_reserved":false,"is_disabled":false,"rental_uris":{"android":"levelo://app?vid=a7d51842-b673-45ca-8a1a-1cdf5fddaef5","ios":"levelo://app?vid=a7d51842-b673-45ca-8a1a-1cdf5fddaef5"},"vehicle_type_id":"4","last_reported":1678464629,"current_range_meters":0,"station_id":"ce4bh292rcd13ifvqdf0","pricing_plan_id":"free"},{"bike_id":"32dce798-464b-4f1d-9a58-d7e9a0f36d2b","system_id":"levelo_inurba_marseille","lat":43.295192,"lon":5.394073,"is_reserved":false,"is_disabled":false,"rental_uris":{"android":"levelo://app?vid=32dce798-464b-4f1d-9a58-d7e9a0f36d2b","ios":"levelo://app?vid=32dce798-464b-4f1d-9a58-d7e9a0f36d2b"},"vehicle_type_id":"4","last_reported":1678464629,"current_range_meters":13600,"station_id":"ce4bh212rcd13ifvqde0","pricing_plan_id":"free"},{"bike_id":"978ae833-cd0b-402e-b979-e28475ee8e40","system_id":"levelo_inurba_marseille","lat":43.290313,"lon":5.38625,"is_reserved":false,"is_disabled":false,"rental_uris":{"android":"levelo://app?vid=978ae833-cd0b-402e-b979-e28475ee8e40","ios":"levelo://app?vid=978ae833-cd0b-402e-b979-e28475ee8e40"},"vehicle_type_id":"4","last_reported":1678464629,"current_range_meters":0,"station_id":"","pricing_plan_id":"free"},{"bike_id":"a5d3f0e0-8fd3-4481-9037-72d53e23e493","system_id":"levelo_inurba_marseille","lat":43.295125,"lon":5.394094,"is_reserved":false,"is_disabled":false,"rental_uris":{"android":"levelo://app?vid=a5d3f0e0-8fd3-4481-9037-72d53e23e493","ios":"levelo://app?vid=a5d3f0e0-8fd3-4481-9037-72d53e23e493"},"vehicle_type_id":"4","last_reported":1678464629,"current_range_meters":0,"station_id":"","pricing_plan_id":"free"},{"bike_id":"95b771e8-9d24-48ef-9ac8-b638616d6879","system_id":"levelo_inurba_marseille","lat":43.290395,"lon":5.38646,"is_reserved":false,"is_disabled":false,"rental_uris":{"android":"levelo://app?vid=95b771e8-9d24-48ef-9ac8-b638616d6879","ios":"levelo://app?vid=95b771e8-9d24-48ef-9ac8-b638616d6879"},"vehicle_type_id":"4","last_reported":1678464629,"current_range_meters":26000,"station_id":"","pricing_plan_id":"free"},{"bike_id":"e5558c78-23a7-4b92-98a0-954c6f29fd84","system_id":"levelo_inurba_marseille","lat":43.29039,"lon":5.38649,"is_reserved":false,"is_disabled":false,"rental_uris":{"android":"levelo://app?vid=e5558c78-23a7-4b92-98a0-954c6f29fd84","ios":"levelo://app?vid=e5558c78-23a7-4b92-98a0-954c6f29fd84"},"vehicle_type_id":"4","last_reported":1678464629,"current_range_meters":14400,"station_id":"","pricing_plan_id":"free"},{"bike_id":"250d1d87-c2c1-4dda-af64-557d277b1d62","system_id":"levelo_inurba_marseille","lat":43.29031,"lon":5.38638,"is_reserved":false,"is_disabled":false,"rental_uris":{"android":"levelo://app?vid=250d1d87-c2c1-4dda-af64-557d277b1d62","ios":"levelo://app?vid=250d1d87-c2c1-4dda-af64-557d277b1d62"},"vehicle_type_id":"4","last_reported":1678464629,"current_range_meters":4400,"station_id":"","pricing_plan_id":"free"},{"bike_id":"154e3ef0-374f-4aa0-89cb-77a260d527d3","system_id":"levelo_inurba_marseille","lat":43.290322,"lon":5.38643,"is_reserved":false,"is_disabled":false,"rental_uris":{"android":"levelo://app?vid=154e3ef0-374f-4aa0-89cb-77a260d527d3","ios":"levelo://app?vid=154e3ef0-374f-4aa0-89cb-77a260d527d3"},"vehicle_type_id":"4","last_reported":1678464629,"current_range_meters":31600,"station_id":"","pricing_plan_id":"free"},{"bike_id":"a1238bf5-28d8-403a-87a7-abd0e9ba1b75","system_id":"levelo_inurba_marseille","lat":43.29031,"lon":5.38641,"is_reserved":false,"is_disabled":false,"rental_uris":{"android":"levelo://app?vid=a1238bf5-28d8-403a-87a7-abd0e9ba1b75","ios":"levelo://app?vid=a1238bf5-28d8-403a-87a7-abd0e9ba1b75"},"vehicle_type_id":"4","last_reported":1678464629,"current_range_meters":2400,"station_id":"","pricing_plan_id":"free"},{"bike_id":"0a027fa5-0f63-4520-b50d-785a9fe17512","system_id":"levelo_inurba_marseille","lat":43.286145,"lon":5.370568,"is_reserved":false,"is_disabled":false,"rental_uris":{"android":"levelo://app?vid=0a027fa5-0f63-4520-b50d-785a9fe17512","ios":"levelo://app?vid=0a027fa5-0f63-4520-b50d-785a9fe17512"},"vehicle_type_id":"4","last_reported":1678464629,"current_range_meters":28800,"station_id":"","pricing_plan_id":"free"},{"bike_id":"d9961c83-36f7-40c5-b550-e5ce27125a03","system_id":"levelo_inurba_marseille","lat":43.28613,"lon":5.37065,"is_reserved":false,"is_disabled":false,"rental_uris":{"android":"levelo://app?vid=d9961c83-36f7-40c5-b550-e5ce27125a03","ios":"levelo://app?vid=d9961c83-36f7-40c5-b550-e5ce27125a03"},"vehicle_type_id":"4","last_reported":1678464629,"current_range_meters":31200,"station_id":"","pricing_plan_id":"free"},{"bike_id":"14c1ed42-019c-429a-a386-5996904d5883","system_id":"levelo_inurba_marseille","lat":43.286106,"lon":5.370597,"is_reserved":false,"is_disabled":false,"rental_uris":{"android":"levelo://app?vid=14c1ed42-019c-429a-a386-5996904d5883","ios":"levelo://app?vid=14c1ed42-019c-429a-a386-5996904d5883"},"vehicle_type_id":"4","last_reported":1678464629,"current_range_meters":29600,"station_id":"ce4bht12rcd13ifvqi60","pricing_plan_id":"free"},{"bike_id":"a1b20129-0f1f-4451-aa00-34447d7be3f9","system_id":"levelo_inurba_marseille","lat":43.286105,"lon":5.37058,"is_reserved":false,"is_disabled":false,"rental_uris":{"android":"levelo://app?vid=a1b20129-0f1f-4451-aa00-34447d7be3f9","ios":"levelo://app?vid=a1b20129-0f1f-4451-aa00-34447d7be3f9"},"vehicle_type_id":"4","last_reported":1678464629,"current_range_meters":26400,"station_id":"","pricing_plan_id":"free"},{"bike_id":"ebf8fa90-c1ef-456f-b53c-5dd61aa6582f","system_id":"levelo_inurba_marseille","lat":43.316517,"lon":5.404375,"is_reserved":false,"is_disabled":false,"rental_uris":{"android":"levelo://app?vid=ebf8fa90-c1ef-456f-b53c-5dd61aa6582f","ios":"levelo://app?vid=ebf8fa90-c1ef-456f-b53c-5dd61aa6582f"},"vehicle_type_id":"4","last_reported":1678464629,"current_range_meters":1600,"station_id":"ce4bh012rcd13ifvqd00","pricing_plan_id":"free"},{"bike_id":"898e9a63-310c-4930-8f88-76293783c1c5","system_id":"levelo_inurba_marseille","lat":43.316416,"lon":5.404552,"is_reserved":false,"is_disabled":false,"rental_uris":{"android":"levelo://app?vid=898e9a63-310c-4930-8f88-76293783c1c5","ios":"levelo://app?vid=898e9a63-310c-4930-8f88-76293783c1c5"},"vehicle_type_id":"4","last_reported":1678464629,"current_range_meters":7600,"station_id":"ce4bh012rcd13ifvqd00","pricing_plan_id":"free"},{"bike_id":"2c73f9bb-25bc-4b89-8f03-4171e1c9c209","system_id":"levelo_inurba_marseille","lat":43.29109,"lon":5.39216,"is_reserved":false,"is_disabled":false,"rental_uris":{"android":"levelo://app?vid=2c73f9bb-25bc-4b89-8f03-4171e1c9c209","ios":"levelo://app?vid=2c73f9bb-25bc-4b89-8f03-4171e1c9c209"},"vehicle_type_id":"4","last_reported":1678464629,"current_range_meters":19200,"station_id":"","pricing_plan_id":"free"},{"bike_id":"2b23bc62-e3a6-4ffd-821a-33b2b337bffc","system_id":"levelo_inurba_marseille","lat":43.284534,"lon":5.358662,"is_reserved":false,"is_disabled":false,"rental_uris":{"android":"levelo://app?vid=2b23bc62-e3a6-4ffd-821a-33b2b337bffc","ios":"levelo://app?vid=2b23bc62-e3a6-4ffd-821a-33b2b337bffc"},"vehicle_type_id":"4","last_reported":1678464629,"current_range_meters":11200,"station_id":"ce4bhah2rcd13ifvqei0","pricing_plan_id":"free"},{"bike_id":"e6a95fb2-da34-422c-a636-41cce5770b55","system_id":"levelo_inurba_marseille","lat":43.286235,"lon":5.383689,"is_reserved":false,"is_disabled":false,"rental_uris":{"android":"levelo://app?vid=e6a95fb2-da34-422c-a636-41cce5770b55","ios":"levelo://app?vid=e6a95fb2-da34-422c-a636-41cce5770b55"},"vehicle_type_id":"4","last_reported":1678464629,"current_range_meters":0,"station_id":"","pricing_plan_id":"free"},{"bike_id":"e9b3f9b9-5a9e-4a11-8c78-36bb965bdc1b","system_id":"levelo_inurba_marseille","lat":43.286725,"lon":5.386648,"is_reserved":false,"is_disabled":false,"rental_uris":{"android":"levelo://app?vid=e9b3f9b9-5a9e-4a11-8c78-36bb965bdc1b","ios":"levelo://app?vid=e9b3f9b9-5a9e-4a11-8c78-36bb965bdc1b"},"vehicle_type_id":"4","last_reported":1678464629,"current_range_meters":0,"station_id":"ce4bh492rcd13ifvqdug","pricing_plan_id":"free"},{"bike_id":"3e22b5ad-c742-4060-a99b-ba3f455a7ddf","system_id":"levelo_inurba_marseille","lat":43.336866,"lon":5.392112,"is_reserved":false,"is_disabled":false,"rental_uris":{"android":"levelo://app?vid=3e22b5ad-c742-4060-a99b-ba3f455a7ddf","ios":"levelo://app?vid=3e22b5ad-c742-4060-a99b-ba3f455a7ddf"},"vehicle_type_id":"4","last_reported":1678464629,"current_range_meters":25200,"station_id":"","pricing_plan_id":"free"},{"bike_id":"8a9a0518-59aa-4e26-809c-0c04e841da7a","system_id":"levelo_inurba_marseille","lat":43.33724,"lon":5.39186,"is_reserved":false,"is_disabled":false,"rental_uris":{"android":"levelo://app?vid=8a9a0518-59aa-4e26-809c-0c04e841da7a","ios":"levelo://app?vid=8a9a0518-59aa-4e26-809c-0c04e841da7a"},"vehicle_type_id":"4","last_reported":1678464629,"current_range_meters":17200,"station_id":"","pricing_plan_id":"free"},{"bike_id":"2a212364-52de-410e-a82f-ff474f534b05","system_id":"levelo_inurba_marseille","lat":43.32339,"lon":5.40621,"is_reserved":false,"is_disabled":false,"rental_uris":{"android":"levelo://app?vid=2a212364-52de-410e-a82f-ff474f534b05","ios":"levelo://app?vid=2a212364-52de-410e-a82f-ff474f534b05"},"vehicle_type_id":"4","last_reported":1678464629,"current_range_meters":16800,"station_id":"","pricing_plan_id":"free"},{"bike_id":"27d6f618-dd31-472f-84e9-0217daa3f225","system_id":"levelo_inurba_marseille","lat":43.28573,"lon":5.386528,"is_reserved":false,"is_disabled":false,"rental_uris":{"android":"levelo://app?vid=27d6f618-dd31-472f-84e9-0217daa3f225","ios":"levelo://app?vid=27d6f618-dd31-472f-84e9-0217daa3f225"},"vehicle_type_id":"4","last_reported":1678464629,"current_range_meters":0,"station_id":"","pricing_plan_id":"free"},{"bike_id":"63dc548d-20fa-4a05-97f7-a20123918b09","system_id":"levelo_inurba_marseille","lat":43.28476,"lon":5.38408,"is_reserved":false,"is_disabled":false,"rental_uris":{"android":"levelo://app?vid=63dc548d-20fa-4a05-97f7-a20123918b09","ios":"levelo://app?vid=63dc548d-20fa-4a05-97f7-a20123918b09"},"vehicle_type_id":"4","last_reported":1678464629,"current_range_meters":0,"station_id":"ce4bh512rcd13ifvqe3g","pricing_plan_id":"free"},{"bike_id":"1fb4d5df-746d-47b5-baac-71ac0122f044","system_id":"levelo_inurba_marseille","lat":43.288497,"lon":5.393089,"is_reserved":false,"is_disabled":false,"rental_uris":{"android":"levelo://app?vid=1fb4d5df-746d-47b5-baac-71ac0122f044","ios":"levelo://app?vid=1fb4d5df-746d-47b5-baac-71ac0122f044"},"vehicle_type_id":"4","last_reported":1678464629,"current_range_meters":16400,"station_id":"ce4bh2p2rcd13ifvqdi0","pricing_plan_id":"free"},{"bike_id":"65ff2bb0-693a-4de8-8e6d-95aa45e18d90","system_id":"levelo_inurba_marseille","lat":43.284219,"lon":5.3497,"is_reserved":false,"is_disabled":false,"rental_uris":{"android":"levelo://app?vid=65ff2bb0-693a-4de8-8e6d-95aa45e18d90","ios":"levelo://app?vid=65ff2bb0-693a-4de8-8e6d-95aa45e18d90"},"vehicle_type_id":"4","last_reported":1678464629,"current_range_meters":14800,"station_id":"ce4bhbh2rcd13ifvqepg","pricing_plan_id":"free"},{"bike_id":"68482268-6521-4d10-a4de-05f6fae47c81","system_id":"levelo_inurba_marseille","lat":43.289361,"lon":5.396023,"is_reserved":false,"is_disabled":false,"rental_uris":{"android":"levelo://app?vid=68482268-6521-4d10-a4de-05f6fae47c81","ios":"levelo://app?vid=68482268-6521-4d10-a4de-05f6fae47c81"},"vehicle_type_id":"4","last_reported":1678464629,"current_range_meters":1600,"station_id":"ce4bh3h2rcd13ifvqdn0","pricing_plan_id":"free"},{"bike_id":"d8591f2f-5ebf-4fdc-9730-ba9a13d991ee","system_id":"levelo_inurba_marseille","lat":43.283502,"lon":5.386471,"is_reserved":false,"is_disabled":false,"rental_uris":{"android":"levelo://app?vid=d8591f2f-5ebf-4fdc-9730-ba9a13d991ee","ios":"levelo://app?vid=d8591f2f-5ebf-4fdc-9730-ba9a13d991ee"},"vehicle_type_id":"4","last_reported":1678464629,"current_range_meters":13600,"station_id":"ce4bh492rcd13ifvqdvg","pricing_plan_id":"free"},{"bike_id":"ff54e760-7bc1-44f2-9c28-c46bcb167ad6","system_id":"levelo_inurba_marseille","lat":43.283502,"lon":5.386471,"is_reserved":false,"is_disabled":false,"rental_uris":{"android":"levelo://app?vid=ff54e760-7bc1-44f2-9c28-c46bcb167ad6","ios":"levelo://app?vid=ff54e760-7bc1-44f2-9c28-c46bcb167ad6"},"vehicle_type_id":"4","last_reported":1678464629,"current_range_meters":21200,"station_id":"ce4bh492rcd13ifvqdvg","pricing_plan_id":"free"},{"bike_id":"c56d1169-9a58-4516-b6fe-dc21ee1ac6b6","system_id":"levelo_inurba_marseille","lat":43.28267,"lon":5.35061,"is_reserved":false,"is_disabled":false,"rental_uris":{"android":"levelo://app?vid=c56d1169-9a58-4516-b6fe-dc21ee1ac6b6","ios":"levelo://app?vid=c56d1169-9a58-4516-b6fe-dc21ee1ac6b6"},"vehicle_type_id":"4","last_reported":1678464629,"current_range_meters":9200,"station_id":"ce4bhbp2rcd13ifvqerg","pricing_plan_id":"free"},{"bike_id":"9a64719f-cc3d-4703-8ca5-c6e1ec404ecb","system_id":"levelo_inurba_marseille","lat":43.28039,"lon":5.369297,"is_reserved":false,"is_disabled":false,"rental_uris":{"android":"levelo://app?vid=9a64719f-cc3d-4703-8ca5-c6e1ec404ecb","ios":"levelo://app?vid=9a64719f-cc3d-4703-8ca5-c6e1ec404ecb"},"vehicle_type_id":"4","last_reported":1678464629,"current_range_meters":400,"station_id":"ce4bha12rcd13ifvqef0","pricing_plan_id":"free"},{"bike_id":"e4cd600b-c953-4dbf-b77c-fa1afff7c460","system_id":"levelo_inurba_marseille","lat":43.283601,"lon":5.386426,"is_reserved":false,"is_disabled":false,"rental_uris":{"android":"levelo://app?vid=e4cd600b-c953-4dbf-b77c-fa1afff7c460","ios":"levelo://app?vid=e4cd600b-c953-4dbf-b77c-fa1afff7c460"},"vehicle_type_id":"4","last_reported":1678464629,"current_range_meters":0,"station_id":"","pricing_plan_id":"free"},{"bike_id":"7d49153f-5a12-421e-8fc5-da806ba2bb39","system_id":"levelo_inurba_marseille","lat":43.283502,"lon":5.386471,"is_reserved":false,"is_disabled":false,"rental_uris":{"android":"levelo://app?vid=7d49153f-5a12-421e-8fc5-da806ba2bb39","ios":"levelo://app?vid=7d49153f-5a12-421e-8fc5-da806ba2bb39"},"vehicle_type_id":"4","last_reported":1678464629,"current_range_meters":800,"station_id":"ce4bh492rcd13ifvqdvg","pricing_plan_id":"free"},{"bike_id":"b0affe51-4001-4016-b820-4b6e0d427d18","system_id":"levelo_inurba_marseille","lat":43.28039,"lon":5.369297,"is_reserved":false,"is_disabled":false,"rental_uris":{"android":"levelo://app?vid=b0affe51-4001-4016-b820-4b6e0d427d18","ios":"levelo://app?vid=b0affe51-4001-4016-b820-4b6e0d427d18"},"vehicle_type_id":"4","last_reported":1678464629,"current_range_meters":23200,"station_id":"ce4bha12rcd13ifvqef0","pricing_plan_id":"free"},{"bike_id":"272da31f-02b8-4aba-88ae-3ede397dc6e0","system_id":"levelo_inurba_marseille","lat":43.283502,"lon":5.386471,"is_reserved":false,"is_disabled":false,"rental_uris":{"android":"levelo://app?vid=272da31f-02b8-4aba-88ae-3ede397dc6e0","ios":"levelo://app?vid=272da31f-02b8-4aba-88ae-3ede397dc6e0"},"vehicle_type_id":"4","last_reported":1678464629,"current_range_meters":12000,"station_id":"ce4bh492rcd13ifvqdvg","pricing_plan_id":"free"},{"bike_id":"c2688f60-9379-44e6-8f5b-65c41a793e4c","system_id":"levelo_inurba_marseille","lat":43.304188,"lon":5.412904,"is_reserved":false,"is_disabled":false,"rental_uris":{"android":"levelo://app?vid=c2688f60-9379-44e6-8f5b-65c41a793e4c","ios":"levelo://app?vid=c2688f60-9379-44e6-8f5b-65c41a793e4c"},"vehicle_type_id":"4","last_reported":1678464629,"current_range_meters":26800,"station_id":"ce4bhop2rcd13ifvqh8g","pricing_plan_id":"free"},{"bike_id":"dcf321d9-923a-46b4-8362-22afb5850ec4","system_id":"levelo_inurba_marseille","lat":43.32827,"lon":5.40955,"is_reserved":false,"is_disabled":false,"rental_uris":{"android":"levelo://app?vid=dcf321d9-923a-46b4-8362-22afb5850ec4","ios":"levelo://app?vid=dcf321d9-923a-46b4-8362-22afb5850ec4"},"vehicle_type_id":"4","last_reported":1678464629,"current_range_meters":0,"station_id":"","pricing_plan_id":"free"},{"bike_id":"d38d1e9c-92fb-4df9-a19c-f36d1772f744","system_id":"levelo_inurba_marseille","lat":43.287161,"lon":5.399908,"is_reserved":false,"is_disabled":false,"rental_uris":{"android":"levelo://app?vid=d38d1e9c-92fb-4df9-a19c-f36d1772f744","ios":"levelo://app?vid=d38d1e9c-92fb-4df9-a19c-f36d1772f744"},"vehicle_type_id":"4","last_reported":1678464629,"current_range_meters":0,"station_id":"","pricing_plan_id":"free"},{"bike_id":"502776a3-707e-4750-bfa4-019f76760bce","system_id":"levelo_inurba_marseille","lat":43.292653,"lon":5.409133,"is_reserved":false,"is_disabled":false,"rental_uris":{"android":"levelo://app?vid=502776a3-707e-4750-bfa4-019f76760bce","ios":"levelo://app?vid=502776a3-707e-4750-bfa4-019f76760bce"},"vehicle_type_id":"4","last_reported":1678464629,"current_range_meters":1600,"station_id":"ce4bh192rcd13ifvqdc0","pricing_plan_id":"free"},{"bike_id":"56dfb3d4-c66a-4987-801f-014a258a5da4","system_id":"levelo_inurba_marseille","lat":43.325243,"lon":5.414326,"is_reserved":false,"is_disabled":false,"rental_uris":{"android":"levelo://app?vid=56dfb3d4-c66a-4987-801f-014a258a5da4","ios":"levelo://app?vid=56dfb3d4-c66a-4987-801f-014a258a5da4"},"vehicle_type_id":"4","last_reported":1678464629,"current_range_meters":2400,"station_id":"ce4bhq12rcd13ifvqhhg","pricing_plan_id":"free"},{"bike_id":"2c32d741-8660-4339-9cb2-712865b7d142","system_id":"levelo_inurba_marseille","lat":43.27618,"lon":5.361009,"is_reserved":false,"is_disabled":false,"rental_uris":{"android":"levelo://app?vid=2c32d741-8660-4339-9cb2-712865b7d142","ios":"levelo://app?vid=2c32d741-8660-4339-9cb2-712865b7d142"},"vehicle_type_id":"4","last_reported":1678464629,"current_range_meters":27200,"station_id":"ce4bgj92rcd13ifvqbe0","pricing_plan_id":"free"},{"bike_id":"37cab8fd-5d22-4492-9754-03a41c8ca737","system_id":"levelo_inurba_marseille","lat":43.273613,"lon":5.362705,"is_reserved":false,"is_disabled":false,"rental_uris":{"android":"levelo://app?vid=37cab8fd-5d22-4492-9754-03a41c8ca737","ios":"levelo://app?vid=37cab8fd-5d22-4492-9754-03a41c8ca737"},"vehicle_type_id":"4","last_reported":1678464629,"current_range_meters":13200,"station_id":"ce4bhbh2rcd13ifvqeo0","pricing_plan_id":"free"},{"bike_id":"53bbd98e-c567-4dd3-9ad5-c6dab31a14f6","system_id":"levelo_inurba_marseille","lat":43.27378,"lon":5.36247,"is_reserved":false,"is_disabled":false,"rental_uris":{"android":"levelo://app?vid=53bbd98e-c567-4dd3-9ad5-c6dab31a14f6","ios":"levelo://app?vid=53bbd98e-c567-4dd3-9ad5-c6dab31a14f6"},"vehicle_type_id":"4","last_reported":1678464629,"current_range_meters":0,"station_id":"ce4bhbh2rcd13ifvqeo0","pricing_plan_id":"free"},{"bike_id":"6e6f4778-a6cb-4e3f-9a42-579edc472597","system_id":"levelo_inurba_marseille","lat":43.317121,"lon":5.423936,"is_reserved":false,"is_disabled":false,"rental_uris":{"android":"levelo://app?vid=6e6f4778-a6cb-4e3f-9a42-579edc472597","ios":"levelo://app?vid=6e6f4778-a6cb-4e3f-9a42-579edc472597"},"vehicle_type_id":"4","last_reported":1678464629,"current_range_meters":0,"station_id":"ce4bhp92rcd13ifvqhbg","pricing_plan_id":"free"},{"bike_id":"572cdfc3-93f7-4094-bc17-355fefabf657","system_id":"levelo_inurba_marseille","lat":43.273125,"lon":5.390731,"is_reserved":false,"is_disabled":false,"rental_uris":{"android":"levelo://app?vid=572cdfc3-93f7-4094-bc17-355fefabf657","ios":"levelo://app?vid=572cdfc3-93f7-4094-bc17-355fefabf657"},"vehicle_type_id":"4","last_reported":1678464629,"current_range_meters":0,"station_id":"ce4bhgp2rcd13ifvqfe0","pricing_plan_id":"free"},{"bike_id":"b39a6728-5423-454b-bf59-061dcaa79cd9","system_id":"levelo_inurba_marseille","lat":43.273125,"lon":5.390731,"is_reserved":false,"is_disabled":false,"rental_uris":{"android":"levelo://app?vid=b39a6728-5423-454b-bf59-061dcaa79cd9","ios":"levelo://app?vid=b39a6728-5423-454b-bf59-061dcaa79cd9"},"vehicle_type_id":"4","last_reported":1678464629,"current_range_meters":8400,"station_id":"ce4bhgp2rcd13ifvqfe0","pricing_plan_id":"free"},{"bike_id":"181d45dc-b54b-4476-b493-38fdd62e3e66","system_id":"levelo_inurba_marseille","lat":43.27421,"lon":5.39414,"is_reserved":false,"is_disabled":false,"rental_uris":{"android":"levelo://app?vid=181d45dc-b54b-4476-b493-38fdd62e3e66","ios":"levelo://app?vid=181d45dc-b54b-4476-b493-38fdd62e3e66"},"vehicle_type_id":"4","last_reported":1678464629,"current_range_meters":0,"station_id":"","pricing_plan_id":"free"},{"bike_id":"cde88d5c-2bc6-416c-9380-ef420b33a708","system_id":"levelo_inurba_marseille","lat":43.304096,"lon":5.425385,"is_reserved":false,"is_disabled":false,"rental_uris":{"android":"levelo://app?vid=cde88d5c-2bc6-416c-9380-ef420b33a708","ios":"levelo://app?vid=cde88d5c-2bc6-416c-9380-ef420b33a708"},"vehicle_type_id":"4","last_reported":1678464629,"current_range_meters":8400,"station_id":"ce4bhoh2rcd13ifvqh6g","pricing_plan_id":"free"},{"bike_id":"020eba2f-d1a4-4d45-824e-0f34fcc7b33f","system_id":"levelo_inurba_marseille","lat":43.304212,"lon":5.425682,"is_reserved":false,"is_disabled":false,"rental_uris":{"android":"levelo://app?vid=020eba2f-d1a4-4d45-824e-0f34fcc7b33f","ios":"levelo://app?vid=020eba2f-d1a4-4d45-824e-0f34fcc7b33f"},"vehicle_type_id":"4","last_reported":1678464629,"current_range_meters":0,"station_id":"","pricing_plan_id":"free"},{"bike_id":"b449f061-6194-451b-8d57-573a180b1e6e","system_id":"levelo_inurba_marseille","lat":43.26556,"lon":5.37292,"is_reserved":false,"is_disabled":false,"rental_uris":{"android":"levelo://app?vid=b449f061-6194-451b-8d57-573a180b1e6e","ios":"levelo://app?vid=b449f061-6194-451b-8d57-573a180b1e6e"},"vehicle_type_id":"4","last_reported":1678464629,"current_range_meters":0,"station_id":"ce4bhg12rcd13ifvqf70","pricing_plan_id":"free"},{"bike_id":"8a1d3c65-7d4a-43c1-aff0-0a684df51618","system_id":"levelo_inurba_marseille","lat":43.27996,"lon":5.416624,"is_reserved":false,"is_disabled":false,"rental_uris":{"android":"levelo://app?vid=8a1d3c65-7d4a-43c1-aff0-0a684df51618","ios":"levelo://app?vid=8a1d3c65-7d4a-43c1-aff0-0a684df51618"},"vehicle_type_id":"4","last_reported":1678464629,"current_range_meters":22000,"station_id":"ce4bho12rcd13ifvqh1g","pricing_plan_id":"free"},{"bike_id":"ac6ffa02-104f-4eee-ba53-5289d718f820","system_id":"levelo_inurba_marseille","lat":43.27996,"lon":5.416624,"is_reserved":false,"is_disabled":false,"rental_uris":{"android":"levelo://app?vid=ac6ffa02-104f-4eee-ba53-5289d718f820","ios":"levelo://app?vid=ac6ffa02-104f-4eee-ba53-5289d718f820"},"vehicle_type_id":"4","last_reported":1678464629,"current_range_meters":5200,"station_id":"ce4bho12rcd13ifvqh1g","pricing_plan_id":"free"},{"bike_id":"dd240197-9d85-4a66-b042-1a3890e00fd0","system_id":"levelo_inurba_marseille","lat":43.317121,"lon":5.423936,"is_reserved":false,"is_disabled":false,"rental_uris":{"android":"levelo://app?vid=dd240197-9d85-4a66-b042-1a3890e00fd0","ios":"levelo://app?vid=dd240197-9d85-4a66-b042-1a3890e00fd0"},"vehicle_type_id":"4","last_reported":1678464629,"current_range_meters":2400,"station_id":"ce4bhp92rcd13ifvqhbg","pricing_plan_id":"free"},{"bike_id":"c72614bd-d537-4212-9467-c98fe3cae866","system_id":"levelo_inurba_marseille","lat":43.317104,"lon":5.436818,"is_reserved":false,"is_disabled":false,"rental_uris":{"android":"levelo://app?vid=c72614bd-d537-4212-9467-c98fe3cae866","ios":"levelo://app?vid=c72614bd-d537-4212-9467-c98fe3cae866"},"vehicle_type_id":"4","last_reported":1678464629,"current_range_meters":10800,"station_id":"ce4bhp92rcd13ifvqhcg","pricing_plan_id":"free"},{"bike_id":"d7d806ee-4a36-4409-94d2-ca8e8958d13d","system_id":"levelo_inurba_marseille","lat":43.26202,"lon":5.379299,"is_reserved":false,"is_disabled":false,"rental_uris":{"android":"levelo://app?vid=d7d806ee-4a36-4409-94d2-ca8e8958d13d","ios":"levelo://app?vid=d7d806ee-4a36-4409-94d2-ca8e8958d13d"},"vehicle_type_id":"4","last_reported":1678464629,"current_range_meters":18400,"station_id":"ce4bhjp2rcd13ifvqg90","pricing_plan_id":"free"},{"bike_id":"b48c449c-861c-4bd0-bf46-57fdb2184929","system_id":"levelo_inurba_marseille","lat":43.27196,"lon":5.418887,"is_reserved":false,"is_disabled":false,"rental_uris":{"android":"levelo://app?vid=b48c449c-861c-4bd0-bf46-57fdb2184929","ios":"levelo://app?vid=b48c449c-861c-4bd0-bf46-57fdb2184929"},"vehicle_type_id":"4","last_reported":1678464629,"current_range_meters":10000,"station_id":"","pricing_plan_id":"free"},{"bike_id":"6d55a067-b855-43ee-a8ce-c2f843dea9fd","system_id":"levelo_inurba_marseille","lat":43.29355,"lon":5.43876,"is_reserved":false,"is_disabled":false,"rental_uris":{"android":"levelo://app?vid=6d55a067-b855-43ee-a8ce-c2f843dea9fd","ios":"levelo://app?vid=6d55a067-b855-43ee-a8ce-c2f843dea9fd"},"vehicle_type_id":"4","last_reported":1678464629,"current_range_meters":0,"station_id":"","pricing_plan_id":"free"},{"bike_id":"93e07bbe-60f4-4c2f-95f5-da4c4edee261","system_id":"levelo_inurba_marseille","lat":43.260589,"lon":5.394275,"is_reserved":false,"is_disabled":false,"rental_uris":{"android":"levelo://app?vid=93e07bbe-60f4-4c2f-95f5-da4c4edee261","ios":"levelo://app?vid=93e07bbe-60f4-4c2f-95f5-da4c4edee261"},"vehicle_type_id":"4","last_reported":1678464629,"current_range_meters":3600,"station_id":"ce4bhh92rcd13ifvqfj0","pricing_plan_id":"free"},{"bike_id":"2f5cc465-46c9-4039-85bc-b5bd15a6c233","system_id":"levelo_inurba_marseille","lat":43.26094,"lon":5.39767,"is_reserved":false,"is_disabled":false,"rental_uris":{"android":"levelo://app?vid=2f5cc465-46c9-4039-85bc-b5bd15a6c233","ios":"levelo://app?vid=2f5cc465-46c9-4039-85bc-b5bd15a6c233"},"vehicle_type_id":"4","last_reported":1678464629,"current_range_meters":0,"station_id":"ce4bhi12rcd13ifvqfq0","pricing_plan_id":"free"},{"bike_id":"7026abb9-f439-4739-afaf-61f3282d35a4","system_id":"levelo_inurba_marseille","lat":43.255756,"lon":5.382303,"is_reserved":false,"is_disabled":false,"rental_uris":{"android":"levelo://app?vid=7026abb9-f439-4739-afaf-61f3282d35a4","ios":"levelo://app?vid=7026abb9-f439-4739-afaf-61f3282d35a4"},"vehicle_type_id":"4","last_reported":1678464629,"current_range_meters":31600,"station_id":"ce4bhih2rcd13ifvqfs0","pricing_plan_id":"free"},{"bike_id":"21062da1-1d33-42ae-adf3-d76da9ded757","system_id":"levelo_inurba_marseille","lat":43.2558,"lon":5.3824,"is_reserved":false,"is_disabled":false,"rental_uris":{"android":"levelo://app?vid=21062da1-1d33-42ae-adf3-d76da9ded757","ios":"levelo://app?vid=21062da1-1d33-42ae-adf3-d76da9ded757"},"vehicle_type_id":"4","last_reported":1678464629,"current_range_meters":17600,"station_id":"ce4bhih2rcd13ifvqfs0","pricing_plan_id":"free"},{"bike_id":"46b7a67c-838c-4f81-89b3-72debb8b28cd","system_id":"levelo_inurba_marseille","lat":43.2551,"lon":5.37648,"is_reserved":false,"is_disabled":false,"rental_uris":{"android":"levelo://app?vid=46b7a67c-838c-4f81-89b3-72debb8b28cd","ios":"levelo://app?vid=46b7a67c-838c-4f81-89b3-72debb8b28cd"},"vehicle_type_id":"4","last_reported":1678464629,"current_range_meters":3600,"station_id":"","pricing_plan_id":"free"},{"bike_id":"175fa1bb-91ad-463b-b8aa-f2722a65e8a0","system_id":"levelo_inurba_marseille","lat":43.25501,"lon":5.37658,"is_reserved":false,"is_disabled":false,"rental_uris":{"android":"levelo://app?vid=175fa1bb-91ad-463b-b8aa-f2722a65e8a0","ios":"levelo://app?vid=175fa1bb-91ad-463b-b8aa-f2722a65e8a0"},"vehicle_type_id":"4","last_reported":1678464629,"current_range_meters":19200,"station_id":"","pricing_plan_id":"free"},{"bike_id":"1d1cb3ab-8ee3-46b7-9fb0-25a09284b481","system_id":"levelo_inurba_marseille","lat":43.254917,"lon":5.376503,"is_reserved":false,"is_disabled":false,"rental_uris":{"android":"levelo://app?vid=1d1cb3ab-8ee3-46b7-9fb0-25a09284b481","ios":"levelo://app?vid=1d1cb3ab-8ee3-46b7-9fb0-25a09284b481"},"vehicle_type_id":"4","last_reported":1678464629,"current_range_meters":29600,"station_id":"","pricing_plan_id":"free"},{"bike_id":"7339123c-646c-431f-8396-0c823126a650","system_id":"levelo_inurba_marseille","lat":43.2549,"lon":5.37653,"is_reserved":false,"is_disabled":false,"rental_uris":{"android":"levelo://app?vid=7339123c-646c-431f-8396-0c823126a650","ios":"levelo://app?vid=7339123c-646c-431f-8396-0c823126a650"},"vehicle_type_id":"4","last_reported":1678464629,"current_range_meters":9200,"station_id":"","pricing_plan_id":"free"},{"bike_id":"e009a599-27d7-414b-ac54-231451837cd5","system_id":"levelo_inurba_marseille","lat":43.270721,"lon":5.422764,"is_reserved":false,"is_disabled":false,"rental_uris":{"android":"levelo://app?vid=e009a599-27d7-414b-ac54-231451837cd5","ios":"levelo://app?vid=e009a599-27d7-414b-ac54-231451837cd5"},"vehicle_type_id":"4","last_reported":1678464629,"current_range_meters":10400,"station_id":"ce4bhk92rcd13ifvqgb0","pricing_plan_id":"free"},{"bike_id":"bb140a87-464f-4c71-a55b-e9bda5dd2d8f","system_id":"levelo_inurba_marseille","lat":43.270717,"lon":5.422903,"is_reserved":false,"is_disabled":false,"rental_uris":{"android":"levelo://app?vid=bb140a87-464f-4c71-a55b-e9bda5dd2d8f","ios":"levelo://app?vid=bb140a87-464f-4c71-a55b-e9bda5dd2d8f"},"vehicle_type_id":"4","last_reported":1678464629,"current_range_meters":3600,"station_id":"ce4bhk92rcd13ifvqgb0","pricing_plan_id":"free"},{"bike_id":"e9250a16-7cfd-4439-b937-6337271d3665","system_id":"levelo_inurba_marseille","lat":43.250023,"lon":5.38919,"is_reserved":false,"is_disabled":false,"rental_uris":{"android":"levelo://app?vid=e9250a16-7cfd-4439-b937-6337271d3665","ios":"levelo://app?vid=e9250a16-7cfd-4439-b937-6337271d3665"},"vehicle_type_id":"4","last_reported":1678464629,"current_range_meters":26000,"station_id":"ce4bhgp2rcd13ifvqfd0","pricing_plan_id":"free"},{"bike_id":"e8fc37a3-cdb7-42e5-9a4c-9fc004b7c5eb","system_id":"levelo_inurba_marseille","lat":43.250023,"lon":5.38919,"is_reserved":false,"is_disabled":false,"rental_uris":{"android":"levelo://app?vid=e8fc37a3-cdb7-42e5-9a4c-9fc004b7c5eb","ios":"levelo://app?vid=e8fc37a3-cdb7-42e5-9a4c-9fc004b7c5eb"},"vehicle_type_id":"4","last_reported":1678464629,"current_range_meters":2800,"station_id":"ce4bhgp2rcd13ifvqfd0","pricing_plan_id":"free"},{"bike_id":"62cb85a4-78ae-4b0b-a589-46c66d1287c0","system_id":"levelo_inurba_marseille","lat":43.250009,"lon":5.389195,"is_reserved":false,"is_disabled":false,"rental_uris":{"android":"levelo://app?vid=62cb85a4-78ae-4b0b-a589-46c66d1287c0","ios":"levelo://app?vid=62cb85a4-78ae-4b0b-a589-46c66d1287c0"},"vehicle_type_id":"4","last_reported":1678464629,"current_range_meters":22400,"station_id":"ce4bhgp2rcd13ifvqfd0","pricing_plan_id":"free"},{"bike_id":"28aa8d83-017f-4260-8ae2-90946de024f2","system_id":"levelo_inurba_marseille","lat":43.250009,"lon":5.389195,"is_reserved":false,"is_disabled":false,"rental_uris":{"android":"levelo://app?vid=28aa8d83-017f-4260-8ae2-90946de024f2","ios":"levelo://app?vid=28aa8d83-017f-4260-8ae2-90946de024f2"},"vehicle_type_id":"4","last_reported":1678464629,"current_range_meters":26000,"station_id":"ce4bhgp2rcd13ifvqfd0","pricing_plan_id":"free"},{"bike_id":"088861c7-b484-4cd2-92ad-f7ba17008365","system_id":"levelo_inurba_marseille","lat":43.250023,"lon":5.38919,"is_reserved":false,"is_disabled":false,"rental_uris":{"android":"levelo://app?vid=088861c7-b484-4cd2-92ad-f7ba17008365","ios":"levelo://app?vid=088861c7-b484-4cd2-92ad-f7ba17008365"},"vehicle_type_id":"4","last_reported":1678464629,"current_range_meters":9600,"station_id":"ce4bhgp2rcd13ifvqfd0","pricing_plan_id":"free"},{"bike_id":"c6234211-b770-49e1-b2fa-c622a0d5b6a7","system_id":"levelo_inurba_marseille","lat":43.250023,"lon":5.38919,"is_reserved":false,"is_disabled":false,"rental_uris":{"android":"levelo://app?vid=c6234211-b770-49e1-b2fa-c622a0d5b6a7","ios":"levelo://app?vid=c6234211-b770-49e1-b2fa-c622a0d5b6a7"},"vehicle_type_id":"4","last_reported":1678464629,"current_range_meters":14000,"station_id":"ce4bhgp2rcd13ifvqfd0","pricing_plan_id":"free"},{"bike_id":"01e53ba9-1573-47e1-bd7f-d8426e98d8fd","system_id":"levelo_inurba_marseille","lat":43.250009,"lon":5.389195,"is_reserved":false,"is_disabled":false,"rental_uris":{"android":"levelo://app?vid=01e53ba9-1573-47e1-bd7f-d8426e98d8fd","ios":"levelo://app?vid=01e53ba9-1573-47e1-bd7f-d8426e98d8fd"},"vehicle_type_id":"4","last_reported":1678464629,"current_range_meters":4000,"station_id":"ce4bhgp2rcd13ifvqfd0","pricing_plan_id":"free"},{"bike_id":"676d9f20-bf37-4ef4-baa8-ca9c91160409","system_id":"levelo_inurba_marseille","lat":43.25001,"lon":5.38941,"is_reserved":false,"is_disabled":false,"rental_uris":{"android":"levelo://app?vid=676d9f20-bf37-4ef4-baa8-ca9c91160409","ios":"levelo://app?vid=676d9f20-bf37-4ef4-baa8-ca9c91160409"},"vehicle_type_id":"4","last_reported":1678464629,"current_range_meters":14000,"station_id":"","pricing_plan_id":"free"},{"bike_id":"22e8de1c-0ee0-4502-9f23-1aea100fc1c5","system_id":"levelo_inurba_marseille","lat":43.24814,"lon":5.3746,"is_reserved":false,"is_disabled":false,"rental_uris":{"android":"levelo://app?vid=22e8de1c-0ee0-4502-9f23-1aea100fc1c5","ios":"levelo://app?vid=22e8de1c-0ee0-4502-9f23-1aea100fc1c5"},"vehicle_type_id":"4","last_reported":1678464629,"current_range_meters":23600,"station_id":"ce4bhgh2rcd13ifvqfb0","pricing_plan_id":"free"},{"bike_id":"f552b96c-7238-4b1a-a4fc-fe8e13113cec","system_id":"levelo_inurba_marseille","lat":43.24998,"lon":5.38933,"is_reserved":false,"is_disabled":false,"rental_uris":{"android":"levelo://app?vid=f552b96c-7238-4b1a-a4fc-fe8e13113cec","ios":"levelo://app?vid=f552b96c-7238-4b1a-a4fc-fe8e13113cec"},"vehicle_type_id":"4","last_reported":1678464629,"current_range_meters":26000,"station_id":"ce4bhgp2rcd13ifvqfd0","pricing_plan_id":"free"},{"bike_id":"812081bb-33d3-4f91-bee3-c82199e8acda","system_id":"levelo_inurba_marseille","lat":43.249973,"lon":5.389359,"is_reserved":false,"is_disabled":false,"rental_uris":{"android":"levelo://app?vid=812081bb-33d3-4f91-bee3-c82199e8acda","ios":"levelo://app?vid=812081bb-33d3-4f91-bee3-c82199e8acda"},"vehicle_type_id":"4","last_reported":1678464629,"current_range_meters":0,"station_id":"","pricing_plan_id":"free"},{"bike_id":"9d9abfdc-5713-4fa4-bf1d-0de95ee51348","system_id":"levelo_inurba_marseille","lat":43.249983,"lon":5.389433,"is_reserved":false,"is_disabled":false,"rental_uris":{"android":"levelo://app?vid=9d9abfdc-5713-4fa4-bf1d-0de95ee51348","ios":"levelo://app?vid=9d9abfdc-5713-4fa4-bf1d-0de95ee51348"},"vehicle_type_id":"4","last_reported":1678464629,"current_range_meters":22400,"station_id":"","pricing_plan_id":"free"},{"bike_id":"cae41404-d13e-4765-bd16-79ea85eea414","system_id":"levelo_inurba_marseille","lat":43.24997,"lon":5.38946,"is_reserved":false,"is_disabled":false,"rental_uris":{"android":"levelo://app?vid=cae41404-d13e-4765-bd16-79ea85eea414","ios":"levelo://app?vid=cae41404-d13e-4765-bd16-79ea85eea414"},"vehicle_type_id":"4","last_reported":1678464629,"current_range_meters":0,"station_id":"ce4bhgp2rcd13ifvqfd0","pricing_plan_id":"free"},{"bike_id":"9d2dabb0-a32b-445b-a24c-96c8e474ad07","system_id":"levelo_inurba_marseille","lat":43.249948,"lon":5.389378,"is_reserved":false,"is_disabled":false,"rental_uris":{"android":"levelo://app?vid=9d2dabb0-a32b-445b-a24c-96c8e474ad07","ios":"levelo://app?vid=9d2dabb0-a32b-445b-a24c-96c8e474ad07"},"vehicle_type_id":"4","last_reported":1678464629,"current_range_meters":0,"station_id":"","pricing_plan_id":"free"},{"bike_id":"2f1a0692-f8a9-42e8-8ef6-dc80ab215c57","system_id":"levelo_inurba_marseille","lat":43.249942,"lon":5.389382,"is_reserved":false,"is_disabled":false,"rental_uris":{"android":"levelo://app?vid=2f1a0692-f8a9-42e8-8ef6-dc80ab215c57","ios":"levelo://app?vid=2f1a0692-f8a9-42e8-8ef6-dc80ab215c57"},"vehicle_type_id":"4","last_reported":1678464629,"current_range_meters":24000,"station_id":"ce4bhgp2rcd13ifvqfd0","pricing_plan_id":"free"},{"bike_id":"83ae41bb-35ce-40a9-9ec4-db1eb9cab162","system_id":"levelo_inurba_marseille","lat":43.2479,"lon":5.374457,"is_reserved":false,"is_disabled":false,"rental_uris":{"android":"levelo://app?vid=83ae41bb-35ce-40a9-9ec4-db1eb9cab162","ios":"levelo://app?vid=83ae41bb-35ce-40a9-9ec4-db1eb9cab162"},"vehicle_type_id":"4","last_reported":1678464629,"current_range_meters":31600,"station_id":"ce4bhgh2rcd13ifvqfb0","pricing_plan_id":"free"},{"bike_id":"2177d497-6e2e-46e1-8093-ed12bc91f4a2","system_id":"levelo_inurba_marseille","lat":43.2479,"lon":5.374457,"is_reserved":false,"is_disabled":false,"rental_uris":{"android":"levelo://app?vid=2177d497-6e2e-46e1-8093-ed12bc91f4a2","ios":"levelo://app?vid=2177d497-6e2e-46e1-8093-ed12bc91f4a2"},"vehicle_type_id":"4","last_reported":1678464629,"current_range_meters":2800,"station_id":"ce4bhgh2rcd13ifvqfb0","pricing_plan_id":"free"},{"bike_id":"1305b44c-ed00-41bd-999b-f01048ad2fe7","system_id":"levelo_inurba_marseille","lat":43.2479,"lon":5.374457,"is_reserved":false,"is_disabled":false,"rental_uris":{"android":"levelo://app?vid=1305b44c-ed00-41bd-999b-f01048ad2fe7","ios":"levelo://app?vid=1305b44c-ed00-41bd-999b-f01048ad2fe7"},"vehicle_type_id":"4","last_reported":1678464629,"current_range_meters":6000,"station_id":"ce4bhgh2rcd13ifvqfb0","pricing_plan_id":"free"},{"bike_id":"5e559609-a523-4f6d-86d2-52e58e336f51","system_id":"levelo_inurba_marseille","lat":43.2479,"lon":5.374457,"is_reserved":false,"is_disabled":false,"rental_uris":{"android":"levelo://app?vid=5e559609-a523-4f6d-86d2-52e58e336f51","ios":"levelo://app?vid=5e559609-a523-4f6d-86d2-52e58e336f51"},"vehicle_type_id":"4","last_reported":1678464629,"current_range_meters":0,"station_id":"ce4bhgh2rcd13ifvqfb0","pricing_plan_id":"free"},{"bike_id":"5cbd8f34-355b-44ad-aa29-de44df22d104","system_id":"levelo_inurba_marseille","lat":43.250966,"lon":5.395186,"is_reserved":false,"is_disabled":false,"rental_uris":{"android":"levelo://app?vid=5cbd8f34-355b-44ad-aa29-de44df22d104","ios":"levelo://app?vid=5cbd8f34-355b-44ad-aa29-de44df22d104"},"vehicle_type_id":"4","last_reported":1678464629,"current_range_meters":25200,"station_id":"ce4bhm12rcd13ifvqgkg","pricing_plan_id":"free"},{"bike_id":"d3194b6f-aefc-4c70-b05c-9e6f90423a60","system_id":"levelo_inurba_marseille","lat":43.250966,"lon":5.395186,"is_reserved":false,"is_disabled":false,"rental_uris":{"android":"levelo://app?vid=d3194b6f-aefc-4c70-b05c-9e6f90423a60","ios":"levelo://app?vid=d3194b6f-aefc-4c70-b05c-9e6f90423a60"},"vehicle_type_id":"4","last_reported":1678464629,"current_range_meters":26800,"station_id":"ce4bhm12rcd13ifvqgkg","pricing_plan_id":"free"},{"bike_id":"28074a19-fee2-44de-b623-f48e7575760b","system_id":"levelo_inurba_marseille","lat":43.250966,"lon":5.395186,"is_reserved":false,"is_disabled":false,"rental_uris":{"android":"levelo://app?vid=28074a19-fee2-44de-b623-f48e7575760b","ios":"levelo://app?vid=28074a19-fee2-44de-b623-f48e7575760b"},"vehicle_type_id":"4","last_reported":1678464629,"current_range_meters":27200,"station_id":"ce4bhm12rcd13ifvqgkg","pricing_plan_id":"free"},{"bike_id":"51926c92-8b08-4d76-96d0-74427478acdb","system_id":"levelo_inurba_marseille","lat":43.250966,"lon":5.395186,"is_reserved":false,"is_disabled":false,"rental_uris":{"android":"levelo://app?vid=51926c92-8b08-4d76-96d0-74427478acdb","ios":"levelo://app?vid=51926c92-8b08-4d76-96d0-74427478acdb"},"vehicle_type_id":"4","last_reported":1678464629,"current_range_meters":0,"station_id":"ce4bhm12rcd13ifvqgkg","pricing_plan_id":"free"},{"bike_id":"5f5bd438-b7c8-416f-8246-2e016f38de93","system_id":"levelo_inurba_marseille","lat":43.25102,"lon":5.403214,"is_reserved":false,"is_disabled":false,"rental_uris":{"android":"levelo://app?vid=5f5bd438-b7c8-416f-8246-2e016f38de93","ios":"levelo://app?vid=5f5bd438-b7c8-416f-8246-2e016f38de93"},"vehicle_type_id":"4","last_reported":1678464629,"current_range_meters":2400,"station_id":"ce4bhlh2rcd13ifvqgig","pricing_plan_id":"free"},{"bike_id":"caa90a19-1828-45ac-8293-b350e38fd69d","system_id":"levelo_inurba_marseille","lat":43.25102,"lon":5.403214,"is_reserved":false,"is_disabled":false,"rental_uris":{"android":"levelo://app?vid=caa90a19-1828-45ac-8293-b350e38fd69d","ios":"levelo://app?vid=caa90a19-1828-45ac-8293-b350e38fd69d"},"vehicle_type_id":"4","last_reported":1678464629,"current_range_meters":30400,"station_id":"ce4bhlh2rcd13ifvqgig","pricing_plan_id":"free"},{"bike_id":"8bc40a1f-42ca-48af-b2a3-b2ca7cf20989","system_id":"levelo_inurba_marseille","lat":43.25102,"lon":5.403214,"is_reserved":false,"is_disabled":false,"rental_uris":{"android":"levelo://app?vid=8bc40a1f-42ca-48af-b2a3-b2ca7cf20989","ios":"levelo://app?vid=8bc40a1f-42ca-48af-b2a3-b2ca7cf20989"},"vehicle_type_id":"4","last_reported":1678464629,"current_range_meters":26000,"station_id":"ce4bhlh2rcd13ifvqgig","pricing_plan_id":"free"},{"bike_id":"76af5885-fba7-4dae-b492-1215ad16ad72","system_id":"levelo_inurba_marseille","lat":43.25115,"lon":5.4033,"is_reserved":false,"is_disabled":false,"rental_uris":{"android":"levelo://app?vid=76af5885-fba7-4dae-b492-1215ad16ad72","ios":"levelo://app?vid=76af5885-fba7-4dae-b492-1215ad16ad72"},"vehicle_type_id":"4","last_reported":1678464629,"current_range_meters":23200,"station_id":"","pricing_plan_id":"free"},{"bike_id":"8959754c-307c-416f-9f41-5377c44da37f","system_id":"levelo_inurba_marseille","lat":43.25102,"lon":5.403214,"is_reserved":false,"is_disabled":false,"rental_uris":{"android":"levelo://app?vid=8959754c-307c-416f-9f41-5377c44da37f","ios":"levelo://app?vid=8959754c-307c-416f-9f41-5377c44da37f"},"vehicle_type_id":"4","last_reported":1678464629,"current_range_meters":10400,"station_id":"ce4bhlh2rcd13ifvqgig","pricing_plan_id":"free"},{"bike_id":"3eae085f-1dfd-46f3-8ada-7c2eeef8804f","system_id":"levelo_inurba_marseille","lat":43.251105,"lon":5.403225,"is_reserved":false,"is_disabled":false,"rental_uris":{"android":"levelo://app?vid=3eae085f-1dfd-46f3-8ada-7c2eeef8804f","ios":"levelo://app?vid=3eae085f-1dfd-46f3-8ada-7c2eeef8804f"},"vehicle_type_id":"4","last_reported":1678464629,"current_range_meters":22000,"station_id":"","pricing_plan_id":"free"},{"bike_id":"dbd70cd8-2b00-40c2-8f45-46209247171f","system_id":"levelo_inurba_marseille","lat":43.25102,"lon":5.403214,"is_reserved":false,"is_disabled":false,"rental_uris":{"android":"levelo://app?vid=dbd70cd8-2b00-40c2-8f45-46209247171f","ios":"levelo://app?vid=dbd70cd8-2b00-40c2-8f45-46209247171f"},"vehicle_type_id":"4","last_reported":1678464629,"current_range_meters":26400,"station_id":"ce4bhlh2rcd13ifvqgig","pricing_plan_id":"free"},{"bike_id":"01f9ef96-b6d3-4566-a19d-c385ca706025","system_id":"levelo_inurba_marseille","lat":43.25102,"lon":5.403214,"is_reserved":false,"is_disabled":false,"rental_uris":{"android":"levelo://app?vid=01f9ef96-b6d3-4566-a19d-c385ca706025","ios":"levelo://app?vid=01f9ef96-b6d3-4566-a19d-c385ca706025"},"vehicle_type_id":"4","last_reported":1678464629,"current_range_meters":13200,"station_id":"ce4bhlh2rcd13ifvqgig","pricing_plan_id":"free"},{"bike_id":"0fa523b6-3c41-407a-ae8b-b1dd574d202f","system_id":"levelo_inurba_marseille","lat":43.246521,"lon":5.388971,"is_reserved":false,"is_disabled":false,"rental_uris":{"android":"levelo://app?vid=0fa523b6-3c41-407a-ae8b-b1dd574d202f","ios":"levelo://app?vid=0fa523b6-3c41-407a-ae8b-b1dd574d202f"},"vehicle_type_id":"4","last_reported":1678464629,"current_range_meters":31600,"station_id":"","pricing_plan_id":"free"},{"bike_id":"92410bbf-cc7c-45e1-88e9-08cc22a715ff","system_id":"levelo_inurba_marseille","lat":43.231919,"lon":5.355532,"is_reserved":false,"is_disabled":false,"rental_uris":{"android":"levelo://app?vid=92410bbf-cc7c-45e1-88e9-08cc22a715ff","ios":"levelo://app?vid=92410bbf-cc7c-45e1-88e9-08cc22a715ff"},"vehicle_type_id":"4","last_reported":1678464629,"current_range_meters":29200,"station_id":"ce4bhu92rcd13ifvqi70","pricing_plan_id":"free"},{"bike_id":"af63223e-f657-4087-8198-3b026bed9e78","system_id":"levelo_inurba_marseille","lat":43.24393,"lon":5.37056,"is_reserved":false,"is_disabled":false,"rental_uris":{"android":"levelo://app?vid=af63223e-f657-4087-8198-3b026bed9e78","ios":"levelo://app?vid=af63223e-f657-4087-8198-3b026bed9e78"},"vehicle_type_id":"4","last_reported":1678464629,"current_range_meters":28800,"station_id":"","pricing_plan_id":"free"},{"bike_id":"991525f3-fd96-4730-b134-8198221790a1","system_id":"levelo_inurba_marseille","lat":43.243884,"lon":5.370736,"is_reserved":false,"is_disabled":false,"rental_uris":{"android":"levelo://app?vid=991525f3-fd96-4730-b134-8198221790a1","ios":"levelo://app?vid=991525f3-fd96-4730-b134-8198221790a1"},"vehicle_type_id":"4","last_reported":1678464629,"current_range_meters":31600,"station_id":"ce4bhhh2rcd13ifvqfk0","pricing_plan_id":"free"},{"bike_id":"49709392-7b5e-4238-afaa-72171f59a63f","system_id":"levelo_inurba_marseille","lat":43.24392,"lon":5.37059,"is_reserved":false,"is_disabled":false,"rental_uris":{"android":"levelo://app?vid=49709392-7b5e-4238-afaa-72171f59a63f","ios":"levelo://app?vid=49709392-7b5e-4238-afaa-72171f59a63f"},"vehicle_type_id":"4","last_reported":1678464629,"current_range_meters":16000,"station_id":"","pricing_plan_id":"free"},{"bike_id":"2172d2d6-354c-42f1-91c9-78e7d3c1916e","system_id":"levelo_inurba_marseille","lat":43.24392,"lon":5.3706,"is_reserved":false,"is_disabled":false,"rental_uris":{"android":"levelo://app?vid=2172d2d6-354c-42f1-91c9-78e7d3c1916e","ios":"levelo://app?vid=2172d2d6-354c-42f1-91c9-78e7d3c1916e"},"vehicle_type_id":"4","last_reported":1678464629,"current_range_meters":28400,"station_id":"","pricing_plan_id":"free"},{"bike_id":"00ed0e72-131e-4d4a-8a34-a003f8595dec","system_id":"levelo_inurba_marseille","lat":43.243884,"lon":5.370736,"is_reserved":false,"is_disabled":false,"rental_uris":{"android":"levelo://app?vid=00ed0e72-131e-4d4a-8a34-a003f8595dec","ios":"levelo://app?vid=00ed0e72-131e-4d4a-8a34-a003f8595dec"},"vehicle_type_id":"4","last_reported":1678464629,"current_range_meters":30400,"station_id":"ce4bhhh2rcd13ifvqfk0","pricing_plan_id":"free"},{"bike_id":"8c01fa65-500b-45af-a5e2-91aed2123a33","system_id":"levelo_inurba_marseille","lat":43.24391,"lon":5.37053,"is_reserved":false,"is_disabled":false,"rental_uris":{"android":"levelo://app?vid=8c01fa65-500b-45af-a5e2-91aed2123a33","ios":"levelo://app?vid=8c01fa65-500b-45af-a5e2-91aed2123a33"},"vehicle_type_id":"4","last_reported":1678464629,"current_range_meters":28000,"station_id":"","pricing_plan_id":"free"},{"bike_id":"ed4c04cb-202e-4eaf-a0f9-034d7ae1b179","system_id":"levelo_inurba_marseille","lat":43.24391,"lon":5.37054,"is_reserved":false,"is_disabled":false,"rental_uris":{"android":"levelo://app?vid=ed4c04cb-202e-4eaf-a0f9-034d7ae1b179","ios":"levelo://app?vid=ed4c04cb-202e-4eaf-a0f9-034d7ae1b179"},"vehicle_type_id":"4","last_reported":1678464629,"current_range_meters":26400,"station_id":"","pricing_plan_id":"free"},{"bike_id":"67b9e98a-f811-42be-992c-0d926dbfe66b","system_id":"levelo_inurba_marseille","lat":43.24391,"lon":5.37057,"is_reserved":false,"is_disabled":false,"rental_uris":{"android":"levelo://app?vid=67b9e98a-f811-42be-992c-0d926dbfe66b","ios":"levelo://app?vid=67b9e98a-f811-42be-992c-0d926dbfe66b"},"vehicle_type_id":"4","last_reported":1678464629,"current_range_meters":31600,"station_id":"","pricing_plan_id":"free"},{"bike_id":"f3e12243-20a2-4faf-97e0-12766de39940","system_id":"levelo_inurba_marseille","lat":43.243884,"lon":5.370736,"is_reserved":false,"is_disabled":false,"rental_uris":{"android":"levelo://app?vid=f3e12243-20a2-4faf-97e0-12766de39940","ios":"levelo://app?vid=f3e12243-20a2-4faf-97e0-12766de39940"},"vehicle_type_id":"4","last_reported":1678464629,"current_range_meters":29200,"station_id":"ce4bhhh2rcd13ifvqfk0","pricing_plan_id":"free"},{"bike_id":"f4899d04-62ba-42ea-8ced-f6e4071de93c","system_id":"levelo_inurba_marseille","lat":43.24389,"lon":5.37058,"is_reserved":false,"is_disabled":false,"rental_uris":{"android":"levelo://app?vid=f4899d04-62ba-42ea-8ced-f6e4071de93c","ios":"levelo://app?vid=f4899d04-62ba-42ea-8ced-f6e4071de93c"},"vehicle_type_id":"4","last_reported":1678464629,"current_range_meters":2400,"station_id":"","pricing_plan_id":"free"},{"bike_id":"788828e5-b27f-4be3-8dc3-d0cf7f3514c7","system_id":"levelo_inurba_marseille","lat":43.24387,"lon":5.37057,"is_reserved":false,"is_disabled":false,"rental_uris":{"android":"levelo://app?vid=788828e5-b27f-4be3-8dc3-d0cf7f3514c7","ios":"levelo://app?vid=788828e5-b27f-4be3-8dc3-d0cf7f3514c7"},"vehicle_type_id":"4","last_reported":1678464629,"current_range_meters":16800,"station_id":"","pricing_plan_id":"free"},{"bike_id":"2bfeba99-80d6-4154-a6f7-e668a6e72d6b","system_id":"levelo_inurba_marseille","lat":43.239588,"lon":5.366238,"is_reserved":false,"is_disabled":false,"rental_uris":{"android":"levelo://app?vid=2bfeba99-80d6-4154-a6f7-e668a6e72d6b","ios":"levelo://app?vid=2bfeba99-80d6-4154-a6f7-e668a6e72d6b"},"vehicle_type_id":"4","last_reported":1678464629,"current_range_meters":4800,"station_id":"ce4bhi12rcd13ifvqfp0","pricing_plan_id":"free"},{"bike_id":"31a1680c-6e2f-4ab7-96f0-440a57d2fe0a","system_id":"levelo_inurba_marseille","lat":43.239588,"lon":5.366238,"is_reserved":false,"is_disabled":false,"rental_uris":{"android":"levelo://app?vid=31a1680c-6e2f-4ab7-96f0-440a57d2fe0a","ios":"levelo://app?vid=31a1680c-6e2f-4ab7-96f0-440a57d2fe0a"},"vehicle_type_id":"4","last_reported":1678464629,"current_range_meters":21200,"station_id":"ce4bhi12rcd13ifvqfp0","pricing_plan_id":"free"},{"bike_id":"7fae68e9-c8eb-41cd-9cfe-b055e9b185e4","system_id":"levelo_inurba_marseille","lat":43.239588,"lon":5.366238,"is_reserved":false,"is_disabled":false,"rental_uris":{"android":"levelo://app?vid=7fae68e9-c8eb-41cd-9cfe-b055e9b185e4","ios":"levelo://app?vid=7fae68e9-c8eb-41cd-9cfe-b055e9b185e4"},"vehicle_type_id":"4","last_reported":1678464629,"current_range_meters":26800,"station_id":"ce4bhi12rcd13ifvqfp0","pricing_plan_id":"free"},{"bike_id":"8189378a-af63-4623-a948-28a0f282a66c","system_id":"levelo_inurba_marseille","lat":43.239649,"lon":5.366312,"is_reserved":false,"is_disabled":false,"rental_uris":{"android":"levelo://app?vid=8189378a-af63-4623-a948-28a0f282a66c","ios":"levelo://app?vid=8189378a-af63-4623-a948-28a0f282a66c"},"vehicle_type_id":"4","last_reported":1678464629,"current_range_meters":4000,"station_id":"","pricing_plan_id":"free"},{"bike_id":"6cb1dc8c-2432-411d-9010-be58a0b7cef0","system_id":"levelo_inurba_marseille","lat":43.239643,"lon":5.366347,"is_reserved":false,"is_disabled":false,"rental_uris":{"android":"levelo://app?vid=6cb1dc8c-2432-411d-9010-be58a0b7cef0","ios":"levelo://app?vid=6cb1dc8c-2432-411d-9010-be58a0b7cef0"},"vehicle_type_id":"4","last_reported":1678464629,"current_range_meters":5200,"station_id":"","pricing_plan_id":"free"},{"bike_id":"75fe5623-d608-4835-b3fd-1d8e9491bbab","system_id":"levelo_inurba_marseille","lat":43.23964,"lon":5.36631,"is_reserved":false,"is_disabled":false,"rental_uris":{"android":"levelo://app?vid=75fe5623-d608-4835-b3fd-1d8e9491bbab","ios":"levelo://app?vid=75fe5623-d608-4835-b3fd-1d8e9491bbab"},"vehicle_type_id":"4","last_reported":1678464629,"current_range_meters":28000,"station_id":"ce4bhi12rcd13ifvqfp0","pricing_plan_id":"free"},{"bike_id":"c4963af0-1da5-4034-b631-5f1d5757e3ca","system_id":"levelo_inurba_marseille","lat":43.241829,"lon":5.39714,"is_reserved":false,"is_disabled":false,"rental_uris":{"android":"levelo://app?vid=c4963af0-1da5-4034-b631-5f1d5757e3ca","ios":"levelo://app?vid=c4963af0-1da5-4034-b631-5f1d5757e3ca"},"vehicle_type_id":"4","last_reported":1678464629,"current_range_meters":23600,"station_id":"ce4bhn12rcd13ifvqgpg","pricing_plan_id":"free"},{"bike_id":"ec7468d7-4241-462f-86fc-69dd1c94b74e","system_id":"levelo_inurba_marseille","lat":43.241782,"lon":5.397264,"is_reserved":false,"is_disabled":false,"rental_uris":{"android":"levelo://app?vid=ec7468d7-4241-462f-86fc-69dd1c94b74e","ios":"levelo://app?vid=ec7468d7-4241-462f-86fc-69dd1c94b74e"},"vehicle_type_id":"4","last_reported":1678464629,"current_range_meters":22400,"station_id":"ce4bhn12rcd13ifvqgpg","pricing_plan_id":"free"},{"bike_id":"eb92cc66-4415-4457-82ae-9eaa52cedc2c","system_id":"levelo_inurba_marseille","lat":43.241782,"lon":5.397261,"is_reserved":false,"is_disabled":false,"rental_uris":{"android":"levelo://app?vid=eb92cc66-4415-4457-82ae-9eaa52cedc2c","ios":"levelo://app?vid=eb92cc66-4415-4457-82ae-9eaa52cedc2c"},"vehicle_type_id":"4","last_reported":1678464629,"current_range_meters":27600,"station_id":"ce4bhn12rcd13ifvqgpg","pricing_plan_id":"free"},{"bike_id":"8aaf9283-c604-4cf2-be5b-2f5ce570b57e","system_id":"levelo_inurba_marseille","lat":43.241793,"lon":5.39728,"is_reserved":false,"is_disabled":false,"rental_uris":{"android":"levelo://app?vid=8aaf9283-c604-4cf2-be5b-2f5ce570b57e","ios":"levelo://app?vid=8aaf9283-c604-4cf2-be5b-2f5ce570b57e"},"vehicle_type_id":"4","last_reported":1678464629,"current_range_meters":0,"station_id":"ce4bhn12rcd13ifvqgpg","pricing_plan_id":"free"},{"bike_id":"dbdebecc-6988-48ad-b60f-b958ed703869","system_id":"levelo_inurba_marseille","lat":43.241782,"lon":5.397261,"is_reserved":false,"is_disabled":false,"rental_uris":{"android":"levelo://app?vid=dbdebecc-6988-48ad-b60f-b958ed703869","ios":"levelo://app?vid=dbdebecc-6988-48ad-b60f-b958ed703869"},"vehicle_type_id":"4","last_reported":1678464629,"current_range_meters":12400,"station_id":"ce4bhn12rcd13ifvqgpg","pricing_plan_id":"free"},{"bike_id":"c2191ef3-a8a8-420d-9472-9ccef55e058a","system_id":"levelo_inurba_marseille","lat":43.241782,"lon":5.397261,"is_reserved":false,"is_disabled":false,"rental_uris":{"android":"levelo://app?vid=c2191ef3-a8a8-420d-9472-9ccef55e058a","ios":"levelo://app?vid=c2191ef3-a8a8-420d-9472-9ccef55e058a"},"vehicle_type_id":"4","last_reported":1678464629,"current_range_meters":14000,"station_id":"ce4bhn12rcd13ifvqgpg","pricing_plan_id":"free"},{"bike_id":"eee06e4d-aca3-4752-bacf-8ee6b97ddb99","system_id":"levelo_inurba_marseille","lat":43.241782,"lon":5.397261,"is_reserved":false,"is_disabled":false,"rental_uris":{"android":"levelo://app?vid=eee06e4d-aca3-4752-bacf-8ee6b97ddb99","ios":"levelo://app?vid=eee06e4d-aca3-4752-bacf-8ee6b97ddb99"},"vehicle_type_id":"4","last_reported":1678464629,"current_range_meters":4800,"station_id":"ce4bhn12rcd13ifvqgpg","pricing_plan_id":"free"},{"bike_id":"4ff25916-39d2-4393-ab00-69f691760c91","system_id":"levelo_inurba_marseille","lat":43.241782,"lon":5.397264,"is_reserved":false,"is_disabled":false,"rental_uris":{"android":"levelo://app?vid=4ff25916-39d2-4393-ab00-69f691760c91","ios":"levelo://app?vid=4ff25916-39d2-4393-ab00-69f691760c91"},"vehicle_type_id":"4","last_reported":1678464629,"current_range_meters":12400,"station_id":"ce4bhn12rcd13ifvqgpg","pricing_plan_id":"free"},{"bike_id":"35f6004c-7141-402d-a4dc-8f2ad742caa6","system_id":"levelo_inurba_marseille","lat":43.241782,"lon":5.397264,"is_reserved":false,"is_disabled":false,"rental_uris":{"android":"levelo://app?vid=35f6004c-7141-402d-a4dc-8f2ad742caa6","ios":"levelo://app?vid=35f6004c-7141-402d-a4dc-8f2ad742caa6"},"vehicle_type_id":"4","last_reported":1678464629,"current_range_meters":11200,"station_id":"ce4bhn12rcd13ifvqgpg","pricing_plan_id":"free"},{"bike_id":"3fa2b83a-5710-4304-ba8c-11240beadffc","system_id":"levelo_inurba_marseille","lat":43.287542,"lon":5.465136,"is_reserved":false,"is_disabled":false,"rental_uris":{"android":"levelo://app?vid=3fa2b83a-5710-4304-ba8c-11240beadffc","ios":"levelo://app?vid=3fa2b83a-5710-4304-ba8c-11240beadffc"},"vehicle_type_id":"4","last_reported":1678464629,"current_range_meters":6000,"station_id":"","pricing_plan_id":"free"},{"bike_id":"d445acf3-fd54-42f2-a3c3-d4c624f52ce1","system_id":"levelo_inurba_marseille","lat":43.287909,"lon":5.466239,"is_reserved":false,"is_disabled":false,"rental_uris":{"android":"levelo://app?vid=d445acf3-fd54-42f2-a3c3-d4c624f52ce1","ios":"levelo://app?vid=d445acf3-fd54-42f2-a3c3-d4c624f52ce1"},"vehicle_type_id":"4","last_reported":1678464629,"current_range_meters":0,"station_id":"","pricing_plan_id":"free"},{"bike_id":"507729a2-bd94-41b7-9229-280f28ca8d40","system_id":"levelo_inurba_marseille","lat":43.232,"lon":5.35558,"is_reserved":false,"is_disabled":false,"rental_uris":{"android":"levelo://app?vid=507729a2-bd94-41b7-9229-280f28ca8d40","ios":"levelo://app?vid=507729a2-bd94-41b7-9229-280f28ca8d40"},"vehicle_type_id":"4","last_reported":1678464629,"current_range_meters":22400,"station_id":"","pricing_plan_id":"free"},{"bike_id":"9518cbfd-deb2-4d05-a2de-6eb8829c7160","system_id":"levelo_inurba_marseille","lat":43.231923,"lon":5.355545,"is_reserved":false,"is_disabled":false,"rental_uris":{"android":"levelo://app?vid=9518cbfd-deb2-4d05-a2de-6eb8829c7160","ios":"levelo://app?vid=9518cbfd-deb2-4d05-a2de-6eb8829c7160"},"vehicle_type_id":"4","last_reported":1678464629,"current_range_meters":30400,"station_id":"ce4bhu92rcd13ifvqi70","pricing_plan_id":"free"},{"bike_id":"935a6631-88a9-4edc-b274-b802c27e9fd2","system_id":"levelo_inurba_marseille","lat":43.23196,"lon":5.35556,"is_reserved":false,"is_disabled":false,"rental_uris":{"android":"levelo://app?vid=935a6631-88a9-4edc-b274-b802c27e9fd2","ios":"levelo://app?vid=935a6631-88a9-4edc-b274-b802c27e9fd2"},"vehicle_type_id":"4","last_reported":1678464629,"current_range_meters":19600,"station_id":"","pricing_plan_id":"free"},{"bike_id":"59bc5894-5cbf-4332-a27d-6ccc10aa16d9","system_id":"levelo_inurba_marseille","lat":43.231923,"lon":5.355545,"is_reserved":false,"is_disabled":false,"rental_uris":{"android":"levelo://app?vid=59bc5894-5cbf-4332-a27d-6ccc10aa16d9","ios":"levelo://app?vid=59bc5894-5cbf-4332-a27d-6ccc10aa16d9"},"vehicle_type_id":"4","last_reported":1678464629,"current_range_meters":22800,"station_id":"ce4bhu92rcd13ifvqi70","pricing_plan_id":"free"},{"bike_id":"f0da3612-ee7b-4c2b-b5bc-972f48e9b34d","system_id":"levelo_inurba_marseille","lat":43.231923,"lon":5.355545,"is_reserved":false,"is_disabled":false,"rental_uris":{"android":"levelo://app?vid=f0da3612-ee7b-4c2b-b5bc-972f48e9b34d","ios":"levelo://app?vid=f0da3612-ee7b-4c2b-b5bc-972f48e9b34d"},"vehicle_type_id":"4","last_reported":1678464629,"current_range_meters":13200,"station_id":"ce4bhu92rcd13ifvqi70","pricing_plan_id":"free"},{"bike_id":"38a9bbff-72d1-484f-a6ee-d19d613689b7","system_id":"levelo_inurba_marseille","lat":43.231923,"lon":5.355545,"is_reserved":false,"is_disabled":false,"rental_uris":{"android":"levelo://app?vid=38a9bbff-72d1-484f-a6ee-d19d613689b7","ios":"levelo://app?vid=38a9bbff-72d1-484f-a6ee-d19d613689b7"},"vehicle_type_id":"4","last_reported":1678464629,"current_range_meters":31600,"station_id":"ce4bhu92rcd13ifvqi70","pricing_plan_id":"free"},{"bike_id":"62b52576-6cc8-4bb3-9d25-077773f63df4","system_id":"levelo_inurba_marseille","lat":43.23194,"lon":5.35552,"is_reserved":false,"is_disabled":false,"rental_uris":{"android":"levelo://app?vid=62b52576-6cc8-4bb3-9d25-077773f63df4","ios":"levelo://app?vid=62b52576-6cc8-4bb3-9d25-077773f63df4"},"vehicle_type_id":"4","last_reported":1678464629,"current_range_meters":4400,"station_id":"","pricing_plan_id":"free"},{"bike_id":"037ccdda-b323-462d-a811-6416128c4803","system_id":"levelo_inurba_marseille","lat":43.231923,"lon":5.355545,"is_reserved":false,"is_disabled":false,"rental_uris":{"android":"levelo://app?vid=037ccdda-b323-462d-a811-6416128c4803","ios":"levelo://app?vid=037ccdda-b323-462d-a811-6416128c4803"},"vehicle_type_id":"4","last_reported":1678464629,"current_range_meters":31600,"station_id":"ce4bhu92rcd13ifvqi70","pricing_plan_id":"free"},{"bike_id":"9975e71d-c09a-4412-b788-0f8fa013e37c","system_id":"levelo_inurba_marseille","lat":43.231919,"lon":5.355532,"is_reserved":false,"is_disabled":false,"rental_uris":{"android":"levelo://app?vid=9975e71d-c09a-4412-b788-0f8fa013e37c","ios":"levelo://app?vid=9975e71d-c09a-4412-b788-0f8fa013e37c"},"vehicle_type_id":"4","last_reported":1678464629,"current_range_meters":12000,"station_id":"ce4bhu92rcd13ifvqi70","pricing_plan_id":"free"},{"bike_id":"a54c6586-934c-4fc8-958b-723a71bced3b","system_id":"levelo_inurba_marseille","lat":43.23193,"lon":5.35553,"is_reserved":false,"is_disabled":false,"rental_uris":{"android":"levelo://app?vid=a54c6586-934c-4fc8-958b-723a71bced3b","ios":"levelo://app?vid=a54c6586-934c-4fc8-958b-723a71bced3b"},"vehicle_type_id":"4","last_reported":1678464629,"current_range_meters":16000,"station_id":"ce4bhu92rcd13ifvqi70","pricing_plan_id":"free"},{"bike_id":"3d72bba4-7911-4941-90da-7d211140397b","system_id":"levelo_inurba_marseille","lat":43.231923,"lon":5.355545,"is_reserved":false,"is_disabled":false,"rental_uris":{"android":"levelo://app?vid=3d72bba4-7911-4941-90da-7d211140397b","ios":"levelo://app?vid=3d72bba4-7911-4941-90da-7d211140397b"},"vehicle_type_id":"4","last_reported":1678464629,"current_range_meters":31600,"station_id":"ce4bhu92rcd13ifvqi70","pricing_plan_id":"free"},{"bike_id":"b0a055bf-4201-4279-8723-79f7fea372a2","system_id":"levelo_inurba_marseille","lat":43.23189,"lon":5.35561,"is_reserved":false,"is_disabled":false,"rental_uris":{"android":"levelo://app?vid=b0a055bf-4201-4279-8723-79f7fea372a2","ios":"levelo://app?vid=b0a055bf-4201-4279-8723-79f7fea372a2"},"vehicle_type_id":"4","last_reported":1678464629,"current_range_meters":19600,"station_id":"ce4bhu92rcd13ifvqi70","pricing_plan_id":"free"},{"bike_id":"e3caad7e-6d8f-4e1b-9fd3-b0be87f4f192","system_id":"levelo_inurba_marseille","lat":43.23189,"lon":5.35556,"is_reserved":false,"is_disabled":false,"rental_uris":{"android":"levelo://app?vid=e3caad7e-6d8f-4e1b-9fd3-b0be87f4f192","ios":"levelo://app?vid=e3caad7e-6d8f-4e1b-9fd3-b0be87f4f192"},"vehicle_type_id":"4","last_reported":1678464629,"current_range_meters":17600,"station_id":"","pricing_plan_id":"free"},{"bike_id":"6850fd18-0bd7-456e-a589-286ef88cd157","system_id":"levelo_inurba_marseille","lat":43.235299,"lon":5.411176,"is_reserved":false,"is_disabled":false,"rental_uris":{"android":"levelo://app?vid=6850fd18-0bd7-456e-a589-286ef88cd157","ios":"levelo://app?vid=6850fd18-0bd7-456e-a589-286ef88cd157"},"vehicle_type_id":"4","last_reported":1678464629,"current_range_meters":20800,"station_id":"","pricing_plan_id":"free"}]}}