{"last_updated":1733123434,"ttl":60,"version":"2.2","data":{"bikes":[{"bike_id":"8c6ed50b-5e15-46e0-9652-018cc7ca90eb","system_id":"levelo_inurba_marseille","lat":43.30135,"lon":5.38784,"is_reserved":false,"is_disabled":false,"rental_uris":{"android":"levelo://app?vid=8c6ed50b-5e15-46e0-9652-018cc7ca90eb","ios":"levelo://app?vid=8c6ed50b-5e15-46e0-9652-018cc7ca90eb"},"vehicle_type_id":"4","last_reported":1733123434,"current_range_meters":10000,"station_id":"ce4bghh2rcd13ifvqb60","pricing_plan_id":"cebpf4jnsgd1na2vs0mg"},{"bike_id":"9eb9ee9b-532a-4e66-9337-6742bfb3d802","system_id":"levelo_inurba_marseille","lat":43.27982,"lon":5.41659,"is_reserved":false,"is_disabled":true,"rental_uris":{"android":"levelo://app?vid=9eb9ee9b-532a-4e66-9337-6742bfb3d802","ios":"levelo://app?vid=9eb9ee9b-532a-4e66-9337-6742bfb3d802"},"vehicle_type_id":"4","last_reported":1733123434,"current_range_meters":27200,"station_id":"ce4bho12rcd13ifvqh1g","pricing_plan_id":"cebpf4jnsgd1na2vs0mg"},{"bike_id":"a8240cfa-6b36-44f3-899a-4807a01486bd","system_id":"levelo_inurba_marseille","lat":43.29551,"lon":5.42285,"is_reserved":false,"is_disabled":false,"rental_uris":{"android":"levelo://app?vid=a8240cfa-6b36-44f3-899a-4807a01486bd","ios":"levelo://app?vid=a8240cfa-6b36-44f3-899a-4807a01486bd"},"vehicle_type_id":"4","last_reported":1733123434,"current_range_meters":23200,"station_id":"ce4bhph2rcd13ifvqhdg","pricing_plan_id":"cebpf4jnsgd1na2vs0mg"},{"bike_id":"5d185ce1-f6f3-4450-a56d-622efc6c6751","system_id":"levelo_inurba_marseille","lat":43.30152,"lon":5.38102,"is_reserved":false,"is_disabled":true,"rental_uris":{"android":"levelo://app?vid=5d185ce1-f6f3-4450-a56d-622efc6c6751","ios":"levelo://app?vid=5d185ce1-f6f3-4450-a56d-622efc6c6751"},"vehicle_type_id":"4","last_reported":1733123434,"current_range_meters":0,"station_id":"ce4bgjp2rcd13ifvqbh0","pricing_plan_id":"cebpf4jnsgd1na2vs0mg"},{"bike_id":"36f80ea5-8062-4524-a4e5-be8cde6b930a","system_id":"levelo_inurba_marseille","lat":43.29698,"lon":5.37072,"is_reserved":false,"is_disabled":true,"rental_uris":{"android":"levelo://app?vid=36f80ea5-8062-4524-a4e5-be8cde6b930a","ios":"levelo://app?vid=36f80ea5-8062-4524-a4e5-be8cde6b930a"},"vehicle_type_id":"4","last_reported":1733123434,"current_range_meters":0,"station_id":"","pricing_plan_id":"cebpf4jnsgd1na2vs0mg"},{"bike_id":"7ff9ed7d-51d4-4c0b-aef0-61969fefb411","system_id":"levelo_inurba_marseille","lat":43.24175,"lon":5.36395,"is_reserved":false,"is_disabled":false,"rental_uris":{"android":"levelo://app?vid=7ff9ed7d-51d4-4c0b-aef0-61969fefb411","ios":"levelo://app?vid=7ff9ed7d-51d4-4c0b-aef0-61969fefb411"},"vehicle_type_id":"4","last_reported":1733123434,"current_range_meters":22400,"station_id":"cpo36qri1sfpv3e86is0","pricing_plan_id":"cebpf4jnsgd1na2vs0mg"},{"bike_id":"304c3c23-006c-47a7-be41-53df15bd78fa","system_id":"levelo_inurba_marseille","lat":43.29417,"lon":5.38615,"is_reserved":false,"is_disabled":true,"rental_uris":{"android":"levelo://app?vid=304c3c23-006c-47a7-be41-53df15bd78fa","ios":"levelo://app?vid=304c3c23-006c-47a7-be41-53df15bd78fa"},"vehicle_type_id":"4","last_reported":1733123434,"current_range_meters":24800,"station_id":"ce4bh2h2rcd13ifvqdh0","pricing_plan_id":"cebpf4jnsgd1na2vs0mg"},{"bike_id":"116d89ac-bcf7-4c54-94f0-d1f857480d2a","system_id":"levelo_inurba_marseille","lat":43.23197,"lon":5.39983,"is_reserved":false,"is_disabled":false,"rental_uris":{"android":"levelo://app?vid=116d89ac-bcf7-4c54-94f0-d1f857480d2a","ios":"levelo://app?vid=116d89ac-bcf7-4c54-94f0-d1f857480d2a"},"vehicle_type_id":"4","last_reported":1733123434,"current_range_meters":10800,"station_id":"ce4bhn12rcd13ifvqgqg","pricing_plan_id":"cebpf4jnsgd1na2vs0mg"},{"bike_id":"cabb5f75-7805-4b68-958d-d953df90df7a","system_id":"levelo_inurba_marseille","lat":43.30546,"lon":5.36718,"is_reserved":false,"is_disabled":false,"rental_uris":{"android":"levelo://app?vid=cabb5f75-7805-4b68-958d-d953df90df7a","ios":"levelo://app?vid=cabb5f75-7805-4b68-958d-d953df90df7a"},"vehicle_type_id":"4","last_reported":1733123434,"current_range_meters":22000,"station_id":"ce4bgrp2rcd13ifvqc9g","pricing_plan_id":"cebpf4jnsgd1na2vs0mg"},{"bike_id":"7cf47455-212b-4e1f-8810-691c619b15df","system_id":"levelo_inurba_marseille","lat":43.26954,"lon":5.38639,"is_reserved":false,"is_disabled":false,"rental_uris":{"android":"levelo://app?vid=7cf47455-212b-4e1f-8810-691c619b15df","ios":"levelo://app?vid=7cf47455-212b-4e1f-8810-691c619b15df"},"vehicle_type_id":"4","last_reported":1733123434,"current_range_meters":10800,"station_id":"ce4bhh92rcd13ifvqfh0","pricing_plan_id":"cebpf4jnsgd1na2vs0mg"},{"bike_id":"77b5f48d-16ec-4b7a-beef-999759588c8b","system_id":"levelo_inurba_marseille","lat":43.32546,"lon":5.41436,"is_reserved":false,"is_disabled":false,"rental_uris":{"android":"levelo://app?vid=77b5f48d-16ec-4b7a-beef-999759588c8b","ios":"levelo://app?vid=77b5f48d-16ec-4b7a-beef-999759588c8b"},"vehicle_type_id":"4","last_reported":1733123434,"current_range_meters":32800,"station_id":"ce4bhq12rcd13ifvqhhg","pricing_plan_id":"cebpf4jnsgd1na2vs0mg"},{"bike_id":"a8008d6f-6501-443d-8c90-0ec83d8001f7","system_id":"levelo_inurba_marseille","lat":43.296138,"lon":5.377258,"is_reserved":false,"is_disabled":false,"rental_uris":{"android":"levelo://app?vid=a8008d6f-6501-443d-8c90-0ec83d8001f7","ios":"levelo://app?vid=a8008d6f-6501-443d-8c90-0ec83d8001f7"},"vehicle_type_id":"4","last_reported":1733123434,"current_range_meters":36800,"station_id":"ce4bgi92rcd13ifvqb90","pricing_plan_id":"cebpf4jnsgd1na2vs0mg"},{"bike_id":"d666d7a0-17ef-4dbc-aa46-18e775c7457c","system_id":"levelo_inurba_marseille","lat":43.28944,"lon":5.36633,"is_reserved":false,"is_disabled":true,"rental_uris":{"android":"levelo://app?vid=d666d7a0-17ef-4dbc-aa46-18e775c7457c","ios":"levelo://app?vid=d666d7a0-17ef-4dbc-aa46-18e775c7457c"},"vehicle_type_id":"4","last_reported":1733123434,"current_range_meters":8800,"station_id":"ce4bhap2rcd13ifvqek0","pricing_plan_id":"cebpf4jnsgd1na2vs0mg"},{"bike_id":"d6d9399f-577d-4b61-9fd9-19cbfb2cd54c","system_id":"levelo_inurba_marseille","lat":43.30549,"lon":5.36703,"is_reserved":false,"is_disabled":true,"rental_uris":{"android":"levelo://app?vid=d6d9399f-577d-4b61-9fd9-19cbfb2cd54c","ios":"levelo://app?vid=d6d9399f-577d-4b61-9fd9-19cbfb2cd54c"},"vehicle_type_id":"4","last_reported":1733123434,"current_range_meters":28400,"station_id":"ce4bgrp2rcd13ifvqc9g","pricing_plan_id":"cebpf4jnsgd1na2vs0mg"},{"bike_id":"966791e8-cdff-4838-a42b-c9b609a533a7","system_id":"levelo_inurba_marseille","lat":43.27455,"lon":5.40073,"is_reserved":false,"is_disabled":true,"rental_uris":{"android":"levelo://app?vid=966791e8-cdff-4838-a42b-c9b609a533a7","ios":"levelo://app?vid=966791e8-cdff-4838-a42b-c9b609a533a7"},"vehicle_type_id":"4","last_reported":1733123434,"current_range_meters":0,"station_id":"","pricing_plan_id":"cebpf4jnsgd1na2vs0mg"},{"bike_id":"edaa2690-e8bc-498d-ab5c-13269193fb53","system_id":"levelo_inurba_marseille","lat":43.30547,"lon":5.36704,"is_reserved":false,"is_disabled":false,"rental_uris":{"android":"levelo://app?vid=edaa2690-e8bc-498d-ab5c-13269193fb53","ios":"levelo://app?vid=edaa2690-e8bc-498d-ab5c-13269193fb53"},"vehicle_type_id":"4","last_reported":1733123434,"current_range_meters":39200,"station_id":"ce4bgrp2rcd13ifvqc9g","pricing_plan_id":"cebpf4jnsgd1na2vs0mg"},{"bike_id":"02e4d714-518c-490c-aa4b-ac38c96aaded","system_id":"levelo_inurba_marseille","lat":43.30467,"lon":5.37917,"is_reserved":false,"is_disabled":false,"rental_uris":{"android":"levelo://app?vid=02e4d714-518c-490c-aa4b-ac38c96aaded","ios":"levelo://app?vid=02e4d714-518c-490c-aa4b-ac38c96aaded"},"vehicle_type_id":"4","last_reported":1733123434,"current_range_meters":27600,"station_id":"ce4bgup2rcd13ifvqcn0","pricing_plan_id":"cebpf4jnsgd1na2vs0mg"},{"bike_id":"11b64c2b-04e5-4070-8a9b-abd68a21dd73","system_id":"levelo_inurba_marseille","lat":43.30153,"lon":5.3809,"is_reserved":false,"is_disabled":false,"rental_uris":{"android":"levelo://app?vid=11b64c2b-04e5-4070-8a9b-abd68a21dd73","ios":"levelo://app?vid=11b64c2b-04e5-4070-8a9b-abd68a21dd73"},"vehicle_type_id":"4","last_reported":1733123434,"current_range_meters":38800,"station_id":"ce4bgjp2rcd13ifvqbh0","pricing_plan_id":"cebpf4jnsgd1na2vs0mg"},{"bike_id":"157a3d81-cf27-4d67-b0f6-ba9e7fc15397","system_id":"levelo_inurba_marseille","lat":43.30191,"lon":5.36617,"is_reserved":false,"is_disabled":true,"rental_uris":{"android":"levelo://app?vid=157a3d81-cf27-4d67-b0f6-ba9e7fc15397","ios":"levelo://app?vid=157a3d81-cf27-4d67-b0f6-ba9e7fc15397"},"vehicle_type_id":"4","last_reported":1733123434,"current_range_meters":6800,"station_id":"ce4bgrh2rcd13ifvqc8g","pricing_plan_id":"cebpf4jnsgd1na2vs0mg"},{"bike_id":"599721bc-4c56-4323-a7a6-1e094f7971bc","system_id":"levelo_inurba_marseille","lat":43.2815,"lon":5.42641,"is_reserved":false,"is_disabled":false,"rental_uris":{"android":"levelo://app?vid=599721bc-4c56-4323-a7a6-1e094f7971bc","ios":"levelo://app?vid=599721bc-4c56-4323-a7a6-1e094f7971bc"},"vehicle_type_id":"4","last_reported":1733123434,"current_range_meters":6000,"station_id":"ce4bhnh2rcd13ifvqgug","pricing_plan_id":"cebpf4jnsgd1na2vs0mg"},{"bike_id":"10b567b8-ac7c-43f5-88d1-18ca259eb4d4","system_id":"levelo_inurba_marseille","lat":43.29365,"lon":5.37833,"is_reserved":false,"is_disabled":false,"rental_uris":{"android":"levelo://app?vid=10b567b8-ac7c-43f5-88d1-18ca259eb4d4","ios":"levelo://app?vid=10b567b8-ac7c-43f5-88d1-18ca259eb4d4"},"vehicle_type_id":"4","last_reported":1733123434,"current_range_meters":13600,"station_id":"ce4bgjh2rcd13ifvqbf0","pricing_plan_id":"cebpf4jnsgd1na2vs0mg"},{"bike_id":"fd955fc8-c516-497e-8739-442d8afc2a74","system_id":"levelo_inurba_marseille","lat":43.30356,"lon":5.41876,"is_reserved":false,"is_disabled":false,"rental_uris":{"android":"levelo://app?vid=fd955fc8-c516-497e-8739-442d8afc2a74","ios":"levelo://app?vid=fd955fc8-c516-497e-8739-442d8afc2a74"},"vehicle_type_id":"4","last_reported":1733123434,"current_range_meters":25200,"station_id":"ce4bhop2rcd13ifvqh7g","pricing_plan_id":"cebpf4jnsgd1na2vs0mg"},{"bike_id":"c8540c9d-7dc3-44fa-a0f8-7263d3d70bb8","system_id":"levelo_inurba_marseille","lat":43.24647,"lon":5.3889,"is_reserved":false,"is_disabled":true,"rental_uris":{"android":"levelo://app?vid=c8540c9d-7dc3-44fa-a0f8-7263d3d70bb8","ios":"levelo://app?vid=c8540c9d-7dc3-44fa-a0f8-7263d3d70bb8"},"vehicle_type_id":"4","last_reported":1733123434,"current_range_meters":0,"station_id":"ce4bhg12rcd13ifvqf60","pricing_plan_id":"cebpf4jnsgd1na2vs0mg"},{"bike_id":"34553e4f-2bbe-4e94-8740-7b5a4682f76a","system_id":"levelo_inurba_marseille","lat":43.31116,"lon":5.3777,"is_reserved":false,"is_disabled":true,"rental_uris":{"android":"levelo://app?vid=34553e4f-2bbe-4e94-8740-7b5a4682f76a","ios":"levelo://app?vid=34553e4f-2bbe-4e94-8740-7b5a4682f76a"},"vehicle_type_id":"4","last_reported":1733123434,"current_range_meters":30400,"station_id":"ce4bgt92rcd13ifvqcg0","pricing_plan_id":"cebpf4jnsgd1na2vs0mg"},{"bike_id":"87a177cf-8a72-43d2-ad9b-470961f3e5dc","system_id":"levelo_inurba_marseille","lat":43.30005,"lon":5.37642,"is_reserved":false,"is_disabled":true,"rental_uris":{"android":"levelo://app?vid=87a177cf-8a72-43d2-ad9b-470961f3e5dc","ios":"levelo://app?vid=87a177cf-8a72-43d2-ad9b-470961f3e5dc"},"vehicle_type_id":"4","last_reported":1733123434,"current_range_meters":0,"station_id":"","pricing_plan_id":"cebpf4jnsgd1na2vs0mg"},{"bike_id":"f69d2d41-4498-4784-8438-c095e639684f","system_id":"levelo_inurba_marseille","lat":43.29756,"lon":5.37922,"is_reserved":false,"is_disabled":true,"rental_uris":{"android":"levelo://app?vid=f69d2d41-4498-4784-8438-c095e639684f","ios":"levelo://app?vid=f69d2d41-4498-4784-8438-c095e639684f"},"vehicle_type_id":"4","last_reported":1733123434,"current_range_meters":0,"station_id":"","pricing_plan_id":"cebpf4jnsgd1na2vs0mg"},{"bike_id":"2125600b-19a8-4928-bd56-b34917c20116","system_id":"levelo_inurba_marseille","lat":43.24074,"lon":5.37758,"is_reserved":false,"is_disabled":false,"rental_uris":{"android":"levelo://app?vid=2125600b-19a8-4928-bd56-b34917c20116","ios":"levelo://app?vid=2125600b-19a8-4928-bd56-b34917c20116"},"vehicle_type_id":"4","last_reported":1733123434,"current_range_meters":37600,"station_id":"ce4bhnp2rcd13ifvqgvg","pricing_plan_id":"cebpf4jnsgd1na2vs0mg"},{"bike_id":"80702ea0-76fe-4f0a-96c8-56c28536d2c5","system_id":"levelo_inurba_marseille","lat":43.25115,"lon":5.40321,"is_reserved":false,"is_disabled":false,"rental_uris":{"android":"levelo://app?vid=80702ea0-76fe-4f0a-96c8-56c28536d2c5","ios":"levelo://app?vid=80702ea0-76fe-4f0a-96c8-56c28536d2c5"},"vehicle_type_id":"4","last_reported":1733123434,"current_range_meters":22400,"station_id":"ce4bhlh2rcd13ifvqgig","pricing_plan_id":"cebpf4jnsgd1na2vs0mg"},{"bike_id":"5cf6804b-b310-4b20-8fc4-b0e2de0fe206","system_id":"levelo_inurba_marseille","lat":43.29009,"lon":5.37842,"is_reserved":false,"is_disabled":false,"rental_uris":{"android":"levelo://app?vid=5cf6804b-b310-4b20-8fc4-b0e2de0fe206","ios":"levelo://app?vid=5cf6804b-b310-4b20-8fc4-b0e2de0fe206"},"vehicle_type_id":"4","last_reported":1733123434,"current_range_meters":16000,"station_id":"","pricing_plan_id":"cebpf4jnsgd1na2vs0mg"},{"bike_id":"b0bd4cdf-7308-45f0-8e99-a0d5811907ff","system_id":"levelo_inurba_marseille","lat":43.25438,"lon":5.38158,"is_reserved":false,"is_disabled":true,"rental_uris":{"android":"levelo://app?vid=b0bd4cdf-7308-45f0-8e99-a0d5811907ff","ios":"levelo://app?vid=b0bd4cdf-7308-45f0-8e99-a0d5811907ff"},"vehicle_type_id":"4","last_reported":1733123434,"current_range_meters":0,"station_id":"","pricing_plan_id":"cebpf4jnsgd1na2vs0mg"},{"bike_id":"13341a5c-709a-42b3-984a-1db82542f4c6","system_id":"levelo_inurba_marseille","lat":43.29884,"lon":5.40353,"is_reserved":false,"is_disabled":true,"rental_uris":{"android":"levelo://app?vid=13341a5c-709a-42b3-984a-1db82542f4c6","ios":"levelo://app?vid=13341a5c-709a-42b3-984a-1db82542f4c6"},"vehicle_type_id":"4","last_reported":1733123434,"current_range_meters":0,"station_id":"","pricing_plan_id":"cebpf4jnsgd1na2vs0mg"},{"bike_id":"8bcd172f-5475-4607-a4e7-44d7749b12a1","system_id":"levelo_inurba_marseille","lat":43.33728,"lon":5.39184,"is_reserved":false,"is_disabled":true,"rental_uris":{"android":"levelo://app?vid=8bcd172f-5475-4607-a4e7-44d7749b12a1","ios":"levelo://app?vid=8bcd172f-5475-4607-a4e7-44d7749b12a1"},"vehicle_type_id":"4","last_reported":1733123434,"current_range_meters":0,"station_id":"ce4bhr92rcd13ifvqhsg","pricing_plan_id":"cebpf4jnsgd1na2vs0mg"},{"bike_id":"34d6da0f-a9ba-4c46-b3c7-45d807bf3835","system_id":"levelo_inurba_marseille","lat":43.2959,"lon":5.381,"is_reserved":false,"is_disabled":false,"rental_uris":{"android":"levelo://app?vid=34d6da0f-a9ba-4c46-b3c7-45d807bf3835","ios":"levelo://app?vid=34d6da0f-a9ba-4c46-b3c7-45d807bf3835"},"vehicle_type_id":"4","last_reported":1733123434,"current_range_meters":31200,"station_id":"ce4bgl12rcd13ifvqbo0","pricing_plan_id":"cebpf4jnsgd1na2vs0mg"},{"bike_id":"dd2dacc9-c476-4299-b364-15e3af471c3b","system_id":"levelo_inurba_marseille","lat":43.28341,"lon":5.38096,"is_reserved":false,"is_disabled":false,"rental_uris":{"android":"levelo://app?vid=dd2dacc9-c476-4299-b364-15e3af471c3b","ios":"levelo://app?vid=dd2dacc9-c476-4299-b364-15e3af471c3b"},"vehicle_type_id":"4","last_reported":1733123434,"current_range_meters":38400,"station_id":"ce4bh412rcd13ifvqdr0","pricing_plan_id":"cebpf4jnsgd1na2vs0mg"},{"bike_id":"6f7949e1-de87-4a49-8620-fec27e04447f","system_id":"levelo_inurba_marseille","lat":43.33735,"lon":5.39158,"is_reserved":false,"is_disabled":false,"rental_uris":{"android":"levelo://app?vid=6f7949e1-de87-4a49-8620-fec27e04447f","ios":"levelo://app?vid=6f7949e1-de87-4a49-8620-fec27e04447f"},"vehicle_type_id":"4","last_reported":1733123434,"current_range_meters":19200,"station_id":"ce4bhr92rcd13ifvqhsg","pricing_plan_id":"cebpf4jnsgd1na2vs0mg"},{"bike_id":"c5e50867-7fea-4460-a24c-ff45f096d5fb","system_id":"levelo_inurba_marseille","lat":43.29048,"lon":5.39951,"is_reserved":false,"is_disabled":false,"rental_uris":{"android":"levelo://app?vid=c5e50867-7fea-4460-a24c-ff45f096d5fb","ios":"levelo://app?vid=c5e50867-7fea-4460-a24c-ff45f096d5fb"},"vehicle_type_id":"4","last_reported":1733123434,"current_range_meters":32400,"station_id":"ce4bh392rcd13ifvqdm0","pricing_plan_id":"cebpf4jnsgd1na2vs0mg"},{"bike_id":"7066298c-8444-4dbb-8e5a-afa45f0890f5","system_id":"levelo_inurba_marseille","lat":43.28854,"lon":5.39325,"is_reserved":false,"is_disabled":true,"rental_uris":{"android":"levelo://app?vid=7066298c-8444-4dbb-8e5a-afa45f0890f5","ios":"levelo://app?vid=7066298c-8444-4dbb-8e5a-afa45f0890f5"},"vehicle_type_id":"4","last_reported":1733123434,"current_range_meters":5600,"station_id":"ce4bh2p2rcd13ifvqdi0","pricing_plan_id":"cebpf4jnsgd1na2vs0mg"},{"bike_id":"79da6e11-068f-4f85-891a-bf5d6033ae1b","system_id":"levelo_inurba_marseille","lat":43.29189,"lon":5.39311,"is_reserved":false,"is_disabled":true,"rental_uris":{"android":"levelo://app?vid=79da6e11-068f-4f85-891a-bf5d6033ae1b","ios":"levelo://app?vid=79da6e11-068f-4f85-891a-bf5d6033ae1b"},"vehicle_type_id":"4","last_reported":1733123434,"current_range_meters":14000,"station_id":"ce4bh192rcd13ifvqdd0","pricing_plan_id":"cebpf4jnsgd1na2vs0mg"},{"bike_id":"a11ec84b-4c39-41a3-8618-20d5e8ae2c31","system_id":"levelo_inurba_marseille","lat":43.30806,"lon":5.43522,"is_reserved":false,"is_disabled":false,"rental_uris":{"android":"levelo://app?vid=a11ec84b-4c39-41a3-8618-20d5e8ae2c31","ios":"levelo://app?vid=a11ec84b-4c39-41a3-8618-20d5e8ae2c31"},"vehicle_type_id":"4","last_reported":1733123434,"current_range_meters":16000,"station_id":"ce4bhph2rcd13ifvqheg","pricing_plan_id":"cebpf4jnsgd1na2vs0mg"},{"bike_id":"ad58b9c9-e494-4f52-8a00-ed9c6e2d96fd","system_id":"levelo_inurba_marseille","lat":43.28351,"lon":5.38109,"is_reserved":false,"is_disabled":false,"rental_uris":{"android":"levelo://app?vid=ad58b9c9-e494-4f52-8a00-ed9c6e2d96fd","ios":"levelo://app?vid=ad58b9c9-e494-4f52-8a00-ed9c6e2d96fd"},"vehicle_type_id":"4","last_reported":1733123434,"current_range_meters":25200,"station_id":"ce4bh412rcd13ifvqdr0","pricing_plan_id":"cebpf4jnsgd1na2vs0mg"},{"bike_id":"d8c0738f-3b57-4efa-a27b-af99b6076143","system_id":"levelo_inurba_marseille","lat":43.24066,"lon":5.3776,"is_reserved":false,"is_disabled":false,"rental_uris":{"android":"levelo://app?vid=d8c0738f-3b57-4efa-a27b-af99b6076143","ios":"levelo://app?vid=d8c0738f-3b57-4efa-a27b-af99b6076143"},"vehicle_type_id":"4","last_reported":1733123434,"current_range_meters":38800,"station_id":"ce4bhnp2rcd13ifvqgvg","pricing_plan_id":"cebpf4jnsgd1na2vs0mg"},{"bike_id":"64c3b952-18c5-44bb-aa8b-e002acad2905","system_id":"levelo_inurba_marseille","lat":43.30262,"lon":5.40079,"is_reserved":false,"is_disabled":false,"rental_uris":{"android":"levelo://app?vid=64c3b952-18c5-44bb-aa8b-e002acad2905","ios":"levelo://app?vid=64c3b952-18c5-44bb-aa8b-e002acad2905"},"vehicle_type_id":"4","last_reported":1733123434,"current_range_meters":16400,"station_id":"ce4bgvh2rcd13ifvqcs0","pricing_plan_id":"cebpf4jnsgd1na2vs0mg"},{"bike_id":"b07d50ca-d35a-4902-b2e6-6e9b425cd2c1","system_id":"levelo_inurba_marseille","lat":43.32478,"lon":5.36564,"is_reserved":false,"is_disabled":false,"rental_uris":{"android":"levelo://app?vid=b07d50ca-d35a-4902-b2e6-6e9b425cd2c1","ios":"levelo://app?vid=b07d50ca-d35a-4902-b2e6-6e9b425cd2c1"},"vehicle_type_id":"4","last_reported":1733123434,"current_range_meters":31200,"station_id":"ce4bhs12rcd13ifvqhvg","pricing_plan_id":"cebpf4jnsgd1na2vs0mg"},{"bike_id":"0ca063c2-bb08-473d-a5c5-859fe1db37ad","system_id":"levelo_inurba_marseille","lat":43.31881,"lon":5.40741,"is_reserved":false,"is_disabled":false,"rental_uris":{"android":"levelo://app?vid=0ca063c2-bb08-473d-a5c5-859fe1db37ad","ios":"levelo://app?vid=0ca063c2-bb08-473d-a5c5-859fe1db37ad"},"vehicle_type_id":"4","last_reported":1733123434,"current_range_meters":18800,"station_id":"ce4bhq12rcd13ifvqhig","pricing_plan_id":"cebpf4jnsgd1na2vs0mg"},{"bike_id":"32d55f99-0252-4be1-bce9-7a80f3291e5b","system_id":"levelo_inurba_marseille","lat":43.26682,"lon":5.38265,"is_reserved":false,"is_disabled":true,"rental_uris":{"android":"levelo://app?vid=32d55f99-0252-4be1-bce9-7a80f3291e5b","ios":"levelo://app?vid=32d55f99-0252-4be1-bce9-7a80f3291e5b"},"vehicle_type_id":"4","last_reported":1733123434,"current_range_meters":32000,"station_id":"ce4bhg92rcd13ifvqf90","pricing_plan_id":"cebpf4jnsgd1na2vs0mg"},{"bike_id":"06ff026d-0472-485b-af7f-31b0e650a412","system_id":"levelo_inurba_marseille","lat":43.30473,"lon":5.37911,"is_reserved":false,"is_disabled":false,"rental_uris":{"android":"levelo://app?vid=06ff026d-0472-485b-af7f-31b0e650a412","ios":"levelo://app?vid=06ff026d-0472-485b-af7f-31b0e650a412"},"vehicle_type_id":"4","last_reported":1733123434,"current_range_meters":22000,"station_id":"ce4bgup2rcd13ifvqcn0","pricing_plan_id":"cebpf4jnsgd1na2vs0mg"},{"bike_id":"3d2d0100-4d4f-485b-b99f-649da6fbf8c8","system_id":"levelo_inurba_marseille","lat":43.29015,"lon":5.35636,"is_reserved":false,"is_disabled":false,"rental_uris":{"android":"levelo://app?vid=3d2d0100-4d4f-485b-b99f-649da6fbf8c8","ios":"levelo://app?vid=3d2d0100-4d4f-485b-b99f-649da6fbf8c8"},"vehicle_type_id":"4","last_reported":1733123434,"current_range_meters":32800,"station_id":"ce4bhb92rcd13ifvqen0","pricing_plan_id":"cebpf4jnsgd1na2vs0mg"},{"bike_id":"9cba3506-fcd3-40da-9a8c-083278300350","system_id":"levelo_inurba_marseille","lat":43.30913,"lon":5.36853,"is_reserved":false,"is_disabled":false,"rental_uris":{"android":"levelo://app?vid=9cba3506-fcd3-40da-9a8c-083278300350","ios":"levelo://app?vid=9cba3506-fcd3-40da-9a8c-083278300350"},"vehicle_type_id":"4","last_reported":1733123434,"current_range_meters":38800,"station_id":"ce4bgn92rcd13ifvqbvg","pricing_plan_id":"cebpf4jnsgd1na2vs0mg"},{"bike_id":"ef33b590-42b5-4c94-b234-34dd3055f740","system_id":"levelo_inurba_marseille","lat":43.3047,"lon":5.37905,"is_reserved":false,"is_disabled":false,"rental_uris":{"android":"levelo://app?vid=ef33b590-42b5-4c94-b234-34dd3055f740","ios":"levelo://app?vid=ef33b590-42b5-4c94-b234-34dd3055f740"},"vehicle_type_id":"4","last_reported":1733123434,"current_range_meters":40000,"station_id":"ce4bgup2rcd13ifvqcn0","pricing_plan_id":"cebpf4jnsgd1na2vs0mg"},{"bike_id":"7ed2229e-6e77-42d8-826e-e15ec9f33077","system_id":"levelo_inurba_marseille","lat":43.26686,"lon":5.3827,"is_reserved":false,"is_disabled":true,"rental_uris":{"android":"levelo://app?vid=7ed2229e-6e77-42d8-826e-e15ec9f33077","ios":"levelo://app?vid=7ed2229e-6e77-42d8-826e-e15ec9f33077"},"vehicle_type_id":"4","last_reported":1733123434,"current_range_meters":12000,"station_id":"ce4bhg92rcd13ifvqf90","pricing_plan_id":"cebpf4jnsgd1na2vs0mg"},{"bike_id":"8fdf0680-166b-4766-a655-d02e84d131fa","system_id":"levelo_inurba_marseille","lat":43.30944,"lon":5.39048,"is_reserved":false,"is_disabled":true,"rental_uris":{"android":"levelo://app?vid=8fdf0680-166b-4766-a655-d02e84d131fa","ios":"levelo://app?vid=8fdf0680-166b-4766-a655-d02e84d131fa"},"vehicle_type_id":"4","last_reported":1733123434,"current_range_meters":39200,"station_id":"ce4bgup2rcd13ifvqco0","pricing_plan_id":"cebpf4jnsgd1na2vs0mg"},{"bike_id":"8bd58dce-eb72-4b51-8331-0782bc4f2c65","system_id":"levelo_inurba_marseille","lat":43.28394,"lon":5.37529,"is_reserved":false,"is_disabled":false,"rental_uris":{"android":"levelo://app?vid=8bd58dce-eb72-4b51-8331-0782bc4f2c65","ios":"levelo://app?vid=8bd58dce-eb72-4b51-8331-0782bc4f2c65"},"vehicle_type_id":"4","last_reported":1733123434,"current_range_meters":12800,"station_id":"ce4bh412rcd13ifvqds0","pricing_plan_id":"cebpf4jnsgd1na2vs0mg"},{"bike_id":"64cbfd6a-4a4e-4d37-982c-18402a201eee","system_id":"levelo_inurba_marseille","lat":43.28668,"lon":5.36355,"is_reserved":false,"is_disabled":true,"rental_uris":{"android":"levelo://app?vid=64cbfd6a-4a4e-4d37-982c-18402a201eee","ios":"levelo://app?vid=64cbfd6a-4a4e-4d37-982c-18402a201eee"},"vehicle_type_id":"4","last_reported":1733123434,"current_range_meters":11200,"station_id":"ce4bhah2rcd13ifvqej0","pricing_plan_id":"cebpf4jnsgd1na2vs0mg"},{"bike_id":"abc1476c-a7e0-42d6-a54c-ef07025d3129","system_id":"levelo_inurba_marseille","lat":43.2749,"lon":5.42455,"is_reserved":false,"is_disabled":false,"rental_uris":{"android":"levelo://app?vid=abc1476c-a7e0-42d6-a54c-ef07025d3129","ios":"levelo://app?vid=abc1476c-a7e0-42d6-a54c-ef07025d3129"},"vehicle_type_id":"4","last_reported":1733123434,"current_range_meters":24400,"station_id":"ce4bhn92rcd13ifvqgrg","pricing_plan_id":"cebpf4jnsgd1na2vs0mg"},{"bike_id":"5ddfa011-d975-41ac-ab06-32125b62100c","system_id":"levelo_inurba_marseille","lat":43.28418,"lon":5.3752,"is_reserved":false,"is_disabled":true,"rental_uris":{"android":"levelo://app?vid=5ddfa011-d975-41ac-ab06-32125b62100c","ios":"levelo://app?vid=5ddfa011-d975-41ac-ab06-32125b62100c"},"vehicle_type_id":"4","last_reported":1733123434,"current_range_meters":29600,"station_id":"ce4bh412rcd13ifvqds0","pricing_plan_id":"cebpf4jnsgd1na2vs0mg"},{"bike_id":"d87048dc-7949-4961-9e2e-3261dbbd63db","system_id":"levelo_inurba_marseille","lat":43.29798,"lon":5.381,"is_reserved":false,"is_disabled":false,"rental_uris":{"android":"levelo://app?vid=d87048dc-7949-4961-9e2e-3261dbbd63db","ios":"levelo://app?vid=d87048dc-7949-4961-9e2e-3261dbbd63db"},"vehicle_type_id":"4","last_reported":1733123434,"current_range_meters":33200,"station_id":"ce4bgip2rcd13ifvqbb0","pricing_plan_id":"cebpf4jnsgd1na2vs0mg"},{"bike_id":"f792d34c-1c6d-47c1-a35b-7fabd691333d","system_id":"levelo_inurba_marseille","lat":43.33722,"lon":5.39174,"is_reserved":false,"is_disabled":false,"rental_uris":{"android":"levelo://app?vid=f792d34c-1c6d-47c1-a35b-7fabd691333d","ios":"levelo://app?vid=f792d34c-1c6d-47c1-a35b-7fabd691333d"},"vehicle_type_id":"4","last_reported":1733123434,"current_range_meters":24800,"station_id":"ce4bhr92rcd13ifvqhsg","pricing_plan_id":"cebpf4jnsgd1na2vs0mg"},{"bike_id":"209c0815-1137-465b-b0d6-13fcf1b7a485","system_id":"levelo_inurba_marseille","lat":43.29584,"lon":5.42288,"is_reserved":false,"is_disabled":false,"rental_uris":{"android":"levelo://app?vid=209c0815-1137-465b-b0d6-13fcf1b7a485","ios":"levelo://app?vid=209c0815-1137-465b-b0d6-13fcf1b7a485"},"vehicle_type_id":"4","last_reported":1733123434,"current_range_meters":38800,"station_id":"ce4bhph2rcd13ifvqhdg","pricing_plan_id":"cebpf4jnsgd1na2vs0mg"},{"bike_id":"1af2bf68-b591-469f-8d13-b72672c57912","system_id":"levelo_inurba_marseille","lat":43.29284,"lon":5.40121,"is_reserved":false,"is_disabled":false,"rental_uris":{"android":"levelo://app?vid=1af2bf68-b591-469f-8d13-b72672c57912","ios":"levelo://app?vid=1af2bf68-b591-469f-8d13-b72672c57912"},"vehicle_type_id":"4","last_reported":1733123434,"current_range_meters":40000,"station_id":"ce4bh312rcd13ifvqdk0","pricing_plan_id":"cebpf4jnsgd1na2vs0mg"},{"bike_id":"95c98dc0-e590-407f-91f9-1fb2b136e289","system_id":"levelo_inurba_marseille","lat":43.33605,"lon":5.41023,"is_reserved":false,"is_disabled":false,"rental_uris":{"android":"levelo://app?vid=95c98dc0-e590-407f-91f9-1fb2b136e289","ios":"levelo://app?vid=95c98dc0-e590-407f-91f9-1fb2b136e289"},"vehicle_type_id":"4","last_reported":1733123434,"current_range_meters":14000,"station_id":"ce4bhqh2rcd13ifvqhmg","pricing_plan_id":"cebpf4jnsgd1na2vs0mg"},{"bike_id":"8d53aea4-b624-4223-9f3c-514d8430415e","system_id":"levelo_inurba_marseille","lat":43.30465,"lon":5.37907,"is_reserved":false,"is_disabled":false,"rental_uris":{"android":"levelo://app?vid=8d53aea4-b624-4223-9f3c-514d8430415e","ios":"levelo://app?vid=8d53aea4-b624-4223-9f3c-514d8430415e"},"vehicle_type_id":"4","last_reported":1733123434,"current_range_meters":32400,"station_id":"ce4bgup2rcd13ifvqcn0","pricing_plan_id":"cebpf4jnsgd1na2vs0mg"},{"bike_id":"67fa2a9e-eed8-4ed6-bdd8-7d1023a52b4e","system_id":"levelo_inurba_marseille","lat":43.26937,"lon":5.38922,"is_reserved":false,"is_disabled":true,"rental_uris":{"android":"levelo://app?vid=67fa2a9e-eed8-4ed6-bdd8-7d1023a52b4e","ios":"levelo://app?vid=67fa2a9e-eed8-4ed6-bdd8-7d1023a52b4e"},"vehicle_type_id":"4","last_reported":1733123434,"current_range_meters":800,"station_id":"ce4bhhh2rcd13ifvqfl0","pricing_plan_id":"cebpf4jnsgd1na2vs0mg"},{"bike_id":"f372cb41-d885-4564-abfa-1c43654666e3","system_id":"levelo_inurba_marseille","lat":43.29599,"lon":5.38112,"is_reserved":false,"is_disabled":false,"rental_uris":{"android":"levelo://app?vid=f372cb41-d885-4564-abfa-1c43654666e3","ios":"levelo://app?vid=f372cb41-d885-4564-abfa-1c43654666e3"},"vehicle_type_id":"4","last_reported":1733123434,"current_range_meters":30800,"station_id":"ce4bgl12rcd13ifvqbo0","pricing_plan_id":"cebpf4jnsgd1na2vs0mg"},{"bike_id":"d7935a4e-3fa9-4259-9e60-39bc0ad852e1","system_id":"levelo_inurba_marseille","lat":43.29552,"lon":5.42286,"is_reserved":false,"is_disabled":false,"rental_uris":{"android":"levelo://app?vid=d7935a4e-3fa9-4259-9e60-39bc0ad852e1","ios":"levelo://app?vid=d7935a4e-3fa9-4259-9e60-39bc0ad852e1"},"vehicle_type_id":"4","last_reported":1733123434,"current_range_meters":38800,"station_id":"ce4bhph2rcd13ifvqhdg","pricing_plan_id":"cebpf4jnsgd1na2vs0mg"},{"bike_id":"3dc57342-a70a-4f92-ae52-6d8d5fa8ec86","system_id":"levelo_inurba_marseille","lat":43.28611,"lon":5.35103,"is_reserved":false,"is_disabled":false,"rental_uris":{"android":"levelo://app?vid=3dc57342-a70a-4f92-ae52-6d8d5fa8ec86","ios":"levelo://app?vid=3dc57342-a70a-4f92-ae52-6d8d5fa8ec86"},"vehicle_type_id":"4","last_reported":1733123434,"current_range_meters":36400,"station_id":"ce4bhch2rcd13ifvqeug","pricing_plan_id":"cebpf4jnsgd1na2vs0mg"},{"bike_id":"29a1eeda-68d1-4a65-9422-90c7ab358161","system_id":"levelo_inurba_marseille","lat":43.323,"lon":5.41322,"is_reserved":false,"is_disabled":false,"rental_uris":{"android":"levelo://app?vid=29a1eeda-68d1-4a65-9422-90c7ab358161","ios":"levelo://app?vid=29a1eeda-68d1-4a65-9422-90c7ab358161"},"vehicle_type_id":"4","last_reported":1733123434,"current_range_meters":17200,"station_id":"ce4bhq12rcd13ifvqhhg","pricing_plan_id":"cebpf4jnsgd1na2vs0mg"},{"bike_id":"9351f7f3-6667-4a7e-947c-47087698e629","system_id":"levelo_inurba_marseille","lat":43.25578,"lon":5.3824,"is_reserved":false,"is_disabled":false,"rental_uris":{"android":"levelo://app?vid=9351f7f3-6667-4a7e-947c-47087698e629","ios":"levelo://app?vid=9351f7f3-6667-4a7e-947c-47087698e629"},"vehicle_type_id":"4","last_reported":1733123434,"current_range_meters":39200,"station_id":"ce4bhih2rcd13ifvqfs0","pricing_plan_id":"cebpf4jnsgd1na2vs0mg"},{"bike_id":"fee40e4a-edf0-429c-9838-5fd8b4a4fd95","system_id":"levelo_inurba_marseille","lat":43.29741,"lon":5.37419,"is_reserved":false,"is_disabled":true,"rental_uris":{"android":"levelo://app?vid=fee40e4a-edf0-429c-9838-5fd8b4a4fd95","ios":"levelo://app?vid=fee40e4a-edf0-429c-9838-5fd8b4a4fd95"},"vehicle_type_id":"4","last_reported":1733123434,"current_range_meters":0,"station_id":"","pricing_plan_id":"cebpf4jnsgd1na2vs0mg"},{"bike_id":"921b6be9-d16c-43f9-8363-347306cda77c","system_id":"levelo_inurba_marseille","lat":43.30598,"lon":5.39361,"is_reserved":false,"is_disabled":false,"rental_uris":{"android":"levelo://app?vid=921b6be9-d16c-43f9-8363-347306cda77c","ios":"levelo://app?vid=921b6be9-d16c-43f9-8363-347306cda77c"},"vehicle_type_id":"4","last_reported":1733123434,"current_range_meters":38800,"station_id":"ce4bh0p2rcd13ifvqd80","pricing_plan_id":"cebpf4jnsgd1na2vs0mg"},{"bike_id":"b0c32e1c-fe1a-48b3-9a12-2b00c6865ded","system_id":"levelo_inurba_marseille","lat":43.29028,"lon":5.39977,"is_reserved":false,"is_disabled":false,"rental_uris":{"android":"levelo://app?vid=b0c32e1c-fe1a-48b3-9a12-2b00c6865ded","ios":"levelo://app?vid=b0c32e1c-fe1a-48b3-9a12-2b00c6865ded"},"vehicle_type_id":"4","last_reported":1733123434,"current_range_meters":33600,"station_id":"ce4bh392rcd13ifvqdm0","pricing_plan_id":"cebpf4jnsgd1na2vs0mg"},{"bike_id":"4dc21ef1-cda4-4e17-829d-fa108bdde67e","system_id":"levelo_inurba_marseille","lat":43.28451,"lon":5.35895,"is_reserved":false,"is_disabled":true,"rental_uris":{"android":"levelo://app?vid=4dc21ef1-cda4-4e17-829d-fa108bdde67e","ios":"levelo://app?vid=4dc21ef1-cda4-4e17-829d-fa108bdde67e"},"vehicle_type_id":"4","last_reported":1733123434,"current_range_meters":28400,"station_id":"ce4bhah2rcd13ifvqei0","pricing_plan_id":"cebpf4jnsgd1na2vs0mg"},{"bike_id":"45c95cf3-1aa9-4af9-a9a3-7dba50ecc20e","system_id":"levelo_inurba_marseille","lat":43.27447,"lon":5.40722,"is_reserved":false,"is_disabled":false,"rental_uris":{"android":"levelo://app?vid=45c95cf3-1aa9-4af9-a9a3-7dba50ecc20e","ios":"levelo://app?vid=45c95cf3-1aa9-4af9-a9a3-7dba50ecc20e"},"vehicle_type_id":"4","last_reported":1733123434,"current_range_meters":14800,"station_id":"","pricing_plan_id":"cebpf4jnsgd1na2vs0mg"},{"bike_id":"bc749360-3ce4-4dd6-a0ac-83aa82c323a7","system_id":"levelo_inurba_marseille","lat":43.28153,"lon":5.42635,"is_reserved":false,"is_disabled":true,"rental_uris":{"android":"levelo://app?vid=bc749360-3ce4-4dd6-a0ac-83aa82c323a7","ios":"levelo://app?vid=bc749360-3ce4-4dd6-a0ac-83aa82c323a7"},"vehicle_type_id":"4","last_reported":1733123434,"current_range_meters":26800,"station_id":"ce4bhnh2rcd13ifvqgug","pricing_plan_id":"cebpf4jnsgd1na2vs0mg"},{"bike_id":"69119abf-3c66-472b-86f8-2aaed0b2ab5d","system_id":"levelo_inurba_marseille","lat":43.30477,"lon":5.37906,"is_reserved":false,"is_disabled":false,"rental_uris":{"android":"levelo://app?vid=69119abf-3c66-472b-86f8-2aaed0b2ab5d","ios":"levelo://app?vid=69119abf-3c66-472b-86f8-2aaed0b2ab5d"},"vehicle_type_id":"4","last_reported":1733123434,"current_range_meters":36000,"station_id":"ce4bgup2rcd13ifvqcn0","pricing_plan_id":"cebpf4jnsgd1na2vs0mg"},{"bike_id":"cc40a8f8-ef37-4781-a116-3789e9267ed8","system_id":"levelo_inurba_marseille","lat":43.28111,"lon":5.37843,"is_reserved":false,"is_disabled":false,"rental_uris":{"android":"levelo://app?vid=cc40a8f8-ef37-4781-a116-3789e9267ed8","ios":"levelo://app?vid=cc40a8f8-ef37-4781-a116-3789e9267ed8"},"vehicle_type_id":"4","last_reported":1733123434,"current_range_meters":36000,"station_id":"ce4bha12rcd13ifvqee0","pricing_plan_id":"cebpf4jnsgd1na2vs0mg"},{"bike_id":"4d4c884f-6933-49c0-8899-f9856d90f44d","system_id":"levelo_inurba_marseille","lat":43.29748,"lon":5.37971,"is_reserved":false,"is_disabled":true,"rental_uris":{"android":"levelo://app?vid=4d4c884f-6933-49c0-8899-f9856d90f44d","ios":"levelo://app?vid=4d4c884f-6933-49c0-8899-f9856d90f44d"},"vehicle_type_id":"4","last_reported":1733123434,"current_range_meters":0,"station_id":"","pricing_plan_id":"cebpf4jnsgd1na2vs0mg"},{"bike_id":"49383f8c-5e0c-4bb5-aa2b-e1c81f4536f3","system_id":"levelo_inurba_marseille","lat":43.32291,"lon":5.38262,"is_reserved":false,"is_disabled":false,"rental_uris":{"android":"levelo://app?vid=49383f8c-5e0c-4bb5-aa2b-e1c81f4536f3","ios":"levelo://app?vid=49383f8c-5e0c-4bb5-aa2b-e1c81f4536f3"},"vehicle_type_id":"4","last_reported":1733123434,"current_range_meters":20400,"station_id":"ce4bhr12rcd13ifvqhqg","pricing_plan_id":"cebpf4jnsgd1na2vs0mg"},{"bike_id":"9bbeeeca-a67a-4dff-9e9e-acd0139da206","system_id":"levelo_inurba_marseille","lat":43.29794,"lon":5.38097,"is_reserved":false,"is_disabled":false,"rental_uris":{"android":"levelo://app?vid=9bbeeeca-a67a-4dff-9e9e-acd0139da206","ios":"levelo://app?vid=9bbeeeca-a67a-4dff-9e9e-acd0139da206"},"vehicle_type_id":"4","last_reported":1733123434,"current_range_meters":36800,"station_id":"ce4bgip2rcd13ifvqbb0","pricing_plan_id":"cebpf4jnsgd1na2vs0mg"},{"bike_id":"362acf97-9e8f-4c3e-8574-4958ae2ff74f","system_id":"levelo_inurba_marseille","lat":43.26256,"lon":5.4214,"is_reserved":false,"is_disabled":false,"rental_uris":{"android":"levelo://app?vid=362acf97-9e8f-4c3e-8574-4958ae2ff74f","ios":"levelo://app?vid=362acf97-9e8f-4c3e-8574-4958ae2ff74f"},"vehicle_type_id":"4","last_reported":1733123434,"current_range_meters":24800,"station_id":"","pricing_plan_id":"cebpf4jnsgd1na2vs0mg"},{"bike_id":"0f5fbce9-146c-49c4-8788-16d1a8f4deb0","system_id":"levelo_inurba_marseille","lat":43.30307,"lon":5.36598,"is_reserved":false,"is_disabled":true,"rental_uris":{"android":"levelo://app?vid=0f5fbce9-146c-49c4-8788-16d1a8f4deb0","ios":"levelo://app?vid=0f5fbce9-146c-49c4-8788-16d1a8f4deb0"},"vehicle_type_id":"4","last_reported":1733123434,"current_range_meters":0,"station_id":"","pricing_plan_id":"cebpf4jnsgd1na2vs0mg"},{"bike_id":"f070b46f-f295-4869-946e-332934d2e60a","system_id":"levelo_inurba_marseille","lat":43.22927,"lon":5.35378,"is_reserved":false,"is_disabled":false,"rental_uris":{"android":"levelo://app?vid=f070b46f-f295-4869-946e-332934d2e60a","ios":"levelo://app?vid=f070b46f-f295-4869-946e-332934d2e60a"},"vehicle_type_id":"4","last_reported":1733123434,"current_range_meters":36800,"station_id":"cpo3532slgdg3j2ikp40","pricing_plan_id":"cebpf4jnsgd1na2vs0mg"},{"bike_id":"b7b33697-14a7-4110-9b8b-4194e6ef5f3f","system_id":"levelo_inurba_marseille","lat":43.27277,"lon":5.39192,"is_reserved":false,"is_disabled":true,"rental_uris":{"android":"levelo://app?vid=b7b33697-14a7-4110-9b8b-4194e6ef5f3f","ios":"levelo://app?vid=b7b33697-14a7-4110-9b8b-4194e6ef5f3f"},"vehicle_type_id":"4","last_reported":1733123434,"current_range_meters":0,"station_id":"","pricing_plan_id":"cebpf4jnsgd1na2vs0mg"},{"bike_id":"e5c43912-5d71-4e6b-b798-0f0d5f246b60","system_id":"levelo_inurba_marseille","lat":43.29805,"lon":5.38089,"is_reserved":false,"is_disabled":false,"rental_uris":{"android":"levelo://app?vid=e5c43912-5d71-4e6b-b798-0f0d5f246b60","ios":"levelo://app?vid=e5c43912-5d71-4e6b-b798-0f0d5f246b60"},"vehicle_type_id":"4","last_reported":1733123434,"current_range_meters":17600,"station_id":"ce4bgip2rcd13ifvqbb0","pricing_plan_id":"cebpf4jnsgd1na2vs0mg"},{"bike_id":"ac49fba4-30df-4893-b052-7d9d76fd86a2","system_id":"levelo_inurba_marseille","lat":43.292576,"lon":5.384351,"is_reserved":false,"is_disabled":true,"rental_uris":{"android":"levelo://app?vid=ac49fba4-30df-4893-b052-7d9d76fd86a2","ios":"levelo://app?vid=ac49fba4-30df-4893-b052-7d9d76fd86a2"},"vehicle_type_id":"4","last_reported":1733123434,"current_range_meters":8400,"station_id":"ce4bh692rcd13ifvqea0","pricing_plan_id":"cebpf4jnsgd1na2vs0mg"},{"bike_id":"36ed591d-ae75-4af2-b10d-0b5a114c33eb","system_id":"levelo_inurba_marseille","lat":43.31117,"lon":5.37764,"is_reserved":false,"is_disabled":false,"rental_uris":{"android":"levelo://app?vid=36ed591d-ae75-4af2-b10d-0b5a114c33eb","ios":"levelo://app?vid=36ed591d-ae75-4af2-b10d-0b5a114c33eb"},"vehicle_type_id":"4","last_reported":1733123434,"current_range_meters":38800,"station_id":"ce4bgt92rcd13ifvqcg0","pricing_plan_id":"cebpf4jnsgd1na2vs0mg"},{"bike_id":"a3d540a5-c9e8-4c92-9399-ec0baac57a71","system_id":"levelo_inurba_marseille","lat":43.29534,"lon":5.38545,"is_reserved":false,"is_disabled":true,"rental_uris":{"android":"levelo://app?vid=a3d540a5-c9e8-4c92-9399-ec0baac57a71","ios":"levelo://app?vid=a3d540a5-c9e8-4c92-9399-ec0baac57a71"},"vehicle_type_id":"4","last_reported":1733123434,"current_range_meters":0,"station_id":"ce4bgih2rcd13ifvqba0","pricing_plan_id":"cebpf4jnsgd1na2vs0mg"},{"bike_id":"3f9639b8-d131-490f-a4bf-0add6fa589d4","system_id":"levelo_inurba_marseille","lat":43.27991,"lon":5.41661,"is_reserved":false,"is_disabled":false,"rental_uris":{"android":"levelo://app?vid=3f9639b8-d131-490f-a4bf-0add6fa589d4","ios":"levelo://app?vid=3f9639b8-d131-490f-a4bf-0add6fa589d4"},"vehicle_type_id":"4","last_reported":1733123434,"current_range_meters":11200,"station_id":"ce4bho12rcd13ifvqh1g","pricing_plan_id":"cebpf4jnsgd1na2vs0mg"},{"bike_id":"c70bed4a-03c3-4d48-9d9d-f10e1949ee20","system_id":"levelo_inurba_marseille","lat":43.25009,"lon":5.38927,"is_reserved":false,"is_disabled":false,"rental_uris":{"android":"levelo://app?vid=c70bed4a-03c3-4d48-9d9d-f10e1949ee20","ios":"levelo://app?vid=c70bed4a-03c3-4d48-9d9d-f10e1949ee20"},"vehicle_type_id":"4","last_reported":1733123434,"current_range_meters":38800,"station_id":"ce4bhgp2rcd13ifvqfd0","pricing_plan_id":"cebpf4jnsgd1na2vs0mg"},{"bike_id":"3abdb507-aca9-41cf-ab5c-c13fb795c3a0","system_id":"levelo_inurba_marseille","lat":43.28417,"lon":5.34983,"is_reserved":false,"is_disabled":true,"rental_uris":{"android":"levelo://app?vid=3abdb507-aca9-41cf-ab5c-c13fb795c3a0","ios":"levelo://app?vid=3abdb507-aca9-41cf-ab5c-c13fb795c3a0"},"vehicle_type_id":"4","last_reported":1733123434,"current_range_meters":0,"station_id":"ce4bhbh2rcd13ifvqepg","pricing_plan_id":"cebpf4jnsgd1na2vs0mg"},{"bike_id":"0c75325c-958e-45f7-89d5-8bf413dd17d1","system_id":"levelo_inurba_marseille","lat":43.30008,"lon":5.38275,"is_reserved":false,"is_disabled":true,"rental_uris":{"android":"levelo://app?vid=0c75325c-958e-45f7-89d5-8bf413dd17d1","ios":"levelo://app?vid=0c75325c-958e-45f7-89d5-8bf413dd17d1"},"vehicle_type_id":"4","last_reported":1733123434,"current_range_meters":0,"station_id":"","pricing_plan_id":"cebpf4jnsgd1na2vs0mg"},{"bike_id":"4b65f321-23de-42d0-8a83-e24edf203f2c","system_id":"levelo_inurba_marseille","lat":43.30595,"lon":5.39353,"is_reserved":false,"is_disabled":false,"rental_uris":{"android":"levelo://app?vid=4b65f321-23de-42d0-8a83-e24edf203f2c","ios":"levelo://app?vid=4b65f321-23de-42d0-8a83-e24edf203f2c"},"vehicle_type_id":"4","last_reported":1733123434,"current_range_meters":29600,"station_id":"ce4bh0p2rcd13ifvqd80","pricing_plan_id":"cebpf4jnsgd1na2vs0mg"},{"bike_id":"1647425c-b045-479f-a4a8-2dbad79c7c70","system_id":"levelo_inurba_marseille","lat":43.26787,"lon":5.39417,"is_reserved":false,"is_disabled":false,"rental_uris":{"android":"levelo://app?vid=1647425c-b045-479f-a4a8-2dbad79c7c70","ios":"levelo://app?vid=1647425c-b045-479f-a4a8-2dbad79c7c70"},"vehicle_type_id":"4","last_reported":1733123434,"current_range_meters":3600,"station_id":"ce4bhh12rcd13ifvqfg0","pricing_plan_id":"cebpf4jnsgd1na2vs0mg"},{"bike_id":"6c3b4431-ca2c-4347-a6db-d1e4dee15e08","system_id":"levelo_inurba_marseille","lat":43.27495,"lon":5.42455,"is_reserved":false,"is_disabled":false,"rental_uris":{"android":"levelo://app?vid=6c3b4431-ca2c-4347-a6db-d1e4dee15e08","ios":"levelo://app?vid=6c3b4431-ca2c-4347-a6db-d1e4dee15e08"},"vehicle_type_id":"4","last_reported":1733123434,"current_range_meters":25600,"station_id":"ce4bhn92rcd13ifvqgrg","pricing_plan_id":"cebpf4jnsgd1na2vs0mg"},{"bike_id":"3e7b4b23-6031-4448-8da9-17647584ad72","system_id":"levelo_inurba_marseille","lat":43.29058,"lon":5.37153,"is_reserved":false,"is_disabled":true,"rental_uris":{"android":"levelo://app?vid=3e7b4b23-6031-4448-8da9-17647584ad72","ios":"levelo://app?vid=3e7b4b23-6031-4448-8da9-17647584ad72"},"vehicle_type_id":"4","last_reported":1733123434,"current_range_meters":28400,"station_id":"ce4bh5p2rcd13ifvqe4g","pricing_plan_id":"cebpf4jnsgd1na2vs0mg"},{"bike_id":"f01a222f-2f70-41ae-b176-749e1a932354","system_id":"levelo_inurba_marseille","lat":43.30588,"lon":5.39348,"is_reserved":false,"is_disabled":false,"rental_uris":{"android":"levelo://app?vid=f01a222f-2f70-41ae-b176-749e1a932354","ios":"levelo://app?vid=f01a222f-2f70-41ae-b176-749e1a932354"},"vehicle_type_id":"4","last_reported":1733123434,"current_range_meters":34000,"station_id":"ce4bh0p2rcd13ifvqd80","pricing_plan_id":"cebpf4jnsgd1na2vs0mg"},{"bike_id":"314d1365-c0f9-4b36-8299-e279909a774d","system_id":"levelo_inurba_marseille","lat":43.31214,"lon":5.36859,"is_reserved":false,"is_disabled":true,"rental_uris":{"android":"levelo://app?vid=314d1365-c0f9-4b36-8299-e279909a774d","ios":"levelo://app?vid=314d1365-c0f9-4b36-8299-e279909a774d"},"vehicle_type_id":"4","last_reported":1733123434,"current_range_meters":0,"station_id":"ce4bgl92rcd13ifvqbq0","pricing_plan_id":"cebpf4jnsgd1na2vs0mg"},{"bike_id":"539c7285-05dd-4c53-aa65-8fa16ef0ea68","system_id":"levelo_inurba_marseille","lat":43.23158,"lon":5.43701,"is_reserved":false,"is_disabled":false,"rental_uris":{"android":"levelo://app?vid=539c7285-05dd-4c53-aa65-8fa16ef0ea68","ios":"levelo://app?vid=539c7285-05dd-4c53-aa65-8fa16ef0ea68"},"vehicle_type_id":"4","last_reported":1733123434,"current_range_meters":38000,"station_id":"ce4bhmp2rcd13ifvqgog","pricing_plan_id":"cebpf4jnsgd1na2vs0mg"},{"bike_id":"a0d8c5dc-0261-4057-8633-570358d88be8","system_id":"levelo_inurba_marseille","lat":43.24809,"lon":5.37453,"is_reserved":false,"is_disabled":true,"rental_uris":{"android":"levelo://app?vid=a0d8c5dc-0261-4057-8633-570358d88be8","ios":"levelo://app?vid=a0d8c5dc-0261-4057-8633-570358d88be8"},"vehicle_type_id":"4","last_reported":1733123434,"current_range_meters":38800,"station_id":"ce4bhgh2rcd13ifvqfb0","pricing_plan_id":"cebpf4jnsgd1na2vs0mg"},{"bike_id":"8e126d5e-9202-4d02-9b96-07562eaa0d7f","system_id":"levelo_inurba_marseille","lat":43.33721,"lon":5.39177,"is_reserved":false,"is_disabled":false,"rental_uris":{"android":"levelo://app?vid=8e126d5e-9202-4d02-9b96-07562eaa0d7f","ios":"levelo://app?vid=8e126d5e-9202-4d02-9b96-07562eaa0d7f"},"vehicle_type_id":"4","last_reported":1733123434,"current_range_meters":22400,"station_id":"ce4bhr92rcd13ifvqhsg","pricing_plan_id":"cebpf4jnsgd1na2vs0mg"},{"bike_id":"cd8cc499-deb6-4097-9823-c7ccf6d23d4f","system_id":"levelo_inurba_marseille","lat":43.28034,"lon":5.36955,"is_reserved":false,"is_disabled":true,"rental_uris":{"android":"levelo://app?vid=cd8cc499-deb6-4097-9823-c7ccf6d23d4f","ios":"levelo://app?vid=cd8cc499-deb6-4097-9823-c7ccf6d23d4f"},"vehicle_type_id":"4","last_reported":1733123434,"current_range_meters":0,"station_id":"ce4bha12rcd13ifvqef0","pricing_plan_id":"cebpf4jnsgd1na2vs0mg"},{"bike_id":"89eb09d9-d8ae-446e-8af0-071b78d5e9a6","system_id":"levelo_inurba_marseille","lat":43.28418,"lon":5.34992,"is_reserved":false,"is_disabled":false,"rental_uris":{"android":"levelo://app?vid=89eb09d9-d8ae-446e-8af0-071b78d5e9a6","ios":"levelo://app?vid=89eb09d9-d8ae-446e-8af0-071b78d5e9a6"},"vehicle_type_id":"4","last_reported":1733123434,"current_range_meters":37600,"station_id":"ce4bhbh2rcd13ifvqepg","pricing_plan_id":"cebpf4jnsgd1na2vs0mg"},{"bike_id":"064861a6-5a15-4e22-bc40-26ea165590ab","system_id":"levelo_inurba_marseille","lat":43.29186,"lon":5.3931,"is_reserved":false,"is_disabled":true,"rental_uris":{"android":"levelo://app?vid=064861a6-5a15-4e22-bc40-26ea165590ab","ios":"levelo://app?vid=064861a6-5a15-4e22-bc40-26ea165590ab"},"vehicle_type_id":"4","last_reported":1733123434,"current_range_meters":20400,"station_id":"ce4bh192rcd13ifvqdd0","pricing_plan_id":"cebpf4jnsgd1na2vs0mg"},{"bike_id":"83187be1-7efa-435e-ae9b-74201cb4dec3","system_id":"levelo_inurba_marseille","lat":43.26687,"lon":5.38277,"is_reserved":false,"is_disabled":true,"rental_uris":{"android":"levelo://app?vid=83187be1-7efa-435e-ae9b-74201cb4dec3","ios":"levelo://app?vid=83187be1-7efa-435e-ae9b-74201cb4dec3"},"vehicle_type_id":"4","last_reported":1733123434,"current_range_meters":35200,"station_id":"ce4bhg92rcd13ifvqf90","pricing_plan_id":"cebpf4jnsgd1na2vs0mg"},{"bike_id":"2aa1e707-1373-4f29-9a6c-51393a307d7d","system_id":"levelo_inurba_marseille","lat":43.3188,"lon":5.40735,"is_reserved":false,"is_disabled":false,"rental_uris":{"android":"levelo://app?vid=2aa1e707-1373-4f29-9a6c-51393a307d7d","ios":"levelo://app?vid=2aa1e707-1373-4f29-9a6c-51393a307d7d"},"vehicle_type_id":"4","last_reported":1733123434,"current_range_meters":8000,"station_id":"ce4bhq12rcd13ifvqhig","pricing_plan_id":"cebpf4jnsgd1na2vs0mg"},{"bike_id":"e8fa7be1-2407-41a7-b843-e7c70f1917ef","system_id":"levelo_inurba_marseille","lat":43.27611,"lon":5.36109,"is_reserved":false,"is_disabled":true,"rental_uris":{"android":"levelo://app?vid=e8fa7be1-2407-41a7-b843-e7c70f1917ef","ios":"levelo://app?vid=e8fa7be1-2407-41a7-b843-e7c70f1917ef"},"vehicle_type_id":"4","last_reported":1733123434,"current_range_meters":0,"station_id":"ce4bgj92rcd13ifvqbe0","pricing_plan_id":"cebpf4jnsgd1na2vs0mg"},{"bike_id":"a587d46a-e206-4cff-b895-638a2803d2fa","system_id":"levelo_inurba_marseille","lat":43.29284,"lon":5.4012,"is_reserved":false,"is_disabled":false,"rental_uris":{"android":"levelo://app?vid=a587d46a-e206-4cff-b895-638a2803d2fa","ios":"levelo://app?vid=a587d46a-e206-4cff-b895-638a2803d2fa"},"vehicle_type_id":"4","last_reported":1733123434,"current_range_meters":16400,"station_id":"ce4bh312rcd13ifvqdk0","pricing_plan_id":"cebpf4jnsgd1na2vs0mg"},{"bike_id":"5bc8eee1-5d5e-4028-b515-d7e893f783cb","system_id":"levelo_inurba_marseille","lat":43.30187,"lon":5.38051,"is_reserved":false,"is_disabled":false,"rental_uris":{"android":"levelo://app?vid=5bc8eee1-5d5e-4028-b515-d7e893f783cb","ios":"levelo://app?vid=5bc8eee1-5d5e-4028-b515-d7e893f783cb"},"vehicle_type_id":"4","last_reported":1733123434,"current_range_meters":32000,"station_id":"ce4bgjp2rcd13ifvqbh0","pricing_plan_id":"cebpf4jnsgd1na2vs0mg"},{"bike_id":"17a954bd-2cd5-470d-83a1-74e68c25205f","system_id":"levelo_inurba_marseille","lat":43.27993,"lon":5.41662,"is_reserved":false,"is_disabled":true,"rental_uris":{"android":"levelo://app?vid=17a954bd-2cd5-470d-83a1-74e68c25205f","ios":"levelo://app?vid=17a954bd-2cd5-470d-83a1-74e68c25205f"},"vehicle_type_id":"4","last_reported":1733123434,"current_range_meters":14400,"station_id":"ce4bho12rcd13ifvqh1g","pricing_plan_id":"cebpf4jnsgd1na2vs0mg"},{"bike_id":"04b4280b-830d-4785-aa41-f9de4cd28461","system_id":"levelo_inurba_marseille","lat":43.28973,"lon":5.37839,"is_reserved":false,"is_disabled":false,"rental_uris":{"android":"levelo://app?vid=04b4280b-830d-4785-aa41-f9de4cd28461","ios":"levelo://app?vid=04b4280b-830d-4785-aa41-f9de4cd28461"},"vehicle_type_id":"4","last_reported":1733123434,"current_range_meters":39200,"station_id":"ce4bh9p2rcd13ifvqed0","pricing_plan_id":"cebpf4jnsgd1na2vs0mg"},{"bike_id":"b0622afc-04ba-4de0-93bc-f684fb812ee6","system_id":"levelo_inurba_marseille","lat":43.30541,"lon":5.36714,"is_reserved":false,"is_disabled":false,"rental_uris":{"android":"levelo://app?vid=b0622afc-04ba-4de0-93bc-f684fb812ee6","ios":"levelo://app?vid=b0622afc-04ba-4de0-93bc-f684fb812ee6"},"vehicle_type_id":"4","last_reported":1733123434,"current_range_meters":10800,"station_id":"ce4bgrp2rcd13ifvqc9g","pricing_plan_id":"cebpf4jnsgd1na2vs0mg"},{"bike_id":"ad2a8c43-8d0a-44d3-88ac-fa0abdc01227","system_id":"levelo_inurba_marseille","lat":43.29054,"lon":5.39942,"is_reserved":false,"is_disabled":false,"rental_uris":{"android":"levelo://app?vid=ad2a8c43-8d0a-44d3-88ac-fa0abdc01227","ios":"levelo://app?vid=ad2a8c43-8d0a-44d3-88ac-fa0abdc01227"},"vehicle_type_id":"4","last_reported":1733123434,"current_range_meters":30800,"station_id":"ce4bh392rcd13ifvqdm0","pricing_plan_id":"cebpf4jnsgd1na2vs0mg"},{"bike_id":"f0377788-1477-4300-b47b-703012aeff49","system_id":"levelo_inurba_marseille","lat":43.2749,"lon":5.42462,"is_reserved":false,"is_disabled":false,"rental_uris":{"android":"levelo://app?vid=f0377788-1477-4300-b47b-703012aeff49","ios":"levelo://app?vid=f0377788-1477-4300-b47b-703012aeff49"},"vehicle_type_id":"4","last_reported":1733123434,"current_range_meters":22800,"station_id":"ce4bhn92rcd13ifvqgrg","pricing_plan_id":"cebpf4jnsgd1na2vs0mg"},{"bike_id":"c99dc7d1-f839-47ca-ac7e-5db683a0820f","system_id":"levelo_inurba_marseille","lat":43.30312,"lon":5.36899,"is_reserved":false,"is_disabled":false,"rental_uris":{"android":"levelo://app?vid=c99dc7d1-f839-47ca-ac7e-5db683a0820f","ios":"levelo://app?vid=c99dc7d1-f839-47ca-ac7e-5db683a0820f"},"vehicle_type_id":"4","last_reported":1733123434,"current_range_meters":24400,"station_id":"ce4bgqh2rcd13ifvqc5g","pricing_plan_id":"cebpf4jnsgd1na2vs0mg"},{"bike_id":"2c1a3a2a-851d-4445-938b-4c79b3a16576","system_id":"levelo_inurba_marseille","lat":43.27497,"lon":5.42452,"is_reserved":false,"is_disabled":false,"rental_uris":{"android":"levelo://app?vid=2c1a3a2a-851d-4445-938b-4c79b3a16576","ios":"levelo://app?vid=2c1a3a2a-851d-4445-938b-4c79b3a16576"},"vehicle_type_id":"4","last_reported":1733123434,"current_range_meters":37600,"station_id":"ce4bhn92rcd13ifvqgrg","pricing_plan_id":"cebpf4jnsgd1na2vs0mg"},{"bike_id":"ea1337cb-aaf9-4a8f-9612-c78771fe8808","system_id":"levelo_inurba_marseille","lat":43.25287,"lon":5.39455,"is_reserved":false,"is_disabled":true,"rental_uris":{"android":"levelo://app?vid=ea1337cb-aaf9-4a8f-9612-c78771fe8808","ios":"levelo://app?vid=ea1337cb-aaf9-4a8f-9612-c78771fe8808"},"vehicle_type_id":"4","last_reported":1733123434,"current_range_meters":0,"station_id":"","pricing_plan_id":"cebpf4jnsgd1na2vs0mg"},{"bike_id":"0ad476d2-e3a3-4e5b-b147-4ee284ea0907","system_id":"levelo_inurba_marseille","lat":43.29035,"lon":5.38646,"is_reserved":false,"is_disabled":false,"rental_uris":{"android":"levelo://app?vid=0ad476d2-e3a3-4e5b-b147-4ee284ea0907","ios":"levelo://app?vid=0ad476d2-e3a3-4e5b-b147-4ee284ea0907"},"vehicle_type_id":"4","last_reported":1733123434,"current_range_meters":23200,"station_id":"ce4bh4p2rcd13ifvqe0g","pricing_plan_id":"cebpf4jnsgd1na2vs0mg"},{"bike_id":"0373a1de-3c25-4a8f-b217-095ae529aded","system_id":"levelo_inurba_marseille","lat":43.28358,"lon":5.38097,"is_reserved":false,"is_disabled":false,"rental_uris":{"android":"levelo://app?vid=0373a1de-3c25-4a8f-b217-095ae529aded","ios":"levelo://app?vid=0373a1de-3c25-4a8f-b217-095ae529aded"},"vehicle_type_id":"4","last_reported":1733123434,"current_range_meters":35600,"station_id":"ce4bh412rcd13ifvqdr0","pricing_plan_id":"cebpf4jnsgd1na2vs0mg"},{"bike_id":"af12a5f9-720e-4019-987d-3779fe2b91a2","system_id":"levelo_inurba_marseille","lat":43.30823,"lon":5.37412,"is_reserved":false,"is_disabled":true,"rental_uris":{"android":"levelo://app?vid=af12a5f9-720e-4019-987d-3779fe2b91a2","ios":"levelo://app?vid=af12a5f9-720e-4019-987d-3779fe2b91a2"},"vehicle_type_id":"4","last_reported":1733123434,"current_range_meters":0,"station_id":"","pricing_plan_id":"cebpf4jnsgd1na2vs0mg"},{"bike_id":"59ef04f5-1cf8-4d1e-9688-51140c94c707","system_id":"levelo_inurba_marseille","lat":43.29552,"lon":5.42285,"is_reserved":false,"is_disabled":false,"rental_uris":{"android":"levelo://app?vid=59ef04f5-1cf8-4d1e-9688-51140c94c707","ios":"levelo://app?vid=59ef04f5-1cf8-4d1e-9688-51140c94c707"},"vehicle_type_id":"4","last_reported":1733123434,"current_range_meters":17600,"station_id":"ce4bhph2rcd13ifvqhdg","pricing_plan_id":"cebpf4jnsgd1na2vs0mg"},{"bike_id":"d4254808-c504-4781-a69e-d4c90480d730","system_id":"levelo_inurba_marseille","lat":43.30699,"lon":5.387575,"is_reserved":false,"is_disabled":false,"rental_uris":{"android":"levelo://app?vid=d4254808-c504-4781-a69e-d4c90480d730","ios":"levelo://app?vid=d4254808-c504-4781-a69e-d4c90480d730"},"vehicle_type_id":"4","last_reported":1733123434,"current_range_meters":37600,"station_id":"ce4bhsp2rcd13ifvqi50","pricing_plan_id":"cebpf4jnsgd1na2vs0mg"},{"bike_id":"6f206291-5210-422f-bd21-551cab675f49","system_id":"levelo_inurba_marseille","lat":43.30959,"lon":5.3904,"is_reserved":false,"is_disabled":false,"rental_uris":{"android":"levelo://app?vid=6f206291-5210-422f-bd21-551cab675f49","ios":"levelo://app?vid=6f206291-5210-422f-bd21-551cab675f49"},"vehicle_type_id":"4","last_reported":1733123434,"current_range_meters":18000,"station_id":"ce4bgup2rcd13ifvqco0","pricing_plan_id":"cebpf4jnsgd1na2vs0mg"},{"bike_id":"428917c0-4eec-437c-a8d3-47cb284890bd","system_id":"levelo_inurba_marseille","lat":43.30948,"lon":5.39046,"is_reserved":false,"is_disabled":false,"rental_uris":{"android":"levelo://app?vid=428917c0-4eec-437c-a8d3-47cb284890bd","ios":"levelo://app?vid=428917c0-4eec-437c-a8d3-47cb284890bd"},"vehicle_type_id":"4","last_reported":1733123434,"current_range_meters":32000,"station_id":"ce4bgup2rcd13ifvqco0","pricing_plan_id":"cebpf4jnsgd1na2vs0mg"},{"bike_id":"e8aaf989-f7c7-4f92-9039-2cedc59abe88","system_id":"levelo_inurba_marseille","lat":43.25387,"lon":5.41855,"is_reserved":false,"is_disabled":false,"rental_uris":{"android":"levelo://app?vid=e8aaf989-f7c7-4f92-9039-2cedc59abe88","ios":"levelo://app?vid=e8aaf989-f7c7-4f92-9039-2cedc59abe88"},"vehicle_type_id":"4","last_reported":1733123434,"current_range_meters":25600,"station_id":"","pricing_plan_id":"cebpf4jnsgd1na2vs0mg"},{"bike_id":"ac2a82ed-217d-4a5c-aeff-ea21a140ef53","system_id":"levelo_inurba_marseille","lat":43.28079,"lon":5.35635,"is_reserved":false,"is_disabled":false,"rental_uris":{"android":"levelo://app?vid=ac2a82ed-217d-4a5c-aeff-ea21a140ef53","ios":"levelo://app?vid=ac2a82ed-217d-4a5c-aeff-ea21a140ef53"},"vehicle_type_id":"4","last_reported":1733123434,"current_range_meters":12800,"station_id":"","pricing_plan_id":"cebpf4jnsgd1na2vs0mg"},{"bike_id":"e21d593d-4b3f-4212-bd78-3395240050d3","system_id":"levelo_inurba_marseille","lat":43.30488,"lon":5.37906,"is_reserved":false,"is_disabled":false,"rental_uris":{"android":"levelo://app?vid=e21d593d-4b3f-4212-bd78-3395240050d3","ios":"levelo://app?vid=e21d593d-4b3f-4212-bd78-3395240050d3"},"vehicle_type_id":"4","last_reported":1733123434,"current_range_meters":25200,"station_id":"ce4bgup2rcd13ifvqcn0","pricing_plan_id":"cebpf4jnsgd1na2vs0mg"},{"bike_id":"4a2be555-d056-454c-bed3-fe781ba86f8e","system_id":"levelo_inurba_marseille","lat":43.25886,"lon":5.39954,"is_reserved":false,"is_disabled":true,"rental_uris":{"android":"levelo://app?vid=4a2be555-d056-454c-bed3-fe781ba86f8e","ios":"levelo://app?vid=4a2be555-d056-454c-bed3-fe781ba86f8e"},"vehicle_type_id":"4","last_reported":1733123434,"current_range_meters":0,"station_id":"","pricing_plan_id":"cebpf4jnsgd1na2vs0mg"},{"bike_id":"1840406f-57c2-4c53-8cd2-48e6fb3033a3","system_id":"levelo_inurba_marseille","lat":43.2957,"lon":5.37504,"is_reserved":false,"is_disabled":false,"rental_uris":{"android":"levelo://app?vid=1840406f-57c2-4c53-8cd2-48e6fb3033a3","ios":"levelo://app?vid=1840406f-57c2-4c53-8cd2-48e6fb3033a3"},"vehicle_type_id":"4","last_reported":1733123434,"current_range_meters":34000,"station_id":"ce4bgh92rcd13ifvqb50","pricing_plan_id":"cebpf4jnsgd1na2vs0mg"},{"bike_id":"e72f72c7-28ee-4a00-ac95-3095ed74405a","system_id":"levelo_inurba_marseille","lat":43.29977,"lon":5.385,"is_reserved":false,"is_disabled":true,"rental_uris":{"android":"levelo://app?vid=e72f72c7-28ee-4a00-ac95-3095ed74405a","ios":"levelo://app?vid=e72f72c7-28ee-4a00-ac95-3095ed74405a"},"vehicle_type_id":"4","last_reported":1733123434,"current_range_meters":35200,"station_id":"ce4bgj92rcd13ifvqbd0","pricing_plan_id":"cebpf4jnsgd1na2vs0mg"},{"bike_id":"41329919-d8a6-4529-9c36-e6723e50ee60","system_id":"levelo_inurba_marseille","lat":43.30301,"lon":5.39209,"is_reserved":false,"is_disabled":true,"rental_uris":{"android":"levelo://app?vid=41329919-d8a6-4529-9c36-e6723e50ee60","ios":"levelo://app?vid=41329919-d8a6-4529-9c36-e6723e50ee60"},"vehicle_type_id":"4","last_reported":1733123434,"current_range_meters":27600,"station_id":"ce4bgkh2rcd13ifvqbk0","pricing_plan_id":"cebpf4jnsgd1na2vs0mg"},{"bike_id":"09edfc10-ab60-47b5-8378-9794a64fdb71","system_id":"levelo_inurba_marseille","lat":43.27492,"lon":5.42456,"is_reserved":false,"is_disabled":false,"rental_uris":{"android":"levelo://app?vid=09edfc10-ab60-47b5-8378-9794a64fdb71","ios":"levelo://app?vid=09edfc10-ab60-47b5-8378-9794a64fdb71"},"vehicle_type_id":"4","last_reported":1733123434,"current_range_meters":6800,"station_id":"ce4bhn92rcd13ifvqgrg","pricing_plan_id":"cebpf4jnsgd1na2vs0mg"},{"bike_id":"fa36e057-0244-43ad-ae67-b04971e1b6fb","system_id":"levelo_inurba_marseille","lat":43.28465,"lon":5.38407,"is_reserved":false,"is_disabled":false,"rental_uris":{"android":"levelo://app?vid=fa36e057-0244-43ad-ae67-b04971e1b6fb","ios":"levelo://app?vid=fa36e057-0244-43ad-ae67-b04971e1b6fb"},"vehicle_type_id":"4","last_reported":1733123434,"current_range_meters":26800,"station_id":"ce4bh512rcd13ifvqe3g","pricing_plan_id":"cebpf4jnsgd1na2vs0mg"},{"bike_id":"2b817691-0af5-4b86-862a-cc0599ff7c3d","system_id":"levelo_inurba_marseille","lat":43.24669,"lon":5.38163,"is_reserved":false,"is_disabled":false,"rental_uris":{"android":"levelo://app?vid=2b817691-0af5-4b86-862a-cc0599ff7c3d","ios":"levelo://app?vid=2b817691-0af5-4b86-862a-cc0599ff7c3d"},"vehicle_type_id":"4","last_reported":1733123434,"current_range_meters":10800,"station_id":"ce4bhih2rcd13ifvqfr0","pricing_plan_id":"cebpf4jnsgd1na2vs0mg"},{"bike_id":"000b518d-442b-4752-8b9a-e2fc3654d286","system_id":"levelo_inurba_marseille","lat":43.29446,"lon":5.3976,"is_reserved":false,"is_disabled":true,"rental_uris":{"android":"levelo://app?vid=000b518d-442b-4752-8b9a-e2fc3654d286","ios":"levelo://app?vid=000b518d-442b-4752-8b9a-e2fc3654d286"},"vehicle_type_id":"4","last_reported":1733123434,"current_range_meters":12400,"station_id":"ce4bh3h2rcd13ifvqdo0","pricing_plan_id":"cebpf4jnsgd1na2vs0mg"},{"bike_id":"e39d22a4-daed-483a-acbb-550d4592cfe0","system_id":"levelo_inurba_marseille","lat":43.300573,"lon":5.388292,"is_reserved":false,"is_disabled":true,"rental_uris":{"android":"levelo://app?vid=e39d22a4-daed-483a-acbb-550d4592cfe0","ios":"levelo://app?vid=e39d22a4-daed-483a-acbb-550d4592cfe0"},"vehicle_type_id":"4","last_reported":1733123434,"current_range_meters":0,"station_id":"","pricing_plan_id":"cebpf4jnsgd1na2vs0mg"},{"bike_id":"f9c8b933-6f3c-415b-a23a-3b43c2f5668d","system_id":"levelo_inurba_marseille","lat":43.23057,"lon":5.35502,"is_reserved":false,"is_disabled":true,"rental_uris":{"android":"levelo://app?vid=f9c8b933-6f3c-415b-a23a-3b43c2f5668d","ios":"levelo://app?vid=f9c8b933-6f3c-415b-a23a-3b43c2f5668d"},"vehicle_type_id":"4","last_reported":1733123434,"current_range_meters":27200,"station_id":"cpo3342slgdg3j2ifvpg","pricing_plan_id":"cebpf4jnsgd1na2vs0mg"},{"bike_id":"f51a3d60-ff18-4f8a-8906-bf85e4374508","system_id":"levelo_inurba_marseille","lat":43.289332,"lon":5.363937,"is_reserved":false,"is_disabled":false,"rental_uris":{"android":"levelo://app?vid=f51a3d60-ff18-4f8a-8906-bf85e4374508","ios":"levelo://app?vid=f51a3d60-ff18-4f8a-8906-bf85e4374508"},"vehicle_type_id":"4","last_reported":1733123434,"current_range_meters":38000,"station_id":"ce4bhc92rcd13ifvqetg","pricing_plan_id":"cebpf4jnsgd1na2vs0mg"},{"bike_id":"61437026-c0b5-4e2f-b687-aae8e3f2e819","system_id":"levelo_inurba_marseille","lat":43.3021,"lon":5.3947,"is_reserved":false,"is_disabled":false,"rental_uris":{"android":"levelo://app?vid=61437026-c0b5-4e2f-b687-aae8e3f2e819","ios":"levelo://app?vid=61437026-c0b5-4e2f-b687-aae8e3f2e819"},"vehicle_type_id":"4","last_reported":1733123434,"current_range_meters":39200,"station_id":"ce4bh0p2rcd13ifvqd70","pricing_plan_id":"cebpf4jnsgd1na2vs0mg"},{"bike_id":"4954d5b0-cb11-4786-b621-885573774050","system_id":"levelo_inurba_marseille","lat":43.30466,"lon":5.37905,"is_reserved":false,"is_disabled":false,"rental_uris":{"android":"levelo://app?vid=4954d5b0-cb11-4786-b621-885573774050","ios":"levelo://app?vid=4954d5b0-cb11-4786-b621-885573774050"},"vehicle_type_id":"4","last_reported":1733123434,"current_range_meters":18000,"station_id":"ce4bgup2rcd13ifvqcn0","pricing_plan_id":"cebpf4jnsgd1na2vs0mg"},{"bike_id":"06e6470a-e7c6-43e1-8faf-2131a4d6a529","system_id":"levelo_inurba_marseille","lat":43.23182,"lon":5.39979,"is_reserved":false,"is_disabled":false,"rental_uris":{"android":"levelo://app?vid=06e6470a-e7c6-43e1-8faf-2131a4d6a529","ios":"levelo://app?vid=06e6470a-e7c6-43e1-8faf-2131a4d6a529"},"vehicle_type_id":"4","last_reported":1733123434,"current_range_meters":39200,"station_id":"ce4bhn12rcd13ifvqgqg","pricing_plan_id":"cebpf4jnsgd1na2vs0mg"},{"bike_id":"3f59b417-afad-4b62-9f61-287fb5ce9cbf","system_id":"levelo_inurba_marseille","lat":43.310711,"lon":5.383604,"is_reserved":false,"is_disabled":false,"rental_uris":{"android":"levelo://app?vid=3f59b417-afad-4b62-9f61-287fb5ce9cbf","ios":"levelo://app?vid=3f59b417-afad-4b62-9f61-287fb5ce9cbf"},"vehicle_type_id":"4","last_reported":1733123434,"current_range_meters":38400,"station_id":"ce4bgv92rcd13ifvqcr0","pricing_plan_id":"cebpf4jnsgd1na2vs0mg"},{"bike_id":"a19e7c09-426c-4663-a587-838f2a821c45","system_id":"levelo_inurba_marseille","lat":43.30061,"lon":5.40391,"is_reserved":false,"is_disabled":false,"rental_uris":{"android":"levelo://app?vid=a19e7c09-426c-4663-a587-838f2a821c45","ios":"levelo://app?vid=a19e7c09-426c-4663-a587-838f2a821c45"},"vehicle_type_id":"4","last_reported":1733123434,"current_range_meters":24400,"station_id":"","pricing_plan_id":"cebpf4jnsgd1na2vs0mg"},{"bike_id":"b535dfd0-ec01-4a13-996f-71245b6113cc","system_id":"levelo_inurba_marseille","lat":43.27977,"lon":5.41229,"is_reserved":false,"is_disabled":true,"rental_uris":{"android":"levelo://app?vid=b535dfd0-ec01-4a13-996f-71245b6113cc","ios":"levelo://app?vid=b535dfd0-ec01-4a13-996f-71245b6113cc"},"vehicle_type_id":"4","last_reported":1733123434,"current_range_meters":0,"station_id":"","pricing_plan_id":"cebpf4jnsgd1na2vs0mg"},{"bike_id":"11d5604e-29c4-4f54-96ae-67f1e4e1420d","system_id":"levelo_inurba_marseille","lat":43.29569,"lon":5.37512,"is_reserved":false,"is_disabled":true,"rental_uris":{"android":"levelo://app?vid=11d5604e-29c4-4f54-96ae-67f1e4e1420d","ios":"levelo://app?vid=11d5604e-29c4-4f54-96ae-67f1e4e1420d"},"vehicle_type_id":"4","last_reported":1733123434,"current_range_meters":0,"station_id":"ce4bgh92rcd13ifvqb50","pricing_plan_id":"cebpf4jnsgd1na2vs0mg"},{"bike_id":"50d811eb-b350-43c8-951e-a766203fc36d","system_id":"levelo_inurba_marseille","lat":43.25107,"lon":5.40328,"is_reserved":false,"is_disabled":false,"rental_uris":{"android":"levelo://app?vid=50d811eb-b350-43c8-951e-a766203fc36d","ios":"levelo://app?vid=50d811eb-b350-43c8-951e-a766203fc36d"},"vehicle_type_id":"4","last_reported":1733123434,"current_range_meters":32800,"station_id":"ce4bhlh2rcd13ifvqgig","pricing_plan_id":"cebpf4jnsgd1na2vs0mg"},{"bike_id":"cd3f301d-334c-4e5b-8413-fffb41c2d132","system_id":"levelo_inurba_marseille","lat":43.27993,"lon":5.41663,"is_reserved":false,"is_disabled":false,"rental_uris":{"android":"levelo://app?vid=cd3f301d-334c-4e5b-8413-fffb41c2d132","ios":"levelo://app?vid=cd3f301d-334c-4e5b-8413-fffb41c2d132"},"vehicle_type_id":"4","last_reported":1733123434,"current_range_meters":38000,"station_id":"ce4bho12rcd13ifvqh1g","pricing_plan_id":"cebpf4jnsgd1na2vs0mg"},{"bike_id":"1bee352e-e80d-491c-adb2-ff5e9e52ed8e","system_id":"levelo_inurba_marseille","lat":43.30477,"lon":5.37913,"is_reserved":false,"is_disabled":false,"rental_uris":{"android":"levelo://app?vid=1bee352e-e80d-491c-adb2-ff5e9e52ed8e","ios":"levelo://app?vid=1bee352e-e80d-491c-adb2-ff5e9e52ed8e"},"vehicle_type_id":"4","last_reported":1733123434,"current_range_meters":35600,"station_id":"ce4bgup2rcd13ifvqcn0","pricing_plan_id":"cebpf4jnsgd1na2vs0mg"},{"bike_id":"b642d79a-bd2c-495a-acdd-099583f67bf5","system_id":"levelo_inurba_marseille","lat":43.32286,"lon":5.38258,"is_reserved":false,"is_disabled":false,"rental_uris":{"android":"levelo://app?vid=b642d79a-bd2c-495a-acdd-099583f67bf5","ios":"levelo://app?vid=b642d79a-bd2c-495a-acdd-099583f67bf5"},"vehicle_type_id":"4","last_reported":1733123434,"current_range_meters":23200,"station_id":"ce4bhr12rcd13ifvqhqg","pricing_plan_id":"cebpf4jnsgd1na2vs0mg"},{"bike_id":"612ff584-c95b-4271-9dfd-f283f925bc8f","system_id":"levelo_inurba_marseille","lat":43.26688,"lon":5.38279,"is_reserved":false,"is_disabled":true,"rental_uris":{"android":"levelo://app?vid=612ff584-c95b-4271-9dfd-f283f925bc8f","ios":"levelo://app?vid=612ff584-c95b-4271-9dfd-f283f925bc8f"},"vehicle_type_id":"4","last_reported":1733123434,"current_range_meters":0,"station_id":"ce4bhg92rcd13ifvqf90","pricing_plan_id":"cebpf4jnsgd1na2vs0mg"},{"bike_id":"40e767b1-dfec-4f7d-899e-4ef9ba205207","system_id":"levelo_inurba_marseille","lat":43.31697,"lon":5.40462,"is_reserved":false,"is_disabled":false,"rental_uris":{"android":"levelo://app?vid=40e767b1-dfec-4f7d-899e-4ef9ba205207","ios":"levelo://app?vid=40e767b1-dfec-4f7d-899e-4ef9ba205207"},"vehicle_type_id":"4","last_reported":1733123434,"current_range_meters":24400,"station_id":"ce4bh012rcd13ifvqd00","pricing_plan_id":"cebpf4jnsgd1na2vs0mg"},{"bike_id":"426e8663-b5b6-4b38-b89a-a8ae0a534b6d","system_id":"levelo_inurba_marseille","lat":43.30547,"lon":5.36699,"is_reserved":false,"is_disabled":false,"rental_uris":{"android":"levelo://app?vid=426e8663-b5b6-4b38-b89a-a8ae0a534b6d","ios":"levelo://app?vid=426e8663-b5b6-4b38-b89a-a8ae0a534b6d"},"vehicle_type_id":"4","last_reported":1733123434,"current_range_meters":38000,"station_id":"ce4bgrp2rcd13ifvqc9g","pricing_plan_id":"cebpf4jnsgd1na2vs0mg"},{"bike_id":"359037ce-df63-42eb-9637-548aafa4bd60","system_id":"levelo_inurba_marseille","lat":43.27068,"lon":5.4228,"is_reserved":false,"is_disabled":false,"rental_uris":{"android":"levelo://app?vid=359037ce-df63-42eb-9637-548aafa4bd60","ios":"levelo://app?vid=359037ce-df63-42eb-9637-548aafa4bd60"},"vehicle_type_id":"4","last_reported":1733123434,"current_range_meters":38800,"station_id":"ce4bhk92rcd13ifvqgb0","pricing_plan_id":"cebpf4jnsgd1na2vs0mg"},{"bike_id":"5b9d6f48-f6d1-42ec-91ce-2705b20346f7","system_id":"levelo_inurba_marseille","lat":43.27615,"lon":5.3612,"is_reserved":false,"is_disabled":true,"rental_uris":{"android":"levelo://app?vid=5b9d6f48-f6d1-42ec-91ce-2705b20346f7","ios":"levelo://app?vid=5b9d6f48-f6d1-42ec-91ce-2705b20346f7"},"vehicle_type_id":"4","last_reported":1733123434,"current_range_meters":37600,"station_id":"ce4bgj92rcd13ifvqbe0","pricing_plan_id":"cebpf4jnsgd1na2vs0mg"},{"bike_id":"0174841e-8011-4a7b-bd18-480101bee765","system_id":"levelo_inurba_marseille","lat":43.239608,"lon":5.366184,"is_reserved":false,"is_disabled":true,"rental_uris":{"android":"levelo://app?vid=0174841e-8011-4a7b-bd18-480101bee765","ios":"levelo://app?vid=0174841e-8011-4a7b-bd18-480101bee765"},"vehicle_type_id":"4","last_reported":1733123434,"current_range_meters":0,"station_id":"ce4bhi12rcd13ifvqfp0","pricing_plan_id":"cebpf4jnsgd1na2vs0mg"},{"bike_id":"55aa419e-7ca9-4f29-976a-fefd7a814401","system_id":"levelo_inurba_marseille","lat":43.3014,"lon":5.38785,"is_reserved":false,"is_disabled":true,"rental_uris":{"android":"levelo://app?vid=55aa419e-7ca9-4f29-976a-fefd7a814401","ios":"levelo://app?vid=55aa419e-7ca9-4f29-976a-fefd7a814401"},"vehicle_type_id":"4","last_reported":1733123434,"current_range_meters":12800,"station_id":"ce4bghh2rcd13ifvqb60","pricing_plan_id":"cebpf4jnsgd1na2vs0mg"},{"bike_id":"369e90cd-f5b1-4267-9621-5d21309b0438","system_id":"levelo_inurba_marseille","lat":43.30595,"lon":5.39357,"is_reserved":false,"is_disabled":false,"rental_uris":{"android":"levelo://app?vid=369e90cd-f5b1-4267-9621-5d21309b0438","ios":"levelo://app?vid=369e90cd-f5b1-4267-9621-5d21309b0438"},"vehicle_type_id":"4","last_reported":1733123434,"current_range_meters":27200,"station_id":"ce4bh0p2rcd13ifvqd80","pricing_plan_id":"cebpf4jnsgd1na2vs0mg"},{"bike_id":"ec8f9c93-0e06-4c06-9b45-2ce06220eba8","system_id":"levelo_inurba_marseille","lat":43.31881,"lon":5.40735,"is_reserved":false,"is_disabled":false,"rental_uris":{"android":"levelo://app?vid=ec8f9c93-0e06-4c06-9b45-2ce06220eba8","ios":"levelo://app?vid=ec8f9c93-0e06-4c06-9b45-2ce06220eba8"},"vehicle_type_id":"4","last_reported":1733123434,"current_range_meters":28800,"station_id":"ce4bhq12rcd13ifvqhig","pricing_plan_id":"cebpf4jnsgd1na2vs0mg"},{"bike_id":"bb5b4e0a-b86f-423e-9bb9-d81ea9394403","system_id":"levelo_inurba_marseille","lat":43.30923,"lon":5.4015,"is_reserved":false,"is_disabled":true,"rental_uris":{"android":"levelo://app?vid=bb5b4e0a-b86f-423e-9bb9-d81ea9394403","ios":"levelo://app?vid=bb5b4e0a-b86f-423e-9bb9-d81ea9394403"},"vehicle_type_id":"4","last_reported":1733123434,"current_range_meters":38000,"station_id":"ce4bgvp2rcd13ifvqct0","pricing_plan_id":"cebpf4jnsgd1na2vs0mg"},{"bike_id":"489e7193-7809-4e29-8f6b-f210ba237624","system_id":"levelo_inurba_marseille","lat":43.31885,"lon":5.40739,"is_reserved":false,"is_disabled":false,"rental_uris":{"android":"levelo://app?vid=489e7193-7809-4e29-8f6b-f210ba237624","ios":"levelo://app?vid=489e7193-7809-4e29-8f6b-f210ba237624"},"vehicle_type_id":"4","last_reported":1733123434,"current_range_meters":12400,"station_id":"ce4bhq12rcd13ifvqhig","pricing_plan_id":"cebpf4jnsgd1na2vs0mg"},{"bike_id":"db1f621b-3e70-47a2-9f40-e7c88c14cc8d","system_id":"levelo_inurba_marseille","lat":43.32364,"lon":5.36763,"is_reserved":false,"is_disabled":false,"rental_uris":{"android":"levelo://app?vid=db1f621b-3e70-47a2-9f40-e7c88c14cc8d","ios":"levelo://app?vid=db1f621b-3e70-47a2-9f40-e7c88c14cc8d"},"vehicle_type_id":"4","last_reported":1733123434,"current_range_meters":30000,"station_id":"ce4bhsh2rcd13ifvqi2g","pricing_plan_id":"cebpf4jnsgd1na2vs0mg"},{"bike_id":"d99ea486-d42f-4f6d-bc98-96f71e21f8da","system_id":"levelo_inurba_marseille","lat":43.30353,"lon":5.41877,"is_reserved":false,"is_disabled":false,"rental_uris":{"android":"levelo://app?vid=d99ea486-d42f-4f6d-bc98-96f71e21f8da","ios":"levelo://app?vid=d99ea486-d42f-4f6d-bc98-96f71e21f8da"},"vehicle_type_id":"4","last_reported":1733123434,"current_range_meters":17600,"station_id":"ce4bhop2rcd13ifvqh7g","pricing_plan_id":"cebpf4jnsgd1na2vs0mg"},{"bike_id":"412853f1-0eb2-40a5-b8bc-f594fdc65c40","system_id":"levelo_inurba_marseille","lat":43.30728,"lon":5.37635,"is_reserved":false,"is_disabled":false,"rental_uris":{"android":"levelo://app?vid=412853f1-0eb2-40a5-b8bc-f594fdc65c40","ios":"levelo://app?vid=412853f1-0eb2-40a5-b8bc-f594fdc65c40"},"vehicle_type_id":"4","last_reported":1733123434,"current_range_meters":28800,"station_id":"","pricing_plan_id":"cebpf4jnsgd1na2vs0mg"},{"bike_id":"4213c837-d727-413b-ba3b-8731e753917c","system_id":"levelo_inurba_marseille","lat":43.28181,"lon":5.42655,"is_reserved":false,"is_disabled":false,"rental_uris":{"android":"levelo://app?vid=4213c837-d727-413b-ba3b-8731e753917c","ios":"levelo://app?vid=4213c837-d727-413b-ba3b-8731e753917c"},"vehicle_type_id":"4","last_reported":1733123434,"current_range_meters":11200,"station_id":"ce4bhnh2rcd13ifvqgug","pricing_plan_id":"cebpf4jnsgd1na2vs0mg"},{"bike_id":"7ed0ddf5-bf50-44d3-8630-b4158ec0b82c","system_id":"levelo_inurba_marseille","lat":43.28353,"lon":5.38109,"is_reserved":false,"is_disabled":false,"rental_uris":{"android":"levelo://app?vid=7ed0ddf5-bf50-44d3-8630-b4158ec0b82c","ios":"levelo://app?vid=7ed0ddf5-bf50-44d3-8630-b4158ec0b82c"},"vehicle_type_id":"4","last_reported":1733123434,"current_range_meters":3200,"station_id":"ce4bh412rcd13ifvqdr0","pricing_plan_id":"cebpf4jnsgd1na2vs0mg"},{"bike_id":"25dd2a60-280f-4b55-9588-353347a1acca","system_id":"levelo_inurba_marseille","lat":43.24082,"lon":5.3775,"is_reserved":false,"is_disabled":false,"rental_uris":{"android":"levelo://app?vid=25dd2a60-280f-4b55-9588-353347a1acca","ios":"levelo://app?vid=25dd2a60-280f-4b55-9588-353347a1acca"},"vehicle_type_id":"4","last_reported":1733123434,"current_range_meters":39200,"station_id":"ce4bhnp2rcd13ifvqgvg","pricing_plan_id":"cebpf4jnsgd1na2vs0mg"},{"bike_id":"64699285-2eb6-4155-aea6-a7cabe7823db","system_id":"levelo_inurba_marseille","lat":43.30142,"lon":5.37414,"is_reserved":false,"is_disabled":false,"rental_uris":{"android":"levelo://app?vid=64699285-2eb6-4155-aea6-a7cabe7823db","ios":"levelo://app?vid=64699285-2eb6-4155-aea6-a7cabe7823db"},"vehicle_type_id":"4","last_reported":1733123434,"current_range_meters":23200,"station_id":"ce4bgs92rcd13ifvqcc0","pricing_plan_id":"cebpf4jnsgd1na2vs0mg"},{"bike_id":"257d8f59-969c-4b2e-8bba-13c927c405f6","system_id":"levelo_inurba_marseille","lat":43.30542,"lon":5.36704,"is_reserved":false,"is_disabled":false,"rental_uris":{"android":"levelo://app?vid=257d8f59-969c-4b2e-8bba-13c927c405f6","ios":"levelo://app?vid=257d8f59-969c-4b2e-8bba-13c927c405f6"},"vehicle_type_id":"4","last_reported":1733123434,"current_range_meters":38800,"station_id":"ce4bgrp2rcd13ifvqc9g","pricing_plan_id":"cebpf4jnsgd1na2vs0mg"},{"bike_id":"d47de1da-6f58-431b-b706-fdde3b824945","system_id":"levelo_inurba_marseille","lat":43.30274,"lon":5.37714,"is_reserved":false,"is_disabled":false,"rental_uris":{"android":"levelo://app?vid=d47de1da-6f58-431b-b706-fdde3b824945","ios":"levelo://app?vid=d47de1da-6f58-431b-b706-fdde3b824945"},"vehicle_type_id":"4","last_reported":1733123434,"current_range_meters":36800,"station_id":"ce4bguh2rcd13ifvqcj0","pricing_plan_id":"cebpf4jnsgd1na2vs0mg"},{"bike_id":"42dff1c4-6053-46d6-ab14-2b44877e8b55","system_id":"levelo_inurba_marseille","lat":43.28447,"lon":5.39179,"is_reserved":false,"is_disabled":true,"rental_uris":{"android":"levelo://app?vid=42dff1c4-6053-46d6-ab14-2b44877e8b55","ios":"levelo://app?vid=42dff1c4-6053-46d6-ab14-2b44877e8b55"},"vehicle_type_id":"4","last_reported":1733123434,"current_range_meters":33600,"station_id":"ce4bhoh2rcd13ifvqh5g","pricing_plan_id":"cebpf4jnsgd1na2vs0mg"},{"bike_id":"d5a80474-e33e-4cc3-907c-6059f080f32b","system_id":"levelo_inurba_marseille","lat":43.25106,"lon":5.40313,"is_reserved":false,"is_disabled":false,"rental_uris":{"android":"levelo://app?vid=d5a80474-e33e-4cc3-907c-6059f080f32b","ios":"levelo://app?vid=d5a80474-e33e-4cc3-907c-6059f080f32b"},"vehicle_type_id":"4","last_reported":1733123434,"current_range_meters":4400,"station_id":"ce4bhlh2rcd13ifvqgig","pricing_plan_id":"cebpf4jnsgd1na2vs0mg"},{"bike_id":"de29fed1-fafb-4051-b95e-91b7c923e851","system_id":"levelo_inurba_marseille","lat":43.27067,"lon":5.42283,"is_reserved":false,"is_disabled":false,"rental_uris":{"android":"levelo://app?vid=de29fed1-fafb-4051-b95e-91b7c923e851","ios":"levelo://app?vid=de29fed1-fafb-4051-b95e-91b7c923e851"},"vehicle_type_id":"4","last_reported":1733123434,"current_range_meters":12400,"station_id":"ce4bhk92rcd13ifvqgb0","pricing_plan_id":"cebpf4jnsgd1na2vs0mg"},{"bike_id":"27d13c7a-6338-48dc-81dd-618b3e4ff60b","system_id":"levelo_inurba_marseille","lat":43.29067,"lon":5.38344,"is_reserved":false,"is_disabled":true,"rental_uris":{"android":"levelo://app?vid=27d13c7a-6338-48dc-81dd-618b3e4ff60b","ios":"levelo://app?vid=27d13c7a-6338-48dc-81dd-618b3e4ff60b"},"vehicle_type_id":"4","last_reported":1733123434,"current_range_meters":30400,"station_id":"","pricing_plan_id":"cebpf4jnsgd1na2vs0mg"},{"bike_id":"fca28fe1-a9c2-43b1-85b7-a03bf3f1863c","system_id":"levelo_inurba_marseille","lat":43.28731,"lon":5.37933,"is_reserved":false,"is_disabled":false,"rental_uris":{"android":"levelo://app?vid=fca28fe1-a9c2-43b1-85b7-a03bf3f1863c","ios":"levelo://app?vid=fca28fe1-a9c2-43b1-85b7-a03bf3f1863c"},"vehicle_type_id":"4","last_reported":1733123434,"current_range_meters":28800,"station_id":"ce4bh9p2rcd13ifvqec0","pricing_plan_id":"cebpf4jnsgd1na2vs0mg"},{"bike_id":"13151158-c4ba-49c7-a920-9a61c5dd56f2","system_id":"levelo_inurba_marseille","lat":43.23958,"lon":5.36633,"is_reserved":false,"is_disabled":true,"rental_uris":{"android":"levelo://app?vid=13151158-c4ba-49c7-a920-9a61c5dd56f2","ios":"levelo://app?vid=13151158-c4ba-49c7-a920-9a61c5dd56f2"},"vehicle_type_id":"4","last_reported":1733123434,"current_range_meters":0,"station_id":"ce4bhi12rcd13ifvqfp0","pricing_plan_id":"cebpf4jnsgd1na2vs0mg"},{"bike_id":"74b40333-58ef-4462-853a-55554b6f593b","system_id":"levelo_inurba_marseille","lat":43.30443,"lon":5.38902,"is_reserved":false,"is_disabled":false,"rental_uris":{"android":"levelo://app?vid=74b40333-58ef-4462-853a-55554b6f593b","ios":"levelo://app?vid=74b40333-58ef-4462-853a-55554b6f593b"},"vehicle_type_id":"4","last_reported":1733123434,"current_range_meters":38000,"station_id":"ce4bgk12rcd13ifvqbi0","pricing_plan_id":"cebpf4jnsgd1na2vs0mg"},{"bike_id":"970bf702-ce6e-42e9-975c-d5f9481a4aeb","system_id":"levelo_inurba_marseille","lat":43.28975,"lon":5.37841,"is_reserved":false,"is_disabled":false,"rental_uris":{"android":"levelo://app?vid=970bf702-ce6e-42e9-975c-d5f9481a4aeb","ios":"levelo://app?vid=970bf702-ce6e-42e9-975c-d5f9481a4aeb"},"vehicle_type_id":"4","last_reported":1733123434,"current_range_meters":38000,"station_id":"ce4bh9p2rcd13ifvqed0","pricing_plan_id":"cebpf4jnsgd1na2vs0mg"},{"bike_id":"acf4a756-d86a-4aba-99d9-8148b7db3378","system_id":"levelo_inurba_marseille","lat":43.27987,"lon":5.40011,"is_reserved":false,"is_disabled":true,"rental_uris":{"android":"levelo://app?vid=acf4a756-d86a-4aba-99d9-8148b7db3378","ios":"levelo://app?vid=acf4a756-d86a-4aba-99d9-8148b7db3378"},"vehicle_type_id":"4","last_reported":1733123434,"current_range_meters":35200,"station_id":"ce4bho92rcd13ifvqh4g","pricing_plan_id":"cebpf4jnsgd1na2vs0mg"},{"bike_id":"4018fb8f-45f3-45d0-a054-90a03257f3a3","system_id":"levelo_inurba_marseille","lat":43.28306,"lon":5.40547,"is_reserved":false,"is_disabled":false,"rental_uris":{"android":"levelo://app?vid=4018fb8f-45f3-45d0-a054-90a03257f3a3","ios":"levelo://app?vid=4018fb8f-45f3-45d0-a054-90a03257f3a3"},"vehicle_type_id":"4","last_reported":1733123434,"current_range_meters":18000,"station_id":"","pricing_plan_id":"cebpf4jnsgd1na2vs0mg"},{"bike_id":"9b551232-7282-43bc-ae3d-fa313e1b06b2","system_id":"levelo_inurba_marseille","lat":43.29852,"lon":5.36286,"is_reserved":false,"is_disabled":false,"rental_uris":{"android":"levelo://app?vid=9b551232-7282-43bc-ae3d-fa313e1b06b2","ios":"levelo://app?vid=9b551232-7282-43bc-ae3d-fa313e1b06b2"},"vehicle_type_id":"4","last_reported":1733123434,"current_range_meters":38000,"station_id":"ce4bgpp2rcd13ifvqc3g","pricing_plan_id":"cebpf4jnsgd1na2vs0mg"},{"bike_id":"6755c819-26dd-463e-bc83-d844c3a9e454","system_id":"levelo_inurba_marseille","lat":43.29005,"lon":5.35606,"is_reserved":false,"is_disabled":true,"rental_uris":{"android":"levelo://app?vid=6755c819-26dd-463e-bc83-d844c3a9e454","ios":"levelo://app?vid=6755c819-26dd-463e-bc83-d844c3a9e454"},"vehicle_type_id":"4","last_reported":1733123434,"current_range_meters":6000,"station_id":"ce4bhb92rcd13ifvqen0","pricing_plan_id":"cebpf4jnsgd1na2vs0mg"},{"bike_id":"de9feeef-aa0f-4f06-881f-85c5a1b53c60","system_id":"levelo_inurba_marseille","lat":43.30462,"lon":5.37922,"is_reserved":false,"is_disabled":false,"rental_uris":{"android":"levelo://app?vid=de9feeef-aa0f-4f06-881f-85c5a1b53c60","ios":"levelo://app?vid=de9feeef-aa0f-4f06-881f-85c5a1b53c60"},"vehicle_type_id":"4","last_reported":1733123434,"current_range_meters":17600,"station_id":"ce4bgup2rcd13ifvqcn0","pricing_plan_id":"cebpf4jnsgd1na2vs0mg"},{"bike_id":"a72d9299-2ef3-4e3f-8e69-acc7098d09c2","system_id":"levelo_inurba_marseille","lat":43.33021,"lon":5.39042,"is_reserved":false,"is_disabled":true,"rental_uris":{"android":"levelo://app?vid=a72d9299-2ef3-4e3f-8e69-acc7098d09c2","ios":"levelo://app?vid=a72d9299-2ef3-4e3f-8e69-acc7098d09c2"},"vehicle_type_id":"4","last_reported":1733123434,"current_range_meters":20400,"station_id":"ce4bhr92rcd13ifvqhrg","pricing_plan_id":"cebpf4jnsgd1na2vs0mg"},{"bike_id":"e0161261-fd33-45e3-8038-51d77778a6b0","system_id":"levelo_inurba_marseille","lat":43.30657,"lon":5.40093,"is_reserved":false,"is_disabled":true,"rental_uris":{"android":"levelo://app?vid=e0161261-fd33-45e3-8038-51d77778a6b0","ios":"levelo://app?vid=e0161261-fd33-45e3-8038-51d77778a6b0"},"vehicle_type_id":"4","last_reported":1733123434,"current_range_meters":31200,"station_id":"ce4bh112rcd13ifvqda0","pricing_plan_id":"cebpf4jnsgd1na2vs0mg"},{"bike_id":"162c1ba3-c73b-405e-a8d2-b9ab1a1573f5","system_id":"levelo_inurba_marseille","lat":43.26948,"lon":5.38632,"is_reserved":false,"is_disabled":false,"rental_uris":{"android":"levelo://app?vid=162c1ba3-c73b-405e-a8d2-b9ab1a1573f5","ios":"levelo://app?vid=162c1ba3-c73b-405e-a8d2-b9ab1a1573f5"},"vehicle_type_id":"4","last_reported":1733123434,"current_range_meters":17200,"station_id":"ce4bhh92rcd13ifvqfh0","pricing_plan_id":"cebpf4jnsgd1na2vs0mg"},{"bike_id":"4d38a818-9531-4d9e-a2a0-b9cd0b136842","system_id":"levelo_inurba_marseille","lat":43.26483,"lon":5.39143,"is_reserved":false,"is_disabled":true,"rental_uris":{"android":"levelo://app?vid=4d38a818-9531-4d9e-a2a0-b9cd0b136842","ios":"levelo://app?vid=4d38a818-9531-4d9e-a2a0-b9cd0b136842"},"vehicle_type_id":"4","last_reported":1733123434,"current_range_meters":0,"station_id":"","pricing_plan_id":"cebpf4jnsgd1na2vs0mg"},{"bike_id":"9fd6bd9e-d911-4891-8b3e-118eb7893c2b","system_id":"levelo_inurba_marseille","lat":43.3081,"lon":5.38157,"is_reserved":false,"is_disabled":false,"rental_uris":{"android":"levelo://app?vid=9fd6bd9e-d911-4891-8b3e-118eb7893c2b","ios":"levelo://app?vid=9fd6bd9e-d911-4891-8b3e-118eb7893c2b"},"vehicle_type_id":"4","last_reported":1733123434,"current_range_meters":36800,"station_id":"ce4bgt12rcd13ifvqce0","pricing_plan_id":"cebpf4jnsgd1na2vs0mg"},{"bike_id":"a794634e-f858-4eb8-a1c0-a675bb554c5c","system_id":"levelo_inurba_marseille","lat":43.33598,"lon":5.40991,"is_reserved":false,"is_disabled":false,"rental_uris":{"android":"levelo://app?vid=a794634e-f858-4eb8-a1c0-a675bb554c5c","ios":"levelo://app?vid=a794634e-f858-4eb8-a1c0-a675bb554c5c"},"vehicle_type_id":"4","last_reported":1733123434,"current_range_meters":38400,"station_id":"ce4bhqh2rcd13ifvqhmg","pricing_plan_id":"cebpf4jnsgd1na2vs0mg"},{"bike_id":"0925ff43-bab0-49be-8348-5535795fc1c0","system_id":"levelo_inurba_marseille","lat":43.30536,"lon":5.38437,"is_reserved":false,"is_disabled":true,"rental_uris":{"android":"levelo://app?vid=0925ff43-bab0-49be-8348-5535795fc1c0","ios":"levelo://app?vid=0925ff43-bab0-49be-8348-5535795fc1c0"},"vehicle_type_id":"4","last_reported":1733123434,"current_range_meters":8800,"station_id":"ce4bgg92rcd13ifvqb30","pricing_plan_id":"cebpf4jnsgd1na2vs0mg"},{"bike_id":"5fd470f3-da62-48ec-8bb8-3493555d1763","system_id":"levelo_inurba_marseille","lat":43.2955,"lon":5.37495,"is_reserved":false,"is_disabled":true,"rental_uris":{"android":"levelo://app?vid=5fd470f3-da62-48ec-8bb8-3493555d1763","ios":"levelo://app?vid=5fd470f3-da62-48ec-8bb8-3493555d1763"},"vehicle_type_id":"4","last_reported":1733123434,"current_range_meters":4000,"station_id":"ce4bgkp2rcd13ifvqbmg","pricing_plan_id":"cebpf4jnsgd1na2vs0mg"},{"bike_id":"df175e35-a109-455b-a549-3a0af8fc4135","system_id":"levelo_inurba_marseille","lat":43.26687,"lon":5.38273,"is_reserved":false,"is_disabled":true,"rental_uris":{"android":"levelo://app?vid=df175e35-a109-455b-a549-3a0af8fc4135","ios":"levelo://app?vid=df175e35-a109-455b-a549-3a0af8fc4135"},"vehicle_type_id":"4","last_reported":1733123434,"current_range_meters":14000,"station_id":"ce4bhg92rcd13ifvqf90","pricing_plan_id":"cebpf4jnsgd1na2vs0mg"},{"bike_id":"3cd36cdd-b8ac-4151-bacd-1ff7508ad009","system_id":"levelo_inurba_marseille","lat":43.32547,"lon":5.41446,"is_reserved":false,"is_disabled":true,"rental_uris":{"android":"levelo://app?vid=3cd36cdd-b8ac-4151-bacd-1ff7508ad009","ios":"levelo://app?vid=3cd36cdd-b8ac-4151-bacd-1ff7508ad009"},"vehicle_type_id":"4","last_reported":1733123434,"current_range_meters":33200,"station_id":"ce4bhq12rcd13ifvqhhg","pricing_plan_id":"cebpf4jnsgd1na2vs0mg"},{"bike_id":"ebaa904e-bc87-46fe-8951-7f1d176fdb4c","system_id":"levelo_inurba_marseille","lat":43.31267,"lon":5.40168,"is_reserved":false,"is_disabled":true,"rental_uris":{"android":"levelo://app?vid=ebaa904e-bc87-46fe-8951-7f1d176fdb4c","ios":"levelo://app?vid=ebaa904e-bc87-46fe-8951-7f1d176fdb4c"},"vehicle_type_id":"4","last_reported":1733123434,"current_range_meters":39200,"station_id":"ce4bh092rcd13ifvqd30","pricing_plan_id":"cebpf4jnsgd1na2vs0mg"},{"bike_id":"f7a83f7c-2b54-4948-b4b7-e965703d543c","system_id":"levelo_inurba_marseille","lat":43.290548,"lon":5.377012,"is_reserved":false,"is_disabled":false,"rental_uris":{"android":"levelo://app?vid=f7a83f7c-2b54-4948-b4b7-e965703d543c","ios":"levelo://app?vid=f7a83f7c-2b54-4948-b4b7-e965703d543c"},"vehicle_type_id":"4","last_reported":1733123434,"current_range_meters":35600,"station_id":"ce4bh312rcd13ifvqdk0","pricing_plan_id":"cebpf4jnsgd1na2vs0mg"},{"bike_id":"1e9f7531-f02f-4a68-a033-35dfa2f6d9df","system_id":"levelo_inurba_marseille","lat":43.28484,"lon":5.38531,"is_reserved":false,"is_disabled":true,"rental_uris":{"android":"levelo://app?vid=1e9f7531-f02f-4a68-a033-35dfa2f6d9df","ios":"levelo://app?vid=1e9f7531-f02f-4a68-a033-35dfa2f6d9df"},"vehicle_type_id":"4","last_reported":1733123434,"current_range_meters":17200,"station_id":"ce4bh8p2rcd13ifvqeb0","pricing_plan_id":"cebpf4jnsgd1na2vs0mg"},{"bike_id":"0d03bb26-c720-45e4-a013-9bb2b263aa21","system_id":"levelo_inurba_marseille","lat":43.26957,"lon":5.38635,"is_reserved":false,"is_disabled":false,"rental_uris":{"android":"levelo://app?vid=0d03bb26-c720-45e4-a013-9bb2b263aa21","ios":"levelo://app?vid=0d03bb26-c720-45e4-a013-9bb2b263aa21"},"vehicle_type_id":"4","last_reported":1733123434,"current_range_meters":12800,"station_id":"ce4bhh92rcd13ifvqfh0","pricing_plan_id":"cebpf4jnsgd1na2vs0mg"},{"bike_id":"6248fd4e-cd0a-46a2-b1b2-399bc93e8c45","system_id":"levelo_inurba_marseille","lat":43.27976,"lon":5.38732,"is_reserved":false,"is_disabled":false,"rental_uris":{"android":"levelo://app?vid=6248fd4e-cd0a-46a2-b1b2-399bc93e8c45","ios":"levelo://app?vid=6248fd4e-cd0a-46a2-b1b2-399bc93e8c45"},"vehicle_type_id":"4","last_reported":1733123434,"current_range_meters":22800,"station_id":"ce4bhg12rcd13ifvqf80","pricing_plan_id":"cebpf4jnsgd1na2vs0mg"},{"bike_id":"e05666e3-b707-46de-a7e5-8e4163e50f7c","system_id":"levelo_inurba_marseille","lat":43.28447,"lon":5.35036,"is_reserved":false,"is_disabled":true,"rental_uris":{"android":"levelo://app?vid=e05666e3-b707-46de-a7e5-8e4163e50f7c","ios":"levelo://app?vid=e05666e3-b707-46de-a7e5-8e4163e50f7c"},"vehicle_type_id":"4","last_reported":1733123434,"current_range_meters":36800,"station_id":"ce4bhbh2rcd13ifvqepg","pricing_plan_id":"cebpf4jnsgd1na2vs0mg"},{"bike_id":"4bf03c99-3195-41de-a7d3-31bb91dbbdc5","system_id":"levelo_inurba_marseille","lat":43.25025,"lon":5.38979,"is_reserved":false,"is_disabled":false,"rental_uris":{"android":"levelo://app?vid=4bf03c99-3195-41de-a7d3-31bb91dbbdc5","ios":"levelo://app?vid=4bf03c99-3195-41de-a7d3-31bb91dbbdc5"},"vehicle_type_id":"4","last_reported":1733123434,"current_range_meters":20800,"station_id":"ce4bhgp2rcd13ifvqfd0","pricing_plan_id":"cebpf4jnsgd1na2vs0mg"},{"bike_id":"f8d592a2-1761-4fc2-ae68-7688d9a28c14","system_id":"levelo_inurba_marseille","lat":43.279737,"lon":5.387268,"is_reserved":false,"is_disabled":true,"rental_uris":{"android":"levelo://app?vid=f8d592a2-1761-4fc2-ae68-7688d9a28c14","ios":"levelo://app?vid=f8d592a2-1761-4fc2-ae68-7688d9a28c14"},"vehicle_type_id":"4","last_reported":1733123434,"current_range_meters":36800,"station_id":"ce4bhg12rcd13ifvqf80","pricing_plan_id":"cebpf4jnsgd1na2vs0mg"},{"bike_id":"741e87c8-37e0-4458-b772-9d2a50752ac6","system_id":"levelo_inurba_marseille","lat":43.30548,"lon":5.36702,"is_reserved":false,"is_disabled":false,"rental_uris":{"android":"levelo://app?vid=741e87c8-37e0-4458-b772-9d2a50752ac6","ios":"levelo://app?vid=741e87c8-37e0-4458-b772-9d2a50752ac6"},"vehicle_type_id":"4","last_reported":1733123434,"current_range_meters":39200,"station_id":"ce4bgrp2rcd13ifvqc9g","pricing_plan_id":"cebpf4jnsgd1na2vs0mg"},{"bike_id":"15f7db9f-95f5-4bd9-bddc-67bb73b7373f","system_id":"levelo_inurba_marseille","lat":43.23189,"lon":5.35556,"is_reserved":false,"is_disabled":false,"rental_uris":{"android":"levelo://app?vid=15f7db9f-95f5-4bd9-bddc-67bb73b7373f","ios":"levelo://app?vid=15f7db9f-95f5-4bd9-bddc-67bb73b7373f"},"vehicle_type_id":"4","last_reported":1733123434,"current_range_meters":4800,"station_id":"ce4bhu92rcd13ifvqi70","pricing_plan_id":"cebpf4jnsgd1na2vs0mg"},{"bike_id":"3f438f11-a5c3-4760-bea0-48ff633bb545","system_id":"levelo_inurba_marseille","lat":43.295723,"lon":5.399681,"is_reserved":false,"is_disabled":false,"rental_uris":{"android":"levelo://app?vid=3f438f11-a5c3-4760-bea0-48ff633bb545","ios":"levelo://app?vid=3f438f11-a5c3-4760-bea0-48ff633bb545"},"vehicle_type_id":"4","last_reported":1733123434,"current_range_meters":20800,"station_id":"ce4bh312rcd13ifvqdj0","pricing_plan_id":"cebpf4jnsgd1na2vs0mg"},{"bike_id":"682aec0b-cc1f-4eb8-b060-013eeae7eb55","system_id":"levelo_inurba_marseille","lat":43.30425,"lon":5.3975,"is_reserved":false,"is_disabled":false,"rental_uris":{"android":"levelo://app?vid=682aec0b-cc1f-4eb8-b060-013eeae7eb55","ios":"levelo://app?vid=682aec0b-cc1f-4eb8-b060-013eeae7eb55"},"vehicle_type_id":"4","last_reported":1733123434,"current_range_meters":38800,"station_id":"ce4bh092rcd13ifvqd20","pricing_plan_id":"cebpf4jnsgd1na2vs0mg"},{"bike_id":"d8d6cb5e-eedd-4683-935e-c88248734e3e","system_id":"levelo_inurba_marseille","lat":43.30544,"lon":5.3653,"is_reserved":false,"is_disabled":false,"rental_uris":{"android":"levelo://app?vid=d8d6cb5e-eedd-4683-935e-c88248734e3e","ios":"levelo://app?vid=d8d6cb5e-eedd-4683-935e-c88248734e3e"},"vehicle_type_id":"4","last_reported":1733123434,"current_range_meters":38800,"station_id":"ce4bgs12rcd13ifvqcag","pricing_plan_id":"cebpf4jnsgd1na2vs0mg"},{"bike_id":"aafc0b36-4303-43a4-9d59-0283760d4eb9","system_id":"levelo_inurba_marseille","lat":43.30784,"lon":5.37654,"is_reserved":false,"is_disabled":false,"rental_uris":{"android":"levelo://app?vid=aafc0b36-4303-43a4-9d59-0283760d4eb9","ios":"levelo://app?vid=aafc0b36-4303-43a4-9d59-0283760d4eb9"},"vehicle_type_id":"4","last_reported":1733123434,"current_range_meters":32000,"station_id":"ce4bgv92rcd13ifvqcq0","pricing_plan_id":"cebpf4jnsgd1na2vs0mg"},{"bike_id":"9dd1fc98-a89e-437a-b707-6eb8b3c899e8","system_id":"levelo_inurba_marseille","lat":43.29049,"lon":5.35925,"is_reserved":false,"is_disabled":true,"rental_uris":{"android":"levelo://app?vid=9dd1fc98-a89e-437a-b707-6eb8b3c899e8","ios":"levelo://app?vid=9dd1fc98-a89e-437a-b707-6eb8b3c899e8"},"vehicle_type_id":"4","last_reported":1733123434,"current_range_meters":0,"station_id":"ce4bha92rcd13ifvqeg0","pricing_plan_id":"cebpf4jnsgd1na2vs0mg"},{"bike_id":"09a02393-6218-4c18-a67e-e4a533397062","system_id":"levelo_inurba_marseille","lat":43.30461,"lon":5.37903,"is_reserved":false,"is_disabled":false,"rental_uris":{"android":"levelo://app?vid=09a02393-6218-4c18-a67e-e4a533397062","ios":"levelo://app?vid=09a02393-6218-4c18-a67e-e4a533397062"},"vehicle_type_id":"4","last_reported":1733123434,"current_range_meters":39200,"station_id":"ce4bgup2rcd13ifvqcn0","pricing_plan_id":"cebpf4jnsgd1na2vs0mg"},{"bike_id":"32601a8f-3e2a-44d3-b102-70eec4c6ed58","system_id":"levelo_inurba_marseille","lat":43.29573,"lon":5.37497,"is_reserved":false,"is_disabled":true,"rental_uris":{"android":"levelo://app?vid=32601a8f-3e2a-44d3-b102-70eec4c6ed58","ios":"levelo://app?vid=32601a8f-3e2a-44d3-b102-70eec4c6ed58"},"vehicle_type_id":"4","last_reported":1733123434,"current_range_meters":33600,"station_id":"ce4bgh92rcd13ifvqb50","pricing_plan_id":"cebpf4jnsgd1na2vs0mg"},{"bike_id":"e0e060d6-7244-400e-b229-f63f7cc228b9","system_id":"levelo_inurba_marseille","lat":43.30956,"lon":5.39037,"is_reserved":false,"is_disabled":false,"rental_uris":{"android":"levelo://app?vid=e0e060d6-7244-400e-b229-f63f7cc228b9","ios":"levelo://app?vid=e0e060d6-7244-400e-b229-f63f7cc228b9"},"vehicle_type_id":"4","last_reported":1733123434,"current_range_meters":24000,"station_id":"ce4bgup2rcd13ifvqco0","pricing_plan_id":"cebpf4jnsgd1na2vs0mg"},{"bike_id":"bea43fe6-0ab8-4ff0-afcb-1dc4fc192577","system_id":"levelo_inurba_marseille","lat":43.25099,"lon":5.40322,"is_reserved":false,"is_disabled":true,"rental_uris":{"android":"levelo://app?vid=bea43fe6-0ab8-4ff0-afcb-1dc4fc192577","ios":"levelo://app?vid=bea43fe6-0ab8-4ff0-afcb-1dc4fc192577"},"vehicle_type_id":"4","last_reported":1733123434,"current_range_meters":0,"station_id":"ce4bhlh2rcd13ifvqgig","pricing_plan_id":"cebpf4jnsgd1na2vs0mg"},{"bike_id":"1b4091b4-9da5-4e08-a623-15bd0eb83e75","system_id":"levelo_inurba_marseille","lat":43.29301,"lon":5.37172,"is_reserved":false,"is_disabled":true,"rental_uris":{"android":"levelo://app?vid=1b4091b4-9da5-4e08-a623-15bd0eb83e75","ios":"levelo://app?vid=1b4091b4-9da5-4e08-a623-15bd0eb83e75"},"vehicle_type_id":"4","last_reported":1733123434,"current_range_meters":800,"station_id":"ce4bgh92rcd13ifvqb40","pricing_plan_id":"cebpf4jnsgd1na2vs0mg"},{"bike_id":"d943d960-7d9b-4964-9228-20089cd21664","system_id":"levelo_inurba_marseille","lat":43.32892,"lon":5.36451,"is_reserved":false,"is_disabled":false,"rental_uris":{"android":"levelo://app?vid=d943d960-7d9b-4964-9228-20089cd21664","ios":"levelo://app?vid=d943d960-7d9b-4964-9228-20089cd21664"},"vehicle_type_id":"4","last_reported":1733123434,"current_range_meters":10800,"station_id":"","pricing_plan_id":"cebpf4jnsgd1na2vs0mg"},{"bike_id":"23da5067-cac7-4ef3-9734-be333b976303","system_id":"levelo_inurba_marseille","lat":43.25489,"lon":5.37648,"is_reserved":false,"is_disabled":true,"rental_uris":{"android":"levelo://app?vid=23da5067-cac7-4ef3-9734-be333b976303","ios":"levelo://app?vid=23da5067-cac7-4ef3-9734-be333b976303"},"vehicle_type_id":"4","last_reported":1733123434,"current_range_meters":17200,"station_id":"ce4bhh12rcd13ifvqff0","pricing_plan_id":"cebpf4jnsgd1na2vs0mg"},{"bike_id":"f52201c4-777b-47e4-acdd-213fa552e9d2","system_id":"levelo_inurba_marseille","lat":43.29002,"lon":5.3561,"is_reserved":false,"is_disabled":true,"rental_uris":{"android":"levelo://app?vid=f52201c4-777b-47e4-acdd-213fa552e9d2","ios":"levelo://app?vid=f52201c4-777b-47e4-acdd-213fa552e9d2"},"vehicle_type_id":"4","last_reported":1733123434,"current_range_meters":2000,"station_id":"ce4bhb92rcd13ifvqen0","pricing_plan_id":"cebpf4jnsgd1na2vs0mg"},{"bike_id":"ba45f43f-c015-4f43-9b0c-918d06df3462","system_id":"levelo_inurba_marseille","lat":43.27178,"lon":5.40992,"is_reserved":false,"is_disabled":true,"rental_uris":{"android":"levelo://app?vid=ba45f43f-c015-4f43-9b0c-918d06df3462","ios":"levelo://app?vid=ba45f43f-c015-4f43-9b0c-918d06df3462"},"vehicle_type_id":"4","last_reported":1733123434,"current_range_meters":0,"station_id":"ce4bhl12rcd13ifvqgf0","pricing_plan_id":"cebpf4jnsgd1na2vs0mg"},{"bike_id":"66df812d-7dde-4ca0-aabd-8b4b3a72d75f","system_id":"levelo_inurba_marseille","lat":43.30159,"lon":5.38082,"is_reserved":false,"is_disabled":false,"rental_uris":{"android":"levelo://app?vid=66df812d-7dde-4ca0-aabd-8b4b3a72d75f","ios":"levelo://app?vid=66df812d-7dde-4ca0-aabd-8b4b3a72d75f"},"vehicle_type_id":"4","last_reported":1733123434,"current_range_meters":29600,"station_id":"ce4bgjp2rcd13ifvqbh0","pricing_plan_id":"cebpf4jnsgd1na2vs0mg"},{"bike_id":"c83e956f-2022-4f59-ba8a-eacbb95e027a","system_id":"levelo_inurba_marseille","lat":43.30656,"lon":5.40091,"is_reserved":false,"is_disabled":false,"rental_uris":{"android":"levelo://app?vid=c83e956f-2022-4f59-ba8a-eacbb95e027a","ios":"levelo://app?vid=c83e956f-2022-4f59-ba8a-eacbb95e027a"},"vehicle_type_id":"4","last_reported":1733123434,"current_range_meters":37600,"station_id":"ce4bh112rcd13ifvqda0","pricing_plan_id":"cebpf4jnsgd1na2vs0mg"},{"bike_id":"1788e664-6b60-4000-b120-ea5b630bb6c7","system_id":"levelo_inurba_marseille","lat":43.28618,"lon":5.35096,"is_reserved":false,"is_disabled":true,"rental_uris":{"android":"levelo://app?vid=1788e664-6b60-4000-b120-ea5b630bb6c7","ios":"levelo://app?vid=1788e664-6b60-4000-b120-ea5b630bb6c7"},"vehicle_type_id":"4","last_reported":1733123434,"current_range_meters":28800,"station_id":"ce4bhch2rcd13ifvqeug","pricing_plan_id":"cebpf4jnsgd1na2vs0mg"},{"bike_id":"e68d2cdf-3f22-479e-bc90-c56fa1caa4b6","system_id":"levelo_inurba_marseille","lat":43.29027,"lon":5.39977,"is_reserved":false,"is_disabled":false,"rental_uris":{"android":"levelo://app?vid=e68d2cdf-3f22-479e-bc90-c56fa1caa4b6","ios":"levelo://app?vid=e68d2cdf-3f22-479e-bc90-c56fa1caa4b6"},"vehicle_type_id":"4","last_reported":1733123434,"current_range_meters":33200,"station_id":"ce4bh392rcd13ifvqdm0","pricing_plan_id":"cebpf4jnsgd1na2vs0mg"},{"bike_id":"f9a63393-5401-4f98-ae5a-dfbb8291ab6d","system_id":"levelo_inurba_marseille","lat":43.3004,"lon":5.37551,"is_reserved":false,"is_disabled":true,"rental_uris":{"android":"levelo://app?vid=f9a63393-5401-4f98-ae5a-dfbb8291ab6d","ios":"levelo://app?vid=f9a63393-5401-4f98-ae5a-dfbb8291ab6d"},"vehicle_type_id":"4","last_reported":1733123434,"current_range_meters":0,"station_id":"","pricing_plan_id":"cebpf4jnsgd1na2vs0mg"},{"bike_id":"705b9361-02dc-4a31-a50d-3510d4e500d9","system_id":"levelo_inurba_marseille","lat":43.25121,"lon":5.40317,"is_reserved":false,"is_disabled":false,"rental_uris":{"android":"levelo://app?vid=705b9361-02dc-4a31-a50d-3510d4e500d9","ios":"levelo://app?vid=705b9361-02dc-4a31-a50d-3510d4e500d9"},"vehicle_type_id":"4","last_reported":1733123434,"current_range_meters":36400,"station_id":"ce4bhlh2rcd13ifvqgig","pricing_plan_id":"cebpf4jnsgd1na2vs0mg"},