{"last_updated":1758636616,"ttl":60,"version":"2.2","data":{"bikes":[{"bike_id":"551e8671-7782-462f-babe-244ddd48a2ad","system_id":"levelo_inurba_marseille","lat":43.287218,"lon":5.360908,"is_reserved":false,"is_disabled":false,"rental_uris":{"android":"levelo://app?vid=551e8671-7782-462f-babe-244ddd48a2ad","ios":"levelo://app?vid=551e8671-7782-462f-babe-244ddd48a2ad"},"vehicle_type_id":"4","last_reported":1758636616,"current_range_meters":2800,"station_id":"cki0cbj6b192h4jlfktg","pricing_plan_id":"cebpf4jnsgd1na2vs0mg"},{"bike_id":"c0722bd6-c102-4c8e-a279-a03e133f5441","system_id":"levelo_inurba_marseille","lat":43.29271,"lon":5.36844,"is_reserved":false,"is_disabled":false,"rental_uris":{"android":"levelo://app?vid=c0722bd6-c102-4c8e-a279-a03e133f5441","ios":"levelo://app?vid=c0722bd6-c102-4c8e-a279-a03e133f5441"},"vehicle_type_id":"4","last_reported":1758636616,"current_range_meters":2800,"station_id":"ce4bhbp2rcd13ifvqesg","pricing_plan_id":"cebpf4jnsgd1na2vs0mg"},{"bike_id":"6a468e62-24a6-4b11-8fc1-525ca7597b4d","system_id":"levelo_inurba_marseille","lat":43.33715,"lon":5.391818,"is_reserved":false,"is_disabled":false,"rental_uris":{"android":"levelo://app?vid=6a468e62-24a6-4b11-8fc1-525ca7597b4d","ios":"levelo://app?vid=6a468e62-24a6-4b11-8fc1-525ca7597b4d"},"vehicle_type_id":"4","last_reported":1758636616,"current_range_meters":2800,"station_id":"ce4bhr92rcd13ifvqhsg","pricing_plan_id":"cebpf4jnsgd1na2vs0mg"},{"bike_id":"5096dd44-bb08-49f1-8f58-9d9dfb1faf50","system_id":"levelo_inurba_marseille","lat":43.33432,"lon":5.3988,"is_reserved":false,"is_disabled":false,"rental_uris":{"android":"levelo://app?vid=5096dd44-bb08-49f1-8f58-9d9dfb1faf50","ios":"levelo://app?vid=5096dd44-bb08-49f1-8f58-9d9dfb1faf50"},"vehicle_type_id":"4","last_reported":1758636616,"current_range_meters":2800,"station_id":"","pricing_plan_id":"cebpf4jnsgd1na2vs0mg"},{"bike_id":"b57e9d58-af82-4c0b-9100-e6f675566dab","system_id":"levelo_inurba_marseille","lat":43.270515,"lon":5.392858,"is_reserved":false,"is_disabled":false,"rental_uris":{"android":"levelo://app?vid=b57e9d58-af82-4c0b-9100-e6f675566dab","ios":"levelo://app?vid=b57e9d58-af82-4c0b-9100-e6f675566dab"},"vehicle_type_id":"4","last_reported":1758636616,"current_range_meters":3200,"station_id":"ce4bhhp2rcd13ifvqfm0","pricing_plan_id":"cebpf4jnsgd1na2vs0mg"},{"bike_id":"05977a29-4492-4e42-b026-696e72e1cc93","system_id":"levelo_inurba_marseille","lat":43.282604,"lon":5.372656,"is_reserved":false,"is_disabled":false,"rental_uris":{"android":"levelo://app?vid=05977a29-4492-4e42-b026-696e72e1cc93","ios":"levelo://app?vid=05977a29-4492-4e42-b026-696e72e1cc93"},"vehicle_type_id":"4","last_reported":1758636616,"current_range_meters":3600,"station_id":"","pricing_plan_id":"cebpf4jnsgd1na2vs0mg"},{"bike_id":"46b472cd-e714-4922-8013-02f1e236fcf1","system_id":"levelo_inurba_marseille","lat":43.29196,"lon":5.35808,"is_reserved":false,"is_disabled":false,"rental_uris":{"android":"levelo://app?vid=46b472cd-e714-4922-8013-02f1e236fcf1","ios":"levelo://app?vid=46b472cd-e714-4922-8013-02f1e236fcf1"},"vehicle_type_id":"4","last_reported":1758636616,"current_range_meters":3600,"station_id":"ce4bhb12rcd13ifvqel0","pricing_plan_id":"cebpf4jnsgd1na2vs0mg"},{"bike_id":"07d98320-2643-44d4-ab4f-9225df6d1dba","system_id":"levelo_inurba_marseille","lat":43.28428,"lon":5.37526,"is_reserved":false,"is_disabled":false,"rental_uris":{"android":"levelo://app?vid=07d98320-2643-44d4-ab4f-9225df6d1dba","ios":"levelo://app?vid=07d98320-2643-44d4-ab4f-9225df6d1dba"},"vehicle_type_id":"4","last_reported":1758636616,"current_range_meters":1600,"station_id":"ce4bh412rcd13ifvqds0","pricing_plan_id":"cebpf4jnsgd1na2vs0mg"},{"bike_id":"1b790372-5d34-489f-a29a-5f2319ad70e0","system_id":"levelo_inurba_marseille","lat":43.28261,"lon":5.35048,"is_reserved":false,"is_disabled":true,"rental_uris":{"android":"levelo://app?vid=1b790372-5d34-489f-a29a-5f2319ad70e0","ios":"levelo://app?vid=1b790372-5d34-489f-a29a-5f2319ad70e0"},"vehicle_type_id":"4","last_reported":1758636616,"current_range_meters":3600,"station_id":"ce4bhbp2rcd13ifvqerg","pricing_plan_id":"cebpf4jnsgd1na2vs0mg"},{"bike_id":"72df89cb-7746-46e6-b269-fbddd2d473fe","system_id":"levelo_inurba_marseille","lat":43.32112,"lon":5.36769,"is_reserved":false,"is_disabled":false,"rental_uris":{"android":"levelo://app?vid=72df89cb-7746-46e6-b269-fbddd2d473fe","ios":"levelo://app?vid=72df89cb-7746-46e6-b269-fbddd2d473fe"},"vehicle_type_id":"4","last_reported":1758636616,"current_range_meters":3600,"station_id":"ce4bhrh2rcd13ifvqhug","pricing_plan_id":"cebpf4jnsgd1na2vs0mg"},{"bike_id":"00ebbc2a-1407-406f-a888-8d2245dcb996","system_id":"levelo_inurba_marseille","lat":43.29026,"lon":5.38647,"is_reserved":false,"is_disabled":false,"rental_uris":{"android":"levelo://app?vid=00ebbc2a-1407-406f-a888-8d2245dcb996","ios":"levelo://app?vid=00ebbc2a-1407-406f-a888-8d2245dcb996"},"vehicle_type_id":"4","last_reported":1758636616,"current_range_meters":4000,"station_id":"ce4bh4p2rcd13ifvqe0g","pricing_plan_id":"cebpf4jnsgd1na2vs0mg"},{"bike_id":"54502de0-09ba-43cd-a1f2-9f84e6e6c1cb","system_id":"levelo_inurba_marseille","lat":43.290149,"lon":5.381283,"is_reserved":false,"is_disabled":false,"rental_uris":{"android":"levelo://app?vid=54502de0-09ba-43cd-a1f2-9f84e6e6c1cb","ios":"levelo://app?vid=54502de0-09ba-43cd-a1f2-9f84e6e6c1cb"},"vehicle_type_id":"4","last_reported":1758636616,"current_range_meters":4000,"station_id":"","pricing_plan_id":"cebpf4jnsgd1na2vs0mg"},{"bike_id":"54bb19e7-e536-4337-9642-bae588c65cc7","system_id":"levelo_inurba_marseille","lat":43.23965,"lon":5.36629,"is_reserved":false,"is_disabled":false,"rental_uris":{"android":"levelo://app?vid=54bb19e7-e536-4337-9642-bae588c65cc7","ios":"levelo://app?vid=54bb19e7-e536-4337-9642-bae588c65cc7"},"vehicle_type_id":"4","last_reported":1758636616,"current_range_meters":4400,"station_id":"ce4bhi12rcd13ifvqfp0","pricing_plan_id":"cebpf4jnsgd1na2vs0mg"},{"bike_id":"e89b4882-a351-4193-9d47-f6479514a644","system_id":"levelo_inurba_marseille","lat":43.284264,"lon":5.34983,"is_reserved":false,"is_disabled":false,"rental_uris":{"android":"levelo://app?vid=e89b4882-a351-4193-9d47-f6479514a644","ios":"levelo://app?vid=e89b4882-a351-4193-9d47-f6479514a644"},"vehicle_type_id":"4","last_reported":1758636616,"current_range_meters":4400,"station_id":"ce4bhbh2rcd13ifvqepg","pricing_plan_id":"cebpf4jnsgd1na2vs0mg"},{"bike_id":"a2fcb40c-c967-4e60-bc03-cec4d01faeb3","system_id":"levelo_inurba_marseille","lat":43.31169,"lon":5.38717,"is_reserved":false,"is_disabled":false,"rental_uris":{"android":"levelo://app?vid=a2fcb40c-c967-4e60-bc03-cec4d01faeb3","ios":"levelo://app?vid=a2fcb40c-c967-4e60-bc03-cec4d01faeb3"},"vehicle_type_id":"4","last_reported":1758636616,"current_range_meters":4400,"station_id":"ce4bgv12rcd13ifvqcp0","pricing_plan_id":"cebpf4jnsgd1na2vs0mg"},{"bike_id":"b8b8a114-9f6f-4f51-8fa0-2353d2a4426c","system_id":"levelo_inurba_marseille","lat":43.2656,"lon":5.40331,"is_reserved":false,"is_disabled":false,"rental_uris":{"android":"levelo://app?vid=b8b8a114-9f6f-4f51-8fa0-2353d2a4426c","ios":"levelo://app?vid=b8b8a114-9f6f-4f51-8fa0-2353d2a4426c"},"vehicle_type_id":"4","last_reported":1758636616,"current_range_meters":4800,"station_id":"ce4bhmp2rcd13ifvqgng","pricing_plan_id":"cebpf4jnsgd1na2vs0mg"},{"bike_id":"2d86297c-1051-4c46-9fa9-e505ae45a440","system_id":"levelo_inurba_marseille","lat":43.29254,"lon":5.40911,"is_reserved":false,"is_disabled":false,"rental_uris":{"android":"levelo://app?vid=2d86297c-1051-4c46-9fa9-e505ae45a440","ios":"levelo://app?vid=2d86297c-1051-4c46-9fa9-e505ae45a440"},"vehicle_type_id":"4","last_reported":1758636616,"current_range_meters":4800,"station_id":"ce4bh192rcd13ifvqdc0","pricing_plan_id":"cebpf4jnsgd1na2vs0mg"},{"bike_id":"cfb8dab8-d6c7-494b-9b93-54da8ced56f0","system_id":"levelo_inurba_marseille","lat":43.30324,"lon":5.40432,"is_reserved":false,"is_disabled":false,"rental_uris":{"android":"levelo://app?vid=cfb8dab8-d6c7-494b-9b93-54da8ced56f0","ios":"levelo://app?vid=cfb8dab8-d6c7-494b-9b93-54da8ced56f0"},"vehicle_type_id":"4","last_reported":1758636616,"current_range_meters":4800,"station_id":"ce4bh012rcd13ifvqd10","pricing_plan_id":"cebpf4jnsgd1na2vs0mg"},{"bike_id":"97c12736-7b12-43a0-9878-14d50e51ba85","system_id":"levelo_inurba_marseille","lat":43.27936,"lon":5.41049,"is_reserved":false,"is_disabled":false,"rental_uris":{"android":"levelo://app?vid=97c12736-7b12-43a0-9878-14d50e51ba85","ios":"levelo://app?vid=97c12736-7b12-43a0-9878-14d50e51ba85"},"vehicle_type_id":"4","last_reported":1758636616,"current_range_meters":5600,"station_id":"ce4bhnp2rcd13ifvqh0g","pricing_plan_id":"cebpf4jnsgd1na2vs0mg"},{"bike_id":"9176512c-2cc1-4df2-a8e0-6be514fbcdbf","system_id":"levelo_inurba_marseille","lat":43.33748,"lon":5.37465,"is_reserved":false,"is_disabled":false,"rental_uris":{"android":"levelo://app?vid=9176512c-2cc1-4df2-a8e0-6be514fbcdbf","ios":"levelo://app?vid=9176512c-2cc1-4df2-a8e0-6be514fbcdbf"},"vehicle_type_id":"4","last_reported":1758636616,"current_range_meters":5600,"station_id":"","pricing_plan_id":"cebpf4jnsgd1na2vs0mg"},{"bike_id":"438ead59-de14-4fa0-a61d-03a70a4122ae","system_id":"levelo_inurba_marseille","lat":43.97285,"lon":4.89134,"is_reserved":false,"is_disabled":true,"rental_uris":{"android":"levelo://app?vid=438ead59-de14-4fa0-a61d-03a70a4122ae","ios":"levelo://app?vid=438ead59-de14-4fa0-a61d-03a70a4122ae"},"vehicle_type_id":"4","last_reported":1758636616,"current_range_meters":5600,"station_id":"","pricing_plan_id":"cebpf4jnsgd1na2vs0mg"},{"bike_id":"b4bdf58e-3de6-42f4-842d-2b955c81ceac","system_id":"levelo_inurba_marseille","lat":43.31165,"lon":5.38714,"is_reserved":false,"is_disabled":false,"rental_uris":{"android":"levelo://app?vid=b4bdf58e-3de6-42f4-842d-2b955c81ceac","ios":"levelo://app?vid=b4bdf58e-3de6-42f4-842d-2b955c81ceac"},"vehicle_type_id":"4","last_reported":1758636616,"current_range_meters":6000,"station_id":"ce4bgv12rcd13ifvqcp0","pricing_plan_id":"cebpf4jnsgd1na2vs0mg"},{"bike_id":"c1727d00-2514-40a1-8f30-0e0b18ad53ac","system_id":"levelo_inurba_marseille","lat":43.29617,"lon":5.37718,"is_reserved":false,"is_disabled":false,"rental_uris":{"android":"levelo://app?vid=c1727d00-2514-40a1-8f30-0e0b18ad53ac","ios":"levelo://app?vid=c1727d00-2514-40a1-8f30-0e0b18ad53ac"},"vehicle_type_id":"4","last_reported":1758636616,"current_range_meters":6000,"station_id":"ce4bgi92rcd13ifvqb90","pricing_plan_id":"cebpf4jnsgd1na2vs0mg"},{"bike_id":"2289a0ff-9c3e-4f79-ad38-4b41158d6057","system_id":"levelo_inurba_marseille","lat":43.29882,"lon":5.37911,"is_reserved":false,"is_disabled":false,"rental_uris":{"android":"levelo://app?vid=2289a0ff-9c3e-4f79-ad38-4b41158d6057","ios":"levelo://app?vid=2289a0ff-9c3e-4f79-ad38-4b41158d6057"},"vehicle_type_id":"4","last_reported":1758636616,"current_range_meters":6000,"station_id":"","pricing_plan_id":"cebpf4jnsgd1na2vs0mg"},{"bike_id":"d64737d9-daa1-42a2-a3ff-c9c6a6c5a3af","system_id":"levelo_inurba_marseille","lat":43.30139,"lon":5.38061,"is_reserved":false,"is_disabled":false,"rental_uris":{"android":"levelo://app?vid=d64737d9-daa1-42a2-a3ff-c9c6a6c5a3af","ios":"levelo://app?vid=d64737d9-daa1-42a2-a3ff-c9c6a6c5a3af"},"vehicle_type_id":"4","last_reported":1758636616,"current_range_meters":6000,"station_id":"ce4bgjp2rcd13ifvqbh0","pricing_plan_id":"cebpf4jnsgd1na2vs0mg"},{"bike_id":"296a72b0-6395-47a8-b78a-d3904027bf5a","system_id":"levelo_inurba_marseille","lat":43.2862,"lon":5.35114,"is_reserved":false,"is_disabled":false,"rental_uris":{"android":"levelo://app?vid=296a72b0-6395-47a8-b78a-d3904027bf5a","ios":"levelo://app?vid=296a72b0-6395-47a8-b78a-d3904027bf5a"},"vehicle_type_id":"4","last_reported":1758636616,"current_range_meters":6000,"station_id":"ce4bhch2rcd13ifvqeug","pricing_plan_id":"cebpf4jnsgd1na2vs0mg"},{"bike_id":"698a1659-1be4-4464-8e40-0054e6845364","system_id":"levelo_inurba_marseille","lat":43.29393,"lon":5.40375,"is_reserved":false,"is_disabled":false,"rental_uris":{"android":"levelo://app?vid=698a1659-1be4-4464-8e40-0054e6845364","ios":"levelo://app?vid=698a1659-1be4-4464-8e40-0054e6845364"},"vehicle_type_id":"4","last_reported":1758636616,"current_range_meters":6400,"station_id":"","pricing_plan_id":"cebpf4jnsgd1na2vs0mg"},{"bike_id":"d6e91968-67be-4b4f-b460-2a467a4257bc","system_id":"levelo_inurba_marseille","lat":43.29519,"lon":5.39399,"is_reserved":false,"is_disabled":false,"rental_uris":{"android":"levelo://app?vid=d6e91968-67be-4b4f-b460-2a467a4257bc","ios":"levelo://app?vid=d6e91968-67be-4b4f-b460-2a467a4257bc"},"vehicle_type_id":"4","last_reported":1758636616,"current_range_meters":6400,"station_id":"ce4bh292rcd13ifvqdf0","pricing_plan_id":"cebpf4jnsgd1na2vs0mg"},{"bike_id":"146fa480-dedb-488f-bea0-81c7e6508a36","system_id":"levelo_inurba_marseille","lat":43.30304,"lon":5.39203,"is_reserved":false,"is_disabled":false,"rental_uris":{"android":"levelo://app?vid=146fa480-dedb-488f-bea0-81c7e6508a36","ios":"levelo://app?vid=146fa480-dedb-488f-bea0-81c7e6508a36"},"vehicle_type_id":"4","last_reported":1758636616,"current_range_meters":6400,"station_id":"ce4bgkh2rcd13ifvqbk0","pricing_plan_id":"cebpf4jnsgd1na2vs0mg"},{"bike_id":"6ea3e0ce-29b0-4b08-881d-ec13a41e32ba","system_id":"levelo_inurba_marseille","lat":43.282686,"lon":5.350491,"is_reserved":false,"is_disabled":false,"rental_uris":{"android":"levelo://app?vid=6ea3e0ce-29b0-4b08-881d-ec13a41e32ba","ios":"levelo://app?vid=6ea3e0ce-29b0-4b08-881d-ec13a41e32ba"},"vehicle_type_id":"4","last_reported":1758636616,"current_range_meters":6800,"station_id":"","pricing_plan_id":"cebpf4jnsgd1na2vs0mg"},{"bike_id":"df56738d-2b4b-40f4-8ae6-66281091536e","system_id":"levelo_inurba_marseille","lat":43.29028,"lon":5.38136,"is_reserved":false,"is_disabled":false,"rental_uris":{"android":"levelo://app?vid=df56738d-2b4b-40f4-8ae6-66281091536e","ios":"levelo://app?vid=df56738d-2b4b-40f4-8ae6-66281091536e"},"vehicle_type_id":"4","last_reported":1758636616,"current_range_meters":6800,"station_id":"ce4bh4p2rcd13ifvqe1g","pricing_plan_id":"cebpf4jnsgd1na2vs0mg"},{"bike_id":"41e03531-d926-4714-9cb0-33d759375f30","system_id":"levelo_inurba_marseille","lat":43.31231,"lon":5.36867,"is_reserved":false,"is_disabled":false,"rental_uris":{"android":"levelo://app?vid=41e03531-d926-4714-9cb0-33d759375f30","ios":"levelo://app?vid=41e03531-d926-4714-9cb0-33d759375f30"},"vehicle_type_id":"4","last_reported":1758636616,"current_range_meters":6800,"station_id":"ce4bgl92rcd13ifvqbq0","pricing_plan_id":"cebpf4jnsgd1na2vs0mg"},{"bike_id":"19fafab4-de0e-4cb4-a5cc-4372c434ec95","system_id":"levelo_inurba_marseille","lat":43.31223,"lon":5.36868,"is_reserved":false,"is_disabled":false,"rental_uris":{"android":"levelo://app?vid=19fafab4-de0e-4cb4-a5cc-4372c434ec95","ios":"levelo://app?vid=19fafab4-de0e-4cb4-a5cc-4372c434ec95"},"vehicle_type_id":"4","last_reported":1758636616,"current_range_meters":7200,"station_id":"ce4bgl92rcd13ifvqbq0","pricing_plan_id":"cebpf4jnsgd1na2vs0mg"},{"bike_id":"af29bd4a-51c0-47f1-bce0-b9ca138339ea","system_id":"levelo_inurba_marseille","lat":43.317115,"lon":5.437032,"is_reserved":false,"is_disabled":false,"rental_uris":{"android":"levelo://app?vid=af29bd4a-51c0-47f1-bce0-b9ca138339ea","ios":"levelo://app?vid=af29bd4a-51c0-47f1-bce0-b9ca138339ea"},"vehicle_type_id":"4","last_reported":1758636616,"current_range_meters":7200,"station_id":"ce4bhp92rcd13ifvqhcg","pricing_plan_id":"cebpf4jnsgd1na2vs0mg"},{"bike_id":"3d3616ae-55ab-4319-9346-2104e95c171f","system_id":"levelo_inurba_marseille","lat":43.30978,"lon":5.37958,"is_reserved":false,"is_disabled":false,"rental_uris":{"android":"levelo://app?vid=3d3616ae-55ab-4319-9346-2104e95c171f","ios":"levelo://app?vid=3d3616ae-55ab-4319-9346-2104e95c171f"},"vehicle_type_id":"4","last_reported":1758636616,"current_range_meters":7200,"station_id":"","pricing_plan_id":"cebpf4jnsgd1na2vs0mg"},{"bike_id":"ca000825-5d13-495e-af19-915ae846db43","system_id":"levelo_inurba_marseille","lat":43.33032,"lon":5.39052,"is_reserved":false,"is_disabled":false,"rental_uris":{"android":"levelo://app?vid=ca000825-5d13-495e-af19-915ae846db43","ios":"levelo://app?vid=ca000825-5d13-495e-af19-915ae846db43"},"vehicle_type_id":"4","last_reported":1758636616,"current_range_meters":7200,"station_id":"ce4bhr92rcd13ifvqhrg","pricing_plan_id":"cebpf4jnsgd1na2vs0mg"},{"bike_id":"721efd89-c215-46a3-9d57-8a4844c8a0d3","system_id":"levelo_inurba_marseille","lat":43.3031,"lon":5.36889,"is_reserved":false,"is_disabled":false,"rental_uris":{"android":"levelo://app?vid=721efd89-c215-46a3-9d57-8a4844c8a0d3","ios":"levelo://app?vid=721efd89-c215-46a3-9d57-8a4844c8a0d3"},"vehicle_type_id":"4","last_reported":1758636616,"current_range_meters":7200,"station_id":"ce4bgqh2rcd13ifvqc5g","pricing_plan_id":"cebpf4jnsgd1na2vs0mg"},{"bike_id":"8dc1d896-b809-42d3-9851-c1951eac7b8e","system_id":"levelo_inurba_marseille","lat":43.30369,"lon":5.42486,"is_reserved":false,"is_disabled":false,"rental_uris":{"android":"levelo://app?vid=8dc1d896-b809-42d3-9851-c1951eac7b8e","ios":"levelo://app?vid=8dc1d896-b809-42d3-9851-c1951eac7b8e"},"vehicle_type_id":"4","last_reported":1758636616,"current_range_meters":7200,"station_id":"ce4bhoh2rcd13ifvqh6g","pricing_plan_id":"cebpf4jnsgd1na2vs0mg"},{"bike_id":"7fd14ad2-a454-423d-bbfa-04d2678cc6ac","system_id":"levelo_inurba_marseille","lat":43.29758,"lon":5.38125,"is_reserved":false,"is_disabled":false,"rental_uris":{"android":"levelo://app?vid=7fd14ad2-a454-423d-bbfa-04d2678cc6ac","ios":"levelo://app?vid=7fd14ad2-a454-423d-bbfa-04d2678cc6ac"},"vehicle_type_id":"4","last_reported":1758636616,"current_range_meters":8000,"station_id":"","pricing_plan_id":"cebpf4jnsgd1na2vs0mg"},{"bike_id":"5dc88848-aaad-4a7a-adc7-b0b869f1e747","system_id":"levelo_inurba_marseille","lat":43.28451,"lon":5.35895,"is_reserved":false,"is_disabled":false,"rental_uris":{"android":"levelo://app?vid=5dc88848-aaad-4a7a-adc7-b0b869f1e747","ios":"levelo://app?vid=5dc88848-aaad-4a7a-adc7-b0b869f1e747"},"vehicle_type_id":"4","last_reported":1758636616,"current_range_meters":8000,"station_id":"ce4bhah2rcd13ifvqei0","pricing_plan_id":"cebpf4jnsgd1na2vs0mg"},{"bike_id":"0d6d7c79-1fa3-42b7-828e-912eec7cea4c","system_id":"levelo_inurba_marseille","lat":43.29558,"lon":5.38174,"is_reserved":false,"is_disabled":false,"rental_uris":{"android":"levelo://app?vid=0d6d7c79-1fa3-42b7-828e-912eec7cea4c","ios":"levelo://app?vid=0d6d7c79-1fa3-42b7-828e-912eec7cea4c"},"vehicle_type_id":"4","last_reported":1758636616,"current_range_meters":8000,"station_id":"","pricing_plan_id":"cebpf4jnsgd1na2vs0mg"},{"bike_id":"b9ecf708-4288-405e-aff8-733a473b0516","system_id":"levelo_inurba_marseille","lat":43.2558,"lon":5.38237,"is_reserved":false,"is_disabled":false,"rental_uris":{"android":"levelo://app?vid=b9ecf708-4288-405e-aff8-733a473b0516","ios":"levelo://app?vid=b9ecf708-4288-405e-aff8-733a473b0516"},"vehicle_type_id":"4","last_reported":1758636616,"current_range_meters":7200,"station_id":"ce4bhih2rcd13ifvqfs0","pricing_plan_id":"cebpf4jnsgd1na2vs0mg"},{"bike_id":"6bb3af9e-36a7-4dcc-82ec-23d0da66ead0","system_id":"levelo_inurba_marseille","lat":43.284093,"lon":5.349741,"is_reserved":false,"is_disabled":false,"rental_uris":{"android":"levelo://app?vid=6bb3af9e-36a7-4dcc-82ec-23d0da66ead0","ios":"levelo://app?vid=6bb3af9e-36a7-4dcc-82ec-23d0da66ead0"},"vehicle_type_id":"4","last_reported":1758636616,"current_range_meters":8400,"station_id":"ce4bhbh2rcd13ifvqepg","pricing_plan_id":"cebpf4jnsgd1na2vs0mg"},{"bike_id":"b2134670-ee72-4e76-8816-8e71b6e6bb11","system_id":"levelo_inurba_marseille","lat":43.28203,"lon":5.39068,"is_reserved":false,"is_disabled":false,"rental_uris":{"android":"levelo://app?vid=b2134670-ee72-4e76-8816-8e71b6e6bb11","ios":"levelo://app?vid=b2134670-ee72-4e76-8816-8e71b6e6bb11"},"vehicle_type_id":"4","last_reported":1758636616,"current_range_meters":3600,"station_id":"ce4bhn92rcd13ifvqgsg","pricing_plan_id":"cebpf4jnsgd1na2vs0mg"},{"bike_id":"f7b6108f-c38f-4ef7-82f1-ce08cf51e4f1","system_id":"levelo_inurba_marseille","lat":43.29266,"lon":5.38443,"is_reserved":false,"is_disabled":true,"rental_uris":{"android":"levelo://app?vid=f7b6108f-c38f-4ef7-82f1-ce08cf51e4f1","ios":"levelo://app?vid=f7b6108f-c38f-4ef7-82f1-ce08cf51e4f1"},"vehicle_type_id":"4","last_reported":1758636616,"current_range_meters":8400,"station_id":"ce4bh692rcd13ifvqea0","pricing_plan_id":"cebpf4jnsgd1na2vs0mg"},{"bike_id":"bd4bc02a-52b9-4a39-9820-0aacc1f09bfc","system_id":"levelo_inurba_marseille","lat":43.3064,"lon":5.4008,"is_reserved":false,"is_disabled":false,"rental_uris":{"android":"levelo://app?vid=bd4bc02a-52b9-4a39-9820-0aacc1f09bfc","ios":"levelo://app?vid=bd4bc02a-52b9-4a39-9820-0aacc1f09bfc"},"vehicle_type_id":"4","last_reported":1758636616,"current_range_meters":8400,"station_id":"ce4bh112rcd13ifvqda0","pricing_plan_id":"cebpf4jnsgd1na2vs0mg"},{"bike_id":"20fd71da-81fd-49c8-8c8b-86353433d687","system_id":"levelo_inurba_marseille","lat":43.28104,"lon":5.37841,"is_reserved":false,"is_disabled":false,"rental_uris":{"android":"levelo://app?vid=20fd71da-81fd-49c8-8c8b-86353433d687","ios":"levelo://app?vid=20fd71da-81fd-49c8-8c8b-86353433d687"},"vehicle_type_id":"4","last_reported":1758636616,"current_range_meters":8400,"station_id":"ce4bha12rcd13ifvqee0","pricing_plan_id":"cebpf4jnsgd1na2vs0mg"},{"bike_id":"ba152119-d3b1-4270-8c13-1a55e8560c3b","system_id":"levelo_inurba_marseille","lat":43.2737,"lon":5.36263,"is_reserved":false,"is_disabled":false,"rental_uris":{"android":"levelo://app?vid=ba152119-d3b1-4270-8c13-1a55e8560c3b","ios":"levelo://app?vid=ba152119-d3b1-4270-8c13-1a55e8560c3b"},"vehicle_type_id":"4","last_reported":1758636616,"current_range_meters":8400,"station_id":"ce4bhbh2rcd13ifvqeo0","pricing_plan_id":"cebpf4jnsgd1na2vs0mg"},{"bike_id":"3c451c6c-355e-4969-b129-ada83170f960","system_id":"levelo_inurba_marseille","lat":43.26205,"lon":5.37924,"is_reserved":false,"is_disabled":false,"rental_uris":{"android":"levelo://app?vid=3c451c6c-355e-4969-b129-ada83170f960","ios":"levelo://app?vid=3c451c6c-355e-4969-b129-ada83170f960"},"vehicle_type_id":"4","last_reported":1758636616,"current_range_meters":8800,"station_id":"ce4bhjp2rcd13ifvqg90","pricing_plan_id":"cebpf4jnsgd1na2vs0mg"},{"bike_id":"a2bc840e-d724-4071-8b08-7631f97588db","system_id":"levelo_inurba_marseille","lat":43.32287,"lon":5.38262,"is_reserved":false,"is_disabled":false,"rental_uris":{"android":"levelo://app?vid=a2bc840e-d724-4071-8b08-7631f97588db","ios":"levelo://app?vid=a2bc840e-d724-4071-8b08-7631f97588db"},"vehicle_type_id":"4","last_reported":1758636616,"current_range_meters":8800,"station_id":"ce4bhr12rcd13ifvqhqg","pricing_plan_id":"cebpf4jnsgd1na2vs0mg"},{"bike_id":"6d760c22-2a5b-44b6-a461-af5a32b0d87f","system_id":"levelo_inurba_marseille","lat":43.27995,"lon":5.41665,"is_reserved":false,"is_disabled":false,"rental_uris":{"android":"levelo://app?vid=6d760c22-2a5b-44b6-a461-af5a32b0d87f","ios":"levelo://app?vid=6d760c22-2a5b-44b6-a461-af5a32b0d87f"},"vehicle_type_id":"4","last_reported":1758636616,"current_range_meters":8800,"station_id":"ce4bho12rcd13ifvqh1g","pricing_plan_id":"cebpf4jnsgd1na2vs0mg"},{"bike_id":"8ec2d155-7beb-4820-a9fd-e95e57d2461e","system_id":"levelo_inurba_marseille","lat":43.29969,"lon":5.38487,"is_reserved":false,"is_disabled":false,"rental_uris":{"android":"levelo://app?vid=8ec2d155-7beb-4820-a9fd-e95e57d2461e","ios":"levelo://app?vid=8ec2d155-7beb-4820-a9fd-e95e57d2461e"},"vehicle_type_id":"4","last_reported":1758636616,"current_range_meters":8800,"station_id":"ce4bgj92rcd13ifvqbd0","pricing_plan_id":"cebpf4jnsgd1na2vs0mg"},{"bike_id":"d46536c1-b7ad-4df6-a9a1-6c4b8943878b","system_id":"levelo_inurba_marseille","lat":43.323642,"lon":5.38884,"is_reserved":false,"is_disabled":false,"rental_uris":{"android":"levelo://app?vid=d46536c1-b7ad-4df6-a9a1-6c4b8943878b","ios":"levelo://app?vid=d46536c1-b7ad-4df6-a9a1-6c4b8943878b"},"vehicle_type_id":"4","last_reported":1758636616,"current_range_meters":8800,"station_id":"ce4bhqp2rcd13ifvqhog","pricing_plan_id":"cebpf4jnsgd1na2vs0mg"},{"bike_id":"6c6f07e9-49c4-4ee7-9120-8fa04aec666d","system_id":"levelo_inurba_marseille","lat":43.313056,"lon":5.396724,"is_reserved":false,"is_disabled":false,"rental_uris":{"android":"levelo://app?vid=6c6f07e9-49c4-4ee7-9120-8fa04aec666d","ios":"levelo://app?vid=6c6f07e9-49c4-4ee7-9120-8fa04aec666d"},"vehicle_type_id":"4","last_reported":1758636616,"current_range_meters":8800,"station_id":"","pricing_plan_id":"cebpf4jnsgd1na2vs0mg"},{"bike_id":"0b2230e3-adb9-421c-91b1-c113eb397705","system_id":"levelo_inurba_marseille","lat":43.28892,"lon":5.37638,"is_reserved":false,"is_disabled":false,"rental_uris":{"android":"levelo://app?vid=0b2230e3-adb9-421c-91b1-c113eb397705","ios":"levelo://app?vid=0b2230e3-adb9-421c-91b1-c113eb397705"},"vehicle_type_id":"4","last_reported":1758636616,"current_range_meters":9200,"station_id":"","pricing_plan_id":"cebpf4jnsgd1na2vs0mg"},{"bike_id":"c3e48ccc-65c6-4ebf-8cf7-ad2b8d3ed03f","system_id":"levelo_inurba_marseille","lat":43.28847,"lon":5.35859,"is_reserved":false,"is_disabled":false,"rental_uris":{"android":"levelo://app?vid=c3e48ccc-65c6-4ebf-8cf7-ad2b8d3ed03f","ios":"levelo://app?vid=c3e48ccc-65c6-4ebf-8cf7-ad2b8d3ed03f"},"vehicle_type_id":"4","last_reported":1758636616,"current_range_meters":9200,"station_id":"ce4bhb12rcd13ifvqem0","pricing_plan_id":"cebpf4jnsgd1na2vs0mg"},{"bike_id":"eed2cf9a-36d5-4639-8402-2398b6fbd4cf","system_id":"levelo_inurba_marseille","lat":43.21749,"lon":5.34603,"is_reserved":false,"is_disabled":false,"rental_uris":{"android":"levelo://app?vid=eed2cf9a-36d5-4639-8402-2398b6fbd4cf","ios":"levelo://app?vid=eed2cf9a-36d5-4639-8402-2398b6fbd4cf"},"vehicle_type_id":"4","last_reported":1758636616,"current_range_meters":9200,"station_id":"st_cvj6r9ubvosntc0bgbag","pricing_plan_id":"cebpf4jnsgd1na2vs0mg"},{"bike_id":"9c1769dd-044f-4f13-a222-827b2a2cde3d","system_id":"levelo_inurba_marseille","lat":43.2512,"lon":5.40317,"is_reserved":false,"is_disabled":false,"rental_uris":{"android":"levelo://app?vid=9c1769dd-044f-4f13-a222-827b2a2cde3d","ios":"levelo://app?vid=9c1769dd-044f-4f13-a222-827b2a2cde3d"},"vehicle_type_id":"4","last_reported":1758636616,"current_range_meters":9600,"station_id":"ce4bhlh2rcd13ifvqgig","pricing_plan_id":"cebpf4jnsgd1na2vs0mg"},{"bike_id":"c24af17d-c3fd-4f67-8905-5a3d21db081b","system_id":"levelo_inurba_marseille","lat":43.254591,"lon":5.376498,"is_reserved":false,"is_disabled":false,"rental_uris":{"android":"levelo://app?vid=c24af17d-c3fd-4f67-8905-5a3d21db081b","ios":"levelo://app?vid=c24af17d-c3fd-4f67-8905-5a3d21db081b"},"vehicle_type_id":"4","last_reported":1758636616,"current_range_meters":9600,"station_id":"ce4bhh12rcd13ifvqff0","pricing_plan_id":"cebpf4jnsgd1na2vs0mg"},{"bike_id":"41b8e3f6-b6ac-4ea6-9b1e-03e1a32a2cab","system_id":"levelo_inurba_marseille","lat":43.29942,"lon":5.38961,"is_reserved":false,"is_disabled":false,"rental_uris":{"android":"levelo://app?vid=41b8e3f6-b6ac-4ea6-9b1e-03e1a32a2cab","ios":"levelo://app?vid=41b8e3f6-b6ac-4ea6-9b1e-03e1a32a2cab"},"vehicle_type_id":"4","last_reported":1758636616,"current_range_meters":9600,"station_id":"","pricing_plan_id":"cebpf4jnsgd1na2vs0mg"},{"bike_id":"d40e94e9-b928-41f9-a790-b9507e159660","system_id":"levelo_inurba_marseille","lat":43.311764,"lon":5.387168,"is_reserved":false,"is_disabled":false,"rental_uris":{"android":"levelo://app?vid=d40e94e9-b928-41f9-a790-b9507e159660","ios":"levelo://app?vid=d40e94e9-b928-41f9-a790-b9507e159660"},"vehicle_type_id":"4","last_reported":1758636616,"current_range_meters":10000,"station_id":"ce4bgv12rcd13ifvqcp0","pricing_plan_id":"cebpf4jnsgd1na2vs0mg"},{"bike_id":"63f07247-f60a-4c30-99c1-15adf8f7175c","system_id":"levelo_inurba_marseille","lat":43.28461,"lon":5.35887,"is_reserved":false,"is_disabled":false,"rental_uris":{"android":"levelo://app?vid=63f07247-f60a-4c30-99c1-15adf8f7175c","ios":"levelo://app?vid=63f07247-f60a-4c30-99c1-15adf8f7175c"},"vehicle_type_id":"4","last_reported":1758636616,"current_range_meters":10000,"station_id":"ce4bhah2rcd13ifvqei0","pricing_plan_id":"cebpf4jnsgd1na2vs0mg"},{"bike_id":"f9d3a3a8-7bba-4116-a607-ce5fd94e2e34","system_id":"levelo_inurba_marseille","lat":43.30886,"lon":5.37194,"is_reserved":false,"is_disabled":false,"rental_uris":{"android":"levelo://app?vid=f9d3a3a8-7bba-4116-a607-ce5fd94e2e34","ios":"levelo://app?vid=f9d3a3a8-7bba-4116-a607-ce5fd94e2e34"},"vehicle_type_id":"4","last_reported":1758636616,"current_range_meters":10000,"station_id":"ce4bguh2rcd13ifvqckg","pricing_plan_id":"cebpf4jnsgd1na2vs0mg"},{"bike_id":"d6892ced-68b2-4c0a-8b78-e0080257d6fa","system_id":"levelo_inurba_marseille","lat":43.31253,"lon":5.36902,"is_reserved":false,"is_disabled":false,"rental_uris":{"android":"levelo://app?vid=d6892ced-68b2-4c0a-8b78-e0080257d6fa","ios":"levelo://app?vid=d6892ced-68b2-4c0a-8b78-e0080257d6fa"},"vehicle_type_id":"4","last_reported":1758636616,"current_range_meters":10800,"station_id":"ce4bgl92rcd13ifvqbq0","pricing_plan_id":"cebpf4jnsgd1na2vs0mg"},{"bike_id":"1efddf8d-578f-4e4c-8c3f-e3a8bd592ba4","system_id":"levelo_inurba_marseille","lat":43.29984,"lon":5.37442,"is_reserved":false,"is_disabled":false,"rental_uris":{"android":"levelo://app?vid=1efddf8d-578f-4e4c-8c3f-e3a8bd592ba4","ios":"levelo://app?vid=1efddf8d-578f-4e4c-8c3f-e3a8bd592ba4"},"vehicle_type_id":"4","last_reported":1758636616,"current_range_meters":10800,"station_id":"","pricing_plan_id":"cebpf4jnsgd1na2vs0mg"},{"bike_id":"94d430e6-52b3-4d21-80c9-c6dd4519a8fb","system_id":"levelo_inurba_marseille","lat":43.3178,"lon":5.3828,"is_reserved":false,"is_disabled":false,"rental_uris":{"android":"levelo://app?vid=94d430e6-52b3-4d21-80c9-c6dd4519a8fb","ios":"levelo://app?vid=94d430e6-52b3-4d21-80c9-c6dd4519a8fb"},"vehicle_type_id":"4","last_reported":1758636616,"current_range_meters":10800,"station_id":"","pricing_plan_id":"cebpf4jnsgd1na2vs0mg"},{"bike_id":"8f6cc25f-5029-4951-a3e1-eebb3f14c688","system_id":"levelo_inurba_marseille","lat":43.296936,"lon":5.37695,"is_reserved":false,"is_disabled":false,"rental_uris":{"android":"levelo://app?vid=8f6cc25f-5029-4951-a3e1-eebb3f14c688","ios":"levelo://app?vid=8f6cc25f-5029-4951-a3e1-eebb3f14c688"},"vehicle_type_id":"4","last_reported":1758636616,"current_range_meters":10800,"station_id":"ce4bgkh2rcd13ifvqbl0","pricing_plan_id":"cebpf4jnsgd1na2vs0mg"},{"bike_id":"8d243e83-cc74-44d3-bf18-f20421549672","system_id":"levelo_inurba_marseille","lat":43.28921,"lon":5.35922,"is_reserved":false,"is_disabled":false,"rental_uris":{"android":"levelo://app?vid=8d243e83-cc74-44d3-bf18-f20421549672","ios":"levelo://app?vid=8d243e83-cc74-44d3-bf18-f20421549672"},"vehicle_type_id":"4","last_reported":1758636616,"current_range_meters":10800,"station_id":"","pricing_plan_id":"cebpf4jnsgd1na2vs0mg"},{"bike_id":"57078226-9624-498c-9d33-abb05ac16cb0","system_id":"levelo_inurba_marseille","lat":43.28628,"lon":5.35093,"is_reserved":false,"is_disabled":false,"rental_uris":{"android":"levelo://app?vid=57078226-9624-498c-9d33-abb05ac16cb0","ios":"levelo://app?vid=57078226-9624-498c-9d33-abb05ac16cb0"},"vehicle_type_id":"4","last_reported":1758636616,"current_range_meters":11200,"station_id":"ce4bhch2rcd13ifvqeug","pricing_plan_id":"cebpf4jnsgd1na2vs0mg"},{"bike_id":"e8787da6-0f2b-41ca-a600-3cac7a0d3992","system_id":"levelo_inurba_marseille","lat":43.31247,"lon":5.36857,"is_reserved":false,"is_disabled":false,"rental_uris":{"android":"levelo://app?vid=e8787da6-0f2b-41ca-a600-3cac7a0d3992","ios":"levelo://app?vid=e8787da6-0f2b-41ca-a600-3cac7a0d3992"},"vehicle_type_id":"4","last_reported":1758636616,"current_range_meters":11200,"station_id":"ce4bgl92rcd13ifvqbq0","pricing_plan_id":"cebpf4jnsgd1na2vs0mg"},{"bike_id":"769f1e28-7007-4b21-9d1f-c77defb80909","system_id":"levelo_inurba_marseille","lat":43.25712,"lon":5.41139,"is_reserved":false,"is_disabled":false,"rental_uris":{"android":"levelo://app?vid=769f1e28-7007-4b21-9d1f-c77defb80909","ios":"levelo://app?vid=769f1e28-7007-4b21-9d1f-c77defb80909"},"vehicle_type_id":"4","last_reported":1758636616,"current_range_meters":11200,"station_id":"ce4bhkp2rcd13ifvqgd0","pricing_plan_id":"cebpf4jnsgd1na2vs0mg"},{"bike_id":"24e28e9c-293b-4d97-8479-1b68c7da2ee0","system_id":"levelo_inurba_marseille","lat":43.28722,"lon":5.36095,"is_reserved":false,"is_disabled":false,"rental_uris":{"android":"levelo://app?vid=24e28e9c-293b-4d97-8479-1b68c7da2ee0","ios":"levelo://app?vid=24e28e9c-293b-4d97-8479-1b68c7da2ee0"},"vehicle_type_id":"4","last_reported":1758636616,"current_range_meters":11200,"station_id":"cki0cbj6b192h4jlfktg","pricing_plan_id":"cebpf4jnsgd1na2vs0mg"},{"bike_id":"da721cb4-165a-42d1-a813-fdfa3458c547","system_id":"levelo_inurba_marseille","lat":43.23958,"lon":5.36646,"is_reserved":false,"is_disabled":false,"rental_uris":{"android":"levelo://app?vid=da721cb4-165a-42d1-a813-fdfa3458c547","ios":"levelo://app?vid=da721cb4-165a-42d1-a813-fdfa3458c547"},"vehicle_type_id":"4","last_reported":1758636616,"current_range_meters":11600,"station_id":"ce4bhi12rcd13ifvqfp0","pricing_plan_id":"cebpf4jnsgd1na2vs0mg"},{"bike_id":"a60ea823-6ee0-47b9-a522-d89a0ee4cec8","system_id":"levelo_inurba_marseille","lat":43.29779,"lon":5.38122,"is_reserved":false,"is_disabled":false,"rental_uris":{"android":"levelo://app?vid=a60ea823-6ee0-47b9-a522-d89a0ee4cec8","ios":"levelo://app?vid=a60ea823-6ee0-47b9-a522-d89a0ee4cec8"},"vehicle_type_id":"4","last_reported":1758636616,"current_range_meters":11600,"station_id":"ce4bgip2rcd13ifvqbb0","pricing_plan_id":"cebpf4jnsgd1na2vs0mg"},{"bike_id":"d0f6a18d-cdf0-4ef8-a0f0-6b46bb259d43","system_id":"levelo_inurba_marseille","lat":43.30134,"lon":5.39878,"is_reserved":false,"is_disabled":false,"rental_uris":{"android":"levelo://app?vid=d0f6a18d-cdf0-4ef8-a0f0-6b46bb259d43","ios":"levelo://app?vid=d0f6a18d-cdf0-4ef8-a0f0-6b46bb259d43"},"vehicle_type_id":"4","last_reported":1758636616,"current_range_meters":11600,"station_id":"ce4bh0h2rcd13ifvqd40","pricing_plan_id":"cebpf4jnsgd1na2vs0mg"},{"bike_id":"6875e661-a2e3-423d-a4f5-d79cdbcc11b6","system_id":"levelo_inurba_marseille","lat":43.29582,"lon":5.36735,"is_reserved":false,"is_disabled":false,"rental_uris":{"android":"levelo://app?vid=6875e661-a2e3-423d-a4f5-d79cdbcc11b6","ios":"levelo://app?vid=6875e661-a2e3-423d-a4f5-d79cdbcc11b6"},"vehicle_type_id":"4","last_reported":1758636616,"current_range_meters":12000,"station_id":"ce4bgph2rcd13ifvqc2g","pricing_plan_id":"cebpf4jnsgd1na2vs0mg"},{"bike_id":"e2e1e908-cd3b-459d-81e0-d0fad99e01cc","system_id":"levelo_inurba_marseille","lat":43.29188,"lon":5.35547,"is_reserved":false,"is_disabled":false,"rental_uris":{"android":"levelo://app?vid=e2e1e908-cd3b-459d-81e0-d0fad99e01cc","ios":"levelo://app?vid=e2e1e908-cd3b-459d-81e0-d0fad99e01cc"},"vehicle_type_id":"4","last_reported":1758636616,"current_range_meters":12000,"station_id":"","pricing_plan_id":"cebpf4jnsgd1na2vs0mg"},{"bike_id":"2a2f1ce0-5eb2-4ab6-a692-64d9649dcb94","system_id":"levelo_inurba_marseille","lat":43.2257,"lon":5.41611,"is_reserved":false,"is_disabled":false,"rental_uris":{"android":"levelo://app?vid=2a2f1ce0-5eb2-4ab6-a692-64d9649dcb94","ios":"levelo://app?vid=2a2f1ce0-5eb2-4ab6-a692-64d9649dcb94"},"vehicle_type_id":"4","last_reported":1758636616,"current_range_meters":12000,"station_id":"st_d2o4gvlbi1j2169b742g","pricing_plan_id":"cebpf4jnsgd1na2vs0mg"},{"bike_id":"b942ab8a-6109-4d22-85b1-19a2257f1a5e","system_id":"levelo_inurba_marseille","lat":43.28032,"lon":5.36954,"is_reserved":false,"is_disabled":false,"rental_uris":{"android":"levelo://app?vid=b942ab8a-6109-4d22-85b1-19a2257f1a5e","ios":"levelo://app?vid=b942ab8a-6109-4d22-85b1-19a2257f1a5e"},"vehicle_type_id":"4","last_reported":1758636616,"current_range_meters":12000,"station_id":"ce4bha12rcd13ifvqef0","pricing_plan_id":"cebpf4jnsgd1na2vs0mg"},{"bike_id":"aee088a7-39c5-4166-b276-e8a76aa786b2","system_id":"levelo_inurba_marseille","lat":43.212,"lon":5.35064,"is_reserved":false,"is_disabled":false,"rental_uris":{"android":"levelo://app?vid=aee088a7-39c5-4166-b276-e8a76aa786b2","ios":"levelo://app?vid=aee088a7-39c5-4166-b276-e8a76aa786b2"},"vehicle_type_id":"4","last_reported":1758636616,"current_range_meters":12000,"station_id":"st_cvj6sg6p6f1abm77japg","pricing_plan_id":"cebpf4jnsgd1na2vs0mg"},{"bike_id":"3cb2cf85-d982-4dc0-be3b-535e5f226d89","system_id":"levelo_inurba_marseille","lat":43.30252,"lon":5.40044,"is_reserved":false,"is_disabled":false,"rental_uris":{"android":"levelo://app?vid=3cb2cf85-d982-4dc0-be3b-535e5f226d89","ios":"levelo://app?vid=3cb2cf85-d982-4dc0-be3b-535e5f226d89"},"vehicle_type_id":"4","last_reported":1758636616,"current_range_meters":12000,"station_id":"ce4bgvh2rcd13ifvqcs0","pricing_plan_id":"cebpf4jnsgd1na2vs0mg"},{"bike_id":"eba01587-aeed-4123-b2ce-9abc98879f91","system_id":"levelo_inurba_marseille","lat":43.2707,"lon":5.4228,"is_reserved":false,"is_disabled":false,"rental_uris":{"android":"levelo://app?vid=eba01587-aeed-4123-b2ce-9abc98879f91","ios":"levelo://app?vid=eba01587-aeed-4123-b2ce-9abc98879f91"},"vehicle_type_id":"4","last_reported":1758636616,"current_range_meters":12400,"station_id":"ce4bhk92rcd13ifvqgb0","pricing_plan_id":"cebpf4jnsgd1na2vs0mg"},{"bike_id":"071eba3f-03d9-4496-bbb4-ef175d240ac4","system_id":"levelo_inurba_marseille","lat":43.32365,"lon":5.38889,"is_reserved":false,"is_disabled":false,"rental_uris":{"android":"levelo://app?vid=071eba3f-03d9-4496-bbb4-ef175d240ac4","ios":"levelo://app?vid=071eba3f-03d9-4496-bbb4-ef175d240ac4"},"vehicle_type_id":"4","last_reported":1758636616,"current_range_meters":12400,"station_id":"ce4bhqp2rcd13ifvqhog","pricing_plan_id":"cebpf4jnsgd1na2vs0mg"},{"bike_id":"39e96fb7-1cc6-4104-a0db-9ca53e9d46ba","system_id":"levelo_inurba_marseille","lat":43.29882,"lon":5.39728,"is_reserved":false,"is_disabled":false,"rental_uris":{"android":"levelo://app?vid=39e96fb7-1cc6-4104-a0db-9ca53e9d46ba","ios":"levelo://app?vid=39e96fb7-1cc6-4104-a0db-9ca53e9d46ba"},"vehicle_type_id":"4","last_reported":1758636616,"current_range_meters":12400,"station_id":"ce4bh0h2rcd13ifvqd50","pricing_plan_id":"cebpf4jnsgd1na2vs0mg"},{"bike_id":"ae82b531-7d38-46ec-9b8d-79a42fe10623","system_id":"levelo_inurba_marseille","lat":43.29253,"lon":5.4091,"is_reserved":false,"is_disabled":false,"rental_uris":{"android":"levelo://app?vid=ae82b531-7d38-46ec-9b8d-79a42fe10623","ios":"levelo://app?vid=ae82b531-7d38-46ec-9b8d-79a42fe10623"},"vehicle_type_id":"4","last_reported":1758636616,"current_range_meters":12400,"station_id":"ce4bh192rcd13ifvqdc0","pricing_plan_id":"cebpf4jnsgd1na2vs0mg"},{"bike_id":"89ff26f5-1186-480d-abd6-6fc6ab4996e8","system_id":"levelo_inurba_marseille","lat":43.25727,"lon":5.41114,"is_reserved":false,"is_disabled":false,"rental_uris":{"android":"levelo://app?vid=89ff26f5-1186-480d-abd6-6fc6ab4996e8","ios":"levelo://app?vid=89ff26f5-1186-480d-abd6-6fc6ab4996e8"},"vehicle_type_id":"4","last_reported":1758636616,"current_range_meters":12400,"station_id":"ce4bhkp2rcd13ifvqgd0","pricing_plan_id":"cebpf4jnsgd1na2vs0mg"},{"bike_id":"2fe78ddb-f17c-4fda-ae68-fbfa9e624ae8","system_id":"levelo_inurba_marseille","lat":43.29604,"lon":5.38107,"is_reserved":false,"is_disabled":false,"rental_uris":{"android":"levelo://app?vid=2fe78ddb-f17c-4fda-ae68-fbfa9e624ae8","ios":"levelo://app?vid=2fe78ddb-f17c-4fda-ae68-fbfa9e624ae8"},"vehicle_type_id":"4","last_reported":1758636616,"current_range_meters":12800,"station_id":"ce4bgl12rcd13ifvqbo0","pricing_plan_id":"cebpf4jnsgd1na2vs0mg"},{"bike_id":"0d93d80f-23fc-4b4f-918d-28fde704208b","system_id":"levelo_inurba_marseille","lat":43.24171,"lon":5.36394,"is_reserved":false,"is_disabled":false,"rental_uris":{"android":"levelo://app?vid=0d93d80f-23fc-4b4f-918d-28fde704208b","ios":"levelo://app?vid=0d93d80f-23fc-4b4f-918d-28fde704208b"},"vehicle_type_id":"4","last_reported":1758636616,"current_range_meters":12800,"station_id":"cpo36qri1sfpv3e86is0","pricing_plan_id":"cebpf4jnsgd1na2vs0mg"},{"bike_id":"fae7e526-e4bc-4bca-bbd8-dfec2f6559ba","system_id":"levelo_inurba_marseille","lat":43.31997,"lon":5.38146,"is_reserved":false,"is_disabled":false,"rental_uris":{"android":"levelo://app?vid=fae7e526-e4bc-4bca-bbd8-dfec2f6559ba","ios":"levelo://app?vid=fae7e526-e4bc-4bca-bbd8-dfec2f6559ba"},"vehicle_type_id":"4","last_reported":1758636616,"current_range_meters":12800,"station_id":"ce4bhr12rcd13ifvqhpg","pricing_plan_id":"cebpf4jnsgd1na2vs0mg"},{"bike_id":"5c6070a0-0fa7-40a1-bae4-90214c4809f1","system_id":"levelo_inurba_marseille","lat":43.28616,"lon":5.35093,"is_reserved":false,"is_disabled":false,"rental_uris":{"android":"levelo://app?vid=5c6070a0-0fa7-40a1-bae4-90214c4809f1","ios":"levelo://app?vid=5c6070a0-0fa7-40a1-bae4-90214c4809f1"},"vehicle_type_id":"4","last_reported":1758636616,"current_range_meters":12800,"station_id":"ce4bhch2rcd13ifvqeug","pricing_plan_id":"cebpf4jnsgd1na2vs0mg"},{"bike_id":"bdecd53d-5bb8-4133-aec7-83282f2f4ba4","system_id":"levelo_inurba_marseille","lat":43.30886,"lon":5.37193,"is_reserved":false,"is_disabled":false,"rental_uris":{"android":"levelo://app?vid=bdecd53d-5bb8-4133-aec7-83282f2f4ba4","ios":"levelo://app?vid=bdecd53d-5bb8-4133-aec7-83282f2f4ba4"},"vehicle_type_id":"4","last_reported":1758636616,"current_range_meters":12400,"station_id":"ce4bguh2rcd13ifvqckg","pricing_plan_id":"cebpf4jnsgd1na2vs0mg"},{"bike_id":"e341fb50-63d1-4a5b-959d-47084f172869","system_id":"levelo_inurba_marseille","lat":43.30131,"lon":5.3742,"is_reserved":false,"is_disabled":false,"rental_uris":{"android":"levelo://app?vid=e341fb50-63d1-4a5b-959d-47084f172869","ios":"levelo://app?vid=e341fb50-63d1-4a5b-959d-47084f172869"},"vehicle_type_id":"4","last_reported":1758636616,"current_range_meters":12800,"station_id":"ce4bgs92rcd13ifvqcc0","pricing_plan_id":"cebpf4jnsgd1na2vs0mg"},{"bike_id":"8f63bb28-daf3-434a-b520-4ffc9e66dc1c","system_id":"levelo_inurba_marseille","lat":43.25617,"lon":5.41181,"is_reserved":false,"is_disabled":false,"rental_uris":{"android":"levelo://app?vid=8f63bb28-daf3-434a-b520-4ffc9e66dc1c","ios":"levelo://app?vid=8f63bb28-daf3-434a-b520-4ffc9e66dc1c"},"vehicle_type_id":"4","last_reported":1758636616,"current_range_meters":13600,"station_id":"","pricing_plan_id":"cebpf4jnsgd1na2vs0mg"},{"bike_id":"17da7888-9fe3-435d-bebe-d997d213f335","system_id":"levelo_inurba_marseille","lat":43.30726,"lon":5.42459,"is_reserved":false,"is_disabled":false,"rental_uris":{"android":"levelo://app?vid=17da7888-9fe3-435d-bebe-d997d213f335","ios":"levelo://app?vid=17da7888-9fe3-435d-bebe-d997d213f335"},"vehicle_type_id":"4","last_reported":1758636616,"current_range_meters":13600,"station_id":"st_cvj6ca6bvosntc0bfgr0","pricing_plan_id":"cebpf4jnsgd1na2vs0mg"},{"bike_id":"30bb83fe-1759-4439-94c7-873da2c2a5e5","system_id":"levelo_inurba_marseille","lat":43.231508,"lon":5.436952,"is_reserved":false,"is_disabled":false,"rental_uris":{"android":"levelo://app?vid=30bb83fe-1759-4439-94c7-873da2c2a5e5","ios":"levelo://app?vid=30bb83fe-1759-4439-94c7-873da2c2a5e5"},"vehicle_type_id":"4","last_reported":1758636616,"current_range_meters":13600,"station_id":"ce4bhmp2rcd13ifvqgog","pricing_plan_id":"cebpf4jnsgd1na2vs0mg"},{"bike_id":"51b93413-1342-426f-8416-856b80eac246","system_id":"levelo_inurba_marseille","lat":43.28262,"lon":5.35044,"is_reserved":false,"is_disabled":false,"rental_uris":{"android":"levelo://app?vid=51b93413-1342-426f-8416-856b80eac246","ios":"levelo://app?vid=51b93413-1342-426f-8416-856b80eac246"},"vehicle_type_id":"4","last_reported":1758636616,"current_range_meters":14000,"station_id":"ce4bhbp2rcd13ifvqerg","pricing_plan_id":"cebpf4jnsgd1na2vs0mg"},{"bike_id":"79627af3-5e4c-4c79-9ce8-bb6cb8053117","system_id":"levelo_inurba_marseille","lat":43.2318,"lon":5.39986,"is_reserved":false,"is_disabled":false,"rental_uris":{"android":"levelo://app?vid=79627af3-5e4c-4c79-9ce8-bb6cb8053117","ios":"levelo://app?vid=79627af3-5e4c-4c79-9ce8-bb6cb8053117"},"vehicle_type_id":"4","last_reported":1758636616,"current_range_meters":14000,"station_id":"ce4bhn12rcd13ifvqgqg","pricing_plan_id":"cebpf4jnsgd1na2vs0mg"},{"bike_id":"7a4b4c71-9aa8-43e6-b89d-8f51da31e41f","system_id":"levelo_inurba_marseille","lat":43.2655,"lon":5.37295,"is_reserved":false,"is_disabled":false,"rental_uris":{"android":"levelo://app?vid=7a4b4c71-9aa8-43e6-b89d-8f51da31e41f","ios":"levelo://app?vid=7a4b4c71-9aa8-43e6-b89d-8f51da31e41f"},"vehicle_type_id":"4","last_reported":1758636616,"current_range_meters":14000,"station_id":"ce4bhg12rcd13ifvqf70","pricing_plan_id":"cebpf4jnsgd1na2vs0mg"},{"bike_id":"6ac17a81-0487-4557-9f83-8f554f6e083e","system_id":"levelo_inurba_marseille","lat":43.32007,"lon":5.37143,"is_reserved":false,"is_disabled":false,"rental_uris":{"android":"levelo://app?vid=6ac17a81-0487-4557-9f83-8f554f6e083e","ios":"levelo://app?vid=6ac17a81-0487-4557-9f83-8f554f6e083e"},"vehicle_type_id":"4","last_reported":1758636616,"current_range_meters":14000,"station_id":"","pricing_plan_id":"cebpf4jnsgd1na2vs0mg"},{"bike_id":"4f7d295b-313e-4230-9a35-c5f69b743876","system_id":"levelo_inurba_marseille","lat":43.30145,"lon":5.3809,"is_reserved":false,"is_disabled":false,"rental_uris":{"android":"levelo://app?vid=4f7d295b-313e-4230-9a35-c5f69b743876","ios":"levelo://app?vid=4f7d295b-313e-4230-9a35-c5f69b743876"},"vehicle_type_id":"4","last_reported":1758636616,"current_range_meters":14000,"station_id":"ce4bgjp2rcd13ifvqbh0","pricing_plan_id":"cebpf4jnsgd1na2vs0mg"},{"bike_id":"ccfdada6-47ed-41bd-aa61-14e983677677","system_id":"levelo_inurba_marseille","lat":43.29817,"lon":5.37128,"is_reserved":false,"is_disabled":false,"rental_uris":{"android":"levelo://app?vid=ccfdada6-47ed-41bd-aa61-14e983677677","ios":"levelo://app?vid=ccfdada6-47ed-41bd-aa61-14e983677677"},"vehicle_type_id":"4","last_reported":1758636616,"current_range_meters":14000,"station_id":"ce4bgop2rcd13ifvqc1g","pricing_plan_id":"cebpf4jnsgd1na2vs0mg"},{"bike_id":"671ad0cf-58f5-45f4-aff9-2f197739bb33","system_id":"levelo_inurba_marseille","lat":43.3078,"lon":5.37638,"is_reserved":false,"is_disabled":false,"rental_uris":{"android":"levelo://app?vid=671ad0cf-58f5-45f4-aff9-2f197739bb33","ios":"levelo://app?vid=671ad0cf-58f5-45f4-aff9-2f197739bb33"},"vehicle_type_id":"4","last_reported":1758636616,"current_range_meters":14000,"station_id":"ce4bgv92rcd13ifvqcq0","pricing_plan_id":"cebpf4jnsgd1na2vs0mg"},{"bike_id":"aa2a73e4-4705-40b8-9c49-a36054ba2355","system_id":"levelo_inurba_marseille","lat":43.301022,"lon":5.398986,"is_reserved":false,"is_disabled":false,"rental_uris":{"android":"levelo://app?vid=aa2a73e4-4705-40b8-9c49-a36054ba2355","ios":"levelo://app?vid=aa2a73e4-4705-40b8-9c49-a36054ba2355"},"vehicle_type_id":"4","last_reported":1758636616,"current_range_meters":14000,"station_id":"ce4bh0h2rcd13ifvqd40","pricing_plan_id":"cebpf4jnsgd1na2vs0mg"},{"bike_id":"3d176c2b-dbe3-4175-aaf9-67070422659d","system_id":"levelo_inurba_marseille","lat":43.23186,"lon":5.39977,"is_reserved":false,"is_disabled":false,"rental_uris":{"android":"levelo://app?vid=3d176c2b-dbe3-4175-aaf9-67070422659d","ios":"levelo://app?vid=3d176c2b-dbe3-4175-aaf9-67070422659d"},"vehicle_type_id":"4","last_reported":1758636616,"current_range_meters":14000,"station_id":"ce4bhn12rcd13ifvqgqg","pricing_plan_id":"cebpf4jnsgd1na2vs0mg"},{"bike_id":"7c0482c3-9253-4d1b-b4f3-be55cdb7721d","system_id":"levelo_inurba_marseille","lat":43.33757,"lon":5.37466,"is_reserved":false,"is_disabled":false,"rental_uris":{"android":"levelo://app?vid=7c0482c3-9253-4d1b-b4f3-be55cdb7721d","ios":"levelo://app?vid=7c0482c3-9253-4d1b-b4f3-be55cdb7721d"},"vehicle_type_id":"4","last_reported":1758636616,"current_range_meters":14400,"station_id":"","pricing_plan_id":"cebpf4jnsgd1na2vs0mg"},{"bike_id":"a15ac894-bf61-496d-8d54-5c71f56dfd03","system_id":"levelo_inurba_marseille","lat":43.28971,"lon":5.37832,"is_reserved":false,"is_disabled":false,"rental_uris":{"android":"levelo://app?vid=a15ac894-bf61-496d-8d54-5c71f56dfd03","ios":"levelo://app?vid=a15ac894-bf61-496d-8d54-5c71f56dfd03"},"vehicle_type_id":"4","last_reported":1758636616,"current_range_meters":14000,"station_id":"ce4bh9p2rcd13ifvqed0","pricing_plan_id":"cebpf4jnsgd1na2vs0mg"},{"bike_id":"ff963ccb-515e-4188-96fd-1343c1f20374","system_id":"levelo_inurba_marseille","lat":43.29621,"lon":5.37721,"is_reserved":false,"is_disabled":false,"rental_uris":{"android":"levelo://app?vid=ff963ccb-515e-4188-96fd-1343c1f20374","ios":"levelo://app?vid=ff963ccb-515e-4188-96fd-1343c1f20374"},"vehicle_type_id":"4","last_reported":1758636616,"current_range_meters":14400,"station_id":"ce4bgi92rcd13ifvqb90","pricing_plan_id":"cebpf4jnsgd1na2vs0mg"},{"bike_id":"1cd32492-01d3-4698-85a3-f552c709f67e","system_id":"levelo_inurba_marseille","lat":43.2873,"lon":5.39987,"is_reserved":false,"is_disabled":false,"rental_uris":{"android":"levelo://app?vid=1cd32492-01d3-4698-85a3-f552c709f67e","ios":"levelo://app?vid=1cd32492-01d3-4698-85a3-f552c709f67e"},"vehicle_type_id":"4","last_reported":1758636616,"current_range_meters":14400,"station_id":"ce4bho92rcd13ifvqh3g","pricing_plan_id":"cebpf4jnsgd1na2vs0mg"},{"bike_id":"f9c2a566-f095-49b1-8666-a7fd76d9381b","system_id":"levelo_inurba_marseille","lat":43.30641,"lon":5.41249,"is_reserved":false,"is_disabled":false,"rental_uris":{"android":"levelo://app?vid=f9c2a566-f095-49b1-8666-a7fd76d9381b","ios":"levelo://app?vid=f9c2a566-f095-49b1-8666-a7fd76d9381b"},"vehicle_type_id":"4","last_reported":1758636616,"current_range_meters":14400,"station_id":"ce4bh192rcd13ifvqdc0","pricing_plan_id":"cebpf4jnsgd1na2vs0mg"},{"bike_id":"daa8c5e0-271c-4473-9fcf-fef1f6636825","system_id":"levelo_inurba_marseille","lat":43.28419,"lon":5.37505,"is_reserved":false,"is_disabled":false,"rental_uris":{"android":"levelo://app?vid=daa8c5e0-271c-4473-9fcf-fef1f6636825","ios":"levelo://app?vid=daa8c5e0-271c-4473-9fcf-fef1f6636825"},"vehicle_type_id":"4","last_reported":1758636616,"current_range_meters":14400,"station_id":"ce4bh412rcd13ifvqds0","pricing_plan_id":"cebpf4jnsgd1na2vs0mg"},{"bike_id":"064744f1-b5cd-41e9-b136-ab542c48f63e","system_id":"levelo_inurba_marseille","lat":43.28277,"lon":5.35068,"is_reserved":false,"is_disabled":false,"rental_uris":{"android":"levelo://app?vid=064744f1-b5cd-41e9-b136-ab542c48f63e","ios":"levelo://app?vid=064744f1-b5cd-41e9-b136-ab542c48f63e"},"vehicle_type_id":"4","last_reported":1758636616,"current_range_meters":14400,"station_id":"ce4bhbp2rcd13ifvqerg","pricing_plan_id":"cebpf4jnsgd1na2vs0mg"},{"bike_id":"43d57fd4-047e-4ac8-97e5-ec9b96239472","system_id":"levelo_inurba_marseille","lat":43.33231,"lon":5.39821,"is_reserved":false,"is_disabled":false,"rental_uris":{"android":"levelo://app?vid=43d57fd4-047e-4ac8-97e5-ec9b96239472","ios":"levelo://app?vid=43d57fd4-047e-4ac8-97e5-ec9b96239472"},"vehicle_type_id":"4","last_reported":1758636616,"current_range_meters":14400,"station_id":"","pricing_plan_id":"cebpf4jnsgd1na2vs0mg"},{"bike_id":"e4f70bd8-0fbe-44d9-ba11-1b02f4dc9638","system_id":"levelo_inurba_marseille","lat":43.31226,"lon":5.36875,"is_reserved":false,"is_disabled":false,"rental_uris":{"android":"levelo://app?vid=e4f70bd8-0fbe-44d9-ba11-1b02f4dc9638","ios":"levelo://app?vid=e4f70bd8-0fbe-44d9-ba11-1b02f4dc9638"},"vehicle_type_id":"4","last_reported":1758636616,"current_range_meters":14800,"station_id":"ce4bgl92rcd13ifvqbq0","pricing_plan_id":"cebpf4jnsgd1na2vs0mg"},{"bike_id":"0b225c51-2f0e-4576-841a-c5bf045bdb8a","system_id":"levelo_inurba_marseille","lat":43.30874,"lon":5.37187,"is_reserved":false,"is_disabled":false,"rental_uris":{"android":"levelo://app?vid=0b225c51-2f0e-4576-841a-c5bf045bdb8a","ios":"levelo://app?vid=0b225c51-2f0e-4576-841a-c5bf045bdb8a"},"vehicle_type_id":"4","last_reported":1758636616,"current_range_meters":14800,"station_id":"ce4bguh2rcd13ifvqckg","pricing_plan_id":"cebpf4jnsgd1na2vs0mg"},{"bike_id":"06a24bce-028d-4b4a-b4a3-d45296145db5","system_id":"levelo_inurba_marseille","lat":43.28425,"lon":5.34991,"is_reserved":false,"is_disabled":true,"rental_uris":{"android":"levelo://app?vid=06a24bce-028d-4b4a-b4a3-d45296145db5","ios":"levelo://app?vid=06a24bce-028d-4b4a-b4a3-d45296145db5"},"vehicle_type_id":"4","last_reported":1758636616,"current_range_meters":14800,"station_id":"ce4bhch2rcd13ifvqeug","pricing_plan_id":"cebpf4jnsgd1na2vs0mg"},{"bike_id":"405e372e-191b-4b27-a6ed-f00c18ba30ac","system_id":"levelo_inurba_marseille","lat":43.25709,"lon":5.41096,"is_reserved":false,"is_disabled":false,"rental_uris":{"android":"levelo://app?vid=405e372e-191b-4b27-a6ed-f00c18ba30ac","ios":"levelo://app?vid=405e372e-191b-4b27-a6ed-f00c18ba30ac"},"vehicle_type_id":"4","last_reported":1758636616,"current_range_meters":14800,"station_id":"ce4bhkp2rcd13ifvqgd0","pricing_plan_id":"cebpf4jnsgd1na2vs0mg"},{"bike_id":"9c7a180f-bee6-48c2-9ad2-181dea55ce36","system_id":"levelo_inurba_marseille","lat":43.31714,"lon":5.43695,"is_reserved":false,"is_disabled":false,"rental_uris":{"android":"levelo://app?vid=9c7a180f-bee6-48c2-9ad2-181dea55ce36","ios":"levelo://app?vid=9c7a180f-bee6-48c2-9ad2-181dea55ce36"},"vehicle_type_id":"4","last_reported":1758636616,"current_range_meters":15200,"station_id":"ce4bhp92rcd13ifvqhcg","pricing_plan_id":"cebpf4jnsgd1na2vs0mg"},{"bike_id":"2e86854b-25f6-4d9b-a3a1-fb7c707a145b","system_id":"levelo_inurba_marseille","lat":43.241876,"lon":5.397226,"is_reserved":false,"is_disabled":false,"rental_uris":{"android":"levelo://app?vid=2e86854b-25f6-4d9b-a3a1-fb7c707a145b","ios":"levelo://app?vid=2e86854b-25f6-4d9b-a3a1-fb7c707a145b"},"vehicle_type_id":"4","last_reported":1758636616,"current_range_meters":15200,"station_id":"ce4bhn12rcd13ifvqgpg","pricing_plan_id":"cebpf4jnsgd1na2vs0mg"},{"bike_id":"32367d71-1c30-4697-8611-c2a41fc71423","system_id":"levelo_inurba_marseille","lat":43.29877,"lon":5.39738,"is_reserved":false,"is_disabled":false,"rental_uris":{"android":"levelo://app?vid=32367d71-1c30-4697-8611-c2a41fc71423","ios":"levelo://app?vid=32367d71-1c30-4697-8611-c2a41fc71423"},"vehicle_type_id":"4","last_reported":1758636616,"current_range_meters":15200,"station_id":"ce4bh0h2rcd13ifvqd50","pricing_plan_id":"cebpf4jnsgd1na2vs0mg"},{"bike_id":"6dbdf209-3616-4c0a-94aa-59e0b8b9f1d8","system_id":"levelo_inurba_marseille","lat":43.27941,"lon":5.41052,"is_reserved":false,"is_disabled":false,"rental_uris":{"android":"levelo://app?vid=6dbdf209-3616-4c0a-94aa-59e0b8b9f1d8","ios":"levelo://app?vid=6dbdf209-3616-4c0a-94aa-59e0b8b9f1d8"},"vehicle_type_id":"4","last_reported":1758636616,"current_range_meters":16000,"station_id":"ce4bhnp2rcd13ifvqh0g","pricing_plan_id":"cebpf4jnsgd1na2vs0mg"},{"bike_id":"b98c2d5b-7daf-4043-b188-7810237087d0","system_id":"levelo_inurba_marseille","lat":43.29367,"lon":5.37848,"is_reserved":false,"is_disabled":false,"rental_uris":{"android":"levelo://app?vid=b98c2d5b-7daf-4043-b188-7810237087d0","ios":"levelo://app?vid=b98c2d5b-7daf-4043-b188-7810237087d0"},"vehicle_type_id":"4","last_reported":1758636616,"current_range_meters":16000,"station_id":"ce4bgjh2rcd13ifvqbf0","pricing_plan_id":"cebpf4jnsgd1na2vs0mg"},{"bike_id":"adc9b767-fa5a-487c-b17d-fb3c376c3f08","system_id":"levelo_inurba_marseille","lat":43.2976,"lon":5.37708,"is_reserved":false,"is_disabled":false,"rental_uris":{"android":"levelo://app?vid=adc9b767-fa5a-487c-b17d-fb3c376c3f08","ios":"levelo://app?vid=adc9b767-fa5a-487c-b17d-fb3c376c3f08"},"vehicle_type_id":"4","last_reported":1758636616,"current_range_meters":16000,"station_id":"","pricing_plan_id":"cebpf4jnsgd1na2vs0mg"},{"bike_id":"1a736a3e-45ac-4358-8cb6-c01ca17f9987","system_id":"levelo_inurba_marseille","lat":43.34141,"lon":5.40908,"is_reserved":false,"is_disabled":false,"rental_uris":{"android":"levelo://app?vid=1a736a3e-45ac-4358-8cb6-c01ca17f9987","ios":"levelo://app?vid=1a736a3e-45ac-4358-8cb6-c01ca17f9987"},"vehicle_type_id":"4","last_reported":1758636616,"current_range_meters":16000,"station_id":"ce4bhqh2rcd13ifvqhlg","pricing_plan_id":"cebpf4jnsgd1na2vs0mg"},{"bike_id":"663f8247-86bc-4b09-a190-0c1a85a6e340","system_id":"levelo_inurba_marseille","lat":43.303288,"lon":5.404336,"is_reserved":false,"is_disabled":false,"rental_uris":{"android":"levelo://app?vid=663f8247-86bc-4b09-a190-0c1a85a6e340","ios":"levelo://app?vid=663f8247-86bc-4b09-a190-0c1a85a6e340"},"vehicle_type_id":"4","last_reported":1758636616,"current_range_meters":16000,"station_id":"ce4bh012rcd13ifvqd10","pricing_plan_id":"cebpf4jnsgd1na2vs0mg"},{"bike_id":"12df1901-85ee-4858-bef8-feee79222128","system_id":"levelo_inurba_marseille","lat":43.28261,"lon":5.35066,"is_reserved":false,"is_disabled":false,"rental_uris":{"android":"levelo://app?vid=12df1901-85ee-4858-bef8-feee79222128","ios":"levelo://app?vid=12df1901-85ee-4858-bef8-feee79222128"},"vehicle_type_id":"4","last_reported":1758636616,"current_range_meters":15200,"station_id":"ce4bhbp2rcd13ifvqerg","pricing_plan_id":"cebpf4jnsgd1na2vs0mg"},{"bike_id":"830609e9-3e00-4967-9f2e-789a48d0a8a2","system_id":"levelo_inurba_marseille","lat":43.29716,"lon":5.37693,"is_reserved":false,"is_disabled":false,"rental_uris":{"android":"levelo://app?vid=830609e9-3e00-4967-9f2e-789a48d0a8a2","ios":"levelo://app?vid=830609e9-3e00-4967-9f2e-789a48d0a8a2"},"vehicle_type_id":"4","last_reported":1758636616,"current_range_meters":16000,"station_id":"ce4bgkh2rcd13ifvqbl0","pricing_plan_id":"cebpf4jnsgd1na2vs0mg"},{"bike_id":"8552fe36-10d8-46fd-997b-c97d2970480a","system_id":"levelo_inurba_marseille","lat":43.323538,"lon":5.367418,"is_reserved":false,"is_disabled":false,"rental_uris":{"android":"levelo://app?vid=8552fe36-10d8-46fd-997b-c97d2970480a","ios":"levelo://app?vid=8552fe36-10d8-46fd-997b-c97d2970480a"},"vehicle_type_id":"4","last_reported":1758636616,"current_range_meters":16000,"station_id":"ce4bhsh2rcd13ifvqi2g","pricing_plan_id":"cebpf4jnsgd1na2vs0mg"},{"bike_id":"02e2cf10-21c0-4b58-acba-9ca11b5f30f8","system_id":"levelo_inurba_marseille","lat":43.3021,"lon":5.3947,"is_reserved":false,"is_disabled":false,"rental_uris":{"android":"levelo://app?vid=02e2cf10-21c0-4b58-acba-9ca11b5f30f8","ios":"levelo://app?vid=02e2cf10-21c0-4b58-acba-9ca11b5f30f8"},"vehicle_type_id":"4","last_reported":1758636616,"current_range_meters":16400,"station_id":"ce4bh0p2rcd13ifvqd70","pricing_plan_id":"cebpf4jnsgd1na2vs0mg"},{"bike_id":"13d51bd4-1715-4f7d-8ad0-5f2db032680a","system_id":"levelo_inurba_marseille","lat":43.27997,"lon":5.41661,"is_reserved":false,"is_disabled":false,"rental_uris":{"android":"levelo://app?vid=13d51bd4-1715-4f7d-8ad0-5f2db032680a","ios":"levelo://app?vid=13d51bd4-1715-4f7d-8ad0-5f2db032680a"},"vehicle_type_id":"4","last_reported":1758636616,"current_range_meters":16400,"station_id":"ce4bho12rcd13ifvqh1g","pricing_plan_id":"cebpf4jnsgd1na2vs0mg"},{"bike_id":"4c0b651b-953c-4759-a0f7-0074f59a45eb","system_id":"levelo_inurba_marseille","lat":43.25786,"lon":5.39279,"is_reserved":false,"is_disabled":false,"rental_uris":{"android":"levelo://app?vid=4c0b651b-953c-4759-a0f7-0074f59a45eb","ios":"levelo://app?vid=4c0b651b-953c-4759-a0f7-0074f59a45eb"},"vehicle_type_id":"4","last_reported":1758636616,"current_range_meters":16400,"station_id":"","pricing_plan_id":"cebpf4jnsgd1na2vs0mg"},{"bike_id":"3c0fa725-f739-4599-965d-e73d3e7b2c8f","system_id":"levelo_inurba_marseille","lat":43.3235,"lon":5.36728,"is_reserved":false,"is_disabled":false,"rental_uris":{"android":"levelo://app?vid=3c0fa725-f739-4599-965d-e73d3e7b2c8f","ios":"levelo://app?vid=3c0fa725-f739-4599-965d-e73d3e7b2c8f"},"vehicle_type_id":"4","last_reported":1758636616,"current_range_meters":16400,"station_id":"ce4bhsh2rcd13ifvqi2g","pricing_plan_id":"cebpf4jnsgd1na2vs0mg"},{"bike_id":"dddca5ef-4a33-499b-936a-6d8e6136a417","system_id":"levelo_inurba_marseille","lat":43.22935,"lon":5.35361,"is_reserved":false,"is_disabled":false,"rental_uris":{"android":"levelo://app?vid=dddca5ef-4a33-499b-936a-6d8e6136a417","ios":"levelo://app?vid=dddca5ef-4a33-499b-936a-6d8e6136a417"},"vehicle_type_id":"4","last_reported":1758636616,"current_range_meters":16400,"station_id":"cpo3532slgdg3j2ikp40","pricing_plan_id":"cebpf4jnsgd1na2vs0mg"},{"bike_id":"547121a6-ed50-4d48-bad3-f73539aaa9d7","system_id":"levelo_inurba_marseille","lat":43.21181,"lon":5.3508,"is_reserved":false,"is_disabled":false,"rental_uris":{"android":"levelo://app?vid=547121a6-ed50-4d48-bad3-f73539aaa9d7","ios":"levelo://app?vid=547121a6-ed50-4d48-bad3-f73539aaa9d7"},"vehicle_type_id":"4","last_reported":1758636616,"current_range_meters":16400,"station_id":"st_cvj6sg6p6f1abm77japg","pricing_plan_id":"cebpf4jnsgd1na2vs0mg"},{"bike_id":"9feb0e0f-24fa-4463-b0f3-30472830c043","system_id":"levelo_inurba_marseille","lat":43.31757,"lon":5.39002,"is_reserved":false,"is_disabled":false,"rental_uris":{"android":"levelo://app?vid=9feb0e0f-24fa-4463-b0f3-30472830c043","ios":"levelo://app?vid=9feb0e0f-24fa-4463-b0f3-30472830c043"},"vehicle_type_id":"4","last_reported":1758636616,"current_range_meters":16800,"station_id":"ce4bhqp2rcd13ifvqhng","pricing_plan_id":"cebpf4jnsgd1na2vs0mg"},{"bike_id":"a60abba9-f9b8-477b-8786-175fc2b6218b","system_id":"levelo_inurba_marseille","lat":43.30846,"lon":5.37176,"is_reserved":false,"is_disabled":false,"rental_uris":{"android":"levelo://app?vid=a60abba9-f9b8-477b-8786-175fc2b6218b","ios":"levelo://app?vid=a60abba9-f9b8-477b-8786-175fc2b6218b"},"vehicle_type_id":"4","last_reported":1758636616,"current_range_meters":16800,"station_id":"","pricing_plan_id":"cebpf4jnsgd1na2vs0mg"},{"bike_id":"36d9ac7e-672f-4b32-baac-3848c2e62fe7","system_id":"levelo_inurba_marseille","lat":43.25109,"lon":5.40323,"is_reserved":false,"is_disabled":false,"rental_uris":{"android":"levelo://app?vid=36d9ac7e-672f-4b32-baac-3848c2e62fe7","ios":"levelo://app?vid=36d9ac7e-672f-4b32-baac-3848c2e62fe7"},"vehicle_type_id":"4","last_reported":1758636616,"current_range_meters":17600,"station_id":"ce4bhlh2rcd13ifvqgig","pricing_plan_id":"cebpf4jnsgd1na2vs0mg"},{"bike_id":"dcbcacc1-7a7a-4fdc-b3a8-4f34ae83ef9e","system_id":"levelo_inurba_marseille","lat":43.29527,"lon":5.38557,"is_reserved":false,"is_disabled":false,"rental_uris":{"android":"levelo://app?vid=dcbcacc1-7a7a-4fdc-b3a8-4f34ae83ef9e","ios":"levelo://app?vid=dcbcacc1-7a7a-4fdc-b3a8-4f34ae83ef9e"},"vehicle_type_id":"4","last_reported":1758636616,"current_range_meters":16800,"station_id":"ce4bgih2rcd13ifvqba0","pricing_plan_id":"cebpf4jnsgd1na2vs0mg"},{"bike_id":"c8f3c8da-edc9-4118-a2a2-80f74b9d6e48","system_id":"levelo_inurba_marseille","lat":43.25091,"lon":5.39537,"is_reserved":false,"is_disabled":false,"rental_uris":{"android":"levelo://app?vid=c8f3c8da-edc9-4118-a2a2-80f74b9d6e48","ios":"levelo://app?vid=c8f3c8da-edc9-4118-a2a2-80f74b9d6e48"},"vehicle_type_id":"4","last_reported":1758636616,"current_range_meters":16800,"station_id":"ce4bhm12rcd13ifvqgkg","pricing_plan_id":"cebpf4jnsgd1na2vs0mg"},{"bike_id":"682e1b2b-0e77-4164-98d1-c3f651903e98","system_id":"levelo_inurba_marseille","lat":43.300934,"lon":5.390792,"is_reserved":false,"is_disabled":false,"rental_uris":{"android":"levelo://app?vid=682e1b2b-0e77-4164-98d1-c3f651903e98","ios":"levelo://app?vid=682e1b2b-0e77-4164-98d1-c3f651903e98"},"vehicle_type_id":"4","last_reported":1758636616,"current_range_meters":16800,"station_id":"ce4bh192rcd13ifvqdb0","pricing_plan_id":"cebpf4jnsgd1na2vs0mg"},{"bike_id":"4cfa36c8-0547-49f9-898e-2c9efce9087b","system_id":"levelo_inurba_marseille","lat":43.29454,"lon":5.38127,"is_reserved":false,"is_disabled":false,"rental_uris":{"android":"levelo://app?vid=4cfa36c8-0547-49f9-898e-2c9efce9087b","ios":"levelo://app?vid=4cfa36c8-0547-49f9-898e-2c9efce9087b"},"vehicle_type_id":"4","last_reported":1758636616,"current_range_meters":16800,"station_id":"","pricing_plan_id":"cebpf4jnsgd1na2vs0mg"},{"bike_id":"7bb67776-b6b6-4b32-b980-7cf44d495951","system_id":"levelo_inurba_marseille","lat":43.30215,"lon":5.39476,"is_reserved":false,"is_disabled":false,"rental_uris":{"android":"levelo://app?vid=7bb67776-b6b6-4b32-b980-7cf44d495951","ios":"levelo://app?vid=7bb67776-b6b6-4b32-b980-7cf44d495951"},"vehicle_type_id":"4","last_reported":1758636616,"current_range_meters":17200,"station_id":"ce4bh0p2rcd13ifvqd70","pricing_plan_id":"cebpf4jnsgd1na2vs0mg"},{"bike_id":"ae140a32-5f79-427f-90a7-d410e17b7823","system_id":"levelo_inurba_marseille","lat":43.26681,"lon":5.38269,"is_reserved":false,"is_disabled":true,"rental_uris":{"android":"levelo://app?vid=ae140a32-5f79-427f-90a7-d410e17b7823","ios":"levelo://app?vid=ae140a32-5f79-427f-90a7-d410e17b7823"},"vehicle_type_id":"4","last_reported":1758636616,"current_range_meters":17200,"station_id":"ce4bhg92rcd13ifvqf90","pricing_plan_id":"cebpf4jnsgd1na2vs0mg"},{"bike_id":"93f8abc5-7bf2-42ae-a85e-b4a1a5de88d5","system_id":"levelo_inurba_marseille","lat":43.337444,"lon":5.374475,"is_reserved":false,"is_disabled":false,"rental_uris":{"android":"levelo://app?vid=93f8abc5-7bf2-42ae-a85e-b4a1a5de88d5","ios":"levelo://app?vid=93f8abc5-7bf2-42ae-a85e-b4a1a5de88d5"},"vehicle_type_id":"4","last_reported":1758636616,"current_range_meters":17200,"station_id":"","pricing_plan_id":"cebpf4jnsgd1na2vs0mg"},{"bike_id":"6e95c6bc-cf72-4d41-924f-55f972762641","system_id":"levelo_inurba_marseille","lat":43.30878,"lon":5.37189,"is_reserved":false,"is_disabled":false,"rental_uris":{"android":"levelo://app?vid=6e95c6bc-cf72-4d41-924f-55f972762641","ios":"levelo://app?vid=6e95c6bc-cf72-4d41-924f-55f972762641"},"vehicle_type_id":"4","last_reported":1758636616,"current_range_meters":17200,"station_id":"ce4bguh2rcd13ifvqckg","pricing_plan_id":"cebpf4jnsgd1na2vs0mg"},{"bike_id":"ec998397-70b6-4c87-8660-ea0f660bcbd7","system_id":"levelo_inurba_marseille","lat":43.28068,"lon":5.3964,"is_reserved":false,"is_disabled":false,"rental_uris":{"android":"levelo://app?vid=ec998397-70b6-4c87-8660-ea0f660bcbd7","ios":"levelo://app?vid=ec998397-70b6-4c87-8660-ea0f660bcbd7"},"vehicle_type_id":"4","last_reported":1758636616,"current_range_meters":17200,"station_id":"ce4bho12rcd13ifvqh2g","pricing_plan_id":"cebpf4jnsgd1na2vs0mg"},{"bike_id":"95092148-5f75-4663-be7d-7c8aa2863391","system_id":"levelo_inurba_marseille","lat":43.24172,"lon":5.36387,"is_reserved":false,"is_disabled":false,"rental_uris":{"android":"levelo://app?vid=95092148-5f75-4663-be7d-7c8aa2863391","ios":"levelo://app?vid=95092148-5f75-4663-be7d-7c8aa2863391"},"vehicle_type_id":"4","last_reported":1758636616,"current_range_meters":17200,"station_id":"cpo36qri1sfpv3e86is0","pricing_plan_id":"cebpf4jnsgd1na2vs0mg"},{"bike_id":"1f7d7044-e7f4-4d9b-b8bb-4a6237149c38","system_id":"levelo_inurba_marseille","lat":43.25829,"lon":5.39431,"is_reserved":false,"is_disabled":false,"rental_uris":{"android":"levelo://app?vid=1f7d7044-e7f4-4d9b-b8bb-4a6237149c38","ios":"levelo://app?vid=1f7d7044-e7f4-4d9b-b8bb-4a6237149c38"},"vehicle_type_id":"4","last_reported":1758636616,"current_range_meters":17200,"station_id":"ce4bhip2rcd13ifvqft0","pricing_plan_id":"cebpf4jnsgd1na2vs0mg"},{"bike_id":"c7f6a08b-c655-4213-b2ba-7d02e7f382fe","system_id":"levelo_inurba_marseille","lat":43.27452,"lon":5.3975,"is_reserved":false,"is_disabled":false,"rental_uris":{"android":"levelo://app?vid=c7f6a08b-c655-4213-b2ba-7d02e7f382fe","ios":"levelo://app?vid=c7f6a08b-c655-4213-b2ba-7d02e7f382fe"},"vehicle_type_id":"4","last_reported":1758636616,"current_range_meters":17200,"station_id":"","pricing_plan_id":"cebpf4jnsgd1na2vs0mg"},{"bike_id":"17adccd4-ba76-4a83-8489-82bc5161e5a6","system_id":"levelo_inurba_marseille","lat":43.30534,"lon":5.36534,"is_reserved":false,"is_disabled":false,"rental_uris":{"android":"levelo://app?vid=17adccd4-ba76-4a83-8489-82bc5161e5a6","ios":"levelo://app?vid=17adccd4-ba76-4a83-8489-82bc5161e5a6"},"vehicle_type_id":"4","last_reported":1758636616,"current_range_meters":17200,"station_id":"ce4bgs12rcd13ifvqcag","pricing_plan_id":"cebpf4jnsgd1na2vs0mg"},{"bike_id":"de9f8e71-90c5-4e42-9e9e-6c49c1ae9da5","system_id":"levelo_inurba_marseille","lat":43.26791,"lon":5.3941,"is_reserved":false,"is_disabled":false,"rental_uris":{"android":"levelo://app?vid=de9f8e71-90c5-4e42-9e9e-6c49c1ae9da5","ios":"levelo://app?vid=de9f8e71-90c5-4e42-9e9e-6c49c1ae9da5"},"vehicle_type_id":"4","last_reported":1758636616,"current_range_meters":17600,"station_id":"ce4bhh12rcd13ifvqfg0","pricing_plan_id":"cebpf4jnsgd1na2vs0mg"},{"bike_id":"81b766fc-bfa9-44da-a8d2-523ab64a5d7f","system_id":"levelo_inurba_marseille","lat":43.281638,"lon":5.426402,"is_reserved":false,"is_disabled":false,"rental_uris":{"android":"levelo://app?vid=81b766fc-bfa9-44da-a8d2-523ab64a5d7f","ios":"levelo://app?vid=81b766fc-bfa9-44da-a8d2-523ab64a5d7f"},"vehicle_type_id":"4","last_reported":1758636616,"current_range_meters":17600,"station_id":"ce4bhnh2rcd13ifvqgug","pricing_plan_id":"cebpf4jnsgd1na2vs0mg"},{"bike_id":"b5097eea-9912-4be2-9cf9-14c224c5fab6","system_id":"levelo_inurba_marseille","lat":43.23191,"lon":5.35548,"is_reserved":false,"is_disabled":false,"rental_uris":{"android":"levelo://app?vid=b5097eea-9912-4be2-9cf9-14c224c5fab6","ios":"levelo://app?vid=b5097eea-9912-4be2-9cf9-14c224c5fab6"},"vehicle_type_id":"4","last_reported":1758636616,"current_range_meters":17600,"station_id":"ce4bhu92rcd13ifvqi70","pricing_plan_id":"cebpf4jnsgd1na2vs0mg"},{"bike_id":"33c3bc37-b0fb-4bbc-94c6-23e7c0c2d46f","system_id":"levelo_inurba_marseille","lat":43.3137,"lon":5.36709,"is_reserved":false,"is_disabled":false,"rental_uris":{"android":"levelo://app?vid=33c3bc37-b0fb-4bbc-94c6-23e7c0c2d46f","ios":"levelo://app?vid=33c3bc37-b0fb-4bbc-94c6-23e7c0c2d46f"},"vehicle_type_id":"4","last_reported":1758636616,"current_range_meters":17600,"station_id":"ce4bgr92rcd13ifvqc6g","pricing_plan_id":"cebpf4jnsgd1na2vs0mg"},{"bike_id":"e34a534e-40a2-424f-9a9f-8dd078555d70","system_id":"levelo_inurba_marseille","lat":43.3133,"lon":5.36761,"is_reserved":false,"is_disabled":false,"rental_uris":{"android":"levelo://app?vid=e34a534e-40a2-424f-9a9f-8dd078555d70","ios":"levelo://app?vid=e34a534e-40a2-424f-9a9f-8dd078555d70"},"vehicle_type_id":"4","last_reported":1758636616,"current_range_meters":17600,"station_id":"ce4bgr92rcd13ifvqc6g","pricing_plan_id":"cebpf4jnsgd1na2vs0mg"},{"bike_id":"312f2a46-9952-4d80-9825-eea16c5e0516","system_id":"levelo_inurba_marseille","lat":43.3127,"lon":5.4018,"is_reserved":false,"is_disabled":false,"rental_uris":{"android":"levelo://app?vid=312f2a46-9952-4d80-9825-eea16c5e0516","ios":"levelo://app?vid=312f2a46-9952-4d80-9825-eea16c5e0516"},"vehicle_type_id":"4","last_reported":1758636616,"current_range_meters":17600,"station_id":"ce4bh092rcd13ifvqd30","pricing_plan_id":"cebpf4jnsgd1na2vs0mg"},{"bike_id":"878212e1-9f3a-4147-b86c-65eaf928a45d","system_id":"levelo_inurba_marseille","lat":43.21791,"lon":5.34647,"is_reserved":false,"is_disabled":false,"rental_uris":{"android":"levelo://app?vid=878212e1-9f3a-4147-b86c-65eaf928a45d","ios":"levelo://app?vid=878212e1-9f3a-4147-b86c-65eaf928a45d"},"vehicle_type_id":"4","last_reported":1758636616,"current_range_meters":17600,"station_id":"","pricing_plan_id":"cebpf4jnsgd1na2vs0mg"},{"bike_id":"10b2ae01-3ef4-4de2-b5de-0e243195ae58","system_id":"levelo_inurba_marseille","lat":43.31359,"lon":5.36698,"is_reserved":false,"is_disabled":false,"rental_uris":{"android":"levelo://app?vid=10b2ae01-3ef4-4de2-b5de-0e243195ae58","ios":"levelo://app?vid=10b2ae01-3ef4-4de2-b5de-0e243195ae58"},"vehicle_type_id":"4","last_reported":1758636616,"current_range_meters":17600,"station_id":"ce4bgr92rcd13ifvqc6g","pricing_plan_id":"cebpf4jnsgd1na2vs0mg"},{"bike_id":"2e47fd0c-8dc7-4606-ae83-f4460405e6a3","system_id":"levelo_inurba_marseille","lat":43.303797,"lon":5.424887,"is_reserved":false,"is_disabled":false,"rental_uris":{"android":"levelo://app?vid=2e47fd0c-8dc7-4606-ae83-f4460405e6a3","ios":"levelo://app?vid=2e47fd0c-8dc7-4606-ae83-f4460405e6a3"},"vehicle_type_id":"4","last_reported":1758636616,"current_range_meters":17600,"station_id":"ce4bhoh2rcd13ifvqh6g","pricing_plan_id":"cebpf4jnsgd1na2vs0mg"},{"bike_id":"d767812b-520a-4a76-a97d-9130fbba3b89","system_id":"levelo_inurba_marseille","lat":43.26936,"lon":5.38608,"is_reserved":false,"is_disabled":false,"rental_uris":{"android":"levelo://app?vid=d767812b-520a-4a76-a97d-9130fbba3b89","ios":"levelo://app?vid=d767812b-520a-4a76-a97d-9130fbba3b89"},"vehicle_type_id":"4","last_reported":1758636616,"current_range_meters":17600,"station_id":"ce4bhh92rcd13ifvqfh0","pricing_plan_id":"cebpf4jnsgd1na2vs0mg"},{"bike_id":"2e257bfa-3e56-47cd-8d78-9e9b50aac565","system_id":"levelo_inurba_marseille","lat":43.32356,"lon":5.36746,"is_reserved":false,"is_disabled":false,"rental_uris":{"android":"levelo://app?vid=2e257bfa-3e56-47cd-8d78-9e9b50aac565","ios":"levelo://app?vid=2e257bfa-3e56-47cd-8d78-9e9b50aac565"},"vehicle_type_id":"4","last_reported":1758636616,"current_range_meters":17600,"station_id":"ce4bhsh2rcd13ifvqi2g","pricing_plan_id":"cebpf4jnsgd1na2vs0mg"},{"bike_id":"4d1696d1-fee5-4cbb-b6cf-473bb9852d90","system_id":"levelo_inurba_marseille","lat":43.2977,"lon":5.37661,"is_reserved":false,"is_disabled":false,"rental_uris":{"android":"levelo://app?vid=4d1696d1-fee5-4cbb-b6cf-473bb9852d90","ios":"levelo://app?vid=4d1696d1-fee5-4cbb-b6cf-473bb9852d90"},"vehicle_type_id":"4","last_reported":1758636616,"current_range_meters":18000,"station_id":"","pricing_plan_id":"cebpf4jnsgd1na2vs0mg"},{"bike_id":"0306c5d5-8061-4818-a9c1-9604d16570d9","system_id":"levelo_inurba_marseille","lat":43.2415,"lon":5.36413,"is_reserved":false,"is_disabled":false,"rental_uris":{"android":"levelo://app?vid=0306c5d5-8061-4818-a9c1-9604d16570d9","ios":"levelo://app?vid=0306c5d5-8061-4818-a9c1-9604d16570d9"},"vehicle_type_id":"4","last_reported":1758636616,"current_range_meters":18000,"station_id":"cpo36qri1sfpv3e86is0","pricing_plan_id":"cebpf4jnsgd1na2vs0mg"},{"bike_id":"9ea05566-3b94-432b-b3e5-db100f99f124","system_id":"levelo_inurba_marseille","lat":43.25724,"lon":5.41106,"is_reserved":false,"is_disabled":false,"rental_uris":{"android":"levelo://app?vid=9ea05566-3b94-432b-b3e5-db100f99f124","ios":"levelo://app?vid=9ea05566-3b94-432b-b3e5-db100f99f124"},"vehicle_type_id":"4","last_reported":1758636616,"current_range_meters":18000,"station_id":"ce4bhkp2rcd13ifvqgd0","pricing_plan_id":"cebpf4jnsgd1na2vs0mg"},{"bike_id":"b312f3fd-1c71-4ab3-8166-99a5e0aff6b3","system_id":"levelo_inurba_marseille","lat":43.31224,"lon":5.36871,"is_reserved":false,"is_disabled":false,"rental_uris":{"android":"levelo://app?vid=b312f3fd-1c71-4ab3-8166-99a5e0aff6b3","ios":"levelo://app?vid=b312f3fd-1c71-4ab3-8166-99a5e0aff6b3"},"vehicle_type_id":"4","last_reported":1758636616,"current_range_meters":18000,"station_id":"ce4bgl92rcd13ifvqbq0","pricing_plan_id":"cebpf4jnsgd1na2vs0mg"},{"bike_id":"d68b9cdd-055c-48e6-b5c7-c6c683b923e5","system_id":"levelo_inurba_marseille","lat":43.28612,"lon":5.35105,"is_reserved":false,"is_disabled":true,"rental_uris":{"android":"levelo://app?vid=d68b9cdd-055c-48e6-b5c7-c6c683b923e5","ios":"levelo://app?vid=d68b9cdd-055c-48e6-b5c7-c6c683b923e5"},"vehicle_type_id":"4","last_reported":1758636616,"current_range_meters":18000,"station_id":"ce4bhch2rcd13ifvqeug","pricing_plan_id":"cebpf4jnsgd1na2vs0mg"},{"bike_id":"36b070bb-df09-4433-b99c-aab79ada22d5","system_id":"levelo_inurba_marseille","lat":43.29287,"lon":5.3744,"is_reserved":false,"is_disabled":false,"rental_uris":{"android":"levelo://app?vid=36b070bb-df09-4433-b99c-aab79ada22d5","ios":"levelo://app?vid=36b070bb-df09-4433-b99c-aab79ada22d5"},"vehicle_type_id":"4","last_reported":1758636616,"current_range_meters":18000,"station_id":"","pricing_plan_id":"cebpf4jnsgd1na2vs0mg"},{"bike_id":"5245bf29-08ad-4b63-819e-431f3dd08db4","system_id":"levelo_inurba_marseille","lat":43.30544,"lon":5.36596,"is_reserved":false,"is_disabled":false,"rental_uris":{"android":"levelo://app?vid=5245bf29-08ad-4b63-819e-431f3dd08db4","ios":"levelo://app?vid=5245bf29-08ad-4b63-819e-431f3dd08db4"},"vehicle_type_id":"4","last_reported":1758636616,"current_range_meters":17600,"station_id":"ce4bgs12rcd13ifvqcag","pricing_plan_id":"cebpf4jnsgd1na2vs0mg"},{"bike_id":"191d7312-8650-4af7-b295-c723c05f0f3e","system_id":"levelo_inurba_marseille","lat":43.30143,"lon":5.37413,"is_reserved":false,"is_disabled":false,"rental_uris":{"android":"levelo://app?vid=191d7312-8650-4af7-b295-c723c05f0f3e","ios":"levelo://app?vid=191d7312-8650-4af7-b295-c723c05f0f3e"},"vehicle_type_id":"4","last_reported":1758636616,"current_range_meters":18000,"station_id":"ce4bgs92rcd13ifvqcc0","pricing_plan_id":"cebpf4jnsgd1na2vs0mg"},{"bike_id":"35ff6bf7-11b3-4c8e-a317-cc70d6399a8c","system_id":"levelo_inurba_marseille","lat":43.23959,"lon":5.36645,"is_reserved":false,"is_disabled":false,"rental_uris":{"android":"levelo://app?vid=35ff6bf7-11b3-4c8e-a317-cc70d6399a8c","ios":"levelo://app?vid=35ff6bf7-11b3-4c8e-a317-cc70d6399a8c"},"vehicle_type_id":"4","last_reported":1758636616,"current_range_meters":18000,"station_id":"ce4bhi12rcd13ifvqfp0","pricing_plan_id":"cebpf4jnsgd1na2vs0mg"},{"bike_id":"b816d576-d71a-41a1-96e0-049d5941d5d6","system_id":"levelo_inurba_marseille","lat":43.26698,"lon":5.38232,"is_reserved":false,"is_disabled":false,"rental_uris":{"android":"levelo://app?vid=b816d576-d71a-41a1-96e0-049d5941d5d6","ios":"levelo://app?vid=b816d576-d71a-41a1-96e0-049d5941d5d6"},"vehicle_type_id":"4","last_reported":1758636616,"current_range_meters":18800,"station_id":"ce4bhg92rcd13ifvqf90","pricing_plan_id":"cebpf4jnsgd1na2vs0mg"},{"bike_id":"891d779a-3787-40fe-807e-436cf621bf41","system_id":"levelo_inurba_marseille","lat":43.29989,"lon":5.37175,"is_reserved":false,"is_disabled":false,"rental_uris":{"android":"levelo://app?vid=891d779a-3787-40fe-807e-436cf621bf41","ios":"levelo://app?vid=891d779a-3787-40fe-807e-436cf621bf41"},"vehicle_type_id":"4","last_reported":1758636616,"current_range_meters":18800,"station_id":"ce4bgr92rcd13ifvqc7g","pricing_plan_id":"cebpf4jnsgd1na2vs0mg"},{"bike_id":"ef00c611-56e3-4d87-83a8-6fad9627913a","system_id":"levelo_inurba_marseille","lat":43.308894,"lon":5.371943,"is_reserved":false,"is_disabled":false,"rental_uris":{"android":"levelo://app?vid=ef00c611-56e3-4d87-83a8-6fad9627913a","ios":"levelo://app?vid=ef00c611-56e3-4d87-83a8-6fad9627913a"},"vehicle_type_id":"4","last_reported":1758636616,"current_range_meters":18800,"station_id":"ce4bguh2rcd13ifvqckg","pricing_plan_id":"cebpf4jnsgd1na2vs0mg"},{"bike_id":"0ee7c44f-23ce-458a-9e87-469204bb5d2d","system_id":"levelo_inurba_marseille","lat":43.29991,"lon":5.40109,"is_reserved":false,"is_disabled":false,"rental_uris":{"android":"levelo://app?vid=0ee7c44f-23ce-458a-9e87-469204bb5d2d","ios":"levelo://app?vid=0ee7c44f-23ce-458a-9e87-469204bb5d2d"},"vehicle_type_id":"4","last_reported":1758636616,"current_range_meters":18800,"station_id":"","pricing_plan_id":"cebpf4jnsgd1na2vs0mg"},{"bike_id":"d98f70b4-a68e-4a59-a9b0-98ea4b085948","system_id":"levelo_inurba_marseille","lat":43.27999,"lon":5.41668,"is_reserved":false,"is_disabled":false,"rental_uris":{"android":"levelo://app?vid=d98f70b4-a68e-4a59-a9b0-98ea4b085948","ios":"levelo://app?vid=d98f70b4-a68e-4a59-a9b0-98ea4b085948"},"vehicle_type_id":"4","last_reported":1758636616,"current_range_meters":18800,"station_id":"ce4bho12rcd13ifvqh1g","pricing_plan_id":"cebpf4jnsgd1na2vs0mg"},{"bike_id":"4a9a978a-712d-4a16-907b-c03240f6abbd","system_id":"levelo_inurba_marseille","lat":43.2306,"lon":5.35496,"is_reserved":false,"is_disabled":false,"rental_uris":{"android":"levelo://app?vid=4a9a978a-712d-4a16-907b-c03240f6abbd","ios":"levelo://app?vid=4a9a978a-712d-4a16-907b-c03240f6abbd"},"vehicle_type_id":"4","last_reported":1758636616,"current_range_meters":18800,"station_id":"cpo3342slgdg3j2ifvpg","pricing_plan_id":"cebpf4jnsgd1na2vs0mg"},{"bike_id":"687a34ac-2b30-4cfe-b1ea-123eb6fe802e","system_id":"levelo_inurba_marseille","lat":43.30881,"lon":5.39656,"is_reserved":false,"is_disabled":false,"rental_uris":{"android":"levelo://app?vid=687a34ac-2b30-4cfe-b1ea-123eb6fe802e","ios":"levelo://app?vid=687a34ac-2b30-4cfe-b1ea-123eb6fe802e"},"vehicle_type_id":"4","last_reported":1758636616,"current_range_meters":18800,"station_id":"ce4bh012rcd13ifvqcv0","pricing_plan_id":"cebpf4jnsgd1na2vs0mg"},{"bike_id":"6b452a99-5e7a-4927-85c4-bece5ae2be9b","system_id":"levelo_inurba_marseille","lat":43.30805,"lon":5.38159,"is_reserved":false,"is_disabled":false,"rental_uris":{"android":"levelo://app?vid=6b452a99-5e7a-4927-85c4-bece5ae2be9b","ios":"levelo://app?vid=6b452a99-5e7a-4927-85c4-bece5ae2be9b"},"vehicle_type_id":"4","last_reported":1758636616,"current_range_meters":18800,"station_id":"ce4bgt12rcd13ifvqce0","pricing_plan_id":"cebpf4jnsgd1na2vs0mg"},{"bike_id":"a09d29c1-21c7-4d0d-a327-1acad4670edd","system_id":"levelo_inurba_marseille","lat":43.258241,"lon":5.39439,"is_reserved":false,"is_disabled":false,"rental_uris":{"android":"levelo://app?vid=a09d29c1-21c7-4d0d-a327-1acad4670edd","ios":"levelo://app?vid=a09d29c1-21c7-4d0d-a327-1acad4670edd"},"vehicle_type_id":"4","last_reported":1758636616,"current_range_meters":18800,"station_id":"ce4bhip2rcd13ifvqft0","pricing_plan_id":"cebpf4jnsgd1na2vs0mg"},{"bike_id":"d8776e6e-502b-419b-a2ba-53f094ba2c15","system_id":"levelo_inurba_marseille","lat":43.2574,"lon":5.41099,"is_reserved":false,"is_disabled":false,"rental_uris":{"android":"levelo://app?vid=d8776e6e-502b-419b-a2ba-53f094ba2c15","ios":"levelo://app?vid=d8776e6e-502b-419b-a2ba-53f094ba2c15"},"vehicle_type_id":"4","last_reported":1758636616,"current_range_meters":18800,"station_id":"ce4bhkp2rcd13ifvqgd0","pricing_plan_id":"cebpf4jnsgd1na2vs0mg"},{"bike_id":"e2017298-7010-4fcc-9644-9ccfb0f46125","system_id":"levelo_inurba_marseille","lat":43.30104,"lon":5.41524,"is_reserved":false,"is_disabled":false,"rental_uris":{"android":"levelo://app?vid=e2017298-7010-4fcc-9644-9ccfb0f46125","ios":"levelo://app?vid=e2017298-7010-4fcc-9644-9ccfb0f46125"},"vehicle_type_id":"4","last_reported":1758636616,"current_range_meters":18800,"station_id":"","pricing_plan_id":"cebpf4jnsgd1na2vs0mg"},{"bike_id":"628fb4e3-3a3e-4d00-aa05-5300ce9756e6","system_id":"levelo_inurba_marseille","lat":43.29935,"lon":5.36521,"is_reserved":false,"is_disabled":false,"rental_uris":{"android":"levelo://app?vid=628fb4e3-3a3e-4d00-aa05-5300ce9756e6","ios":"levelo://app?vid=628fb4e3-3a3e-4d00-aa05-5300ce9756e6"},"vehicle_type_id":"4","last_reported":1758636616,"current_range_meters":19200,"station_id":"ce4bgm92rcd13ifvqbr0","pricing_plan_id":"cebpf4jnsgd1na2vs0mg"},{"bike_id":"1e2b0923-7c0f-4134-bff6-a7f0c0a8fdc5","system_id":"levelo_inurba_marseille","lat":43.32491,"lon":5.36578,"is_reserved":false,"is_disabled":false,"rental_uris":{"android":"levelo://app?vid=1e2b0923-7c0f-4134-bff6-a7f0c0a8fdc5","ios":"levelo://app?vid=1e2b0923-7c0f-4134-bff6-a7f0c0a8fdc5"},"vehicle_type_id":"4","last_reported":1758636616,"current_range_meters":19200,"station_id":"ce4bhs12rcd13ifvqhvg","pricing_plan_id":"cebpf4jnsgd1na2vs0mg"},{"bike_id":"e75c1918-85d6-4068-96bb-18e633d75400","system_id":"levelo_inurba_marseille","lat":43.32655,"lon":5.40997,"is_reserved":false,"is_disabled":false,"rental_uris":{"android":"levelo://app?vid=e75c1918-85d6-4068-96bb-18e633d75400","ios":"levelo://app?vid=e75c1918-85d6-4068-96bb-18e633d75400"},"vehicle_type_id":"4","last_reported":1758636616,"current_range_meters":19200,"station_id":"ce4bhpp2rcd13ifvqhgg","pricing_plan_id":"cebpf4jnsgd1na2vs0mg"},{"bike_id":"1b8e4c2d-e7e7-47de-bd66-d5d0e6c8f37e","system_id":"levelo_inurba_marseille","lat":43.26571,"lon":5.40324,"is_reserved":false,"is_disabled":false,"rental_uris":{"android":"levelo://app?vid=1b8e4c2d-e7e7-47de-bd66-d5d0e6c8f37e","ios":"levelo://app?vid=1b8e4c2d-e7e7-47de-bd66-d5d0e6c8f37e"},"vehicle_type_id":"4","last_reported":1758636616,"current_range_meters":19200,"station_id":"ce4bhmp2rcd13ifvqgng","pricing_plan_id":"cebpf4jnsgd1na2vs0mg"},{"bike_id":"57b14c92-2a17-45b3-beb1-cbb460ef441b","system_id":"levelo_inurba_marseille","lat":43.23178,"lon":5.39976,"is_reserved":false,"is_disabled":false,"rental_uris":{"android":"levelo://app?vid=57b14c92-2a17-45b3-beb1-cbb460ef441b","ios":"levelo://app?vid=57b14c92-2a17-45b3-beb1-cbb460ef441b"},"vehicle_type_id":"4","last_reported":1758636616,"current_range_meters":19200,"station_id":"ce4bhn12rcd13ifvqgqg","pricing_plan_id":"cebpf4jnsgd1na2vs0mg"},{"bike_id":"9bd2c570-1acd-4ac5-b7bc-4c4daade6348","system_id":"levelo_inurba_marseille","lat":43.30205,"lon":5.3946,"is_reserved":false,"is_disabled":false,"rental_uris":{"android":"levelo://app?vid=9bd2c570-1acd-4ac5-b7bc-4c4daade6348","ios":"levelo://app?vid=9bd2c570-1acd-4ac5-b7bc-4c4daade6348"},"vehicle_type_id":"4","last_reported":1758636616,"current_range_meters":19200,"station_id":"ce4bh0p2rcd13ifvqd70","pricing_plan_id":"cebpf4jnsgd1na2vs0mg"},{"bike_id":"36e14a01-13aa-45ae-8743-fe096043a807","system_id":"levelo_inurba_marseille","lat":43.32486,"lon":5.36567,"is_reserved":false,"is_disabled":false,"rental_uris":{"android":"levelo://app?vid=36e14a01-13aa-45ae-8743-fe096043a807","ios":"levelo://app?vid=36e14a01-13aa-45ae-8743-fe096043a807"},"vehicle_type_id":"4","last_reported":1758636616,"current_range_meters":19200,"station_id":"ce4bhs12rcd13ifvqhvg","pricing_plan_id":"cebpf4jnsgd1na2vs0mg"},{"bike_id":"b380c6ac-1e53-42a4-910d-fd28e98be154","system_id":"levelo_inurba_marseille","lat":43.31487,"lon":5.3731,"is_reserved":false,"is_disabled":false,"rental_uris":{"android":"levelo://app?vid=b380c6ac-1e53-42a4-910d-fd28e98be154","ios":"levelo://app?vid=b380c6ac-1e53-42a4-910d-fd28e98be154"},"vehicle_type_id":"4","last_reported":1758636616,"current_range_meters":19200,"station_id":"ce4bgt12rcd13ifvqcd0","pricing_plan_id":"cebpf4jnsgd1na2vs0mg"},{"bike_id":"8c0227e3-55e8-4994-aa0c-9b6ee99b7e26","system_id":"levelo_inurba_marseille","lat":43.2305,"lon":5.35485,"is_reserved":false,"is_disabled":false,"rental_uris":{"android":"levelo://app?vid=8c0227e3-55e8-4994-aa0c-9b6ee99b7e26","ios":"levelo://app?vid=8c0227e3-55e8-4994-aa0c-9b6ee99b7e26"},"vehicle_type_id":"4","last_reported":1758636616,"current_range_meters":19600,"station_id":"cpo3342slgdg3j2ifvpg","pricing_plan_id":"cebpf4jnsgd1na2vs0mg"},{"bike_id":"3cb1dae7-6bcd-41e5-b1b7-c1d25c751a99","system_id":"levelo_inurba_marseille","lat":43.337594,"lon":5.374419,"is_reserved":false,"is_disabled":false,"rental_uris":{"android":"levelo://app?vid=3cb1dae7-6bcd-41e5-b1b7-c1d25c751a99","ios":"levelo://app?vid=3cb1dae7-6bcd-41e5-b1b7-c1d25c751a99"},"vehicle_type_id":"4","last_reported":1758636616,"current_range_meters":19600,"station_id":"","pricing_plan_id":"cebpf4jnsgd1na2vs0mg"},{"bike_id":"79e4e131-a021-4c2d-86ea-e4feeaa3a460","system_id":"levelo_inurba_marseille","lat":43.21745,"lon":5.34588,"is_reserved":false,"is_disabled":false,"rental_uris":{"android":"levelo://app?vid=79e4e131-a021-4c2d-86ea-e4feeaa3a460","ios":"levelo://app?vid=79e4e131-a021-4c2d-86ea-e4feeaa3a460"},"vehicle_type_id":"4","last_reported":1758636616,"current_range_meters":19600,"station_id":"st_cvj6r9ubvosntc0bgbag","pricing_plan_id":"cebpf4jnsgd1na2vs0mg"},{"bike_id":"e19472f1-87e0-4943-97f3-e785d2a10054","system_id":"levelo_inurba_marseille","lat":43.28866,"lon":5.42507,"is_reserved":false,"is_disabled":false,"rental_uris":{"android":"levelo://app?vid=e19472f1-87e0-4943-97f3-e785d2a10054","ios":"levelo://app?vid=e19472f1-87e0-4943-97f3-e785d2a10054"},"vehicle_type_id":"4","last_reported":1758636616,"current_range_meters":19600,"station_id":"","pricing_plan_id":"cebpf4jnsgd1na2vs0mg"},{"bike_id":"02165bc8-8bbe-412b-a41b-25acc8cf8540","system_id":"levelo_inurba_marseille","lat":43.29788,"lon":5.38071,"is_reserved":false,"is_disabled":false,"rental_uris":{"android":"levelo://app?vid=02165bc8-8bbe-412b-a41b-25acc8cf8540","ios":"levelo://app?vid=02165bc8-8bbe-412b-a41b-25acc8cf8540"},"vehicle_type_id":"4","last_reported":1758636616,"current_range_meters":19600,"station_id":"ce4bgip2rcd13ifvqbb0","pricing_plan_id":"cebpf4jnsgd1na2vs0mg"},{"bike_id":"7c128555-23df-4cc9-a2ef-6f4cd89c4b84","system_id":"levelo_inurba_marseille","lat":43.32369,"lon":5.38883,"is_reserved":false,"is_disabled":false,"rental_uris":{"android":"levelo://app?vid=7c128555-23df-4cc9-a2ef-6f4cd89c4b84","ios":"levelo://app?vid=7c128555-23df-4cc9-a2ef-6f4cd89c4b84"},"vehicle_type_id":"4","last_reported":1758636616,"current_range_meters":20000,"station_id":"ce4bhqp2rcd13ifvqhog","pricing_plan_id":"cebpf4jnsgd1na2vs0mg"},{"bike_id":"d448b74b-b8f7-4053-955b-1df9c58f6926","system_id":"levelo_inurba_marseille","lat":43.27846,"lon":5.38531,"is_reserved":false,"is_disabled":false,"rental_uris":{"android":"levelo://app?vid=d448b74b-b8f7-4053-955b-1df9c58f6926","ios":"levelo://app?vid=d448b74b-b8f7-4053-955b-1df9c58f6926"},"vehicle_type_id":"4","last_reported":1758636616,"current_range_meters":20000,"station_id":"","pricing_plan_id":"cebpf4jnsgd1na2vs0mg"},{"bike_id":"ba380dc0-5aaf-42da-bea7-8cd6a75f291b","system_id":"levelo_inurba_marseille","lat":43.24171,"lon":5.36418,"is_reserved":false,"is_disabled":false,"rental_uris":{"android":"levelo://app?vid=ba380dc0-5aaf-42da-bea7-8cd6a75f291b","ios":"levelo://app?vid=ba380dc0-5aaf-42da-bea7-8cd6a75f291b"},"vehicle_type_id":"4","last_reported":1758636616,"current_range_meters":20000,"station_id":"cpo36qri1sfpv3e86is0","pricing_plan_id":"cebpf4jnsgd1na2vs0mg"},{"bike_id":"92085d91-3c17-49c3-8fcd-43f1ab4d0615","system_id":"levelo_inurba_marseille","lat":43.22925,"lon":5.35355,"is_reserved":false,"is_disabled":false,"rental_uris":{"android":"levelo://app?vid=92085d91-3c17-49c3-8fcd-43f1ab4d0615","ios":"levelo://app?vid=92085d91-3c17-49c3-8fcd-43f1ab4d0615"},"vehicle_type_id":"4","last_reported":1758636616,"current_range_meters":20000,"station_id":"cpo3532slgdg3j2ikp40","pricing_plan_id":"cebpf4jnsgd1na2vs0mg"},{"bike_id":"178af37d-dd54-4cf7-b80a-b996e0f2a163","system_id":"levelo_inurba_marseille","lat":43.21203,"lon":5.35047,"is_reserved":false,"is_disabled":false,"rental_uris":{"android":"levelo://app?vid=178af37d-dd54-4cf7-b80a-b996e0f2a163","ios":"levelo://app?vid=178af37d-dd54-4cf7-b80a-b996e0f2a163"},"vehicle_type_id":"4","last_reported":1758636616,"current_range_meters":20000,"station_id":"st_cvj6sg6p6f1abm77japg","pricing_plan_id":"cebpf4jnsgd1na2vs0mg"},{"bike_id":"2a01d6ea-8eba-4588-97cd-97a5bbd9bde4","system_id":"levelo_inurba_marseille","lat":43.30801,"lon":5.43524,"is_reserved":false,"is_disabled":false,"rental_uris":{"android":"levelo://app?vid=2a01d6ea-8eba-4588-97cd-97a5bbd9bde4","ios":"levelo://app?vid=2a01d6ea-8eba-4588-97cd-97a5bbd9bde4"},"vehicle_type_id":"4","last_reported":1758636616,"current_range_meters":20000,"station_id":"ce4bhph2rcd13ifvqheg","pricing_plan_id":"cebpf4jnsgd1na2vs0mg"},{"bike_id":"aad9a2e7-ac85-4e77-b7cf-306e366e5ad5","system_id":"levelo_inurba_marseille","lat":43.21192,"lon":5.35072,"is_reserved":false,"is_disabled":false,"rental_uris":{"android":"levelo://app?vid=aad9a2e7-ac85-4e77-b7cf-306e366e5ad5","ios":"levelo://app?vid=aad9a2e7-ac85-4e77-b7cf-306e366e5ad5"},"vehicle_type_id":"4","last_reported":1758636616,"current_range_meters":20000,"station_id":"st_cvj6sg6p6f1abm77japg","pricing_plan_id":"cebpf4jnsgd1na2vs0mg"},{"bike_id":"54fa8dad-7a4d-4612-8ab7-343ce58f91cf","system_id":"levelo_inurba_marseille","lat":43.296246,"lon":5.377271,"is_reserved":false,"is_disabled":false,"rental_uris":{"android":"levelo://app?vid=54fa8dad-7a4d-4612-8ab7-343ce58f91cf","ios":"levelo://app?vid=54fa8dad-7a4d-4612-8ab7-343ce58f91cf"},"vehicle_type_id":"4","last_reported":1758636616,"current_range_meters":20000,"station_id":"ce4bgi92rcd13ifvqb90","pricing_plan_id":"cebpf4jnsgd1na2vs0mg"},{"bike_id":"327c041e-5c9e-4b0d-a97c-a2dbaab036ae","system_id":"levelo_inurba_marseille","lat":43.32652,"lon":5.40991,"is_reserved":false,"is_disabled":false,"rental_uris":{"android":"levelo://app?vid=327c041e-5c9e-4b0d-a97c-a2dbaab036ae","ios":"levelo://app?vid=327c041e-5c9e-4b0d-a97c-a2dbaab036ae"},"vehicle_type_id":"4","last_reported":1758636616,"current_range_meters":20400,"station_id":"ce4bhpp2rcd13ifvqhgg","pricing_plan_id":"cebpf4jnsgd1na2vs0mg"},{"bike_id":"f64fd63f-8973-4f1e-9d0f-0cc2028539d5","system_id":"levelo_inurba_marseille","lat":43.29968,"lon":5.37177,"is_reserved":false,"is_disabled":false,"rental_uris":{"android":"levelo://app?vid=f64fd63f-8973-4f1e-9d0f-0cc2028539d5","ios":"levelo://app?vid=f64fd63f-8973-4f1e-9d0f-0cc2028539d5"},"vehicle_type_id":"4","last_reported":1758636616,"current_range_meters":20400,"station_id":"ce4bgr92rcd13ifvqc7g","pricing_plan_id":"cebpf4jnsgd1na2vs0mg"},{"bike_id":"199c3bb2-afa6-4a12-af66-5e6d3fa5b373","system_id":"levelo_inurba_marseille","lat":43.33799,"lon":5.37431,"is_reserved":false,"is_disabled":false,"rental_uris":{"android":"levelo://app?vid=199c3bb2-afa6-4a12-af66-5e6d3fa5b373","ios":"levelo://app?vid=199c3bb2-afa6-4a12-af66-5e6d3fa5b373"},"vehicle_type_id":"4","last_reported":1758636616,"current_range_meters":20400,"station_id":"","pricing_plan_id":"cebpf4jnsgd1na2vs0mg"},{"bike_id":"189e953a-f0f5-4c03-b7b5-2321dcc67751","system_id":"levelo_inurba_marseille","lat":43.29525,"lon":5.39028,"is_reserved":false,"is_disabled":true,"rental_uris":{"android":"levelo://app?vid=189e953a-f0f5-4c03-b7b5-2321dcc67751","ios":"levelo://app?vid=189e953a-f0f5-4c03-b7b5-2321dcc67751"},"vehicle_type_id":"4","last_reported":1758636616,"current_range_meters":20400,"station_id":"ce4bh3p2rcd13ifvqdp0","pricing_plan_id":"cebpf4jnsgd1na2vs0mg"},{"bike_id":"d5763ed7-d544-48fe-aeac-dfd5d978b922","system_id":"levelo_inurba_marseille","lat":43.3055,"lon":5.3656,"is_reserved":false,"is_disabled":false,"rental_uris":{"android":"levelo://app?vid=d5763ed7-d544-48fe-aeac-dfd5d978b922","ios":"levelo://app?vid=d5763ed7-d544-48fe-aeac-dfd5d978b922"},"vehicle_type_id":"4","last_reported":1758636616,"current_range_meters":20400,"station_id":"ce4bgs12rcd13ifvqcag","pricing_plan_id":"cebpf4jnsgd1na2vs0mg"},{"bike_id":"4d21f471-4ff3-4730-aa81-95b281d5d8d8","system_id":"levelo_inurba_marseille","lat":43.29903,"lon":5.38153,"is_reserved":false,"is_disabled":false,"rental_uris":{"android":"levelo://app?vid=4d21f471-4ff3-4730-aa81-95b281d5d8d8","ios":"levelo://app?vid=4d21f471-4ff3-4730-aa81-95b281d5d8d8"},"vehicle_type_id":"4","last_reported":1758636616,"current_range_meters":20400,"station_id":"","pricing_plan_id":"cebpf4jnsgd1na2vs0mg"},{"bike_id":"5200549e-e6ac-4ce0-b53b-8f757d8816ab","system_id":"levelo_inurba_marseille","lat":43.25499,"lon":5.37654,"is_reserved":false,"is_disabled":false,"rental_uris":{"android":"levelo://app?vid=5200549e-e6ac-4ce0-b53b-8f757d8816ab","ios":"levelo://app?vid=5200549e-e6ac-4ce0-b53b-8f757d8816ab"},"vehicle_type_id":"4","last_reported":1758636616,"current_range_meters":20400,"station_id":"ce4bhh12rcd13ifvqff0","pricing_plan_id":"cebpf4jnsgd1na2vs0mg"},{"bike_id":"fa9db9d8-47f4-447f-a71a-a4d32c763467","system_id":"levelo_inurba_marseille","lat":43.24086,"lon":5.3775,"is_reserved":false,"is_disabled":false,"rental_uris":{"android":"levelo://app?vid=fa9db9d8-47f4-447f-a71a-a4d32c763467","ios":"levelo://app?vid=fa9db9d8-47f4-447f-a71a-a4d32c763467"},"vehicle_type_id":"4","last_reported":1758636616,"current_range_meters":20400,"station_id":"ce4bhnp2rcd13ifvqgvg","pricing_plan_id":"cebpf4jnsgd1na2vs0mg"},{"bike_id":"e629c992-b333-4208-b1e3-a907b22bd3ba","system_id":"levelo_inurba_marseille","lat":43.28934,"lon":5.36637,"is_reserved":false,"is_disabled":false,"rental_uris":{"android":"levelo://app?vid=e629c992-b333-4208-b1e3-a907b22bd3ba","ios":"levelo://app?vid=e629c992-b333-4208-b1e3-a907b22bd3ba"},"vehicle_type_id":"4","last_reported":1758636616,"current_range_meters":20800,"station_id":"ce4bhap2rcd13ifvqek0","pricing_plan_id":"cebpf4jnsgd1na2vs0mg"},{"bike_id":"34320d59-e35e-40ac-8a68-3e2224d63c1a","system_id":"levelo_inurba_marseille","lat":43.29246,"lon":5.37277,"is_reserved":false,"is_disabled":false,"rental_uris":{"android":"levelo://app?vid=34320d59-e35e-40ac-8a68-3e2224d63c1a","ios":"levelo://app?vid=34320d59-e35e-40ac-8a68-3e2224d63c1a"},"vehicle_type_id":"4","last_reported":1758636616,"current_range_meters":20800,"station_id":"","pricing_plan_id":"cebpf4jnsgd1na2vs0mg"},{"bike_id":"962a53a7-c4e0-4a48-b947-771f89faf9ea","system_id":"levelo_inurba_marseille","lat":43.27071,"lon":5.42275,"is_reserved":false,"is_disabled":false,"rental_uris":{"android":"levelo://app?vid=962a53a7-c4e0-4a48-b947-771f89faf9ea","ios":"levelo://app?vid=962a53a7-c4e0-4a48-b947-771f89faf9ea"},"vehicle_type_id":"4","last_reported":1758636616,"current_range_meters":20800,"station_id":"ce4bhk92rcd13ifvqgb0","pricing_plan_id":"cebpf4jnsgd1na2vs0mg"},{"bike_id":"e8cecea0-f98d-4759-8706-8cfe5ec2e507","system_id":"levelo_inurba_marseille","lat":43.302991,"lon":5.36891,"is_reserved":false,"is_disabled":false,"rental_uris":{"android":"levelo://app?vid=e8cecea0-f98d-4759-8706-8cfe5ec2e507","ios":"levelo://app?vid=e8cecea0-f98d-4759-8706-8cfe5ec2e507"},"vehicle_type_id":"4","last_reported":1758636616,"current_range_meters":20800,"station_id":"ce4bgqh2rcd13ifvqc5g","pricing_plan_id":"cebpf4jnsgd1na2vs0mg"},{"bike_id":"81fc36e4-f2a6-467a-9eb0-57a2e7b3a039","system_id":"levelo_inurba_marseille","lat":43.30097,"lon":5.39075,"is_reserved":false,"is_disabled":false,"rental_uris":{"android":"levelo://app?vid=81fc36e4-f2a6-467a-9eb0-57a2e7b3a039","ios":"levelo://app?vid=81fc36e4-f2a6-467a-9eb0-57a2e7b3a039"},"vehicle_type_id":"4","last_reported":1758636616,"current_range_meters":20800,"station_id":"ce4bh192rcd13ifvqdb0","pricing_plan_id":"cebpf4jnsgd1na2vs0mg"},{"bike_id":"0e9ca394-4351-4bf8-a641-f4e5215baf20","system_id":"levelo_inurba_marseille","lat":43.282843,"lon":5.35068,"is_reserved":false,"is_disabled":true,"rental_uris":{"android":"levelo://app?vid=0e9ca394-4351-4bf8-a641-f4e5215baf20","ios":"levelo://app?vid=0e9ca394-4351-4bf8-a641-f4e5215baf20"},"vehicle_type_id":"4","last_reported":1758636616,"current_range_meters":20800,"station_id":"ce4bhbp2rcd13ifvqerg","pricing_plan_id":"cebpf4jnsgd1na2vs0mg"},{"bike_id":"6c3e97a4-5947-421c-856a-492df3711c31","system_id":"levelo_inurba_marseille","lat":43.29196,"lon":5.35807,"is_reserved":false,"is_disabled":false,"rental_uris":{"android":"levelo://app?vid=6c3e97a4-5947-421c-856a-492df3711c31","ios":"levelo://app?vid=6c3e97a4-5947-421c-856a-492df3711c31"},"vehicle_type_id":"4","last_reported":1758636616,"current_range_meters":20800,"station_id":"ce4bhb12rcd13ifvqel0","pricing_plan_id":"cebpf4jnsgd1na2vs0mg"},{"bike_id":"050f2316-d746-4b0d-b074-f7efca97b295","system_id":"levelo_inurba_marseille","lat":43.29593,"lon":5.381,"is_reserved":false,"is_disabled":false,"rental_uris":{"android":"levelo://app?vid=050f2316-d746-4b0d-b074-f7efca97b295","ios":"levelo://app?vid=050f2316-d746-4b0d-b074-f7efca97b295"},"vehicle_type_id":"4","last_reported":1758636616,"current_range_meters":20800,"station_id":"ce4bgl12rcd13ifvqbo0","pricing_plan_id":"cebpf4jnsgd1na2vs0mg"},{"bike_id":"e16dc8cd-ecc5-4dd7-aa10-0d767cea58a4","system_id":"levelo_inurba_marseille","lat":43.22925,"lon":5.35371,"is_reserved":false,"is_disabled":false,"rental_uris":{"android":"levelo://app?vid=e16dc8cd-ecc5-4dd7-aa10-0d767cea58a4","ios":"levelo://app?vid=e16dc8cd-ecc5-4dd7-aa10-0d767cea58a4"},"vehicle_type_id":"4","last_reported":1758636616,"current_range_meters":20800,"station_id":"cpo3532slgdg3j2ikp40","pricing_plan_id":"cebpf4jnsgd1na2vs0mg"},{"bike_id":"17a90da9-3465-42df-9f9a-86c4e8b9d650","system_id":"levelo_inurba_marseille","lat":43.29554,"lon":5.368505,"is_reserved":false,"is_disabled":false,"rental_uris":{"android":"levelo://app?vid=17a90da9-3465-42df-9f9a-86c4e8b9d650","ios":"levelo://app?vid=17a90da9-3465-42df-9f9a-86c4e8b9d650"},"vehicle_type_id":"4","last_reported":1758636616,"current_range_meters":21600,"station_id":"ce4bha92rcd13ifvqeh0","pricing_plan_id":"cebpf4jnsgd1na2vs0mg"},{"bike_id":"bf9ef4d6-05c7-4401-a5ee-a6ebdb6d06eb","system_id":"levelo_inurba_marseille","lat":43.28852,"lon":5.39323,"is_reserved":false,"is_disabled":false,"rental_uris":{"android":"levelo://app?vid=bf9ef4d6-05c7-4401-a5ee-a6ebdb6d06eb","ios":"levelo://app?vid=bf9ef4d6-05c7-4401-a5ee-a6ebdb6d06eb"},"vehicle_type_id":"4","last_reported":1758636616,"current_range_meters":20800,"station_id":"ce4bh2p2rcd13ifvqdi0","pricing_plan_id":"cebpf4jnsgd1na2vs0mg"},