{"last_updated":1748848294,"ttl":60,"version":"2.2","data":{"bikes":[{"bike_id":"c9c78cf4-0c6b-41e2-b946-04937c22ec3e","system_id":"levelo_inurba_marseille","lat":43.291882,"lon":5.422511,"is_reserved":false,"is_disabled":false,"rental_uris":{"android":"levelo://app?vid=c9c78cf4-0c6b-41e2-b946-04937c22ec3e","ios":"levelo://app?vid=c9c78cf4-0c6b-41e2-b946-04937c22ec3e"},"vehicle_type_id":"4","last_reported":1748848294,"current_range_meters":2800,"station_id":"","pricing_plan_id":"cebpf4jnsgd1na2vs0mg"},{"bike_id":"243f3855-f19a-4831-9cd5-f4ec6676a574","system_id":"levelo_inurba_marseille","lat":43.33607,"lon":5.41025,"is_reserved":false,"is_disabled":false,"rental_uris":{"android":"levelo://app?vid=243f3855-f19a-4831-9cd5-f4ec6676a574","ios":"levelo://app?vid=243f3855-f19a-4831-9cd5-f4ec6676a574"},"vehicle_type_id":"4","last_reported":1748848294,"current_range_meters":2800,"station_id":"ce4bhqh2rcd13ifvqhmg","pricing_plan_id":"cebpf4jnsgd1na2vs0mg"},{"bike_id":"1f9f1b69-d430-4bc1-a013-5e4479eb2020","system_id":"levelo_inurba_marseille","lat":43.32476,"lon":5.36563,"is_reserved":false,"is_disabled":false,"rental_uris":{"android":"levelo://app?vid=1f9f1b69-d430-4bc1-a013-5e4479eb2020","ios":"levelo://app?vid=1f9f1b69-d430-4bc1-a013-5e4479eb2020"},"vehicle_type_id":"4","last_reported":1748848294,"current_range_meters":2800,"station_id":"ce4bhs12rcd13ifvqhvg","pricing_plan_id":"cebpf4jnsgd1na2vs0mg"},{"bike_id":"6dbec55b-fee0-4a3a-9ed2-723f9ae1c783","system_id":"levelo_inurba_marseille","lat":43.29898,"lon":5.43674,"is_reserved":false,"is_disabled":true,"rental_uris":{"android":"levelo://app?vid=6dbec55b-fee0-4a3a-9ed2-723f9ae1c783","ios":"levelo://app?vid=6dbec55b-fee0-4a3a-9ed2-723f9ae1c783"},"vehicle_type_id":"4","last_reported":1748848294,"current_range_meters":3200,"station_id":"ce4bhpp2rcd13ifvqhfg","pricing_plan_id":"cebpf4jnsgd1na2vs0mg"},{"bike_id":"d2097029-c5b5-4a58-80b3-0bea07b04c15","system_id":"levelo_inurba_marseille","lat":43.30277,"lon":5.37714,"is_reserved":false,"is_disabled":false,"rental_uris":{"android":"levelo://app?vid=d2097029-c5b5-4a58-80b3-0bea07b04c15","ios":"levelo://app?vid=d2097029-c5b5-4a58-80b3-0bea07b04c15"},"vehicle_type_id":"4","last_reported":1748848294,"current_range_meters":3200,"station_id":"ce4bguh2rcd13ifvqcj0","pricing_plan_id":"cebpf4jnsgd1na2vs0mg"},{"bike_id":"0d3bab2f-26cf-41f1-82dd-bb5db963b288","system_id":"levelo_inurba_marseille","lat":43.32542,"lon":5.36483,"is_reserved":false,"is_disabled":true,"rental_uris":{"android":"levelo://app?vid=0d3bab2f-26cf-41f1-82dd-bb5db963b288","ios":"levelo://app?vid=0d3bab2f-26cf-41f1-82dd-bb5db963b288"},"vehicle_type_id":"4","last_reported":1748848294,"current_range_meters":3200,"station_id":"","pricing_plan_id":"cebpf4jnsgd1na2vs0mg"},{"bike_id":"8704dbf8-b0fe-46dd-8c36-e60a74964ebe","system_id":"levelo_inurba_marseille","lat":43.31703,"lon":5.43689,"is_reserved":false,"is_disabled":true,"rental_uris":{"android":"levelo://app?vid=8704dbf8-b0fe-46dd-8c36-e60a74964ebe","ios":"levelo://app?vid=8704dbf8-b0fe-46dd-8c36-e60a74964ebe"},"vehicle_type_id":"4","last_reported":1748848294,"current_range_meters":3200,"station_id":"ce4bhp92rcd13ifvqhcg","pricing_plan_id":"cebpf4jnsgd1na2vs0mg"},{"bike_id":"5f7389cd-e6f2-4261-964f-40fb995bf377","system_id":"levelo_inurba_marseille","lat":43.29258,"lon":5.37621,"is_reserved":false,"is_disabled":false,"rental_uris":{"android":"levelo://app?vid=5f7389cd-e6f2-4261-964f-40fb995bf377","ios":"levelo://app?vid=5f7389cd-e6f2-4261-964f-40fb995bf377"},"vehicle_type_id":"4","last_reported":1748848294,"current_range_meters":3600,"station_id":"ce4bgi12rcd13ifvqb80","pricing_plan_id":"cebpf4jnsgd1na2vs0mg"},{"bike_id":"bbcbee3d-fa3f-45ea-b2f0-05c81f53e30f","system_id":"levelo_inurba_marseille","lat":43.28973,"lon":5.37833,"is_reserved":false,"is_disabled":false,"rental_uris":{"android":"levelo://app?vid=bbcbee3d-fa3f-45ea-b2f0-05c81f53e30f","ios":"levelo://app?vid=bbcbee3d-fa3f-45ea-b2f0-05c81f53e30f"},"vehicle_type_id":"4","last_reported":1748848294,"current_range_meters":3600,"station_id":"ce4bh9p2rcd13ifvqed0","pricing_plan_id":"cebpf4jnsgd1na2vs0mg"},{"bike_id":"d73d239e-6f37-4b9a-a0b8-50600c5e7b37","system_id":"levelo_inurba_marseille","lat":43.29843,"lon":5.36275,"is_reserved":false,"is_disabled":false,"rental_uris":{"android":"levelo://app?vid=d73d239e-6f37-4b9a-a0b8-50600c5e7b37","ios":"levelo://app?vid=d73d239e-6f37-4b9a-a0b8-50600c5e7b37"},"vehicle_type_id":"4","last_reported":1748848294,"current_range_meters":3600,"station_id":"ce4bgpp2rcd13ifvqc3g","pricing_plan_id":"cebpf4jnsgd1na2vs0mg"},{"bike_id":"682ee4ff-a240-4802-8b21-49a1bc350ab3","system_id":"levelo_inurba_marseille","lat":43.28127,"lon":5.39857,"is_reserved":false,"is_disabled":false,"rental_uris":{"android":"levelo://app?vid=682ee4ff-a240-4802-8b21-49a1bc350ab3","ios":"levelo://app?vid=682ee4ff-a240-4802-8b21-49a1bc350ab3"},"vehicle_type_id":"4","last_reported":1748848294,"current_range_meters":3600,"station_id":"","pricing_plan_id":"cebpf4jnsgd1na2vs0mg"},{"bike_id":"657bb0c4-345b-4c75-816b-2743efcd4196","system_id":"levelo_inurba_marseille","lat":43.29267,"lon":5.38443,"is_reserved":false,"is_disabled":false,"rental_uris":{"android":"levelo://app?vid=657bb0c4-345b-4c75-816b-2743efcd4196","ios":"levelo://app?vid=657bb0c4-345b-4c75-816b-2743efcd4196"},"vehicle_type_id":"4","last_reported":1748848294,"current_range_meters":3600,"station_id":"ce4bh692rcd13ifvqea0","pricing_plan_id":"cebpf4jnsgd1na2vs0mg"},{"bike_id":"ee3254ad-337e-4f9c-a198-35efa0d3d758","system_id":"levelo_inurba_marseille","lat":43.29092,"lon":5.38144,"is_reserved":false,"is_disabled":false,"rental_uris":{"android":"levelo://app?vid=ee3254ad-337e-4f9c-a198-35efa0d3d758","ios":"levelo://app?vid=ee3254ad-337e-4f9c-a198-35efa0d3d758"},"vehicle_type_id":"4","last_reported":1748848294,"current_range_meters":4000,"station_id":"ce4bh512rcd13ifvqe2g","pricing_plan_id":"cebpf4jnsgd1na2vs0mg"},{"bike_id":"306cfba8-4462-433f-b84e-ec005b202f89","system_id":"levelo_inurba_marseille","lat":43.31478,"lon":5.37276,"is_reserved":false,"is_disabled":false,"rental_uris":{"android":"levelo://app?vid=306cfba8-4462-433f-b84e-ec005b202f89","ios":"levelo://app?vid=306cfba8-4462-433f-b84e-ec005b202f89"},"vehicle_type_id":"4","last_reported":1748848294,"current_range_meters":4000,"station_id":"","pricing_plan_id":"cebpf4jnsgd1na2vs0mg"},{"bike_id":"29cf0489-3336-4839-b897-623bdc0c8240","system_id":"levelo_inurba_marseille","lat":43.26213,"lon":5.37443,"is_reserved":false,"is_disabled":false,"rental_uris":{"android":"levelo://app?vid=29cf0489-3336-4839-b897-623bdc0c8240","ios":"levelo://app?vid=29cf0489-3336-4839-b897-623bdc0c8240"},"vehicle_type_id":"4","last_reported":1748848294,"current_range_meters":4400,"station_id":"ce4bhgp2rcd13ifvqfc0","pricing_plan_id":"cebpf4jnsgd1na2vs0mg"},{"bike_id":"7c0a6c77-cb06-4b08-8fbf-58f434484716","system_id":"levelo_inurba_marseille","lat":43.29526,"lon":5.3905,"is_reserved":false,"is_disabled":false,"rental_uris":{"android":"levelo://app?vid=7c0a6c77-cb06-4b08-8fbf-58f434484716","ios":"levelo://app?vid=7c0a6c77-cb06-4b08-8fbf-58f434484716"},"vehicle_type_id":"4","last_reported":1748848294,"current_range_meters":4400,"station_id":"ce4bh3p2rcd13ifvqdp0","pricing_plan_id":"cebpf4jnsgd1na2vs0mg"},{"bike_id":"7845a024-0cb9-453f-ae3a-6a78c08fe9c9","system_id":"levelo_inurba_marseille","lat":43.29732,"lon":5.37688,"is_reserved":false,"is_disabled":false,"rental_uris":{"android":"levelo://app?vid=7845a024-0cb9-453f-ae3a-6a78c08fe9c9","ios":"levelo://app?vid=7845a024-0cb9-453f-ae3a-6a78c08fe9c9"},"vehicle_type_id":"4","last_reported":1748848294,"current_range_meters":4400,"station_id":"ce4bgkh2rcd13ifvqbl0","pricing_plan_id":"cebpf4jnsgd1na2vs0mg"},{"bike_id":"9bcda4d5-87a6-4443-80fa-22a978f8f388","system_id":"levelo_inurba_marseille","lat":43.26553,"lon":5.37284,"is_reserved":false,"is_disabled":false,"rental_uris":{"android":"levelo://app?vid=9bcda4d5-87a6-4443-80fa-22a978f8f388","ios":"levelo://app?vid=9bcda4d5-87a6-4443-80fa-22a978f8f388"},"vehicle_type_id":"4","last_reported":1748848294,"current_range_meters":4400,"station_id":"ce4bhg12rcd13ifvqf70","pricing_plan_id":"cebpf4jnsgd1na2vs0mg"},{"bike_id":"668c729e-2509-41df-a3f9-f1845c72b38d","system_id":"levelo_inurba_marseille","lat":43.30318,"lon":5.36886,"is_reserved":false,"is_disabled":false,"rental_uris":{"android":"levelo://app?vid=668c729e-2509-41df-a3f9-f1845c72b38d","ios":"levelo://app?vid=668c729e-2509-41df-a3f9-f1845c72b38d"},"vehicle_type_id":"4","last_reported":1748848294,"current_range_meters":4400,"station_id":"ce4bgqh2rcd13ifvqc5g","pricing_plan_id":"cebpf4jnsgd1na2vs0mg"},{"bike_id":"59ae54bb-ea00-4726-8c0c-f78e033628de","system_id":"levelo_inurba_marseille","lat":43.320069,"lon":5.394663,"is_reserved":false,"is_disabled":false,"rental_uris":{"android":"levelo://app?vid=59ae54bb-ea00-4726-8c0c-f78e033628de","ios":"levelo://app?vid=59ae54bb-ea00-4726-8c0c-f78e033628de"},"vehicle_type_id":"4","last_reported":1748848294,"current_range_meters":4400,"station_id":"","pricing_plan_id":"cebpf4jnsgd1na2vs0mg"},{"bike_id":"a4c0b97d-59f3-4084-8f92-0027d825447d","system_id":"levelo_inurba_marseille","lat":43.31083,"lon":5.42431,"is_reserved":false,"is_disabled":false,"rental_uris":{"android":"levelo://app?vid=a4c0b97d-59f3-4084-8f92-0027d825447d","ios":"levelo://app?vid=a4c0b97d-59f3-4084-8f92-0027d825447d"},"vehicle_type_id":"4","last_reported":1748848294,"current_range_meters":4400,"station_id":"ce4bhp92rcd13ifvqhag","pricing_plan_id":"cebpf4jnsgd1na2vs0mg"},{"bike_id":"44e97acb-5d32-4e60-829d-8a59ab42229b","system_id":"levelo_inurba_marseille","lat":43.273571,"lon":5.362525,"is_reserved":false,"is_disabled":false,"rental_uris":{"android":"levelo://app?vid=44e97acb-5d32-4e60-829d-8a59ab42229b","ios":"levelo://app?vid=44e97acb-5d32-4e60-829d-8a59ab42229b"},"vehicle_type_id":"4","last_reported":1748848294,"current_range_meters":4800,"station_id":"","pricing_plan_id":"cebpf4jnsgd1na2vs0mg"},{"bike_id":"d198c9dc-a484-4aa3-b84a-3439a1b733e9","system_id":"levelo_inurba_marseille","lat":43.30534,"lon":5.36723,"is_reserved":false,"is_disabled":false,"rental_uris":{"android":"levelo://app?vid=d198c9dc-a484-4aa3-b84a-3439a1b733e9","ios":"levelo://app?vid=d198c9dc-a484-4aa3-b84a-3439a1b733e9"},"vehicle_type_id":"4","last_reported":1748848294,"current_range_meters":4800,"station_id":"ce4bgrp2rcd13ifvqc9g","pricing_plan_id":"cebpf4jnsgd1na2vs0mg"},{"bike_id":"bb6b0124-44e5-47cb-a77c-f202da1cae2d","system_id":"levelo_inurba_marseille","lat":43.32083,"lon":5.36812,"is_reserved":false,"is_disabled":false,"rental_uris":{"android":"levelo://app?vid=bb6b0124-44e5-47cb-a77c-f202da1cae2d","ios":"levelo://app?vid=bb6b0124-44e5-47cb-a77c-f202da1cae2d"},"vehicle_type_id":"4","last_reported":1748848294,"current_range_meters":4800,"station_id":"ce4bhrh2rcd13ifvqhug","pricing_plan_id":"cebpf4jnsgd1na2vs0mg"},{"bike_id":"13913e10-fd8f-4ec6-835a-8a75a82cc60a","system_id":"levelo_inurba_marseille","lat":43.29938,"lon":5.36553,"is_reserved":false,"is_disabled":false,"rental_uris":{"android":"levelo://app?vid=13913e10-fd8f-4ec6-835a-8a75a82cc60a","ios":"levelo://app?vid=13913e10-fd8f-4ec6-835a-8a75a82cc60a"},"vehicle_type_id":"4","last_reported":1748848294,"current_range_meters":4800,"station_id":"ce4bgm92rcd13ifvqbr0","pricing_plan_id":"cebpf4jnsgd1na2vs0mg"},{"bike_id":"807e8e6a-8c6a-4ecf-a9e7-61fe1f376199","system_id":"levelo_inurba_marseille","lat":43.32007,"lon":5.38177,"is_reserved":false,"is_disabled":false,"rental_uris":{"android":"levelo://app?vid=807e8e6a-8c6a-4ecf-a9e7-61fe1f376199","ios":"levelo://app?vid=807e8e6a-8c6a-4ecf-a9e7-61fe1f376199"},"vehicle_type_id":"4","last_reported":1748848294,"current_range_meters":4800,"station_id":"ce4bhr12rcd13ifvqhpg","pricing_plan_id":"cebpf4jnsgd1na2vs0mg"},{"bike_id":"d5406b0a-9ec0-491f-bac0-0357fe3beb5e","system_id":"levelo_inurba_marseille","lat":43.26065,"lon":5.39398,"is_reserved":false,"is_disabled":false,"rental_uris":{"android":"levelo://app?vid=d5406b0a-9ec0-491f-bac0-0357fe3beb5e","ios":"levelo://app?vid=d5406b0a-9ec0-491f-bac0-0357fe3beb5e"},"vehicle_type_id":"4","last_reported":1748848294,"current_range_meters":4400,"station_id":"ce4bhh92rcd13ifvqfj0","pricing_plan_id":"cebpf4jnsgd1na2vs0mg"},{"bike_id":"29c628ad-475a-4d0f-a822-5592df28bf52","system_id":"levelo_inurba_marseille","lat":43.262,"lon":5.40421,"is_reserved":false,"is_disabled":false,"rental_uris":{"android":"levelo://app?vid=29c628ad-475a-4d0f-a822-5592df28bf52","ios":"levelo://app?vid=29c628ad-475a-4d0f-a822-5592df28bf52"},"vehicle_type_id":"4","last_reported":1748848294,"current_range_meters":4800,"station_id":"ce4bhmh2rcd13ifvqgmg","pricing_plan_id":"cebpf4jnsgd1na2vs0mg"},{"bike_id":"acc93bb8-afba-47d2-8370-ae52815e9a69","system_id":"levelo_inurba_marseille","lat":43.31335,"lon":5.36725,"is_reserved":false,"is_disabled":false,"rental_uris":{"android":"levelo://app?vid=acc93bb8-afba-47d2-8370-ae52815e9a69","ios":"levelo://app?vid=acc93bb8-afba-47d2-8370-ae52815e9a69"},"vehicle_type_id":"4","last_reported":1748848294,"current_range_meters":4800,"station_id":"ce4bgr92rcd13ifvqc6g","pricing_plan_id":"cebpf4jnsgd1na2vs0mg"},{"bike_id":"56b8f16f-e6ba-4aab-acbd-619d8ef89793","system_id":"levelo_inurba_marseille","lat":43.23151,"lon":5.43714,"is_reserved":false,"is_disabled":false,"rental_uris":{"android":"levelo://app?vid=56b8f16f-e6ba-4aab-acbd-619d8ef89793","ios":"levelo://app?vid=56b8f16f-e6ba-4aab-acbd-619d8ef89793"},"vehicle_type_id":"4","last_reported":1748848294,"current_range_meters":5600,"station_id":"ce4bhmp2rcd13ifvqgog","pricing_plan_id":"cebpf4jnsgd1na2vs0mg"},{"bike_id":"0c3ef846-11e6-428d-aec6-2b665ad80526","system_id":"levelo_inurba_marseille","lat":43.301468,"lon":5.380806,"is_reserved":false,"is_disabled":false,"rental_uris":{"android":"levelo://app?vid=0c3ef846-11e6-428d-aec6-2b665ad80526","ios":"levelo://app?vid=0c3ef846-11e6-428d-aec6-2b665ad80526"},"vehicle_type_id":"4","last_reported":1748848294,"current_range_meters":6000,"station_id":"ce4bgjp2rcd13ifvqbh0","pricing_plan_id":"cebpf4jnsgd1na2vs0mg"},{"bike_id":"d635932c-fb27-4ddf-a9f3-1784d569d353","system_id":"levelo_inurba_marseille","lat":43.30952,"lon":5.39049,"is_reserved":false,"is_disabled":false,"rental_uris":{"android":"levelo://app?vid=d635932c-fb27-4ddf-a9f3-1784d569d353","ios":"levelo://app?vid=d635932c-fb27-4ddf-a9f3-1784d569d353"},"vehicle_type_id":"4","last_reported":1748848294,"current_range_meters":6000,"station_id":"ce4bgup2rcd13ifvqco0","pricing_plan_id":"cebpf4jnsgd1na2vs0mg"},{"bike_id":"b5e638a3-1d1a-488e-a4d3-ab2572669fa5","system_id":"levelo_inurba_marseille","lat":43.28,"lon":5.40006,"is_reserved":false,"is_disabled":false,"rental_uris":{"android":"levelo://app?vid=b5e638a3-1d1a-488e-a4d3-ab2572669fa5","ios":"levelo://app?vid=b5e638a3-1d1a-488e-a4d3-ab2572669fa5"},"vehicle_type_id":"4","last_reported":1748848294,"current_range_meters":6400,"station_id":"ce4bho92rcd13ifvqh4g","pricing_plan_id":"cebpf4jnsgd1na2vs0mg"},{"bike_id":"16e295f2-a0a6-485e-90f2-bf9c4074bc16","system_id":"levelo_inurba_marseille","lat":43.24653,"lon":5.38895,"is_reserved":false,"is_disabled":false,"rental_uris":{"android":"levelo://app?vid=16e295f2-a0a6-485e-90f2-bf9c4074bc16","ios":"levelo://app?vid=16e295f2-a0a6-485e-90f2-bf9c4074bc16"},"vehicle_type_id":"4","last_reported":1748848294,"current_range_meters":6400,"station_id":"ce4bhg12rcd13ifvqf60","pricing_plan_id":"cebpf4jnsgd1na2vs0mg"},{"bike_id":"5f8af6a1-9afe-4bba-ba6f-65a2c9868741","system_id":"levelo_inurba_marseille","lat":43.30608,"lon":5.39359,"is_reserved":false,"is_disabled":false,"rental_uris":{"android":"levelo://app?vid=5f8af6a1-9afe-4bba-ba6f-65a2c9868741","ios":"levelo://app?vid=5f8af6a1-9afe-4bba-ba6f-65a2c9868741"},"vehicle_type_id":"4","last_reported":1748848294,"current_range_meters":6400,"station_id":"ce4bh0p2rcd13ifvqd80","pricing_plan_id":"cebpf4jnsgd1na2vs0mg"},{"bike_id":"032d9196-0bcc-4c00-8f0b-c8d75de4fa2a","system_id":"levelo_inurba_marseille","lat":43.30137,"lon":5.37413,"is_reserved":false,"is_disabled":false,"rental_uris":{"android":"levelo://app?vid=032d9196-0bcc-4c00-8f0b-c8d75de4fa2a","ios":"levelo://app?vid=032d9196-0bcc-4c00-8f0b-c8d75de4fa2a"},"vehicle_type_id":"4","last_reported":1748848294,"current_range_meters":6400,"station_id":"ce4bgs92rcd13ifvqcc0","pricing_plan_id":"cebpf4jnsgd1na2vs0mg"},{"bike_id":"4c9f4c72-ea0d-488c-a185-89935a2aa1f2","system_id":"levelo_inurba_marseille","lat":43.29002,"lon":5.3562,"is_reserved":false,"is_disabled":false,"rental_uris":{"android":"levelo://app?vid=4c9f4c72-ea0d-488c-a185-89935a2aa1f2","ios":"levelo://app?vid=4c9f4c72-ea0d-488c-a185-89935a2aa1f2"},"vehicle_type_id":"4","last_reported":1748848294,"current_range_meters":6000,"station_id":"ce4bhb92rcd13ifvqen0","pricing_plan_id":"cebpf4jnsgd1na2vs0mg"},{"bike_id":"d813a2ca-2f9c-4471-b00f-34c7dde8026c","system_id":"levelo_inurba_marseille","lat":43.27591,"lon":5.39674,"is_reserved":false,"is_disabled":true,"rental_uris":{"android":"levelo://app?vid=d813a2ca-2f9c-4471-b00f-34c7dde8026c","ios":"levelo://app?vid=d813a2ca-2f9c-4471-b00f-34c7dde8026c"},"vehicle_type_id":"4","last_reported":1748848294,"current_range_meters":6400,"station_id":"","pricing_plan_id":"cebpf4jnsgd1na2vs0mg"},{"bike_id":"0e766e84-b556-4bd2-9bb4-d19f52af6645","system_id":"levelo_inurba_marseille","lat":43.32517,"lon":5.42366,"is_reserved":false,"is_disabled":false,"rental_uris":{"android":"levelo://app?vid=0e766e84-b556-4bd2-9bb4-d19f52af6645","ios":"levelo://app?vid=0e766e84-b556-4bd2-9bb4-d19f52af6645"},"vehicle_type_id":"4","last_reported":1748848294,"current_range_meters":6800,"station_id":"","pricing_plan_id":"cebpf4jnsgd1na2vs0mg"},{"bike_id":"7273030d-9adc-45f9-b57f-8a33ab49dd5a","system_id":"levelo_inurba_marseille","lat":43.21191,"lon":5.35074,"is_reserved":false,"is_disabled":true,"rental_uris":{"android":"levelo://app?vid=7273030d-9adc-45f9-b57f-8a33ab49dd5a","ios":"levelo://app?vid=7273030d-9adc-45f9-b57f-8a33ab49dd5a"},"vehicle_type_id":"4","last_reported":1748848294,"current_range_meters":6800,"station_id":"st_cvj6sg6p6f1abm77japg","pricing_plan_id":"cebpf4jnsgd1na2vs0mg"},{"bike_id":"01f31ddd-0bfc-44ff-9cf7-8b7bb9cc25af","system_id":"levelo_inurba_marseille","lat":43.30213,"lon":5.39471,"is_reserved":false,"is_disabled":false,"rental_uris":{"android":"levelo://app?vid=01f31ddd-0bfc-44ff-9cf7-8b7bb9cc25af","ios":"levelo://app?vid=01f31ddd-0bfc-44ff-9cf7-8b7bb9cc25af"},"vehicle_type_id":"4","last_reported":1748848294,"current_range_meters":6800,"station_id":"ce4bh0p2rcd13ifvqd70","pricing_plan_id":"cebpf4jnsgd1na2vs0mg"},{"bike_id":"d7ba427a-1c1c-411c-8450-22a5988a0975","system_id":"levelo_inurba_marseille","lat":43.31693,"lon":5.40454,"is_reserved":false,"is_disabled":false,"rental_uris":{"android":"levelo://app?vid=d7ba427a-1c1c-411c-8450-22a5988a0975","ios":"levelo://app?vid=d7ba427a-1c1c-411c-8450-22a5988a0975"},"vehicle_type_id":"4","last_reported":1748848294,"current_range_meters":6800,"station_id":"ce4bh012rcd13ifvqd00","pricing_plan_id":"cebpf4jnsgd1na2vs0mg"},{"bike_id":"f2d24b18-d214-4b88-99a9-26c99e5fd23c","system_id":"levelo_inurba_marseille","lat":43.24641,"lon":5.39317,"is_reserved":false,"is_disabled":false,"rental_uris":{"android":"levelo://app?vid=f2d24b18-d214-4b88-99a9-26c99e5fd23c","ios":"levelo://app?vid=f2d24b18-d214-4b88-99a9-26c99e5fd23c"},"vehicle_type_id":"4","last_reported":1748848294,"current_range_meters":6800,"station_id":"","pricing_plan_id":"cebpf4jnsgd1na2vs0mg"},{"bike_id":"1a97a51a-da6c-40c8-a46d-96a784b85657","system_id":"levelo_inurba_marseille","lat":43.29037,"lon":5.39962,"is_reserved":false,"is_disabled":false,"rental_uris":{"android":"levelo://app?vid=1a97a51a-da6c-40c8-a46d-96a784b85657","ios":"levelo://app?vid=1a97a51a-da6c-40c8-a46d-96a784b85657"},"vehicle_type_id":"4","last_reported":1748848294,"current_range_meters":6800,"station_id":"ce4bh392rcd13ifvqdm0","pricing_plan_id":"cebpf4jnsgd1na2vs0mg"},{"bike_id":"25fb632f-5679-4e1c-96de-780cae2672db","system_id":"levelo_inurba_marseille","lat":43.3066,"lon":5.40082,"is_reserved":false,"is_disabled":true,"rental_uris":{"android":"levelo://app?vid=25fb632f-5679-4e1c-96de-780cae2672db","ios":"levelo://app?vid=25fb632f-5679-4e1c-96de-780cae2672db"},"vehicle_type_id":"4","last_reported":1748848294,"current_range_meters":7200,"station_id":"ce4bh112rcd13ifvqda0","pricing_plan_id":"cebpf4jnsgd1na2vs0mg"},{"bike_id":"de1a5d2c-8f20-4ee2-b4b8-3f3d32c81f16","system_id":"levelo_inurba_marseille","lat":43.30374,"lon":5.42489,"is_reserved":false,"is_disabled":false,"rental_uris":{"android":"levelo://app?vid=de1a5d2c-8f20-4ee2-b4b8-3f3d32c81f16","ios":"levelo://app?vid=de1a5d2c-8f20-4ee2-b4b8-3f3d32c81f16"},"vehicle_type_id":"4","last_reported":1748848294,"current_range_meters":7200,"station_id":"ce4bhoh2rcd13ifvqh6g","pricing_plan_id":"cebpf4jnsgd1na2vs0mg"},{"bike_id":"b2ff4bdb-99fa-4fb3-92b3-628b3e6fd3a9","system_id":"levelo_inurba_marseille","lat":43.30149,"lon":5.38104,"is_reserved":false,"is_disabled":false,"rental_uris":{"android":"levelo://app?vid=b2ff4bdb-99fa-4fb3-92b3-628b3e6fd3a9","ios":"levelo://app?vid=b2ff4bdb-99fa-4fb3-92b3-628b3e6fd3a9"},"vehicle_type_id":"4","last_reported":1748848294,"current_range_meters":7200,"station_id":"ce4bgjp2rcd13ifvqbh0","pricing_plan_id":"cebpf4jnsgd1na2vs0mg"},{"bike_id":"3806d50a-00fe-4b01-aa0d-bc7a7f9177b1","system_id":"levelo_inurba_marseille","lat":43.27337,"lon":5.39087,"is_reserved":false,"is_disabled":false,"rental_uris":{"android":"levelo://app?vid=3806d50a-00fe-4b01-aa0d-bc7a7f9177b1","ios":"levelo://app?vid=3806d50a-00fe-4b01-aa0d-bc7a7f9177b1"},"vehicle_type_id":"4","last_reported":1748848294,"current_range_meters":7200,"station_id":"ce4bhgp2rcd13ifvqfe0","pricing_plan_id":"cebpf4jnsgd1na2vs0mg"},{"bike_id":"a279170c-4e5d-4875-9608-7eec130d02a4","system_id":"levelo_inurba_marseille","lat":43.30911,"lon":5.36849,"is_reserved":false,"is_disabled":false,"rental_uris":{"android":"levelo://app?vid=a279170c-4e5d-4875-9608-7eec130d02a4","ios":"levelo://app?vid=a279170c-4e5d-4875-9608-7eec130d02a4"},"vehicle_type_id":"4","last_reported":1748848294,"current_range_meters":7200,"station_id":"ce4bgn92rcd13ifvqbvg","pricing_plan_id":"cebpf4jnsgd1na2vs0mg"},{"bike_id":"5ef067e7-b281-4ef9-ad2a-1c6b02a54c04","system_id":"levelo_inurba_marseille","lat":43.319473,"lon":5.440643,"is_reserved":false,"is_disabled":false,"rental_uris":{"android":"levelo://app?vid=5ef067e7-b281-4ef9-ad2a-1c6b02a54c04","ios":"levelo://app?vid=5ef067e7-b281-4ef9-ad2a-1c6b02a54c04"},"vehicle_type_id":"4","last_reported":1748848294,"current_range_meters":7200,"station_id":"","pricing_plan_id":"cebpf4jnsgd1na2vs0mg"},{"bike_id":"228397f0-f948-41be-8ad5-419d106fe459","system_id":"levelo_inurba_marseille","lat":43.25928,"lon":5.40905,"is_reserved":false,"is_disabled":false,"rental_uris":{"android":"levelo://app?vid=228397f0-f948-41be-8ad5-419d106fe459","ios":"levelo://app?vid=228397f0-f948-41be-8ad5-419d106fe459"},"vehicle_type_id":"4","last_reported":1748848294,"current_range_meters":7200,"station_id":"ce4bhm92rcd13ifvqglg","pricing_plan_id":"cebpf4jnsgd1na2vs0mg"},{"bike_id":"94f43558-c2b4-41a2-907e-cbc340232580","system_id":"levelo_inurba_marseille","lat":43.22512,"lon":5.34776,"is_reserved":false,"is_disabled":true,"rental_uris":{"android":"levelo://app?vid=94f43558-c2b4-41a2-907e-cbc340232580","ios":"levelo://app?vid=94f43558-c2b4-41a2-907e-cbc340232580"},"vehicle_type_id":"4","last_reported":1748848294,"current_range_meters":8000,"station_id":"st_cvj5dfep6f1abm77gieg","pricing_plan_id":"cebpf4jnsgd1na2vs0mg"},{"bike_id":"28efabed-853b-4429-aae7-48463f59a794","system_id":"levelo_inurba_marseille","lat":43.24909,"lon":5.397133,"is_reserved":false,"is_disabled":false,"rental_uris":{"android":"levelo://app?vid=28efabed-853b-4429-aae7-48463f59a794","ios":"levelo://app?vid=28efabed-853b-4429-aae7-48463f59a794"},"vehicle_type_id":"4","last_reported":1748848294,"current_range_meters":8000,"station_id":"","pricing_plan_id":"cebpf4jnsgd1na2vs0mg"},{"bike_id":"999388a7-0db4-4bd2-b012-5be22a589fe7","system_id":"levelo_inurba_marseille","lat":43.27574,"lon":5.377793,"is_reserved":false,"is_disabled":false,"rental_uris":{"android":"levelo://app?vid=999388a7-0db4-4bd2-b012-5be22a589fe7","ios":"levelo://app?vid=999388a7-0db4-4bd2-b012-5be22a589fe7"},"vehicle_type_id":"4","last_reported":1748848294,"current_range_meters":8000,"station_id":"","pricing_plan_id":"cebpf4jnsgd1na2vs0mg"},{"bike_id":"cca271ec-b62a-407d-9e94-7b79046df8d0","system_id":"levelo_inurba_marseille","lat":43.31477,"lon":5.37293,"is_reserved":false,"is_disabled":false,"rental_uris":{"android":"levelo://app?vid=cca271ec-b62a-407d-9e94-7b79046df8d0","ios":"levelo://app?vid=cca271ec-b62a-407d-9e94-7b79046df8d0"},"vehicle_type_id":"4","last_reported":1748848294,"current_range_meters":8000,"station_id":"ce4bgt12rcd13ifvqcd0","pricing_plan_id":"cebpf4jnsgd1na2vs0mg"},{"bike_id":"3daa8af5-dc19-4d84-a6ce-4cbd81d98afc","system_id":"levelo_inurba_marseille","lat":43.30567,"lon":5.38943,"is_reserved":false,"is_disabled":false,"rental_uris":{"android":"levelo://app?vid=3daa8af5-dc19-4d84-a6ce-4cbd81d98afc","ios":"levelo://app?vid=3daa8af5-dc19-4d84-a6ce-4cbd81d98afc"},"vehicle_type_id":"4","last_reported":1748848294,"current_range_meters":8000,"station_id":"","pricing_plan_id":"cebpf4jnsgd1na2vs0mg"},{"bike_id":"49f71857-a3b7-4069-892f-8e2b0d960a42","system_id":"levelo_inurba_marseille","lat":43.32289,"lon":5.382655,"is_reserved":false,"is_disabled":true,"rental_uris":{"android":"levelo://app?vid=49f71857-a3b7-4069-892f-8e2b0d960a42","ios":"levelo://app?vid=49f71857-a3b7-4069-892f-8e2b0d960a42"},"vehicle_type_id":"4","last_reported":1748848294,"current_range_meters":8000,"station_id":"ce4bhr12rcd13ifvqhqg","pricing_plan_id":"cebpf4jnsgd1na2vs0mg"},{"bike_id":"e61c98c1-2097-47f5-ba8f-fad807b0f3be","system_id":"levelo_inurba_marseille","lat":43.328723,"lon":5.40504,"is_reserved":false,"is_disabled":false,"rental_uris":{"android":"levelo://app?vid=e61c98c1-2097-47f5-ba8f-fad807b0f3be","ios":"levelo://app?vid=e61c98c1-2097-47f5-ba8f-fad807b0f3be"},"vehicle_type_id":"4","last_reported":1748848294,"current_range_meters":8000,"station_id":"","pricing_plan_id":"cebpf4jnsgd1na2vs0mg"},{"bike_id":"b075a6bd-434c-47c3-a3ef-47ec92a26218","system_id":"levelo_inurba_marseille","lat":43.25931,"lon":5.40907,"is_reserved":false,"is_disabled":false,"rental_uris":{"android":"levelo://app?vid=b075a6bd-434c-47c3-a3ef-47ec92a26218","ios":"levelo://app?vid=b075a6bd-434c-47c3-a3ef-47ec92a26218"},"vehicle_type_id":"4","last_reported":1748848294,"current_range_meters":8000,"station_id":"ce4bhm92rcd13ifvqglg","pricing_plan_id":"cebpf4jnsgd1na2vs0mg"},{"bike_id":"7264244a-cec6-4e60-841b-4272e01b10a8","system_id":"levelo_inurba_marseille","lat":43.3031,"lon":5.36894,"is_reserved":false,"is_disabled":false,"rental_uris":{"android":"levelo://app?vid=7264244a-cec6-4e60-841b-4272e01b10a8","ios":"levelo://app?vid=7264244a-cec6-4e60-841b-4272e01b10a8"},"vehicle_type_id":"4","last_reported":1748848294,"current_range_meters":7200,"station_id":"ce4bgqh2rcd13ifvqc5g","pricing_plan_id":"cebpf4jnsgd1na2vs0mg"},{"bike_id":"e210be7e-07b8-44d3-ae09-6702f28e2ae8","system_id":"levelo_inurba_marseille","lat":43.25103,"lon":5.3936,"is_reserved":false,"is_disabled":false,"rental_uris":{"android":"levelo://app?vid=e210be7e-07b8-44d3-ae09-6702f28e2ae8","ios":"levelo://app?vid=e210be7e-07b8-44d3-ae09-6702f28e2ae8"},"vehicle_type_id":"4","last_reported":1748848294,"current_range_meters":8000,"station_id":"","pricing_plan_id":"cebpf4jnsgd1na2vs0mg"},{"bike_id":"d58ea574-a5df-489d-8bcf-9931f6fe8b53","system_id":"levelo_inurba_marseille","lat":43.24074,"lon":5.37756,"is_reserved":false,"is_disabled":false,"rental_uris":{"android":"levelo://app?vid=d58ea574-a5df-489d-8bcf-9931f6fe8b53","ios":"levelo://app?vid=d58ea574-a5df-489d-8bcf-9931f6fe8b53"},"vehicle_type_id":"4","last_reported":1748848294,"current_range_meters":8400,"station_id":"ce4bhnp2rcd13ifvqgvg","pricing_plan_id":"cebpf4jnsgd1na2vs0mg"},{"bike_id":"195168cf-2c99-4aa4-a4e5-aa2a866f4f68","system_id":"levelo_inurba_marseille","lat":43.32021,"lon":5.41552,"is_reserved":false,"is_disabled":true,"rental_uris":{"android":"levelo://app?vid=195168cf-2c99-4aa4-a4e5-aa2a866f4f68","ios":"levelo://app?vid=195168cf-2c99-4aa4-a4e5-aa2a866f4f68"},"vehicle_type_id":"4","last_reported":1748848294,"current_range_meters":8400,"station_id":"ce4bhq92rcd13ifvqhkg","pricing_plan_id":"cebpf4jnsgd1na2vs0mg"},{"bike_id":"5184fa22-0b0f-467e-b976-e72642ebdacc","system_id":"levelo_inurba_marseille","lat":43.31225,"lon":5.36858,"is_reserved":false,"is_disabled":false,"rental_uris":{"android":"levelo://app?vid=5184fa22-0b0f-467e-b976-e72642ebdacc","ios":"levelo://app?vid=5184fa22-0b0f-467e-b976-e72642ebdacc"},"vehicle_type_id":"4","last_reported":1748848294,"current_range_meters":8400,"station_id":"ce4bgl92rcd13ifvqbq0","pricing_plan_id":"cebpf4jnsgd1na2vs0mg"},{"bike_id":"21ff3fb6-d282-4e8f-8c65-749c73573e4b","system_id":"levelo_inurba_marseille","lat":43.337313,"lon":5.391783,"is_reserved":false,"is_disabled":false,"rental_uris":{"android":"levelo://app?vid=21ff3fb6-d282-4e8f-8c65-749c73573e4b","ios":"levelo://app?vid=21ff3fb6-d282-4e8f-8c65-749c73573e4b"},"vehicle_type_id":"4","last_reported":1748848294,"current_range_meters":8400,"station_id":"ce4bhr92rcd13ifvqhsg","pricing_plan_id":"cebpf4jnsgd1na2vs0mg"},{"bike_id":"84e94b65-0704-41b9-b45c-33b81545a7c4","system_id":"levelo_inurba_marseille","lat":43.30322,"lon":5.36911,"is_reserved":false,"is_disabled":false,"rental_uris":{"android":"levelo://app?vid=84e94b65-0704-41b9-b45c-33b81545a7c4","ios":"levelo://app?vid=84e94b65-0704-41b9-b45c-33b81545a7c4"},"vehicle_type_id":"4","last_reported":1748848294,"current_range_meters":8400,"station_id":"ce4bgqh2rcd13ifvqc5g","pricing_plan_id":"cebpf4jnsgd1na2vs0mg"},{"bike_id":"5df05316-524d-4046-90a8-d4f2dfb87ecf","system_id":"levelo_inurba_marseille","lat":43.24371,"lon":5.38012,"is_reserved":false,"is_disabled":false,"rental_uris":{"android":"levelo://app?vid=5df05316-524d-4046-90a8-d4f2dfb87ecf","ios":"levelo://app?vid=5df05316-524d-4046-90a8-d4f2dfb87ecf"},"vehicle_type_id":"4","last_reported":1748848294,"current_range_meters":8400,"station_id":"","pricing_plan_id":"cebpf4jnsgd1na2vs0mg"},{"bike_id":"d95a8927-9413-4ee6-b8dd-9b96d5af8d5e","system_id":"levelo_inurba_marseille","lat":43.28355,"lon":5.35,"is_reserved":false,"is_disabled":false,"rental_uris":{"android":"levelo://app?vid=d95a8927-9413-4ee6-b8dd-9b96d5af8d5e","ios":"levelo://app?vid=d95a8927-9413-4ee6-b8dd-9b96d5af8d5e"},"vehicle_type_id":"4","last_reported":1748848294,"current_range_meters":8400,"station_id":"","pricing_plan_id":"cebpf4jnsgd1na2vs0mg"},{"bike_id":"229eedef-94f4-4176-87a0-c12e500146b0","system_id":"levelo_inurba_marseille","lat":43.27319,"lon":5.39107,"is_reserved":false,"is_disabled":false,"rental_uris":{"android":"levelo://app?vid=229eedef-94f4-4176-87a0-c12e500146b0","ios":"levelo://app?vid=229eedef-94f4-4176-87a0-c12e500146b0"},"vehicle_type_id":"4","last_reported":1748848294,"current_range_meters":8400,"station_id":"ce4bhgp2rcd13ifvqfe0","pricing_plan_id":"cebpf4jnsgd1na2vs0mg"},{"bike_id":"1817ee92-4441-455e-bf4c-a446be956a20","system_id":"levelo_inurba_marseille","lat":43.32353,"lon":5.38891,"is_reserved":false,"is_disabled":false,"rental_uris":{"android":"levelo://app?vid=1817ee92-4441-455e-bf4c-a446be956a20","ios":"levelo://app?vid=1817ee92-4441-455e-bf4c-a446be956a20"},"vehicle_type_id":"4","last_reported":1748848294,"current_range_meters":8400,"station_id":"ce4bhqp2rcd13ifvqhog","pricing_plan_id":"cebpf4jnsgd1na2vs0mg"},{"bike_id":"e79b9c63-6053-4c8d-91a0-7a638560108b","system_id":"levelo_inurba_marseille","lat":43.26787,"lon":5.39423,"is_reserved":false,"is_disabled":false,"rental_uris":{"android":"levelo://app?vid=e79b9c63-6053-4c8d-91a0-7a638560108b","ios":"levelo://app?vid=e79b9c63-6053-4c8d-91a0-7a638560108b"},"vehicle_type_id":"4","last_reported":1748848294,"current_range_meters":8400,"station_id":"ce4bhh12rcd13ifvqfg0","pricing_plan_id":"cebpf4jnsgd1na2vs0mg"},{"bike_id":"9ae06399-5dba-47b8-ac5a-0d7167227708","system_id":"levelo_inurba_marseille","lat":43.30535,"lon":5.36551,"is_reserved":false,"is_disabled":false,"rental_uris":{"android":"levelo://app?vid=9ae06399-5dba-47b8-ac5a-0d7167227708","ios":"levelo://app?vid=9ae06399-5dba-47b8-ac5a-0d7167227708"},"vehicle_type_id":"4","last_reported":1748848294,"current_range_meters":8400,"station_id":"ce4bgs12rcd13ifvqcag","pricing_plan_id":"cebpf4jnsgd1na2vs0mg"},{"bike_id":"559375f8-adf8-4cf2-9f1c-19a6693a74b5","system_id":"levelo_inurba_marseille","lat":43.29037,"lon":5.37571,"is_reserved":false,"is_disabled":false,"rental_uris":{"android":"levelo://app?vid=559375f8-adf8-4cf2-9f1c-19a6693a74b5","ios":"levelo://app?vid=559375f8-adf8-4cf2-9f1c-19a6693a74b5"},"vehicle_type_id":"4","last_reported":1748848294,"current_range_meters":8400,"station_id":"ce4bh692rcd13ifvqe90","pricing_plan_id":"cebpf4jnsgd1na2vs0mg"},{"bike_id":"9a189ee8-27ed-444b-b171-f705371af28f","system_id":"levelo_inurba_marseille","lat":43.282611,"lon":5.349083,"is_reserved":false,"is_disabled":false,"rental_uris":{"android":"levelo://app?vid=9a189ee8-27ed-444b-b171-f705371af28f","ios":"levelo://app?vid=9a189ee8-27ed-444b-b171-f705371af28f"},"vehicle_type_id":"4","last_reported":1748848294,"current_range_meters":8800,"station_id":"","pricing_plan_id":"cebpf4jnsgd1na2vs0mg"},{"bike_id":"fd3ed923-3d6c-4b0b-a5b1-195c6bb16e9d","system_id":"levelo_inurba_marseille","lat":43.30149,"lon":5.38083,"is_reserved":false,"is_disabled":false,"rental_uris":{"android":"levelo://app?vid=fd3ed923-3d6c-4b0b-a5b1-195c6bb16e9d","ios":"levelo://app?vid=fd3ed923-3d6c-4b0b-a5b1-195c6bb16e9d"},"vehicle_type_id":"4","last_reported":1748848294,"current_range_meters":8800,"station_id":"ce4bgjp2rcd13ifvqbh0","pricing_plan_id":"cebpf4jnsgd1na2vs0mg"},{"bike_id":"c205edc8-d0d2-4cb7-a8e7-8248baf001bc","system_id":"levelo_inurba_marseille","lat":43.25399,"lon":5.42407,"is_reserved":false,"is_disabled":false,"rental_uris":{"android":"levelo://app?vid=c205edc8-d0d2-4cb7-a8e7-8248baf001bc","ios":"levelo://app?vid=c205edc8-d0d2-4cb7-a8e7-8248baf001bc"},"vehicle_type_id":"4","last_reported":1748848294,"current_range_meters":8800,"station_id":"","pricing_plan_id":"cebpf4jnsgd1na2vs0mg"},{"bike_id":"52138315-f13b-4871-ab78-9e5155a1008c","system_id":"levelo_inurba_marseille","lat":43.322889,"lon":5.382773,"is_reserved":false,"is_disabled":false,"rental_uris":{"android":"levelo://app?vid=52138315-f13b-4871-ab78-9e5155a1008c","ios":"levelo://app?vid=52138315-f13b-4871-ab78-9e5155a1008c"},"vehicle_type_id":"4","last_reported":1748848294,"current_range_meters":8800,"station_id":"ce4bhr12rcd13ifvqhqg","pricing_plan_id":"cebpf4jnsgd1na2vs0mg"},{"bike_id":"8512c838-a713-4ef7-a228-5aa526170f21","system_id":"levelo_inurba_marseille","lat":43.2249,"lon":5.34785,"is_reserved":false,"is_disabled":false,"rental_uris":{"android":"levelo://app?vid=8512c838-a713-4ef7-a228-5aa526170f21","ios":"levelo://app?vid=8512c838-a713-4ef7-a228-5aa526170f21"},"vehicle_type_id":"4","last_reported":1748848294,"current_range_meters":8800,"station_id":"","pricing_plan_id":"cebpf4jnsgd1na2vs0mg"},{"bike_id":"f1d13554-ad01-461a-a2b1-01234f56d9a5","system_id":"levelo_inurba_marseille","lat":43.312067,"lon":5.401739,"is_reserved":false,"is_disabled":false,"rental_uris":{"android":"levelo://app?vid=f1d13554-ad01-461a-a2b1-01234f56d9a5","ios":"levelo://app?vid=f1d13554-ad01-461a-a2b1-01234f56d9a5"},"vehicle_type_id":"4","last_reported":1748848294,"current_range_meters":8800,"station_id":"","pricing_plan_id":"cebpf4jnsgd1na2vs0mg"},{"bike_id":"083bed53-26e8-434d-bff0-25f227fb2c60","system_id":"levelo_inurba_marseille","lat":43.30186,"lon":5.36624,"is_reserved":false,"is_disabled":false,"rental_uris":{"android":"levelo://app?vid=083bed53-26e8-434d-bff0-25f227fb2c60","ios":"levelo://app?vid=083bed53-26e8-434d-bff0-25f227fb2c60"},"vehicle_type_id":"4","last_reported":1748848294,"current_range_meters":9200,"station_id":"ce4bgrh2rcd13ifvqc8g","pricing_plan_id":"cebpf4jnsgd1na2vs0mg"},{"bike_id":"7b44173b-5d11-4c0b-8d16-0982084d4bdb","system_id":"levelo_inurba_marseille","lat":43.33732,"lon":5.391811,"is_reserved":false,"is_disabled":false,"rental_uris":{"android":"levelo://app?vid=7b44173b-5d11-4c0b-8d16-0982084d4bdb","ios":"levelo://app?vid=7b44173b-5d11-4c0b-8d16-0982084d4bdb"},"vehicle_type_id":"4","last_reported":1748848294,"current_range_meters":9200,"station_id":"ce4bhr92rcd13ifvqhsg","pricing_plan_id":"cebpf4jnsgd1na2vs0mg"},{"bike_id":"fe99d4b0-4271-4294-b845-45cde442a4ff","system_id":"levelo_inurba_marseille","lat":43.29629,"lon":5.40595,"is_reserved":false,"is_disabled":false,"rental_uris":{"android":"levelo://app?vid=fe99d4b0-4271-4294-b845-45cde442a4ff","ios":"levelo://app?vid=fe99d4b0-4271-4294-b845-45cde442a4ff"},"vehicle_type_id":"4","last_reported":1748848294,"current_range_meters":9200,"station_id":"ce4bh0h2rcd13ifvqd60","pricing_plan_id":"cebpf4jnsgd1na2vs0mg"},{"bike_id":"a0d8bc15-237c-49e2-a785-8e8c4a3082e8","system_id":"levelo_inurba_marseille","lat":43.2407,"lon":5.37768,"is_reserved":false,"is_disabled":false,"rental_uris":{"android":"levelo://app?vid=a0d8bc15-237c-49e2-a785-8e8c4a3082e8","ios":"levelo://app?vid=a0d8bc15-237c-49e2-a785-8e8c4a3082e8"},"vehicle_type_id":"4","last_reported":1748848294,"current_range_meters":9200,"station_id":"ce4bhnp2rcd13ifvqgvg","pricing_plan_id":"cebpf4jnsgd1na2vs0mg"},{"bike_id":"1fb0e14c-2ed2-49a1-9b22-dc8a7a1f919b","system_id":"levelo_inurba_marseille","lat":43.29247,"lon":5.40147,"is_reserved":false,"is_disabled":true,"rental_uris":{"android":"levelo://app?vid=1fb0e14c-2ed2-49a1-9b22-dc8a7a1f919b","ios":"levelo://app?vid=1fb0e14c-2ed2-49a1-9b22-dc8a7a1f919b"},"vehicle_type_id":"4","last_reported":1748848294,"current_range_meters":9200,"station_id":"ce4bh312rcd13ifvqdk0","pricing_plan_id":"cebpf4jnsgd1na2vs0mg"},{"bike_id":"3c714906-76f2-42cc-b185-ab332f5426c2","system_id":"levelo_inurba_marseille","lat":43.23094,"lon":5.40175,"is_reserved":false,"is_disabled":false,"rental_uris":{"android":"levelo://app?vid=3c714906-76f2-42cc-b185-ab332f5426c2","ios":"levelo://app?vid=3c714906-76f2-42cc-b185-ab332f5426c2"},"vehicle_type_id":"4","last_reported":1748848294,"current_range_meters":9200,"station_id":"","pricing_plan_id":"cebpf4jnsgd1na2vs0mg"},{"bike_id":"88600c54-3851-4227-bc2a-ec2aeb5e5a26","system_id":"levelo_inurba_marseille","lat":43.29423,"lon":5.38614,"is_reserved":false,"is_disabled":true,"rental_uris":{"android":"levelo://app?vid=88600c54-3851-4227-bc2a-ec2aeb5e5a26","ios":"levelo://app?vid=88600c54-3851-4227-bc2a-ec2aeb5e5a26"},"vehicle_type_id":"4","last_reported":1748848294,"current_range_meters":9200,"station_id":"ce4bh2h2rcd13ifvqdh0","pricing_plan_id":"cebpf4jnsgd1na2vs0mg"},{"bike_id":"d787cfdb-50c2-451d-8448-0eff07939f1e","system_id":"levelo_inurba_marseille","lat":43.231485,"lon":5.436945,"is_reserved":false,"is_disabled":false,"rental_uris":{"android":"levelo://app?vid=d787cfdb-50c2-451d-8448-0eff07939f1e","ios":"levelo://app?vid=d787cfdb-50c2-451d-8448-0eff07939f1e"},"vehicle_type_id":"4","last_reported":1748848294,"current_range_meters":9600,"station_id":"ce4bhmp2rcd13ifvqgog","pricing_plan_id":"cebpf4jnsgd1na2vs0mg"},{"bike_id":"f5a90625-b7e8-48a8-90c6-777efe255a32","system_id":"levelo_inurba_marseille","lat":43.25144,"lon":5.40922,"is_reserved":false,"is_disabled":false,"rental_uris":{"android":"levelo://app?vid=f5a90625-b7e8-48a8-90c6-777efe255a32","ios":"levelo://app?vid=f5a90625-b7e8-48a8-90c6-777efe255a32"},"vehicle_type_id":"4","last_reported":1748848294,"current_range_meters":9600,"station_id":"","pricing_plan_id":"cebpf4jnsgd1na2vs0mg"},{"bike_id":"77520d45-03bf-4b26-9f9b-8ac6c162ce6b","system_id":"levelo_inurba_marseille","lat":43.24378,"lon":5.41134,"is_reserved":false,"is_disabled":false,"rental_uris":{"android":"levelo://app?vid=77520d45-03bf-4b26-9f9b-8ac6c162ce6b","ios":"levelo://app?vid=77520d45-03bf-4b26-9f9b-8ac6c162ce6b"},"vehicle_type_id":"4","last_reported":1748848294,"current_range_meters":9600,"station_id":"","pricing_plan_id":"cebpf4jnsgd1na2vs0mg"},{"bike_id":"5defac1a-866d-48fe-ba46-ea8b88b73fbe","system_id":"levelo_inurba_marseille","lat":43.24068,"lon":5.37762,"is_reserved":false,"is_disabled":false,"rental_uris":{"android":"levelo://app?vid=5defac1a-866d-48fe-ba46-ea8b88b73fbe","ios":"levelo://app?vid=5defac1a-866d-48fe-ba46-ea8b88b73fbe"},"vehicle_type_id":"4","last_reported":1748848294,"current_range_meters":9600,"station_id":"ce4bhnp2rcd13ifvqgvg","pricing_plan_id":"cebpf4jnsgd1na2vs0mg"},{"bike_id":"60d8779b-d335-48e5-b4f1-b9da6adf75a8","system_id":"levelo_inurba_marseille","lat":43.21752,"lon":5.346,"is_reserved":false,"is_disabled":false,"rental_uris":{"android":"levelo://app?vid=60d8779b-d335-48e5-b4f1-b9da6adf75a8","ios":"levelo://app?vid=60d8779b-d335-48e5-b4f1-b9da6adf75a8"},"vehicle_type_id":"4","last_reported":1748848294,"current_range_meters":9600,"station_id":"st_cvj6r9ubvosntc0bgbag","pricing_plan_id":"cebpf4jnsgd1na2vs0mg"},{"bike_id":"952c8f86-978d-408b-9bcc-7c5a6a93d760","system_id":"levelo_inurba_marseille","lat":43.29254,"lon":5.38459,"is_reserved":false,"is_disabled":true,"rental_uris":{"android":"levelo://app?vid=952c8f86-978d-408b-9bcc-7c5a6a93d760","ios":"levelo://app?vid=952c8f86-978d-408b-9bcc-7c5a6a93d760"},"vehicle_type_id":"4","last_reported":1748848294,"current_range_meters":10000,"station_id":"ce4bh692rcd13ifvqea0","pricing_plan_id":"cebpf4jnsgd1na2vs0mg"},{"bike_id":"254e030c-a78f-41be-9494-6c89fd4aac35","system_id":"levelo_inurba_marseille","lat":43.28464,"lon":5.358953,"is_reserved":false,"is_disabled":true,"rental_uris":{"android":"levelo://app?vid=254e030c-a78f-41be-9494-6c89fd4aac35","ios":"levelo://app?vid=254e030c-a78f-41be-9494-6c89fd4aac35"},"vehicle_type_id":"4","last_reported":1748848294,"current_range_meters":10000,"station_id":"ce4bhah2rcd13ifvqei0","pricing_plan_id":"cebpf4jnsgd1na2vs0mg"},{"bike_id":"3c952f48-0392-47ee-8d16-2e0b591f9310","system_id":"levelo_inurba_marseille","lat":43.31993,"lon":5.38143,"is_reserved":false,"is_disabled":false,"rental_uris":{"android":"levelo://app?vid=3c952f48-0392-47ee-8d16-2e0b591f9310","ios":"levelo://app?vid=3c952f48-0392-47ee-8d16-2e0b591f9310"},"vehicle_type_id":"4","last_reported":1748848294,"current_range_meters":10000,"station_id":"ce4bhr12rcd13ifvqhpg","pricing_plan_id":"cebpf4jnsgd1na2vs0mg"},{"bike_id":"12f12f7d-5a9c-489c-804f-030e268658f0","system_id":"levelo_inurba_marseille","lat":43.25936,"lon":5.40907,"is_reserved":false,"is_disabled":false,"rental_uris":{"android":"levelo://app?vid=12f12f7d-5a9c-489c-804f-030e268658f0","ios":"levelo://app?vid=12f12f7d-5a9c-489c-804f-030e268658f0"},"vehicle_type_id":"4","last_reported":1748848294,"current_range_meters":10000,"station_id":"ce4bhm92rcd13ifvqglg","pricing_plan_id":"cebpf4jnsgd1na2vs0mg"},{"bike_id":"f8c310ff-7f1e-4846-a3ed-b26bf26e087f","system_id":"levelo_inurba_marseille","lat":43.29226,"lon":5.379079,"is_reserved":false,"is_disabled":false,"rental_uris":{"android":"levelo://app?vid=f8c310ff-7f1e-4846-a3ed-b26bf26e087f","ios":"levelo://app?vid=f8c310ff-7f1e-4846-a3ed-b26bf26e087f"},"vehicle_type_id":"4","last_reported":1748848294,"current_range_meters":10000,"station_id":"","pricing_plan_id":"cebpf4jnsgd1na2vs0mg"},{"bike_id":"4fc38c6c-42f3-4baa-8501-5e69717b2298","system_id":"levelo_inurba_marseille","lat":43.21771,"lon":5.34611,"is_reserved":false,"is_disabled":false,"rental_uris":{"android":"levelo://app?vid=4fc38c6c-42f3-4baa-8501-5e69717b2298","ios":"levelo://app?vid=4fc38c6c-42f3-4baa-8501-5e69717b2298"},"vehicle_type_id":"4","last_reported":1748848294,"current_range_meters":10000,"station_id":"st_cvj6r9ubvosntc0bgbag","pricing_plan_id":"cebpf4jnsgd1na2vs0mg"},{"bike_id":"0eb2c2ea-fa48-43d6-b119-07d1baf175d3","system_id":"levelo_inurba_marseille","lat":43.26208,"lon":5.37439,"is_reserved":false,"is_disabled":false,"rental_uris":{"android":"levelo://app?vid=0eb2c2ea-fa48-43d6-b119-07d1baf175d3","ios":"levelo://app?vid=0eb2c2ea-fa48-43d6-b119-07d1baf175d3"},"vehicle_type_id":"4","last_reported":1748848294,"current_range_meters":10000,"station_id":"ce4bhgp2rcd13ifvqfc0","pricing_plan_id":"cebpf4jnsgd1na2vs0mg"},{"bike_id":"91936707-9d0d-4f6e-820d-a385f999e82b","system_id":"levelo_inurba_marseille","lat":43.25579,"lon":5.38239,"is_reserved":false,"is_disabled":false,"rental_uris":{"android":"levelo://app?vid=91936707-9d0d-4f6e-820d-a385f999e82b","ios":"levelo://app?vid=91936707-9d0d-4f6e-820d-a385f999e82b"},"vehicle_type_id":"4","last_reported":1748848294,"current_range_meters":10000,"station_id":"ce4bhih2rcd13ifvqfs0","pricing_plan_id":"cebpf4jnsgd1na2vs0mg"},{"bike_id":"1dfceda9-eefd-4990-81a5-ce0b5ef2ef1f","system_id":"levelo_inurba_marseille","lat":43.31101,"lon":5.37762,"is_reserved":false,"is_disabled":false,"rental_uris":{"android":"levelo://app?vid=1dfceda9-eefd-4990-81a5-ce0b5ef2ef1f","ios":"levelo://app?vid=1dfceda9-eefd-4990-81a5-ce0b5ef2ef1f"},"vehicle_type_id":"4","last_reported":1748848294,"current_range_meters":10000,"station_id":"ce4bgt92rcd13ifvqcg0","pricing_plan_id":"cebpf4jnsgd1na2vs0mg"},{"bike_id":"b5806e8c-065c-41e5-8415-4e8c05eadebe","system_id":"levelo_inurba_marseille","lat":43.29219,"lon":5.36065,"is_reserved":false,"is_disabled":false,"rental_uris":{"android":"levelo://app?vid=b5806e8c-065c-41e5-8415-4e8c05eadebe","ios":"levelo://app?vid=b5806e8c-065c-41e5-8415-4e8c05eadebe"},"vehicle_type_id":"4","last_reported":1748848294,"current_range_meters":10000,"station_id":"ce4bhbh2rcd13ifvqeqg","pricing_plan_id":"cebpf4jnsgd1na2vs0mg"},{"bike_id":"157fac85-2c74-46dc-8373-f61ea8482be2","system_id":"levelo_inurba_marseille","lat":43.24674,"lon":5.38158,"is_reserved":false,"is_disabled":true,"rental_uris":{"android":"levelo://app?vid=157fac85-2c74-46dc-8373-f61ea8482be2","ios":"levelo://app?vid=157fac85-2c74-46dc-8373-f61ea8482be2"},"vehicle_type_id":"4","last_reported":1748848294,"current_range_meters":10000,"station_id":"ce4bhih2rcd13ifvqfr0","pricing_plan_id":"cebpf4jnsgd1na2vs0mg"},{"bike_id":"a5a49411-588e-4b5e-94a6-1c2ad2ee88eb","system_id":"levelo_inurba_marseille","lat":43.324747,"lon":5.424768,"is_reserved":false,"is_disabled":false,"rental_uris":{"android":"levelo://app?vid=a5a49411-588e-4b5e-94a6-1c2ad2ee88eb","ios":"levelo://app?vid=a5a49411-588e-4b5e-94a6-1c2ad2ee88eb"},"vehicle_type_id":"4","last_reported":1748848294,"current_range_meters":10000,"station_id":"","pricing_plan_id":"cebpf4jnsgd1na2vs0mg"},{"bike_id":"34c885b3-9051-4a61-9eb4-6a682bf342c0","system_id":"levelo_inurba_marseille","lat":43.26678,"lon":5.38276,"is_reserved":false,"is_disabled":false,"rental_uris":{"android":"levelo://app?vid=34c885b3-9051-4a61-9eb4-6a682bf342c0","ios":"levelo://app?vid=34c885b3-9051-4a61-9eb4-6a682bf342c0"},"vehicle_type_id":"4","last_reported":1748848294,"current_range_meters":10000,"station_id":"ce4bhg92rcd13ifvqf90","pricing_plan_id":"cebpf4jnsgd1na2vs0mg"},{"bike_id":"eac69aa8-c11e-4e90-ac72-cf6e2a480641","system_id":"levelo_inurba_marseille","lat":43.29296,"lon":5.37453,"is_reserved":false,"is_disabled":false,"rental_uris":{"android":"levelo://app?vid=eac69aa8-c11e-4e90-ac72-cf6e2a480641","ios":"levelo://app?vid=eac69aa8-c11e-4e90-ac72-cf6e2a480641"},"vehicle_type_id":"4","last_reported":1748848294,"current_range_meters":10000,"station_id":"ce4bgi12rcd13ifvqb70","pricing_plan_id":"cebpf4jnsgd1na2vs0mg"},{"bike_id":"eafc3cd6-d501-4048-abd6-eabf2b1a7db9","system_id":"levelo_inurba_marseille","lat":43.25927,"lon":5.40907,"is_reserved":false,"is_disabled":false,"rental_uris":{"android":"levelo://app?vid=eafc3cd6-d501-4048-abd6-eabf2b1a7db9","ios":"levelo://app?vid=eafc3cd6-d501-4048-abd6-eabf2b1a7db9"},"vehicle_type_id":"4","last_reported":1748848294,"current_range_meters":10800,"station_id":"ce4bhm92rcd13ifvqglg","pricing_plan_id":"cebpf4jnsgd1na2vs0mg"},{"bike_id":"64bae103-c9ba-4f2c-96ce-cb1f8066dedb","system_id":"levelo_inurba_marseille","lat":43.28283,"lon":5.431157,"is_reserved":false,"is_disabled":true,"rental_uris":{"android":"levelo://app?vid=64bae103-c9ba-4f2c-96ce-cb1f8066dedb","ios":"levelo://app?vid=64bae103-c9ba-4f2c-96ce-cb1f8066dedb"},"vehicle_type_id":"4","last_reported":1748848294,"current_range_meters":10800,"station_id":"","pricing_plan_id":"cebpf4jnsgd1na2vs0mg"},{"bike_id":"e49d7758-dc18-4d4e-bcfb-b4ffe60caf02","system_id":"levelo_inurba_marseille","lat":43.30535,"lon":5.36553,"is_reserved":false,"is_disabled":false,"rental_uris":{"android":"levelo://app?vid=e49d7758-dc18-4d4e-bcfb-b4ffe60caf02","ios":"levelo://app?vid=e49d7758-dc18-4d4e-bcfb-b4ffe60caf02"},"vehicle_type_id":"4","last_reported":1748848294,"current_range_meters":10800,"station_id":"ce4bgs12rcd13ifvqcag","pricing_plan_id":"cebpf4jnsgd1na2vs0mg"},{"bike_id":"02f43aa2-85ce-4d85-890c-b35128e04578","system_id":"levelo_inurba_marseille","lat":43.29046,"lon":5.39966,"is_reserved":false,"is_disabled":false,"rental_uris":{"android":"levelo://app?vid=02f43aa2-85ce-4d85-890c-b35128e04578","ios":"levelo://app?vid=02f43aa2-85ce-4d85-890c-b35128e04578"},"vehicle_type_id":"4","last_reported":1748848294,"current_range_meters":10800,"station_id":"ce4bh392rcd13ifvqdm0","pricing_plan_id":"cebpf4jnsgd1na2vs0mg"},{"bike_id":"97a58472-f76b-47e3-a716-281b120ccffa","system_id":"levelo_inurba_marseille","lat":43.27923,"lon":5.39574,"is_reserved":false,"is_disabled":true,"rental_uris":{"android":"levelo://app?vid=97a58472-f76b-47e3-a716-281b120ccffa","ios":"levelo://app?vid=97a58472-f76b-47e3-a716-281b120ccffa"},"vehicle_type_id":"4","last_reported":1748848294,"current_range_meters":10800,"station_id":"ce4bhf92rcd13ifvqf40","pricing_plan_id":"cebpf4jnsgd1na2vs0mg"},{"bike_id":"afd11a4c-ccc1-4628-93d2-581335e42eb8","system_id":"levelo_inurba_marseille","lat":43.25921,"lon":5.40894,"is_reserved":false,"is_disabled":false,"rental_uris":{"android":"levelo://app?vid=afd11a4c-ccc1-4628-93d2-581335e42eb8","ios":"levelo://app?vid=afd11a4c-ccc1-4628-93d2-581335e42eb8"},"vehicle_type_id":"4","last_reported":1748848294,"current_range_meters":10800,"station_id":"ce4bhm92rcd13ifvqglg","pricing_plan_id":"cebpf4jnsgd1na2vs0mg"},{"bike_id":"48063303-4f1b-4047-8d3d-af4488fa2bc5","system_id":"levelo_inurba_marseille","lat":43.323658,"lon":5.3674,"is_reserved":false,"is_disabled":false,"rental_uris":{"android":"levelo://app?vid=48063303-4f1b-4047-8d3d-af4488fa2bc5","ios":"levelo://app?vid=48063303-4f1b-4047-8d3d-af4488fa2bc5"},"vehicle_type_id":"4","last_reported":1748848294,"current_range_meters":10800,"station_id":"ce4bhsh2rcd13ifvqi2g","pricing_plan_id":"cebpf4jnsgd1na2vs0mg"},{"bike_id":"d1f9fd8c-d8c6-4862-984b-dd0bcba6ceb2","system_id":"levelo_inurba_marseille","lat":43.315033,"lon":5.373053,"is_reserved":false,"is_disabled":false,"rental_uris":{"android":"levelo://app?vid=d1f9fd8c-d8c6-4862-984b-dd0bcba6ceb2","ios":"levelo://app?vid=d1f9fd8c-d8c6-4862-984b-dd0bcba6ceb2"},"vehicle_type_id":"4","last_reported":1748848294,"current_range_meters":10800,"station_id":"","pricing_plan_id":"cebpf4jnsgd1na2vs0mg"},{"bike_id":"c104565e-fd88-4af7-ba55-750f679f0c2b","system_id":"levelo_inurba_marseille","lat":43.30451,"lon":5.37914,"is_reserved":false,"is_disabled":true,"rental_uris":{"android":"levelo://app?vid=c104565e-fd88-4af7-ba55-750f679f0c2b","ios":"levelo://app?vid=c104565e-fd88-4af7-ba55-750f679f0c2b"},"vehicle_type_id":"4","last_reported":1748848294,"current_range_meters":11200,"station_id":"ce4bgup2rcd13ifvqcn0","pricing_plan_id":"cebpf4jnsgd1na2vs0mg"},{"bike_id":"5353c7d1-8365-43e2-9012-f5ccd844bad6","system_id":"levelo_inurba_marseille","lat":43.26501,"lon":5.39537,"is_reserved":false,"is_disabled":false,"rental_uris":{"android":"levelo://app?vid=5353c7d1-8365-43e2-9012-f5ccd844bad6","ios":"levelo://app?vid=5353c7d1-8365-43e2-9012-f5ccd844bad6"},"vehicle_type_id":"4","last_reported":1748848294,"current_range_meters":11200,"station_id":"ce4bhi12rcd13ifvqfq0","pricing_plan_id":"cebpf4jnsgd1na2vs0mg"},{"bike_id":"b0e77b09-837f-49a5-816e-2b333aa54c52","system_id":"levelo_inurba_marseille","lat":43.28664,"lon":5.38698,"is_reserved":false,"is_disabled":false,"rental_uris":{"android":"levelo://app?vid=b0e77b09-837f-49a5-816e-2b333aa54c52","ios":"levelo://app?vid=b0e77b09-837f-49a5-816e-2b333aa54c52"},"vehicle_type_id":"4","last_reported":1748848294,"current_range_meters":11200,"station_id":"ce4bh492rcd13ifvqdug","pricing_plan_id":"cebpf4jnsgd1na2vs0mg"},{"bike_id":"b7453952-6102-452b-aa0a-56c91927b535","system_id":"levelo_inurba_marseille","lat":43.269511,"lon":5.386301,"is_reserved":false,"is_disabled":false,"rental_uris":{"android":"levelo://app?vid=b7453952-6102-452b-aa0a-56c91927b535","ios":"levelo://app?vid=b7453952-6102-452b-aa0a-56c91927b535"},"vehicle_type_id":"4","last_reported":1748848294,"current_range_meters":10800,"station_id":"ce4bhh92rcd13ifvqfh0","pricing_plan_id":"cebpf4jnsgd1na2vs0mg"},{"bike_id":"66a91aed-fc0e-4755-8515-3360c96a955c","system_id":"levelo_inurba_marseille","lat":43.33609,"lon":5.4104,"is_reserved":false,"is_disabled":false,"rental_uris":{"android":"levelo://app?vid=66a91aed-fc0e-4755-8515-3360c96a955c","ios":"levelo://app?vid=66a91aed-fc0e-4755-8515-3360c96a955c"},"vehicle_type_id":"4","last_reported":1748848294,"current_range_meters":11200,"station_id":"ce4bhqh2rcd13ifvqhmg","pricing_plan_id":"cebpf4jnsgd1na2vs0mg"},{"bike_id":"7ee35776-1400-4ef6-97b6-94fcd4770e40","system_id":"levelo_inurba_marseille","lat":43.30186,"lon":5.36627,"is_reserved":false,"is_disabled":false,"rental_uris":{"android":"levelo://app?vid=7ee35776-1400-4ef6-97b6-94fcd4770e40","ios":"levelo://app?vid=7ee35776-1400-4ef6-97b6-94fcd4770e40"},"vehicle_type_id":"4","last_reported":1748848294,"current_range_meters":11200,"station_id":"ce4bgrh2rcd13ifvqc8g","pricing_plan_id":"cebpf4jnsgd1na2vs0mg"},{"bike_id":"9f5506a2-7319-4021-ac08-7ece130e4127","system_id":"levelo_inurba_marseille","lat":43.2941,"lon":5.38605,"is_reserved":false,"is_disabled":false,"rental_uris":{"android":"levelo://app?vid=9f5506a2-7319-4021-ac08-7ece130e4127","ios":"levelo://app?vid=9f5506a2-7319-4021-ac08-7ece130e4127"},"vehicle_type_id":"4","last_reported":1748848294,"current_range_meters":11600,"station_id":"ce4bh2h2rcd13ifvqdh0","pricing_plan_id":"cebpf4jnsgd1na2vs0mg"},{"bike_id":"e4f2e553-75d1-42a7-95cb-b18b90074a93","system_id":"levelo_inurba_marseille","lat":43.317433,"lon":5.387701,"is_reserved":false,"is_disabled":false,"rental_uris":{"android":"levelo://app?vid=e4f2e553-75d1-42a7-95cb-b18b90074a93","ios":"levelo://app?vid=e4f2e553-75d1-42a7-95cb-b18b90074a93"},"vehicle_type_id":"4","last_reported":1748848294,"current_range_meters":11600,"station_id":"","pricing_plan_id":"cebpf4jnsgd1na2vs0mg"},{"bike_id":"8a9014c8-9c87-4901-b285-5cc956592793","system_id":"levelo_inurba_marseille","lat":43.28972,"lon":5.37835,"is_reserved":false,"is_disabled":false,"rental_uris":{"android":"levelo://app?vid=8a9014c8-9c87-4901-b285-5cc956592793","ios":"levelo://app?vid=8a9014c8-9c87-4901-b285-5cc956592793"},"vehicle_type_id":"4","last_reported":1748848294,"current_range_meters":11600,"station_id":"ce4bh9p2rcd13ifvqed0","pricing_plan_id":"cebpf4jnsgd1na2vs0mg"},{"bike_id":"107243e1-6cad-4a3e-8160-f2f6f9572ad9","system_id":"levelo_inurba_marseille","lat":43.28691,"lon":5.39998,"is_reserved":false,"is_disabled":false,"rental_uris":{"android":"levelo://app?vid=107243e1-6cad-4a3e-8160-f2f6f9572ad9","ios":"levelo://app?vid=107243e1-6cad-4a3e-8160-f2f6f9572ad9"},"vehicle_type_id":"4","last_reported":1748848294,"current_range_meters":12000,"station_id":"ce4bho92rcd13ifvqh3g","pricing_plan_id":"cebpf4jnsgd1na2vs0mg"},{"bike_id":"a8af9193-1f0b-4e5d-99a2-be78ccabc55b","system_id":"levelo_inurba_marseille","lat":43.311931,"lon":5.416234,"is_reserved":false,"is_disabled":false,"rental_uris":{"android":"levelo://app?vid=a8af9193-1f0b-4e5d-99a2-be78ccabc55b","ios":"levelo://app?vid=a8af9193-1f0b-4e5d-99a2-be78ccabc55b"},"vehicle_type_id":"4","last_reported":1748848294,"current_range_meters":12000,"station_id":"","pricing_plan_id":"cebpf4jnsgd1na2vs0mg"},{"bike_id":"66494907-53c4-4ce6-a20a-6700c28f8abd","system_id":"levelo_inurba_marseille","lat":43.27476,"lon":5.43614,"is_reserved":false,"is_disabled":false,"rental_uris":{"android":"levelo://app?vid=66494907-53c4-4ce6-a20a-6700c28f8abd","ios":"levelo://app?vid=66494907-53c4-4ce6-a20a-6700c28f8abd"},"vehicle_type_id":"4","last_reported":1748848294,"current_range_meters":12400,"station_id":"","pricing_plan_id":"cebpf4jnsgd1na2vs0mg"},{"bike_id":"68751ed8-5def-44dd-9302-814c6cb074a4","system_id":"levelo_inurba_marseille","lat":43.31375,"lon":5.36674,"is_reserved":false,"is_disabled":false,"rental_uris":{"android":"levelo://app?vid=68751ed8-5def-44dd-9302-814c6cb074a4","ios":"levelo://app?vid=68751ed8-5def-44dd-9302-814c6cb074a4"},"vehicle_type_id":"4","last_reported":1748848294,"current_range_meters":12400,"station_id":"ce4bgr92rcd13ifvqc6g","pricing_plan_id":"cebpf4jnsgd1na2vs0mg"},{"bike_id":"730ef340-c186-4f89-b14c-df4f09693af6","system_id":"levelo_inurba_marseille","lat":43.25936,"lon":5.40907,"is_reserved":false,"is_disabled":false,"rental_uris":{"android":"levelo://app?vid=730ef340-c186-4f89-b14c-df4f09693af6","ios":"levelo://app?vid=730ef340-c186-4f89-b14c-df4f09693af6"},"vehicle_type_id":"4","last_reported":1748848294,"current_range_meters":12400,"station_id":"ce4bhm92rcd13ifvqglg","pricing_plan_id":"cebpf4jnsgd1na2vs0mg"},{"bike_id":"03f2c807-2b23-4f78-a442-eebfa37529d1","system_id":"levelo_inurba_marseille","lat":43.31487,"lon":5.3729,"is_reserved":false,"is_disabled":false,"rental_uris":{"android":"levelo://app?vid=03f2c807-2b23-4f78-a442-eebfa37529d1","ios":"levelo://app?vid=03f2c807-2b23-4f78-a442-eebfa37529d1"},"vehicle_type_id":"4","last_reported":1748848294,"current_range_meters":12800,"station_id":"ce4bgt12rcd13ifvqcd0","pricing_plan_id":"cebpf4jnsgd1na2vs0mg"},{"bike_id":"f4256101-7da9-4f81-9625-8f307792445d","system_id":"levelo_inurba_marseille","lat":43.32487,"lon":5.36566,"is_reserved":false,"is_disabled":false,"rental_uris":{"android":"levelo://app?vid=f4256101-7da9-4f81-9625-8f307792445d","ios":"levelo://app?vid=f4256101-7da9-4f81-9625-8f307792445d"},"vehicle_type_id":"4","last_reported":1748848294,"current_range_meters":12400,"station_id":"ce4bhs12rcd13ifvqhvg","pricing_plan_id":"cebpf4jnsgd1na2vs0mg"},{"bike_id":"f9707e64-f3a2-4626-8e27-5509f44d3427","system_id":"levelo_inurba_marseille","lat":43.24175,"lon":5.36404,"is_reserved":false,"is_disabled":true,"rental_uris":{"android":"levelo://app?vid=f9707e64-f3a2-4626-8e27-5509f44d3427","ios":"levelo://app?vid=f9707e64-f3a2-4626-8e27-5509f44d3427"},"vehicle_type_id":"4","last_reported":1748848294,"current_range_meters":12800,"station_id":"cpo36qri1sfpv3e86is0","pricing_plan_id":"cebpf4jnsgd1na2vs0mg"},{"bike_id":"0cc99022-c694-4dc2-a755-671f47cf4524","system_id":"levelo_inurba_marseille","lat":43.30539,"lon":5.36709,"is_reserved":false,"is_disabled":false,"rental_uris":{"android":"levelo://app?vid=0cc99022-c694-4dc2-a755-671f47cf4524","ios":"levelo://app?vid=0cc99022-c694-4dc2-a755-671f47cf4524"},"vehicle_type_id":"4","last_reported":1748848294,"current_range_meters":12800,"station_id":"ce4bgrp2rcd13ifvqc9g","pricing_plan_id":"cebpf4jnsgd1na2vs0mg"},{"bike_id":"26697777-8bc0-46b1-9852-76d77a369f54","system_id":"levelo_inurba_marseille","lat":43.23192,"lon":5.355563,"is_reserved":false,"is_disabled":false,"rental_uris":{"android":"levelo://app?vid=26697777-8bc0-46b1-9852-76d77a369f54","ios":"levelo://app?vid=26697777-8bc0-46b1-9852-76d77a369f54"},"vehicle_type_id":"4","last_reported":1748848294,"current_range_meters":12800,"station_id":"ce4bhu92rcd13ifvqi70","pricing_plan_id":"cebpf4jnsgd1na2vs0mg"},{"bike_id":"1c852e15-f3a3-4d30-8fb8-bdbf508a2685","system_id":"levelo_inurba_marseille","lat":43.29037,"lon":5.37569,"is_reserved":false,"is_disabled":false,"rental_uris":{"android":"levelo://app?vid=1c852e15-f3a3-4d30-8fb8-bdbf508a2685","ios":"levelo://app?vid=1c852e15-f3a3-4d30-8fb8-bdbf508a2685"},"vehicle_type_id":"4","last_reported":1748848294,"current_range_meters":12400,"station_id":"ce4bh692rcd13ifvqe90","pricing_plan_id":"cebpf4jnsgd1na2vs0mg"},{"bike_id":"f2f3dfd6-2d1e-4684-a087-37f03a4c6723","system_id":"levelo_inurba_marseille","lat":43.26569,"lon":5.39016,"is_reserved":false,"is_disabled":false,"rental_uris":{"android":"levelo://app?vid=f2f3dfd6-2d1e-4684-a087-37f03a4c6723","ios":"levelo://app?vid=f2f3dfd6-2d1e-4684-a087-37f03a4c6723"},"vehicle_type_id":"4","last_reported":1748848294,"current_range_meters":12800,"station_id":"ce4bhe12rcd13ifvqf30","pricing_plan_id":"cebpf4jnsgd1na2vs0mg"},{"bike_id":"dd532de6-672a-4fd7-8b6c-2ad425c0c828","system_id":"levelo_inurba_marseille","lat":43.241639,"lon":5.39737,"is_reserved":false,"is_disabled":false,"rental_uris":{"android":"levelo://app?vid=dd532de6-672a-4fd7-8b6c-2ad425c0c828","ios":"levelo://app?vid=dd532de6-672a-4fd7-8b6c-2ad425c0c828"},"vehicle_type_id":"4","last_reported":1748848294,"current_range_meters":12800,"station_id":"ce4bhn12rcd13ifvqgpg","pricing_plan_id":"cebpf4jnsgd1na2vs0mg"},{"bike_id":"8adfb0cc-29f5-47e5-b404-a8059ceb3716","system_id":"levelo_inurba_marseille","lat":43.30921,"lon":5.36845,"is_reserved":false,"is_disabled":false,"rental_uris":{"android":"levelo://app?vid=8adfb0cc-29f5-47e5-b404-a8059ceb3716","ios":"levelo://app?vid=8adfb0cc-29f5-47e5-b404-a8059ceb3716"},"vehicle_type_id":"4","last_reported":1748848294,"current_range_meters":12400,"station_id":"ce4bgn92rcd13ifvqbvg","pricing_plan_id":"cebpf4jnsgd1na2vs0mg"},{"bike_id":"acbe00fc-31af-42d7-9eb4-6f976caf4873","system_id":"levelo_inurba_marseille","lat":43.24183,"lon":5.39723,"is_reserved":false,"is_disabled":false,"rental_uris":{"android":"levelo://app?vid=acbe00fc-31af-42d7-9eb4-6f976caf4873","ios":"levelo://app?vid=acbe00fc-31af-42d7-9eb4-6f976caf4873"},"vehicle_type_id":"4","last_reported":1748848294,"current_range_meters":12800,"station_id":"ce4bhn12rcd13ifvqgpg","pricing_plan_id":"cebpf4jnsgd1na2vs0mg"},{"bike_id":"42459521-cadb-44bf-9880-2945be9893e9","system_id":"levelo_inurba_marseille","lat":43.24065,"lon":5.37762,"is_reserved":false,"is_disabled":false,"rental_uris":{"android":"levelo://app?vid=42459521-cadb-44bf-9880-2945be9893e9","ios":"levelo://app?vid=42459521-cadb-44bf-9880-2945be9893e9"},"vehicle_type_id":"4","last_reported":1748848294,"current_range_meters":13600,"station_id":"ce4bhnp2rcd13ifvqgvg","pricing_plan_id":"cebpf4jnsgd1na2vs0mg"},{"bike_id":"fc3b0086-a94f-43f7-92e6-6c648f93430f","system_id":"levelo_inurba_marseille","lat":43.32486,"lon":5.36555,"is_reserved":false,"is_disabled":false,"rental_uris":{"android":"levelo://app?vid=fc3b0086-a94f-43f7-92e6-6c648f93430f","ios":"levelo://app?vid=fc3b0086-a94f-43f7-92e6-6c648f93430f"},"vehicle_type_id":"4","last_reported":1748848294,"current_range_meters":13600,"station_id":"ce4bhs12rcd13ifvqhvg","pricing_plan_id":"cebpf4jnsgd1na2vs0mg"},{"bike_id":"14c84fb5-0147-480a-aa89-3f9cddbf58ca","system_id":"levelo_inurba_marseille","lat":43.30276,"lon":5.37704,"is_reserved":false,"is_disabled":false,"rental_uris":{"android":"levelo://app?vid=14c84fb5-0147-480a-aa89-3f9cddbf58ca","ios":"levelo://app?vid=14c84fb5-0147-480a-aa89-3f9cddbf58ca"},"vehicle_type_id":"4","last_reported":1748848294,"current_range_meters":13600,"station_id":"ce4bguh2rcd13ifvqcj0","pricing_plan_id":"cebpf4jnsgd1na2vs0mg"},{"bike_id":"35ed2995-17a2-4549-bb55-810459c05dd0","system_id":"levelo_inurba_marseille","lat":43.26215,"lon":5.40447,"is_reserved":false,"is_disabled":false,"rental_uris":{"android":"levelo://app?vid=35ed2995-17a2-4549-bb55-810459c05dd0","ios":"levelo://app?vid=35ed2995-17a2-4549-bb55-810459c05dd0"},"vehicle_type_id":"4","last_reported":1748848294,"current_range_meters":13600,"station_id":"ce4bhmh2rcd13ifvqgmg","pricing_plan_id":"cebpf4jnsgd1na2vs0mg"},{"bike_id":"e8f928eb-0556-4a41-a297-1f7e2e0fd712","system_id":"levelo_inurba_marseille","lat":43.23182,"lon":5.39996,"is_reserved":false,"is_disabled":true,"rental_uris":{"android":"levelo://app?vid=e8f928eb-0556-4a41-a297-1f7e2e0fd712","ios":"levelo://app?vid=e8f928eb-0556-4a41-a297-1f7e2e0fd712"},"vehicle_type_id":"4","last_reported":1748848294,"current_range_meters":13600,"station_id":"ce4bhn12rcd13ifvqgqg","pricing_plan_id":"cebpf4jnsgd1na2vs0mg"},{"bike_id":"fd3bb2dd-fe37-4400-8e18-c874fa553d97","system_id":"levelo_inurba_marseille","lat":43.243601,"lon":5.411504,"is_reserved":false,"is_disabled":false,"rental_uris":{"android":"levelo://app?vid=fd3bb2dd-fe37-4400-8e18-c874fa553d97","ios":"levelo://app?vid=fd3bb2dd-fe37-4400-8e18-c874fa553d97"},"vehicle_type_id":"4","last_reported":1748848294,"current_range_meters":13600,"station_id":"","pricing_plan_id":"cebpf4jnsgd1na2vs0mg"},{"bike_id":"8a21807b-b65f-4906-aa1d-4518b719b52b","system_id":"levelo_inurba_marseille","lat":43.28719,"lon":5.37941,"is_reserved":false,"is_disabled":false,"rental_uris":{"android":"levelo://app?vid=8a21807b-b65f-4906-aa1d-4518b719b52b","ios":"levelo://app?vid=8a21807b-b65f-4906-aa1d-4518b719b52b"},"vehicle_type_id":"4","last_reported":1748848294,"current_range_meters":14000,"station_id":"ce4bh9p2rcd13ifvqec0","pricing_plan_id":"cebpf4jnsgd1na2vs0mg"},{"bike_id":"9eb50011-20a2-449d-9c2b-6c8883d58f90","system_id":"levelo_inurba_marseille","lat":43.30137,"lon":5.37432,"is_reserved":false,"is_disabled":false,"rental_uris":{"android":"levelo://app?vid=9eb50011-20a2-449d-9c2b-6c8883d58f90","ios":"levelo://app?vid=9eb50011-20a2-449d-9c2b-6c8883d58f90"},"vehicle_type_id":"4","last_reported":1748848294,"current_range_meters":14000,"station_id":"ce4bgs92rcd13ifvqcc0","pricing_plan_id":"cebpf4jnsgd1na2vs0mg"},{"bike_id":"2ef7dc4c-755b-415c-b26c-13adbc773ab4","system_id":"levelo_inurba_marseille","lat":43.29283,"lon":5.40125,"is_reserved":false,"is_disabled":false,"rental_uris":{"android":"levelo://app?vid=2ef7dc4c-755b-415c-b26c-13adbc773ab4","ios":"levelo://app?vid=2ef7dc4c-755b-415c-b26c-13adbc773ab4"},"vehicle_type_id":"4","last_reported":1748848294,"current_range_meters":13600,"station_id":"ce4bh312rcd13ifvqdk0","pricing_plan_id":"cebpf4jnsgd1na2vs0mg"},{"bike_id":"a2a9fb40-1fdd-4434-a65d-ca7cb81fdeb9","system_id":"levelo_inurba_marseille","lat":43.29273,"lon":5.37595,"is_reserved":false,"is_disabled":false,"rental_uris":{"android":"levelo://app?vid=a2a9fb40-1fdd-4434-a65d-ca7cb81fdeb9","ios":"levelo://app?vid=a2a9fb40-1fdd-4434-a65d-ca7cb81fdeb9"},"vehicle_type_id":"4","last_reported":1748848294,"current_range_meters":14000,"station_id":"ce4bgi12rcd13ifvqb80","pricing_plan_id":"cebpf4jnsgd1na2vs0mg"},{"bike_id":"3240ead6-338b-43c1-8a38-512dd74438b6","system_id":"levelo_inurba_marseille","lat":43.30552,"lon":5.36525,"is_reserved":false,"is_disabled":false,"rental_uris":{"android":"levelo://app?vid=3240ead6-338b-43c1-8a38-512dd74438b6","ios":"levelo://app?vid=3240ead6-338b-43c1-8a38-512dd74438b6"},"vehicle_type_id":"4","last_reported":1748848294,"current_range_meters":14400,"station_id":"ce4bgs12rcd13ifvqcag","pricing_plan_id":"cebpf4jnsgd1na2vs0mg"},{"bike_id":"5759a6e4-9835-430d-a176-9ebe170b30d3","system_id":"levelo_inurba_marseille","lat":43.25107,"lon":5.40325,"is_reserved":false,"is_disabled":false,"rental_uris":{"android":"levelo://app?vid=5759a6e4-9835-430d-a176-9ebe170b30d3","ios":"levelo://app?vid=5759a6e4-9835-430d-a176-9ebe170b30d3"},"vehicle_type_id":"4","last_reported":1748848294,"current_range_meters":14000,"station_id":"ce4bhlh2rcd13ifvqgig","pricing_plan_id":"cebpf4jnsgd1na2vs0mg"},{"bike_id":"0912af3b-e0fb-4775-88c0-1e4866e55423","system_id":"levelo_inurba_marseille","lat":43.276766,"lon":5.388616,"is_reserved":false,"is_disabled":false,"rental_uris":{"android":"levelo://app?vid=0912af3b-e0fb-4775-88c0-1e4866e55423","ios":"levelo://app?vid=0912af3b-e0fb-4775-88c0-1e4866e55423"},"vehicle_type_id":"4","last_reported":1748848294,"current_range_meters":14400,"station_id":"ce4bhi12rcd13ifvqfo0","pricing_plan_id":"cebpf4jnsgd1na2vs0mg"},{"bike_id":"7ad062f4-26a6-4c8a-b137-29b7bdd52d40","system_id":"levelo_inurba_marseille","lat":43.29896,"lon":5.43673,"is_reserved":false,"is_disabled":false,"rental_uris":{"android":"levelo://app?vid=7ad062f4-26a6-4c8a-b137-29b7bdd52d40","ios":"levelo://app?vid=7ad062f4-26a6-4c8a-b137-29b7bdd52d40"},"vehicle_type_id":"4","last_reported":1748848294,"current_range_meters":14400,"station_id":"ce4bhpp2rcd13ifvqhfg","pricing_plan_id":"cebpf4jnsgd1na2vs0mg"},{"bike_id":"7526631e-91fe-4a41-a1fd-18d0efdd0274","system_id":"levelo_inurba_marseille","lat":43.28349,"lon":5.38103,"is_reserved":false,"is_disabled":false,"rental_uris":{"android":"levelo://app?vid=7526631e-91fe-4a41-a1fd-18d0efdd0274","ios":"levelo://app?vid=7526631e-91fe-4a41-a1fd-18d0efdd0274"},"vehicle_type_id":"4","last_reported":1748848294,"current_range_meters":14000,"station_id":"ce4bh412rcd13ifvqdr0","pricing_plan_id":"cebpf4jnsgd1na2vs0mg"},{"bike_id":"7f96108f-f592-4626-a63b-9065f4087587","system_id":"levelo_inurba_marseille","lat":43.262307,"lon":5.387677,"is_reserved":false,"is_disabled":false,"rental_uris":{"android":"levelo://app?vid=7f96108f-f592-4626-a63b-9065f4087587","ios":"levelo://app?vid=7f96108f-f592-4626-a63b-9065f4087587"},"vehicle_type_id":"4","last_reported":1748848294,"current_range_meters":14400,"station_id":"","pricing_plan_id":"cebpf4jnsgd1na2vs0mg"},{"bike_id":"5098ad57-4542-4f01-9f1f-a9d13acfea81","system_id":"levelo_inurba_marseille","lat":43.30461,"lon":5.37907,"is_reserved":false,"is_disabled":false,"rental_uris":{"android":"levelo://app?vid=5098ad57-4542-4f01-9f1f-a9d13acfea81","ios":"levelo://app?vid=5098ad57-4542-4f01-9f1f-a9d13acfea81"},"vehicle_type_id":"4","last_reported":1748848294,"current_range_meters":14800,"station_id":"ce4bgup2rcd13ifvqcn0","pricing_plan_id":"cebpf4jnsgd1na2vs0mg"},{"bike_id":"b56baf8c-caa7-4d0e-bad4-f4cd58aa9203","system_id":"levelo_inurba_marseille","lat":43.31223,"lon":5.36864,"is_reserved":false,"is_disabled":false,"rental_uris":{"android":"levelo://app?vid=b56baf8c-caa7-4d0e-bad4-f4cd58aa9203","ios":"levelo://app?vid=b56baf8c-caa7-4d0e-bad4-f4cd58aa9203"},"vehicle_type_id":"4","last_reported":1748848294,"current_range_meters":14800,"station_id":"ce4bgl92rcd13ifvqbq0","pricing_plan_id":"cebpf4jnsgd1na2vs0mg"},{"bike_id":"a97ec209-aa76-4ef3-89ec-8d881c8fb33c","system_id":"levelo_inurba_marseille","lat":43.26226,"lon":5.4045,"is_reserved":false,"is_disabled":false,"rental_uris":{"android":"levelo://app?vid=a97ec209-aa76-4ef3-89ec-8d881c8fb33c","ios":"levelo://app?vid=a97ec209-aa76-4ef3-89ec-8d881c8fb33c"},"vehicle_type_id":"4","last_reported":1748848294,"current_range_meters":14800,"station_id":"ce4bhmh2rcd13ifvqgmg","pricing_plan_id":"cebpf4jnsgd1na2vs0mg"},{"bike_id":"ed8e13b6-61d9-4b4c-90fb-9c3f7fef78b5","system_id":"levelo_inurba_marseille","lat":43.28907,"lon":5.37302,"is_reserved":false,"is_disabled":false,"rental_uris":{"android":"levelo://app?vid=ed8e13b6-61d9-4b4c-90fb-9c3f7fef78b5","ios":"levelo://app?vid=ed8e13b6-61d9-4b4c-90fb-9c3f7fef78b5"},"vehicle_type_id":"4","last_reported":1748848294,"current_range_meters":14800,"station_id":"","pricing_plan_id":"cebpf4jnsgd1na2vs0mg"},{"bike_id":"19c07eca-016f-479a-9bff-be38f52f81ce","system_id":"levelo_inurba_marseille","lat":43.21749,"lon":5.34603,"is_reserved":false,"is_disabled":false,"rental_uris":{"android":"levelo://app?vid=19c07eca-016f-479a-9bff-be38f52f81ce","ios":"levelo://app?vid=19c07eca-016f-479a-9bff-be38f52f81ce"},"vehicle_type_id":"4","last_reported":1748848294,"current_range_meters":14800,"station_id":"st_cvj6r9ubvosntc0bgbag","pricing_plan_id":"cebpf4jnsgd1na2vs0mg"},{"bike_id":"dc6c3444-9ba0-47fc-8611-9a1252aa910e","system_id":"levelo_inurba_marseille","lat":43.22504,"lon":5.34788,"is_reserved":false,"is_disabled":false,"rental_uris":{"android":"levelo://app?vid=dc6c3444-9ba0-47fc-8611-9a1252aa910e","ios":"levelo://app?vid=dc6c3444-9ba0-47fc-8611-9a1252aa910e"},"vehicle_type_id":"4","last_reported":1748848294,"current_range_meters":14800,"station_id":"st_cvj5dfep6f1abm77gieg","pricing_plan_id":"cebpf4jnsgd1na2vs0mg"},{"bike_id":"03e8d7ab-3c66-44c7-8eb1-fed27b4aa68c","system_id":"levelo_inurba_marseille","lat":43.27495,"lon":5.42449,"is_reserved":false,"is_disabled":false,"rental_uris":{"android":"levelo://app?vid=03e8d7ab-3c66-44c7-8eb1-fed27b4aa68c","ios":"levelo://app?vid=03e8d7ab-3c66-44c7-8eb1-fed27b4aa68c"},"vehicle_type_id":"4","last_reported":1748848294,"current_range_meters":15200,"station_id":"ce4bhn92rcd13ifvqgrg","pricing_plan_id":"cebpf4jnsgd1na2vs0mg"},{"bike_id":"3ca0e634-0db6-4da1-b363-f0ad4893e7ff","system_id":"levelo_inurba_marseille","lat":43.26683,"lon":5.38272,"is_reserved":false,"is_disabled":false,"rental_uris":{"android":"levelo://app?vid=3ca0e634-0db6-4da1-b363-f0ad4893e7ff","ios":"levelo://app?vid=3ca0e634-0db6-4da1-b363-f0ad4893e7ff"},"vehicle_type_id":"4","last_reported":1748848294,"current_range_meters":15200,"station_id":"ce4bhg92rcd13ifvqf90","pricing_plan_id":"cebpf4jnsgd1na2vs0mg"},{"bike_id":"5aabb07e-b02b-4368-a26a-47b1e2536717","system_id":"levelo_inurba_marseille","lat":43.25934,"lon":5.4091,"is_reserved":false,"is_disabled":false,"rental_uris":{"android":"levelo://app?vid=5aabb07e-b02b-4368-a26a-47b1e2536717","ios":"levelo://app?vid=5aabb07e-b02b-4368-a26a-47b1e2536717"},"vehicle_type_id":"4","last_reported":1748848294,"current_range_meters":15200,"station_id":"ce4bhm92rcd13ifvqglg","pricing_plan_id":"cebpf4jnsgd1na2vs0mg"},{"bike_id":"c0ac8dc1-1b09-4707-afe3-4286903a2431","system_id":"levelo_inurba_marseille","lat":43.25904,"lon":5.40889,"is_reserved":false,"is_disabled":false,"rental_uris":{"android":"levelo://app?vid=c0ac8dc1-1b09-4707-afe3-4286903a2431","ios":"levelo://app?vid=c0ac8dc1-1b09-4707-afe3-4286903a2431"},"vehicle_type_id":"4","last_reported":1748848294,"current_range_meters":15200,"station_id":"ce4bhm92rcd13ifvqglg","pricing_plan_id":"cebpf4jnsgd1na2vs0mg"},{"bike_id":"1bcca71f-ec81-4112-bda0-2cf1c9e02e0f","system_id":"levelo_inurba_marseille","lat":43.28438,"lon":5.39208,"is_reserved":false,"is_disabled":false,"rental_uris":{"android":"levelo://app?vid=1bcca71f-ec81-4112-bda0-2cf1c9e02e0f","ios":"levelo://app?vid=1bcca71f-ec81-4112-bda0-2cf1c9e02e0f"},"vehicle_type_id":"4","last_reported":1748848294,"current_range_meters":15200,"station_id":"ce4bhoh2rcd13ifvqh5g","pricing_plan_id":"cebpf4jnsgd1na2vs0mg"},{"bike_id":"e2746b36-8dd0-45f2-bbad-078e795c6b94","system_id":"levelo_inurba_marseille","lat":43.27054,"lon":5.40259,"is_reserved":false,"is_disabled":false,"rental_uris":{"android":"levelo://app?vid=e2746b36-8dd0-45f2-bbad-078e795c6b94","ios":"levelo://app?vid=e2746b36-8dd0-45f2-bbad-078e795c6b94"},"vehicle_type_id":"4","last_reported":1748848294,"current_range_meters":15200,"station_id":"ce4bhk92rcd13ifvqgc0","pricing_plan_id":"cebpf4jnsgd1na2vs0mg"},{"bike_id":"f72b423a-8a25-4c45-bc62-b01f19bf2d74","system_id":"levelo_inurba_marseille","lat":43.28148,"lon":5.42641,"is_reserved":false,"is_disabled":false,"rental_uris":{"android":"levelo://app?vid=f72b423a-8a25-4c45-bc62-b01f19bf2d74","ios":"levelo://app?vid=f72b423a-8a25-4c45-bc62-b01f19bf2d74"},"vehicle_type_id":"4","last_reported":1748848294,"current_range_meters":15200,"station_id":"ce4bhnh2rcd13ifvqgug","pricing_plan_id":"cebpf4jnsgd1na2vs0mg"},{"bike_id":"49f22349-8392-495d-854d-8b91399cbd8f","system_id":"levelo_inurba_marseille","lat":43.32569,"lon":5.42494,"is_reserved":false,"is_disabled":false,"rental_uris":{"android":"levelo://app?vid=49f22349-8392-495d-854d-8b91399cbd8f","ios":"levelo://app?vid=49f22349-8392-495d-854d-8b91399cbd8f"},"vehicle_type_id":"4","last_reported":1748848294,"current_range_meters":15200,"station_id":"","pricing_plan_id":"cebpf4jnsgd1na2vs0mg"},{"bike_id":"38f74677-db23-4252-8796-91fa79ec9c79","system_id":"levelo_inurba_marseille","lat":43.23147,"lon":5.43724,"is_reserved":false,"is_disabled":false,"rental_uris":{"android":"levelo://app?vid=38f74677-db23-4252-8796-91fa79ec9c79","ios":"levelo://app?vid=38f74677-db23-4252-8796-91fa79ec9c79"},"vehicle_type_id":"4","last_reported":1748848294,"current_range_meters":15200,"station_id":"ce4bhmp2rcd13ifvqgog","pricing_plan_id":"cebpf4jnsgd1na2vs0mg"},{"bike_id":"347344cc-d2d1-44d5-8687-eabba94ec5ef","system_id":"levelo_inurba_marseille","lat":43.32471,"lon":5.36569,"is_reserved":false,"is_disabled":false,"rental_uris":{"android":"levelo://app?vid=347344cc-d2d1-44d5-8687-eabba94ec5ef","ios":"levelo://app?vid=347344cc-d2d1-44d5-8687-eabba94ec5ef"},"vehicle_type_id":"4","last_reported":1748848294,"current_range_meters":15200,"station_id":"ce4bhs12rcd13ifvqhvg","pricing_plan_id":"cebpf4jnsgd1na2vs0mg"},{"bike_id":"255ef496-67cf-4fce-9a53-e61a9efb81bc","system_id":"levelo_inurba_marseille","lat":43.292215,"lon":5.400318,"is_reserved":false,"is_disabled":false,"rental_uris":{"android":"levelo://app?vid=255ef496-67cf-4fce-9a53-e61a9efb81bc","ios":"levelo://app?vid=255ef496-67cf-4fce-9a53-e61a9efb81bc"},"vehicle_type_id":"4","last_reported":1748848294,"current_range_meters":16000,"station_id":"","pricing_plan_id":"cebpf4jnsgd1na2vs0mg"},{"bike_id":"4d792978-04b8-4d9d-a4e5-25acbff07fed","system_id":"levelo_inurba_marseille","lat":43.2926,"lon":5.37606,"is_reserved":false,"is_disabled":false,"rental_uris":{"android":"levelo://app?vid=4d792978-04b8-4d9d-a4e5-25acbff07fed","ios":"levelo://app?vid=4d792978-04b8-4d9d-a4e5-25acbff07fed"},"vehicle_type_id":"4","last_reported":1748848294,"current_range_meters":16000,"station_id":"ce4bgi12rcd13ifvqb80","pricing_plan_id":"cebpf4jnsgd1na2vs0mg"},{"bike_id":"8553b8b5-1d4b-4e35-bbd4-ba8683e2110b","system_id":"levelo_inurba_marseille","lat":43.31343,"lon":5.36728,"is_reserved":false,"is_disabled":false,"rental_uris":{"android":"levelo://app?vid=8553b8b5-1d4b-4e35-bbd4-ba8683e2110b","ios":"levelo://app?vid=8553b8b5-1d4b-4e35-bbd4-ba8683e2110b"},"vehicle_type_id":"4","last_reported":1748848294,"current_range_meters":16000,"station_id":"ce4bgr92rcd13ifvqc6g","pricing_plan_id":"cebpf4jnsgd1na2vs0mg"},{"bike_id":"c9e24381-176b-4770-ad0d-da6d00744c01","system_id":"levelo_inurba_marseille","lat":43.23171,"lon":5.4366,"is_reserved":false,"is_disabled":false,"rental_uris":{"android":"levelo://app?vid=c9e24381-176b-4770-ad0d-da6d00744c01","ios":"levelo://app?vid=c9e24381-176b-4770-ad0d-da6d00744c01"},"vehicle_type_id":"4","last_reported":1748848294,"current_range_meters":16000,"station_id":"ce4bhmp2rcd13ifvqgog","pricing_plan_id":"cebpf4jnsgd1na2vs0mg"},{"bike_id":"469e1dc3-7d8e-4bde-bc03-0300341ebf36","system_id":"levelo_inurba_marseille","lat":43.241852,"lon":5.397062,"is_reserved":false,"is_disabled":false,"rental_uris":{"android":"levelo://app?vid=469e1dc3-7d8e-4bde-bc03-0300341ebf36","ios":"levelo://app?vid=469e1dc3-7d8e-4bde-bc03-0300341ebf36"},"vehicle_type_id":"4","last_reported":1748848294,"current_range_meters":16000,"station_id":"ce4bhn12rcd13ifvqgpg","pricing_plan_id":"cebpf4jnsgd1na2vs0mg"},{"bike_id":"d7a0365f-64d5-42ab-b7af-5b841378a557","system_id":"levelo_inurba_marseille","lat":43.3361,"lon":5.41038,"is_reserved":false,"is_disabled":false,"rental_uris":{"android":"levelo://app?vid=d7a0365f-64d5-42ab-b7af-5b841378a557","ios":"levelo://app?vid=d7a0365f-64d5-42ab-b7af-5b841378a557"},"vehicle_type_id":"4","last_reported":1748848294,"current_range_meters":16000,"station_id":"ce4bhqh2rcd13ifvqhmg","pricing_plan_id":"cebpf4jnsgd1na2vs0mg"},{"bike_id":"eedd22fd-c30b-46df-ae7d-1a8e0031966f","system_id":"levelo_inurba_marseille","lat":43.27966,"lon":5.38728,"is_reserved":false,"is_disabled":false,"rental_uris":{"android":"levelo://app?vid=eedd22fd-c30b-46df-ae7d-1a8e0031966f","ios":"levelo://app?vid=eedd22fd-c30b-46df-ae7d-1a8e0031966f"},"vehicle_type_id":"4","last_reported":1748848294,"current_range_meters":16000,"station_id":"ce4bhg12rcd13ifvqf80","pricing_plan_id":"cebpf4jnsgd1na2vs0mg"},{"bike_id":"8f8db83b-93a4-4fb2-b181-50b98bfbfc20","system_id":"levelo_inurba_marseille","lat":43.27939,"lon":5.38898,"is_reserved":false,"is_disabled":false,"rental_uris":{"android":"levelo://app?vid=8f8db83b-93a4-4fb2-b181-50b98bfbfc20","ios":"levelo://app?vid=8f8db83b-93a4-4fb2-b181-50b98bfbfc20"},"vehicle_type_id":"4","last_reported":1748848294,"current_range_meters":16000,"station_id":"","pricing_plan_id":"cebpf4jnsgd1na2vs0mg"},{"bike_id":"bac690e4-2de8-4772-b802-2affaff5cf4c","system_id":"levelo_inurba_marseille","lat":43.3046,"lon":5.37912,"is_reserved":false,"is_disabled":false,"rental_uris":{"android":"levelo://app?vid=bac690e4-2de8-4772-b802-2affaff5cf4c","ios":"levelo://app?vid=bac690e4-2de8-4772-b802-2affaff5cf4c"},"vehicle_type_id":"4","last_reported":1748848294,"current_range_meters":16000,"station_id":"ce4bgup2rcd13ifvqcn0","pricing_plan_id":"cebpf4jnsgd1na2vs0mg"},{"bike_id":"5635a678-885c-4ffb-a793-dc3b8a2a2755","system_id":"levelo_inurba_marseille","lat":43.323584,"lon":5.388926,"is_reserved":false,"is_disabled":false,"rental_uris":{"android":"levelo://app?vid=5635a678-885c-4ffb-a793-dc3b8a2a2755","ios":"levelo://app?vid=5635a678-885c-4ffb-a793-dc3b8a2a2755"},"vehicle_type_id":"4","last_reported":1748848294,"current_range_meters":16000,"station_id":"ce4bhqp2rcd13ifvqhog","pricing_plan_id":"cebpf4jnsgd1na2vs0mg"},{"bike_id":"21335fe1-e361-4f25-9703-649c07cc251d","system_id":"levelo_inurba_marseille","lat":43.320085,"lon":5.368065,"is_reserved":false,"is_disabled":false,"rental_uris":{"android":"levelo://app?vid=21335fe1-e361-4f25-9703-649c07cc251d","ios":"levelo://app?vid=21335fe1-e361-4f25-9703-649c07cc251d"},"vehicle_type_id":"4","last_reported":1748848294,"current_range_meters":16400,"station_id":"","pricing_plan_id":"cebpf4jnsgd1na2vs0mg"},{"bike_id":"3e12a5c4-055c-468d-8bcf-8fef782e4ba3","system_id":"levelo_inurba_marseille","lat":43.30544,"lon":5.36699,"is_reserved":false,"is_disabled":false,"rental_uris":{"android":"levelo://app?vid=3e12a5c4-055c-468d-8bcf-8fef782e4ba3","ios":"levelo://app?vid=3e12a5c4-055c-468d-8bcf-8fef782e4ba3"},"vehicle_type_id":"4","last_reported":1748848294,"current_range_meters":16400,"station_id":"ce4bgrp2rcd13ifvqc9g","pricing_plan_id":"cebpf4jnsgd1na2vs0mg"},{"bike_id":"197b20a9-fb45-4c71-b59f-2c5f5881928f","system_id":"levelo_inurba_marseille","lat":43.29576,"lon":5.3751,"is_reserved":false,"is_disabled":true,"rental_uris":{"android":"levelo://app?vid=197b20a9-fb45-4c71-b59f-2c5f5881928f","ios":"levelo://app?vid=197b20a9-fb45-4c71-b59f-2c5f5881928f"},"vehicle_type_id":"4","last_reported":1748848294,"current_range_meters":16400,"station_id":"ce4bgh92rcd13ifvqb50","pricing_plan_id":"cebpf4jnsgd1na2vs0mg"},{"bike_id":"9d86dbd1-067d-469f-9039-aa45c3743fb0","system_id":"levelo_inurba_marseille","lat":43.2878,"lon":5.4004,"is_reserved":false,"is_disabled":false,"rental_uris":{"android":"levelo://app?vid=9d86dbd1-067d-469f-9039-aa45c3743fb0","ios":"levelo://app?vid=9d86dbd1-067d-469f-9039-aa45c3743fb0"},"vehicle_type_id":"4","last_reported":1748848294,"current_range_meters":16400,"station_id":"","pricing_plan_id":"cebpf4jnsgd1na2vs0mg"},{"bike_id":"90725682-4229-4dbf-82c1-ddb4ea901585","system_id":"levelo_inurba_marseille","lat":43.24069,"lon":5.37756,"is_reserved":false,"is_disabled":false,"rental_uris":{"android":"levelo://app?vid=90725682-4229-4dbf-82c1-ddb4ea901585","ios":"levelo://app?vid=90725682-4229-4dbf-82c1-ddb4ea901585"},"vehicle_type_id":"4","last_reported":1748848294,"current_range_meters":16400,"station_id":"ce4bhnp2rcd13ifvqgvg","pricing_plan_id":"cebpf4jnsgd1na2vs0mg"},{"bike_id":"9770d4a3-077a-4ab0-9466-40bf0f079c6c","system_id":"levelo_inurba_marseille","lat":43.30908,"lon":5.36851,"is_reserved":false,"is_disabled":false,"rental_uris":{"android":"levelo://app?vid=9770d4a3-077a-4ab0-9466-40bf0f079c6c","ios":"levelo://app?vid=9770d4a3-077a-4ab0-9466-40bf0f079c6c"},"vehicle_type_id":"4","last_reported":1748848294,"current_range_meters":16400,"station_id":"ce4bgn92rcd13ifvqbvg","pricing_plan_id":"cebpf4jnsgd1na2vs0mg"},{"bike_id":"f4b0b884-376f-450e-853e-7c03e9f30767","system_id":"levelo_inurba_marseille","lat":43.24183,"lon":5.36425,"is_reserved":false,"is_disabled":false,"rental_uris":{"android":"levelo://app?vid=f4b0b884-376f-450e-853e-7c03e9f30767","ios":"levelo://app?vid=f4b0b884-376f-450e-853e-7c03e9f30767"},"vehicle_type_id":"4","last_reported":1748848294,"current_range_meters":16400,"station_id":"cpo36qri1sfpv3e86is0","pricing_plan_id":"cebpf4jnsgd1na2vs0mg"},{"bike_id":"92eaccc3-18b4-4913-bb72-2ac4355b702a","system_id":"levelo_inurba_marseille","lat":43.26686,"lon":5.38277,"is_reserved":false,"is_disabled":false,"rental_uris":{"android":"levelo://app?vid=92eaccc3-18b4-4913-bb72-2ac4355b702a","ios":"levelo://app?vid=92eaccc3-18b4-4913-bb72-2ac4355b702a"},"vehicle_type_id":"4","last_reported":1748848294,"current_range_meters":16400,"station_id":"ce4bhg92rcd13ifvqf90","pricing_plan_id":"cebpf4jnsgd1na2vs0mg"},{"bike_id":"2bfd6ef4-bfee-4cb3-8a4e-70732ecfeb94","system_id":"levelo_inurba_marseille","lat":43.28704,"lon":5.37388,"is_reserved":false,"is_disabled":false,"rental_uris":{"android":"levelo://app?vid=2bfd6ef4-bfee-4cb3-8a4e-70732ecfeb94","ios":"levelo://app?vid=2bfd6ef4-bfee-4cb3-8a4e-70732ecfeb94"},"vehicle_type_id":"4","last_reported":1748848294,"current_range_meters":16400,"station_id":"ce4bh3p2rcd13ifvqdq0","pricing_plan_id":"cebpf4jnsgd1na2vs0mg"},{"bike_id":"68427498-007c-4481-bf8b-b5a801a348a7","system_id":"levelo_inurba_marseille","lat":43.2531,"lon":5.39287,"is_reserved":false,"is_disabled":false,"rental_uris":{"android":"levelo://app?vid=68427498-007c-4481-bf8b-b5a801a348a7","ios":"levelo://app?vid=68427498-007c-4481-bf8b-b5a801a348a7"},"vehicle_type_id":"4","last_reported":1748848294,"current_range_meters":16400,"station_id":"ce4bhgp2rcd13ifvqfd0","pricing_plan_id":"cebpf4jnsgd1na2vs0mg"},{"bike_id":"21bcf505-1e28-4f15-9458-42e18ec21fcc","system_id":"levelo_inurba_marseille","lat":43.29744,"lon":5.3906,"is_reserved":false,"is_disabled":false,"rental_uris":{"android":"levelo://app?vid=21bcf505-1e28-4f15-9458-42e18ec21fcc","ios":"levelo://app?vid=21bcf505-1e28-4f15-9458-42e18ec21fcc"},"vehicle_type_id":"4","last_reported":1748848294,"current_range_meters":16800,"station_id":"","pricing_plan_id":"cebpf4jnsgd1na2vs0mg"},{"bike_id":"0d16f474-0514-4105-a3d8-0c17198701df","system_id":"levelo_inurba_marseille","lat":43.24384,"lon":5.37077,"is_reserved":false,"is_disabled":true,"rental_uris":{"android":"levelo://app?vid=0d16f474-0514-4105-a3d8-0c17198701df","ios":"levelo://app?vid=0d16f474-0514-4105-a3d8-0c17198701df"},"vehicle_type_id":"4","last_reported":1748848294,"current_range_meters":16800,"station_id":"ce4bhhh2rcd13ifvqfk0","pricing_plan_id":"cebpf4jnsgd1na2vs0mg"},{"bike_id":"50ede2b4-2ab7-4b85-b2b3-e56605ad0c64","system_id":"levelo_inurba_marseille","lat":43.31081,"lon":5.4243,"is_reserved":false,"is_disabled":false,"rental_uris":{"android":"levelo://app?vid=50ede2b4-2ab7-4b85-b2b3-e56605ad0c64","ios":"levelo://app?vid=50ede2b4-2ab7-4b85-b2b3-e56605ad0c64"},"vehicle_type_id":"4","last_reported":1748848294,"current_range_meters":16800,"station_id":"ce4bhp92rcd13ifvqhag","pricing_plan_id":"cebpf4jnsgd1na2vs0mg"},{"bike_id":"4d37de91-06b5-42bd-9f0e-e45e506c4181","system_id":"levelo_inurba_marseille","lat":43.2849,"lon":5.40781,"is_reserved":false,"is_disabled":false,"rental_uris":{"android":"levelo://app?vid=4d37de91-06b5-42bd-9f0e-e45e506c4181","ios":"levelo://app?vid=4d37de91-06b5-42bd-9f0e-e45e506c4181"},"vehicle_type_id":"4","last_reported":1748848294,"current_range_meters":16800,"station_id":"","pricing_plan_id":"cebpf4jnsgd1na2vs0mg"},{"bike_id":"713f7f64-e309-4b23-a642-b6d427cadd2c","system_id":"levelo_inurba_marseille","lat":43.25932,"lon":5.40911,"is_reserved":false,"is_disabled":false,"rental_uris":{"android":"levelo://app?vid=713f7f64-e309-4b23-a642-b6d427cadd2c","ios":"levelo://app?vid=713f7f64-e309-4b23-a642-b6d427cadd2c"},"vehicle_type_id":"4","last_reported":1748848294,"current_range_meters":16800,"station_id":"ce4bhm92rcd13ifvqglg","pricing_plan_id":"cebpf4jnsgd1na2vs0mg"},{"bike_id":"ae7aa735-1011-4857-8bab-7d6f9c7288e5","system_id":"levelo_inurba_marseille","lat":43.30543,"lon":5.36558,"is_reserved":false,"is_disabled":false,"rental_uris":{"android":"levelo://app?vid=ae7aa735-1011-4857-8bab-7d6f9c7288e5","ios":"levelo://app?vid=ae7aa735-1011-4857-8bab-7d6f9c7288e5"},"vehicle_type_id":"4","last_reported":1748848294,"current_range_meters":16800,"station_id":"ce4bgs12rcd13ifvqcag","pricing_plan_id":"cebpf4jnsgd1na2vs0mg"},{"bike_id":"4075fd4f-13c2-4504-ad8b-98c26acd73a7","system_id":"levelo_inurba_marseille","lat":43.29855,"lon":5.36292,"is_reserved":false,"is_disabled":false,"rental_uris":{"android":"levelo://app?vid=4075fd4f-13c2-4504-ad8b-98c26acd73a7","ios":"levelo://app?vid=4075fd4f-13c2-4504-ad8b-98c26acd73a7"},"vehicle_type_id":"4","last_reported":1748848294,"current_range_meters":16800,"station_id":"ce4bgpp2rcd13ifvqc3g","pricing_plan_id":"cebpf4jnsgd1na2vs0mg"},{"bike_id":"0ff8a7c8-d0c1-43e1-837a-b547476ec3e5","system_id":"levelo_inurba_marseille","lat":43.29042,"lon":5.39967,"is_reserved":false,"is_disabled":false,"rental_uris":{"android":"levelo://app?vid=0ff8a7c8-d0c1-43e1-837a-b547476ec3e5","ios":"levelo://app?vid=0ff8a7c8-d0c1-43e1-837a-b547476ec3e5"},"vehicle_type_id":"4","last_reported":1748848294,"current_range_meters":16800,"station_id":"ce4bh392rcd13ifvqdm0","pricing_plan_id":"cebpf4jnsgd1na2vs0mg"},{"bike_id":"ba0ad73f-9b93-48b9-a2f6-562edffece5f","system_id":"levelo_inurba_marseille","lat":43.30904,"lon":5.36834,"is_reserved":false,"is_disabled":false,"rental_uris":{"android":"levelo://app?vid=ba0ad73f-9b93-48b9-a2f6-562edffece5f","ios":"levelo://app?vid=ba0ad73f-9b93-48b9-a2f6-562edffece5f"},"vehicle_type_id":"4","last_reported":1748848294,"current_range_meters":16800,"station_id":"ce4bgn92rcd13ifvqbvg","pricing_plan_id":"cebpf4jnsgd1na2vs0mg"},{"bike_id":"04c0d0ae-d92d-4af3-8380-e0197cf9aefe","system_id":"levelo_inurba_marseille","lat":43.31358,"lon":5.36723,"is_reserved":false,"is_disabled":false,"rental_uris":{"android":"levelo://app?vid=04c0d0ae-d92d-4af3-8380-e0197cf9aefe","ios":"levelo://app?vid=04c0d0ae-d92d-4af3-8380-e0197cf9aefe"},"vehicle_type_id":"4","last_reported":1748848294,"current_range_meters":17200,"station_id":"ce4bgr92rcd13ifvqc6g","pricing_plan_id":"cebpf4jnsgd1na2vs0mg"},{"bike_id":"31c10cd3-b32f-40cf-b41b-378555a834a4","system_id":"levelo_inurba_marseille","lat":43.31348,"lon":5.36725,"is_reserved":false,"is_disabled":false,"rental_uris":{"android":"levelo://app?vid=31c10cd3-b32f-40cf-b41b-378555a834a4","ios":"levelo://app?vid=31c10cd3-b32f-40cf-b41b-378555a834a4"},"vehicle_type_id":"4","last_reported":1748848294,"current_range_meters":17200,"station_id":"ce4bgr92rcd13ifvqc6g","pricing_plan_id":"cebpf4jnsgd1na2vs0mg"},{"bike_id":"65b8dded-e66d-4253-ae43-8a60a8a57888","system_id":"levelo_inurba_marseille","lat":43.301424,"lon":5.374193,"is_reserved":false,"is_disabled":false,"rental_uris":{"android":"levelo://app?vid=65b8dded-e66d-4253-ae43-8a60a8a57888","ios":"levelo://app?vid=65b8dded-e66d-4253-ae43-8a60a8a57888"},"vehicle_type_id":"4","last_reported":1748848294,"current_range_meters":17200,"station_id":"ce4bgs92rcd13ifvqcc0","pricing_plan_id":"cebpf4jnsgd1na2vs0mg"},{"bike_id":"19513994-62e6-4905-bd06-585027b74d88","system_id":"levelo_inurba_marseille","lat":43.30466,"lon":5.37911,"is_reserved":false,"is_disabled":false,"rental_uris":{"android":"levelo://app?vid=19513994-62e6-4905-bd06-585027b74d88","ios":"levelo://app?vid=19513994-62e6-4905-bd06-585027b74d88"},"vehicle_type_id":"4","last_reported":1748848294,"current_range_meters":17200,"station_id":"ce4bgup2rcd13ifvqcn0","pricing_plan_id":"cebpf4jnsgd1na2vs0mg"},{"bike_id":"b301bb9a-e3e8-4b82-8e44-66fe01208815","system_id":"levelo_inurba_marseille","lat":43.31991,"lon":5.38139,"is_reserved":false,"is_disabled":false,"rental_uris":{"android":"levelo://app?vid=b301bb9a-e3e8-4b82-8e44-66fe01208815","ios":"levelo://app?vid=b301bb9a-e3e8-4b82-8e44-66fe01208815"},"vehicle_type_id":"4","last_reported":1748848294,"current_range_meters":17200,"station_id":"ce4bhr12rcd13ifvqhpg","pricing_plan_id":"cebpf4jnsgd1na2vs0mg"},{"bike_id":"5bf650cc-7d9d-46cd-98d7-5b8c3fab5635","system_id":"levelo_inurba_marseille","lat":43.25108,"lon":5.40321,"is_reserved":false,"is_disabled":false,"rental_uris":{"android":"levelo://app?vid=5bf650cc-7d9d-46cd-98d7-5b8c3fab5635","ios":"levelo://app?vid=5bf650cc-7d9d-46cd-98d7-5b8c3fab5635"},"vehicle_type_id":"4","last_reported":1748848294,"current_range_meters":17200,"station_id":"ce4bhlh2rcd13ifvqgig","pricing_plan_id":"cebpf4jnsgd1na2vs0mg"},{"bike_id":"82c0870e-7f78-4106-a5fc-74e60e8d99ac","system_id":"levelo_inurba_marseille","lat":43.264961,"lon":5.395263,"is_reserved":false,"is_disabled":false,"rental_uris":{"android":"levelo://app?vid=82c0870e-7f78-4106-a5fc-74e60e8d99ac","ios":"levelo://app?vid=82c0870e-7f78-4106-a5fc-74e60e8d99ac"},"vehicle_type_id":"4","last_reported":1748848294,"current_range_meters":17200,"station_id":"ce4bhi12rcd13ifvqfq0","pricing_plan_id":"cebpf4jnsgd1na2vs0mg"},{"bike_id":"e6cade14-f0e5-462d-a25e-494a5fbe8c1c","system_id":"levelo_inurba_marseille","lat":43.24382,"lon":5.37083,"is_reserved":false,"is_disabled":true,"rental_uris":{"android":"levelo://app?vid=e6cade14-f0e5-462d-a25e-494a5fbe8c1c","ios":"levelo://app?vid=e6cade14-f0e5-462d-a25e-494a5fbe8c1c"},"vehicle_type_id":"4","last_reported":1748848294,"current_range_meters":17200,"station_id":"ce4bhhh2rcd13ifvqfk0","pricing_plan_id":"cebpf4jnsgd1na2vs0mg"},{"bike_id":"54118256-087c-43a9-9b13-3e1a44a8703a","system_id":"levelo_inurba_marseille","lat":43.32003,"lon":5.3817,"is_reserved":false,"is_disabled":false,"rental_uris":{"android":"levelo://app?vid=54118256-087c-43a9-9b13-3e1a44a8703a","ios":"levelo://app?vid=54118256-087c-43a9-9b13-3e1a44a8703a"},"vehicle_type_id":"4","last_reported":1748848294,"current_range_meters":17200,"station_id":"ce4bhr12rcd13ifvqhpg","pricing_plan_id":"cebpf4jnsgd1na2vs0mg"},{"bike_id":"71ddedae-32aa-4a07-95bd-36a1a03db530","system_id":"levelo_inurba_marseille","lat":43.2797,"lon":5.3873,"is_reserved":false,"is_disabled":false,"rental_uris":{"android":"levelo://app?vid=71ddedae-32aa-4a07-95bd-36a1a03db530","ios":"levelo://app?vid=71ddedae-32aa-4a07-95bd-36a1a03db530"},"vehicle_type_id":"4","last_reported":1748848294,"current_range_meters":17600,"station_id":"ce4bhg12rcd13ifvqf80","pricing_plan_id":"cebpf4jnsgd1na2vs0mg"},{"bike_id":"8397b0e0-6576-4eaa-bb44-a841dc804263","system_id":"levelo_inurba_marseille","lat":43.27042,"lon":5.42376,"is_reserved":false,"is_disabled":false,"rental_uris":{"android":"levelo://app?vid=8397b0e0-6576-4eaa-bb44-a841dc804263","ios":"levelo://app?vid=8397b0e0-6576-4eaa-bb44-a841dc804263"},"vehicle_type_id":"4","last_reported":1748848294,"current_range_meters":17600,"station_id":"","pricing_plan_id":"cebpf4jnsgd1na2vs0mg"},{"bike_id":"d9e8adde-ab4e-4555-9c3a-318be610c0e8","system_id":"levelo_inurba_marseille","lat":43.241656,"lon":5.363995,"is_reserved":false,"is_disabled":false,"rental_uris":{"android":"levelo://app?vid=d9e8adde-ab4e-4555-9c3a-318be610c0e8","ios":"levelo://app?vid=d9e8adde-ab4e-4555-9c3a-318be610c0e8"},"vehicle_type_id":"4","last_reported":1748848294,"current_range_meters":17600,"station_id":"cpo36qri1sfpv3e86is0","pricing_plan_id":"cebpf4jnsgd1na2vs0mg"},{"bike_id":"c7e58958-5199-4f96-9f5d-f848d1261128","system_id":"levelo_inurba_marseille","lat":43.24085,"lon":5.37724,"is_reserved":false,"is_disabled":false,"rental_uris":{"android":"levelo://app?vid=c7e58958-5199-4f96-9f5d-f848d1261128","ios":"levelo://app?vid=c7e58958-5199-4f96-9f5d-f848d1261128"},"vehicle_type_id":"4","last_reported":1748848294,"current_range_meters":17600,"station_id":"ce4bhnp2rcd13ifvqgvg","pricing_plan_id":"cebpf4jnsgd1na2vs0mg"},{"bike_id":"a10d5475-b8c4-4d54-81b9-902d72a75aa1","system_id":"levelo_inurba_marseille","lat":43.295657,"lon":5.399727,"is_reserved":false,"is_disabled":false,"rental_uris":{"android":"levelo://app?vid=a10d5475-b8c4-4d54-81b9-902d72a75aa1","ios":"levelo://app?vid=a10d5475-b8c4-4d54-81b9-902d72a75aa1"},"vehicle_type_id":"4","last_reported":1748848294,"current_range_meters":17600,"station_id":"","pricing_plan_id":"cebpf4jnsgd1na2vs0mg"},{"bike_id":"352d19a7-b57a-484c-ab56-9346108e4a68","system_id":"levelo_inurba_marseille","lat":43.32605,"lon":5.37768,"is_reserved":false,"is_disabled":false,"rental_uris":{"android":"levelo://app?vid=352d19a7-b57a-484c-ab56-9346108e4a68","ios":"levelo://app?vid=352d19a7-b57a-484c-ab56-9346108e4a68"},"vehicle_type_id":"4","last_reported":1748848294,"current_range_meters":17600,"station_id":"","pricing_plan_id":"cebpf4jnsgd1na2vs0mg"},{"bike_id":"6b40d269-3252-44de-9099-c4e724d5d0fc","system_id":"levelo_inurba_marseille","lat":43.2594,"lon":5.40903,"is_reserved":false,"is_disabled":false,"rental_uris":{"android":"levelo://app?vid=6b40d269-3252-44de-9099-c4e724d5d0fc","ios":"levelo://app?vid=6b40d269-3252-44de-9099-c4e724d5d0fc"},"vehicle_type_id":"4","last_reported":1748848294,"current_range_meters":18000,"station_id":"ce4bhm92rcd13ifvqglg","pricing_plan_id":"cebpf4jnsgd1na2vs0mg"},{"bike_id":"cb11e957-34d8-4c77-9302-470d58e28ae3","system_id":"levelo_inurba_marseille","lat":43.31352,"lon":5.3673,"is_reserved":false,"is_disabled":false,"rental_uris":{"android":"levelo://app?vid=cb11e957-34d8-4c77-9302-470d58e28ae3","ios":"levelo://app?vid=cb11e957-34d8-4c77-9302-470d58e28ae3"},"vehicle_type_id":"4","last_reported":1748848294,"current_range_meters":18000,"station_id":"ce4bgr92rcd13ifvqc6g","pricing_plan_id":"cebpf4jnsgd1na2vs0mg"},{"bike_id":"34318ff3-73eb-4d46-8adb-472571986474","system_id":"levelo_inurba_marseille","lat":43.27497,"lon":5.42458,"is_reserved":false,"is_disabled":false,"rental_uris":{"android":"levelo://app?vid=34318ff3-73eb-4d46-8adb-472571986474","ios":"levelo://app?vid=34318ff3-73eb-4d46-8adb-472571986474"},"vehicle_type_id":"4","last_reported":1748848294,"current_range_meters":18000,"station_id":"ce4bhn92rcd13ifvqgrg","pricing_plan_id":"cebpf4jnsgd1na2vs0mg"},{"bike_id":"cd789c2a-06f5-4091-a55a-028989401210","system_id":"levelo_inurba_marseille","lat":43.337444,"lon":5.374475,"is_reserved":false,"is_disabled":false,"rental_uris":{"android":"levelo://app?vid=cd789c2a-06f5-4091-a55a-028989401210","ios":"levelo://app?vid=cd789c2a-06f5-4091-a55a-028989401210"},"vehicle_type_id":"4","last_reported":1748848294,"current_range_meters":18000,"station_id":"ce4bgup2rcd13ifvqcn0","pricing_plan_id":"cebpf4jnsgd1na2vs0mg"},{"bike_id":"39d9595c-2bba-4b57-a5e8-a949c25430ef","system_id":"levelo_inurba_marseille","lat":43.274778,"lon":5.439647,"is_reserved":false,"is_disabled":false,"rental_uris":{"android":"levelo://app?vid=39d9595c-2bba-4b57-a5e8-a949c25430ef","ios":"levelo://app?vid=39d9595c-2bba-4b57-a5e8-a949c25430ef"},"vehicle_type_id":"4","last_reported":1748848294,"current_range_meters":18000,"station_id":"","pricing_plan_id":"cebpf4jnsgd1na2vs0mg"},{"bike_id":"7c859edb-3387-461e-b9d3-ecf36f89835f","system_id":"levelo_inurba_marseille","lat":43.24385,"lon":5.37059,"is_reserved":false,"is_disabled":false,"rental_uris":{"android":"levelo://app?vid=7c859edb-3387-461e-b9d3-ecf36f89835f","ios":"levelo://app?vid=7c859edb-3387-461e-b9d3-ecf36f89835f"},"vehicle_type_id":"4","last_reported":1748848294,"current_range_meters":18800,"station_id":"ce4bhhh2rcd13ifvqfk0","pricing_plan_id":"cebpf4jnsgd1na2vs0mg"},{"bike_id":"cf675fd9-b8b1-4e2d-9372-61117485bbc9","system_id":"levelo_inurba_marseille","lat":43.31481,"lon":5.37312,"is_reserved":false,"is_disabled":false,"rental_uris":{"android":"levelo://app?vid=cf675fd9-b8b1-4e2d-9372-61117485bbc9","ios":"levelo://app?vid=cf675fd9-b8b1-4e2d-9372-61117485bbc9"},"vehicle_type_id":"4","last_reported":1748848294,"current_range_meters":18800,"station_id":"ce4bgt12rcd13ifvqcd0","pricing_plan_id":"cebpf4jnsgd1na2vs0mg"},{"bike_id":"b3c84680-d01b-4840-8e64-0ab7a5c9edd3","system_id":"levelo_inurba_marseille","lat":43.27506,"lon":5.42455,"is_reserved":false,"is_disabled":false,"rental_uris":{"android":"levelo://app?vid=b3c84680-d01b-4840-8e64-0ab7a5c9edd3","ios":"levelo://app?vid=b3c84680-d01b-4840-8e64-0ab7a5c9edd3"},