{"last_updated":1722535834,"ttl":30,"version":"2.2","data":{"bikes":[{"bike_id":"7bc3cb84-b6f7-4dab-b280-2e32eb2a4fb5","system_id":"levelo_inurba_marseille","lat":43.313391,"lon":5.36706,"is_reserved":false,"is_disabled":false,"rental_uris":{"android":"levelo://app?vid=7bc3cb84-b6f7-4dab-b280-2e32eb2a4fb5","ios":"levelo://app?vid=7bc3cb84-b6f7-4dab-b280-2e32eb2a4fb5"},"vehicle_type_id":"4","last_reported":1722535834,"current_range_meters":20400,"station_id":"ce4bgr92rcd13ifvqc6g","pricing_plan_id":"cebpf4jnsgd1na2vs0mg"},{"bike_id":"d9f85f66-7ecd-4eba-aba5-2e7e8f26da8d","system_id":"levelo_inurba_marseille","lat":43.31371,"lon":5.36829,"is_reserved":false,"is_disabled":false,"rental_uris":{"android":"levelo://app?vid=d9f85f66-7ecd-4eba-aba5-2e7e8f26da8d","ios":"levelo://app?vid=d9f85f66-7ecd-4eba-aba5-2e7e8f26da8d"},"vehicle_type_id":"4","last_reported":1722535834,"current_range_meters":0,"station_id":"","pricing_plan_id":"cebpf4jnsgd1na2vs0mg"},{"bike_id":"048da1cd-49a6-4ec8-9ca1-df026bd33908","system_id":"levelo_inurba_marseille","lat":43.31337,"lon":5.36925,"is_reserved":false,"is_disabled":false,"rental_uris":{"android":"levelo://app?vid=048da1cd-49a6-4ec8-9ca1-df026bd33908","ios":"levelo://app?vid=048da1cd-49a6-4ec8-9ca1-df026bd33908"},"vehicle_type_id":"4","last_reported":1722535834,"current_range_meters":12000,"station_id":"","pricing_plan_id":"cebpf4jnsgd1na2vs0mg"},{"bike_id":"2ddbd049-349a-46ea-a0a3-8b95e1685fcf","system_id":"levelo_inurba_marseille","lat":43.314811,"lon":5.373103,"is_reserved":false,"is_disabled":false,"rental_uris":{"android":"levelo://app?vid=2ddbd049-349a-46ea-a0a3-8b95e1685fcf","ios":"levelo://app?vid=2ddbd049-349a-46ea-a0a3-8b95e1685fcf"},"vehicle_type_id":"4","last_reported":1722535834,"current_range_meters":7600,"station_id":"ce4bgt12rcd13ifvqcd0","pricing_plan_id":"cebpf4jnsgd1na2vs0mg"},{"bike_id":"92e7cdea-3670-4833-a4ba-73446d238961","system_id":"levelo_inurba_marseille","lat":43.309039,"lon":5.371797,"is_reserved":false,"is_disabled":false,"rental_uris":{"android":"levelo://app?vid=92e7cdea-3670-4833-a4ba-73446d238961","ios":"levelo://app?vid=92e7cdea-3670-4833-a4ba-73446d238961"},"vehicle_type_id":"4","last_reported":1722535834,"current_range_meters":27200,"station_id":"ce4bguh2rcd13ifvqckg","pricing_plan_id":"cebpf4jnsgd1na2vs0mg"},{"bike_id":"7bf905b8-8fdf-42f6-b5d9-f3fec623d22c","system_id":"levelo_inurba_marseille","lat":43.309034,"lon":5.371783,"is_reserved":false,"is_disabled":false,"rental_uris":{"android":"levelo://app?vid=7bf905b8-8fdf-42f6-b5d9-f3fec623d22c","ios":"levelo://app?vid=7bf905b8-8fdf-42f6-b5d9-f3fec623d22c"},"vehicle_type_id":"4","last_reported":1722535834,"current_range_meters":16000,"station_id":"ce4bguh2rcd13ifvqckg","pricing_plan_id":"cebpf4jnsgd1na2vs0mg"},{"bike_id":"cb701f4a-f4bd-48af-9186-cbd297828448","system_id":"levelo_inurba_marseille","lat":43.30537,"lon":5.367345,"is_reserved":false,"is_disabled":false,"rental_uris":{"android":"levelo://app?vid=cb701f4a-f4bd-48af-9186-cbd297828448","ios":"levelo://app?vid=cb701f4a-f4bd-48af-9186-cbd297828448"},"vehicle_type_id":"4","last_reported":1722535834,"current_range_meters":24000,"station_id":"ce4bgrp2rcd13ifvqc9g","pricing_plan_id":"cebpf4jnsgd1na2vs0mg"},{"bike_id":"a6d19bc5-995c-4acb-b27c-5b05bcd905ae","system_id":"levelo_inurba_marseille","lat":43.305989,"lon":5.37225,"is_reserved":false,"is_disabled":false,"rental_uris":{"android":"levelo://app?vid=a6d19bc5-995c-4acb-b27c-5b05bcd905ae","ios":"levelo://app?vid=a6d19bc5-995c-4acb-b27c-5b05bcd905ae"},"vehicle_type_id":"4","last_reported":1722535834,"current_range_meters":16800,"station_id":"ce4bgqh2rcd13ifvqc4g","pricing_plan_id":"cebpf4jnsgd1na2vs0mg"},{"bike_id":"1dc271ae-db9d-41cd-8f52-1bfad8f8e08c","system_id":"levelo_inurba_marseille","lat":43.311131,"lon":5.377651,"is_reserved":false,"is_disabled":false,"rental_uris":{"android":"levelo://app?vid=1dc271ae-db9d-41cd-8f52-1bfad8f8e08c","ios":"levelo://app?vid=1dc271ae-db9d-41cd-8f52-1bfad8f8e08c"},"vehicle_type_id":"4","last_reported":1722535834,"current_range_meters":8800,"station_id":"ce4bgt92rcd13ifvqcg0","pricing_plan_id":"cebpf4jnsgd1na2vs0mg"},{"bike_id":"faae3723-38f5-460c-aef3-4d3035ae0789","system_id":"levelo_inurba_marseille","lat":43.311131,"lon":5.377651,"is_reserved":false,"is_disabled":false,"rental_uris":{"android":"levelo://app?vid=faae3723-38f5-460c-aef3-4d3035ae0789","ios":"levelo://app?vid=faae3723-38f5-460c-aef3-4d3035ae0789"},"vehicle_type_id":"4","last_reported":1722535834,"current_range_meters":24800,"station_id":"ce4bgt92rcd13ifvqcg0","pricing_plan_id":"cebpf4jnsgd1na2vs0mg"},{"bike_id":"2c957415-39c9-446b-8164-db634df2f11e","system_id":"levelo_inurba_marseille","lat":43.311131,"lon":5.377651,"is_reserved":false,"is_disabled":false,"rental_uris":{"android":"levelo://app?vid=2c957415-39c9-446b-8164-db634df2f11e","ios":"levelo://app?vid=2c957415-39c9-446b-8164-db634df2f11e"},"vehicle_type_id":"4","last_reported":1722535834,"current_range_meters":10800,"station_id":"ce4bgt92rcd13ifvqcg0","pricing_plan_id":"cebpf4jnsgd1na2vs0mg"},{"bike_id":"565e0ac6-f6e3-4e21-afef-8456e2f54531","system_id":"levelo_inurba_marseille","lat":43.311131,"lon":5.377651,"is_reserved":false,"is_disabled":false,"rental_uris":{"android":"levelo://app?vid=565e0ac6-f6e3-4e21-afef-8456e2f54531","ios":"levelo://app?vid=565e0ac6-f6e3-4e21-afef-8456e2f54531"},"vehicle_type_id":"4","last_reported":1722535834,"current_range_meters":17600,"station_id":"ce4bgt92rcd13ifvqcg0","pricing_plan_id":"cebpf4jnsgd1na2vs0mg"},{"bike_id":"3bd5697f-9c3d-4b6e-bbd0-506a66849214","system_id":"levelo_inurba_marseille","lat":43.311125,"lon":5.377624,"is_reserved":false,"is_disabled":false,"rental_uris":{"android":"levelo://app?vid=3bd5697f-9c3d-4b6e-bbd0-506a66849214","ios":"levelo://app?vid=3bd5697f-9c3d-4b6e-bbd0-506a66849214"},"vehicle_type_id":"4","last_reported":1722535834,"current_range_meters":400,"station_id":"ce4bgt92rcd13ifvqcg0","pricing_plan_id":"cebpf4jnsgd1na2vs0mg"},{"bike_id":"98353d05-2919-4513-9f78-4f32f6d4928f","system_id":"levelo_inurba_marseille","lat":43.31125,"lon":5.3778,"is_reserved":false,"is_disabled":false,"rental_uris":{"android":"levelo://app?vid=98353d05-2919-4513-9f78-4f32f6d4928f","ios":"levelo://app?vid=98353d05-2919-4513-9f78-4f32f6d4928f"},"vehicle_type_id":"4","last_reported":1722535834,"current_range_meters":0,"station_id":"ce4bgt92rcd13ifvqcg0","pricing_plan_id":"cebpf4jnsgd1na2vs0mg"},{"bike_id":"85625cd4-0b88-40fd-b3da-c9baa59ec630","system_id":"levelo_inurba_marseille","lat":43.307945,"lon":5.376487,"is_reserved":false,"is_disabled":false,"rental_uris":{"android":"levelo://app?vid=85625cd4-0b88-40fd-b3da-c9baa59ec630","ios":"levelo://app?vid=85625cd4-0b88-40fd-b3da-c9baa59ec630"},"vehicle_type_id":"4","last_reported":1722535834,"current_range_meters":25600,"station_id":"ce4bgv92rcd13ifvqcq0","pricing_plan_id":"cebpf4jnsgd1na2vs0mg"},{"bike_id":"e589a8df-2272-4444-a94c-bbfa6bb57419","system_id":"levelo_inurba_marseille","lat":43.317054,"lon":5.378281,"is_reserved":false,"is_disabled":false,"rental_uris":{"android":"levelo://app?vid=e589a8df-2272-4444-a94c-bbfa6bb57419","ios":"levelo://app?vid=e589a8df-2272-4444-a94c-bbfa6bb57419"},"vehicle_type_id":"4","last_reported":1722535834,"current_range_meters":8000,"station_id":"","pricing_plan_id":"cebpf4jnsgd1na2vs0mg"},{"bike_id":"2f39c49e-f320-468b-88f7-1f2e7cefede2","system_id":"levelo_inurba_marseille","lat":43.315474,"lon":5.380546,"is_reserved":false,"is_disabled":false,"rental_uris":{"android":"levelo://app?vid=2f39c49e-f320-468b-88f7-1f2e7cefede2","ios":"levelo://app?vid=2f39c49e-f320-468b-88f7-1f2e7cefede2"},"vehicle_type_id":"4","last_reported":1722535834,"current_range_meters":5600,"station_id":"ce4bhsp2rcd13ifvqi50","pricing_plan_id":"cebpf4jnsgd1na2vs0mg"},{"bike_id":"e22ab638-7c1c-4613-bbaf-9df1ad42d885","system_id":"levelo_inurba_marseille","lat":43.301939,"lon":5.366286,"is_reserved":false,"is_disabled":false,"rental_uris":{"android":"levelo://app?vid=e22ab638-7c1c-4613-bbaf-9df1ad42d885","ios":"levelo://app?vid=e22ab638-7c1c-4613-bbaf-9df1ad42d885"},"vehicle_type_id":"4","last_reported":1722535834,"current_range_meters":8000,"station_id":"ce4bgrh2rcd13ifvqc8g","pricing_plan_id":"cebpf4jnsgd1na2vs0mg"},{"bike_id":"d9a6254a-06d8-46ef-be7e-ad848d49affd","system_id":"levelo_inurba_marseille","lat":43.308012,"lon":5.381511,"is_reserved":false,"is_disabled":false,"rental_uris":{"android":"levelo://app?vid=d9a6254a-06d8-46ef-be7e-ad848d49affd","ios":"levelo://app?vid=d9a6254a-06d8-46ef-be7e-ad848d49affd"},"vehicle_type_id":"4","last_reported":1722535834,"current_range_meters":25200,"station_id":"ce4bgt12rcd13ifvqce0","pricing_plan_id":"cebpf4jnsgd1na2vs0mg"},{"bike_id":"8ec61ec2-2f72-4e29-9845-0ad3486179a3","system_id":"levelo_inurba_marseille","lat":43.304606,"lon":5.379026,"is_reserved":false,"is_disabled":false,"rental_uris":{"android":"levelo://app?vid=8ec61ec2-2f72-4e29-9845-0ad3486179a3","ios":"levelo://app?vid=8ec61ec2-2f72-4e29-9845-0ad3486179a3"},"vehicle_type_id":"4","last_reported":1722535834,"current_range_meters":27200,"station_id":"ce4bgup2rcd13ifvqcn0","pricing_plan_id":"cebpf4jnsgd1na2vs0mg"},{"bike_id":"fefa8c85-a143-45d7-b3d1-15bf6b235f88","system_id":"levelo_inurba_marseille","lat":43.324771,"lon":5.36557,"is_reserved":false,"is_disabled":false,"rental_uris":{"android":"levelo://app?vid=fefa8c85-a143-45d7-b3d1-15bf6b235f88","ios":"levelo://app?vid=fefa8c85-a143-45d7-b3d1-15bf6b235f88"},"vehicle_type_id":"4","last_reported":1722535834,"current_range_meters":4000,"station_id":"ce4bhs12rcd13ifvqhvg","pricing_plan_id":"cebpf4jnsgd1na2vs0mg"},{"bike_id":"180aa3e5-6bfe-402b-ad5e-a880edefeca2","system_id":"levelo_inurba_marseille","lat":43.324771,"lon":5.36557,"is_reserved":false,"is_disabled":false,"rental_uris":{"android":"levelo://app?vid=180aa3e5-6bfe-402b-ad5e-a880edefeca2","ios":"levelo://app?vid=180aa3e5-6bfe-402b-ad5e-a880edefeca2"},"vehicle_type_id":"4","last_reported":1722535834,"current_range_meters":6800,"station_id":"ce4bhs12rcd13ifvqhvg","pricing_plan_id":"cebpf4jnsgd1na2vs0mg"},{"bike_id":"6081998e-1125-493b-939c-54880bd02346","system_id":"levelo_inurba_marseille","lat":43.3248,"lon":5.36566,"is_reserved":false,"is_disabled":false,"rental_uris":{"android":"levelo://app?vid=6081998e-1125-493b-939c-54880bd02346","ios":"levelo://app?vid=6081998e-1125-493b-939c-54880bd02346"},"vehicle_type_id":"4","last_reported":1722535834,"current_range_meters":31200,"station_id":"ce4bhs12rcd13ifvqhvg","pricing_plan_id":"cebpf4jnsgd1na2vs0mg"},{"bike_id":"ddb72aed-cab4-43b5-974a-7e43ec2820f9","system_id":"levelo_inurba_marseille","lat":43.32484,"lon":5.36559,"is_reserved":false,"is_disabled":false,"rental_uris":{"android":"levelo://app?vid=ddb72aed-cab4-43b5-974a-7e43ec2820f9","ios":"levelo://app?vid=ddb72aed-cab4-43b5-974a-7e43ec2820f9"},"vehicle_type_id":"4","last_reported":1722535834,"current_range_meters":2800,"station_id":"ce4bhs12rcd13ifvqhvg","pricing_plan_id":"cebpf4jnsgd1na2vs0mg"},{"bike_id":"175f4ee8-f95f-448a-8035-d923609fd70a","system_id":"levelo_inurba_marseille","lat":43.310804,"lon":5.38359,"is_reserved":false,"is_disabled":false,"rental_uris":{"android":"levelo://app?vid=175f4ee8-f95f-448a-8035-d923609fd70a","ios":"levelo://app?vid=175f4ee8-f95f-448a-8035-d923609fd70a"},"vehicle_type_id":"4","last_reported":1722535834,"current_range_meters":27600,"station_id":"ce4bgv92rcd13ifvqcr0","pricing_plan_id":"cebpf4jnsgd1na2vs0mg"},{"bike_id":"f9bbe371-071a-4480-ae69-1883aefd68f5","system_id":"levelo_inurba_marseille","lat":43.290103,"lon":5.356114,"is_reserved":false,"is_disabled":false,"rental_uris":{"android":"levelo://app?vid=f9bbe371-071a-4480-ae69-1883aefd68f5","ios":"levelo://app?vid=f9bbe371-071a-4480-ae69-1883aefd68f5"},"vehicle_type_id":"4","last_reported":1722535834,"current_range_meters":26800,"station_id":"ce4bhb92rcd13ifvqen0","pricing_plan_id":"cebpf4jnsgd1na2vs0mg"},{"bike_id":"a2a1c7a7-889e-4d21-b408-9f58a263d223","system_id":"levelo_inurba_marseille","lat":43.302784,"lon":5.377158,"is_reserved":false,"is_disabled":false,"rental_uris":{"android":"levelo://app?vid=a2a1c7a7-889e-4d21-b408-9f58a263d223","ios":"levelo://app?vid=a2a1c7a7-889e-4d21-b408-9f58a263d223"},"vehicle_type_id":"4","last_reported":1722535834,"current_range_meters":6400,"station_id":"ce4bguh2rcd13ifvqcj0","pricing_plan_id":"cebpf4jnsgd1na2vs0mg"},{"bike_id":"d93cf312-dd8c-431e-b170-2649d5f207de","system_id":"levelo_inurba_marseille","lat":43.302784,"lon":5.377158,"is_reserved":false,"is_disabled":false,"rental_uris":{"android":"levelo://app?vid=d93cf312-dd8c-431e-b170-2649d5f207de","ios":"levelo://app?vid=d93cf312-dd8c-431e-b170-2649d5f207de"},"vehicle_type_id":"4","last_reported":1722535834,"current_range_meters":2800,"station_id":"ce4bguh2rcd13ifvqcj0","pricing_plan_id":"cebpf4jnsgd1na2vs0mg"},{"bike_id":"749576d7-ac1c-4fdc-b071-bdc937fb475d","system_id":"levelo_inurba_marseille","lat":43.324283,"lon":5.373757,"is_reserved":false,"is_disabled":false,"rental_uris":{"android":"levelo://app?vid=749576d7-ac1c-4fdc-b071-bdc937fb475d","ios":"levelo://app?vid=749576d7-ac1c-4fdc-b071-bdc937fb475d"},"vehicle_type_id":"4","last_reported":1722535834,"current_range_meters":19600,"station_id":"","pricing_plan_id":"cebpf4jnsgd1na2vs0mg"},{"bike_id":"5a192d97-d49a-4aff-98ee-ff8f0dac052f","system_id":"levelo_inurba_marseille","lat":43.319935,"lon":5.381699,"is_reserved":false,"is_disabled":false,"rental_uris":{"android":"levelo://app?vid=5a192d97-d49a-4aff-98ee-ff8f0dac052f","ios":"levelo://app?vid=5a192d97-d49a-4aff-98ee-ff8f0dac052f"},"vehicle_type_id":"4","last_reported":1722535834,"current_range_meters":0,"station_id":"ce4bhr12rcd13ifvqhpg","pricing_plan_id":"cebpf4jnsgd1na2vs0mg"},{"bike_id":"d6bdb8bb-540e-4348-8965-0a9e140b0d1a","system_id":"levelo_inurba_marseille","lat":43.313571,"lon":5.384829,"is_reserved":false,"is_disabled":false,"rental_uris":{"android":"levelo://app?vid=d6bdb8bb-540e-4348-8965-0a9e140b0d1a","ios":"levelo://app?vid=d6bdb8bb-540e-4348-8965-0a9e140b0d1a"},"vehicle_type_id":"4","last_reported":1722535834,"current_range_meters":7200,"station_id":"ce4bgt92rcd13ifvqcf0","pricing_plan_id":"cebpf4jnsgd1na2vs0mg"},{"bike_id":"e29b3f08-29c9-4dfb-be52-89b0fbf18ecf","system_id":"levelo_inurba_marseille","lat":43.30147,"lon":5.3769,"is_reserved":false,"is_disabled":false,"rental_uris":{"android":"levelo://app?vid=e29b3f08-29c9-4dfb-be52-89b0fbf18ecf","ios":"levelo://app?vid=e29b3f08-29c9-4dfb-be52-89b0fbf18ecf"},"vehicle_type_id":"4","last_reported":1722535834,"current_range_meters":0,"station_id":"","pricing_plan_id":"cebpf4jnsgd1na2vs0mg"},{"bike_id":"3ccf4d2d-b7fe-45e4-9d71-213c802061ed","system_id":"levelo_inurba_marseille","lat":43.299724,"lon":5.371829,"is_reserved":false,"is_disabled":false,"rental_uris":{"android":"levelo://app?vid=3ccf4d2d-b7fe-45e4-9d71-213c802061ed","ios":"levelo://app?vid=3ccf4d2d-b7fe-45e4-9d71-213c802061ed"},"vehicle_type_id":"4","last_reported":1722535834,"current_range_meters":2800,"station_id":"ce4bgr92rcd13ifvqc7g","pricing_plan_id":"cebpf4jnsgd1na2vs0mg"},{"bike_id":"c4476175-a3d0-4a57-864e-12b2e875105d","system_id":"levelo_inurba_marseille","lat":43.299222,"lon":5.365554,"is_reserved":false,"is_disabled":false,"rental_uris":{"android":"levelo://app?vid=c4476175-a3d0-4a57-864e-12b2e875105d","ios":"levelo://app?vid=c4476175-a3d0-4a57-864e-12b2e875105d"},"vehicle_type_id":"4","last_reported":1722535834,"current_range_meters":4400,"station_id":"ce4bgm92rcd13ifvqbr0","pricing_plan_id":"cebpf4jnsgd1na2vs0mg"},{"bike_id":"06f90e00-cea3-489c-bd35-fcfe8bd8b862","system_id":"levelo_inurba_marseille","lat":43.299724,"lon":5.371829,"is_reserved":false,"is_disabled":false,"rental_uris":{"android":"levelo://app?vid=06f90e00-cea3-489c-bd35-fcfe8bd8b862","ios":"levelo://app?vid=06f90e00-cea3-489c-bd35-fcfe8bd8b862"},"vehicle_type_id":"4","last_reported":1722535834,"current_range_meters":400,"station_id":"ce4bgr92rcd13ifvqc7g","pricing_plan_id":"cebpf4jnsgd1na2vs0mg"},{"bike_id":"a3c472c3-723f-418a-a990-070086973e62","system_id":"levelo_inurba_marseille","lat":43.299222,"lon":5.365554,"is_reserved":false,"is_disabled":false,"rental_uris":{"android":"levelo://app?vid=a3c472c3-723f-418a-a990-070086973e62","ios":"levelo://app?vid=a3c472c3-723f-418a-a990-070086973e62"},"vehicle_type_id":"4","last_reported":1722535834,"current_range_meters":0,"station_id":"ce4bgm92rcd13ifvqbr0","pricing_plan_id":"cebpf4jnsgd1na2vs0mg"},{"bike_id":"c13518c0-b897-4832-8532-272f8cb41e91","system_id":"levelo_inurba_marseille","lat":43.30493,"lon":5.38234,"is_reserved":false,"is_disabled":false,"rental_uris":{"android":"levelo://app?vid=c13518c0-b897-4832-8532-272f8cb41e91","ios":"levelo://app?vid=c13518c0-b897-4832-8532-272f8cb41e91"},"vehicle_type_id":"4","last_reported":1722535834,"current_range_meters":20800,"station_id":"","pricing_plan_id":"cebpf4jnsgd1na2vs0mg"},{"bike_id":"7fe37f6f-af29-4007-9248-f843e889d8b3","system_id":"levelo_inurba_marseille","lat":43.298433,"lon":5.362774,"is_reserved":false,"is_disabled":false,"rental_uris":{"android":"levelo://app?vid=7fe37f6f-af29-4007-9248-f843e889d8b3","ios":"levelo://app?vid=7fe37f6f-af29-4007-9248-f843e889d8b3"},"vehicle_type_id":"4","last_reported":1722535834,"current_range_meters":1200,"station_id":"ce4bgpp2rcd13ifvqc3g","pricing_plan_id":"cebpf4jnsgd1na2vs0mg"},{"bike_id":"d3ec5097-e29d-469f-9627-42eec23a6693","system_id":"levelo_inurba_marseille","lat":43.299243,"lon":5.374807,"is_reserved":false,"is_disabled":false,"rental_uris":{"android":"levelo://app?vid=d3ec5097-e29d-469f-9627-42eec23a6693","ios":"levelo://app?vid=d3ec5097-e29d-469f-9627-42eec23a6693"},"vehicle_type_id":"4","last_reported":1722535834,"current_range_meters":0,"station_id":"ce4bgjh2rcd13ifvqbg0","pricing_plan_id":"cebpf4jnsgd1na2vs0mg"},{"bike_id":"945e671c-26f8-48e3-b9f1-04a822294933","system_id":"levelo_inurba_marseille","lat":43.298433,"lon":5.362774,"is_reserved":false,"is_disabled":false,"rental_uris":{"android":"levelo://app?vid=945e671c-26f8-48e3-b9f1-04a822294933","ios":"levelo://app?vid=945e671c-26f8-48e3-b9f1-04a822294933"},"vehicle_type_id":"4","last_reported":1722535834,"current_range_meters":0,"station_id":"ce4bgpp2rcd13ifvqc3g","pricing_plan_id":"cebpf4jnsgd1na2vs0mg"},{"bike_id":"f305ef58-e9a6-431d-aecc-8dbcb5173e86","system_id":"levelo_inurba_marseille","lat":43.311722,"lon":5.387247,"is_reserved":false,"is_disabled":false,"rental_uris":{"android":"levelo://app?vid=f305ef58-e9a6-431d-aecc-8dbcb5173e86","ios":"levelo://app?vid=f305ef58-e9a6-431d-aecc-8dbcb5173e86"},"vehicle_type_id":"4","last_reported":1722535834,"current_range_meters":6400,"station_id":"ce4bgv12rcd13ifvqcp0","pricing_plan_id":"cebpf4jnsgd1na2vs0mg"},{"bike_id":"08886081-eb0c-4609-9e37-b4a8a482d7e9","system_id":"levelo_inurba_marseille","lat":43.311722,"lon":5.387247,"is_reserved":false,"is_disabled":false,"rental_uris":{"android":"levelo://app?vid=08886081-eb0c-4609-9e37-b4a8a482d7e9","ios":"levelo://app?vid=08886081-eb0c-4609-9e37-b4a8a482d7e9"},"vehicle_type_id":"4","last_reported":1722535834,"current_range_meters":800,"station_id":"ce4bgv12rcd13ifvqcp0","pricing_plan_id":"cebpf4jnsgd1na2vs0mg"},{"bike_id":"2f2175c0-0c18-49ca-bd31-b17dedbd85b2","system_id":"levelo_inurba_marseille","lat":43.311722,"lon":5.387247,"is_reserved":false,"is_disabled":false,"rental_uris":{"android":"levelo://app?vid=2f2175c0-0c18-49ca-bd31-b17dedbd85b2","ios":"levelo://app?vid=2f2175c0-0c18-49ca-bd31-b17dedbd85b2"},"vehicle_type_id":"4","last_reported":1722535834,"current_range_meters":800,"station_id":"ce4bgv12rcd13ifvqcp0","pricing_plan_id":"cebpf4jnsgd1na2vs0mg"},{"bike_id":"a6f73eaf-0478-4e02-94a8-fd6375cb38da","system_id":"levelo_inurba_marseille","lat":43.297794,"lon":5.370888,"is_reserved":false,"is_disabled":false,"rental_uris":{"android":"levelo://app?vid=a6f73eaf-0478-4e02-94a8-fd6375cb38da","ios":"levelo://app?vid=a6f73eaf-0478-4e02-94a8-fd6375cb38da"},"vehicle_type_id":"4","last_reported":1722535834,"current_range_meters":0,"station_id":"ce4bgop2rcd13ifvqc1g","pricing_plan_id":"cebpf4jnsgd1na2vs0mg"},{"bike_id":"3db19676-c3af-4ae2-b449-2bcd18a02dac","system_id":"levelo_inurba_marseille","lat":43.297794,"lon":5.370888,"is_reserved":false,"is_disabled":false,"rental_uris":{"android":"levelo://app?vid=3db19676-c3af-4ae2-b449-2bcd18a02dac","ios":"levelo://app?vid=3db19676-c3af-4ae2-b449-2bcd18a02dac"},"vehicle_type_id":"4","last_reported":1722535834,"current_range_meters":20400,"station_id":"ce4bgop2rcd13ifvqc1g","pricing_plan_id":"cebpf4jnsgd1na2vs0mg"},{"bike_id":"26b36bec-662c-4585-9b80-6ba0a6561176","system_id":"levelo_inurba_marseille","lat":43.297774,"lon":5.370875,"is_reserved":false,"is_disabled":false,"rental_uris":{"android":"levelo://app?vid=26b36bec-662c-4585-9b80-6ba0a6561176","ios":"levelo://app?vid=26b36bec-662c-4585-9b80-6ba0a6561176"},"vehicle_type_id":"4","last_reported":1722535834,"current_range_meters":8000,"station_id":"ce4bgop2rcd13ifvqc1g","pricing_plan_id":"cebpf4jnsgd1na2vs0mg"},{"bike_id":"5b54d771-8cbf-4226-8387-5bbf7a55f329","system_id":"levelo_inurba_marseille","lat":43.297794,"lon":5.370888,"is_reserved":false,"is_disabled":false,"rental_uris":{"android":"levelo://app?vid=5b54d771-8cbf-4226-8387-5bbf7a55f329","ios":"levelo://app?vid=5b54d771-8cbf-4226-8387-5bbf7a55f329"},"vehicle_type_id":"4","last_reported":1722535834,"current_range_meters":0,"station_id":"ce4bgop2rcd13ifvqc1g","pricing_plan_id":"cebpf4jnsgd1na2vs0mg"},{"bike_id":"9c8ba775-b845-4745-8aac-17d0b5689532","system_id":"levelo_inurba_marseille","lat":43.297794,"lon":5.370888,"is_reserved":false,"is_disabled":false,"rental_uris":{"android":"levelo://app?vid=9c8ba775-b845-4745-8aac-17d0b5689532","ios":"levelo://app?vid=9c8ba775-b845-4745-8aac-17d0b5689532"},"vehicle_type_id":"4","last_reported":1722535834,"current_range_meters":10000,"station_id":"ce4bgop2rcd13ifvqc1g","pricing_plan_id":"cebpf4jnsgd1na2vs0mg"},{"bike_id":"b8bf926c-5356-4274-ae7b-4152a2c7877b","system_id":"levelo_inurba_marseille","lat":43.297163,"lon":5.365866,"is_reserved":false,"is_disabled":false,"rental_uris":{"android":"levelo://app?vid=b8bf926c-5356-4274-ae7b-4152a2c7877b","ios":"levelo://app?vid=b8bf926c-5356-4274-ae7b-4152a2c7877b"},"vehicle_type_id":"4","last_reported":1722535834,"current_range_meters":25600,"station_id":"ce4bgn12rcd13ifvqbt0","pricing_plan_id":"cebpf4jnsgd1na2vs0mg"},{"bike_id":"48d181ea-4b4e-4f0b-ab28-07da2a8d9f04","system_id":"levelo_inurba_marseille","lat":43.296935,"lon":5.376544,"is_reserved":false,"is_disabled":false,"rental_uris":{"android":"levelo://app?vid=48d181ea-4b4e-4f0b-ab28-07da2a8d9f04","ios":"levelo://app?vid=48d181ea-4b4e-4f0b-ab28-07da2a8d9f04"},"vehicle_type_id":"4","last_reported":1722535834,"current_range_meters":19600,"station_id":"ce4bgkh2rcd13ifvqbl0","pricing_plan_id":"cebpf4jnsgd1na2vs0mg"},{"bike_id":"024baf7d-0762-40a4-a043-9198e1292ceb","system_id":"levelo_inurba_marseille","lat":43.2968,"lon":5.37291,"is_reserved":false,"is_disabled":false,"rental_uris":{"android":"levelo://app?vid=024baf7d-0762-40a4-a043-9198e1292ceb","ios":"levelo://app?vid=024baf7d-0762-40a4-a043-9198e1292ceb"},"vehicle_type_id":"4","last_reported":1722535834,"current_range_meters":21200,"station_id":"ce4bgk12rcd13ifvqbj0","pricing_plan_id":"cebpf4jnsgd1na2vs0mg"},{"bike_id":"b1f4bc42-d110-49c9-b687-3b4ee2ca9de3","system_id":"levelo_inurba_marseille","lat":43.2968,"lon":5.37291,"is_reserved":false,"is_disabled":false,"rental_uris":{"android":"levelo://app?vid=b1f4bc42-d110-49c9-b687-3b4ee2ca9de3","ios":"levelo://app?vid=b1f4bc42-d110-49c9-b687-3b4ee2ca9de3"},"vehicle_type_id":"4","last_reported":1722535834,"current_range_meters":26000,"station_id":"ce4bgk12rcd13ifvqbj0","pricing_plan_id":"cebpf4jnsgd1na2vs0mg"},{"bike_id":"a03cf4ac-2ddb-4079-a698-5ef98fe19e5d","system_id":"levelo_inurba_marseille","lat":43.2968,"lon":5.37291,"is_reserved":false,"is_disabled":false,"rental_uris":{"android":"levelo://app?vid=a03cf4ac-2ddb-4079-a698-5ef98fe19e5d","ios":"levelo://app?vid=a03cf4ac-2ddb-4079-a698-5ef98fe19e5d"},"vehicle_type_id":"4","last_reported":1722535834,"current_range_meters":22800,"station_id":"ce4bgk12rcd13ifvqbj0","pricing_plan_id":"cebpf4jnsgd1na2vs0mg"},{"bike_id":"3d0b2324-346b-4898-8e30-9dccf0d8648f","system_id":"levelo_inurba_marseille","lat":43.29679,"lon":5.37278,"is_reserved":false,"is_disabled":false,"rental_uris":{"android":"levelo://app?vid=3d0b2324-346b-4898-8e30-9dccf0d8648f","ios":"levelo://app?vid=3d0b2324-346b-4898-8e30-9dccf0d8648f"},"vehicle_type_id":"4","last_reported":1722535834,"current_range_meters":0,"station_id":"ce4bgk12rcd13ifvqbj0","pricing_plan_id":"cebpf4jnsgd1na2vs0mg"},{"bike_id":"c0c87c7c-83c8-45df-aabc-d29929f3104c","system_id":"levelo_inurba_marseille","lat":43.2968,"lon":5.37291,"is_reserved":false,"is_disabled":false,"rental_uris":{"android":"levelo://app?vid=c0c87c7c-83c8-45df-aabc-d29929f3104c","ios":"levelo://app?vid=c0c87c7c-83c8-45df-aabc-d29929f3104c"},"vehicle_type_id":"4","last_reported":1722535834,"current_range_meters":16400,"station_id":"ce4bgk12rcd13ifvqbj0","pricing_plan_id":"cebpf4jnsgd1na2vs0mg"},{"bike_id":"9f804931-8efb-49ef-8d67-cf4ec5fa47a3","system_id":"levelo_inurba_marseille","lat":43.296131,"lon":5.370791,"is_reserved":false,"is_disabled":false,"rental_uris":{"android":"levelo://app?vid=9f804931-8efb-49ef-8d67-cf4ec5fa47a3","ios":"levelo://app?vid=9f804931-8efb-49ef-8d67-cf4ec5fa47a3"},"vehicle_type_id":"4","last_reported":1722535834,"current_range_meters":14800,"station_id":"ce4bgnh2rcd13ifvqc0g","pricing_plan_id":"cebpf4jnsgd1na2vs0mg"},{"bike_id":"1d3288d3-4e97-428a-9bb2-a2cb1b6a860b","system_id":"levelo_inurba_marseille","lat":43.296131,"lon":5.370791,"is_reserved":false,"is_disabled":false,"rental_uris":{"android":"levelo://app?vid=1d3288d3-4e97-428a-9bb2-a2cb1b6a860b","ios":"levelo://app?vid=1d3288d3-4e97-428a-9bb2-a2cb1b6a860b"},"vehicle_type_id":"4","last_reported":1722535834,"current_range_meters":29200,"station_id":"ce4bgnh2rcd13ifvqc0g","pricing_plan_id":"cebpf4jnsgd1na2vs0mg"},{"bike_id":"a8db02e8-9c71-47e3-aae1-fb352c544a5a","system_id":"levelo_inurba_marseille","lat":43.296131,"lon":5.370791,"is_reserved":false,"is_disabled":false,"rental_uris":{"android":"levelo://app?vid=a8db02e8-9c71-47e3-aae1-fb352c544a5a","ios":"levelo://app?vid=a8db02e8-9c71-47e3-aae1-fb352c544a5a"},"vehicle_type_id":"4","last_reported":1722535834,"current_range_meters":1600,"station_id":"ce4bgnh2rcd13ifvqc0g","pricing_plan_id":"cebpf4jnsgd1na2vs0mg"},{"bike_id":"bf77a94b-65ca-4cf8-ba9a-9f996ae23a5c","system_id":"levelo_inurba_marseille","lat":43.296131,"lon":5.370773,"is_reserved":false,"is_disabled":false,"rental_uris":{"android":"levelo://app?vid=bf77a94b-65ca-4cf8-ba9a-9f996ae23a5c","ios":"levelo://app?vid=bf77a94b-65ca-4cf8-ba9a-9f996ae23a5c"},"vehicle_type_id":"4","last_reported":1722535834,"current_range_meters":7200,"station_id":"ce4bgnh2rcd13ifvqc0g","pricing_plan_id":"cebpf4jnsgd1na2vs0mg"},{"bike_id":"875cef95-9f6c-48bb-80bb-e76635c43a84","system_id":"levelo_inurba_marseille","lat":43.29573,"lon":5.367355,"is_reserved":false,"is_disabled":false,"rental_uris":{"android":"levelo://app?vid=875cef95-9f6c-48bb-80bb-e76635c43a84","ios":"levelo://app?vid=875cef95-9f6c-48bb-80bb-e76635c43a84"},"vehicle_type_id":"4","last_reported":1722535834,"current_range_meters":2800,"station_id":"ce4bgph2rcd13ifvqc2g","pricing_plan_id":"cebpf4jnsgd1na2vs0mg"},{"bike_id":"4a289af8-2a94-43b3-8dfc-ee2db5ad9299","system_id":"levelo_inurba_marseille","lat":43.30948,"lon":5.39017,"is_reserved":false,"is_disabled":false,"rental_uris":{"android":"levelo://app?vid=4a289af8-2a94-43b3-8dfc-ee2db5ad9299","ios":"levelo://app?vid=4a289af8-2a94-43b3-8dfc-ee2db5ad9299"},"vehicle_type_id":"4","last_reported":1722535834,"current_range_meters":0,"station_id":"ce4bgup2rcd13ifvqco0","pricing_plan_id":"cebpf4jnsgd1na2vs0mg"},{"bike_id":"d49a142f-87f1-4a81-b12a-fda259ccdfba","system_id":"levelo_inurba_marseille","lat":43.309589,"lon":5.390258,"is_reserved":false,"is_disabled":false,"rental_uris":{"android":"levelo://app?vid=d49a142f-87f1-4a81-b12a-fda259ccdfba","ios":"levelo://app?vid=d49a142f-87f1-4a81-b12a-fda259ccdfba"},"vehicle_type_id":"4","last_reported":1722535834,"current_range_meters":0,"station_id":"ce4bgup2rcd13ifvqco0","pricing_plan_id":"cebpf4jnsgd1na2vs0mg"},{"bike_id":"8c1a6025-3f13-446a-a661-46e73b44c4d7","system_id":"levelo_inurba_marseille","lat":43.309589,"lon":5.390258,"is_reserved":false,"is_disabled":false,"rental_uris":{"android":"levelo://app?vid=8c1a6025-3f13-446a-a661-46e73b44c4d7","ios":"levelo://app?vid=8c1a6025-3f13-446a-a661-46e73b44c4d7"},"vehicle_type_id":"4","last_reported":1722535834,"current_range_meters":4000,"station_id":"ce4bgup2rcd13ifvqco0","pricing_plan_id":"cebpf4jnsgd1na2vs0mg"},{"bike_id":"ce3fa9c9-3b5e-4793-a27f-0cb5430d9ebe","system_id":"levelo_inurba_marseille","lat":43.304278,"lon":5.388868,"is_reserved":false,"is_disabled":false,"rental_uris":{"android":"levelo://app?vid=ce3fa9c9-3b5e-4793-a27f-0cb5430d9ebe","ios":"levelo://app?vid=ce3fa9c9-3b5e-4793-a27f-0cb5430d9ebe"},"vehicle_type_id":"4","last_reported":1722535834,"current_range_meters":28400,"station_id":"ce4bgk12rcd13ifvqbi0","pricing_plan_id":"cebpf4jnsgd1na2vs0mg"},{"bike_id":"0a1bf9ff-c8ba-4624-9e76-6582e572ecd3","system_id":"levelo_inurba_marseille","lat":43.2958,"lon":5.37513,"is_reserved":false,"is_disabled":false,"rental_uris":{"android":"levelo://app?vid=0a1bf9ff-c8ba-4624-9e76-6582e572ecd3","ios":"levelo://app?vid=0a1bf9ff-c8ba-4624-9e76-6582e572ecd3"},"vehicle_type_id":"4","last_reported":1722535834,"current_range_meters":0,"station_id":"ce4bgh92rcd13ifvqb50","pricing_plan_id":"cebpf4jnsgd1na2vs0mg"},{"bike_id":"c23c2958-2414-4e68-a364-0ab5a120ed74","system_id":"levelo_inurba_marseille","lat":43.29577,"lon":5.37513,"is_reserved":false,"is_disabled":false,"rental_uris":{"android":"levelo://app?vid=c23c2958-2414-4e68-a364-0ab5a120ed74","ios":"levelo://app?vid=c23c2958-2414-4e68-a364-0ab5a120ed74"},"vehicle_type_id":"4","last_reported":1722535834,"current_range_meters":31200,"station_id":"ce4bgh92rcd13ifvqb50","pricing_plan_id":"cebpf4jnsgd1na2vs0mg"},{"bike_id":"27be78c3-cc39-4b44-91df-f5747b9d241d","system_id":"levelo_inurba_marseille","lat":43.304278,"lon":5.388868,"is_reserved":false,"is_disabled":false,"rental_uris":{"android":"levelo://app?vid=27be78c3-cc39-4b44-91df-f5747b9d241d","ios":"levelo://app?vid=27be78c3-cc39-4b44-91df-f5747b9d241d"},"vehicle_type_id":"4","last_reported":1722535834,"current_range_meters":0,"station_id":"ce4bgk12rcd13ifvqbi0","pricing_plan_id":"cebpf4jnsgd1na2vs0mg"},{"bike_id":"85775928-af2b-4197-a21b-a9c4404703e3","system_id":"levelo_inurba_marseille","lat":43.304274,"lon":5.388873,"is_reserved":false,"is_disabled":false,"rental_uris":{"android":"levelo://app?vid=85775928-af2b-4197-a21b-a9c4404703e3","ios":"levelo://app?vid=85775928-af2b-4197-a21b-a9c4404703e3"},"vehicle_type_id":"4","last_reported":1722535834,"current_range_meters":17200,"station_id":"ce4bgk12rcd13ifvqbi0","pricing_plan_id":"cebpf4jnsgd1na2vs0mg"},{"bike_id":"0f60730b-db2a-4c23-957e-676fcc1bd112","system_id":"levelo_inurba_marseille","lat":43.304357,"lon":5.388922,"is_reserved":false,"is_disabled":false,"rental_uris":{"android":"levelo://app?vid=0f60730b-db2a-4c23-957e-676fcc1bd112","ios":"levelo://app?vid=0f60730b-db2a-4c23-957e-676fcc1bd112"},"vehicle_type_id":"4","last_reported":1722535834,"current_range_meters":26800,"station_id":"","pricing_plan_id":"cebpf4jnsgd1na2vs0mg"},{"bike_id":"0dc36972-3452-4a0b-954c-14c7684a111a","system_id":"levelo_inurba_marseille","lat":43.296263,"lon":5.377094,"is_reserved":false,"is_disabled":false,"rental_uris":{"android":"levelo://app?vid=0dc36972-3452-4a0b-954c-14c7684a111a","ios":"levelo://app?vid=0dc36972-3452-4a0b-954c-14c7684a111a"},"vehicle_type_id":"4","last_reported":1722535834,"current_range_meters":20400,"station_id":"ce4bgi92rcd13ifvqb90","pricing_plan_id":"cebpf4jnsgd1na2vs0mg"},{"bike_id":"313c25fc-67ba-4ff8-9ac1-d774470f9cc5","system_id":"levelo_inurba_marseille","lat":43.295748,"lon":5.37522,"is_reserved":false,"is_disabled":false,"rental_uris":{"android":"levelo://app?vid=313c25fc-67ba-4ff8-9ac1-d774470f9cc5","ios":"levelo://app?vid=313c25fc-67ba-4ff8-9ac1-d774470f9cc5"},"vehicle_type_id":"4","last_reported":1722535834,"current_range_meters":18800,"station_id":"ce4bgh92rcd13ifvqb50","pricing_plan_id":"cebpf4jnsgd1na2vs0mg"},{"bike_id":"3ae827be-f337-48c5-b098-bb6836ea2085","system_id":"levelo_inurba_marseille","lat":43.296277,"lon":5.377108,"is_reserved":false,"is_disabled":false,"rental_uris":{"android":"levelo://app?vid=3ae827be-f337-48c5-b098-bb6836ea2085","ios":"levelo://app?vid=3ae827be-f337-48c5-b098-bb6836ea2085"},"vehicle_type_id":"4","last_reported":1722535834,"current_range_meters":1200,"station_id":"ce4bgi92rcd13ifvqb90","pricing_plan_id":"cebpf4jnsgd1na2vs0mg"},{"bike_id":"cc03df11-b6b1-4ae6-8cc5-ee124dee414a","system_id":"levelo_inurba_marseille","lat":43.296277,"lon":5.377108,"is_reserved":false,"is_disabled":false,"rental_uris":{"android":"levelo://app?vid=cc03df11-b6b1-4ae6-8cc5-ee124dee414a","ios":"levelo://app?vid=cc03df11-b6b1-4ae6-8cc5-ee124dee414a"},"vehicle_type_id":"4","last_reported":1722535834,"current_range_meters":0,"station_id":"ce4bgi92rcd13ifvqb90","pricing_plan_id":"cebpf4jnsgd1na2vs0mg"},{"bike_id":"948409b9-cea0-4318-bdc0-ac84f8a7cf84","system_id":"levelo_inurba_marseille","lat":43.29537,"lon":5.375,"is_reserved":false,"is_disabled":false,"rental_uris":{"android":"levelo://app?vid=948409b9-cea0-4318-bdc0-ac84f8a7cf84","ios":"levelo://app?vid=948409b9-cea0-4318-bdc0-ac84f8a7cf84"},"vehicle_type_id":"4","last_reported":1722535834,"current_range_meters":0,"station_id":"ce4bgkp2rcd13ifvqbmg","pricing_plan_id":"cebpf4jnsgd1na2vs0mg"},{"bike_id":"cd0561a5-4ccd-43ea-b431-ee5ab5675d1a","system_id":"levelo_inurba_marseille","lat":43.295279,"lon":5.375048,"is_reserved":false,"is_disabled":false,"rental_uris":{"android":"levelo://app?vid=cd0561a5-4ccd-43ea-b431-ee5ab5675d1a","ios":"levelo://app?vid=cd0561a5-4ccd-43ea-b431-ee5ab5675d1a"},"vehicle_type_id":"4","last_reported":1722535834,"current_range_meters":7200,"station_id":"ce4bgkp2rcd13ifvqbmg","pricing_plan_id":"cebpf4jnsgd1na2vs0mg"},{"bike_id":"def37e4a-f42b-4ce3-904a-988042c6ad32","system_id":"levelo_inurba_marseille","lat":43.295279,"lon":5.375048,"is_reserved":false,"is_disabled":false,"rental_uris":{"android":"levelo://app?vid=def37e4a-f42b-4ce3-904a-988042c6ad32","ios":"levelo://app?vid=def37e4a-f42b-4ce3-904a-988042c6ad32"},"vehicle_type_id":"4","last_reported":1722535834,"current_range_meters":2000,"station_id":"ce4bgkp2rcd13ifvqbmg","pricing_plan_id":"cebpf4jnsgd1na2vs0mg"},{"bike_id":"e84fa035-f75d-45ba-a0f3-f44a44d35428","system_id":"levelo_inurba_marseille","lat":43.29522,"lon":5.37493,"is_reserved":false,"is_disabled":false,"rental_uris":{"android":"levelo://app?vid=e84fa035-f75d-45ba-a0f3-f44a44d35428","ios":"levelo://app?vid=e84fa035-f75d-45ba-a0f3-f44a44d35428"},"vehicle_type_id":"4","last_reported":1722535834,"current_range_meters":0,"station_id":"ce4bgkp2rcd13ifvqbmg","pricing_plan_id":"cebpf4jnsgd1na2vs0mg"},{"bike_id":"12e1e44c-4eac-48e6-b5c5-96527bfdb43e","system_id":"levelo_inurba_marseille","lat":43.29524,"lon":5.37507,"is_reserved":false,"is_disabled":false,"rental_uris":{"android":"levelo://app?vid=12e1e44c-4eac-48e6-b5c5-96527bfdb43e","ios":"levelo://app?vid=12e1e44c-4eac-48e6-b5c5-96527bfdb43e"},"vehicle_type_id":"4","last_reported":1722535834,"current_range_meters":0,"station_id":"ce4bgkp2rcd13ifvqbmg","pricing_plan_id":"cebpf4jnsgd1na2vs0mg"},{"bike_id":"fac1c6e8-64a2-427a-853b-99ed14231c6c","system_id":"levelo_inurba_marseille","lat":43.29522,"lon":5.37501,"is_reserved":false,"is_disabled":false,"rental_uris":{"android":"levelo://app?vid=fac1c6e8-64a2-427a-853b-99ed14231c6c","ios":"levelo://app?vid=fac1c6e8-64a2-427a-853b-99ed14231c6c"},"vehicle_type_id":"4","last_reported":1722535834,"current_range_meters":26400,"station_id":"ce4bgkp2rcd13ifvqbmg","pricing_plan_id":"cebpf4jnsgd1na2vs0mg"},{"bike_id":"1b9bdcdd-25ac-475b-8b42-4eb322d06626","system_id":"levelo_inurba_marseille","lat":43.299717,"lon":5.384845,"is_reserved":false,"is_disabled":false,"rental_uris":{"android":"levelo://app?vid=1b9bdcdd-25ac-475b-8b42-4eb322d06626","ios":"levelo://app?vid=1b9bdcdd-25ac-475b-8b42-4eb322d06626"},"vehicle_type_id":"4","last_reported":1722535834,"current_range_meters":8800,"station_id":"ce4bgj92rcd13ifvqbd0","pricing_plan_id":"cebpf4jnsgd1na2vs0mg"},{"bike_id":"be588d01-2150-4b39-a572-70d078856f92","system_id":"levelo_inurba_marseille","lat":43.29964,"lon":5.38493,"is_reserved":false,"is_disabled":false,"rental_uris":{"android":"levelo://app?vid=be588d01-2150-4b39-a572-70d078856f92","ios":"levelo://app?vid=be588d01-2150-4b39-a572-70d078856f92"},"vehicle_type_id":"4","last_reported":1722535834,"current_range_meters":0,"station_id":"ce4bgj92rcd13ifvqbd0","pricing_plan_id":"cebpf4jnsgd1na2vs0mg"},{"bike_id":"c2df0ce1-3cda-4a19-b2a8-390a949af429","system_id":"levelo_inurba_marseille","lat":43.301396,"lon":5.387812,"is_reserved":false,"is_disabled":false,"rental_uris":{"android":"levelo://app?vid=c2df0ce1-3cda-4a19-b2a8-390a949af429","ios":"levelo://app?vid=c2df0ce1-3cda-4a19-b2a8-390a949af429"},"vehicle_type_id":"4","last_reported":1722535834,"current_range_meters":24400,"station_id":"ce4bghh2rcd13ifvqb60","pricing_plan_id":"cebpf4jnsgd1na2vs0mg"},{"bike_id":"5e4767a2-8bb6-4bbd-bca3-f539a2b7c67e","system_id":"levelo_inurba_marseille","lat":43.301396,"lon":5.387812,"is_reserved":false,"is_disabled":false,"rental_uris":{"android":"levelo://app?vid=5e4767a2-8bb6-4bbd-bca3-f539a2b7c67e","ios":"levelo://app?vid=5e4767a2-8bb6-4bbd-bca3-f539a2b7c67e"},"vehicle_type_id":"4","last_reported":1722535834,"current_range_meters":8800,"station_id":"ce4bghh2rcd13ifvqb60","pricing_plan_id":"cebpf4jnsgd1na2vs0mg"},{"bike_id":"0844e535-2389-4f05-abf9-9fb6ea3e702b","system_id":"levelo_inurba_marseille","lat":43.301396,"lon":5.387812,"is_reserved":false,"is_disabled":false,"rental_uris":{"android":"levelo://app?vid=0844e535-2389-4f05-abf9-9fb6ea3e702b","ios":"levelo://app?vid=0844e535-2389-4f05-abf9-9fb6ea3e702b"},"vehicle_type_id":"4","last_reported":1722535834,"current_range_meters":21600,"station_id":"ce4bghh2rcd13ifvqb60","pricing_plan_id":"cebpf4jnsgd1na2vs0mg"},{"bike_id":"b299e960-ce97-4428-8963-d1bccf4f98d0","system_id":"levelo_inurba_marseille","lat":43.301396,"lon":5.387812,"is_reserved":false,"is_disabled":false,"rental_uris":{"android":"levelo://app?vid=b299e960-ce97-4428-8963-d1bccf4f98d0","ios":"levelo://app?vid=b299e960-ce97-4428-8963-d1bccf4f98d0"},"vehicle_type_id":"4","last_reported":1722535834,"current_range_meters":19200,"station_id":"ce4bghh2rcd13ifvqb60","pricing_plan_id":"cebpf4jnsgd1na2vs0mg"},{"bike_id":"d6cd20e7-2273-4d8e-a93d-ace4f18523cb","system_id":"levelo_inurba_marseille","lat":43.32367,"lon":5.388836,"is_reserved":false,"is_disabled":false,"rental_uris":{"android":"levelo://app?vid=d6cd20e7-2273-4d8e-a93d-ace4f18523cb","ios":"levelo://app?vid=d6cd20e7-2273-4d8e-a93d-ace4f18523cb"},"vehicle_type_id":"4","last_reported":1722535834,"current_range_meters":14800,"station_id":"ce4bhqp2rcd13ifvqhog","pricing_plan_id":"cebpf4jnsgd1na2vs0mg"},{"bike_id":"700c71e0-523b-4a6a-9d53-bd1891f334f5","system_id":"levelo_inurba_marseille","lat":43.29594,"lon":5.38004,"is_reserved":false,"is_disabled":false,"rental_uris":{"android":"levelo://app?vid=700c71e0-523b-4a6a-9d53-bd1891f334f5","ios":"levelo://app?vid=700c71e0-523b-4a6a-9d53-bd1891f334f5"},"vehicle_type_id":"4","last_reported":1722535834,"current_range_meters":1200,"station_id":"","pricing_plan_id":"cebpf4jnsgd1na2vs0mg"},{"bike_id":"6fba91a3-d4d3-4b64-b264-9b1865f4c5b2","system_id":"levelo_inurba_marseille","lat":43.32367,"lon":5.388836,"is_reserved":false,"is_disabled":false,"rental_uris":{"android":"levelo://app?vid=6fba91a3-d4d3-4b64-b264-9b1865f4c5b2","ios":"levelo://app?vid=6fba91a3-d4d3-4b64-b264-9b1865f4c5b2"},"vehicle_type_id":"4","last_reported":1722535834,"current_range_meters":8800,"station_id":"ce4bhqp2rcd13ifvqhog","pricing_plan_id":"cebpf4jnsgd1na2vs0mg"},{"bike_id":"d9f3fb9b-4af1-4c34-b927-140c9851f496","system_id":"levelo_inurba_marseille","lat":43.32367,"lon":5.388836,"is_reserved":false,"is_disabled":false,"rental_uris":{"android":"levelo://app?vid=d9f3fb9b-4af1-4c34-b927-140c9851f496","ios":"levelo://app?vid=d9f3fb9b-4af1-4c34-b927-140c9851f496"},"vehicle_type_id":"4","last_reported":1722535834,"current_range_meters":11600,"station_id":"ce4bhqp2rcd13ifvqhog","pricing_plan_id":"cebpf4jnsgd1na2vs0mg"},{"bike_id":"bc8f9786-3e9d-4233-ab11-c0dabae5bd90","system_id":"levelo_inurba_marseille","lat":43.29602,"lon":5.381084,"is_reserved":false,"is_disabled":false,"rental_uris":{"android":"levelo://app?vid=bc8f9786-3e9d-4233-ab11-c0dabae5bd90","ios":"levelo://app?vid=bc8f9786-3e9d-4233-ab11-c0dabae5bd90"},"vehicle_type_id":"4","last_reported":1722535834,"current_range_meters":11600,"station_id":"ce4bgl12rcd13ifvqbo0","pricing_plan_id":"cebpf4jnsgd1na2vs0mg"},{"bike_id":"4cbd1762-2bb1-4618-b1e8-b1dc7b07c2c8","system_id":"levelo_inurba_marseille","lat":43.29602,"lon":5.381084,"is_reserved":false,"is_disabled":false,"rental_uris":{"android":"levelo://app?vid=4cbd1762-2bb1-4618-b1e8-b1dc7b07c2c8","ios":"levelo://app?vid=4cbd1762-2bb1-4618-b1e8-b1dc7b07c2c8"},"vehicle_type_id":"4","last_reported":1722535834,"current_range_meters":0,"station_id":"ce4bgl12rcd13ifvqbo0","pricing_plan_id":"cebpf4jnsgd1na2vs0mg"},{"bike_id":"da219834-d2ec-45d5-a450-67f780c1a528","system_id":"levelo_inurba_marseille","lat":43.29602,"lon":5.381084,"is_reserved":false,"is_disabled":false,"rental_uris":{"android":"levelo://app?vid=da219834-d2ec-45d5-a450-67f780c1a528","ios":"levelo://app?vid=da219834-d2ec-45d5-a450-67f780c1a528"},"vehicle_type_id":"4","last_reported":1722535834,"current_range_meters":14400,"station_id":"ce4bgl12rcd13ifvqbo0","pricing_plan_id":"cebpf4jnsgd1na2vs0mg"},{"bike_id":"7157f0c8-1e04-40ab-b450-7ef6cbece0bb","system_id":"levelo_inurba_marseille","lat":43.292749,"lon":5.368402,"is_reserved":false,"is_disabled":false,"rental_uris":{"android":"levelo://app?vid=7157f0c8-1e04-40ab-b450-7ef6cbece0bb","ios":"levelo://app?vid=7157f0c8-1e04-40ab-b450-7ef6cbece0bb"},"vehicle_type_id":"4","last_reported":1722535834,"current_range_meters":400,"station_id":"ce4bhbp2rcd13ifvqesg","pricing_plan_id":"cebpf4jnsgd1na2vs0mg"},{"bike_id":"014356c3-a6b3-48b7-80e4-13c79da4696f","system_id":"levelo_inurba_marseille","lat":43.293259,"lon":5.371586,"is_reserved":false,"is_disabled":false,"rental_uris":{"android":"levelo://app?vid=014356c3-a6b3-48b7-80e4-13c79da4696f","ios":"levelo://app?vid=014356c3-a6b3-48b7-80e4-13c79da4696f"},"vehicle_type_id":"4","last_reported":1722535834,"current_range_meters":7200,"station_id":"ce4bgh92rcd13ifvqb40","pricing_plan_id":"cebpf4jnsgd1na2vs0mg"},{"bike_id":"0d80d131-882b-43a9-941f-1f363c2fefca","system_id":"levelo_inurba_marseille","lat":43.293259,"lon":5.371586,"is_reserved":false,"is_disabled":false,"rental_uris":{"android":"levelo://app?vid=0d80d131-882b-43a9-941f-1f363c2fefca","ios":"levelo://app?vid=0d80d131-882b-43a9-941f-1f363c2fefca"},"vehicle_type_id":"4","last_reported":1722535834,"current_range_meters":5200,"station_id":"ce4bgh92rcd13ifvqb40","pricing_plan_id":"cebpf4jnsgd1na2vs0mg"},{"bike_id":"e550484a-1584-43e9-82ce-58a1ca3889fb","system_id":"levelo_inurba_marseille","lat":43.292749,"lon":5.368402,"is_reserved":false,"is_disabled":false,"rental_uris":{"android":"levelo://app?vid=e550484a-1584-43e9-82ce-58a1ca3889fb","ios":"levelo://app?vid=e550484a-1584-43e9-82ce-58a1ca3889fb"},"vehicle_type_id":"4","last_reported":1722535834,"current_range_meters":10800,"station_id":"ce4bhbp2rcd13ifvqesg","pricing_plan_id":"cebpf4jnsgd1na2vs0mg"},{"bike_id":"d0713568-8184-4218-9211-a8d2d5002cca","system_id":"levelo_inurba_marseille","lat":43.292749,"lon":5.368402,"is_reserved":false,"is_disabled":false,"rental_uris":{"android":"levelo://app?vid=d0713568-8184-4218-9211-a8d2d5002cca","ios":"levelo://app?vid=d0713568-8184-4218-9211-a8d2d5002cca"},"vehicle_type_id":"4","last_reported":1722535834,"current_range_meters":0,"station_id":"ce4bhbp2rcd13ifvqesg","pricing_plan_id":"cebpf4jnsgd1na2vs0mg"},{"bike_id":"f8ecfc78-7f38-4176-9230-fe9bb6681fcb","system_id":"levelo_inurba_marseille","lat":43.292749,"lon":5.368398,"is_reserved":false,"is_disabled":false,"rental_uris":{"android":"levelo://app?vid=f8ecfc78-7f38-4176-9230-fe9bb6681fcb","ios":"levelo://app?vid=f8ecfc78-7f38-4176-9230-fe9bb6681fcb"},"vehicle_type_id":"4","last_reported":1722535834,"current_range_meters":3600,"station_id":"ce4bhbp2rcd13ifvqesg","pricing_plan_id":"cebpf4jnsgd1na2vs0mg"},{"bike_id":"55f69b90-fe23-41c3-8603-ab499cb1bdb4","system_id":"levelo_inurba_marseille","lat":43.293259,"lon":5.371586,"is_reserved":false,"is_disabled":false,"rental_uris":{"android":"levelo://app?vid=55f69b90-fe23-41c3-8603-ab499cb1bdb4","ios":"levelo://app?vid=55f69b90-fe23-41c3-8603-ab499cb1bdb4"},"vehicle_type_id":"4","last_reported":1722535834,"current_range_meters":0,"station_id":"ce4bgh92rcd13ifvqb40","pricing_plan_id":"cebpf4jnsgd1na2vs0mg"},{"bike_id":"d53f8f6d-a8e9-4b24-9ca3-8118ee39a6cb","system_id":"levelo_inurba_marseille","lat":43.292749,"lon":5.368402,"is_reserved":false,"is_disabled":false,"rental_uris":{"android":"levelo://app?vid=d53f8f6d-a8e9-4b24-9ca3-8118ee39a6cb","ios":"levelo://app?vid=d53f8f6d-a8e9-4b24-9ca3-8118ee39a6cb"},"vehicle_type_id":"4","last_reported":1722535834,"current_range_meters":13600,"station_id":"ce4bhbp2rcd13ifvqesg","pricing_plan_id":"cebpf4jnsgd1na2vs0mg"},{"bike_id":"2ac8c726-ccf4-4d26-ac1b-67019aeb2f42","system_id":"levelo_inurba_marseille","lat":43.293249,"lon":5.371578,"is_reserved":false,"is_disabled":false,"rental_uris":{"android":"levelo://app?vid=2ac8c726-ccf4-4d26-ac1b-67019aeb2f42","ios":"levelo://app?vid=2ac8c726-ccf4-4d26-ac1b-67019aeb2f42"},"vehicle_type_id":"4","last_reported":1722535834,"current_range_meters":6400,"station_id":"ce4bgh92rcd13ifvqb40","pricing_plan_id":"cebpf4jnsgd1na2vs0mg"},{"bike_id":"056e4a26-a0c7-4d07-b102-b932e0e39566","system_id":"levelo_inurba_marseille","lat":43.293249,"lon":5.371578,"is_reserved":false,"is_disabled":false,"rental_uris":{"android":"levelo://app?vid=056e4a26-a0c7-4d07-b102-b932e0e39566","ios":"levelo://app?vid=056e4a26-a0c7-4d07-b102-b932e0e39566"},"vehicle_type_id":"4","last_reported":1722535834,"current_range_meters":0,"station_id":"ce4bgh92rcd13ifvqb40","pricing_plan_id":"cebpf4jnsgd1na2vs0mg"},{"bike_id":"764341fd-c1cc-41e4-9a6d-aea762c679c8","system_id":"levelo_inurba_marseille","lat":43.305994,"lon":5.393687,"is_reserved":false,"is_disabled":false,"rental_uris":{"android":"levelo://app?vid=764341fd-c1cc-41e4-9a6d-aea762c679c8","ios":"levelo://app?vid=764341fd-c1cc-41e4-9a6d-aea762c679c8"},"vehicle_type_id":"4","last_reported":1722535834,"current_range_meters":14000,"station_id":"ce4bh0p2rcd13ifvqd80","pricing_plan_id":"cebpf4jnsgd1na2vs0mg"},{"bike_id":"411185e9-7c5b-4b70-8639-cb3c8202f186","system_id":"levelo_inurba_marseille","lat":43.293009,"lon":5.374584,"is_reserved":false,"is_disabled":false,"rental_uris":{"android":"levelo://app?vid=411185e9-7c5b-4b70-8639-cb3c8202f186","ios":"levelo://app?vid=411185e9-7c5b-4b70-8639-cb3c8202f186"},"vehicle_type_id":"4","last_reported":1722535834,"current_range_meters":11600,"station_id":"ce4bgi12rcd13ifvqb70","pricing_plan_id":"cebpf4jnsgd1na2vs0mg"},{"bike_id":"b3b6f310-f203-472e-96e7-2c16255e216c","system_id":"levelo_inurba_marseille","lat":43.29304,"lon":5.37458,"is_reserved":false,"is_disabled":false,"rental_uris":{"android":"levelo://app?vid=b3b6f310-f203-472e-96e7-2c16255e216c","ios":"levelo://app?vid=b3b6f310-f203-472e-96e7-2c16255e216c"},"vehicle_type_id":"4","last_reported":1722535834,"current_range_meters":29200,"station_id":"ce4bgi12rcd13ifvqb70","pricing_plan_id":"cebpf4jnsgd1na2vs0mg"},{"bike_id":"87a0135d-bdac-49b3-a108-04bf5619c3f6","system_id":"levelo_inurba_marseille","lat":43.30591,"lon":5.39352,"is_reserved":false,"is_disabled":false,"rental_uris":{"android":"levelo://app?vid=87a0135d-bdac-49b3-a108-04bf5619c3f6","ios":"levelo://app?vid=87a0135d-bdac-49b3-a108-04bf5619c3f6"},"vehicle_type_id":"4","last_reported":1722535834,"current_range_meters":20000,"station_id":"ce4bh0p2rcd13ifvqd80","pricing_plan_id":"cebpf4jnsgd1na2vs0mg"},{"bike_id":"34d34840-9a1f-433f-8109-8be3ff78f20e","system_id":"levelo_inurba_marseille","lat":43.293009,"lon":5.374584,"is_reserved":false,"is_disabled":false,"rental_uris":{"android":"levelo://app?vid=34d34840-9a1f-433f-8109-8be3ff78f20e","ios":"levelo://app?vid=34d34840-9a1f-433f-8109-8be3ff78f20e"},"vehicle_type_id":"4","last_reported":1722535834,"current_range_meters":29200,"station_id":"ce4bgi12rcd13ifvqb70","pricing_plan_id":"cebpf4jnsgd1na2vs0mg"},{"bike_id":"6530201f-701b-4a14-b456-b5bde5465ae5","system_id":"levelo_inurba_marseille","lat":43.30586,"lon":5.39351,"is_reserved":false,"is_disabled":false,"rental_uris":{"android":"levelo://app?vid=6530201f-701b-4a14-b456-b5bde5465ae5","ios":"levelo://app?vid=6530201f-701b-4a14-b456-b5bde5465ae5"},"vehicle_type_id":"4","last_reported":1722535834,"current_range_meters":0,"station_id":"ce4bh0p2rcd13ifvqd80","pricing_plan_id":"cebpf4jnsgd1na2vs0mg"},{"bike_id":"9e889eb3-808d-485d-a220-4fa6ac54eef5","system_id":"levelo_inurba_marseille","lat":43.293009,"lon":5.374584,"is_reserved":false,"is_disabled":false,"rental_uris":{"android":"levelo://app?vid=9e889eb3-808d-485d-a220-4fa6ac54eef5","ios":"levelo://app?vid=9e889eb3-808d-485d-a220-4fa6ac54eef5"},"vehicle_type_id":"4","last_reported":1722535834,"current_range_meters":5200,"station_id":"ce4bgi12rcd13ifvqb70","pricing_plan_id":"cebpf4jnsgd1na2vs0mg"},{"bike_id":"35e96e99-5fb8-4cc7-8331-508a9c2d625b","system_id":"levelo_inurba_marseille","lat":43.293009,"lon":5.374584,"is_reserved":false,"is_disabled":false,"rental_uris":{"android":"levelo://app?vid=35e96e99-5fb8-4cc7-8331-508a9c2d625b","ios":"levelo://app?vid=35e96e99-5fb8-4cc7-8331-508a9c2d625b"},"vehicle_type_id":"4","last_reported":1722535834,"current_range_meters":30800,"station_id":"ce4bgi12rcd13ifvqb70","pricing_plan_id":"cebpf4jnsgd1na2vs0mg"},{"bike_id":"fb262569-ec71-4325-baed-ab58810ad035","system_id":"levelo_inurba_marseille","lat":43.293009,"lon":5.374584,"is_reserved":false,"is_disabled":false,"rental_uris":{"android":"levelo://app?vid=fb262569-ec71-4325-baed-ab58810ad035","ios":"levelo://app?vid=fb262569-ec71-4325-baed-ab58810ad035"},"vehicle_type_id":"4","last_reported":1722535834,"current_range_meters":8000,"station_id":"ce4bgi12rcd13ifvqb70","pricing_plan_id":"cebpf4jnsgd1na2vs0mg"},{"bike_id":"eaa2e988-6d32-401b-a77e-6883f5ecbd75","system_id":"levelo_inurba_marseille","lat":43.303002,"lon":5.392142,"is_reserved":false,"is_disabled":false,"rental_uris":{"android":"levelo://app?vid=eaa2e988-6d32-401b-a77e-6883f5ecbd75","ios":"levelo://app?vid=eaa2e988-6d32-401b-a77e-6883f5ecbd75"},"vehicle_type_id":"4","last_reported":1722535834,"current_range_meters":0,"station_id":"ce4bgkh2rcd13ifvqbk0","pricing_plan_id":"cebpf4jnsgd1na2vs0mg"},{"bike_id":"76e31f44-bd82-4816-90f3-f0c9e561d8a3","system_id":"levelo_inurba_marseille","lat":43.2936,"lon":5.37835,"is_reserved":false,"is_disabled":false,"rental_uris":{"android":"levelo://app?vid=76e31f44-bd82-4816-90f3-f0c9e561d8a3","ios":"levelo://app?vid=76e31f44-bd82-4816-90f3-f0c9e561d8a3"},"vehicle_type_id":"4","last_reported":1722535834,"current_range_meters":21200,"station_id":"ce4bgjh2rcd13ifvqbf0","pricing_plan_id":"cebpf4jnsgd1na2vs0mg"},{"bike_id":"a223bb08-a1f2-4d21-b3b0-04916852c0b9","system_id":"levelo_inurba_marseille","lat":43.2936,"lon":5.37835,"is_reserved":false,"is_disabled":false,"rental_uris":{"android":"levelo://app?vid=a223bb08-a1f2-4d21-b3b0-04916852c0b9","ios":"levelo://app?vid=a223bb08-a1f2-4d21-b3b0-04916852c0b9"},"vehicle_type_id":"4","last_reported":1722535834,"current_range_meters":2400,"station_id":"ce4bgjh2rcd13ifvqbf0","pricing_plan_id":"cebpf4jnsgd1na2vs0mg"},{"bike_id":"abdbc991-fc3c-4b59-a281-f8420fa0ed91","system_id":"levelo_inurba_marseille","lat":43.2936,"lon":5.37835,"is_reserved":false,"is_disabled":false,"rental_uris":{"android":"levelo://app?vid=abdbc991-fc3c-4b59-a281-f8420fa0ed91","ios":"levelo://app?vid=abdbc991-fc3c-4b59-a281-f8420fa0ed91"},"vehicle_type_id":"4","last_reported":1722535834,"current_range_meters":14000,"station_id":"ce4bgjh2rcd13ifvqbf0","pricing_plan_id":"cebpf4jnsgd1na2vs0mg"},{"bike_id":"a3cc14c1-e9d9-413e-a69e-4efd30744172","system_id":"levelo_inurba_marseille","lat":43.2936,"lon":5.37835,"is_reserved":false,"is_disabled":false,"rental_uris":{"android":"levelo://app?vid=a3cc14c1-e9d9-413e-a69e-4efd30744172","ios":"levelo://app?vid=a3cc14c1-e9d9-413e-a69e-4efd30744172"},"vehicle_type_id":"4","last_reported":1722535834,"current_range_meters":5600,"station_id":"ce4bgjh2rcd13ifvqbf0","pricing_plan_id":"cebpf4jnsgd1na2vs0mg"},{"bike_id":"c6b62eb9-1c8f-457f-ad80-864196059650","system_id":"levelo_inurba_marseille","lat":43.292311,"lon":5.360731,"is_reserved":false,"is_disabled":false,"rental_uris":{"android":"levelo://app?vid=c6b62eb9-1c8f-457f-ad80-864196059650","ios":"levelo://app?vid=c6b62eb9-1c8f-457f-ad80-864196059650"},"vehicle_type_id":"4","last_reported":1722535834,"current_range_meters":8800,"station_id":"ce4bhbh2rcd13ifvqeqg","pricing_plan_id":"cebpf4jnsgd1na2vs0mg"},{"bike_id":"42d4fa4d-1782-46be-bf29-8d6a3c7be911","system_id":"levelo_inurba_marseille","lat":43.292311,"lon":5.360731,"is_reserved":false,"is_disabled":false,"rental_uris":{"android":"levelo://app?vid=42d4fa4d-1782-46be-bf29-8d6a3c7be911","ios":"levelo://app?vid=42d4fa4d-1782-46be-bf29-8d6a3c7be911"},"vehicle_type_id":"4","last_reported":1722535834,"current_range_meters":5200,"station_id":"ce4bhbh2rcd13ifvqeqg","pricing_plan_id":"cebpf4jnsgd1na2vs0mg"},{"bike_id":"209ca6ee-cfad-491d-88bd-0e7b91a109ae","system_id":"levelo_inurba_marseille","lat":43.30085,"lon":5.390856,"is_reserved":false,"is_disabled":false,"rental_uris":{"android":"levelo://app?vid=209ca6ee-cfad-491d-88bd-0e7b91a109ae","ios":"levelo://app?vid=209ca6ee-cfad-491d-88bd-0e7b91a109ae"},"vehicle_type_id":"4","last_reported":1722535834,"current_range_meters":800,"station_id":"ce4bh192rcd13ifvqdb0","pricing_plan_id":"cebpf4jnsgd1na2vs0mg"},{"bike_id":"01072eb6-9ff0-4188-90eb-bfc6202070c0","system_id":"levelo_inurba_marseille","lat":43.292311,"lon":5.360731,"is_reserved":false,"is_disabled":false,"rental_uris":{"android":"levelo://app?vid=01072eb6-9ff0-4188-90eb-bfc6202070c0","ios":"levelo://app?vid=01072eb6-9ff0-4188-90eb-bfc6202070c0"},"vehicle_type_id":"4","last_reported":1722535834,"current_range_meters":31200,"station_id":"ce4bhbh2rcd13ifvqeqg","pricing_plan_id":"cebpf4jnsgd1na2vs0mg"},{"bike_id":"84cd3b01-415a-4850-8153-a701412b34ed","system_id":"levelo_inurba_marseille","lat":43.292311,"lon":5.360731,"is_reserved":false,"is_disabled":false,"rental_uris":{"android":"levelo://app?vid=84cd3b01-415a-4850-8153-a701412b34ed","ios":"levelo://app?vid=84cd3b01-415a-4850-8153-a701412b34ed"},"vehicle_type_id":"4","last_reported":1722535834,"current_range_meters":14800,"station_id":"ce4bhbh2rcd13ifvqeqg","pricing_plan_id":"cebpf4jnsgd1na2vs0mg"},{"bike_id":"31917449-3221-49c2-ac00-379c0e6cd2b7","system_id":"levelo_inurba_marseille","lat":43.30085,"lon":5.390856,"is_reserved":false,"is_disabled":false,"rental_uris":{"android":"levelo://app?vid=31917449-3221-49c2-ac00-379c0e6cd2b7","ios":"levelo://app?vid=31917449-3221-49c2-ac00-379c0e6cd2b7"},"vehicle_type_id":"4","last_reported":1722535834,"current_range_meters":8800,"station_id":"ce4bh192rcd13ifvqdb0","pricing_plan_id":"cebpf4jnsgd1na2vs0mg"},{"bike_id":"96225b62-9582-4a04-9bd2-6109f7454629","system_id":"levelo_inurba_marseille","lat":43.298764,"lon":5.388973,"is_reserved":false,"is_disabled":false,"rental_uris":{"android":"levelo://app?vid=96225b62-9582-4a04-9bd2-6109f7454629","ios":"levelo://app?vid=96225b62-9582-4a04-9bd2-6109f7454629"},"vehicle_type_id":"4","last_reported":1722535834,"current_range_meters":20000,"station_id":"ce4bh392rcd13ifvqdl0","pricing_plan_id":"cebpf4jnsgd1na2vs0mg"},{"bike_id":"fa52ee4a-5749-4f26-bfee-4ebbc8a48714","system_id":"levelo_inurba_marseille","lat":43.29263,"lon":5.37634,"is_reserved":false,"is_disabled":false,"rental_uris":{"android":"levelo://app?vid=fa52ee4a-5749-4f26-bfee-4ebbc8a48714","ios":"levelo://app?vid=fa52ee4a-5749-4f26-bfee-4ebbc8a48714"},"vehicle_type_id":"4","last_reported":1722535834,"current_range_meters":1200,"station_id":"ce4bgi12rcd13ifvqb80","pricing_plan_id":"cebpf4jnsgd1na2vs0mg"},{"bike_id":"62ac9d4d-0e8f-4b7a-b92b-cb35c76e9bb5","system_id":"levelo_inurba_marseille","lat":43.293009,"lon":5.374584,"is_reserved":false,"is_disabled":false,"rental_uris":{"android":"levelo://app?vid=62ac9d4d-0e8f-4b7a-b92b-cb35c76e9bb5","ios":"levelo://app?vid=62ac9d4d-0e8f-4b7a-b92b-cb35c76e9bb5"},"vehicle_type_id":"4","last_reported":1722535834,"current_range_meters":25600,"station_id":"ce4bgi12rcd13ifvqb70","pricing_plan_id":"cebpf4jnsgd1na2vs0mg"},{"bike_id":"d1212614-1752-45e4-b846-4f9ee35e9314","system_id":"levelo_inurba_marseille","lat":43.29255,"lon":5.37612,"is_reserved":false,"is_disabled":false,"rental_uris":{"android":"levelo://app?vid=d1212614-1752-45e4-b846-4f9ee35e9314","ios":"levelo://app?vid=d1212614-1752-45e4-b846-4f9ee35e9314"},"vehicle_type_id":"4","last_reported":1722535834,"current_range_meters":0,"station_id":"ce4bgi12rcd13ifvqb80","pricing_plan_id":"cebpf4jnsgd1na2vs0mg"},{"bike_id":"776e1787-66ab-4f87-9044-d8e79cc5c08b","system_id":"levelo_inurba_marseille","lat":43.29257,"lon":5.37634,"is_reserved":false,"is_disabled":false,"rental_uris":{"android":"levelo://app?vid=776e1787-66ab-4f87-9044-d8e79cc5c08b","ios":"levelo://app?vid=776e1787-66ab-4f87-9044-d8e79cc5c08b"},"vehicle_type_id":"4","last_reported":1722535834,"current_range_meters":19200,"station_id":"ce4bgi12rcd13ifvqb80","pricing_plan_id":"cebpf4jnsgd1na2vs0mg"},{"bike_id":"0b6aeadb-58ea-48fe-9992-6a844909d07b","system_id":"levelo_inurba_marseille","lat":43.29252,"lon":5.37616,"is_reserved":false,"is_disabled":false,"rental_uris":{"android":"levelo://app?vid=0b6aeadb-58ea-48fe-9992-6a844909d07b","ios":"levelo://app?vid=0b6aeadb-58ea-48fe-9992-6a844909d07b"},"vehicle_type_id":"4","last_reported":1722535834,"current_range_meters":17600,"station_id":"ce4bgi12rcd13ifvqb80","pricing_plan_id":"cebpf4jnsgd1na2vs0mg"},{"bike_id":"bb91fcee-0cfa-4963-b624-94ba30c92d09","system_id":"levelo_inurba_marseille","lat":43.29251,"lon":5.37621,"is_reserved":false,"is_disabled":false,"rental_uris":{"android":"levelo://app?vid=bb91fcee-0cfa-4963-b624-94ba30c92d09","ios":"levelo://app?vid=bb91fcee-0cfa-4963-b624-94ba30c92d09"},"vehicle_type_id":"4","last_reported":1722535834,"current_range_meters":10800,"station_id":"ce4bgi12rcd13ifvqb80","pricing_plan_id":"cebpf4jnsgd1na2vs0mg"},{"bike_id":"48662c60-6e04-4213-aaef-74637d19b633","system_id":"levelo_inurba_marseille","lat":43.291675,"lon":5.371583,"is_reserved":false,"is_disabled":false,"rental_uris":{"android":"levelo://app?vid=48662c60-6e04-4213-aaef-74637d19b633","ios":"levelo://app?vid=48662c60-6e04-4213-aaef-74637d19b633"},"vehicle_type_id":"4","last_reported":1722535834,"current_range_meters":5600,"station_id":"ce4bha92rcd13ifvqeh0","pricing_plan_id":"cebpf4jnsgd1na2vs0mg"},{"bike_id":"ddfd60f7-17f9-4982-aac7-a1e0a676bf4a","system_id":"levelo_inurba_marseille","lat":43.298764,"lon":5.388973,"is_reserved":false,"is_disabled":false,"rental_uris":{"android":"levelo://app?vid=ddfd60f7-17f9-4982-aac7-a1e0a676bf4a","ios":"levelo://app?vid=ddfd60f7-17f9-4982-aac7-a1e0a676bf4a"},"vehicle_type_id":"4","last_reported":1722535834,"current_range_meters":3600,"station_id":"ce4bh392rcd13ifvqdl0","pricing_plan_id":"cebpf4jnsgd1na2vs0mg"},{"bike_id":"e7d91d32-c739-4282-9235-70633ec9c7bc","system_id":"levelo_inurba_marseille","lat":43.291671,"lon":5.371575,"is_reserved":false,"is_disabled":false,"rental_uris":{"android":"levelo://app?vid=e7d91d32-c739-4282-9235-70633ec9c7bc","ios":"levelo://app?vid=e7d91d32-c739-4282-9235-70633ec9c7bc"},"vehicle_type_id":"4","last_reported":1722535834,"current_range_meters":26400,"station_id":"ce4bha92rcd13ifvqeh0","pricing_plan_id":"cebpf4jnsgd1na2vs0mg"},{"bike_id":"fd1fe53a-dd78-4383-9238-439b3b03bd2a","system_id":"levelo_inurba_marseille","lat":43.309047,"lon":5.396551,"is_reserved":false,"is_disabled":false,"rental_uris":{"android":"levelo://app?vid=fd1fe53a-dd78-4383-9238-439b3b03bd2a","ios":"levelo://app?vid=fd1fe53a-dd78-4383-9238-439b3b03bd2a"},"vehicle_type_id":"4","last_reported":1722535834,"current_range_meters":3600,"station_id":"ce4bh012rcd13ifvqcv0","pricing_plan_id":"cebpf4jnsgd1na2vs0mg"},{"bike_id":"7843527f-986a-4564-9ac0-09a3e267e99a","system_id":"levelo_inurba_marseille","lat":43.313291,"lon":5.396838,"is_reserved":false,"is_disabled":false,"rental_uris":{"android":"levelo://app?vid=7843527f-986a-4564-9ac0-09a3e267e99a","ios":"levelo://app?vid=7843527f-986a-4564-9ac0-09a3e267e99a"},"vehicle_type_id":"4","last_reported":1722535834,"current_range_meters":3600,"station_id":"ce4bgvp2rcd13ifvqcu0","pricing_plan_id":"cebpf4jnsgd1na2vs0mg"},{"bike_id":"fd9febd3-e045-454b-aafc-f17aff58d16c","system_id":"levelo_inurba_marseille","lat":43.309038,"lon":5.396546,"is_reserved":false,"is_disabled":false,"rental_uris":{"android":"levelo://app?vid=fd9febd3-e045-454b-aafc-f17aff58d16c","ios":"levelo://app?vid=fd9febd3-e045-454b-aafc-f17aff58d16c"},"vehicle_type_id":"4","last_reported":1722535834,"current_range_meters":0,"station_id":"ce4bh012rcd13ifvqcv0","pricing_plan_id":"cebpf4jnsgd1na2vs0mg"},{"bike_id":"b9826bca-588a-41cc-a05e-c13477dbd798","system_id":"levelo_inurba_marseille","lat":43.29529,"lon":5.385581,"is_reserved":false,"is_disabled":false,"rental_uris":{"android":"levelo://app?vid=b9826bca-588a-41cc-a05e-c13477dbd798","ios":"levelo://app?vid=b9826bca-588a-41cc-a05e-c13477dbd798"},"vehicle_type_id":"4","last_reported":1722535834,"current_range_meters":13200,"station_id":"ce4bgih2rcd13ifvqba0","pricing_plan_id":"cebpf4jnsgd1na2vs0mg"},{"bike_id":"ec066e68-15fa-4b4a-91df-927990e5cbad","system_id":"levelo_inurba_marseille","lat":43.295327,"lon":5.385463,"is_reserved":false,"is_disabled":false,"rental_uris":{"android":"levelo://app?vid=ec066e68-15fa-4b4a-91df-927990e5cbad","ios":"levelo://app?vid=ec066e68-15fa-4b4a-91df-927990e5cbad"},"vehicle_type_id":"4","last_reported":1722535834,"current_range_meters":30000,"station_id":"","pricing_plan_id":"cebpf4jnsgd1na2vs0mg"},{"bike_id":"1e553d4e-cbe2-4b2a-a4db-dd0553189e17","system_id":"levelo_inurba_marseille","lat":43.29529,"lon":5.385581,"is_reserved":false,"is_disabled":false,"rental_uris":{"android":"levelo://app?vid=1e553d4e-cbe2-4b2a-a4db-dd0553189e17","ios":"levelo://app?vid=1e553d4e-cbe2-4b2a-a4db-dd0553189e17"},"vehicle_type_id":"4","last_reported":1722535834,"current_range_meters":8800,"station_id":"ce4bgih2rcd13ifvqba0","pricing_plan_id":"cebpf4jnsgd1na2vs0mg"},{"bike_id":"f98fe5bc-af4c-4311-8b66-5a2fa5e8b50a","system_id":"levelo_inurba_marseille","lat":43.290779,"lon":5.371482,"is_reserved":false,"is_disabled":false,"rental_uris":{"android":"levelo://app?vid=f98fe5bc-af4c-4311-8b66-5a2fa5e8b50a","ios":"levelo://app?vid=f98fe5bc-af4c-4311-8b66-5a2fa5e8b50a"},"vehicle_type_id":"4","last_reported":1722535834,"current_range_meters":7600,"station_id":"ce4bh5p2rcd13ifvqe4g","pricing_plan_id":"cebpf4jnsgd1na2vs0mg"},{"bike_id":"7a2ad72a-7719-4d43-b0c7-d9301911f35c","system_id":"levelo_inurba_marseille","lat":43.30179,"lon":5.39378,"is_reserved":false,"is_disabled":false,"rental_uris":{"android":"levelo://app?vid=7a2ad72a-7719-4d43-b0c7-d9301911f35c","ios":"levelo://app?vid=7a2ad72a-7719-4d43-b0c7-d9301911f35c"},"vehicle_type_id":"4","last_reported":1722535834,"current_range_meters":19200,"station_id":"","pricing_plan_id":"cebpf4jnsgd1na2vs0mg"},{"bike_id":"96f16520-3ba5-4e46-ab5d-e3786e4bef11","system_id":"levelo_inurba_marseille","lat":43.29068,"lon":5.35938,"is_reserved":false,"is_disabled":false,"rental_uris":{"android":"levelo://app?vid=96f16520-3ba5-4e46-ab5d-e3786e4bef11","ios":"levelo://app?vid=96f16520-3ba5-4e46-ab5d-e3786e4bef11"},"vehicle_type_id":"4","last_reported":1722535834,"current_range_meters":9200,"station_id":"ce4bha92rcd13ifvqeg0","pricing_plan_id":"cebpf4jnsgd1na2vs0mg"},{"bike_id":"3595f8ae-1c59-4600-8a01-52d84239e71f","system_id":"levelo_inurba_marseille","lat":43.29047,"lon":5.35909,"is_reserved":false,"is_disabled":false,"rental_uris":{"android":"levelo://app?vid=3595f8ae-1c59-4600-8a01-52d84239e71f","ios":"levelo://app?vid=3595f8ae-1c59-4600-8a01-52d84239e71f"},"vehicle_type_id":"4","last_reported":1722535834,"current_range_meters":4400,"station_id":"ce4bha92rcd13ifvqeg0","pricing_plan_id":"cebpf4jnsgd1na2vs0mg"},{"bike_id":"f00639aa-76fa-4906-a3f2-8242772b1fc4","system_id":"levelo_inurba_marseille","lat":43.29039,"lon":5.35906,"is_reserved":false,"is_disabled":false,"rental_uris":{"android":"levelo://app?vid=f00639aa-76fa-4906-a3f2-8242772b1fc4","ios":"levelo://app?vid=f00639aa-76fa-4906-a3f2-8242772b1fc4"},"vehicle_type_id":"4","last_reported":1722535834,"current_range_meters":0,"station_id":"ce4bha92rcd13ifvqeg0","pricing_plan_id":"cebpf4jnsgd1na2vs0mg"},{"bike_id":"3440f496-a243-482b-8a68-418b437795d0","system_id":"levelo_inurba_marseille","lat":43.290319,"lon":5.375732,"is_reserved":false,"is_disabled":false,"rental_uris":{"android":"levelo://app?vid=3440f496-a243-482b-8a68-418b437795d0","ios":"levelo://app?vid=3440f496-a243-482b-8a68-418b437795d0"},"vehicle_type_id":"4","last_reported":1722535834,"current_range_meters":5200,"station_id":"ce4bh692rcd13ifvqe90","pricing_plan_id":"cebpf4jnsgd1na2vs0mg"},{"bike_id":"54fac555-cb10-4067-a4a1-789791d801d8","system_id":"levelo_inurba_marseille","lat":43.294153,"lon":5.386305,"is_reserved":false,"is_disabled":false,"rental_uris":{"android":"levelo://app?vid=54fac555-cb10-4067-a4a1-789791d801d8","ios":"levelo://app?vid=54fac555-cb10-4067-a4a1-789791d801d8"},"vehicle_type_id":"4","last_reported":1722535834,"current_range_meters":7600,"station_id":"ce4bh2h2rcd13ifvqdh0","pricing_plan_id":"cebpf4jnsgd1na2vs0mg"},{"bike_id":"085c2fb9-c165-4d2a-92de-5769f72b6108","system_id":"levelo_inurba_marseille","lat":43.294162,"lon":5.386292,"is_reserved":false,"is_disabled":false,"rental_uris":{"android":"levelo://app?vid=085c2fb9-c165-4d2a-92de-5769f72b6108","ios":"levelo://app?vid=085c2fb9-c165-4d2a-92de-5769f72b6108"},"vehicle_type_id":"4","last_reported":1722535834,"current_range_meters":28400,"station_id":"ce4bh2h2rcd13ifvqdh0","pricing_plan_id":"cebpf4jnsgd1na2vs0mg"},{"bike_id":"95adbec0-84cd-4668-b14a-91e213bda4e1","system_id":"levelo_inurba_marseille","lat":43.294153,"lon":5.386305,"is_reserved":false,"is_disabled":false,"rental_uris":{"android":"levelo://app?vid=95adbec0-84cd-4668-b14a-91e213bda4e1","ios":"levelo://app?vid=95adbec0-84cd-4668-b14a-91e213bda4e1"},"vehicle_type_id":"4","last_reported":1722535834,"current_range_meters":29600,"station_id":"ce4bh2h2rcd13ifvqdh0","pricing_plan_id":"cebpf4jnsgd1na2vs0mg"},{"bike_id":"041d9a64-bf3f-4607-8a5c-ca7d97524bd3","system_id":"levelo_inurba_marseille","lat":43.290319,"lon":5.375732,"is_reserved":false,"is_disabled":false,"rental_uris":{"android":"levelo://app?vid=041d9a64-bf3f-4607-8a5c-ca7d97524bd3","ios":"levelo://app?vid=041d9a64-bf3f-4607-8a5c-ca7d97524bd3"},"vehicle_type_id":"4","last_reported":1722535834,"current_range_meters":400,"station_id":"ce4bh692rcd13ifvqe90","pricing_plan_id":"cebpf4jnsgd1na2vs0mg"},{"bike_id":"fb87a107-b3ca-4d09-b919-61b24bbe03ba","system_id":"levelo_inurba_marseille","lat":43.29414,"lon":5.38625,"is_reserved":false,"is_disabled":false,"rental_uris":{"android":"levelo://app?vid=fb87a107-b3ca-4d09-b919-61b24bbe03ba","ios":"levelo://app?vid=fb87a107-b3ca-4d09-b919-61b24bbe03ba"},"vehicle_type_id":"4","last_reported":1722535834,"current_range_meters":0,"station_id":"ce4bh2h2rcd13ifvqdh0","pricing_plan_id":"cebpf4jnsgd1na2vs0mg"},{"bike_id":"8c566972-6e81-42b8-9e85-0620a031ea38","system_id":"levelo_inurba_marseille","lat":43.28931,"lon":5.36634,"is_reserved":false,"is_disabled":false,"rental_uris":{"android":"levelo://app?vid=8c566972-6e81-42b8-9e85-0620a031ea38","ios":"levelo://app?vid=8c566972-6e81-42b8-9e85-0620a031ea38"},"vehicle_type_id":"4","last_reported":1722535834,"current_range_meters":31200,"station_id":"ce4bhap2rcd13ifvqek0","pricing_plan_id":"cebpf4jnsgd1na2vs0mg"},{"bike_id":"55784146-bb4c-4eb4-afe2-f94b5504eee5","system_id":"levelo_inurba_marseille","lat":43.28929,"lon":5.36623,"is_reserved":false,"is_disabled":false,"rental_uris":{"android":"levelo://app?vid=55784146-bb4c-4eb4-afe2-f94b5504eee5","ios":"levelo://app?vid=55784146-bb4c-4eb4-afe2-f94b5504eee5"},"vehicle_type_id":"4","last_reported":1722535834,"current_range_meters":25600,"station_id":"ce4bhap2rcd13ifvqek0","pricing_plan_id":"cebpf4jnsgd1na2vs0mg"},{"bike_id":"3e672185-3cf1-44d9-a31c-af2f2cbcc57a","system_id":"levelo_inurba_marseille","lat":43.2927,"lon":5.38439,"is_reserved":false,"is_disabled":false,"rental_uris":{"android":"levelo://app?vid=3e672185-3cf1-44d9-a31c-af2f2cbcc57a","ios":"levelo://app?vid=3e672185-3cf1-44d9-a31c-af2f2cbcc57a"},"vehicle_type_id":"4","last_reported":1722535834,"current_range_meters":13600,"station_id":"ce4bh692rcd13ifvqea0","pricing_plan_id":"cebpf4jnsgd1na2vs0mg"},{"bike_id":"5cdadf8f-8447-46ab-a59c-6316b5e57e75","system_id":"levelo_inurba_marseille","lat":43.29267,"lon":5.38437,"is_reserved":false,"is_disabled":false,"rental_uris":{"android":"levelo://app?vid=5cdadf8f-8447-46ab-a59c-6316b5e57e75","ios":"levelo://app?vid=5cdadf8f-8447-46ab-a59c-6316b5e57e75"},"vehicle_type_id":"4","last_reported":1722535834,"current_range_meters":3600,"station_id":"ce4bh692rcd13ifvqea0","pricing_plan_id":"cebpf4jnsgd1na2vs0mg"},{"bike_id":"f8205914-b618-435b-b19e-77d347b89d42","system_id":"levelo_inurba_marseille","lat":43.292642,"lon":5.384254,"is_reserved":false,"is_disabled":false,"rental_uris":{"android":"levelo://app?vid=f8205914-b618-435b-b19e-77d347b89d42","ios":"levelo://app?vid=f8205914-b618-435b-b19e-77d347b89d42"},"vehicle_type_id":"4","last_reported":1722535834,"current_range_meters":0,"station_id":"ce4bh692rcd13ifvqea0","pricing_plan_id":"cebpf4jnsgd1na2vs0mg"},{"bike_id":"14186080-95ba-4649-978f-2d06812d193b","system_id":"levelo_inurba_marseille","lat":43.292642,"lon":5.384254,"is_reserved":false,"is_disabled":false,"rental_uris":{"android":"levelo://app?vid=14186080-95ba-4649-978f-2d06812d193b","ios":"levelo://app?vid=14186080-95ba-4649-978f-2d06812d193b"},"vehicle_type_id":"4","last_reported":1722535834,"current_range_meters":0,"station_id":"ce4bh692rcd13ifvqea0","pricing_plan_id":"cebpf4jnsgd1na2vs0mg"},{"bike_id":"e527b0d4-5b8e-4e40-ba7d-47e091b80beb","system_id":"levelo_inurba_marseille","lat":43.292644,"lon":5.384257,"is_reserved":false,"is_disabled":false,"rental_uris":{"android":"levelo://app?vid=e527b0d4-5b8e-4e40-ba7d-47e091b80beb","ios":"levelo://app?vid=e527b0d4-5b8e-4e40-ba7d-47e091b80beb"},"vehicle_type_id":"4","last_reported":1722535834,"current_range_meters":3200,"station_id":"ce4bh692rcd13ifvqea0","pricing_plan_id":"cebpf4jnsgd1na2vs0mg"},{"bike_id":"6ec0bbee-51ef-44e4-b317-8cee503cfc2a","system_id":"levelo_inurba_marseille","lat":43.29259,"lon":5.38432,"is_reserved":false,"is_disabled":false,"rental_uris":{"android":"levelo://app?vid=6ec0bbee-51ef-44e4-b317-8cee503cfc2a","ios":"levelo://app?vid=6ec0bbee-51ef-44e4-b317-8cee503cfc2a"},"vehicle_type_id":"4","last_reported":1722535834,"current_range_meters":0,"station_id":"ce4bh692rcd13ifvqea0","pricing_plan_id":"cebpf4jnsgd1na2vs0mg"},{"bike_id":"25af431d-dd08-47c2-943f-2d43f6af622a","system_id":"levelo_inurba_marseille","lat":43.292666,"lon":5.384571,"is_reserved":false,"is_disabled":false,"rental_uris":{"android":"levelo://app?vid=25af431d-dd08-47c2-943f-2d43f6af622a","ios":"levelo://app?vid=25af431d-dd08-47c2-943f-2d43f6af622a"},"vehicle_type_id":"4","last_reported":1722535834,"current_range_meters":0,"station_id":"ce4bh692rcd13ifvqea0","pricing_plan_id":"cebpf4jnsgd1na2vs0mg"},{"bike_id":"a678a07a-38cd-42a0-b866-408be9d4b2b2","system_id":"levelo_inurba_marseille","lat":43.29008,"lon":5.35617,"is_reserved":false,"is_disabled":false,"rental_uris":{"android":"levelo://app?vid=a678a07a-38cd-42a0-b866-408be9d4b2b2","ios":"levelo://app?vid=a678a07a-38cd-42a0-b866-408be9d4b2b2"},"vehicle_type_id":"4","last_reported":1722535834,"current_range_meters":0,"station_id":"ce4bhb92rcd13ifvqen0","pricing_plan_id":"cebpf4jnsgd1na2vs0mg"},{"bike_id":"99e108a4-374d-4dcb-aa20-92cbced80216","system_id":"levelo_inurba_marseille","lat":43.290104,"lon":5.356111,"is_reserved":false,"is_disabled":false,"rental_uris":{"android":"levelo://app?vid=99e108a4-374d-4dcb-aa20-92cbced80216","ios":"levelo://app?vid=99e108a4-374d-4dcb-aa20-92cbced80216"},"vehicle_type_id":"4","last_reported":1722535834,"current_range_meters":0,"station_id":"ce4bhb92rcd13ifvqen0","pricing_plan_id":"cebpf4jnsgd1na2vs0mg"},{"bike_id":"c61769d6-af2c-4999-8ff5-83b003a66a88","system_id":"levelo_inurba_marseille","lat":43.290104,"lon":5.356111,"is_reserved":false,"is_disabled":false,"rental_uris":{"android":"levelo://app?vid=c61769d6-af2c-4999-8ff5-83b003a66a88","ios":"levelo://app?vid=c61769d6-af2c-4999-8ff5-83b003a66a88"},"vehicle_type_id":"4","last_reported":1722535834,"current_range_meters":0,"station_id":"ce4bhb92rcd13ifvqen0","pricing_plan_id":"cebpf4jnsgd1na2vs0mg"},{"bike_id":"e6c8a245-2120-49e9-b3f3-6282b8495d56","system_id":"levelo_inurba_marseille","lat":43.290026,"lon":5.356171,"is_reserved":false,"is_disabled":false,"rental_uris":{"android":"levelo://app?vid=e6c8a245-2120-49e9-b3f3-6282b8495d56","ios":"levelo://app?vid=e6c8a245-2120-49e9-b3f3-6282b8495d56"},"vehicle_type_id":"4","last_reported":1722535834,"current_range_meters":27600,"station_id":"","pricing_plan_id":"cebpf4jnsgd1na2vs0mg"},{"bike_id":"28328ad4-f42d-429d-9e19-8d37c56dec96","system_id":"levelo_inurba_marseille","lat":43.29004,"lon":5.35606,"is_reserved":false,"is_disabled":false,"rental_uris":{"android":"levelo://app?vid=28328ad4-f42d-429d-9e19-8d37c56dec96","ios":"levelo://app?vid=28328ad4-f42d-429d-9e19-8d37c56dec96"},"vehicle_type_id":"4","last_reported":1722535834,"current_range_meters":0,"station_id":"ce4bhb92rcd13ifvqen0","pricing_plan_id":"cebpf4jnsgd1na2vs0mg"},{"bike_id":"934e77d5-8221-48d4-84a9-0518984361c9","system_id":"levelo_inurba_marseille","lat":43.290104,"lon":5.356111,"is_reserved":false,"is_disabled":false,"rental_uris":{"android":"levelo://app?vid=934e77d5-8221-48d4-84a9-0518984361c9","ios":"levelo://app?vid=934e77d5-8221-48d4-84a9-0518984361c9"},"vehicle_type_id":"4","last_reported":1722535834,"current_range_meters":23600,"station_id":"ce4bhb92rcd13ifvqen0","pricing_plan_id":"cebpf4jnsgd1na2vs0mg"},{"bike_id":"dd7e4903-6470-4cd2-a64e-5723d1133e77","system_id":"levelo_inurba_marseille","lat":43.290104,"lon":5.356111,"is_reserved":false,"is_disabled":false,"rental_uris":{"android":"levelo://app?vid=dd7e4903-6470-4cd2-a64e-5723d1133e77","ios":"levelo://app?vid=dd7e4903-6470-4cd2-a64e-5723d1133e77"},"vehicle_type_id":"4","last_reported":1722535834,"current_range_meters":1200,"station_id":"ce4bhb92rcd13ifvqen0","pricing_plan_id":"cebpf4jnsgd1na2vs0mg"},{"bike_id":"96d4f170-fb65-4bc1-a373-6650079b77c1","system_id":"levelo_inurba_marseille","lat":43.29089,"lon":5.38131,"is_reserved":false,"is_disabled":false,"rental_uris":{"android":"levelo://app?vid=96d4f170-fb65-4bc1-a373-6650079b77c1","ios":"levelo://app?vid=96d4f170-fb65-4bc1-a373-6650079b77c1"},"vehicle_type_id":"4","last_reported":1722535834,"current_range_meters":0,"station_id":"ce4bh512rcd13ifvqe2g","pricing_plan_id":"cebpf4jnsgd1na2vs0mg"},{"bike_id":"41e666ab-53db-4b9a-acdf-55f81c32bf81","system_id":"levelo_inurba_marseille","lat":43.295169,"lon":5.390426,"is_reserved":false,"is_disabled":false,"rental_uris":{"android":"levelo://app?vid=41e666ab-53db-4b9a-acdf-55f81c32bf81","ios":"levelo://app?vid=41e666ab-53db-4b9a-acdf-55f81c32bf81"},"vehicle_type_id":"4","last_reported":1722535834,"current_range_meters":4400,"station_id":"ce4bh3p2rcd13ifvqdp0","pricing_plan_id":"cebpf4jnsgd1na2vs0mg"},{"bike_id":"3cdb8321-b969-4010-9adc-bd1205883269","system_id":"levelo_inurba_marseille","lat":43.295169,"lon":5.390426,"is_reserved":false,"is_disabled":false,"rental_uris":{"android":"levelo://app?vid=3cdb8321-b969-4010-9adc-bd1205883269","ios":"levelo://app?vid=3cdb8321-b969-4010-9adc-bd1205883269"},"vehicle_type_id":"4","last_reported":1722535834,"current_range_meters":0,"station_id":"ce4bh3p2rcd13ifvqdp0","pricing_plan_id":"cebpf4jnsgd1na2vs0mg"},{"bike_id":"2388f389-e32b-46c2-9ca0-949731e35126","system_id":"levelo_inurba_marseille","lat":43.295169,"lon":5.390426,"is_reserved":false,"is_disabled":false,"rental_uris":{"android":"levelo://app?vid=2388f389-e32b-46c2-9ca0-949731e35126","ios":"levelo://app?vid=2388f389-e32b-46c2-9ca0-949731e35126"},"vehicle_type_id":"4","last_reported":1722535834,"current_range_meters":0,"station_id":"ce4bh3p2rcd13ifvqdp0","pricing_plan_id":"cebpf4jnsgd1na2vs0mg"},{"bike_id":"2eaf19a3-bc91-4a8c-b45a-fb1b73be756a","system_id":"levelo_inurba_marseille","lat":43.28975,"lon":5.37832,"is_reserved":false,"is_disabled":false,"rental_uris":{"android":"levelo://app?vid=2eaf19a3-bc91-4a8c-b45a-fb1b73be756a","ios":"levelo://app?vid=2eaf19a3-bc91-4a8c-b45a-fb1b73be756a"},"vehicle_type_id":"4","last_reported":1722535834,"current_range_meters":15600,"station_id":"ce4bh9p2rcd13ifvqed0","pricing_plan_id":"cebpf4jnsgd1na2vs0mg"},{"bike_id":"c2d1c2f9-aaef-41e6-a10e-71d772c0a3f3","system_id":"levelo_inurba_marseille","lat":43.28971,"lon":5.37833,"is_reserved":false,"is_disabled":false,"rental_uris":{"android":"levelo://app?vid=c2d1c2f9-aaef-41e6-a10e-71d772c0a3f3","ios":"levelo://app?vid=c2d1c2f9-aaef-41e6-a10e-71d772c0a3f3"},"vehicle_type_id":"4","last_reported":1722535834,"current_range_meters":18800,"station_id":"ce4bh9p2rcd13ifvqed0","pricing_plan_id":"cebpf4jnsgd1na2vs0mg"},{"bike_id":"a4b5d832-d19d-4f1e-87b9-6167275ede44","system_id":"levelo_inurba_marseille","lat":43.28968,"lon":5.37823,"is_reserved":false,"is_disabled":false,"rental_uris":{"android":"levelo://app?vid=a4b5d832-d19d-4f1e-87b9-6167275ede44","ios":"levelo://app?vid=a4b5d832-d19d-4f1e-87b9-6167275ede44"},"vehicle_type_id":"4","last_reported":1722535834,"current_range_meters":28800,"station_id":"ce4bh9p2rcd13ifvqed0","pricing_plan_id":"cebpf4jnsgd1na2vs0mg"},{"bike_id":"80f1f287-b87e-458e-a0f7-a14ac3fbd00d","system_id":"levelo_inurba_marseille","lat":43.291994,"lon":5.357886,"is_reserved":false,"is_disabled":false,"rental_uris":{"android":"levelo://app?vid=80f1f287-b87e-458e-a0f7-a14ac3fbd00d","ios":"levelo://app?vid=80f1f287-b87e-458e-a0f7-a14ac3fbd00d"},"vehicle_type_id":"4","last_reported":1722535834,"current_range_meters":2000,"station_id":"ce4bhb12rcd13ifvqel0","pricing_plan_id":"cebpf4jnsgd1na2vs0mg"},{"bike_id":"42c12e3c-7e3d-4242-b81b-fd8b6c4fcbf5","system_id":"levelo_inurba_marseille","lat":43.290094,"lon":5.381264,"is_reserved":false,"is_disabled":false,"rental_uris":{"android":"levelo://app?vid=42c12e3c-7e3d-4242-b81b-fd8b6c4fcbf5","ios":"levelo://app?vid=42c12e3c-7e3d-4242-b81b-fd8b6c4fcbf5"},"vehicle_type_id":"4","last_reported":1722535834,"current_range_meters":2800,"station_id":"ce4bh4p2rcd13ifvqe1g","pricing_plan_id":"cebpf4jnsgd1na2vs0mg"},{"bike_id":"f4cdf6f8-59cc-4926-bbd3-bf830cd7e7b6","system_id":"levelo_inurba_marseille","lat":43.2901,"lon":5.381269,"is_reserved":false,"is_disabled":false,"rental_uris":{"android":"levelo://app?vid=f4cdf6f8-59cc-4926-bbd3-bf830cd7e7b6","ios":"levelo://app?vid=f4cdf6f8-59cc-4926-bbd3-bf830cd7e7b6"},"vehicle_type_id":"4","last_reported":1722535834,"current_range_meters":29200,"station_id":"ce4bh4p2rcd13ifvqe1g","pricing_plan_id":"cebpf4jnsgd1na2vs0mg"},{"bike_id":"34dbba82-86be-4030-b008-81552b3f2b90","system_id":"levelo_inurba_marseille","lat":43.29014,"lon":5.38131,"is_reserved":false,"is_disabled":false,"rental_uris":{"android":"levelo://app?vid=34dbba82-86be-4030-b008-81552b3f2b90","ios":"levelo://app?vid=34dbba82-86be-4030-b008-81552b3f2b90"},"vehicle_type_id":"4","last_reported":1722535834,"current_range_meters":0,"station_id":"ce4bh4p2rcd13ifvqe1g","pricing_plan_id":"cebpf4jnsgd1na2vs0mg"},{"bike_id":"96d98907-4b0d-43fc-b064-e7e215dc6ec6","system_id":"levelo_inurba_marseille","lat":43.28846,"lon":5.35839,"is_reserved":false,"is_disabled":false,"rental_uris":{"android":"levelo://app?vid=96d98907-4b0d-43fc-b064-e7e215dc6ec6","ios":"levelo://app?vid=96d98907-4b0d-43fc-b064-e7e215dc6ec6"},"vehicle_type_id":"4","last_reported":1722535834,"current_range_meters":6000,"station_id":"ce4bhb12rcd13ifvqem0","pricing_plan_id":"cebpf4jnsgd1na2vs0mg"},{"bike_id":"e91f4f7d-51b9-4034-9f9e-c2618634b625","system_id":"levelo_inurba_marseille","lat":43.28856,"lon":5.358371,"is_reserved":false,"is_disabled":false,"rental_uris":{"android":"levelo://app?vid=e91f4f7d-51b9-4034-9f9e-c2618634b625","ios":"levelo://app?vid=e91f4f7d-51b9-4034-9f9e-c2618634b625"},"vehicle_type_id":"4","last_reported":1722535834,"current_range_meters":12000,"station_id":"ce4bhb12rcd13ifvqem0","pricing_plan_id":"cebpf4jnsgd1na2vs0mg"},{"bike_id":"e879102e-88bf-4f6c-997b-280a15dbfe60","system_id":"levelo_inurba_marseille","lat":43.31059,"lon":5.40131,"is_reserved":false,"is_disabled":false,"rental_uris":{"android":"levelo://app?vid=e879102e-88bf-4f6c-997b-280a15dbfe60","ios":"levelo://app?vid=e879102e-88bf-4f6c-997b-280a15dbfe60"},"vehicle_type_id":"4","last_reported":1722535834,"current_range_meters":27200,"station_id":"","pricing_plan_id":"cebpf4jnsgd1na2vs0mg"},{"bike_id":"df0a15cc-e3f1-4a43-a019-4ed3d49e6ea7","system_id":"levelo_inurba_marseille","lat":43.312609,"lon":5.401662,"is_reserved":false,"is_disabled":false,"rental_uris":{"android":"levelo://app?vid=df0a15cc-e3f1-4a43-a019-4ed3d49e6ea7","ios":"levelo://app?vid=df0a15cc-e3f1-4a43-a019-4ed3d49e6ea7"},"vehicle_type_id":"4","last_reported":1722535834,"current_range_meters":3200,"station_id":"ce4bh092rcd13ifvqd30","pricing_plan_id":"cebpf4jnsgd1na2vs0mg"},{"bike_id":"75ec8b24-c7fc-4072-a5a1-306ea3496e30","system_id":"levelo_inurba_marseille","lat":43.309371,"lon":5.401449,"is_reserved":false,"is_disabled":false,"rental_uris":{"android":"levelo://app?vid=75ec8b24-c7fc-4072-a5a1-306ea3496e30","ios":"levelo://app?vid=75ec8b24-c7fc-4072-a5a1-306ea3496e30"},"vehicle_type_id":"4","last_reported":1722535834,"current_range_meters":31200,"station_id":"ce4bgvp2rcd13ifvqct0","pricing_plan_id":"cebpf4jnsgd1na2vs0mg"},{"bike_id":"6f044633-3688-4e83-af67-cf3db97c1cc7","system_id":"levelo_inurba_marseille","lat":43.337444,"lon":5.374475,"is_reserved":false,"is_disabled":false,"rental_uris":{"android":"levelo://app?vid=6f044633-3688-4e83-af67-cf3db97c1cc7","ios":"levelo://app?vid=6f044633-3688-4e83-af67-cf3db97c1cc7"},"vehicle_type_id":"3","last_reported":1722535834,"current_range_meters":24800,"station_id":"","pricing_plan_id":"cebpf4jnsgd1na2vs0mg"},{"bike_id":"7bbf0033-ae6e-4950-8110-addd9decd164","system_id":"levelo_inurba_marseille","lat":43.309371,"lon":5.401449,"is_reserved":false,"is_disabled":false,"rental_uris":{"android":"levelo://app?vid=7bbf0033-ae6e-4950-8110-addd9decd164","ios":"levelo://app?vid=7bbf0033-ae6e-4950-8110-addd9decd164"},"vehicle_type_id":"4","last_reported":1722535834,"current_range_meters":0,"station_id":"ce4bgvp2rcd13ifvqct0","pricing_plan_id":"cebpf4jnsgd1na2vs0mg"},{"bike_id":"eb08c884-1146-40fd-a9cb-e8498f7cd7be","system_id":"levelo_inurba_marseille","lat":43.337541,"lon":5.374495,"is_reserved":false,"is_disabled":false,"rental_uris":{"android":"levelo://app?vid=eb08c884-1146-40fd-a9cb-e8498f7cd7be","ios":"levelo://app?vid=eb08c884-1146-40fd-a9cb-e8498f7cd7be"},"vehicle_type_id":"4","last_reported":1722535834,"current_range_meters":25200,"station_id":"","pricing_plan_id":"cebpf4jnsgd1na2vs0mg"},{"bike_id":"307a0a4b-d435-41c7-8f11-31f001a1fd19","system_id":"levelo_inurba_marseille","lat":43.33762,"lon":5.37441,"is_reserved":false,"is_disabled":false,"rental_uris":{"android":"levelo://app?vid=307a0a4b-d435-41c7-8f11-31f001a1fd19","ios":"levelo://app?vid=307a0a4b-d435-41c7-8f11-31f001a1fd19"},"vehicle_type_id":"4","last_reported":1722535834,"current_range_meters":4800,"station_id":"","pricing_plan_id":"cebpf4jnsgd1na2vs0mg"},{"bike_id":"a187d31b-1941-4f0a-a5ea-687ad20a1081","system_id":"levelo_inurba_marseille","lat":43.306412,"lon":5.401035,"is_reserved":false,"is_disabled":false,"rental_uris":{"android":"levelo://app?vid=a187d31b-1941-4f0a-a5ea-687ad20a1081","ios":"levelo://app?vid=a187d31b-1941-4f0a-a5ea-687ad20a1081"},"vehicle_type_id":"4","last_reported":1722535834,"current_range_meters":20800,"station_id":"ce4bh112rcd13ifvqda0","pricing_plan_id":"cebpf4jnsgd1na2vs0mg"},{"bike_id":"349cb371-965e-4e8f-9a48-8185d7094ace","system_id":"levelo_inurba_marseille","lat":43.30642,"lon":5.401031,"is_reserved":false,"is_disabled":false,"rental_uris":{"android":"levelo://app?vid=349cb371-965e-4e8f-9a48-8185d7094ace","ios":"levelo://app?vid=349cb371-965e-4e8f-9a48-8185d7094ace"},"vehicle_type_id":"4","last_reported":1722535834,"current_range_meters":0,"station_id":"ce4bh112rcd13ifvqda0","pricing_plan_id":"cebpf4jnsgd1na2vs0mg"},{"bike_id":"55df4c13-05c5-4054-b14f-cd650123a3e5","system_id":"levelo_inurba_marseille","lat":43.28727,"lon":5.36078,"is_reserved":false,"is_disabled":false,"rental_uris":{"android":"levelo://app?vid=55df4c13-05c5-4054-b14f-cd650123a3e5","ios":"levelo://app?vid=55df4c13-05c5-4054-b14f-cd650123a3e5"},"vehicle_type_id":"4","last_reported":1722535834,"current_range_meters":16400,"station_id":"cki0cbj6b192h4jlfktg","pricing_plan_id":"cebpf4jnsgd1na2vs0mg"},{"bike_id":"e98524e2-635f-45f8-8c35-31fab84e49a0","system_id":"levelo_inurba_marseille","lat":43.298681,"lon":5.397225,"is_reserved":false,"is_disabled":false,"rental_uris":{"android":"levelo://app?vid=e98524e2-635f-45f8-8c35-31fab84e49a0","ios":"levelo://app?vid=e98524e2-635f-45f8-8c35-31fab84e49a0"},"vehicle_type_id":"4","last_reported":1722535834,"current_range_meters":0,"station_id":"ce4bh0h2rcd13ifvqd50","pricing_plan_id":"cebpf4jnsgd1na2vs0mg"},{"bike_id":"452bd4c7-3144-47e9-94a1-06eb074479e1","system_id":"levelo_inurba_marseille","lat":43.298681,"lon":5.397225,"is_reserved":false,"is_disabled":false,"rental_uris":{"android":"levelo://app?vid=452bd4c7-3144-47e9-94a1-06eb074479e1","ios":"levelo://app?vid=452bd4c7-3144-47e9-94a1-06eb074479e1"},"vehicle_type_id":"4","last_reported":1722535834,"current_range_meters":800,"station_id":"ce4bh0h2rcd13ifvqd50","pricing_plan_id":"cebpf4jnsgd1na2vs0mg"},{"bike_id":"c7a09e97-516b-4068-81ce-81b5ee0d964b","system_id":"levelo_inurba_marseille","lat":43.287046,"lon":5.373928,"is_reserved":false,"is_disabled":false,"rental_uris":{"android":"levelo://app?vid=c7a09e97-516b-4068-81ce-81b5ee0d964b","ios":"levelo://app?vid=c7a09e97-516b-4068-81ce-81b5ee0d964b"},"vehicle_type_id":"4","last_reported":1722535834,"current_range_meters":0,"station_id":"ce4bh3p2rcd13ifvqdq0","pricing_plan_id":"cebpf4jnsgd1na2vs0mg"},{"bike_id":"1a91a567-c0ab-4516-b639-88192e360457","system_id":"levelo_inurba_marseille","lat":43.289307,"lon":5.38406,"is_reserved":false,"is_disabled":false,"rental_uris":{"android":"levelo://app?vid=1a91a567-c0ab-4516-b639-88192e360457","ios":"levelo://app?vid=1a91a567-c0ab-4516-b639-88192e360457"},"vehicle_type_id":"4","last_reported":1722535834,"current_range_meters":31200,"station_id":"ce4bh612rcd13ifvqe6g","pricing_plan_id":"cebpf4jnsgd1na2vs0mg"},{"bike_id":"32dfdf85-49ac-4e04-98d8-2f0b2739c335","system_id":"levelo_inurba_marseille","lat":43.302759,"lon":5.400793,"is_reserved":false,"is_disabled":false,"rental_uris":{"android":"levelo://app?vid=32dfdf85-49ac-4e04-98d8-2f0b2739c335","ios":"levelo://app?vid=32dfdf85-49ac-4e04-98d8-2f0b2739c335"},"vehicle_type_id":"4","last_reported":1722535834,"current_range_meters":0,"station_id":"ce4bgvh2rcd13ifvqcs0","pricing_plan_id":"cebpf4jnsgd1na2vs0mg"},{"bike_id":"cae6d445-e47c-474b-89c7-afa34406c4d7","system_id":"levelo_inurba_marseille","lat":43.289307,"lon":5.38406,"is_reserved":false,"is_disabled":false,"rental_uris":{"android":"levelo://app?vid=cae6d445-e47c-474b-89c7-afa34406c4d7","ios":"levelo://app?vid=cae6d445-e47c-474b-89c7-afa34406c4d7"},"vehicle_type_id":"4","last_reported":1722535834,"current_range_meters":0,"station_id":"ce4bh612rcd13ifvqe6g","pricing_plan_id":"cebpf4jnsgd1na2vs0mg"},{"bike_id":"5666220b-44ad-44f8-8a1a-7678c7eaf563","system_id":"levelo_inurba_marseille","lat":43.302759,"lon":5.400793,"is_reserved":false,"is_disabled":false,"rental_uris":{"android":"levelo://app?vid=5666220b-44ad-44f8-8a1a-7678c7eaf563","ios":"levelo://app?vid=5666220b-44ad-44f8-8a1a-7678c7eaf563"},"vehicle_type_id":"4","last_reported":1722535834,"current_range_meters":31200,"station_id":"ce4bgvh2rcd13ifvqcs0","pricing_plan_id":"cebpf4jnsgd1na2vs0mg"},{"bike_id":"136f393b-c33c-4cf4-ade4-0a1dabf8c747","system_id":"levelo_inurba_marseille","lat":43.286039,"lon":5.370681,"is_reserved":false,"is_disabled":false,"rental_uris":{"android":"levelo://app?vid=136f393b-c33c-4cf4-ade4-0a1dabf8c747","ios":"levelo://app?vid=136f393b-c33c-4cf4-ade4-0a1dabf8c747"},"vehicle_type_id":"4","last_reported":1722535834,"current_range_meters":0,"station_id":"ce4bht12rcd13ifvqi60","pricing_plan_id":"cebpf4jnsgd1na2vs0mg"},{"bike_id":"f7ceaa86-ee61-480f-b805-25318f45397e","system_id":"levelo_inurba_marseille","lat":43.286039,"lon":5.370679,"is_reserved":false,"is_disabled":false,"rental_uris":{"android":"levelo://app?vid=f7ceaa86-ee61-480f-b805-25318f45397e","ios":"levelo://app?vid=f7ceaa86-ee61-480f-b805-25318f45397e"},"vehicle_type_id":"4","last_reported":1722535834,"current_range_meters":16400,"station_id":"ce4bht12rcd13ifvqi60","pricing_plan_id":"cebpf4jnsgd1na2vs0mg"},{"bike_id":"f6a1e3ee-e18d-43b9-bda7-8529412bcfb1","system_id":"levelo_inurba_marseille","lat":43.286039,"lon":5.370679,"is_reserved":false,"is_disabled":false,"rental_uris":{"android":"levelo://app?vid=f6a1e3ee-e18d-43b9-bda7-8529412bcfb1","ios":"levelo://app?vid=f6a1e3ee-e18d-43b9-bda7-8529412bcfb1"},"vehicle_type_id":"4","last_reported":1722535834,"current_range_meters":10000,"station_id":"ce4bht12rcd13ifvqi60","pricing_plan_id":"cebpf4jnsgd1na2vs0mg"},{"bike_id":"9ede2c8e-c37f-4c08-8cd2-d6685697b548","system_id":"levelo_inurba_marseille","lat":43.3254,"lon":5.4007,"is_reserved":false,"is_disabled":false,"rental_uris":{"android":"levelo://app?vid=9ede2c8e-c37f-4c08-8cd2-d6685697b548","ios":"levelo://app?vid=9ede2c8e-c37f-4c08-8cd2-d6685697b548"},"vehicle_type_id":"4","last_reported":1722535834,"current_range_meters":25600,"station_id":"","pricing_plan_id":"cebpf4jnsgd1na2vs0mg"},{"bike_id":"1dc305b8-8abb-450a-989c-227300be4b04","system_id":"levelo_inurba_marseille","lat":43.316879,"lon":5.404762,"is_reserved":false,"is_disabled":false,"rental_uris":{"android":"levelo://app?vid=1dc305b8-8abb-450a-989c-227300be4b04","ios":"levelo://app?vid=1dc305b8-8abb-450a-989c-227300be4b04"},"vehicle_type_id":"4","last_reported":1722535834,"current_range_meters":31200,"station_id":"ce4bh012rcd13ifvqd00","pricing_plan_id":"cebpf4jnsgd1na2vs0mg"},{"bike_id":"6daae033-4b40-4f0d-b4e5-66e6febbb351","system_id":"levelo_inurba_marseille","lat":43.291994,"lon":5.392907,"is_reserved":false,"is_disabled":false,"rental_uris":{"android":"levelo://app?vid=6daae033-4b40-4f0d-b4e5-66e6febbb351","ios":"levelo://app?vid=6daae033-4b40-4f0d-b4e5-66e6febbb351"},"vehicle_type_id":"4","last_reported":1722535834,"current_range_meters":16800,"station_id":"ce4bh192rcd13ifvqdd0","pricing_plan_id":"cebpf4jnsgd1na2vs0mg"},{"bike_id":"2ee55129-89d1-41de-82dd-a760b9931c8e","system_id":"levelo_inurba_marseille","lat":43.28619,"lon":5.3511,"is_reserved":false,"is_disabled":false,"rental_uris":{"android":"levelo://app?vid=2ee55129-89d1-41de-82dd-a760b9931c8e","ios":"levelo://app?vid=2ee55129-89d1-41de-82dd-a760b9931c8e"},"vehicle_type_id":"4","last_reported":1722535834,"current_range_meters":28400,"station_id":"ce4bhch2rcd13ifvqeug","pricing_plan_id":"cebpf4jnsgd1na2vs0mg"},{"bike_id":"bf26e218-b628-4321-8330-4a0e2cd6e5fb","system_id":"levelo_inurba_marseille","lat":43.286207,"lon":5.35104,"is_reserved":false,"is_disabled":false,"rental_uris":{"android":"levelo://app?vid=bf26e218-b628-4321-8330-4a0e2cd6e5fb","ios":"levelo://app?vid=bf26e218-b628-4321-8330-4a0e2cd6e5fb"},"vehicle_type_id":"4","last_reported":1722535834,"current_range_meters":17600,"station_id":"ce4bhch2rcd13ifvqeug","pricing_plan_id":"cebpf4jnsgd1na2vs0mg"},{"bike_id":"f324492e-bf32-41b1-885a-f5ef34259fe9","system_id":"levelo_inurba_marseille","lat":43.28618,"lon":5.35112,"is_reserved":false,"is_disabled":false,"rental_uris":{"android":"levelo://app?vid=f324492e-bf32-41b1-885a-f5ef34259fe9","ios":"levelo://app?vid=f324492e-bf32-41b1-885a-f5ef34259fe9"},"vehicle_type_id":"4","last_reported":1722535834,"current_range_meters":6400,"station_id":"ce4bhch2rcd13ifvqeug","pricing_plan_id":"cebpf4jnsgd1na2vs0mg"},{"bike_id":"b9ec66c7-95e3-421b-9e0d-4d864ae7b9f0","system_id":"levelo_inurba_marseille","lat":43.28617,"lon":5.35114,"is_reserved":false,"is_disabled":false,"rental_uris":{"android":"levelo://app?vid=b9ec66c7-95e3-421b-9e0d-4d864ae7b9f0","ios":"levelo://app?vid=b9ec66c7-95e3-421b-9e0d-4d864ae7b9f0"},"vehicle_type_id":"4","last_reported":1722535834,"current_range_meters":23600,"station_id":"ce4bhch2rcd13ifvqeug","pricing_plan_id":"cebpf4jnsgd1na2vs0mg"},{"bike_id":"c295cddf-1c53-4394-8efc-107ff1ee95e9","system_id":"levelo_inurba_marseille","lat":43.28617,"lon":5.35113,"is_reserved":false,"is_disabled":false,"rental_uris":{"android":"levelo://app?vid=c295cddf-1c53-4394-8efc-107ff1ee95e9","ios":"levelo://app?vid=c295cddf-1c53-4394-8efc-107ff1ee95e9"},"vehicle_type_id":"4","last_reported":1722535834,"current_range_meters":31200,"station_id":"ce4bhch2rcd13ifvqeug","pricing_plan_id":"cebpf4jnsgd1na2vs0mg"},{"bike_id":"b5e4374b-94ef-46e8-a0d4-aa00bfd145c5","system_id":"levelo_inurba_marseille","lat":43.2862,"lon":5.35102,"is_reserved":false,"is_disabled":false,"rental_uris":{"android":"levelo://app?vid=b5e4374b-94ef-46e8-a0d4-aa00bfd145c5","ios":"levelo://app?vid=b5e4374b-94ef-46e8-a0d4-aa00bfd145c5"},"vehicle_type_id":"4","last_reported":1722535834,"current_range_meters":31200,"station_id":"ce4bhch2rcd13ifvqeug","pricing_plan_id":"cebpf4jnsgd1na2vs0mg"},{"bike_id":"8e62b93f-c7a5-4db4-949d-f2007c9e4b0e","system_id":"levelo_inurba_marseille","lat":43.28619,"lon":5.35104,"is_reserved":false,"is_disabled":false,"rental_uris":{"android":"levelo://app?vid=8e62b93f-c7a5-4db4-949d-f2007c9e4b0e","ios":"levelo://app?vid=8e62b93f-c7a5-4db4-949d-f2007c9e4b0e"},"vehicle_type_id":"4","last_reported":1722535834,"current_range_meters":31200,"station_id":"ce4bhch2rcd13ifvqeug","pricing_plan_id":"cebpf4jnsgd1na2vs0mg"},{"bike_id":"3c9a49f4-ea4f-4de2-b249-9388d4aec80b","system_id":"levelo_inurba_marseille","lat":43.28617,"lon":5.3511,"is_reserved":false,"is_disabled":false,"rental_uris":{"android":"levelo://app?vid=3c9a49f4-ea4f-4de2-b249-9388d4aec80b","ios":"levelo://app?vid=3c9a49f4-ea4f-4de2-b249-9388d4aec80b"},"vehicle_type_id":"4","last_reported":1722535834,"current_range_meters":31200,"station_id":"ce4bhch2rcd13ifvqeug","pricing_plan_id":"cebpf4jnsgd1na2vs0mg"},{"bike_id":"209278a6-1a89-4429-91c8-98f5bf3b9b18","system_id":"levelo_inurba_marseille","lat":43.28618,"lon":5.35105,"is_reserved":false,"is_disabled":false,"rental_uris":{"android":"levelo://app?vid=209278a6-1a89-4429-91c8-98f5bf3b9b18","ios":"levelo://app?vid=209278a6-1a89-4429-91c8-98f5bf3b9b18"},"vehicle_type_id":"4","last_reported":1722535834,"current_range_meters":31200,"station_id":"ce4bhch2rcd13ifvqeug","pricing_plan_id":"cebpf4jnsgd1na2vs0mg"},{"bike_id":"a097c8b7-b573-4a80-8fd9-43f39244c102","system_id":"levelo_inurba_marseille","lat":43.28619,"lon":5.35101,"is_reserved":false,"is_disabled":false,"rental_uris":{"android":"levelo://app?vid=a097c8b7-b573-4a80-8fd9-43f39244c102","ios":"levelo://app?vid=a097c8b7-b573-4a80-8fd9-43f39244c102"},"vehicle_type_id":"4","last_reported":1722535834,"current_range_meters":16400,"station_id":"ce4bhch2rcd13ifvqeug","pricing_plan_id":"cebpf4jnsgd1na2vs0mg"},{"bike_id":"bbc7c539-96f7-4aed-b34b-0d99f4dc3258","system_id":"levelo_inurba_marseille","lat":43.28618,"lon":5.35103,"is_reserved":false,"is_disabled":false,"rental_uris":{"android":"levelo://app?vid=bbc7c539-96f7-4aed-b34b-0d99f4dc3258","ios":"levelo://app?vid=bbc7c539-96f7-4aed-b34b-0d99f4dc3258"},"vehicle_type_id":"4","last_reported":1722535834,"current_range_meters":31200,"station_id":"ce4bhch2rcd13ifvqeug","pricing_plan_id":"cebpf4jnsgd1na2vs0mg"},{"bike_id":"e501c2e8-18c4-4657-8a6c-0c96cd4f1a4c","system_id":"levelo_inurba_marseille","lat":43.28617,"lon":5.35105,"is_reserved":false,"is_disabled":false,"rental_uris":{"android":"levelo://app?vid=e501c2e8-18c4-4657-8a6c-0c96cd4f1a4c","ios":"levelo://app?vid=e501c2e8-18c4-4657-8a6c-0c96cd4f1a4c"},"vehicle_type_id":"4","last_reported":1722535834,"current_range_meters":31200,"station_id":"ce4bhch2rcd13ifvqeug","pricing_plan_id":"cebpf4jnsgd1na2vs0mg"},{"bike_id":"e86607cf-5ac8-465e-90f0-90ec1caae0db","system_id":"levelo_inurba_marseille","lat":43.28616,"lon":5.35108,"is_reserved":false,"is_disabled":false,"rental_uris":{"android":"levelo://app?vid=e86607cf-5ac8-465e-90f0-90ec1caae0db","ios":"levelo://app?vid=e86607cf-5ac8-465e-90f0-90ec1caae0db"},"vehicle_type_id":"4","last_reported":1722535834,"current_range_meters":6000,"station_id":"ce4bhch2rcd13ifvqeug","pricing_plan_id":"cebpf4jnsgd1na2vs0mg"},{"bike_id":"5848b207-162b-4018-b05e-cb89a351ab08","system_id":"levelo_inurba_marseille","lat":43.285848,"lon":5.350787,"is_reserved":false,"is_disabled":false,"rental_uris":{"android":"levelo://app?vid=5848b207-162b-4018-b05e-cb89a351ab08","ios":"levelo://app?vid=5848b207-162b-4018-b05e-cb89a351ab08"},"vehicle_type_id":"4","last_reported":1722535834,"current_range_meters":31200,"station_id":"ce4bhch2rcd13ifvqeug","pricing_plan_id":"cebpf4jnsgd1na2vs0mg"},{"bike_id":"b83fdec3-19c1-4e42-9efd-5ce2924140f8","system_id":"levelo_inurba_marseille","lat":43.285848,"lon":5.350787,"is_reserved":false,"is_disabled":false,"rental_uris":{"android":"levelo://app?vid=b83fdec3-19c1-4e42-9efd-5ce2924140f8","ios":"levelo://app?vid=b83fdec3-19c1-4e42-9efd-5ce2924140f8"},"vehicle_type_id":"4","last_reported":1722535834,"current_range_meters":31200,"station_id":"ce4bhch2rcd13ifvqeug","pricing_plan_id":"cebpf4jnsgd1na2vs0mg"},{"bike_id":"94bd5b70-856a-44ca-a748-6cb371597de7","system_id":"levelo_inurba_marseille","lat":43.28617,"lon":5.35101,"is_reserved":false,"is_disabled":false,"rental_uris":{"android":"levelo://app?vid=94bd5b70-856a-44ca-a748-6cb371597de7","ios":"levelo://app?vid=94bd5b70-856a-44ca-a748-6cb371597de7"},"vehicle_type_id":"4","last_reported":1722535834,"current_range_meters":31200,"station_id":"ce4bhch2rcd13ifvqeug","pricing_plan_id":"cebpf4jnsgd1na2vs0mg"},{"bike_id":"79bf0498-41f8-4f83-9cae-26024c3aa6fe","system_id":"levelo_inurba_marseille","lat":43.28614,"lon":5.3511,"is_reserved":false,"is_disabled":false,"rental_uris":{"android":"levelo://app?vid=79bf0498-41f8-4f83-9cae-26024c3aa6fe","ios":"levelo://app?vid=79bf0498-41f8-4f83-9cae-26024c3aa6fe"},"vehicle_type_id":"4","last_reported":1722535834,"current_range_meters":15200,"station_id":"ce4bhch2rcd13ifvqeug","pricing_plan_id":"cebpf4jnsgd1na2vs0mg"},{"bike_id":"e055f451-cbce-498a-b6ea-12aa69bfdd23","system_id":"levelo_inurba_marseille","lat":43.286136,"lon":5.351102,"is_reserved":false,"is_disabled":false,"rental_uris":{"android":"levelo://app?vid=e055f451-cbce-498a-b6ea-12aa69bfdd23","ios":"levelo://app?vid=e055f451-cbce-498a-b6ea-12aa69bfdd23"},"vehicle_type_id":"4","last_reported":1722535834,"current_range_meters":9200,"station_id":"ce4bhch2rcd13ifvqeug","pricing_plan_id":"cebpf4jnsgd1na2vs0mg"},