{"last_updated":1784392981,"ttl":60,"version":"2.2","data":{"bikes":[{"bike_id":"ba0c28b1-8732-48e2-8079-f25b2b3fbc3c","system_id":"levelo_inurba_marseille","lat":43.337444,"lon":5.374475,"is_reserved":false,"is_disabled":false,"rental_uris":{"android":"levelo://app?vid=ba0c28b1-8732-48e2-8079-f25b2b3fbc3c","ios":"levelo://app?vid=ba0c28b1-8732-48e2-8079-f25b2b3fbc3c"},"vehicle_type_id":"4","last_reported":1784392982,"current_range_meters":0,"station_id":"","pricing_plan_id":"cebpf4jnsgd1na2vs0mg"},{"bike_id":"cec666c5-2396-4bda-bc79-7be17e8190d4","system_id":"levelo_inurba_marseille","lat":43.29246,"lon":5.36844,"is_reserved":false,"is_disabled":false,"rental_uris":{"android":"levelo://app?vid=cec666c5-2396-4bda-bc79-7be17e8190d4","ios":"levelo://app?vid=cec666c5-2396-4bda-bc79-7be17e8190d4"},"vehicle_type_id":"4","last_reported":1784392982,"current_range_meters":36000,"station_id":"","pricing_plan_id":"cebpf4jnsgd1na2vs0mg"},{"bike_id":"63dc20ac-90f4-4eae-ac6c-d24ae13a7929","system_id":"levelo_inurba_marseille","lat":43.25358,"lon":5.42178,"is_reserved":false,"is_disabled":false,"rental_uris":{"android":"levelo://app?vid=63dc20ac-90f4-4eae-ac6c-d24ae13a7929","ios":"levelo://app?vid=63dc20ac-90f4-4eae-ac6c-d24ae13a7929"},"vehicle_type_id":"4","last_reported":1784392982,"current_range_meters":32000,"station_id":"st_d2m65c5bi1j21697t3ng","pricing_plan_id":"cebpf4jnsgd1na2vs0mg"},{"bike_id":"33e6a9a9-dba5-4ff9-b2d6-5d0bc9c3b28f","system_id":"levelo_inurba_marseille","lat":43.3052,"lon":5.36533,"is_reserved":false,"is_disabled":false,"rental_uris":{"android":"levelo://app?vid=33e6a9a9-dba5-4ff9-b2d6-5d0bc9c3b28f","ios":"levelo://app?vid=33e6a9a9-dba5-4ff9-b2d6-5d0bc9c3b28f"},"vehicle_type_id":"4","last_reported":1784392982,"current_range_meters":20800,"station_id":"","pricing_plan_id":"cebpf4jnsgd1na2vs0mg"},{"bike_id":"16f9b5f6-2c2b-48b3-af0f-320fe8717841","system_id":"levelo_inurba_marseille","lat":43.28716,"lon":5.37926,"is_reserved":false,"is_disabled":false,"rental_uris":{"android":"levelo://app?vid=16f9b5f6-2c2b-48b3-af0f-320fe8717841","ios":"levelo://app?vid=16f9b5f6-2c2b-48b3-af0f-320fe8717841"},"vehicle_type_id":"4","last_reported":1784392982,"current_range_meters":36800,"station_id":"ce4bh9p2rcd13ifvqec0","pricing_plan_id":"cebpf4jnsgd1na2vs0mg"},{"bike_id":"96d9dfc3-d000-45ed-a92a-b6b266fbe727","system_id":"levelo_inurba_marseille","lat":43.24163,"lon":5.39731,"is_reserved":false,"is_disabled":false,"rental_uris":{"android":"levelo://app?vid=96d9dfc3-d000-45ed-a92a-b6b266fbe727","ios":"levelo://app?vid=96d9dfc3-d000-45ed-a92a-b6b266fbe727"},"vehicle_type_id":"4","last_reported":1784392982,"current_range_meters":28400,"station_id":"ce4bhn12rcd13ifvqgpg","pricing_plan_id":"cebpf4jnsgd1na2vs0mg"},{"bike_id":"4bc585f4-7b34-4ea3-a909-abcff49c2177","system_id":"levelo_inurba_marseille","lat":43.21751,"lon":5.34599,"is_reserved":false,"is_disabled":false,"rental_uris":{"android":"levelo://app?vid=4bc585f4-7b34-4ea3-a909-abcff49c2177","ios":"levelo://app?vid=4bc585f4-7b34-4ea3-a909-abcff49c2177"},"vehicle_type_id":"4","last_reported":1784392982,"current_range_meters":9600,"station_id":"st_cvj6r9ubvosntc0bgbag","pricing_plan_id":"cebpf4jnsgd1na2vs0mg"},{"bike_id":"24e35db2-cdfa-4bb0-b449-d3488930df77","system_id":"levelo_inurba_marseille","lat":43.24064,"lon":5.37762,"is_reserved":false,"is_disabled":false,"rental_uris":{"android":"levelo://app?vid=24e35db2-cdfa-4bb0-b449-d3488930df77","ios":"levelo://app?vid=24e35db2-cdfa-4bb0-b449-d3488930df77"},"vehicle_type_id":"4","last_reported":1784392982,"current_range_meters":25200,"station_id":"ce4bhnp2rcd13ifvqgvg","pricing_plan_id":"cebpf4jnsgd1na2vs0mg"},{"bike_id":"9da5cadf-cdd1-429b-9b5e-9173177dfcc4","system_id":"levelo_inurba_marseille","lat":43.24401,"lon":5.37072,"is_reserved":false,"is_disabled":false,"rental_uris":{"android":"levelo://app?vid=9da5cadf-cdd1-429b-9b5e-9173177dfcc4","ios":"levelo://app?vid=9da5cadf-cdd1-429b-9b5e-9173177dfcc4"},"vehicle_type_id":"4","last_reported":1784392982,"current_range_meters":10800,"station_id":"ce4bhhh2rcd13ifvqfk0","pricing_plan_id":"cebpf4jnsgd1na2vs0mg"},{"bike_id":"4c97a4b8-64e3-4026-b64c-e38ea480fc87","system_id":"levelo_inurba_marseille","lat":43.29195,"lon":5.35817,"is_reserved":false,"is_disabled":false,"rental_uris":{"android":"levelo://app?vid=4c97a4b8-64e3-4026-b64c-e38ea480fc87","ios":"levelo://app?vid=4c97a4b8-64e3-4026-b64c-e38ea480fc87"},"vehicle_type_id":"4","last_reported":1784392982,"current_range_meters":39200,"station_id":"ce4bhb12rcd13ifvqel0","pricing_plan_id":"cebpf4jnsgd1na2vs0mg"},{"bike_id":"e71494cd-d4a8-436a-a5c6-260a2924500e","system_id":"levelo_inurba_marseille","lat":43.26213,"lon":5.38787,"is_reserved":false,"is_disabled":true,"rental_uris":{"android":"levelo://app?vid=e71494cd-d4a8-436a-a5c6-260a2924500e","ios":"levelo://app?vid=e71494cd-d4a8-436a-a5c6-260a2924500e"},"vehicle_type_id":"4","last_reported":1784392982,"current_range_meters":27600,"station_id":"st_d8gjfg747rts73coq3b0","pricing_plan_id":"cebpf4jnsgd1na2vs0mg"},{"bike_id":"4dd83e35-73dd-44b8-9d3c-9c21e3418d4e","system_id":"levelo_inurba_marseille","lat":43.27479,"lon":5.42557,"is_reserved":false,"is_disabled":false,"rental_uris":{"android":"levelo://app?vid=4dd83e35-73dd-44b8-9d3c-9c21e3418d4e","ios":"levelo://app?vid=4dd83e35-73dd-44b8-9d3c-9c21e3418d4e"},"vehicle_type_id":"4","last_reported":1784392982,"current_range_meters":12400,"station_id":"st_d8t4bh7nbrqs73arha60","pricing_plan_id":"cebpf4jnsgd1na2vs0mg"},{"bike_id":"9c3b11a9-2b50-4736-bf96-cfbaa914118b","system_id":"levelo_inurba_marseille","lat":43.28486,"lon":5.38415,"is_reserved":false,"is_disabled":true,"rental_uris":{"android":"levelo://app?vid=9c3b11a9-2b50-4736-bf96-cfbaa914118b","ios":"levelo://app?vid=9c3b11a9-2b50-4736-bf96-cfbaa914118b"},"vehicle_type_id":"4","last_reported":1784392982,"current_range_meters":0,"station_id":"ce4bh512rcd13ifvqe3g","pricing_plan_id":"cebpf4jnsgd1na2vs0mg"},{"bike_id":"6666b766-2ccd-467a-ad53-5ec31fb4dec4","system_id":"levelo_inurba_marseille","lat":43.24804,"lon":5.37454,"is_reserved":false,"is_disabled":false,"rental_uris":{"android":"levelo://app?vid=6666b766-2ccd-467a-ad53-5ec31fb4dec4","ios":"levelo://app?vid=6666b766-2ccd-467a-ad53-5ec31fb4dec4"},"vehicle_type_id":"4","last_reported":1784392982,"current_range_meters":35200,"station_id":"ce4bhgh2rcd13ifvqfb0","pricing_plan_id":"cebpf4jnsgd1na2vs0mg"},{"bike_id":"46306a0d-9235-46a7-be48-833c7f44f8a2","system_id":"levelo_inurba_marseille","lat":43.29486,"lon":5.43301,"is_reserved":false,"is_disabled":false,"rental_uris":{"android":"levelo://app?vid=46306a0d-9235-46a7-be48-833c7f44f8a2","ios":"levelo://app?vid=46306a0d-9235-46a7-be48-833c7f44f8a2"},"vehicle_type_id":"4","last_reported":1784392982,"current_range_meters":31200,"station_id":"st_d3j5ugp08ojc73fj9d10","pricing_plan_id":"cebpf4jnsgd1na2vs0mg"},{"bike_id":"cf8fc643-bb9f-4bfc-8c96-35b197434132","system_id":"levelo_inurba_marseille","lat":43.28028,"lon":5.3695,"is_reserved":false,"is_disabled":false,"rental_uris":{"android":"levelo://app?vid=cf8fc643-bb9f-4bfc-8c96-35b197434132","ios":"levelo://app?vid=cf8fc643-bb9f-4bfc-8c96-35b197434132"},"vehicle_type_id":"4","last_reported":1784392982,"current_range_meters":18800,"station_id":"ce4bha12rcd13ifvqef0","pricing_plan_id":"cebpf4jnsgd1na2vs0mg"},{"bike_id":"d7da764c-850d-4748-a1c2-68e3cab24b17","system_id":"levelo_inurba_marseille","lat":43.26214,"lon":5.38746,"is_reserved":false,"is_disabled":false,"rental_uris":{"android":"levelo://app?vid=d7da764c-850d-4748-a1c2-68e3cab24b17","ios":"levelo://app?vid=d7da764c-850d-4748-a1c2-68e3cab24b17"},"vehicle_type_id":"4","last_reported":1784392982,"current_range_meters":39200,"station_id":"st_d8gjfg747rts73coq3b0","pricing_plan_id":"cebpf4jnsgd1na2vs0mg"},{"bike_id":"74db0d45-8e44-47c8-9bbb-438106ac8229","system_id":"levelo_inurba_marseille","lat":43.30811,"lon":5.38154,"is_reserved":false,"is_disabled":true,"rental_uris":{"android":"levelo://app?vid=74db0d45-8e44-47c8-9bbb-438106ac8229","ios":"levelo://app?vid=74db0d45-8e44-47c8-9bbb-438106ac8229"},"vehicle_type_id":"4","last_reported":1784392982,"current_range_meters":26800,"station_id":"ce4bgt12rcd13ifvqce0","pricing_plan_id":"cebpf4jnsgd1na2vs0mg"},{"bike_id":"129ac767-2638-4c48-b9ca-8da71d89525b","system_id":"levelo_inurba_marseille","lat":43.23888,"lon":5.37475,"is_reserved":false,"is_disabled":false,"rental_uris":{"android":"levelo://app?vid=129ac767-2638-4c48-b9ca-8da71d89525b","ios":"levelo://app?vid=129ac767-2638-4c48-b9ca-8da71d89525b"},"vehicle_type_id":"4","last_reported":1784392982,"current_range_meters":30400,"station_id":"st_d6sm7csbq4hs73f8fpjg","pricing_plan_id":"cebpf4jnsgd1na2vs0mg"},{"bike_id":"c180bc57-12f5-435a-8219-0c0ef26aa8c0","system_id":"levelo_inurba_marseille","lat":43.2254,"lon":5.34822,"is_reserved":false,"is_disabled":false,"rental_uris":{"android":"levelo://app?vid=c180bc57-12f5-435a-8219-0c0ef26aa8c0","ios":"levelo://app?vid=c180bc57-12f5-435a-8219-0c0ef26aa8c0"},"vehicle_type_id":"4","last_reported":1784392982,"current_range_meters":35600,"station_id":"st_cvj5dfep6f1abm77gieg","pricing_plan_id":"cebpf4jnsgd1na2vs0mg"},{"bike_id":"32c95016-82d3-4943-8193-1a98c4bf18c7","system_id":"levelo_inurba_marseille","lat":43.28083,"lon":5.35661,"is_reserved":false,"is_disabled":false,"rental_uris":{"android":"levelo://app?vid=32c95016-82d3-4943-8193-1a98c4bf18c7","ios":"levelo://app?vid=32c95016-82d3-4943-8193-1a98c4bf18c7"},"vehicle_type_id":"4","last_reported":1784392982,"current_range_meters":8400,"station_id":"","pricing_plan_id":"cebpf4jnsgd1na2vs0mg"},{"bike_id":"d41e5644-8c35-4744-96d1-85ced275b585","system_id":"levelo_inurba_marseille","lat":43.26781,"lon":5.39412,"is_reserved":false,"is_disabled":false,"rental_uris":{"android":"levelo://app?vid=d41e5644-8c35-4744-96d1-85ced275b585","ios":"levelo://app?vid=d41e5644-8c35-4744-96d1-85ced275b585"},"vehicle_type_id":"4","last_reported":1784392982,"current_range_meters":28000,"station_id":"ce4bhh12rcd13ifvqfg0","pricing_plan_id":"cebpf4jnsgd1na2vs0mg"},{"bike_id":"79ee00ae-d796-4850-84aa-313f9866ca34","system_id":"levelo_inurba_marseille","lat":43.30626,"lon":5.36508,"is_reserved":false,"is_disabled":false,"rental_uris":{"android":"levelo://app?vid=79ee00ae-d796-4850-84aa-313f9866ca34","ios":"levelo://app?vid=79ee00ae-d796-4850-84aa-313f9866ca34"},"vehicle_type_id":"4","last_reported":1784392982,"current_range_meters":13600,"station_id":"","pricing_plan_id":"cebpf4jnsgd1na2vs0mg"},{"bike_id":"4956dc47-f854-45cb-a05a-fa44ffdc5a4a","system_id":"levelo_inurba_marseille","lat":43.28861,"lon":5.35858,"is_reserved":false,"is_disabled":true,"rental_uris":{"android":"levelo://app?vid=4956dc47-f854-45cb-a05a-fa44ffdc5a4a","ios":"levelo://app?vid=4956dc47-f854-45cb-a05a-fa44ffdc5a4a"},"vehicle_type_id":"4","last_reported":1784392982,"current_range_meters":0,"station_id":"ce4bhb12rcd13ifvqem0","pricing_plan_id":"cebpf4jnsgd1na2vs0mg"},{"bike_id":"ef6880d0-6944-4f6a-8f40-6662368b8f75","system_id":"levelo_inurba_marseille","lat":43.31742,"lon":5.43688,"is_reserved":false,"is_disabled":false,"rental_uris":{"android":"levelo://app?vid=ef6880d0-6944-4f6a-8f40-6662368b8f75","ios":"levelo://app?vid=ef6880d0-6944-4f6a-8f40-6662368b8f75"},"vehicle_type_id":"4","last_reported":1784392982,"current_range_meters":11200,"station_id":"ce4bhp92rcd13ifvqhcg","pricing_plan_id":"cebpf4jnsgd1na2vs0mg"},{"bike_id":"62bd67ad-1be4-4859-ae5f-54f75959c9db","system_id":"levelo_inurba_marseille","lat":43.24677,"lon":5.38143,"is_reserved":false,"is_disabled":false,"rental_uris":{"android":"levelo://app?vid=62bd67ad-1be4-4859-ae5f-54f75959c9db","ios":"levelo://app?vid=62bd67ad-1be4-4859-ae5f-54f75959c9db"},"vehicle_type_id":"4","last_reported":1784392982,"current_range_meters":39200,"station_id":"ce4bhih2rcd13ifvqfr0","pricing_plan_id":"cebpf4jnsgd1na2vs0mg"},{"bike_id":"ac73781c-7964-453a-82c7-5e417be13435","system_id":"levelo_inurba_marseille","lat":43.28618,"lon":5.37054,"is_reserved":false,"is_disabled":false,"rental_uris":{"android":"levelo://app?vid=ac73781c-7964-453a-82c7-5e417be13435","ios":"levelo://app?vid=ac73781c-7964-453a-82c7-5e417be13435"},"vehicle_type_id":"4","last_reported":1784392982,"current_range_meters":33200,"station_id":"ce4bht12rcd13ifvqi60","pricing_plan_id":"cebpf4jnsgd1na2vs0mg"},{"bike_id":"431a9582-7044-41fd-aac9-f4abde960ed9","system_id":"levelo_inurba_marseille","lat":43.24823,"lon":5.37439,"is_reserved":false,"is_disabled":false,"rental_uris":{"android":"levelo://app?vid=431a9582-7044-41fd-aac9-f4abde960ed9","ios":"levelo://app?vid=431a9582-7044-41fd-aac9-f4abde960ed9"},"vehicle_type_id":"4","last_reported":1784392982,"current_range_meters":39200,"station_id":"ce4bhgh2rcd13ifvqfb0","pricing_plan_id":"cebpf4jnsgd1na2vs0mg"},{"bike_id":"d183c213-4177-4bf2-b9e0-24872be8a9c8","system_id":"levelo_inurba_marseille","lat":43.28488,"lon":5.4839,"is_reserved":false,"is_disabled":false,"rental_uris":{"android":"levelo://app?vid=d183c213-4177-4bf2-b9e0-24872be8a9c8","ios":"levelo://app?vid=d183c213-4177-4bf2-b9e0-24872be8a9c8"},"vehicle_type_id":"4","last_reported":1784392982,"current_range_meters":16800,"station_id":"st_d3svhcjqgbts73a3dn0g","pricing_plan_id":"cebpf4jnsgd1na2vs0mg"},{"bike_id":"e975d81f-466f-4fbf-9278-3f973430f9dc","system_id":"levelo_inurba_marseille","lat":43.26183,"lon":5.37452,"is_reserved":false,"is_disabled":false,"rental_uris":{"android":"levelo://app?vid=e975d81f-466f-4fbf-9278-3f973430f9dc","ios":"levelo://app?vid=e975d81f-466f-4fbf-9278-3f973430f9dc"},"vehicle_type_id":"4","last_reported":1784392982,"current_range_meters":18000,"station_id":"ce4bhgp2rcd13ifvqfc0","pricing_plan_id":"cebpf4jnsgd1na2vs0mg"},{"bike_id":"3815c165-d52e-48dd-b47f-763f462d8f60","system_id":"levelo_inurba_marseille","lat":43.27359,"lon":5.39071,"is_reserved":false,"is_disabled":false,"rental_uris":{"android":"levelo://app?vid=3815c165-d52e-48dd-b47f-763f462d8f60","ios":"levelo://app?vid=3815c165-d52e-48dd-b47f-763f462d8f60"},"vehicle_type_id":"4","last_reported":1784392982,"current_range_meters":26000,"station_id":"","pricing_plan_id":"cebpf4jnsgd1na2vs0mg"},{"bike_id":"db2d5ab9-8f6f-4d12-ad4c-501953a6ebe4","system_id":"levelo_inurba_marseille","lat":43.29787,"lon":5.379,"is_reserved":false,"is_disabled":false,"rental_uris":{"android":"levelo://app?vid=db2d5ab9-8f6f-4d12-ad4c-501953a6ebe4","ios":"levelo://app?vid=db2d5ab9-8f6f-4d12-ad4c-501953a6ebe4"},"vehicle_type_id":"4","last_reported":1784392982,"current_range_meters":23200,"station_id":"","pricing_plan_id":"cebpf4jnsgd1na2vs0mg"},{"bike_id":"fa76c1ed-7170-4c48-bd45-314c59594279","system_id":"levelo_inurba_marseille","lat":43.28408,"lon":5.34992,"is_reserved":false,"is_disabled":false,"rental_uris":{"android":"levelo://app?vid=fa76c1ed-7170-4c48-bd45-314c59594279","ios":"levelo://app?vid=fa76c1ed-7170-4c48-bd45-314c59594279"},"vehicle_type_id":"4","last_reported":1784392982,"current_range_meters":39200,"station_id":"ce4bhbh2rcd13ifvqepg","pricing_plan_id":"cebpf4jnsgd1na2vs0mg"},{"bike_id":"45c5ced3-1cf0-4f2f-9585-5240a7b8b5d9","system_id":"levelo_inurba_marseille","lat":43.30523,"lon":5.36508,"is_reserved":false,"is_disabled":false,"rental_uris":{"android":"levelo://app?vid=45c5ced3-1cf0-4f2f-9585-5240a7b8b5d9","ios":"levelo://app?vid=45c5ced3-1cf0-4f2f-9585-5240a7b8b5d9"},"vehicle_type_id":"4","last_reported":1784392982,"current_range_meters":24800,"station_id":"","pricing_plan_id":"cebpf4jnsgd1na2vs0mg"},{"bike_id":"66df794d-7f14-43e4-b260-a1af0c54edca","system_id":"levelo_inurba_marseille","lat":43.21762,"lon":5.34596,"is_reserved":false,"is_disabled":false,"rental_uris":{"android":"levelo://app?vid=66df794d-7f14-43e4-b260-a1af0c54edca","ios":"levelo://app?vid=66df794d-7f14-43e4-b260-a1af0c54edca"},"vehicle_type_id":"4","last_reported":1784392982,"current_range_meters":10000,"station_id":"st_cvj6r9ubvosntc0bgbag","pricing_plan_id":"cebpf4jnsgd1na2vs0mg"},{"bike_id":"e0c7065e-7f74-4b06-ae7b-f933c635df87","system_id":"levelo_inurba_marseille","lat":43.29552,"lon":5.42274,"is_reserved":false,"is_disabled":false,"rental_uris":{"android":"levelo://app?vid=e0c7065e-7f74-4b06-ae7b-f933c635df87","ios":"levelo://app?vid=e0c7065e-7f74-4b06-ae7b-f933c635df87"},"vehicle_type_id":"4","last_reported":1784392982,"current_range_meters":39200,"station_id":"ce4bhph2rcd13ifvqhdg","pricing_plan_id":"cebpf4jnsgd1na2vs0mg"},{"bike_id":"3d9d15ce-5804-4209-b92a-723f598d0341","system_id":"levelo_inurba_marseille","lat":43.21198,"lon":5.35083,"is_reserved":false,"is_disabled":false,"rental_uris":{"android":"levelo://app?vid=3d9d15ce-5804-4209-b92a-723f598d0341","ios":"levelo://app?vid=3d9d15ce-5804-4209-b92a-723f598d0341"},"vehicle_type_id":"4","last_reported":1784392982,"current_range_meters":38400,"station_id":"st_cvj6sg6p6f1abm77japg","pricing_plan_id":"cebpf4jnsgd1na2vs0mg"},{"bike_id":"c71015cc-0adc-40e6-8268-5815fb57d25f","system_id":"levelo_inurba_marseille","lat":43.27612,"lon":5.36098,"is_reserved":false,"is_disabled":false,"rental_uris":{"android":"levelo://app?vid=c71015cc-0adc-40e6-8268-5815fb57d25f","ios":"levelo://app?vid=c71015cc-0adc-40e6-8268-5815fb57d25f"},"vehicle_type_id":"4","last_reported":1784392982,"current_range_meters":23200,"station_id":"ce4bgj92rcd13ifvqbe0","pricing_plan_id":"cebpf4jnsgd1na2vs0mg"},{"bike_id":"fd0fa26b-6c7c-4e83-9727-1dc5be1b0015","system_id":"levelo_inurba_marseille","lat":43.28656,"lon":5.35152,"is_reserved":false,"is_disabled":false,"rental_uris":{"android":"levelo://app?vid=fd0fa26b-6c7c-4e83-9727-1dc5be1b0015","ios":"levelo://app?vid=fd0fa26b-6c7c-4e83-9727-1dc5be1b0015"},"vehicle_type_id":"4","last_reported":1784392982,"current_range_meters":30400,"station_id":"","pricing_plan_id":"cebpf4jnsgd1na2vs0mg"},{"bike_id":"4df43bff-b2ed-4276-91b5-a74dc4181b08","system_id":"levelo_inurba_marseille","lat":43.29362,"lon":5.37848,"is_reserved":false,"is_disabled":false,"rental_uris":{"android":"levelo://app?vid=4df43bff-b2ed-4276-91b5-a74dc4181b08","ios":"levelo://app?vid=4df43bff-b2ed-4276-91b5-a74dc4181b08"},"vehicle_type_id":"4","last_reported":1784392982,"current_range_meters":14000,"station_id":"ce4bgjh2rcd13ifvqbf0","pricing_plan_id":"cebpf4jnsgd1na2vs0mg"},{"bike_id":"e1bb6861-ee59-438c-aa2a-2a553b2d6f43","system_id":"levelo_inurba_marseille","lat":43.27191,"lon":5.40996,"is_reserved":false,"is_disabled":false,"rental_uris":{"android":"levelo://app?vid=e1bb6861-ee59-438c-aa2a-2a553b2d6f43","ios":"levelo://app?vid=e1bb6861-ee59-438c-aa2a-2a553b2d6f43"},"vehicle_type_id":"4","last_reported":1784392982,"current_range_meters":30800,"station_id":"ce4bhl12rcd13ifvqgf0","pricing_plan_id":"cebpf4jnsgd1na2vs0mg"},{"bike_id":"84579d97-62d5-423c-955f-2e18c318bf1a","system_id":"levelo_inurba_marseille","lat":43.30524,"lon":5.36553,"is_reserved":false,"is_disabled":false,"rental_uris":{"android":"levelo://app?vid=84579d97-62d5-423c-955f-2e18c318bf1a","ios":"levelo://app?vid=84579d97-62d5-423c-955f-2e18c318bf1a"},"vehicle_type_id":"4","last_reported":1784392982,"current_range_meters":32000,"station_id":"ce4bgs12rcd13ifvqcag","pricing_plan_id":"cebpf4jnsgd1na2vs0mg"},{"bike_id":"c2e7fe27-d2b0-440e-b62d-ead50feed951","system_id":"levelo_inurba_marseille","lat":43.2949,"lon":5.43312,"is_reserved":false,"is_disabled":false,"rental_uris":{"android":"levelo://app?vid=c2e7fe27-d2b0-440e-b62d-ead50feed951","ios":"levelo://app?vid=c2e7fe27-d2b0-440e-b62d-ead50feed951"},"vehicle_type_id":"4","last_reported":1784392982,"current_range_meters":7200,"station_id":"st_d3j5ugp08ojc73fj9d10","pricing_plan_id":"cebpf4jnsgd1na2vs0mg"},{"bike_id":"bd43fe00-0553-47b9-a12c-5aa12eab9422","system_id":"levelo_inurba_marseille","lat":43.27378,"lon":5.36251,"is_reserved":false,"is_disabled":false,"rental_uris":{"android":"levelo://app?vid=bd43fe00-0553-47b9-a12c-5aa12eab9422","ios":"levelo://app?vid=bd43fe00-0553-47b9-a12c-5aa12eab9422"},"vehicle_type_id":"4","last_reported":1784392982,"current_range_meters":38400,"station_id":"ce4bhbh2rcd13ifvqeo0","pricing_plan_id":"cebpf4jnsgd1na2vs0mg"},{"bike_id":"99babde9-3915-452c-b14b-d4cd123ce9a3","system_id":"levelo_inurba_marseille","lat":43.26956,"lon":5.40244,"is_reserved":false,"is_disabled":false,"rental_uris":{"android":"levelo://app?vid=99babde9-3915-452c-b14b-d4cd123ce9a3","ios":"levelo://app?vid=99babde9-3915-452c-b14b-d4cd123ce9a3"},"vehicle_type_id":"4","last_reported":1784392982,"current_range_meters":8800,"station_id":"cjm6bp8fraef2m0cb0m0","pricing_plan_id":"cebpf4jnsgd1na2vs0mg"},{"bike_id":"726511d8-9c08-4bb3-ba3d-24adb80e5dd8","system_id":"levelo_inurba_marseille","lat":43.2993,"lon":5.40045,"is_reserved":false,"is_disabled":false,"rental_uris":{"android":"levelo://app?vid=726511d8-9c08-4bb3-ba3d-24adb80e5dd8","ios":"levelo://app?vid=726511d8-9c08-4bb3-ba3d-24adb80e5dd8"},"vehicle_type_id":"4","last_reported":1784392982,"current_range_meters":10800,"station_id":"","pricing_plan_id":"cebpf4jnsgd1na2vs0mg"},{"bike_id":"2623e023-e953-40ac-8068-15d2169ca99d","system_id":"levelo_inurba_marseille","lat":43.28706,"lon":5.46676,"is_reserved":false,"is_disabled":false,"rental_uris":{"android":"levelo://app?vid=2623e023-e953-40ac-8068-15d2169ca99d","ios":"levelo://app?vid=2623e023-e953-40ac-8068-15d2169ca99d"},"vehicle_type_id":"4","last_reported":1784392982,"current_range_meters":39200,"station_id":"st_d6tc3vkotcvc738tfjhg","pricing_plan_id":"cebpf4jnsgd1na2vs0mg"},{"bike_id":"5b4027e9-78b0-4a64-a834-78af322d2a8c","system_id":"levelo_inurba_marseille","lat":43.29037,"lon":5.35912,"is_reserved":false,"is_disabled":false,"rental_uris":{"android":"levelo://app?vid=5b4027e9-78b0-4a64-a834-78af322d2a8c","ios":"levelo://app?vid=5b4027e9-78b0-4a64-a834-78af322d2a8c"},"vehicle_type_id":"4","last_reported":1784392982,"current_range_meters":37600,"station_id":"ce4bha92rcd13ifvqeg0","pricing_plan_id":"cebpf4jnsgd1na2vs0mg"},{"bike_id":"de58366b-b16c-44dd-ac3c-b2313f9f0f30","system_id":"levelo_inurba_marseille","lat":43.30576,"lon":5.36529,"is_reserved":false,"is_disabled":false,"rental_uris":{"android":"levelo://app?vid=de58366b-b16c-44dd-ac3c-b2313f9f0f30","ios":"levelo://app?vid=de58366b-b16c-44dd-ac3c-b2313f9f0f30"},"vehicle_type_id":"4","last_reported":1784392982,"current_range_meters":33600,"station_id":"ce4bgs12rcd13ifvqcag","pricing_plan_id":"cebpf4jnsgd1na2vs0mg"},{"bike_id":"b53ede9e-dcbb-4412-a23a-3d3245d97981","system_id":"levelo_inurba_marseille","lat":43.2683,"lon":5.40248,"is_reserved":false,"is_disabled":false,"rental_uris":{"android":"levelo://app?vid=b53ede9e-dcbb-4412-a23a-3d3245d97981","ios":"levelo://app?vid=b53ede9e-dcbb-4412-a23a-3d3245d97981"},"vehicle_type_id":"4","last_reported":1784392982,"current_range_meters":14000,"station_id":"ce501612rcd8frsf0b60","pricing_plan_id":"cebpf4jnsgd1na2vs0mg"},{"bike_id":"a4112e18-17ac-4222-ad7c-fd07012987e8","system_id":"levelo_inurba_marseille","lat":43.28424,"lon":5.34981,"is_reserved":false,"is_disabled":false,"rental_uris":{"android":"levelo://app?vid=a4112e18-17ac-4222-ad7c-fd07012987e8","ios":"levelo://app?vid=a4112e18-17ac-4222-ad7c-fd07012987e8"},"vehicle_type_id":"4","last_reported":1784392982,"current_range_meters":29600,"station_id":"ce4bhbh2rcd13ifvqepg","pricing_plan_id":"cebpf4jnsgd1na2vs0mg"},{"bike_id":"f8955ac0-4fb0-43de-bef9-e6c33ea71dd3","system_id":"levelo_inurba_marseille","lat":43.28625,"lon":5.35073,"is_reserved":false,"is_disabled":true,"rental_uris":{"android":"levelo://app?vid=f8955ac0-4fb0-43de-bef9-e6c33ea71dd3","ios":"levelo://app?vid=f8955ac0-4fb0-43de-bef9-e6c33ea71dd3"},"vehicle_type_id":"4","last_reported":1784392982,"current_range_meters":30000,"station_id":"ce4bhch2rcd13ifvqeug","pricing_plan_id":"cebpf4jnsgd1na2vs0mg"},{"bike_id":"1aba4b2e-71a6-4e82-8e9d-0b35db6f35c2","system_id":"levelo_inurba_marseille","lat":43.24164,"lon":5.36401,"is_reserved":false,"is_disabled":false,"rental_uris":{"android":"levelo://app?vid=1aba4b2e-71a6-4e82-8e9d-0b35db6f35c2","ios":"levelo://app?vid=1aba4b2e-71a6-4e82-8e9d-0b35db6f35c2"},"vehicle_type_id":"4","last_reported":1784392982,"current_range_meters":6000,"station_id":"cpo36qri1sfpv3e86is0","pricing_plan_id":"cebpf4jnsgd1na2vs0mg"},{"bike_id":"863d0357-9100-4091-8be6-61d932e4e898","system_id":"levelo_inurba_marseille","lat":43.33756,"lon":5.37458,"is_reserved":false,"is_disabled":false,"rental_uris":{"android":"levelo://app?vid=863d0357-9100-4091-8be6-61d932e4e898","ios":"levelo://app?vid=863d0357-9100-4091-8be6-61d932e4e898"},"vehicle_type_id":"4","last_reported":1784392982,"current_range_meters":36000,"station_id":"","pricing_plan_id":"cebpf4jnsgd1na2vs0mg"},{"bike_id":"0d249168-c1b9-4fc1-a9ca-ee81dcabf286","system_id":"levelo_inurba_marseille","lat":43.30828,"lon":5.40425,"is_reserved":false,"is_disabled":false,"rental_uris":{"android":"levelo://app?vid=0d249168-c1b9-4fc1-a9ca-ee81dcabf286","ios":"levelo://app?vid=0d249168-c1b9-4fc1-a9ca-ee81dcabf286"},"vehicle_type_id":"4","last_reported":1784392982,"current_range_meters":11600,"station_id":"","pricing_plan_id":"cebpf4jnsgd1na2vs0mg"},{"bike_id":"42a06539-fa05-4673-9b8c-ca7a6023165c","system_id":"levelo_inurba_marseille","lat":43.26698,"lon":5.38264,"is_reserved":false,"is_disabled":false,"rental_uris":{"android":"levelo://app?vid=42a06539-fa05-4673-9b8c-ca7a6023165c","ios":"levelo://app?vid=42a06539-fa05-4673-9b8c-ca7a6023165c"},"vehicle_type_id":"4","last_reported":1784392982,"current_range_meters":38400,"station_id":"ce4bhg92rcd13ifvqf90","pricing_plan_id":"cebpf4jnsgd1na2vs0mg"},{"bike_id":"23eb5469-ce86-4640-b7e9-23db69dc1852","system_id":"levelo_inurba_marseille","lat":43.28145,"lon":5.42627,"is_reserved":false,"is_disabled":false,"rental_uris":{"android":"levelo://app?vid=23eb5469-ce86-4640-b7e9-23db69dc1852","ios":"levelo://app?vid=23eb5469-ce86-4640-b7e9-23db69dc1852"},"vehicle_type_id":"4","last_reported":1784392982,"current_range_meters":38400,"station_id":"ce4bhnh2rcd13ifvqgug","pricing_plan_id":"cebpf4jnsgd1na2vs0mg"},{"bike_id":"d1967e65-efe7-4594-ab29-6c0a30b77681","system_id":"levelo_inurba_marseille","lat":43.23957,"lon":5.36621,"is_reserved":false,"is_disabled":true,"rental_uris":{"android":"levelo://app?vid=d1967e65-efe7-4594-ab29-6c0a30b77681","ios":"levelo://app?vid=d1967e65-efe7-4594-ab29-6c0a30b77681"},"vehicle_type_id":"4","last_reported":1784392982,"current_range_meters":0,"station_id":"ce4bhi12rcd13ifvqfp0","pricing_plan_id":"cebpf4jnsgd1na2vs0mg"},{"bike_id":"8ba7f2d6-52d3-4c56-b19a-19a142e62779","system_id":"levelo_inurba_marseille","lat":43.2407,"lon":5.37761,"is_reserved":false,"is_disabled":false,"rental_uris":{"android":"levelo://app?vid=8ba7f2d6-52d3-4c56-b19a-19a142e62779","ios":"levelo://app?vid=8ba7f2d6-52d3-4c56-b19a-19a142e62779"},"vehicle_type_id":"4","last_reported":1784392982,"current_range_meters":12400,"station_id":"ce4bhnp2rcd13ifvqgvg","pricing_plan_id":"cebpf4jnsgd1na2vs0mg"},{"bike_id":"83430c1a-b44e-4fb6-9f9c-fdb69c2d228c","system_id":"levelo_inurba_marseille","lat":43.26065,"lon":5.3938,"is_reserved":false,"is_disabled":false,"rental_uris":{"android":"levelo://app?vid=83430c1a-b44e-4fb6-9f9c-fdb69c2d228c","ios":"levelo://app?vid=83430c1a-b44e-4fb6-9f9c-fdb69c2d228c"},"vehicle_type_id":"4","last_reported":1784392982,"current_range_meters":37600,"station_id":"ce4bhh92rcd13ifvqfj0","pricing_plan_id":"cebpf4jnsgd1na2vs0mg"},{"bike_id":"66afdf81-3bfc-4f74-a2b5-978630e17649","system_id":"levelo_inurba_marseille","lat":43.27961,"lon":5.37245,"is_reserved":false,"is_disabled":false,"rental_uris":{"android":"levelo://app?vid=66afdf81-3bfc-4f74-a2b5-978630e17649","ios":"levelo://app?vid=66afdf81-3bfc-4f74-a2b5-978630e17649"},"vehicle_type_id":"4","last_reported":1784392982,"current_range_meters":28000,"station_id":"","pricing_plan_id":"cebpf4jnsgd1na2vs0mg"},{"bike_id":"4c530d75-b722-41d1-8ee6-40313ee60e3d","system_id":"levelo_inurba_marseille","lat":43.29258,"lon":5.36587,"is_reserved":false,"is_disabled":true,"rental_uris":{"android":"levelo://app?vid=4c530d75-b722-41d1-8ee6-40313ee60e3d","ios":"levelo://app?vid=4c530d75-b722-41d1-8ee6-40313ee60e3d"},"vehicle_type_id":"4","last_reported":1784392982,"current_range_meters":0,"station_id":"","pricing_plan_id":"cebpf4jnsgd1na2vs0mg"},{"bike_id":"603abb4a-8d90-4231-8ea0-098257e283cf","system_id":"levelo_inurba_marseille","lat":43.28844,"lon":5.35828,"is_reserved":false,"is_disabled":false,"rental_uris":{"android":"levelo://app?vid=603abb4a-8d90-4231-8ea0-098257e283cf","ios":"levelo://app?vid=603abb4a-8d90-4231-8ea0-098257e283cf"},"vehicle_type_id":"4","last_reported":1784392982,"current_range_meters":22400,"station_id":"ce4bhb12rcd13ifvqem0","pricing_plan_id":"cebpf4jnsgd1na2vs0mg"},{"bike_id":"aa30dd65-c709-4566-b285-77519e3da6b5","system_id":"levelo_inurba_marseille","lat":43.29963,"lon":5.38493,"is_reserved":false,"is_disabled":true,"rental_uris":{"android":"levelo://app?vid=aa30dd65-c709-4566-b285-77519e3da6b5","ios":"levelo://app?vid=aa30dd65-c709-4566-b285-77519e3da6b5"},"vehicle_type_id":"4","last_reported":1784392982,"current_range_meters":6800,"station_id":"ce4bgj92rcd13ifvqbd0","pricing_plan_id":"cebpf4jnsgd1na2vs0mg"},{"bike_id":"64df1076-5cc9-46b4-aa7e-c3e06ebd8099","system_id":"levelo_inurba_marseille","lat":43.29789,"lon":5.38108,"is_reserved":false,"is_disabled":true,"rental_uris":{"android":"levelo://app?vid=64df1076-5cc9-46b4-aa7e-c3e06ebd8099","ios":"levelo://app?vid=64df1076-5cc9-46b4-aa7e-c3e06ebd8099"},"vehicle_type_id":"4","last_reported":1784392982,"current_range_meters":2000,"station_id":"ce4bgip2rcd13ifvqbb0","pricing_plan_id":"cebpf4jnsgd1na2vs0mg"},{"bike_id":"d1a48610-bb25-438d-b400-8f30c8c47f39","system_id":"levelo_inurba_marseille","lat":43.27313,"lon":5.39074,"is_reserved":false,"is_disabled":false,"rental_uris":{"android":"levelo://app?vid=d1a48610-bb25-438d-b400-8f30c8c47f39","ios":"levelo://app?vid=d1a48610-bb25-438d-b400-8f30c8c47f39"},"vehicle_type_id":"4","last_reported":1784392982,"current_range_meters":40000,"station_id":"ce4bhgp2rcd13ifvqfe0","pricing_plan_id":"cebpf4jnsgd1na2vs0mg"},{"bike_id":"4120c7d7-1403-4d50-96ed-9b7731a97efc","system_id":"levelo_inurba_marseille","lat":43.32129,"lon":5.3677,"is_reserved":false,"is_disabled":false,"rental_uris":{"android":"levelo://app?vid=4120c7d7-1403-4d50-96ed-9b7731a97efc","ios":"levelo://app?vid=4120c7d7-1403-4d50-96ed-9b7731a97efc"},"vehicle_type_id":"4","last_reported":1784392982,"current_range_meters":26800,"station_id":"ce4bhrh2rcd13ifvqhug","pricing_plan_id":"cebpf4jnsgd1na2vs0mg"},{"bike_id":"21a31c6d-ff9d-434c-94c9-c56fd7669232","system_id":"levelo_inurba_marseille","lat":43.28605,"lon":5.37057,"is_reserved":false,"is_disabled":false,"rental_uris":{"android":"levelo://app?vid=21a31c6d-ff9d-434c-94c9-c56fd7669232","ios":"levelo://app?vid=21a31c6d-ff9d-434c-94c9-c56fd7669232"},"vehicle_type_id":"4","last_reported":1784392982,"current_range_meters":24800,"station_id":"ce4bht12rcd13ifvqi60","pricing_plan_id":"cebpf4jnsgd1na2vs0mg"},{"bike_id":"c41a517b-0bb5-47cd-903a-4662e7bab29b","system_id":"levelo_inurba_marseille","lat":43.29711,"lon":5.37696,"is_reserved":false,"is_disabled":true,"rental_uris":{"android":"levelo://app?vid=c41a517b-0bb5-47cd-903a-4662e7bab29b","ios":"levelo://app?vid=c41a517b-0bb5-47cd-903a-4662e7bab29b"},"vehicle_type_id":"4","last_reported":1784392982,"current_range_meters":400,"station_id":"ce4bgkh2rcd13ifvqbl0","pricing_plan_id":"cebpf4jnsgd1na2vs0mg"},{"bike_id":"7e62a1e7-e43e-4c6d-97fe-eb42228edf6d","system_id":"levelo_inurba_marseille","lat":43.26535,"lon":5.39395,"is_reserved":false,"is_disabled":false,"rental_uris":{"android":"levelo://app?vid=7e62a1e7-e43e-4c6d-97fe-eb42228edf6d","ios":"levelo://app?vid=7e62a1e7-e43e-4c6d-97fe-eb42228edf6d"},"vehicle_type_id":"4","last_reported":1784392982,"current_range_meters":9200,"station_id":"","pricing_plan_id":"cebpf4jnsgd1na2vs0mg"},{"bike_id":"b292468b-b120-4e6e-91c9-becd93ba9154","system_id":"levelo_inurba_marseille","lat":43.29003,"lon":5.3561,"is_reserved":false,"is_disabled":false,"rental_uris":{"android":"levelo://app?vid=b292468b-b120-4e6e-91c9-becd93ba9154","ios":"levelo://app?vid=b292468b-b120-4e6e-91c9-becd93ba9154"},"vehicle_type_id":"4","last_reported":1784392982,"current_range_meters":13600,"station_id":"ce4bhb92rcd13ifvqen0","pricing_plan_id":"cebpf4jnsgd1na2vs0mg"},{"bike_id":"9e598366-6aff-406e-9fda-b6c0d00f0298","system_id":"levelo_inurba_marseille","lat":43.2709,"lon":5.40202,"is_reserved":false,"is_disabled":false,"rental_uris":{"android":"levelo://app?vid=9e598366-6aff-406e-9fda-b6c0d00f0298","ios":"levelo://app?vid=9e598366-6aff-406e-9fda-b6c0d00f0298"},"vehicle_type_id":"4","last_reported":1784392982,"current_range_meters":38800,"station_id":"ce4bhk92rcd13ifvqgc0","pricing_plan_id":"cebpf4jnsgd1na2vs0mg"},{"bike_id":"24c79739-e239-49a5-b347-6f2de3fa0954","system_id":"levelo_inurba_marseille","lat":43.28273,"lon":5.3506,"is_reserved":false,"is_disabled":false,"rental_uris":{"android":"levelo://app?vid=24c79739-e239-49a5-b347-6f2de3fa0954","ios":"levelo://app?vid=24c79739-e239-49a5-b347-6f2de3fa0954"},"vehicle_type_id":"4","last_reported":1784392982,"current_range_meters":29600,"station_id":"ce4bhbp2rcd13ifvqerg","pricing_plan_id":"cebpf4jnsgd1na2vs0mg"},{"bike_id":"50a12367-f7cc-42c4-9b7f-3a7c038c9577","system_id":"levelo_inurba_marseille","lat":43.28256,"lon":5.35051,"is_reserved":false,"is_disabled":false,"rental_uris":{"android":"levelo://app?vid=50a12367-f7cc-42c4-9b7f-3a7c038c9577","ios":"levelo://app?vid=50a12367-f7cc-42c4-9b7f-3a7c038c9577"},"vehicle_type_id":"4","last_reported":1784392982,"current_range_meters":19600,"station_id":"ce4bhbp2rcd13ifvqerg","pricing_plan_id":"cebpf4jnsgd1na2vs0mg"},{"bike_id":"49480520-0e6e-4906-966b-2692ed350dc6","system_id":"levelo_inurba_marseille","lat":43.28997,"lon":5.35611,"is_reserved":false,"is_disabled":false,"rental_uris":{"android":"levelo://app?vid=49480520-0e6e-4906-966b-2692ed350dc6","ios":"levelo://app?vid=49480520-0e6e-4906-966b-2692ed350dc6"},"vehicle_type_id":"4","last_reported":1784392982,"current_range_meters":14400,"station_id":"ce4bhgp2rcd13ifvqfc0","pricing_plan_id":"cebpf4jnsgd1na2vs0mg"},{"bike_id":"eb285f73-deba-4482-b7c7-be983c70f482","system_id":"levelo_inurba_marseille","lat":43.26561,"lon":5.37282,"is_reserved":false,"is_disabled":false,"rental_uris":{"android":"levelo://app?vid=eb285f73-deba-4482-b7c7-be983c70f482","ios":"levelo://app?vid=eb285f73-deba-4482-b7c7-be983c70f482"},"vehicle_type_id":"4","last_reported":1784392982,"current_range_meters":16400,"station_id":"ce4bhg12rcd13ifvqf70","pricing_plan_id":"cebpf4jnsgd1na2vs0mg"},{"bike_id":"81587832-75ed-49cd-91c3-f57f9b8cec45","system_id":"levelo_inurba_marseille","lat":43.29026,"lon":5.35907,"is_reserved":false,"is_disabled":true,"rental_uris":{"android":"levelo://app?vid=81587832-75ed-49cd-91c3-f57f9b8cec45","ios":"levelo://app?vid=81587832-75ed-49cd-91c3-f57f9b8cec45"},"vehicle_type_id":"4","last_reported":1784392982,"current_range_meters":6800,"station_id":"ce4bha92rcd13ifvqeg0","pricing_plan_id":"cebpf4jnsgd1na2vs0mg"},{"bike_id":"fa131476-d42b-42c2-8c26-9357d6afec34","system_id":"levelo_inurba_marseille","lat":43.28821,"lon":5.35917,"is_reserved":false,"is_disabled":false,"rental_uris":{"android":"levelo://app?vid=fa131476-d42b-42c2-8c26-9357d6afec34","ios":"levelo://app?vid=fa131476-d42b-42c2-8c26-9357d6afec34"},"vehicle_type_id":"4","last_reported":1784392982,"current_range_meters":10000,"station_id":"","pricing_plan_id":"cebpf4jnsgd1na2vs0mg"},{"bike_id":"c63c38ec-8e22-400e-b2e9-2243c31f13bb","system_id":"levelo_inurba_marseille","lat":43.29048,"lon":5.35902,"is_reserved":false,"is_disabled":false,"rental_uris":{"android":"levelo://app?vid=c63c38ec-8e22-400e-b2e9-2243c31f13bb","ios":"levelo://app?vid=c63c38ec-8e22-400e-b2e9-2243c31f13bb"},"vehicle_type_id":"4","last_reported":1784392982,"current_range_meters":29600,"station_id":"ce4bha92rcd13ifvqeg0","pricing_plan_id":"cebpf4jnsgd1na2vs0mg"},{"bike_id":"a4753ec5-acee-4a4b-830c-ea0e1c298f92","system_id":"levelo_inurba_marseille","lat":43.279546,"lon":5.410583,"is_reserved":false,"is_disabled":false,"rental_uris":{"android":"levelo://app?vid=a4753ec5-acee-4a4b-830c-ea0e1c298f92","ios":"levelo://app?vid=a4753ec5-acee-4a4b-830c-ea0e1c298f92"},"vehicle_type_id":"4","last_reported":1784392982,"current_range_meters":28400,"station_id":"ce4bhnp2rcd13ifvqh0g","pricing_plan_id":"cebpf4jnsgd1na2vs0mg"},{"bike_id":"d7459500-649e-4541-9095-96b08f7cbb16","system_id":"levelo_inurba_marseille","lat":43.26205,"lon":5.37908,"is_reserved":false,"is_disabled":false,"rental_uris":{"android":"levelo://app?vid=d7459500-649e-4541-9095-96b08f7cbb16","ios":"levelo://app?vid=d7459500-649e-4541-9095-96b08f7cbb16"},"vehicle_type_id":"4","last_reported":1784392982,"current_range_meters":11200,"station_id":"ce4bhjp2rcd13ifvqg90","pricing_plan_id":"cebpf4jnsgd1na2vs0mg"},{"bike_id":"845894b6-8a9b-465d-9c7c-5c5f502f64fb","system_id":"levelo_inurba_marseille","lat":43.2873,"lon":5.36078,"is_reserved":false,"is_disabled":false,"rental_uris":{"android":"levelo://app?vid=845894b6-8a9b-465d-9c7c-5c5f502f64fb","ios":"levelo://app?vid=845894b6-8a9b-465d-9c7c-5c5f502f64fb"},"vehicle_type_id":"4","last_reported":1784392982,"current_range_meters":21600,"station_id":"cki0cbj6b192h4jlfktg","pricing_plan_id":"cebpf4jnsgd1na2vs0mg"},{"bike_id":"9e0af9ec-9913-4615-b550-abfd082791d2","system_id":"levelo_inurba_marseille","lat":43.23168,"lon":5.43744,"is_reserved":false,"is_disabled":false,"rental_uris":{"android":"levelo://app?vid=9e0af9ec-9913-4615-b550-abfd082791d2","ios":"levelo://app?vid=9e0af9ec-9913-4615-b550-abfd082791d2"},"vehicle_type_id":"4","last_reported":1784392982,"current_range_meters":39200,"station_id":"ce4bhmp2rcd13ifvqgog","pricing_plan_id":"cebpf4jnsgd1na2vs0mg"},{"bike_id":"1360a870-779a-426e-8c2a-217952e22682","system_id":"levelo_inurba_marseille","lat":43.29702,"lon":5.36598,"is_reserved":false,"is_disabled":false,"rental_uris":{"android":"levelo://app?vid=1360a870-779a-426e-8c2a-217952e22682","ios":"levelo://app?vid=1360a870-779a-426e-8c2a-217952e22682"},"vehicle_type_id":"4","last_reported":1784392982,"current_range_meters":24400,"station_id":"ce4bgn12rcd13ifvqbt0","pricing_plan_id":"cebpf4jnsgd1na2vs0mg"},{"bike_id":"7e0515b8-5326-4e20-9b8b-e169b427c2c9","system_id":"levelo_inurba_marseille","lat":43.28414,"lon":5.34973,"is_reserved":false,"is_disabled":false,"rental_uris":{"android":"levelo://app?vid=7e0515b8-5326-4e20-9b8b-e169b427c2c9","ios":"levelo://app?vid=7e0515b8-5326-4e20-9b8b-e169b427c2c9"},"vehicle_type_id":"4","last_reported":1784392982,"current_range_meters":8000,"station_id":"ce4bhbh2rcd13ifvqepg","pricing_plan_id":"cebpf4jnsgd1na2vs0mg"},{"bike_id":"2e5427bf-706c-4e25-b236-f6e9c9e9afa3","system_id":"levelo_inurba_marseille","lat":43.2954,"lon":5.37497,"is_reserved":false,"is_disabled":false,"rental_uris":{"android":"levelo://app?vid=2e5427bf-706c-4e25-b236-f6e9c9e9afa3","ios":"levelo://app?vid=2e5427bf-706c-4e25-b236-f6e9c9e9afa3"},"vehicle_type_id":"4","last_reported":1784392982,"current_range_meters":24000,"station_id":"ce4bgkp2rcd13ifvqbmg","pricing_plan_id":"cebpf4jnsgd1na2vs0mg"},{"bike_id":"7ff8118f-6c81-4cdf-8a1d-4753d954065d","system_id":"levelo_inurba_marseille","lat":43.29618,"lon":5.37984,"is_reserved":false,"is_disabled":false,"rental_uris":{"android":"levelo://app?vid=7ff8118f-6c81-4cdf-8a1d-4753d954065d","ios":"levelo://app?vid=7ff8118f-6c81-4cdf-8a1d-4753d954065d"},"vehicle_type_id":"4","last_reported":1784392982,"current_range_meters":6800,"station_id":"","pricing_plan_id":"cebpf4jnsgd1na2vs0mg"},{"bike_id":"8d8b9b68-1b3e-4685-955e-b8241080cd7b","system_id":"levelo_inurba_marseille","lat":43.31501,"lon":5.37312,"is_reserved":false,"is_disabled":false,"rental_uris":{"android":"levelo://app?vid=8d8b9b68-1b3e-4685-955e-b8241080cd7b","ios":"levelo://app?vid=8d8b9b68-1b3e-4685-955e-b8241080cd7b"},"vehicle_type_id":"4","last_reported":1784392982,"current_range_meters":38000,"station_id":"ce4bgt12rcd13ifvqcd0","pricing_plan_id":"cebpf4jnsgd1na2vs0mg"},{"bike_id":"0efa47ee-d0bf-416e-82f3-4055cb3fadd2","system_id":"levelo_inurba_marseille","lat":43.24813,"lon":5.37452,"is_reserved":false,"is_disabled":false,"rental_uris":{"android":"levelo://app?vid=0efa47ee-d0bf-416e-82f3-4055cb3fadd2","ios":"levelo://app?vid=0efa47ee-d0bf-416e-82f3-4055cb3fadd2"},"vehicle_type_id":"4","last_reported":1784392982,"current_range_meters":38000,"station_id":"ce4bhgh2rcd13ifvqfb0","pricing_plan_id":"cebpf4jnsgd1na2vs0mg"},{"bike_id":"1c885385-f984-4778-bce2-9178202bc388","system_id":"levelo_inurba_marseille","lat":43.30956,"lon":5.39025,"is_reserved":false,"is_disabled":false,"rental_uris":{"android":"levelo://app?vid=1c885385-f984-4778-bce2-9178202bc388","ios":"levelo://app?vid=1c885385-f984-4778-bce2-9178202bc388"},"vehicle_type_id":"4","last_reported":1784392982,"current_range_meters":28800,"station_id":"ce4bgup2rcd13ifvqco0","pricing_plan_id":"cebpf4jnsgd1na2vs0mg"},{"bike_id":"848a1aff-274a-4b44-93f8-df5211554a34","system_id":"levelo_inurba_marseille","lat":43.28702,"lon":5.37408,"is_reserved":false,"is_disabled":true,"rental_uris":{"android":"levelo://app?vid=848a1aff-274a-4b44-93f8-df5211554a34","ios":"levelo://app?vid=848a1aff-274a-4b44-93f8-df5211554a34"},"vehicle_type_id":"4","last_reported":1784392982,"current_range_meters":22000,"station_id":"ce4bh3p2rcd13ifvqdq0","pricing_plan_id":"cebpf4jnsgd1na2vs0mg"},{"bike_id":"db7700d7-1162-4b66-a7c0-4bad7e571456","system_id":"levelo_inurba_marseille","lat":43.28481,"lon":5.38542,"is_reserved":false,"is_disabled":true,"rental_uris":{"android":"levelo://app?vid=db7700d7-1162-4b66-a7c0-4bad7e571456","ios":"levelo://app?vid=db7700d7-1162-4b66-a7c0-4bad7e571456"},"vehicle_type_id":"4","last_reported":1784392982,"current_range_meters":400,"station_id":"ce4bh8p2rcd13ifvqeb0","pricing_plan_id":"cebpf4jnsgd1na2vs0mg"},{"bike_id":"1de5753c-f77d-4a34-b134-58bee8bc010c","system_id":"levelo_inurba_marseille","lat":43.26529,"lon":5.37283,"is_reserved":false,"is_disabled":false,"rental_uris":{"android":"levelo://app?vid=1de5753c-f77d-4a34-b134-58bee8bc010c","ios":"levelo://app?vid=1de5753c-f77d-4a34-b134-58bee8bc010c"},"vehicle_type_id":"4","last_reported":1784392982,"current_range_meters":20400,"station_id":"ce4bhg12rcd13ifvqf70","pricing_plan_id":"cebpf4jnsgd1na2vs0mg"},{"bike_id":"b7ff1894-eee5-4402-ac66-eb69ad80b0df","system_id":"levelo_inurba_marseille","lat":43.3148,"lon":5.37322,"is_reserved":false,"is_disabled":false,"rental_uris":{"android":"levelo://app?vid=b7ff1894-eee5-4402-ac66-eb69ad80b0df","ios":"levelo://app?vid=b7ff1894-eee5-4402-ac66-eb69ad80b0df"},"vehicle_type_id":"4","last_reported":1784392982,"current_range_meters":38800,"station_id":"ce4bgt12rcd13ifvqcd0","pricing_plan_id":"cebpf4jnsgd1na2vs0mg"},{"bike_id":"83283e5b-082f-4f1d-9c74-c06304a08b72","system_id":"levelo_inurba_marseille","lat":43.28408,"lon":5.34962,"is_reserved":false,"is_disabled":false,"rental_uris":{"android":"levelo://app?vid=83283e5b-082f-4f1d-9c74-c06304a08b72","ios":"levelo://app?vid=83283e5b-082f-4f1d-9c74-c06304a08b72"},"vehicle_type_id":"4","last_reported":1784392982,"current_range_meters":30400,"station_id":"ce4bhbh2rcd13ifvqepg","pricing_plan_id":"cebpf4jnsgd1na2vs0mg"},{"bike_id":"a7c42e62-f2d7-4f0f-96f4-b9d2418cea29","system_id":"levelo_inurba_marseille","lat":43.29645,"lon":5.4061,"is_reserved":false,"is_disabled":true,"rental_uris":{"android":"levelo://app?vid=a7c42e62-f2d7-4f0f-96f4-b9d2418cea29","ios":"levelo://app?vid=a7c42e62-f2d7-4f0f-96f4-b9d2418cea29"},"vehicle_type_id":"4","last_reported":1784392982,"current_range_meters":20400,"station_id":"ce4bh0h2rcd13ifvqd60","pricing_plan_id":"cebpf4jnsgd1na2vs0mg"},{"bike_id":"12e1b09d-c63f-48ec-9e45-aca04317c26f","system_id":"levelo_inurba_marseille","lat":43.28626,"lon":5.35092,"is_reserved":false,"is_disabled":false,"rental_uris":{"android":"levelo://app?vid=12e1b09d-c63f-48ec-9e45-aca04317c26f","ios":"levelo://app?vid=12e1b09d-c63f-48ec-9e45-aca04317c26f"},"vehicle_type_id":"4","last_reported":1784392982,"current_range_meters":37600,"station_id":"ce4bhch2rcd13ifvqeug","pricing_plan_id":"cebpf4jnsgd1na2vs0mg"},{"bike_id":"5c8cceac-7ba3-4131-a43c-fbd755750e57","system_id":"levelo_inurba_marseille","lat":43.29511,"lon":5.37489,"is_reserved":false,"is_disabled":false,"rental_uris":{"android":"levelo://app?vid=5c8cceac-7ba3-4131-a43c-fbd755750e57","ios":"levelo://app?vid=5c8cceac-7ba3-4131-a43c-fbd755750e57"},"vehicle_type_id":"4","last_reported":1784392982,"current_range_meters":9200,"station_id":"ce4bgkp2rcd13ifvqbmg","pricing_plan_id":"cebpf4jnsgd1na2vs0mg"},{"bike_id":"ae5a0ed2-8aa5-425b-99f6-2aee209ee161","system_id":"levelo_inurba_marseille","lat":43.29217,"lon":5.35791,"is_reserved":false,"is_disabled":false,"rental_uris":{"android":"levelo://app?vid=ae5a0ed2-8aa5-425b-99f6-2aee209ee161","ios":"levelo://app?vid=ae5a0ed2-8aa5-425b-99f6-2aee209ee161"},"vehicle_type_id":"4","last_reported":1784392982,"current_range_meters":38800,"station_id":"ce4bhb12rcd13ifvqel0","pricing_plan_id":"cebpf4jnsgd1na2vs0mg"},{"bike_id":"2c3034d9-cfe0-4bed-ba66-d570d2e65392","system_id":"levelo_inurba_marseille","lat":43.29953,"lon":5.3846,"is_reserved":false,"is_disabled":true,"rental_uris":{"android":"levelo://app?vid=2c3034d9-cfe0-4bed-ba66-d570d2e65392","ios":"levelo://app?vid=2c3034d9-cfe0-4bed-ba66-d570d2e65392"},"vehicle_type_id":"4","last_reported":1784392982,"current_range_meters":22000,"station_id":"ce4bgj92rcd13ifvqbd0","pricing_plan_id":"cebpf4jnsgd1na2vs0mg"},{"bike_id":"ce627631-15e6-45f1-ac9e-5ea0115bd1ed","system_id":"levelo_inurba_marseille","lat":43.24392,"lon":5.37066,"is_reserved":false,"is_disabled":false,"rental_uris":{"android":"levelo://app?vid=ce627631-15e6-45f1-ac9e-5ea0115bd1ed","ios":"levelo://app?vid=ce627631-15e6-45f1-ac9e-5ea0115bd1ed"},"vehicle_type_id":"4","last_reported":1784392982,"current_range_meters":37600,"station_id":"ce4bhhh2rcd13ifvqfk0","pricing_plan_id":"cebpf4jnsgd1na2vs0mg"},{"bike_id":"0f6ff1da-c9e3-42e7-a8d3-8280d1c0addc","system_id":"levelo_inurba_marseille","lat":43.33718,"lon":5.37415,"is_reserved":false,"is_disabled":false,"rental_uris":{"android":"levelo://app?vid=0f6ff1da-c9e3-42e7-a8d3-8280d1c0addc","ios":"levelo://app?vid=0f6ff1da-c9e3-42e7-a8d3-8280d1c0addc"},"vehicle_type_id":"4","last_reported":1784392982,"current_range_meters":32400,"station_id":"","pricing_plan_id":"cebpf4jnsgd1na2vs0mg"},{"bike_id":"1e628dec-3141-48e0-b510-1c285ab03f4c","system_id":"levelo_inurba_marseille","lat":43.26418,"lon":5.41066,"is_reserved":false,"is_disabled":false,"rental_uris":{"android":"levelo://app?vid=1e628dec-3141-48e0-b510-1c285ab03f4c","ios":"levelo://app?vid=1e628dec-3141-48e0-b510-1c285ab03f4c"},"vehicle_type_id":"4","last_reported":1784392982,"current_range_meters":38400,"station_id":"st_d4e5ca6na9uc73bfl5fg","pricing_plan_id":"cebpf4jnsgd1na2vs0mg"},{"bike_id":"8337f5b4-2806-4bc0-9f71-af183adb5db8","system_id":"levelo_inurba_marseille","lat":43.23822,"lon":5.43512,"is_reserved":false,"is_disabled":false,"rental_uris":{"android":"levelo://app?vid=8337f5b4-2806-4bc0-9f71-af183adb5db8","ios":"levelo://app?vid=8337f5b4-2806-4bc0-9f71-af183adb5db8"},"vehicle_type_id":"4","last_reported":1784392982,"current_range_meters":8000,"station_id":"","pricing_plan_id":"cebpf4jnsgd1na2vs0mg"},{"bike_id":"0d69c6ad-1581-485b-8bcd-d541c4976ef8","system_id":"levelo_inurba_marseille","lat":43.31881,"lon":5.368,"is_reserved":false,"is_disabled":false,"rental_uris":{"android":"levelo://app?vid=0d69c6ad-1581-485b-8bcd-d541c4976ef8","ios":"levelo://app?vid=0d69c6ad-1581-485b-8bcd-d541c4976ef8"},"vehicle_type_id":"4","last_reported":1784392982,"current_range_meters":12000,"station_id":"st_d6o2h0d0559c73evc1b0","pricing_plan_id":"cebpf4jnsgd1na2vs0mg"},{"bike_id":"1716a613-7db7-4ab4-b6ee-915e72cff3f9","system_id":"levelo_inurba_marseille","lat":43.26195,"lon":5.37443,"is_reserved":false,"is_disabled":false,"rental_uris":{"android":"levelo://app?vid=1716a613-7db7-4ab4-b6ee-915e72cff3f9","ios":"levelo://app?vid=1716a613-7db7-4ab4-b6ee-915e72cff3f9"},"vehicle_type_id":"4","last_reported":1784392982,"current_range_meters":34800,"station_id":"ce4bhgp2rcd13ifvqfc0","pricing_plan_id":"cebpf4jnsgd1na2vs0mg"},{"bike_id":"8234e4ba-c0cc-45bb-8dac-83745f25b6f7","system_id":"levelo_inurba_marseille","lat":43.32472,"lon":5.36582,"is_reserved":false,"is_disabled":false,"rental_uris":{"android":"levelo://app?vid=8234e4ba-c0cc-45bb-8dac-83745f25b6f7","ios":"levelo://app?vid=8234e4ba-c0cc-45bb-8dac-83745f25b6f7"},"vehicle_type_id":"4","last_reported":1784392982,"current_range_meters":26000,"station_id":"ce4bhs12rcd13ifvqhvg","pricing_plan_id":"cebpf4jnsgd1na2vs0mg"},{"bike_id":"ad193227-d210-4e9a-af26-3f25b41f58db","system_id":"levelo_inurba_marseille","lat":43.23905,"lon":5.37452,"is_reserved":false,"is_disabled":false,"rental_uris":{"android":"levelo://app?vid=ad193227-d210-4e9a-af26-3f25b41f58db","ios":"levelo://app?vid=ad193227-d210-4e9a-af26-3f25b41f58db"},"vehicle_type_id":"4","last_reported":1784392982,"current_range_meters":38000,"station_id":"st_d6sm7csbq4hs73f8fpjg","pricing_plan_id":"cebpf4jnsgd1na2vs0mg"},{"bike_id":"ee06a958-7f2b-4eb7-a6b1-2d3112db17a0","system_id":"levelo_inurba_marseille","lat":43.30798,"lon":5.37142,"is_reserved":false,"is_disabled":false,"rental_uris":{"android":"levelo://app?vid=ee06a958-7f2b-4eb7-a6b1-2d3112db17a0","ios":"levelo://app?vid=ee06a958-7f2b-4eb7-a6b1-2d3112db17a0"},"vehicle_type_id":"4","last_reported":1784392982,"current_range_meters":4400,"station_id":"","pricing_plan_id":"cebpf4jnsgd1na2vs0mg"},{"bike_id":"6574ba80-d1cb-4d7c-8e97-996d3033fe32","system_id":"levelo_inurba_marseille","lat":43.26563,"lon":5.37319,"is_reserved":false,"is_disabled":false,"rental_uris":{"android":"levelo://app?vid=6574ba80-d1cb-4d7c-8e97-996d3033fe32","ios":"levelo://app?vid=6574ba80-d1cb-4d7c-8e97-996d3033fe32"},"vehicle_type_id":"4","last_reported":1784392982,"current_range_meters":6000,"station_id":"ce4bhg12rcd13ifvqf70","pricing_plan_id":"cebpf4jnsgd1na2vs0mg"},{"bike_id":"4306dce0-b7bd-49da-a296-03eb11a6244a","system_id":"levelo_inurba_marseille","lat":43.26201,"lon":5.37443,"is_reserved":false,"is_disabled":true,"rental_uris":{"android":"levelo://app?vid=4306dce0-b7bd-49da-a296-03eb11a6244a","ios":"levelo://app?vid=4306dce0-b7bd-49da-a296-03eb11a6244a"},"vehicle_type_id":"4","last_reported":1784392982,"current_range_meters":0,"station_id":"ce4bhgp2rcd13ifvqfc0","pricing_plan_id":"cebpf4jnsgd1na2vs0mg"},{"bike_id":"942148f9-90f2-4171-8f05-98ba0ca85bcb","system_id":"levelo_inurba_marseille","lat":43.28484,"lon":5.48409,"is_reserved":false,"is_disabled":false,"rental_uris":{"android":"levelo://app?vid=942148f9-90f2-4171-8f05-98ba0ca85bcb","ios":"levelo://app?vid=942148f9-90f2-4171-8f05-98ba0ca85bcb"},"vehicle_type_id":"4","last_reported":1784392982,"current_range_meters":4000,"station_id":"st_d3svhcjqgbts73a3dn0g","pricing_plan_id":"cebpf4jnsgd1na2vs0mg"},{"bike_id":"c810f4d1-b4da-406c-8d26-e38927a8150c","system_id":"levelo_inurba_marseille","lat":43.26683,"lon":5.38273,"is_reserved":false,"is_disabled":false,"rental_uris":{"android":"levelo://app?vid=c810f4d1-b4da-406c-8d26-e38927a8150c","ios":"levelo://app?vid=c810f4d1-b4da-406c-8d26-e38927a8150c"},"vehicle_type_id":"4","last_reported":1784392982,"current_range_meters":30400,"station_id":"ce4bhg92rcd13ifvqf90","pricing_plan_id":"cebpf4jnsgd1na2vs0mg"},{"bike_id":"b2b194ed-86a5-4dc8-b828-5b80e1681197","system_id":"levelo_inurba_marseille","lat":43.28518,"lon":5.44099,"is_reserved":false,"is_disabled":false,"rental_uris":{"android":"levelo://app?vid=b2b194ed-86a5-4dc8-b828-5b80e1681197","ios":"levelo://app?vid=b2b194ed-86a5-4dc8-b828-5b80e1681197"},"vehicle_type_id":"4","last_reported":1784392982,"current_range_meters":39200,"station_id":"st_d3j3df2ikq2c7380ej80","pricing_plan_id":"cebpf4jnsgd1na2vs0mg"},{"bike_id":"fa288643-b967-4c77-8362-0941ea5afa2f","system_id":"levelo_inurba_marseille","lat":43.23204,"lon":5.35555,"is_reserved":false,"is_disabled":false,"rental_uris":{"android":"levelo://app?vid=fa288643-b967-4c77-8362-0941ea5afa2f","ios":"levelo://app?vid=fa288643-b967-4c77-8362-0941ea5afa2f"},"vehicle_type_id":"4","last_reported":1784392982,"current_range_meters":8000,"station_id":"ce4bhu92rcd13ifvqi70","pricing_plan_id":"cebpf4jnsgd1na2vs0mg"},{"bike_id":"2a93def1-9840-4751-b465-b53bb0ce6123","system_id":"levelo_inurba_marseille","lat":43.2256,"lon":5.41611,"is_reserved":false,"is_disabled":false,"rental_uris":{"android":"levelo://app?vid=2a93def1-9840-4751-b465-b53bb0ce6123","ios":"levelo://app?vid=2a93def1-9840-4751-b465-b53bb0ce6123"},"vehicle_type_id":"4","last_reported":1784392982,"current_range_meters":12000,"station_id":"st_d2o4gvlbi1j2169b742g","pricing_plan_id":"cebpf4jnsgd1na2vs0mg"},{"bike_id":"d2b08bfe-8d05-4397-91e9-fe938a2b845f","system_id":"levelo_inurba_marseille","lat":43.27536,"lon":5.42512,"is_reserved":false,"is_disabled":false,"rental_uris":{"android":"levelo://app?vid=d2b08bfe-8d05-4397-91e9-fe938a2b845f","ios":"levelo://app?vid=d2b08bfe-8d05-4397-91e9-fe938a2b845f"},"vehicle_type_id":"4","last_reported":1784392982,"current_range_meters":30800,"station_id":"","pricing_plan_id":"cebpf4jnsgd1na2vs0mg"},{"bike_id":"425cad7e-c581-49ee-8c5e-0d166be7d52a","system_id":"levelo_inurba_marseille","lat":43.31755,"lon":5.39012,"is_reserved":false,"is_disabled":false,"rental_uris":{"android":"levelo://app?vid=425cad7e-c581-49ee-8c5e-0d166be7d52a","ios":"levelo://app?vid=425cad7e-c581-49ee-8c5e-0d166be7d52a"},"vehicle_type_id":"4","last_reported":1784392982,"current_range_meters":21600,"station_id":"ce4bhqp2rcd13ifvqhng","pricing_plan_id":"cebpf4jnsgd1na2vs0mg"},{"bike_id":"07e971e2-e1e4-4e54-9b91-b8efafeef112","system_id":"levelo_inurba_marseille","lat":43.30557,"lon":5.36539,"is_reserved":false,"is_disabled":false,"rental_uris":{"android":"levelo://app?vid=07e971e2-e1e4-4e54-9b91-b8efafeef112","ios":"levelo://app?vid=07e971e2-e1e4-4e54-9b91-b8efafeef112"},"vehicle_type_id":"4","last_reported":1784392982,"current_range_meters":6400,"station_id":"ce4bgs12rcd13ifvqcag","pricing_plan_id":"cebpf4jnsgd1na2vs0mg"},{"bike_id":"e97d923d-d560-461e-94e7-6b746b3d8d92","system_id":"levelo_inurba_marseille","lat":43.32118,"lon":5.3679,"is_reserved":false,"is_disabled":false,"rental_uris":{"android":"levelo://app?vid=e97d923d-d560-461e-94e7-6b746b3d8d92","ios":"levelo://app?vid=e97d923d-d560-461e-94e7-6b746b3d8d92"},"vehicle_type_id":"4","last_reported":1784392982,"current_range_meters":25600,"station_id":"ce4bhrh2rcd13ifvqhug","pricing_plan_id":"cebpf4jnsgd1na2vs0mg"},{"bike_id":"eb97f188-bf77-4cfa-82f5-3cc624843059","system_id":"levelo_inurba_marseille","lat":43.26953,"lon":5.3864,"is_reserved":false,"is_disabled":false,"rental_uris":{"android":"levelo://app?vid=eb97f188-bf77-4cfa-82f5-3cc624843059","ios":"levelo://app?vid=eb97f188-bf77-4cfa-82f5-3cc624843059"},"vehicle_type_id":"4","last_reported":1784392982,"current_range_meters":40000,"station_id":"ce4bhh92rcd13ifvqfh0","pricing_plan_id":"cebpf4jnsgd1na2vs0mg"},{"bike_id":"8a84477a-18ea-479d-95ee-f98f6bbf0f2f","system_id":"levelo_inurba_marseille","lat":43.272096,"lon":5.391754,"is_reserved":false,"is_disabled":false,"rental_uris":{"android":"levelo://app?vid=8a84477a-18ea-479d-95ee-f98f6bbf0f2f","ios":"levelo://app?vid=8a84477a-18ea-479d-95ee-f98f6bbf0f2f"},"vehicle_type_id":"4","last_reported":1784392982,"current_range_meters":39200,"station_id":"ce4bhhp2rcd13ifvqfm0","pricing_plan_id":"cebpf4jnsgd1na2vs0mg"},{"bike_id":"48837646-8c52-45de-9e76-9ec9cdd47775","system_id":"levelo_inurba_marseille","lat":43.28771,"lon":5.38538,"is_reserved":false,"is_disabled":false,"rental_uris":{"android":"levelo://app?vid=48837646-8c52-45de-9e76-9ec9cdd47775","ios":"levelo://app?vid=48837646-8c52-45de-9e76-9ec9cdd47775"},"vehicle_type_id":"4","last_reported":1784392982,"current_range_meters":10000,"station_id":"","pricing_plan_id":"cebpf4jnsgd1na2vs0mg"},{"bike_id":"9ded3aaf-3123-4885-b287-bf61b9d86866","system_id":"levelo_inurba_marseille","lat":43.21771,"lon":5.34601,"is_reserved":false,"is_disabled":false,"rental_uris":{"android":"levelo://app?vid=9ded3aaf-3123-4885-b287-bf61b9d86866","ios":"levelo://app?vid=9ded3aaf-3123-4885-b287-bf61b9d86866"},"vehicle_type_id":"4","last_reported":1784392982,"current_range_meters":6000,"station_id":"st_cvj6r9ubvosntc0bgbag","pricing_plan_id":"cebpf4jnsgd1na2vs0mg"},{"bike_id":"4d4f8116-b78d-45df-894b-0d08a3cd82b5","system_id":"levelo_inurba_marseille","lat":43.30713,"lon":5.38395,"is_reserved":false,"is_disabled":false,"rental_uris":{"android":"levelo://app?vid=4d4f8116-b78d-45df-894b-0d08a3cd82b5","ios":"levelo://app?vid=4d4f8116-b78d-45df-894b-0d08a3cd82b5"},"vehicle_type_id":"4","last_reported":1784392982,"current_range_meters":4000,"station_id":"","pricing_plan_id":"cebpf4jnsgd1na2vs0mg"},{"bike_id":"c6b62028-2fba-481c-a2b5-507778ec7c93","system_id":"levelo_inurba_marseille","lat":43.31538,"lon":5.41355,"is_reserved":false,"is_disabled":true,"rental_uris":{"android":"levelo://app?vid=c6b62028-2fba-481c-a2b5-507778ec7c93","ios":"levelo://app?vid=c6b62028-2fba-481c-a2b5-507778ec7c93"},"vehicle_type_id":"4","last_reported":1784392982,"current_range_meters":0,"station_id":"","pricing_plan_id":"cebpf4jnsgd1na2vs0mg"},{"bike_id":"e845caaf-6f62-4afe-898b-175d7eec4dd5","system_id":"levelo_inurba_marseille","lat":43.29032,"lon":5.35916,"is_reserved":false,"is_disabled":true,"rental_uris":{"android":"levelo://app?vid=e845caaf-6f62-4afe-898b-175d7eec4dd5","ios":"levelo://app?vid=e845caaf-6f62-4afe-898b-175d7eec4dd5"},"vehicle_type_id":"4","last_reported":1784392982,"current_range_meters":10800,"station_id":"ce4bha92rcd13ifvqeg0","pricing_plan_id":"cebpf4jnsgd1na2vs0mg"},{"bike_id":"fc8e2b6c-f721-4574-9d0b-aa819d1592c5","system_id":"levelo_inurba_marseille","lat":43.33606,"lon":5.41033,"is_reserved":false,"is_disabled":false,"rental_uris":{"android":"levelo://app?vid=fc8e2b6c-f721-4574-9d0b-aa819d1592c5","ios":"levelo://app?vid=fc8e2b6c-f721-4574-9d0b-aa819d1592c5"},"vehicle_type_id":"4","last_reported":1784392982,"current_range_meters":28800,"station_id":"ce4bhqh2rcd13ifvqhmg","pricing_plan_id":"cebpf4jnsgd1na2vs0mg"},{"bike_id":"827731d7-f74b-4d7e-8636-6b7de4356843","system_id":"levelo_inurba_marseille","lat":43.27548,"lon":5.3839,"is_reserved":false,"is_disabled":false,"rental_uris":{"android":"levelo://app?vid=827731d7-f74b-4d7e-8636-6b7de4356843","ios":"levelo://app?vid=827731d7-f74b-4d7e-8636-6b7de4356843"},"vehicle_type_id":"4","last_reported":1784392982,"current_range_meters":39200,"station_id":"ce4bhh92rcd13ifvqfi0","pricing_plan_id":"cebpf4jnsgd1na2vs0mg"},{"bike_id":"b64426df-a3f7-424e-923a-a5218fc5bce4","system_id":"levelo_inurba_marseille","lat":43.27671,"lon":5.38896,"is_reserved":false,"is_disabled":false,"rental_uris":{"android":"levelo://app?vid=b64426df-a3f7-424e-923a-a5218fc5bce4","ios":"levelo://app?vid=b64426df-a3f7-424e-923a-a5218fc5bce4"},"vehicle_type_id":"4","last_reported":1784392982,"current_range_meters":26800,"station_id":"ce4bhi12rcd13ifvqfo0","pricing_plan_id":"cebpf4jnsgd1na2vs0mg"},{"bike_id":"f9f336c8-e972-49d3-9061-57c3ae62a194","system_id":"levelo_inurba_marseille","lat":43.29341,"lon":5.37455,"is_reserved":false,"is_disabled":false,"rental_uris":{"android":"levelo://app?vid=f9f336c8-e972-49d3-9061-57c3ae62a194","ios":"levelo://app?vid=f9f336c8-e972-49d3-9061-57c3ae62a194"},"vehicle_type_id":"4","last_reported":1784392982,"current_range_meters":6000,"station_id":"ce4bgi12rcd13ifvqb70","pricing_plan_id":"cebpf4jnsgd1na2vs0mg"},{"bike_id":"3d4aa178-44db-467e-a1bd-4fcdf991f22c","system_id":"levelo_inurba_marseille","lat":43.31707,"lon":5.43702,"is_reserved":false,"is_disabled":false,"rental_uris":{"android":"levelo://app?vid=3d4aa178-44db-467e-a1bd-4fcdf991f22c","ios":"levelo://app?vid=3d4aa178-44db-467e-a1bd-4fcdf991f22c"},"vehicle_type_id":"4","last_reported":1784392982,"current_range_meters":40000,"station_id":"ce4bhp92rcd13ifvqhcg","pricing_plan_id":"cebpf4jnsgd1na2vs0mg"},{"bike_id":"78b472ae-7ca1-438d-a65f-f93d06645001","system_id":"levelo_inurba_marseille","lat":43.29219,"lon":5.36063,"is_reserved":false,"is_disabled":true,"rental_uris":{"android":"levelo://app?vid=78b472ae-7ca1-438d-a65f-f93d06645001","ios":"levelo://app?vid=78b472ae-7ca1-438d-a65f-f93d06645001"},"vehicle_type_id":"4","last_reported":1784392982,"current_range_meters":3200,"station_id":"","pricing_plan_id":"cebpf4jnsgd1na2vs0mg"},{"bike_id":"bf010752-4ee2-4816-b256-1fb00bbe1bcc","system_id":"levelo_inurba_marseille","lat":43.2862,"lon":5.351,"is_reserved":false,"is_disabled":true,"rental_uris":{"android":"levelo://app?vid=bf010752-4ee2-4816-b256-1fb00bbe1bcc","ios":"levelo://app?vid=bf010752-4ee2-4816-b256-1fb00bbe1bcc"},"vehicle_type_id":"4","last_reported":1784392982,"current_range_meters":16000,"station_id":"ce4bhch2rcd13ifvqeug","pricing_plan_id":"cebpf4jnsgd1na2vs0mg"},{"bike_id":"e054098c-d9bf-4c01-b448-70545d4983b5","system_id":"levelo_inurba_marseille","lat":43.28475,"lon":5.38557,"is_reserved":false,"is_disabled":false,"rental_uris":{"android":"levelo://app?vid=e054098c-d9bf-4c01-b448-70545d4983b5","ios":"levelo://app?vid=e054098c-d9bf-4c01-b448-70545d4983b5"},"vehicle_type_id":"4","last_reported":1784392982,"current_range_meters":20800,"station_id":"ce4bh8p2rcd13ifvqeb0","pricing_plan_id":"cebpf4jnsgd1na2vs0mg"},{"bike_id":"b5092492-5769-4c46-a8a7-3f7e5201ce25","system_id":"levelo_inurba_marseille","lat":43.26682,"lon":5.38255,"is_reserved":false,"is_disabled":false,"rental_uris":{"android":"levelo://app?vid=b5092492-5769-4c46-a8a7-3f7e5201ce25","ios":"levelo://app?vid=b5092492-5769-4c46-a8a7-3f7e5201ce25"},"vehicle_type_id":"4","last_reported":1784392982,"current_range_meters":4800,"station_id":"ce4bhg92rcd13ifvqf90","pricing_plan_id":"cebpf4jnsgd1na2vs0mg"},{"bike_id":"348caf77-82d6-4562-a72e-c7becae0b0ae","system_id":"levelo_inurba_marseille","lat":43.230549,"lon":5.354901,"is_reserved":false,"is_disabled":false,"rental_uris":{"android":"levelo://app?vid=348caf77-82d6-4562-a72e-c7becae0b0ae","ios":"levelo://app?vid=348caf77-82d6-4562-a72e-c7becae0b0ae"},"vehicle_type_id":"4","last_reported":1784392982,"current_range_meters":38400,"station_id":"cpo3342slgdg3j2ifvpg","pricing_plan_id":"cebpf4jnsgd1na2vs0mg"},{"bike_id":"88b3333d-68df-42df-8ef7-a9a4f08abce5","system_id":"levelo_inurba_marseille","lat":43.22915,"lon":5.41507,"is_reserved":false,"is_disabled":false,"rental_uris":{"android":"levelo://app?vid=88b3333d-68df-42df-8ef7-a9a4f08abce5","ios":"levelo://app?vid=88b3333d-68df-42df-8ef7-a9a4f08abce5"},"vehicle_type_id":"4","last_reported":1784392982,"current_range_meters":22400,"station_id":"","pricing_plan_id":"cebpf4jnsgd1na2vs0mg"},{"bike_id":"cbf57bb6-373a-442c-9860-92cf9215a1bb","system_id":"levelo_inurba_marseille","lat":43.3055,"lon":5.36529,"is_reserved":false,"is_disabled":true,"rental_uris":{"android":"levelo://app?vid=cbf57bb6-373a-442c-9860-92cf9215a1bb","ios":"levelo://app?vid=cbf57bb6-373a-442c-9860-92cf9215a1bb"},"vehicle_type_id":"4","last_reported":1784392982,"current_range_meters":24800,"station_id":"ce4bgs12rcd13ifvqcag","pricing_plan_id":"cebpf4jnsgd1na2vs0mg"},{"bike_id":"58657c2c-f213-4763-bf6c-55283490b915","system_id":"levelo_inurba_marseille","lat":43.26213,"lon":5.37437,"is_reserved":false,"is_disabled":false,"rental_uris":{"android":"levelo://app?vid=58657c2c-f213-4763-bf6c-55283490b915","ios":"levelo://app?vid=58657c2c-f213-4763-bf6c-55283490b915"},"vehicle_type_id":"4","last_reported":1784392982,"current_range_meters":38400,"station_id":"ce4bhgp2rcd13ifvqfc0","pricing_plan_id":"cebpf4jnsgd1na2vs0mg"},{"bike_id":"45a2b2f2-39af-4605-a601-223a075bb219","system_id":"levelo_inurba_marseille","lat":43.2842,"lon":5.3496,"is_reserved":false,"is_disabled":false,"rental_uris":{"android":"levelo://app?vid=45a2b2f2-39af-4605-a601-223a075bb219","ios":"levelo://app?vid=45a2b2f2-39af-4605-a601-223a075bb219"},"vehicle_type_id":"4","last_reported":1784392982,"current_range_meters":39200,"station_id":"ce4bhbh2rcd13ifvqepg","pricing_plan_id":"cebpf4jnsgd1na2vs0mg"},{"bike_id":"d9632fc5-4f25-4268-8d79-87fd6d52e7c0","system_id":"levelo_inurba_marseille","lat":43.24813,"lon":5.37462,"is_reserved":false,"is_disabled":false,"rental_uris":{"android":"levelo://app?vid=d9632fc5-4f25-4268-8d79-87fd6d52e7c0","ios":"levelo://app?vid=d9632fc5-4f25-4268-8d79-87fd6d52e7c0"},"vehicle_type_id":"4","last_reported":1784392982,"current_range_meters":23200,"station_id":"ce4bhgh2rcd13ifvqfb0","pricing_plan_id":"cebpf4jnsgd1na2vs0mg"},{"bike_id":"3f9db431-9b3b-43d8-b562-90443c4b2ea7","system_id":"levelo_inurba_marseille","lat":43.26945,"lon":5.38631,"is_reserved":false,"is_disabled":false,"rental_uris":{"android":"levelo://app?vid=3f9db431-9b3b-43d8-b562-90443c4b2ea7","ios":"levelo://app?vid=3f9db431-9b3b-43d8-b562-90443c4b2ea7"},"vehicle_type_id":"4","last_reported":1784392982,"current_range_meters":39200,"station_id":"ce4bhh92rcd13ifvqfh0","pricing_plan_id":"cebpf4jnsgd1na2vs0mg"},{"bike_id":"2d896ed5-4553-4695-8005-619e0bab9b0a","system_id":"levelo_inurba_marseille","lat":43.28268,"lon":5.35051,"is_reserved":false,"is_disabled":false,"rental_uris":{"android":"levelo://app?vid=2d896ed5-4553-4695-8005-619e0bab9b0a","ios":"levelo://app?vid=2d896ed5-4553-4695-8005-619e0bab9b0a"},"vehicle_type_id":"4","last_reported":1784392982,"current_range_meters":8000,"station_id":"ce4bhbp2rcd13ifvqerg","pricing_plan_id":"cebpf4jnsgd1na2vs0mg"},{"bike_id":"d19ace81-dbf6-4745-a8d7-9c83e4ca53bc","system_id":"levelo_inurba_marseille","lat":43.23057,"lon":5.35466,"is_reserved":false,"is_disabled":false,"rental_uris":{"android":"levelo://app?vid=d19ace81-dbf6-4745-a8d7-9c83e4ca53bc","ios":"levelo://app?vid=d19ace81-dbf6-4745-a8d7-9c83e4ca53bc"},"vehicle_type_id":"4","last_reported":1784392982,"current_range_meters":30800,"station_id":"cpo3342slgdg3j2ifvpg","pricing_plan_id":"cebpf4jnsgd1na2vs0mg"},{"bike_id":"d0689963-1360-4eec-9974-1c99b2ed8187","system_id":"levelo_inurba_marseille","lat":43.30588,"lon":5.37227,"is_reserved":false,"is_disabled":true,"rental_uris":{"android":"levelo://app?vid=d0689963-1360-4eec-9974-1c99b2ed8187","ios":"levelo://app?vid=d0689963-1360-4eec-9974-1c99b2ed8187"},"vehicle_type_id":"4","last_reported":1784392982,"current_range_meters":36400,"station_id":"ce4bgqh2rcd13ifvqc4g","pricing_plan_id":"cebpf4jnsgd1na2vs0mg"},{"bike_id":"2384c8b3-e7d5-4777-9622-a0a869711c34","system_id":"levelo_inurba_marseille","lat":43.27373,"lon":5.36249,"is_reserved":false,"is_disabled":false,"rental_uris":{"android":"levelo://app?vid=2384c8b3-e7d5-4777-9622-a0a869711c34","ios":"levelo://app?vid=2384c8b3-e7d5-4777-9622-a0a869711c34"},"vehicle_type_id":"4","last_reported":1784392982,"current_range_meters":39200,"station_id":"ce4bhbh2rcd13ifvqeo0","pricing_plan_id":"cebpf4jnsgd1na2vs0mg"},{"bike_id":"4f54c651-15d1-492f-8d09-70f1f809ad4f","system_id":"levelo_inurba_marseille","lat":43.27488,"lon":5.42552,"is_reserved":false,"is_disabled":false,"rental_uris":{"android":"levelo://app?vid=4f54c651-15d1-492f-8d09-70f1f809ad4f","ios":"levelo://app?vid=4f54c651-15d1-492f-8d09-70f1f809ad4f"},"vehicle_type_id":"4","last_reported":1784392982,"current_range_meters":20400,"station_id":"st_d8t4bh7nbrqs73arha60","pricing_plan_id":"cebpf4jnsgd1na2vs0mg"},{"bike_id":"7065528a-f292-4b1d-9927-6e05933d2cf0","system_id":"levelo_inurba_marseille","lat":43.22567,"lon":5.41637,"is_reserved":false,"is_disabled":false,"rental_uris":{"android":"levelo://app?vid=7065528a-f292-4b1d-9927-6e05933d2cf0","ios":"levelo://app?vid=7065528a-f292-4b1d-9927-6e05933d2cf0"},"vehicle_type_id":"4","last_reported":1784392982,"current_range_meters":27200,"station_id":"st_d2o4gvlbi1j2169b742g","pricing_plan_id":"cebpf4jnsgd1na2vs0mg"},{"bike_id":"e6734acc-296f-407e-890a-2f2e688cd6a0","system_id":"levelo_inurba_marseille","lat":43.29054,"lon":5.3591,"is_reserved":false,"is_disabled":false,"rental_uris":{"android":"levelo://app?vid=e6734acc-296f-407e-890a-2f2e688cd6a0","ios":"levelo://app?vid=e6734acc-296f-407e-890a-2f2e688cd6a0"},"vehicle_type_id":"4","last_reported":1784392982,"current_range_meters":39200,"station_id":"ce4bha92rcd13ifvqeg0","pricing_plan_id":"cebpf4jnsgd1na2vs0mg"},{"bike_id":"ee34900f-a54e-49b8-9053-d8c7a12e6c52","system_id":"levelo_inurba_marseille","lat":43.26502,"lon":5.39537,"is_reserved":false,"is_disabled":false,"rental_uris":{"android":"levelo://app?vid=ee34900f-a54e-49b8-9053-d8c7a12e6c52","ios":"levelo://app?vid=ee34900f-a54e-49b8-9053-d8c7a12e6c52"},"vehicle_type_id":"4","last_reported":1784392982,"current_range_meters":38400,"station_id":"ce4bhi12rcd13ifvqfq0","pricing_plan_id":"cebpf4jnsgd1na2vs0mg"},{"bike_id":"155e6389-cda9-43eb-993e-eb81b307637f","system_id":"levelo_inurba_marseille","lat":43.28392,"lon":5.34961,"is_reserved":false,"is_disabled":false,"rental_uris":{"android":"levelo://app?vid=155e6389-cda9-43eb-993e-eb81b307637f","ios":"levelo://app?vid=155e6389-cda9-43eb-993e-eb81b307637f"},"vehicle_type_id":"4","last_reported":1784392982,"current_range_meters":39200,"station_id":"ce4bhbh2rcd13ifvqepg","pricing_plan_id":"cebpf4jnsgd1na2vs0mg"},{"bike_id":"1bf212fa-60fa-48e6-b8ec-dd17c7f2bb26","system_id":"levelo_inurba_marseille","lat":43.28264,"lon":5.35068,"is_reserved":false,"is_disabled":false,"rental_uris":{"android":"levelo://app?vid=1bf212fa-60fa-48e6-b8ec-dd17c7f2bb26","ios":"levelo://app?vid=1bf212fa-60fa-48e6-b8ec-dd17c7f2bb26"},"vehicle_type_id":"4","last_reported":1784392982,"current_range_meters":17600,"station_id":"ce4bhbp2rcd13ifvqerg","pricing_plan_id":"cebpf4jnsgd1na2vs0mg"},{"bike_id":"e35b3037-ccf2-48a7-b6f2-14a77143bba4","system_id":"levelo_inurba_marseille","lat":43.32367,"lon":5.3672,"is_reserved":false,"is_disabled":false,"rental_uris":{"android":"levelo://app?vid=e35b3037-ccf2-48a7-b6f2-14a77143bba4","ios":"levelo://app?vid=e35b3037-ccf2-48a7-b6f2-14a77143bba4"},"vehicle_type_id":"4","last_reported":1784392982,"current_range_meters":30000,"station_id":"ce4bhsh2rcd13ifvqi2g","pricing_plan_id":"cebpf4jnsgd1na2vs0mg"},{"bike_id":"b0132cb4-a188-4e5a-b85f-8967879761f6","system_id":"levelo_inurba_marseille","lat":43.302597,"lon":5.400828,"is_reserved":false,"is_disabled":false,"rental_uris":{"android":"levelo://app?vid=b0132cb4-a188-4e5a-b85f-8967879761f6","ios":"levelo://app?vid=b0132cb4-a188-4e5a-b85f-8967879761f6"},"vehicle_type_id":"4","last_reported":1784392982,"current_range_meters":25200,"station_id":"ce4bgvh2rcd13ifvqcs0","pricing_plan_id":"cebpf4jnsgd1na2vs0mg"},{"bike_id":"ea6d4336-0baa-4b04-af1f-09d7babd08c7","system_id":"levelo_inurba_marseille","lat":43.29573,"lon":5.37501,"is_reserved":false,"is_disabled":false,"rental_uris":{"android":"levelo://app?vid=ea6d4336-0baa-4b04-af1f-09d7babd08c7","ios":"levelo://app?vid=ea6d4336-0baa-4b04-af1f-09d7babd08c7"},"vehicle_type_id":"4","last_reported":1784392982,"current_range_meters":35600,"station_id":"ce4bgh92rcd13ifvqb50","pricing_plan_id":"cebpf4jnsgd1na2vs0mg"},{"bike_id":"4bc92506-9fad-430c-8d9c-b3eec9a9d481","system_id":"levelo_inurba_marseille","lat":43.28643,"lon":5.35066,"is_reserved":false,"is_disabled":false,"rental_uris":{"android":"levelo://app?vid=4bc92506-9fad-430c-8d9c-b3eec9a9d481","ios":"levelo://app?vid=4bc92506-9fad-430c-8d9c-b3eec9a9d481"},"vehicle_type_id":"4","last_reported":1784392982,"current_range_meters":27600,"station_id":"ce4bhch2rcd13ifvqeug","pricing_plan_id":"cebpf4jnsgd1na2vs0mg"},{"bike_id":"057cff8c-baaa-46cb-8bf7-b30fe3eb5965","system_id":"levelo_inurba_marseille","lat":43.2551,"lon":5.37652,"is_reserved":false,"is_disabled":false,"rental_uris":{"android":"levelo://app?vid=057cff8c-baaa-46cb-8bf7-b30fe3eb5965","ios":"levelo://app?vid=057cff8c-baaa-46cb-8bf7-b30fe3eb5965"},"vehicle_type_id":"4","last_reported":1784392982,"current_range_meters":20000,"station_id":"ce4bhh12rcd13ifvqff0","pricing_plan_id":"cebpf4jnsgd1na2vs0mg"},{"bike_id":"7a29bfd4-4ec0-46c9-b147-cd35f8507192","system_id":"levelo_inurba_marseille","lat":43.30935,"lon":5.4014,"is_reserved":false,"is_disabled":false,"rental_uris":{"android":"levelo://app?vid=7a29bfd4-4ec0-46c9-b147-cd35f8507192","ios":"levelo://app?vid=7a29bfd4-4ec0-46c9-b147-cd35f8507192"},"vehicle_type_id":"4","last_reported":1784392982,"current_range_meters":6400,"station_id":"ce4bgvp2rcd13ifvqct0","pricing_plan_id":"cebpf4jnsgd1na2vs0mg"},{"bike_id":"5a291042-51a9-4959-b385-2a5b93f4d326","system_id":"levelo_inurba_marseille","lat":43.23152,"lon":5.43724,"is_reserved":false,"is_disabled":false,"rental_uris":{"android":"levelo://app?vid=5a291042-51a9-4959-b385-2a5b93f4d326","ios":"levelo://app?vid=5a291042-51a9-4959-b385-2a5b93f4d326"},"vehicle_type_id":"4","last_reported":1784392982,"current_range_meters":39200,"station_id":"ce4bhmp2rcd13ifvqgog","pricing_plan_id":"cebpf4jnsgd1na2vs0mg"},{"bike_id":"fa8b124d-00c3-4696-84e9-6272417be304","system_id":"levelo_inurba_marseille","lat":43.28258,"lon":5.35064,"is_reserved":false,"is_disabled":false,"rental_uris":{"android":"levelo://app?vid=fa8b124d-00c3-4696-84e9-6272417be304","ios":"levelo://app?vid=fa8b124d-00c3-4696-84e9-6272417be304"},"vehicle_type_id":"4","last_reported":1784392982,"current_range_meters":27200,"station_id":"ce4bhbp2rcd13ifvqerg","pricing_plan_id":"cebpf4jnsgd1na2vs0mg"},{"bike_id":"202f9ad0-42a8-41b4-9ba7-c7ec0280e620","system_id":"levelo_inurba_marseille","lat":43.23188,"lon":5.35556,"is_reserved":false,"is_disabled":false,"rental_uris":{"android":"levelo://app?vid=202f9ad0-42a8-41b4-9ba7-c7ec0280e620","ios":"levelo://app?vid=202f9ad0-42a8-41b4-9ba7-c7ec0280e620"},"vehicle_type_id":"4","last_reported":1784392982,"current_range_meters":35200,"station_id":"ce4bhu92rcd13ifvqi70","pricing_plan_id":"cebpf4jnsgd1na2vs0mg"},{"bike_id":"d745462f-acce-4b78-b936-c4b2ba6df8d9","system_id":"levelo_inurba_marseille","lat":43.28833,"lon":5.35866,"is_reserved":false,"is_disabled":false,"rental_uris":{"android":"levelo://app?vid=d745462f-acce-4b78-b936-c4b2ba6df8d9","ios":"levelo://app?vid=d745462f-acce-4b78-b936-c4b2ba6df8d9"},"vehicle_type_id":"4","last_reported":1784392982,"current_range_meters":7200,"station_id":"ce4bhb12rcd13ifvqem0","pricing_plan_id":"cebpf4jnsgd1na2vs0mg"},{"bike_id":"8f4fff13-4a30-4bf4-970d-06b41dd94baf","system_id":"levelo_inurba_marseille","lat":43.24391,"lon":5.37066,"is_reserved":false,"is_disabled":false,"rental_uris":{"android":"levelo://app?vid=8f4fff13-4a30-4bf4-970d-06b41dd94baf","ios":"levelo://app?vid=8f4fff13-4a30-4bf4-970d-06b41dd94baf"},"vehicle_type_id":"4","last_reported":1784392982,"current_range_meters":5600,"station_id":"ce4bhhh2rcd13ifvqfk0","pricing_plan_id":"cebpf4jnsgd1na2vs0mg"},{"bike_id":"08032647-4e4b-4d46-b2bb-1df2e3cbec8b","system_id":"levelo_inurba_marseille","lat":43.28382,"lon":5.43311,"is_reserved":false,"is_disabled":true,"rental_uris":{"android":"levelo://app?vid=08032647-4e4b-4d46-b2bb-1df2e3cbec8b","ios":"levelo://app?vid=08032647-4e4b-4d46-b2bb-1df2e3cbec8b"},"vehicle_type_id":"4","last_reported":1784392982,"current_range_meters":0,"station_id":"","pricing_plan_id":"cebpf4jnsgd1na2vs0mg"},{"bike_id":"e4da44a5-167c-40db-af83-df82ead5b0dd","system_id":"levelo_inurba_marseille","lat":43.29036,"lon":5.35929,"is_reserved":false,"is_disabled":false,"rental_uris":{"android":"levelo://app?vid=e4da44a5-167c-40db-af83-df82ead5b0dd","ios":"levelo://app?vid=e4da44a5-167c-40db-af83-df82ead5b0dd"},"vehicle_type_id":"4","last_reported":1784392982,"current_range_meters":18000,"station_id":"ce4bha92rcd13ifvqeg0","pricing_plan_id":"cebpf4jnsgd1na2vs0mg"},{"bike_id":"2fd3fd2a-5afd-41dc-a0e5-4abd957555d4","system_id":"levelo_inurba_marseille","lat":43.26698,"lon":5.38259,"is_reserved":false,"is_disabled":false,"rental_uris":{"android":"levelo://app?vid=2fd3fd2a-5afd-41dc-a0e5-4abd957555d4","ios":"levelo://app?vid=2fd3fd2a-5afd-41dc-a0e5-4abd957555d4"},"vehicle_type_id":"4","last_reported":1784392982,"current_range_meters":16400,"station_id":"ce4bhg92rcd13ifvqf90","pricing_plan_id":"cebpf4jnsgd1na2vs0mg"},{"bike_id":"8b6331b3-2914-4282-8a4c-45cca24291f2","system_id":"levelo_inurba_marseille","lat":43.30921,"lon":5.40131,"is_reserved":false,"is_disabled":false,"rental_uris":{"android":"levelo://app?vid=8b6331b3-2914-4282-8a4c-45cca24291f2","ios":"levelo://app?vid=8b6331b3-2914-4282-8a4c-45cca24291f2"},"vehicle_type_id":"4","last_reported":1784392982,"current_range_meters":25200,"station_id":"","pricing_plan_id":"cebpf4jnsgd1na2vs0mg"},{"bike_id":"9fe8c42c-483c-4495-9e36-19e8261225b2","system_id":"levelo_inurba_marseille","lat":43.297072,"lon":5.376954,"is_reserved":false,"is_disabled":false,"rental_uris":{"android":"levelo://app?vid=9fe8c42c-483c-4495-9e36-19e8261225b2","ios":"levelo://app?vid=9fe8c42c-483c-4495-9e36-19e8261225b2"},"vehicle_type_id":"4","last_reported":1784392982,"current_range_meters":36000,"station_id":"ce4bgkh2rcd13ifvqbl0","pricing_plan_id":"cebpf4jnsgd1na2vs0mg"},{"bike_id":"a287babe-2875-4e47-a1fc-a71e0666296b","system_id":"levelo_inurba_marseille","lat":43.260263,"lon":5.375491,"is_reserved":false,"is_disabled":false,"rental_uris":{"android":"levelo://app?vid=a287babe-2875-4e47-a1fc-a71e0666296b","ios":"levelo://app?vid=a287babe-2875-4e47-a1fc-a71e0666296b"},"vehicle_type_id":"4","last_reported":1784392982,"current_range_meters":24800,"station_id":"ce4bh392rcd13ifvqdm0","pricing_plan_id":"cebpf4jnsgd1na2vs0mg"},{"bike_id":"75afa838-800c-42ea-894d-1b275c9061e2","system_id":"levelo_inurba_marseille","lat":43.2842,"lon":5.34997,"is_reserved":false,"is_disabled":false,"rental_uris":{"android":"levelo://app?vid=75afa838-800c-42ea-894d-1b275c9061e2","ios":"levelo://app?vid=75afa838-800c-42ea-894d-1b275c9061e2"},"vehicle_type_id":"4","last_reported":1784392982,"current_range_meters":27600,"station_id":"ce4bhbh2rcd13ifvqepg","pricing_plan_id":"cebpf4jnsgd1na2vs0mg"},{"bike_id":"0d3e100f-48fe-47e1-bef7-0a1dcfcc4955","system_id":"levelo_inurba_marseille","lat":43.33684,"lon":5.3918,"is_reserved":false,"is_disabled":false,"rental_uris":{"android":"levelo://app?vid=0d3e100f-48fe-47e1-bef7-0a1dcfcc4955","ios":"levelo://app?vid=0d3e100f-48fe-47e1-bef7-0a1dcfcc4955"},"vehicle_type_id":"4","last_reported":1784392982,"current_range_meters":39200,"station_id":"ce4bhr92rcd13ifvqhsg","pricing_plan_id":"cebpf4jnsgd1na2vs0mg"},{"bike_id":"f994dddc-9194-4b4c-a02e-45b8c9c31ce1","system_id":"levelo_inurba_marseille","lat":43.29594,"lon":5.37072,"is_reserved":false,"is_disabled":false,"rental_uris":{"android":"levelo://app?vid=f994dddc-9194-4b4c-a02e-45b8c9c31ce1","ios":"levelo://app?vid=f994dddc-9194-4b4c-a02e-45b8c9c31ce1"},"vehicle_type_id":"4","last_reported":1784392982,"current_range_meters":24400,"station_id":"","pricing_plan_id":"cebpf4jnsgd1na2vs0mg"},{"bike_id":"693d7ea8-9635-4a4a-8390-c5ba91e00163","system_id":"levelo_inurba_marseille","lat":43.27203,"lon":5.3917,"is_reserved":false,"is_disabled":false,"rental_uris":{"android":"levelo://app?vid=693d7ea8-9635-4a4a-8390-c5ba91e00163","ios":"levelo://app?vid=693d7ea8-9635-4a4a-8390-c5ba91e00163"},"vehicle_type_id":"4","last_reported":1784392982,"current_range_meters":3600,"station_id":"ce4bhhp2rcd13ifvqfm0","pricing_plan_id":"cebpf4jnsgd1na2vs0mg"},{"bike_id":"43cc2f92-ad1b-4327-8065-e76aa2a090bf","system_id":"levelo_inurba_marseille","lat":43.28406,"lon":5.34966,"is_reserved":false,"is_disabled":false,"rental_uris":{"android":"levelo://app?vid=43cc2f92-ad1b-4327-8065-e76aa2a090bf","ios":"levelo://app?vid=43cc2f92-ad1b-4327-8065-e76aa2a090bf"},"vehicle_type_id":"4","last_reported":1784392982,"current_range_meters":30800,"station_id":"ce4bhbh2rcd13ifvqepg","pricing_plan_id":"cebpf4jnsgd1na2vs0mg"},{"bike_id":"d2181052-7f41-417c-bf15-30b1dd29e107","system_id":"levelo_inurba_marseille","lat":43.23192,"lon":5.35543,"is_reserved":false,"is_disabled":false,"rental_uris":{"android":"levelo://app?vid=d2181052-7f41-417c-bf15-30b1dd29e107","ios":"levelo://app?vid=d2181052-7f41-417c-bf15-30b1dd29e107"},"vehicle_type_id":"4","last_reported":1784392982,"current_range_meters":39200,"station_id":"ce4bhu92rcd13ifvqi70","pricing_plan_id":"cebpf4jnsgd1na2vs0mg"},{"bike_id":"20330383-bab0-4854-9488-e1b22dd6b995","system_id":"levelo_inurba_marseille","lat":43.28264,"lon":5.35056,"is_reserved":false,"is_disabled":true,"rental_uris":{"android":"levelo://app?vid=20330383-bab0-4854-9488-e1b22dd6b995","ios":"levelo://app?vid=20330383-bab0-4854-9488-e1b22dd6b995"},"vehicle_type_id":"4","last_reported":1784392982,"current_range_meters":0,"station_id":"ce4bhbp2rcd13ifvqerg","pricing_plan_id":"cebpf4jnsgd1na2vs0mg"},{"bike_id":"9a4c1917-12d5-4fd0-beb9-9df30b58299b","system_id":"levelo_inurba_marseille","lat":43.23201,"lon":5.35539,"is_reserved":false,"is_disabled":false,"rental_uris":{"android":"levelo://app?vid=9a4c1917-12d5-4fd0-beb9-9df30b58299b","ios":"levelo://app?vid=9a4c1917-12d5-4fd0-beb9-9df30b58299b"},"vehicle_type_id":"4","last_reported":1784392982,"current_range_meters":38400,"station_id":"ce4bhu92rcd13ifvqi70","pricing_plan_id":"cebpf4jnsgd1na2vs0mg"},{"bike_id":"91f0e4ce-79d8-4655-828a-63e54a2d5488","system_id":"levelo_inurba_marseille","lat":43.24841,"lon":5.3745,"is_reserved":false,"is_disabled":false,"rental_uris":{"android":"levelo://app?vid=91f0e4ce-79d8-4655-828a-63e54a2d5488","ios":"levelo://app?vid=91f0e4ce-79d8-4655-828a-63e54a2d5488"},"vehicle_type_id":"4","last_reported":1784392982,"current_range_meters":4400,"station_id":"","pricing_plan_id":"cebpf4jnsgd1na2vs0mg"},{"bike_id":"c4a42a89-784c-4dbd-8bb2-4fdf43fd0cd2","system_id":"levelo_inurba_marseille","lat":43.3013,"lon":5.39847,"is_reserved":false,"is_disabled":false,"rental_uris":{"android":"levelo://app?vid=c4a42a89-784c-4dbd-8bb2-4fdf43fd0cd2","ios":"levelo://app?vid=c4a42a89-784c-4dbd-8bb2-4fdf43fd0cd2"},"vehicle_type_id":"4","last_reported":1784392982,"current_range_meters":30400,"station_id":"ce4bh0h2rcd13ifvqd40","pricing_plan_id":"cebpf4jnsgd1na2vs0mg"},{"bike_id":"bf92e73f-5ebb-482e-9b16-38b660c0b75a","system_id":"levelo_inurba_marseille","lat":43.21744,"lon":5.34607,"is_reserved":false,"is_disabled":true,"rental_uris":{"android":"levelo://app?vid=bf92e73f-5ebb-482e-9b16-38b660c0b75a","ios":"levelo://app?vid=bf92e73f-5ebb-482e-9b16-38b660c0b75a"},"vehicle_type_id":"4","last_reported":1784392982,"current_range_meters":5600,"station_id":"st_cvj6r9ubvosntc0bgbag","pricing_plan_id":"cebpf4jnsgd1na2vs0mg"},{"bike_id":"daa023e8-7cb3-46f6-99b4-3cf66be94332","system_id":"levelo_inurba_marseille","lat":43.29339,"lon":5.37179,"is_reserved":false,"is_disabled":true,"rental_uris":{"android":"levelo://app?vid=daa023e8-7cb3-46f6-99b4-3cf66be94332","ios":"levelo://app?vid=daa023e8-7cb3-46f6-99b4-3cf66be94332"},"vehicle_type_id":"4","last_reported":1784392982,"current_range_meters":38400,"station_id":"ce4bgh92rcd13ifvqb40","pricing_plan_id":"cebpf4jnsgd1na2vs0mg"},{"bike_id":"98bce0f5-25e4-4db3-b698-d3dcf6d7b213","system_id":"levelo_inurba_marseille","lat":43.24812,"lon":5.37424,"is_reserved":false,"is_disabled":false,"rental_uris":{"android":"levelo://app?vid=98bce0f5-25e4-4db3-b698-d3dcf6d7b213","ios":"levelo://app?vid=98bce0f5-25e4-4db3-b698-d3dcf6d7b213"},"vehicle_type_id":"4","last_reported":1784392982,"current_range_meters":26800,"station_id":"ce4bhgh2rcd13ifvqfb0","pricing_plan_id":"cebpf4jnsgd1na2vs0mg"},{"bike_id":"5017e6e2-b81a-4d3e-9116-7b359e488590","system_id":"levelo_inurba_marseille","lat":43.28412,"lon":5.34964,"is_reserved":false,"is_disabled":false,"rental_uris":{"android":"levelo://app?vid=5017e6e2-b81a-4d3e-9116-7b359e488590","ios":"levelo://app?vid=5017e6e2-b81a-4d3e-9116-7b359e488590"},"vehicle_type_id":"4","last_reported":1784392982,"current_range_meters":30800,"station_id":"ce4bhbh2rcd13ifvqepg","pricing_plan_id":"cebpf4jnsgd1na2vs0mg"},{"bike_id":"5559fbf1-7808-42ec-b906-08a11baa28c8","system_id":"levelo_inurba_marseille","lat":43.29217,"lon":5.35786,"is_reserved":false,"is_disabled":false,"rental_uris":{"android":"levelo://app?vid=5559fbf1-7808-42ec-b906-08a11baa28c8","ios":"levelo://app?vid=5559fbf1-7808-42ec-b906-08a11baa28c8"},"vehicle_type_id":"4","last_reported":1784392982,"current_range_meters":38000,"station_id":"ce4bhb12rcd13ifvqel0","pricing_plan_id":"cebpf4jnsgd1na2vs0mg"},{"bike_id":"5f6b1ae6-492b-48bf-96a7-6bd84d108e0b","system_id":"levelo_inurba_marseille","lat":43.23191,"lon":5.35529,"is_reserved":false,"is_disabled":false,"rental_uris":{"android":"levelo://app?vid=5f6b1ae6-492b-48bf-96a7-6bd84d108e0b","ios":"levelo://app?vid=5f6b1ae6-492b-48bf-96a7-6bd84d108e0b"},"vehicle_type_id":"4","last_reported":1784392982,"current_range_meters":39200,"station_id":"ce4bhu92rcd13ifvqi70","pricing_plan_id":"cebpf4jnsgd1na2vs0mg"},{"bike_id":"f6b25135-3528-4195-8c77-8c14487cde9a","system_id":"levelo_inurba_marseille","lat":43.25512,"lon":5.37639,"is_reserved":false,"is_disabled":false,"rental_uris":{"android":"levelo://app?vid=f6b25135-3528-4195-8c77-8c14487cde9a","ios":"levelo://app?vid=f6b25135-3528-4195-8c77-8c14487cde9a"},"vehicle_type_id":"4","last_reported":1784392982,"current_range_meters":38400,"station_id":"ce4bhh12rcd13ifvqff0","pricing_plan_id":"cebpf4jnsgd1na2vs0mg"},{"bike_id":"e3d9bbcb-54c4-4817-8697-66fcc50a141c","system_id":"levelo_inurba_marseille","lat":43.30004,"lon":5.38796,"is_reserved":false,"is_disabled":false,"rental_uris":{"android":"levelo://app?vid=e3d9bbcb-54c4-4817-8697-66fcc50a141c","ios":"levelo://app?vid=e3d9bbcb-54c4-4817-8697-66fcc50a141c"},"vehicle_type_id":"4","last_reported":1784392982,"current_range_meters":36000,"station_id":"","pricing_plan_id":"cebpf4jnsgd1na2vs0mg"},{"bike_id":"69ad72e4-e4db-4835-9992-4a595ceeb796","system_id":"levelo_inurba_marseille","lat":43.29012,"lon":5.35616,"is_reserved":false,"is_disabled":false,"rental_uris":{"android":"levelo://app?vid=69ad72e4-e4db-4835-9992-4a595ceeb796","ios":"levelo://app?vid=69ad72e4-e4db-4835-9992-4a595ceeb796"},"vehicle_type_id":"4","last_reported":1784392982,"current_range_meters":38000,"station_id":"ce4bhb92rcd13ifvqen0","pricing_plan_id":"cebpf4jnsgd1na2vs0mg"},{"bike_id":"15621f08-0bbf-4acf-ae1f-92aae1a45449","system_id":"levelo_inurba_marseille","lat":43.23973,"lon":5.36622,"is_reserved":false,"is_disabled":false,"rental_uris":{"android":"levelo://app?vid=15621f08-0bbf-4acf-ae1f-92aae1a45449","ios":"levelo://app?vid=15621f08-0bbf-4acf-ae1f-92aae1a45449"},"vehicle_type_id":"4","last_reported":1784392982,"current_range_meters":18800,"station_id":"ce4bhi12rcd13ifvqfp0","pricing_plan_id":"cebpf4jnsgd1na2vs0mg"},{"bike_id":"46a9adc4-ef95-41d1-8059-500d80ef38d7","system_id":"levelo_inurba_marseille","lat":43.297018,"lon":5.366222,"is_reserved":false,"is_disabled":false,"rental_uris":{"android":"levelo://app?vid=46a9adc4-ef95-41d1-8059-500d80ef38d7","ios":"levelo://app?vid=46a9adc4-ef95-41d1-8059-500d80ef38d7"},"vehicle_type_id":"4","last_reported":1784392982,"current_range_meters":12000,"station_id":"ce4bgn12rcd13ifvqbt0","pricing_plan_id":"cebpf4jnsgd1na2vs0mg"},{"bike_id":"301dbc5a-0677-4f2f-b138-9d22f10025fc","system_id":"levelo_inurba_marseille","lat":43.250015,"lon":5.389257,"is_reserved":false,"is_disabled":false,"rental_uris":{"android":"levelo://app?vid=301dbc5a-0677-4f2f-b138-9d22f10025fc","ios":"levelo://app?vid=301dbc5a-0677-4f2f-b138-9d22f10025fc"},"vehicle_type_id":"4","last_reported":1784392982,"current_range_meters":36000,"station_id":"ce4bhgp2rcd13ifvqfd0","pricing_plan_id":"cebpf4jnsgd1na2vs0mg"},{"bike_id":"7604574c-06cb-407e-9e16-b7858411e1bc","system_id":"levelo_inurba_marseille","lat":43.27806,"lon":5.40715,"is_reserved":false,"is_disabled":true,"rental_uris":{"android":"levelo://app?vid=7604574c-06cb-407e-9e16-b7858411e1bc","ios":"levelo://app?vid=7604574c-06cb-407e-9e16-b7858411e1bc"},"vehicle_type_id":"4","last_reported":1784392982,"current_range_meters":18000,"station_id":"ce4bhnh2rcd13ifvqgtg","pricing_plan_id":"cebpf4jnsgd1na2vs0mg"},{"bike_id":"600d3649-4b6d-473c-a715-d27921e00684","system_id":"levelo_inurba_marseille","lat":43.23189,"lon":5.35536,"is_reserved":false,"is_disabled":false,"rental_uris":{"android":"levelo://app?vid=600d3649-4b6d-473c-a715-d27921e00684","ios":"levelo://app?vid=600d3649-4b6d-473c-a715-d27921e00684"},"vehicle_type_id":"4","last_reported":1784392982,"current_range_meters":22000,"station_id":"ce4bhu92rcd13ifvqi70","pricing_plan_id":"cebpf4jnsgd1na2vs0mg"},{"bike_id":"8601b829-59f8-4eab-bab2-2f8e891d8617","system_id":"levelo_inurba_marseille","lat":43.254993,"lon":5.376487,"is_reserved":false,"is_disabled":false,"rental_uris":{"android":"levelo://app?vid=8601b829-59f8-4eab-bab2-2f8e891d8617","ios":"levelo://app?vid=8601b829-59f8-4eab-bab2-2f8e891d8617"},"vehicle_type_id":"4","last_reported":1784392982,"current_range_meters":24800,"station_id":"ce4bhh12rcd13ifvqff0","pricing_plan_id":"cebpf4jnsgd1na2vs0mg"},{"bike_id":"716f162a-5575-4d63-902c-a48b4ef658b0","system_id":"levelo_inurba_marseille","lat":43.26232,"lon":5.40479,"is_reserved":false,"is_disabled":false,"rental_uris":{"android":"levelo://app?vid=716f162a-5575-4d63-902c-a48b4ef658b0","ios":"levelo://app?vid=716f162a-5575-4d63-902c-a48b4ef658b0"},"vehicle_type_id":"4","last_reported":1784392982,"current_range_meters":25200,"station_id":"ce4bhmh2rcd13ifvqgmg","pricing_plan_id":"cebpf4jnsgd1na2vs0mg"},{"bike_id":"73d354b6-25b9-4569-894f-f60dd5a0f0da","system_id":"levelo_inurba_marseille","lat":43.31278,"lon":5.36892,"is_reserved":false,"is_disabled":false,"rental_uris":{"android":"levelo://app?vid=73d354b6-25b9-4569-894f-f60dd5a0f0da","ios":"levelo://app?vid=73d354b6-25b9-4569-894f-f60dd5a0f0da"},"vehicle_type_id":"4","last_reported":1784392982,"current_range_meters":32800,"station_id":"","pricing_plan_id":"cebpf4jnsgd1na2vs0mg"},{"bike_id":"81959744-4786-4515-8028-caa8a3c86e5c","system_id":"levelo_inurba_marseille","lat":43.23896,"lon":5.37457,"is_reserved":false,"is_disabled":false,"rental_uris":{"android":"levelo://app?vid=81959744-4786-4515-8028-caa8a3c86e5c","ios":"levelo://app?vid=81959744-4786-4515-8028-caa8a3c86e5c"},"vehicle_type_id":"4","last_reported":1784392982,"current_range_meters":38000,"station_id":"st_d6sm7csbq4hs73f8fpjg","pricing_plan_id":"cebpf4jnsgd1na2vs0mg"},{"bike_id":"26a91fcb-e18f-4c83-9039-eb8c6882e94b","system_id":"levelo_inurba_marseille","lat":43.27161,"lon":5.36284,"is_reserved":false,"is_disabled":true,"rental_uris":{"android":"levelo://app?vid=26a91fcb-e18f-4c83-9039-eb8c6882e94b","ios":"levelo://app?vid=26a91fcb-e18f-4c83-9039-eb8c6882e94b"},"vehicle_type_id":"4","last_reported":1784392982,"current_range_meters":0,"station_id":"","pricing_plan_id":"cebpf4jnsgd1na2vs0mg"},{"bike_id":"72832e8b-7f3b-4e51-b65a-194bb11fe0cb","system_id":"levelo_inurba_marseille","lat":43.29256,"lon":5.38416,"is_reserved":false,"is_disabled":false,"rental_uris":{"android":"levelo://app?vid=72832e8b-7f3b-4e51-b65a-194bb11fe0cb","ios":"levelo://app?vid=72832e8b-7f3b-4e51-b65a-194bb11fe0cb"},"vehicle_type_id":"4","last_reported":1784392982,"current_range_meters":6800,"station_id":"ce4bh692rcd13ifvqea0","pricing_plan_id":"cebpf4jnsgd1na2vs0mg"},{"bike_id":"0eb79f79-1745-4784-b12f-3f3f0a154cbf","system_id":"levelo_inurba_marseille","lat":43.30408,"lon":5.41286,"is_reserved":false,"is_disabled":false,"rental_uris":{"android":"levelo://app?vid=0eb79f79-1745-4784-b12f-3f3f0a154cbf","ios":"levelo://app?vid=0eb79f79-1745-4784-b12f-3f3f0a154cbf"},"vehicle_type_id":"4","last_reported":1784392982,"current_range_meters":37600,"station_id":"ce4bhop2rcd13ifvqh8g","pricing_plan_id":"cebpf4jnsgd1na2vs0mg"},{"bike_id":"f0c9de47-5e4d-4c29-af85-57b80ffdd421","system_id":"levelo_inurba_marseille","lat":43.24169,"lon":5.36392,"is_reserved":false,"is_disabled":false,"rental_uris":{"android":"levelo://app?vid=f0c9de47-5e4d-4c29-af85-57b80ffdd421","ios":"levelo://app?vid=f0c9de47-5e4d-4c29-af85-57b80ffdd421"},"vehicle_type_id":"4","last_reported":1784392982,"current_range_meters":18000,"station_id":"cpo36qri1sfpv3e86is0","pricing_plan_id":"cebpf4jnsgd1na2vs0mg"},{"bike_id":"5bf8fd03-5641-4b4e-8cff-c9770cdb9f21","system_id":"levelo_inurba_marseille","lat":43.28403,"lon":5.34983,"is_reserved":false,"is_disabled":false,"rental_uris":{"android":"levelo://app?vid=5bf8fd03-5641-4b4e-8cff-c9770cdb9f21","ios":"levelo://app?vid=5bf8fd03-5641-4b4e-8cff-c9770cdb9f21"},"vehicle_type_id":"4","last_reported":1784392982,"current_range_meters":8000,"station_id":"ce4bhbh2rcd13ifvqepg","pricing_plan_id":"cebpf4jnsgd1na2vs0mg"},{"bike_id":"a8449df9-3dcb-423e-8663-39e92b6c6df2","system_id":"levelo_inurba_marseille","lat":43.24725,"lon":5.37571,"is_reserved":false,"is_disabled":false,"rental_uris":{"android":"levelo://app?vid=a8449df9-3dcb-423e-8663-39e92b6c6df2","ios":"levelo://app?vid=a8449df9-3dcb-423e-8663-39e92b6c6df2"},"vehicle_type_id":"4","last_reported":1784392982,"current_range_meters":39200,"station_id":"ce4bhgh2rcd13ifvqfb0","pricing_plan_id":"cebpf4jnsgd1na2vs0mg"},{"bike_id":"5507c4ad-a9a4-4230-bec5-54212e905632","system_id":"levelo_inurba_marseille","lat":43.2863,"lon":5.35103,"is_reserved":false,"is_disabled":false,"rental_uris":{"android":"levelo://app?vid=5507c4ad-a9a4-4230-bec5-54212e905632","ios":"levelo://app?vid=5507c4ad-a9a4-4230-bec5-54212e905632"},"vehicle_type_id":"4","last_reported":1784392982,"current_range_meters":24800,"station_id":"ce4bhch2rcd13ifvqeug","pricing_plan_id":"cebpf4jnsgd1na2vs0mg"},{"bike_id":"c65658d3-48f6-420e-bc68-ec1e465c2604","system_id":"levelo_inurba_marseille","lat":43.30782,"lon":5.38142,"is_reserved":false,"is_disabled":false,"rental_uris":{"android":"levelo://app?vid=c65658d3-48f6-420e-bc68-ec1e465c2604","ios":"levelo://app?vid=c65658d3-48f6-420e-bc68-ec1e465c2604"},"vehicle_type_id":"4","last_reported":1784392982,"current_range_meters":35600,"station_id":"ce4bgt12rcd13ifvqce0","pricing_plan_id":"cebpf4jnsgd1na2vs0mg"},{"bike_id":"68987875-c7ee-4ce1-881a-1f9b5578d80a","system_id":"levelo_inurba_marseille","lat":43.23189,"lon":5.39984,"is_reserved":false,"is_disabled":false,"rental_uris":{"android":"levelo://app?vid=68987875-c7ee-4ce1-881a-1f9b5578d80a","ios":"levelo://app?vid=68987875-c7ee-4ce1-881a-1f9b5578d80a"},"vehicle_type_id":"4","last_reported":1784392982,"current_range_meters":35200,"station_id":"ce4bhn12rcd13ifvqgqg","pricing_plan_id":"cebpf4jnsgd1na2vs0mg"},{"bike_id":"3a7bc097-3d28-4f52-88ed-d3904da59c29","system_id":"levelo_inurba_marseille","lat":43.24472,"lon":5.42528,"is_reserved":false,"is_disabled":false,"rental_uris":{"android":"levelo://app?vid=3a7bc097-3d28-4f52-88ed-d3904da59c29","ios":"levelo://app?vid=3a7bc097-3d28-4f52-88ed-d3904da59c29"},"vehicle_type_id":"4","last_reported":1784392982,"current_range_meters":5600,"station_id":"st_d4a3vfp97mjs738cd8kg","pricing_plan_id":"cebpf4jnsgd1na2vs0mg"},{"bike_id":"659a68bc-86a6-4daf-9f1f-d3e7a32b91b8","system_id":"levelo_inurba_marseille","lat":43.23219,"lon":5.35506,"is_reserved":false,"is_disabled":false,"rental_uris":{"android":"levelo://app?vid=659a68bc-86a6-4daf-9f1f-d3e7a32b91b8","ios":"levelo://app?vid=659a68bc-86a6-4daf-9f1f-d3e7a32b91b8"},"vehicle_type_id":"4","last_reported":1784392982,"current_range_meters":39200,"station_id":"ce4bhu92rcd13ifvqi70","pricing_plan_id":"cebpf4jnsgd1na2vs0mg"},{"bike_id":"dd68f0d2-2405-425c-8bb2-3b99c67d8450","system_id":"levelo_inurba_marseille","lat":43.23933,"lon":5.37449,"is_reserved":false,"is_disabled":false,"rental_uris":{"android":"levelo://app?vid=dd68f0d2-2405-425c-8bb2-3b99c67d8450","ios":"levelo://app?vid=dd68f0d2-2405-425c-8bb2-3b99c67d8450"},"vehicle_type_id":"4","last_reported":1784392982,"current_range_meters":6800,"station_id":"st_d6sm7csbq4hs73f8fpjg","pricing_plan_id":"cebpf4jnsgd1na2vs0mg"},{"bike_id":"098cb1b0-aa89-454f-9bc2-2c4ea2f0e0ee","system_id":"levelo_inurba_marseille","lat":43.31553,"lon":5.40553,"is_reserved":false,"is_disabled":false,"rental_uris":{"android":"levelo://app?vid=098cb1b0-aa89-454f-9bc2-2c4ea2f0e0ee","ios":"levelo://app?vid=098cb1b0-aa89-454f-9bc2-2c4ea2f0e0ee"},"vehicle_type_id":"4","last_reported":1784392982,"current_range_meters":16400,"station_id":"","pricing_plan_id":"cebpf4jnsgd1na2vs0mg"},{"bike_id":"5e1cad78-c276-4d77-a65d-8173bc29cb67","system_id":"levelo_inurba_marseille","lat":43.25124,"lon":5.40977,"is_reserved":false,"is_disabled":false,"rental_uris":{"android":"levelo://app?vid=5e1cad78-c276-4d77-a65d-8173bc29cb67","ios":"levelo://app?vid=5e1cad78-c276-4d77-a65d-8173bc29cb67"},"vehicle_type_id":"4","last_reported":1784392982,"current_range_meters":36000,"station_id":"","pricing_plan_id":"cebpf4jnsgd1na2vs0mg"},{"bike_id":"b999c4de-71e5-49f1-adc8-530bd4aa9637","system_id":"levelo_inurba_marseille","lat":43.21197,"lon":5.35074,"is_reserved":false,"is_disabled":false,"rental_uris":{"android":"levelo://app?vid=b999c4de-71e5-49f1-adc8-530bd4aa9637","ios":"levelo://app?vid=b999c4de-71e5-49f1-adc8-530bd4aa9637"},"vehicle_type_id":"4","last_reported":1784392982,"current_range_meters":37600,"station_id":"st_cvj6sg6p6f1abm77japg","pricing_plan_id":"cebpf4jnsgd1na2vs0mg"},{"bike_id":"be6bb617-0345-47d0-a9a1-2dfad3491c00","system_id":"levelo_inurba_marseille","lat":43.25516,"lon":5.37648,"is_reserved":false,"is_disabled":false,"rental_uris":{"android":"levelo://app?vid=be6bb617-0345-47d0-a9a1-2dfad3491c00","ios":"levelo://app?vid=be6bb617-0345-47d0-a9a1-2dfad3491c00"},"vehicle_type_id":"4","last_reported":1784392982,"current_range_meters":38000,"station_id":"ce4bhh12rcd13ifvqff0","pricing_plan_id":"cebpf4jnsgd1na2vs0mg"},{"bike_id":"aeadc001-b838-45ac-ab10-da795bb8945b","system_id":"levelo_inurba_marseille","lat":43.30407,"lon":5.41279,"is_reserved":false,"is_disabled":false,"rental_uris":{"android":"levelo://app?vid=aeadc001-b838-45ac-ab10-da795bb8945b","ios":"levelo://app?vid=aeadc001-b838-45ac-ab10-da795bb8945b"},"vehicle_type_id":"4","last_reported":1784392982,"current_range_meters":18800,"station_id":"ce4bhop2rcd13ifvqh8g","pricing_plan_id":"cebpf4jnsgd1na2vs0mg"},{"bike_id":"5a29e6f3-d0ba-49e7-af5d-f8e60471c1fc","system_id":"levelo_inurba_marseille","lat":43.27454,"lon":5.42497,"is_reserved":false,"is_disabled":true,"rental_uris":{"android":"levelo://app?vid=5a29e6f3-d0ba-49e7-af5d-f8e60471c1fc","ios":"levelo://app?vid=5a29e6f3-d0ba-49e7-af5d-f8e60471c1fc"},"vehicle_type_id":"4","last_reported":1784392982,"current_range_meters":6800,"station_id":"st_d8t4bh7nbrqs73arha60","pricing_plan_id":"cebpf4jnsgd1na2vs0mg"},{"bike_id":"d852945e-f30b-4f9b-9a4c-32db847ff4ec","system_id":"levelo_inurba_marseille","lat":43.225338,"lon":5.348443,"is_reserved":false,"is_disabled":false,"rental_uris":{"android":"levelo://app?vid=d852945e-f30b-4f9b-9a4c-32db847ff4ec","ios":"levelo://app?vid=d852945e-f30b-4f9b-9a4c-32db847ff4ec"},"vehicle_type_id":"4","last_reported":1784392982,"current_range_meters":25600,"station_id":"st_cvj5dfep6f1abm77gieg","pricing_plan_id":"cebpf4jnsgd1na2vs0mg"},{"bike_id":"d3b82640-d84c-42c7-8c57-b5a14f4fcab5","system_id":"levelo_inurba_marseille","lat":43.30875,"lon":5.37197,"is_reserved":false,"is_disabled":false,"rental_uris":{"android":"levelo://app?vid=d3b82640-d84c-42c7-8c57-b5a14f4fcab5","ios":"levelo://app?vid=d3b82640-d84c-42c7-8c57-b5a14f4fcab5"},"vehicle_type_id":"4","last_reported":1784392982,"current_range_meters":34000,"station_id":"ce4bguh2rcd13ifvqckg","pricing_plan_id":"cebpf4jnsgd1na2vs0mg"},{"bike_id":"23302a9b-67a3-4303-90b6-c69441ddc21e","system_id":"levelo_inurba_marseille","lat":43.29703,"lon":5.36605,"is_reserved":false,"is_disabled":false,"rental_uris":{"android":"levelo://app?vid=23302a9b-67a3-4303-90b6-c69441ddc21e","ios":"levelo://app?vid=23302a9b-67a3-4303-90b6-c69441ddc21e"},"vehicle_type_id":"4","last_reported":1784392982,"current_range_meters":33600,"station_id":"ce4bgn12rcd13ifvqbt0","pricing_plan_id":"cebpf4jnsgd1na2vs0mg"},{"bike_id":"57c66e41-d905-4d3e-bdab-9d946f2a37e8","system_id":"levelo_inurba_marseille","lat":43.286134,"lon":5.350956,"is_reserved":false,"is_disabled":false,"rental_uris":{"android":"levelo://app?vid=57c66e41-d905-4d3e-bdab-9d946f2a37e8","ios":"levelo://app?vid=57c66e41-d905-4d3e-bdab-9d946f2a37e8"},"vehicle_type_id":"4","last_reported":1784392982,"current_range_meters":24800,"station_id":"ce4bhch2rcd13ifvqeug","pricing_plan_id":"cebpf4jnsgd1na2vs0mg"},