{"last_updated":1679155702,"ttl":30,"version":"2.2","data":{"bikes":[{"bike_id":"217d40cf-0b9b-4b7a-ac3b-fe79411cbc06","system_id":"levelo_inurba_marseille","lat":43.309076,"lon":5.368465,"is_reserved":false,"is_disabled":false,"rental_uris":{"android":"levelo://app?vid=217d40cf-0b9b-4b7a-ac3b-fe79411cbc06","ios":"levelo://app?vid=217d40cf-0b9b-4b7a-ac3b-fe79411cbc06"},"vehicle_type_id":"4","last_reported":1679155703,"current_range_meters":0,"station_id":"ce4bgn92rcd13ifvqbvg","pricing_plan_id":"free"},{"bike_id":"e792d9bd-94d6-4d4e-bed8-995db03842a6","system_id":"levelo_inurba_marseille","lat":43.315565,"lon":5.375509,"is_reserved":false,"is_disabled":false,"rental_uris":{"android":"levelo://app?vid=e792d9bd-94d6-4d4e-bed8-995db03842a6","ios":"levelo://app?vid=e792d9bd-94d6-4d4e-bed8-995db03842a6"},"vehicle_type_id":"4","last_reported":1679155703,"current_range_meters":11200,"station_id":"","pricing_plan_id":"free"},{"bike_id":"a3a26f8a-52f1-484d-b06c-552e0f98d28c","system_id":"levelo_inurba_marseille","lat":43.30141,"lon":5.37413,"is_reserved":false,"is_disabled":false,"rental_uris":{"android":"levelo://app?vid=a3a26f8a-52f1-484d-b06c-552e0f98d28c","ios":"levelo://app?vid=a3a26f8a-52f1-484d-b06c-552e0f98d28c"},"vehicle_type_id":"4","last_reported":1679155703,"current_range_meters":0,"station_id":"ce4bgs92rcd13ifvqcc0","pricing_plan_id":"free"},{"bike_id":"533d6cf6-75fe-44fe-abcc-9aa7d6801250","system_id":"levelo_inurba_marseille","lat":43.309589,"lon":5.390258,"is_reserved":false,"is_disabled":false,"rental_uris":{"android":"levelo://app?vid=533d6cf6-75fe-44fe-abcc-9aa7d6801250","ios":"levelo://app?vid=533d6cf6-75fe-44fe-abcc-9aa7d6801250"},"vehicle_type_id":"4","last_reported":1679155703,"current_range_meters":0,"station_id":"ce4bgup2rcd13ifvqco0","pricing_plan_id":"free"},{"bike_id":"4dafff6b-9621-4e2b-86a4-abd86b4f6566","system_id":"levelo_inurba_marseille","lat":43.317596,"lon":5.39017,"is_reserved":false,"is_disabled":false,"rental_uris":{"android":"levelo://app?vid=4dafff6b-9621-4e2b-86a4-abd86b4f6566","ios":"levelo://app?vid=4dafff6b-9621-4e2b-86a4-abd86b4f6566"},"vehicle_type_id":"4","last_reported":1679155703,"current_range_meters":0,"station_id":"ce4bhqp2rcd13ifvqhng","pricing_plan_id":"free"},{"bike_id":"d2bee8fd-7af0-428f-be30-727e241f74a4","system_id":"levelo_inurba_marseille","lat":43.298037,"lon":5.381066,"is_reserved":false,"is_disabled":false,"rental_uris":{"android":"levelo://app?vid=d2bee8fd-7af0-428f-be30-727e241f74a4","ios":"levelo://app?vid=d2bee8fd-7af0-428f-be30-727e241f74a4"},"vehicle_type_id":"4","last_reported":1679155703,"current_range_meters":3600,"station_id":"ce4bgip2rcd13ifvqbb0","pricing_plan_id":"free"},{"bike_id":"1f661f8b-fdef-4052-b0f4-d39e7c3e4823","system_id":"levelo_inurba_marseille","lat":43.298037,"lon":5.381066,"is_reserved":false,"is_disabled":false,"rental_uris":{"android":"levelo://app?vid=1f661f8b-fdef-4052-b0f4-d39e7c3e4823","ios":"levelo://app?vid=1f661f8b-fdef-4052-b0f4-d39e7c3e4823"},"vehicle_type_id":"4","last_reported":1679155703,"current_range_meters":0,"station_id":"ce4bgip2rcd13ifvqbb0","pricing_plan_id":"free"},{"bike_id":"268b6fdd-b043-4f55-a91f-926eafadb249","system_id":"levelo_inurba_marseille","lat":43.29633,"lon":5.3773,"is_reserved":false,"is_disabled":false,"rental_uris":{"android":"levelo://app?vid=268b6fdd-b043-4f55-a91f-926eafadb249","ios":"levelo://app?vid=268b6fdd-b043-4f55-a91f-926eafadb249"},"vehicle_type_id":"4","last_reported":1679155703,"current_range_meters":0,"station_id":"","pricing_plan_id":"free"},{"bike_id":"76ec27a0-c446-4428-8232-64e18b3ba768","system_id":"levelo_inurba_marseille","lat":43.296135,"lon":5.377166,"is_reserved":false,"is_disabled":false,"rental_uris":{"android":"levelo://app?vid=76ec27a0-c446-4428-8232-64e18b3ba768","ios":"levelo://app?vid=76ec27a0-c446-4428-8232-64e18b3ba768"},"vehicle_type_id":"4","last_reported":1679155703,"current_range_meters":0,"station_id":"ce4bgi92rcd13ifvqb90","pricing_plan_id":"free"},{"bike_id":"9adc1a46-1aad-490f-9add-5579ddd4317d","system_id":"levelo_inurba_marseille","lat":43.296048,"lon":5.377153,"is_reserved":false,"is_disabled":false,"rental_uris":{"android":"levelo://app?vid=9adc1a46-1aad-490f-9add-5579ddd4317d","ios":"levelo://app?vid=9adc1a46-1aad-490f-9add-5579ddd4317d"},"vehicle_type_id":"4","last_reported":1679155703,"current_range_meters":0,"station_id":"ce4bgi92rcd13ifvqb90","pricing_plan_id":"free"},{"bike_id":"5971bedb-4e55-4cca-a827-15c1c85bce63","system_id":"levelo_inurba_marseille","lat":43.299686,"lon":5.384948,"is_reserved":false,"is_disabled":false,"rental_uris":{"android":"levelo://app?vid=5971bedb-4e55-4cca-a827-15c1c85bce63","ios":"levelo://app?vid=5971bedb-4e55-4cca-a827-15c1c85bce63"},"vehicle_type_id":"4","last_reported":1679155703,"current_range_meters":0,"station_id":"ce4bgj92rcd13ifvqbd0","pricing_plan_id":"free"},{"bike_id":"f050bfdb-a849-4bca-9bb7-a30d401af102","system_id":"levelo_inurba_marseille","lat":43.29308,"lon":5.371865,"is_reserved":false,"is_disabled":false,"rental_uris":{"android":"levelo://app?vid=f050bfdb-a849-4bca-9bb7-a30d401af102","ios":"levelo://app?vid=f050bfdb-a849-4bca-9bb7-a30d401af102"},"vehicle_type_id":"4","last_reported":1679155703,"current_range_meters":19200,"station_id":"","pricing_plan_id":"free"},{"bike_id":"f04b875d-de62-4b4b-abc9-268b641a9456","system_id":"levelo_inurba_marseille","lat":43.293011,"lon":5.374509,"is_reserved":false,"is_disabled":false,"rental_uris":{"android":"levelo://app?vid=f04b875d-de62-4b4b-abc9-268b641a9456","ios":"levelo://app?vid=f04b875d-de62-4b4b-abc9-268b641a9456"},"vehicle_type_id":"4","last_reported":1679155703,"current_range_meters":0,"station_id":"ce4bgi12rcd13ifvqb70","pricing_plan_id":"free"},{"bike_id":"c97f2ca3-1f6b-4648-bc26-84d3abdd9645","system_id":"levelo_inurba_marseille","lat":43.293009,"lon":5.374584,"is_reserved":false,"is_disabled":false,"rental_uris":{"android":"levelo://app?vid=c97f2ca3-1f6b-4648-bc26-84d3abdd9645","ios":"levelo://app?vid=c97f2ca3-1f6b-4648-bc26-84d3abdd9645"},"vehicle_type_id":"4","last_reported":1679155703,"current_range_meters":7600,"station_id":"ce4bgi12rcd13ifvqb70","pricing_plan_id":"free"},{"bike_id":"96832b3e-ced1-4524-b6f7-2c03406f4b43","system_id":"levelo_inurba_marseille","lat":43.29299,"lon":5.3747,"is_reserved":false,"is_disabled":false,"rental_uris":{"android":"levelo://app?vid=96832b3e-ced1-4524-b6f7-2c03406f4b43","ios":"levelo://app?vid=96832b3e-ced1-4524-b6f7-2c03406f4b43"},"vehicle_type_id":"4","last_reported":1679155703,"current_range_meters":1600,"station_id":"","pricing_plan_id":"free"},{"bike_id":"aa27b393-2641-4e16-bb4c-7795195d0e13","system_id":"levelo_inurba_marseille","lat":43.29361,"lon":5.37835,"is_reserved":false,"is_disabled":false,"rental_uris":{"android":"levelo://app?vid=aa27b393-2641-4e16-bb4c-7795195d0e13","ios":"levelo://app?vid=aa27b393-2641-4e16-bb4c-7795195d0e13"},"vehicle_type_id":"4","last_reported":1679155703,"current_range_meters":2000,"station_id":"","pricing_plan_id":"free"},{"bike_id":"8c0f14b7-df0f-4a0e-87fa-d9d80b1037cf","system_id":"levelo_inurba_marseille","lat":43.29232,"lon":5.36076,"is_reserved":false,"is_disabled":false,"rental_uris":{"android":"levelo://app?vid=8c0f14b7-df0f-4a0e-87fa-d9d80b1037cf","ios":"levelo://app?vid=8c0f14b7-df0f-4a0e-87fa-d9d80b1037cf"},"vehicle_type_id":"4","last_reported":1679155703,"current_range_meters":0,"station_id":"","pricing_plan_id":"free"},{"bike_id":"0ca2071e-6d50-43d3-b023-b76ad1dd28bb","system_id":"levelo_inurba_marseille","lat":43.300852,"lon":5.390859,"is_reserved":false,"is_disabled":false,"rental_uris":{"android":"levelo://app?vid=0ca2071e-6d50-43d3-b023-b76ad1dd28bb","ios":"levelo://app?vid=0ca2071e-6d50-43d3-b023-b76ad1dd28bb"},"vehicle_type_id":"4","last_reported":1679155703,"current_range_meters":4400,"station_id":"ce4bh192rcd13ifvqdb0","pricing_plan_id":"free"},{"bike_id":"b0afce8c-722d-4874-8d70-5acc30b2243b","system_id":"levelo_inurba_marseille","lat":43.231888,"lon":5.355488,"is_reserved":false,"is_disabled":false,"rental_uris":{"android":"levelo://app?vid=b0afce8c-722d-4874-8d70-5acc30b2243b","ios":"levelo://app?vid=b0afce8c-722d-4874-8d70-5acc30b2243b"},"vehicle_type_id":"4","last_reported":1679155703,"current_range_meters":5600,"station_id":"","pricing_plan_id":"free"},{"bike_id":"cea4c126-2ce5-477a-9d88-d7f34a6aa2c8","system_id":"levelo_inurba_marseille","lat":43.289468,"lon":5.363719,"is_reserved":false,"is_disabled":false,"rental_uris":{"android":"levelo://app?vid=cea4c126-2ce5-477a-9d88-d7f34a6aa2c8","ios":"levelo://app?vid=cea4c126-2ce5-477a-9d88-d7f34a6aa2c8"},"vehicle_type_id":"4","last_reported":1679155703,"current_range_meters":800,"station_id":"ce4bhc92rcd13ifvqetg","pricing_plan_id":"free"},{"bike_id":"e797638e-4e86-4a19-a651-020bffe2161a","system_id":"levelo_inurba_marseille","lat":43.292768,"lon":5.384292,"is_reserved":false,"is_disabled":false,"rental_uris":{"android":"levelo://app?vid=e797638e-4e86-4a19-a651-020bffe2161a","ios":"levelo://app?vid=e797638e-4e86-4a19-a651-020bffe2161a"},"vehicle_type_id":"4","last_reported":1679155703,"current_range_meters":800,"station_id":"ce4bh692rcd13ifvqea0","pricing_plan_id":"free"},{"bike_id":"28094ebd-8e23-42de-8f1b-28e973a4ca74","system_id":"levelo_inurba_marseille","lat":43.292644,"lon":5.384257,"is_reserved":false,"is_disabled":false,"rental_uris":{"android":"levelo://app?vid=28094ebd-8e23-42de-8f1b-28e973a4ca74","ios":"levelo://app?vid=28094ebd-8e23-42de-8f1b-28e973a4ca74"},"vehicle_type_id":"4","last_reported":1679155703,"current_range_meters":16800,"station_id":"ce4bh692rcd13ifvqea0","pricing_plan_id":"free"},{"bike_id":"5afdbdd8-b070-4a5e-9487-aeaf84770d1b","system_id":"levelo_inurba_marseille","lat":43.29099,"lon":5.381509,"is_reserved":false,"is_disabled":false,"rental_uris":{"android":"levelo://app?vid=5afdbdd8-b070-4a5e-9487-aeaf84770d1b","ios":"levelo://app?vid=5afdbdd8-b070-4a5e-9487-aeaf84770d1b"},"vehicle_type_id":"4","last_reported":1679155703,"current_range_meters":0,"station_id":"ce4bh512rcd13ifvqe2g","pricing_plan_id":"free"},{"bike_id":"4529ee61-2174-4b29-b2d2-3f1349d6f14b","system_id":"levelo_inurba_marseille","lat":43.289743,"lon":5.378304,"is_reserved":false,"is_disabled":false,"rental_uris":{"android":"levelo://app?vid=4529ee61-2174-4b29-b2d2-3f1349d6f14b","ios":"levelo://app?vid=4529ee61-2174-4b29-b2d2-3f1349d6f14b"},"vehicle_type_id":"4","last_reported":1679155703,"current_range_meters":31200,"station_id":"ce4bh9p2rcd13ifvqed0","pricing_plan_id":"free"},{"bike_id":"389001b4-8d1d-4ac7-a6ff-fb2ede8729a3","system_id":"levelo_inurba_marseille","lat":43.28856,"lon":5.358371,"is_reserved":false,"is_disabled":false,"rental_uris":{"android":"levelo://app?vid=389001b4-8d1d-4ac7-a6ff-fb2ede8729a3","ios":"levelo://app?vid=389001b4-8d1d-4ac7-a6ff-fb2ede8729a3"},"vehicle_type_id":"4","last_reported":1679155703,"current_range_meters":2400,"station_id":"ce4bhb12rcd13ifvqem0","pricing_plan_id":"free"},{"bike_id":"f0888a5d-8469-4a4a-aa32-e51183159fbe","system_id":"levelo_inurba_marseille","lat":43.337437,"lon":5.374608,"is_reserved":false,"is_disabled":false,"rental_uris":{"android":"levelo://app?vid=f0888a5d-8469-4a4a-aa32-e51183159fbe","ios":"levelo://app?vid=f0888a5d-8469-4a4a-aa32-e51183159fbe"},"vehicle_type_id":"4","last_reported":1679155703,"current_range_meters":10000,"station_id":"","pricing_plan_id":"free"},{"bike_id":"3691d997-1cad-46ed-b7e6-586680d35f2f","system_id":"levelo_inurba_marseille","lat":43.337454,"lon":5.37465,"is_reserved":false,"is_disabled":false,"rental_uris":{"android":"levelo://app?vid=3691d997-1cad-46ed-b7e6-586680d35f2f","ios":"levelo://app?vid=3691d997-1cad-46ed-b7e6-586680d35f2f"},"vehicle_type_id":"4","last_reported":1679155703,"current_range_meters":21200,"station_id":"","pricing_plan_id":"free"},{"bike_id":"97a70748-85a2-4139-aa8d-3426ee2a5b86","system_id":"levelo_inurba_marseille","lat":43.337501,"lon":5.374448,"is_reserved":false,"is_disabled":false,"rental_uris":{"android":"levelo://app?vid=97a70748-85a2-4139-aa8d-3426ee2a5b86","ios":"levelo://app?vid=97a70748-85a2-4139-aa8d-3426ee2a5b86"},"vehicle_type_id":"4","last_reported":1679155703,"current_range_meters":0,"station_id":"","pricing_plan_id":"free"},{"bike_id":"f3e60a9c-2b74-43cb-ac11-5dfafdbb73c0","system_id":"levelo_inurba_marseille","lat":43.337556,"lon":5.374671,"is_reserved":false,"is_disabled":false,"rental_uris":{"android":"levelo://app?vid=f3e60a9c-2b74-43cb-ac11-5dfafdbb73c0","ios":"levelo://app?vid=f3e60a9c-2b74-43cb-ac11-5dfafdbb73c0"},"vehicle_type_id":"4","last_reported":1679155703,"current_range_meters":26000,"station_id":"","pricing_plan_id":"free"},{"bike_id":"50926da8-3b14-40f5-8bd5-0ac3c8e9bcf8","system_id":"levelo_inurba_marseille","lat":43.2953,"lon":5.393984,"is_reserved":false,"is_disabled":false,"rental_uris":{"android":"levelo://app?vid=50926da8-3b14-40f5-8bd5-0ac3c8e9bcf8","ios":"levelo://app?vid=50926da8-3b14-40f5-8bd5-0ac3c8e9bcf8"},"vehicle_type_id":"4","last_reported":1679155703,"current_range_meters":27200,"station_id":"ce4bh212rcd13ifvqde0","pricing_plan_id":"free"},{"bike_id":"0626901d-ac6c-4b3d-bdb5-7bd5dbbee55b","system_id":"levelo_inurba_marseille","lat":43.29532,"lon":5.39401,"is_reserved":false,"is_disabled":false,"rental_uris":{"android":"levelo://app?vid=0626901d-ac6c-4b3d-bdb5-7bd5dbbee55b","ios":"levelo://app?vid=0626901d-ac6c-4b3d-bdb5-7bd5dbbee55b"},"vehicle_type_id":"4","last_reported":1679155703,"current_range_meters":400,"station_id":"","pricing_plan_id":"free"},{"bike_id":"f25d7030-b9c5-4320-9d09-af560e0e18eb","system_id":"levelo_inurba_marseille","lat":43.29518,"lon":5.39402,"is_reserved":false,"is_disabled":false,"rental_uris":{"android":"levelo://app?vid=f25d7030-b9c5-4320-9d09-af560e0e18eb","ios":"levelo://app?vid=f25d7030-b9c5-4320-9d09-af560e0e18eb"},"vehicle_type_id":"4","last_reported":1679155703,"current_range_meters":28000,"station_id":"ce4bh212rcd13ifvqde0","pricing_plan_id":"free"},{"bike_id":"522e7243-bb14-4d46-9322-a6aa27c4ce92","system_id":"levelo_inurba_marseille","lat":43.302759,"lon":5.400793,"is_reserved":false,"is_disabled":false,"rental_uris":{"android":"levelo://app?vid=522e7243-bb14-4d46-9322-a6aa27c4ce92","ios":"levelo://app?vid=522e7243-bb14-4d46-9322-a6aa27c4ce92"},"vehicle_type_id":"4","last_reported":1679155703,"current_range_meters":7200,"station_id":"ce4bgvh2rcd13ifvqcs0","pricing_plan_id":"free"},{"bike_id":"2aa75c71-9f1c-435e-872a-b8800ace6578","system_id":"levelo_inurba_marseille","lat":43.286039,"lon":5.370679,"is_reserved":false,"is_disabled":false,"rental_uris":{"android":"levelo://app?vid=2aa75c71-9f1c-435e-872a-b8800ace6578","ios":"levelo://app?vid=2aa75c71-9f1c-435e-872a-b8800ace6578"},"vehicle_type_id":"4","last_reported":1679155703,"current_range_meters":0,"station_id":"ce4bht12rcd13ifvqi60","pricing_plan_id":"free"},{"bike_id":"5481404b-49a1-4803-9954-9c9f3cd79c9b","system_id":"levelo_inurba_marseille","lat":43.316517,"lon":5.404375,"is_reserved":false,"is_disabled":false,"rental_uris":{"android":"levelo://app?vid=5481404b-49a1-4803-9954-9c9f3cd79c9b","ios":"levelo://app?vid=5481404b-49a1-4803-9954-9c9f3cd79c9b"},"vehicle_type_id":"4","last_reported":1679155703,"current_range_meters":27600,"station_id":"ce4bh012rcd13ifvqd00","pricing_plan_id":"free"},{"bike_id":"b89cd45c-4e1e-4b6b-b571-bf02015710d2","system_id":"levelo_inurba_marseille","lat":43.3165,"lon":5.40442,"is_reserved":false,"is_disabled":false,"rental_uris":{"android":"levelo://app?vid=b89cd45c-4e1e-4b6b-b571-bf02015710d2","ios":"levelo://app?vid=b89cd45c-4e1e-4b6b-b571-bf02015710d2"},"vehicle_type_id":"4","last_reported":1679155703,"current_range_meters":20800,"station_id":"","pricing_plan_id":"free"},{"bike_id":"eb78518e-08d5-438e-a009-fb2a60aedf37","system_id":"levelo_inurba_marseille","lat":43.284534,"lon":5.358662,"is_reserved":false,"is_disabled":false,"rental_uris":{"android":"levelo://app?vid=eb78518e-08d5-438e-a009-fb2a60aedf37","ios":"levelo://app?vid=eb78518e-08d5-438e-a009-fb2a60aedf37"},"vehicle_type_id":"4","last_reported":1679155703,"current_range_meters":10400,"station_id":"ce4bhah2rcd13ifvqei0","pricing_plan_id":"free"},{"bike_id":"827f5389-4c18-4017-928d-af1b71c898f8","system_id":"levelo_inurba_marseille","lat":43.286595,"lon":5.386795,"is_reserved":false,"is_disabled":false,"rental_uris":{"android":"levelo://app?vid=827f5389-4c18-4017-928d-af1b71c898f8","ios":"levelo://app?vid=827f5389-4c18-4017-928d-af1b71c898f8"},"vehicle_type_id":"4","last_reported":1679155703,"current_range_meters":18800,"station_id":"ce4bh492rcd13ifvqdug","pricing_plan_id":"free"},{"bike_id":"f1b63a90-7c33-4f33-856c-c37cefc6ff14","system_id":"levelo_inurba_marseille","lat":43.286595,"lon":5.386795,"is_reserved":false,"is_disabled":false,"rental_uris":{"android":"levelo://app?vid=f1b63a90-7c33-4f33-856c-c37cefc6ff14","ios":"levelo://app?vid=f1b63a90-7c33-4f33-856c-c37cefc6ff14"},"vehicle_type_id":"4","last_reported":1679155703,"current_range_meters":0,"station_id":"ce4bh492rcd13ifvqdug","pricing_plan_id":"free"},{"bike_id":"15ea93bf-bf98-4db3-bf27-17fdd840526e","system_id":"levelo_inurba_marseille","lat":43.286595,"lon":5.386795,"is_reserved":false,"is_disabled":false,"rental_uris":{"android":"levelo://app?vid=15ea93bf-bf98-4db3-bf27-17fdd840526e","ios":"levelo://app?vid=15ea93bf-bf98-4db3-bf27-17fdd840526e"},"vehicle_type_id":"4","last_reported":1679155703,"current_range_meters":0,"station_id":"ce4bh492rcd13ifvqdug","pricing_plan_id":"free"},{"bike_id":"7c51c04b-2d9b-45dd-a46a-f0a9779e2e54","system_id":"levelo_inurba_marseille","lat":43.33717,"lon":5.391857,"is_reserved":false,"is_disabled":false,"rental_uris":{"android":"levelo://app?vid=7c51c04b-2d9b-45dd-a46a-f0a9779e2e54","ios":"levelo://app?vid=7c51c04b-2d9b-45dd-a46a-f0a9779e2e54"},"vehicle_type_id":"4","last_reported":1679155703,"current_range_meters":31600,"station_id":"ce4bhr92rcd13ifvqhsg","pricing_plan_id":"free"},{"bike_id":"6d94870b-1774-4845-a9ae-6aa031c482c5","system_id":"levelo_inurba_marseille","lat":43.33717,"lon":5.391857,"is_reserved":false,"is_disabled":false,"rental_uris":{"android":"levelo://app?vid=6d94870b-1774-4845-a9ae-6aa031c482c5","ios":"levelo://app?vid=6d94870b-1774-4845-a9ae-6aa031c482c5"},"vehicle_type_id":"4","last_reported":1679155703,"current_range_meters":31600,"station_id":"ce4bhr92rcd13ifvqhsg","pricing_plan_id":"free"},{"bike_id":"7fc3d43b-d8c9-4a66-beda-616638b34fee","system_id":"levelo_inurba_marseille","lat":43.28423,"lon":5.34984,"is_reserved":false,"is_disabled":false,"rental_uris":{"android":"levelo://app?vid=7fc3d43b-d8c9-4a66-beda-616638b34fee","ios":"levelo://app?vid=7fc3d43b-d8c9-4a66-beda-616638b34fee"},"vehicle_type_id":"4","last_reported":1679155703,"current_range_meters":0,"station_id":"ce4bhbh2rcd13ifvqepg","pricing_plan_id":"free"},{"bike_id":"731f68be-26aa-4c87-ae4b-d273a7ed983c","system_id":"levelo_inurba_marseille","lat":43.28422,"lon":5.3497,"is_reserved":false,"is_disabled":false,"rental_uris":{"android":"levelo://app?vid=731f68be-26aa-4c87-ae4b-d273a7ed983c","ios":"levelo://app?vid=731f68be-26aa-4c87-ae4b-d273a7ed983c"},"vehicle_type_id":"4","last_reported":1679155703,"current_range_meters":3600,"station_id":"ce4bhbh2rcd13ifvqepg","pricing_plan_id":"free"},{"bike_id":"65770a9a-f9f2-4fd2-96af-4cc366443eff","system_id":"levelo_inurba_marseille","lat":43.2842,"lon":5.34976,"is_reserved":false,"is_disabled":false,"rental_uris":{"android":"levelo://app?vid=65770a9a-f9f2-4fd2-96af-4cc366443eff","ios":"levelo://app?vid=65770a9a-f9f2-4fd2-96af-4cc366443eff"},"vehicle_type_id":"4","last_reported":1679155703,"current_range_meters":2800,"station_id":"ce4bhbh2rcd13ifvqepg","pricing_plan_id":"free"},{"bike_id":"2fd04ca2-ac77-4c94-a2d8-57fa569708aa","system_id":"levelo_inurba_marseille","lat":43.2842,"lon":5.34975,"is_reserved":false,"is_disabled":false,"rental_uris":{"android":"levelo://app?vid=2fd04ca2-ac77-4c94-a2d8-57fa569708aa","ios":"levelo://app?vid=2fd04ca2-ac77-4c94-a2d8-57fa569708aa"},"vehicle_type_id":"4","last_reported":1679155703,"current_range_meters":10800,"station_id":"ce4bhbh2rcd13ifvqepg","pricing_plan_id":"free"},{"bike_id":"3c079f8f-d7e0-4247-be33-a6bac9394ea1","system_id":"levelo_inurba_marseille","lat":43.28416,"lon":5.34986,"is_reserved":false,"is_disabled":false,"rental_uris":{"android":"levelo://app?vid=3c079f8f-d7e0-4247-be33-a6bac9394ea1","ios":"levelo://app?vid=3c079f8f-d7e0-4247-be33-a6bac9394ea1"},"vehicle_type_id":"4","last_reported":1679155703,"current_range_meters":28800,"station_id":"","pricing_plan_id":"free"},{"bike_id":"6e28d031-3e43-4f9f-a03a-46980424bc3c","system_id":"levelo_inurba_marseille","lat":43.28415,"lon":5.34982,"is_reserved":false,"is_disabled":false,"rental_uris":{"android":"levelo://app?vid=6e28d031-3e43-4f9f-a03a-46980424bc3c","ios":"levelo://app?vid=6e28d031-3e43-4f9f-a03a-46980424bc3c"},"vehicle_type_id":"4","last_reported":1679155703,"current_range_meters":24400,"station_id":"ce4bhbh2rcd13ifvqepg","pricing_plan_id":"free"},{"bike_id":"d0fac2e5-3922-42de-90f7-e6d356458971","system_id":"levelo_inurba_marseille","lat":43.282744,"lon":5.350533,"is_reserved":false,"is_disabled":false,"rental_uris":{"android":"levelo://app?vid=d0fac2e5-3922-42de-90f7-e6d356458971","ios":"levelo://app?vid=d0fac2e5-3922-42de-90f7-e6d356458971"},"vehicle_type_id":"4","last_reported":1679155703,"current_range_meters":8800,"station_id":"ce4bhbp2rcd13ifvqerg","pricing_plan_id":"free"},{"bike_id":"1b3847c8-b365-4bbc-bd94-10601b70dabb","system_id":"levelo_inurba_marseille","lat":43.281044,"lon":5.378308,"is_reserved":false,"is_disabled":false,"rental_uris":{"android":"levelo://app?vid=1b3847c8-b365-4bbc-bd94-10601b70dabb","ios":"levelo://app?vid=1b3847c8-b365-4bbc-bd94-10601b70dabb"},"vehicle_type_id":"4","last_reported":1679155703,"current_range_meters":1600,"station_id":"ce4bha12rcd13ifvqee0","pricing_plan_id":"free"},{"bike_id":"956b8660-ce39-43a7-8132-4948ebba9e25","system_id":"levelo_inurba_marseille","lat":43.287154,"lon":5.399979,"is_reserved":false,"is_disabled":false,"rental_uris":{"android":"levelo://app?vid=956b8660-ce39-43a7-8132-4948ebba9e25","ios":"levelo://app?vid=956b8660-ce39-43a7-8132-4948ebba9e25"},"vehicle_type_id":"4","last_reported":1679155703,"current_range_meters":18000,"station_id":"ce4bho92rcd13ifvqh3g","pricing_plan_id":"free"},{"bike_id":"30073ef6-5320-49dd-acba-d79f0a9a4d80","system_id":"levelo_inurba_marseille","lat":43.3204,"lon":5.41542,"is_reserved":false,"is_disabled":false,"rental_uris":{"android":"levelo://app?vid=30073ef6-5320-49dd-acba-d79f0a9a4d80","ios":"levelo://app?vid=30073ef6-5320-49dd-acba-d79f0a9a4d80"},"vehicle_type_id":"4","last_reported":1679155703,"current_range_meters":12800,"station_id":"","pricing_plan_id":"free"},{"bike_id":"c8e03335-80a3-4676-aebe-02c1cd338a94","system_id":"levelo_inurba_marseille","lat":43.299577,"lon":5.413277,"is_reserved":false,"is_disabled":false,"rental_uris":{"android":"levelo://app?vid=c8e03335-80a3-4676-aebe-02c1cd338a94","ios":"levelo://app?vid=c8e03335-80a3-4676-aebe-02c1cd338a94"},"vehicle_type_id":"4","last_reported":1679155703,"current_range_meters":3200,"station_id":"ce4bhp12rcd13ifvqh9g","pricing_plan_id":"free"},{"bike_id":"a25d3c35-4cb0-4529-836a-f8ef120ce55e","system_id":"levelo_inurba_marseille","lat":43.32046,"lon":5.41559,"is_reserved":false,"is_disabled":false,"rental_uris":{"android":"levelo://app?vid=a25d3c35-4cb0-4529-836a-f8ef120ce55e","ios":"levelo://app?vid=a25d3c35-4cb0-4529-836a-f8ef120ce55e"},"vehicle_type_id":"4","last_reported":1679155703,"current_range_meters":6000,"station_id":"","pricing_plan_id":"free"},{"bike_id":"f993bf3b-faa6-4a71-a3eb-bdf4a0e22b1e","system_id":"levelo_inurba_marseille","lat":43.320045,"lon":5.415048,"is_reserved":false,"is_disabled":false,"rental_uris":{"android":"levelo://app?vid=f993bf3b-faa6-4a71-a3eb-bdf4a0e22b1e","ios":"levelo://app?vid=f993bf3b-faa6-4a71-a3eb-bdf4a0e22b1e"},"vehicle_type_id":"4","last_reported":1679155703,"current_range_meters":26800,"station_id":"ce4bhq92rcd13ifvqhkg","pricing_plan_id":"free"},{"bike_id":"9d002998-c479-45f0-879d-1bd38fbf953b","system_id":"levelo_inurba_marseille","lat":43.324788,"lon":5.414331,"is_reserved":false,"is_disabled":false,"rental_uris":{"android":"levelo://app?vid=9d002998-c479-45f0-879d-1bd38fbf953b","ios":"levelo://app?vid=9d002998-c479-45f0-879d-1bd38fbf953b"},"vehicle_type_id":"4","last_reported":1679155703,"current_range_meters":10000,"station_id":"","pricing_plan_id":"free"},{"bike_id":"c8bd4608-986e-4010-b9c7-be09dae6db4f","system_id":"levelo_inurba_marseille","lat":43.292571,"lon":5.409107,"is_reserved":false,"is_disabled":false,"rental_uris":{"android":"levelo://app?vid=c8bd4608-986e-4010-b9c7-be09dae6db4f","ios":"levelo://app?vid=c8bd4608-986e-4010-b9c7-be09dae6db4f"},"vehicle_type_id":"4","last_reported":1679155703,"current_range_meters":2800,"station_id":"ce4bh192rcd13ifvqdc0","pricing_plan_id":"free"},{"bike_id":"64bdbc96-a451-4f6f-91ee-a120e46fbea0","system_id":"levelo_inurba_marseille","lat":43.29254,"lon":5.40913,"is_reserved":false,"is_disabled":false,"rental_uris":{"android":"levelo://app?vid=64bdbc96-a451-4f6f-91ee-a120e46fbea0","ios":"levelo://app?vid=64bdbc96-a451-4f6f-91ee-a120e46fbea0"},"vehicle_type_id":"4","last_reported":1679155703,"current_range_meters":28400,"station_id":"ce4bh192rcd13ifvqdc0","pricing_plan_id":"free"},{"bike_id":"8bccf87e-f4b4-4494-815b-c0d2323a523b","system_id":"levelo_inurba_marseille","lat":43.317121,"lon":5.423936,"is_reserved":false,"is_disabled":false,"rental_uris":{"android":"levelo://app?vid=8bccf87e-f4b4-4494-815b-c0d2323a523b","ios":"levelo://app?vid=8bccf87e-f4b4-4494-815b-c0d2323a523b"},"vehicle_type_id":"4","last_reported":1679155703,"current_range_meters":15600,"station_id":"ce4bhp92rcd13ifvqhbg","pricing_plan_id":"free"},{"bike_id":"4c094cd0-7222-4917-ad8b-27c03a149a60","system_id":"levelo_inurba_marseille","lat":43.310849,"lon":5.424267,"is_reserved":false,"is_disabled":false,"rental_uris":{"android":"levelo://app?vid=4c094cd0-7222-4917-ad8b-27c03a149a60","ios":"levelo://app?vid=4c094cd0-7222-4917-ad8b-27c03a149a60"},"vehicle_type_id":"4","last_reported":1679155703,"current_range_meters":23200,"station_id":"ce4bhp92rcd13ifvqhag","pricing_plan_id":"free"},{"bike_id":"b7a56549-6b7d-497e-8496-7ff25fff6ed4","system_id":"levelo_inurba_marseille","lat":43.31081,"lon":5.42427,"is_reserved":false,"is_disabled":false,"rental_uris":{"android":"levelo://app?vid=b7a56549-6b7d-497e-8496-7ff25fff6ed4","ios":"levelo://app?vid=b7a56549-6b7d-497e-8496-7ff25fff6ed4"},"vehicle_type_id":"4","last_reported":1679155703,"current_range_meters":27200,"station_id":"","pricing_plan_id":"free"},{"bike_id":"8895aa92-5fbf-4a87-b2cc-398b3b8d73ea","system_id":"levelo_inurba_marseille","lat":43.31086,"lon":5.4243,"is_reserved":false,"is_disabled":false,"rental_uris":{"android":"levelo://app?vid=8895aa92-5fbf-4a87-b2cc-398b3b8d73ea","ios":"levelo://app?vid=8895aa92-5fbf-4a87-b2cc-398b3b8d73ea"},"vehicle_type_id":"4","last_reported":1679155703,"current_range_meters":9600,"station_id":"ce4bhp92rcd13ifvqhag","pricing_plan_id":"free"},{"bike_id":"f6fa2fd5-a2e8-4b23-bf67-6d7a3fb59d7d","system_id":"levelo_inurba_marseille","lat":43.31085,"lon":5.42433,"is_reserved":false,"is_disabled":false,"rental_uris":{"android":"levelo://app?vid=f6fa2fd5-a2e8-4b23-bf67-6d7a3fb59d7d","ios":"levelo://app?vid=f6fa2fd5-a2e8-4b23-bf67-6d7a3fb59d7d"},"vehicle_type_id":"4","last_reported":1679155703,"current_range_meters":24800,"station_id":"","pricing_plan_id":"free"},{"bike_id":"bf7bf11b-c545-4620-bf56-118863acfe22","system_id":"levelo_inurba_marseille","lat":43.310785,"lon":5.424305,"is_reserved":false,"is_disabled":false,"rental_uris":{"android":"levelo://app?vid=bf7bf11b-c545-4620-bf56-118863acfe22","ios":"levelo://app?vid=bf7bf11b-c545-4620-bf56-118863acfe22"},"vehicle_type_id":"4","last_reported":1679155703,"current_range_meters":16800,"station_id":"ce4bhp92rcd13ifvqhag","pricing_plan_id":"free"},{"bike_id":"f3e8fb6d-352b-4dd2-b33c-1eafeef7186f","system_id":"levelo_inurba_marseille","lat":43.31084,"lon":5.42436,"is_reserved":false,"is_disabled":false,"rental_uris":{"android":"levelo://app?vid=f3e8fb6d-352b-4dd2-b33c-1eafeef7186f","ios":"levelo://app?vid=f3e8fb6d-352b-4dd2-b33c-1eafeef7186f"},"vehicle_type_id":"4","last_reported":1679155703,"current_range_meters":27600,"station_id":"","pricing_plan_id":"free"},{"bike_id":"1e100f65-7a4b-46e7-aa53-d565fb16eb08","system_id":"levelo_inurba_marseille","lat":43.27231,"lon":5.39098,"is_reserved":false,"is_disabled":false,"rental_uris":{"android":"levelo://app?vid=1e100f65-7a4b-46e7-aa53-d565fb16eb08","ios":"levelo://app?vid=1e100f65-7a4b-46e7-aa53-d565fb16eb08"},"vehicle_type_id":"4","last_reported":1679155703,"current_range_meters":0,"station_id":"ce4bh3p2rcd13ifvqdp0","pricing_plan_id":"free"},{"bike_id":"26a403ae-639f-4619-adbd-d98d2caef1bb","system_id":"levelo_inurba_marseille","lat":43.295523,"lon":5.422926,"is_reserved":false,"is_disabled":false,"rental_uris":{"android":"levelo://app?vid=26a403ae-639f-4619-adbd-d98d2caef1bb","ios":"levelo://app?vid=26a403ae-639f-4619-adbd-d98d2caef1bb"},"vehicle_type_id":"4","last_reported":1679155703,"current_range_meters":14000,"station_id":"ce4bhph2rcd13ifvqhdg","pricing_plan_id":"free"},{"bike_id":"73ff68f9-613e-4986-99c2-ebca1c4f22a9","system_id":"levelo_inurba_marseille","lat":43.272124,"lon":5.391768,"is_reserved":false,"is_disabled":false,"rental_uris":{"android":"levelo://app?vid=73ff68f9-613e-4986-99c2-ebca1c4f22a9","ios":"levelo://app?vid=73ff68f9-613e-4986-99c2-ebca1c4f22a9"},"vehicle_type_id":"4","last_reported":1679155703,"current_range_meters":15200,"station_id":"ce4bhhp2rcd13ifvqfm0","pricing_plan_id":"free"},{"bike_id":"2756f24d-00a6-4a16-b602-68ac0eb24a68","system_id":"levelo_inurba_marseille","lat":43.272116,"lon":5.391763,"is_reserved":false,"is_disabled":false,"rental_uris":{"android":"levelo://app?vid=2756f24d-00a6-4a16-b602-68ac0eb24a68","ios":"levelo://app?vid=2756f24d-00a6-4a16-b602-68ac0eb24a68"},"vehicle_type_id":"4","last_reported":1679155703,"current_range_meters":16400,"station_id":"ce4bhhp2rcd13ifvqfm0","pricing_plan_id":"free"},{"bike_id":"13b15b75-e86c-4c6b-b209-f7c6c4bcc003","system_id":"levelo_inurba_marseille","lat":43.272116,"lon":5.391763,"is_reserved":false,"is_disabled":false,"rental_uris":{"android":"levelo://app?vid=13b15b75-e86c-4c6b-b209-f7c6c4bcc003","ios":"levelo://app?vid=13b15b75-e86c-4c6b-b209-f7c6c4bcc003"},"vehicle_type_id":"4","last_reported":1679155703,"current_range_meters":21200,"station_id":"ce4bhhp2rcd13ifvqfm0","pricing_plan_id":"free"},{"bike_id":"734afb61-e44d-475d-8dc4-159b3ea0a6c0","system_id":"levelo_inurba_marseille","lat":43.27204,"lon":5.39187,"is_reserved":false,"is_disabled":false,"rental_uris":{"android":"levelo://app?vid=734afb61-e44d-475d-8dc4-159b3ea0a6c0","ios":"levelo://app?vid=734afb61-e44d-475d-8dc4-159b3ea0a6c0"},"vehicle_type_id":"4","last_reported":1679155703,"current_range_meters":17600,"station_id":"ce4bhhp2rcd13ifvqfm0","pricing_plan_id":"free"},{"bike_id":"a094013a-c1b4-4b4b-815a-318b11f6fba6","system_id":"levelo_inurba_marseille","lat":43.278128,"lon":5.407195,"is_reserved":false,"is_disabled":false,"rental_uris":{"android":"levelo://app?vid=a094013a-c1b4-4b4b-815a-318b11f6fba6","ios":"levelo://app?vid=a094013a-c1b4-4b4b-815a-318b11f6fba6"},"vehicle_type_id":"4","last_reported":1679155703,"current_range_meters":800,"station_id":"ce4bhnh2rcd13ifvqgtg","pricing_plan_id":"free"},{"bike_id":"836a1383-0d2f-497c-8bda-36cc10b05529","system_id":"levelo_inurba_marseille","lat":43.269319,"lon":5.389397,"is_reserved":false,"is_disabled":false,"rental_uris":{"android":"levelo://app?vid=836a1383-0d2f-497c-8bda-36cc10b05529","ios":"levelo://app?vid=836a1383-0d2f-497c-8bda-36cc10b05529"},"vehicle_type_id":"4","last_reported":1679155703,"current_range_meters":30400,"station_id":"ce4bhhh2rcd13ifvqfl0","pricing_plan_id":"free"},{"bike_id":"02097aed-186a-4cdd-9acb-1e09b5459a64","system_id":"levelo_inurba_marseille","lat":43.265714,"lon":5.372891,"is_reserved":false,"is_disabled":false,"rental_uris":{"android":"levelo://app?vid=02097aed-186a-4cdd-9acb-1e09b5459a64","ios":"levelo://app?vid=02097aed-186a-4cdd-9acb-1e09b5459a64"},"vehicle_type_id":"4","last_reported":1679155703,"current_range_meters":0,"station_id":"ce4bhg12rcd13ifvqf70","pricing_plan_id":"free"},{"bike_id":"074cac04-c74f-47b4-b283-6be7585569c2","system_id":"levelo_inurba_marseille","lat":43.26681,"lon":5.382694,"is_reserved":false,"is_disabled":false,"rental_uris":{"android":"levelo://app?vid=074cac04-c74f-47b4-b283-6be7585569c2","ios":"levelo://app?vid=074cac04-c74f-47b4-b283-6be7585569c2"},"vehicle_type_id":"4","last_reported":1679155703,"current_range_meters":3200,"station_id":"ce4bhg92rcd13ifvqf90","pricing_plan_id":"free"},{"bike_id":"cc238429-9b14-4396-bfeb-36cc3b94b6d5","system_id":"levelo_inurba_marseille","lat":43.27991,"lon":5.416603,"is_reserved":false,"is_disabled":false,"rental_uris":{"android":"levelo://app?vid=cc238429-9b14-4396-bfeb-36cc3b94b6d5","ios":"levelo://app?vid=cc238429-9b14-4396-bfeb-36cc3b94b6d5"},"vehicle_type_id":"4","last_reported":1679155703,"current_range_meters":0,"station_id":"ce4bho12rcd13ifvqh1g","pricing_plan_id":"free"},{"bike_id":"642f9bbd-043b-4756-be65-e07db6f1c41e","system_id":"levelo_inurba_marseille","lat":43.265571,"lon":5.390032,"is_reserved":false,"is_disabled":false,"rental_uris":{"android":"levelo://app?vid=642f9bbd-043b-4756-be65-e07db6f1c41e","ios":"levelo://app?vid=642f9bbd-043b-4756-be65-e07db6f1c41e"},"vehicle_type_id":"4","last_reported":1679155703,"current_range_meters":0,"station_id":"ce4bhe12rcd13ifvqf30","pricing_plan_id":"free"},{"bike_id":"f2a91677-0bcb-466b-ac1a-545df791a3f8","system_id":"levelo_inurba_marseille","lat":43.26564,"lon":5.39012,"is_reserved":false,"is_disabled":false,"rental_uris":{"android":"levelo://app?vid=f2a91677-0bcb-466b-ac1a-545df791a3f8","ios":"levelo://app?vid=f2a91677-0bcb-466b-ac1a-545df791a3f8"},"vehicle_type_id":"4","last_reported":1679155703,"current_range_meters":0,"station_id":"ce4bhe12rcd13ifvqf30","pricing_plan_id":"free"},{"bike_id":"d72791d3-ba22-4068-9f9d-0e3acba7b42e","system_id":"levelo_inurba_marseille","lat":43.261782,"lon":5.374515,"is_reserved":false,"is_disabled":false,"rental_uris":{"android":"levelo://app?vid=d72791d3-ba22-4068-9f9d-0e3acba7b42e","ios":"levelo://app?vid=d72791d3-ba22-4068-9f9d-0e3acba7b42e"},"vehicle_type_id":"4","last_reported":1679155703,"current_range_meters":12400,"station_id":"ce4bhgp2rcd13ifvqfc0","pricing_plan_id":"free"},{"bike_id":"763b8428-3849-4e04-8fea-a1e7f681b97c","system_id":"levelo_inurba_marseille","lat":43.260219,"lon":5.37546,"is_reserved":false,"is_disabled":false,"rental_uris":{"android":"levelo://app?vid=763b8428-3849-4e04-8fea-a1e7f681b97c","ios":"levelo://app?vid=763b8428-3849-4e04-8fea-a1e7f681b97c"},"vehicle_type_id":"4","last_reported":1679155703,"current_range_meters":25600,"station_id":"ce4bhgh2rcd13ifvqfa0","pricing_plan_id":"free"},{"bike_id":"25ec3d9d-6d28-4126-a902-0dfb2151e7f7","system_id":"levelo_inurba_marseille","lat":43.260688,"lon":5.393956,"is_reserved":false,"is_disabled":false,"rental_uris":{"android":"levelo://app?vid=25ec3d9d-6d28-4126-a902-0dfb2151e7f7","ios":"levelo://app?vid=25ec3d9d-6d28-4126-a902-0dfb2151e7f7"},"vehicle_type_id":"4","last_reported":1679155703,"current_range_meters":29600,"station_id":"ce4bhh92rcd13ifvqfj0","pricing_plan_id":"free"},{"bike_id":"d0ea279d-ec46-4f03-9b89-91c86c528d09","system_id":"levelo_inurba_marseille","lat":43.2607,"lon":5.393983,"is_reserved":false,"is_disabled":false,"rental_uris":{"android":"levelo://app?vid=d0ea279d-ec46-4f03-9b89-91c86c528d09","ios":"levelo://app?vid=d0ea279d-ec46-4f03-9b89-91c86c528d09"},"vehicle_type_id":"4","last_reported":1679155703,"current_range_meters":6400,"station_id":"ce4bhh92rcd13ifvqfj0","pricing_plan_id":"free"},{"bike_id":"cec3ff50-194e-417e-b8d5-3a7061450292","system_id":"levelo_inurba_marseille","lat":43.25924,"lon":5.388465,"is_reserved":false,"is_disabled":false,"rental_uris":{"android":"levelo://app?vid=cec3ff50-194e-417e-b8d5-3a7061450292","ios":"levelo://app?vid=cec3ff50-194e-417e-b8d5-3a7061450292"},"vehicle_type_id":"4","last_reported":1679155703,"current_range_meters":5600,"station_id":"","pricing_plan_id":"free"},{"bike_id":"22c58306-2802-4e38-beb3-54a31bbf41ab","system_id":"levelo_inurba_marseille","lat":43.255756,"lon":5.382303,"is_reserved":false,"is_disabled":false,"rental_uris":{"android":"levelo://app?vid=22c58306-2802-4e38-beb3-54a31bbf41ab","ios":"levelo://app?vid=22c58306-2802-4e38-beb3-54a31bbf41ab"},"vehicle_type_id":"4","last_reported":1679155703,"current_range_meters":6800,"station_id":"ce4bhih2rcd13ifvqfs0","pricing_plan_id":"free"},{"bike_id":"ab921685-20b8-48ea-8984-cb1c39827790","system_id":"levelo_inurba_marseille","lat":43.25584,"lon":5.38233,"is_reserved":false,"is_disabled":false,"rental_uris":{"android":"levelo://app?vid=ab921685-20b8-48ea-8984-cb1c39827790","ios":"levelo://app?vid=ab921685-20b8-48ea-8984-cb1c39827790"},"vehicle_type_id":"4","last_reported":1679155703,"current_range_meters":31200,"station_id":"ce4bhih2rcd13ifvqfs0","pricing_plan_id":"free"},{"bike_id":"2f763052-6dfd-4647-b705-2a3505fcc8a4","system_id":"levelo_inurba_marseille","lat":43.25583,"lon":5.382273,"is_reserved":false,"is_disabled":false,"rental_uris":{"android":"levelo://app?vid=2f763052-6dfd-4647-b705-2a3505fcc8a4","ios":"levelo://app?vid=2f763052-6dfd-4647-b705-2a3505fcc8a4"},"vehicle_type_id":"4","last_reported":1679155703,"current_range_meters":20000,"station_id":"","pricing_plan_id":"free"},{"bike_id":"c1c94d2c-c232-400f-8df6-4305b0cd2cf2","system_id":"levelo_inurba_marseille","lat":43.255756,"lon":5.382303,"is_reserved":false,"is_disabled":false,"rental_uris":{"android":"levelo://app?vid=c1c94d2c-c232-400f-8df6-4305b0cd2cf2","ios":"levelo://app?vid=c1c94d2c-c232-400f-8df6-4305b0cd2cf2"},"vehicle_type_id":"4","last_reported":1679155703,"current_range_meters":28000,"station_id":"ce4bhih2rcd13ifvqfs0","pricing_plan_id":"free"},{"bike_id":"191b8286-9736-4ffd-873e-5a7b1964aaba","system_id":"levelo_inurba_marseille","lat":43.25582,"lon":5.382347,"is_reserved":false,"is_disabled":false,"rental_uris":{"android":"levelo://app?vid=191b8286-9736-4ffd-873e-5a7b1964aaba","ios":"levelo://app?vid=191b8286-9736-4ffd-873e-5a7b1964aaba"},"vehicle_type_id":"4","last_reported":1679155703,"current_range_meters":20000,"station_id":"ce4bhih2rcd13ifvqfs0","pricing_plan_id":"free"},{"bike_id":"cf135abf-30ae-495d-b33b-6c59d3e3dde8","system_id":"levelo_inurba_marseille","lat":43.2558,"lon":5.38237,"is_reserved":false,"is_disabled":false,"rental_uris":{"android":"levelo://app?vid=cf135abf-30ae-495d-b33b-6c59d3e3dde8","ios":"levelo://app?vid=cf135abf-30ae-495d-b33b-6c59d3e3dde8"},"vehicle_type_id":"4","last_reported":1679155703,"current_range_meters":31600,"station_id":"","pricing_plan_id":"free"},{"bike_id":"6705d6f3-8e57-4ee0-8211-0cff70cca0a4","system_id":"levelo_inurba_marseille","lat":43.255756,"lon":5.382303,"is_reserved":false,"is_disabled":false,"rental_uris":{"android":"levelo://app?vid=6705d6f3-8e57-4ee0-8211-0cff70cca0a4","ios":"levelo://app?vid=6705d6f3-8e57-4ee0-8211-0cff70cca0a4"},"vehicle_type_id":"4","last_reported":1679155703,"current_range_meters":14400,"station_id":"ce4bhih2rcd13ifvqfs0","pricing_plan_id":"free"},{"bike_id":"d413346d-111b-47a2-b320-08accc19881f","system_id":"levelo_inurba_marseille","lat":43.254947,"lon":5.376454,"is_reserved":false,"is_disabled":false,"rental_uris":{"android":"levelo://app?vid=d413346d-111b-47a2-b320-08accc19881f","ios":"levelo://app?vid=d413346d-111b-47a2-b320-08accc19881f"},"vehicle_type_id":"4","last_reported":1679155703,"current_range_meters":31600,"station_id":"ce4bhh12rcd13ifvqff0","pricing_plan_id":"free"},{"bike_id":"731d6ff2-9cde-410e-8320-72ec1173f1ab","system_id":"levelo_inurba_marseille","lat":43.254947,"lon":5.376454,"is_reserved":false,"is_disabled":false,"rental_uris":{"android":"levelo://app?vid=731d6ff2-9cde-410e-8320-72ec1173f1ab","ios":"levelo://app?vid=731d6ff2-9cde-410e-8320-72ec1173f1ab"},"vehicle_type_id":"4","last_reported":1679155703,"current_range_meters":11200,"station_id":"ce4bhh12rcd13ifvqff0","pricing_plan_id":"free"},{"bike_id":"b3283dca-0952-42ab-ae38-2a85a1621214","system_id":"levelo_inurba_marseille","lat":43.25499,"lon":5.37652,"is_reserved":false,"is_disabled":false,"rental_uris":{"android":"levelo://app?vid=b3283dca-0952-42ab-ae38-2a85a1621214","ios":"levelo://app?vid=b3283dca-0952-42ab-ae38-2a85a1621214"},"vehicle_type_id":"4","last_reported":1679155703,"current_range_meters":31600,"station_id":"ce4bhh12rcd13ifvqff0","pricing_plan_id":"free"},{"bike_id":"73252738-db20-4a0d-ae48-6d20bf464732","system_id":"levelo_inurba_marseille","lat":43.254984,"lon":5.376505,"is_reserved":false,"is_disabled":false,"rental_uris":{"android":"levelo://app?vid=73252738-db20-4a0d-ae48-6d20bf464732","ios":"levelo://app?vid=73252738-db20-4a0d-ae48-6d20bf464732"},"vehicle_type_id":"4","last_reported":1679155703,"current_range_meters":6000,"station_id":"ce4bhh12rcd13ifvqff0","pricing_plan_id":"free"},{"bike_id":"adc698f1-04fc-4105-8858-b061ed94a8bb","system_id":"levelo_inurba_marseille","lat":43.254947,"lon":5.376454,"is_reserved":false,"is_disabled":false,"rental_uris":{"android":"levelo://app?vid=adc698f1-04fc-4105-8858-b061ed94a8bb","ios":"levelo://app?vid=adc698f1-04fc-4105-8858-b061ed94a8bb"},"vehicle_type_id":"4","last_reported":1679155703,"current_range_meters":30000,"station_id":"ce4bhh12rcd13ifvqff0","pricing_plan_id":"free"},{"bike_id":"e6a4fea8-22e5-4ef4-b97a-d8d23a7c84a8","system_id":"levelo_inurba_marseille","lat":43.29449,"lon":5.4446,"is_reserved":false,"is_disabled":false,"rental_uris":{"android":"levelo://app?vid=e6a4fea8-22e5-4ef4-b97a-d8d23a7c84a8","ios":"levelo://app?vid=e6a4fea8-22e5-4ef4-b97a-d8d23a7c84a8"},"vehicle_type_id":"4","last_reported":1679155703,"current_range_meters":0,"station_id":"","pricing_plan_id":"free"},{"bike_id":"418dcc52-28d2-44b5-b0d5-f47e4a2e2910","system_id":"levelo_inurba_marseille","lat":43.25007,"lon":5.38918,"is_reserved":false,"is_disabled":false,"rental_uris":{"android":"levelo://app?vid=418dcc52-28d2-44b5-b0d5-f47e4a2e2910","ios":"levelo://app?vid=418dcc52-28d2-44b5-b0d5-f47e4a2e2910"},"vehicle_type_id":"4","last_reported":1679155703,"current_range_meters":31600,"station_id":"ce4bhgp2rcd13ifvqfd0","pricing_plan_id":"free"},{"bike_id":"22c0eac9-1513-43b0-9b7a-413a84a6d5f2","system_id":"levelo_inurba_marseille","lat":43.250023,"lon":5.38919,"is_reserved":false,"is_disabled":false,"rental_uris":{"android":"levelo://app?vid=22c0eac9-1513-43b0-9b7a-413a84a6d5f2","ios":"levelo://app?vid=22c0eac9-1513-43b0-9b7a-413a84a6d5f2"},"vehicle_type_id":"4","last_reported":1679155703,"current_range_meters":23600,"station_id":"ce4bhgp2rcd13ifvqfd0","pricing_plan_id":"free"},{"bike_id":"cae90348-cf86-4ca6-ae8a-d6e0a74be010","system_id":"levelo_inurba_marseille","lat":43.24811,"lon":5.37461,"is_reserved":false,"is_disabled":false,"rental_uris":{"android":"levelo://app?vid=cae90348-cf86-4ca6-ae8a-d6e0a74be010","ios":"levelo://app?vid=cae90348-cf86-4ca6-ae8a-d6e0a74be010"},"vehicle_type_id":"4","last_reported":1679155703,"current_range_meters":31600,"station_id":"","pricing_plan_id":"free"},{"bike_id":"33ab36d7-2d4f-47e1-aa48-c38b577be08d","system_id":"levelo_inurba_marseille","lat":43.248095,"lon":5.37463,"is_reserved":false,"is_disabled":false,"rental_uris":{"android":"levelo://app?vid=33ab36d7-2d4f-47e1-aa48-c38b577be08d","ios":"levelo://app?vid=33ab36d7-2d4f-47e1-aa48-c38b577be08d"},"vehicle_type_id":"4","last_reported":1679155703,"current_range_meters":31200,"station_id":"ce4bhgh2rcd13ifvqfb0","pricing_plan_id":"free"},{"bike_id":"f9010983-907c-4b92-82f7-dc3edfcc786d","system_id":"levelo_inurba_marseille","lat":43.2479,"lon":5.374457,"is_reserved":false,"is_disabled":false,"rental_uris":{"android":"levelo://app?vid=f9010983-907c-4b92-82f7-dc3edfcc786d","ios":"levelo://app?vid=f9010983-907c-4b92-82f7-dc3edfcc786d"},"vehicle_type_id":"4","last_reported":1679155703,"current_range_meters":29600,"station_id":"ce4bhgh2rcd13ifvqfb0","pricing_plan_id":"free"},{"bike_id":"8a60166c-d5a0-4680-8bbf-59587b8f564e","system_id":"levelo_inurba_marseille","lat":43.2479,"lon":5.374457,"is_reserved":false,"is_disabled":false,"rental_uris":{"android":"levelo://app?vid=8a60166c-d5a0-4680-8bbf-59587b8f564e","ios":"levelo://app?vid=8a60166c-d5a0-4680-8bbf-59587b8f564e"},"vehicle_type_id":"4","last_reported":1679155703,"current_range_meters":32000,"station_id":"ce4bhgh2rcd13ifvqfb0","pricing_plan_id":"free"},{"bike_id":"484b5a2d-ee2e-473b-8c49-07a62de06bc0","system_id":"levelo_inurba_marseille","lat":43.2479,"lon":5.374457,"is_reserved":false,"is_disabled":false,"rental_uris":{"android":"levelo://app?vid=484b5a2d-ee2e-473b-8c49-07a62de06bc0","ios":"levelo://app?vid=484b5a2d-ee2e-473b-8c49-07a62de06bc0"},"vehicle_type_id":"4","last_reported":1679155703,"current_range_meters":0,"station_id":"ce4bhgh2rcd13ifvqfb0","pricing_plan_id":"free"},{"bike_id":"8e20380f-30fc-4f4d-bd01-df4957e2afb4","system_id":"levelo_inurba_marseille","lat":43.2479,"lon":5.374457,"is_reserved":false,"is_disabled":false,"rental_uris":{"android":"levelo://app?vid=8e20380f-30fc-4f4d-bd01-df4957e2afb4","ios":"levelo://app?vid=8e20380f-30fc-4f4d-bd01-df4957e2afb4"},"vehicle_type_id":"4","last_reported":1679155703,"current_range_meters":18000,"station_id":"ce4bhgh2rcd13ifvqfb0","pricing_plan_id":"free"},{"bike_id":"148aa54a-cb02-4c92-ac3d-1f41b949cfd2","system_id":"levelo_inurba_marseille","lat":43.2479,"lon":5.374457,"is_reserved":false,"is_disabled":false,"rental_uris":{"android":"levelo://app?vid=148aa54a-cb02-4c92-ac3d-1f41b949cfd2","ios":"levelo://app?vid=148aa54a-cb02-4c92-ac3d-1f41b949cfd2"},"vehicle_type_id":"4","last_reported":1679155703,"current_range_meters":31600,"station_id":"ce4bhgh2rcd13ifvqfb0","pricing_plan_id":"free"},{"bike_id":"0562f320-1157-43a8-85c1-0ea565ac175f","system_id":"levelo_inurba_marseille","lat":43.25102,"lon":5.403214,"is_reserved":false,"is_disabled":false,"rental_uris":{"android":"levelo://app?vid=0562f320-1157-43a8-85c1-0ea565ac175f","ios":"levelo://app?vid=0562f320-1157-43a8-85c1-0ea565ac175f"},"vehicle_type_id":"4","last_reported":1679155703,"current_range_meters":23600,"station_id":"ce4bhlh2rcd13ifvqgig","pricing_plan_id":"free"},{"bike_id":"3eafd74b-5cf7-4ca6-b86f-67deddfd03b4","system_id":"levelo_inurba_marseille","lat":43.24664,"lon":5.3817,"is_reserved":false,"is_disabled":false,"rental_uris":{"android":"levelo://app?vid=3eafd74b-5cf7-4ca6-b86f-67deddfd03b4","ios":"levelo://app?vid=3eafd74b-5cf7-4ca6-b86f-67deddfd03b4"},"vehicle_type_id":"4","last_reported":1679155703,"current_range_meters":800,"station_id":"","pricing_plan_id":"free"},{"bike_id":"616f7ff5-9d4b-4998-9f13-95338ff38559","system_id":"levelo_inurba_marseille","lat":43.243884,"lon":5.370736,"is_reserved":false,"is_disabled":false,"rental_uris":{"android":"levelo://app?vid=616f7ff5-9d4b-4998-9f13-95338ff38559","ios":"levelo://app?vid=616f7ff5-9d4b-4998-9f13-95338ff38559"},"vehicle_type_id":"4","last_reported":1679155703,"current_range_meters":31200,"station_id":"ce4bhhh2rcd13ifvqfk0","pricing_plan_id":"free"},{"bike_id":"57bf2e4f-643d-4f9d-9bfb-2b77de7399a7","system_id":"levelo_inurba_marseille","lat":43.243884,"lon":5.370736,"is_reserved":false,"is_disabled":false,"rental_uris":{"android":"levelo://app?vid=57bf2e4f-643d-4f9d-9bfb-2b77de7399a7","ios":"levelo://app?vid=57bf2e4f-643d-4f9d-9bfb-2b77de7399a7"},"vehicle_type_id":"4","last_reported":1679155703,"current_range_meters":18400,"station_id":"ce4bhhh2rcd13ifvqfk0","pricing_plan_id":"free"},{"bike_id":"044a9857-9090-493d-83a8-02a2ded3ae36","system_id":"levelo_inurba_marseille","lat":43.243884,"lon":5.370736,"is_reserved":false,"is_disabled":false,"rental_uris":{"android":"levelo://app?vid=044a9857-9090-493d-83a8-02a2ded3ae36","ios":"levelo://app?vid=044a9857-9090-493d-83a8-02a2ded3ae36"},"vehicle_type_id":"4","last_reported":1679155703,"current_range_meters":31600,"station_id":"ce4bhhh2rcd13ifvqfk0","pricing_plan_id":"free"},{"bike_id":"512a8fc5-b7f3-47b2-ac9e-ce3173c102f2","system_id":"levelo_inurba_marseille","lat":43.243884,"lon":5.370736,"is_reserved":false,"is_disabled":false,"rental_uris":{"android":"levelo://app?vid=512a8fc5-b7f3-47b2-ac9e-ce3173c102f2","ios":"levelo://app?vid=512a8fc5-b7f3-47b2-ac9e-ce3173c102f2"},"vehicle_type_id":"4","last_reported":1679155703,"current_range_meters":21600,"station_id":"ce4bhhh2rcd13ifvqfk0","pricing_plan_id":"free"},{"bike_id":"d88d962f-4eae-456a-912d-fe299f30fb01","system_id":"levelo_inurba_marseille","lat":43.243884,"lon":5.370736,"is_reserved":false,"is_disabled":false,"rental_uris":{"android":"levelo://app?vid=d88d962f-4eae-456a-912d-fe299f30fb01","ios":"levelo://app?vid=d88d962f-4eae-456a-912d-fe299f30fb01"},"vehicle_type_id":"4","last_reported":1679155703,"current_range_meters":20800,"station_id":"ce4bhhh2rcd13ifvqfk0","pricing_plan_id":"free"},{"bike_id":"da38e8e5-f062-440b-86bb-226b39609a69","system_id":"levelo_inurba_marseille","lat":43.287526,"lon":5.458848,"is_reserved":false,"is_disabled":false,"rental_uris":{"android":"levelo://app?vid=da38e8e5-f062-440b-86bb-226b39609a69","ios":"levelo://app?vid=da38e8e5-f062-440b-86bb-226b39609a69"},"vehicle_type_id":"4","last_reported":1679155703,"current_range_meters":0,"station_id":"","pricing_plan_id":"free"},{"bike_id":"1405e1b5-ea6b-437e-8568-056654c484a1","system_id":"levelo_inurba_marseille","lat":43.241,"lon":5.37738,"is_reserved":false,"is_disabled":false,"rental_uris":{"android":"levelo://app?vid=1405e1b5-ea6b-437e-8568-056654c484a1","ios":"levelo://app?vid=1405e1b5-ea6b-437e-8568-056654c484a1"},"vehicle_type_id":"4","last_reported":1679155703,"current_range_meters":5200,"station_id":"","pricing_plan_id":"free"},{"bike_id":"77800063-d00a-4522-9222-b8d7fdda693b","system_id":"levelo_inurba_marseille","lat":43.24075,"lon":5.37762,"is_reserved":false,"is_disabled":false,"rental_uris":{"android":"levelo://app?vid=77800063-d00a-4522-9222-b8d7fdda693b","ios":"levelo://app?vid=77800063-d00a-4522-9222-b8d7fdda693b"},"vehicle_type_id":"4","last_reported":1679155703,"current_range_meters":30800,"station_id":"ce4bhnp2rcd13ifvqgvg","pricing_plan_id":"free"},{"bike_id":"5521ec33-ee6d-49f4-9471-d24cf70bcd7b","system_id":"levelo_inurba_marseille","lat":43.240623,"lon":5.377642,"is_reserved":false,"is_disabled":false,"rental_uris":{"android":"levelo://app?vid=5521ec33-ee6d-49f4-9471-d24cf70bcd7b","ios":"levelo://app?vid=5521ec33-ee6d-49f4-9471-d24cf70bcd7b"},"vehicle_type_id":"4","last_reported":1679155703,"current_range_meters":31200,"station_id":"ce4bhnp2rcd13ifvqgvg","pricing_plan_id":"free"},{"bike_id":"c03daf93-bd02-4eae-9c2b-09e471aa7c7a","system_id":"levelo_inurba_marseille","lat":43.240623,"lon":5.377642,"is_reserved":false,"is_disabled":false,"rental_uris":{"android":"levelo://app?vid=c03daf93-bd02-4eae-9c2b-09e471aa7c7a","ios":"levelo://app?vid=c03daf93-bd02-4eae-9c2b-09e471aa7c7a"},"vehicle_type_id":"4","last_reported":1679155703,"current_range_meters":13600,"station_id":"ce4bhnp2rcd13ifvqgvg","pricing_plan_id":"free"},{"bike_id":"e3d8335d-9a0d-4ba0-b42b-7349ec611a7a","system_id":"levelo_inurba_marseille","lat":43.240737,"lon":5.37754,"is_reserved":false,"is_disabled":false,"rental_uris":{"android":"levelo://app?vid=e3d8335d-9a0d-4ba0-b42b-7349ec611a7a","ios":"levelo://app?vid=e3d8335d-9a0d-4ba0-b42b-7349ec611a7a"},"vehicle_type_id":"4","last_reported":1679155703,"current_range_meters":31600,"station_id":"","pricing_plan_id":"free"},{"bike_id":"e2b39f61-a433-4fea-8ef4-f9a8742713b8","system_id":"levelo_inurba_marseille","lat":43.2407,"lon":5.377517,"is_reserved":false,"is_disabled":false,"rental_uris":{"android":"levelo://app?vid=e2b39f61-a433-4fea-8ef4-f9a8742713b8","ios":"levelo://app?vid=e2b39f61-a433-4fea-8ef4-f9a8742713b8"},"vehicle_type_id":"4","last_reported":1679155703,"current_range_meters":31600,"station_id":"","pricing_plan_id":"free"},{"bike_id":"846dbdbf-a278-4fe5-b946-da27fdc12387","system_id":"levelo_inurba_marseille","lat":43.240623,"lon":5.377642,"is_reserved":false,"is_disabled":false,"rental_uris":{"android":"levelo://app?vid=846dbdbf-a278-4fe5-b946-da27fdc12387","ios":"levelo://app?vid=846dbdbf-a278-4fe5-b946-da27fdc12387"},"vehicle_type_id":"4","last_reported":1679155703,"current_range_meters":30800,"station_id":"ce4bhnp2rcd13ifvqgvg","pricing_plan_id":"free"},{"bike_id":"2dc6c64b-a336-4241-b75a-c19c36648900","system_id":"levelo_inurba_marseille","lat":43.2407,"lon":5.37763,"is_reserved":false,"is_disabled":false,"rental_uris":{"android":"levelo://app?vid=2dc6c64b-a336-4241-b75a-c19c36648900","ios":"levelo://app?vid=2dc6c64b-a336-4241-b75a-c19c36648900"},"vehicle_type_id":"4","last_reported":1679155703,"current_range_meters":18000,"station_id":"","pricing_plan_id":"free"},{"bike_id":"279a8a3c-473a-4b2b-887d-da9c9a7a6407","system_id":"levelo_inurba_marseille","lat":43.239588,"lon":5.366238,"is_reserved":false,"is_disabled":false,"rental_uris":{"android":"levelo://app?vid=279a8a3c-473a-4b2b-887d-da9c9a7a6407","ios":"levelo://app?vid=279a8a3c-473a-4b2b-887d-da9c9a7a6407"},"vehicle_type_id":"4","last_reported":1679155703,"current_range_meters":17200,"station_id":"ce4bhi12rcd13ifvqfp0","pricing_plan_id":"free"},{"bike_id":"54e5e0da-f815-4cda-9bd8-82b26ea77b54","system_id":"levelo_inurba_marseille","lat":43.239588,"lon":5.366238,"is_reserved":false,"is_disabled":false,"rental_uris":{"android":"levelo://app?vid=54e5e0da-f815-4cda-9bd8-82b26ea77b54","ios":"levelo://app?vid=54e5e0da-f815-4cda-9bd8-82b26ea77b54"},"vehicle_type_id":"4","last_reported":1679155703,"current_range_meters":27600,"station_id":"ce4bhi12rcd13ifvqfp0","pricing_plan_id":"free"},{"bike_id":"9cd938eb-3184-4519-8d0f-15b96744401e","system_id":"levelo_inurba_marseille","lat":43.239588,"lon":5.366238,"is_reserved":false,"is_disabled":false,"rental_uris":{"android":"levelo://app?vid=9cd938eb-3184-4519-8d0f-15b96744401e","ios":"levelo://app?vid=9cd938eb-3184-4519-8d0f-15b96744401e"},"vehicle_type_id":"4","last_reported":1679155703,"current_range_meters":30400,"station_id":"ce4bhi12rcd13ifvqfp0","pricing_plan_id":"free"},{"bike_id":"2883347b-890d-45a6-bd8b-232ff03cec1c","system_id":"levelo_inurba_marseille","lat":43.241782,"lon":5.397264,"is_reserved":false,"is_disabled":false,"rental_uris":{"android":"levelo://app?vid=2883347b-890d-45a6-bd8b-232ff03cec1c","ios":"levelo://app?vid=2883347b-890d-45a6-bd8b-232ff03cec1c"},"vehicle_type_id":"4","last_reported":1679155703,"current_range_meters":24000,"station_id":"ce4bhn12rcd13ifvqgpg","pricing_plan_id":"free"},{"bike_id":"31785a66-9b6e-4896-add8-797a882dfd6f","system_id":"levelo_inurba_marseille","lat":43.24171,"lon":5.39719,"is_reserved":false,"is_disabled":false,"rental_uris":{"android":"levelo://app?vid=31785a66-9b6e-4896-add8-797a882dfd6f","ios":"levelo://app?vid=31785a66-9b6e-4896-add8-797a882dfd6f"},"vehicle_type_id":"4","last_reported":1679155703,"current_range_meters":400,"station_id":"","pricing_plan_id":"free"},{"bike_id":"7b13c13a-44fa-40fa-ab03-1d29de1489cf","system_id":"levelo_inurba_marseille","lat":43.231923,"lon":5.355545,"is_reserved":false,"is_disabled":false,"rental_uris":{"android":"levelo://app?vid=7b13c13a-44fa-40fa-ab03-1d29de1489cf","ios":"levelo://app?vid=7b13c13a-44fa-40fa-ab03-1d29de1489cf"},"vehicle_type_id":"4","last_reported":1679155703,"current_range_meters":28400,"station_id":"ce4bhu92rcd13ifvqi70","pricing_plan_id":"free"},{"bike_id":"935251d3-4381-45fc-85ec-ba6bb5a6dc47","system_id":"levelo_inurba_marseille","lat":43.231923,"lon":5.355545,"is_reserved":false,"is_disabled":false,"rental_uris":{"android":"levelo://app?vid=935251d3-4381-45fc-85ec-ba6bb5a6dc47","ios":"levelo://app?vid=935251d3-4381-45fc-85ec-ba6bb5a6dc47"},"vehicle_type_id":"4","last_reported":1679155703,"current_range_meters":15200,"station_id":"ce4bhu92rcd13ifvqi70","pricing_plan_id":"free"},{"bike_id":"078618f9-0654-48bf-974d-d31c66ba8bcb","system_id":"levelo_inurba_marseille","lat":43.231923,"lon":5.355545,"is_reserved":false,"is_disabled":false,"rental_uris":{"android":"levelo://app?vid=078618f9-0654-48bf-974d-d31c66ba8bcb","ios":"levelo://app?vid=078618f9-0654-48bf-974d-d31c66ba8bcb"},"vehicle_type_id":"4","last_reported":1679155703,"current_range_meters":24400,"station_id":"ce4bhu92rcd13ifvqi70","pricing_plan_id":"free"},{"bike_id":"e3347d9b-f160-43be-9869-18acf0f0b44a","system_id":"levelo_inurba_marseille","lat":43.231923,"lon":5.355545,"is_reserved":false,"is_disabled":false,"rental_uris":{"android":"levelo://app?vid=e3347d9b-f160-43be-9869-18acf0f0b44a","ios":"levelo://app?vid=e3347d9b-f160-43be-9869-18acf0f0b44a"},"vehicle_type_id":"4","last_reported":1679155703,"current_range_meters":16400,"station_id":"ce4bhu92rcd13ifvqi70","pricing_plan_id":"free"},{"bike_id":"503657a1-e269-432d-b6c0-6475b93e4245","system_id":"levelo_inurba_marseille","lat":43.231923,"lon":5.355545,"is_reserved":false,"is_disabled":false,"rental_uris":{"android":"levelo://app?vid=503657a1-e269-432d-b6c0-6475b93e4245","ios":"levelo://app?vid=503657a1-e269-432d-b6c0-6475b93e4245"},"vehicle_type_id":"4","last_reported":1679155703,"current_range_meters":27600,"station_id":"ce4bhu92rcd13ifvqi70","pricing_plan_id":"free"},{"bike_id":"5f0523fb-e51d-4739-915c-60ca37111af3","system_id":"levelo_inurba_marseille","lat":43.231923,"lon":5.355545,"is_reserved":false,"is_disabled":false,"rental_uris":{"android":"levelo://app?vid=5f0523fb-e51d-4739-915c-60ca37111af3","ios":"levelo://app?vid=5f0523fb-e51d-4739-915c-60ca37111af3"},"vehicle_type_id":"4","last_reported":1679155703,"current_range_meters":21600,"station_id":"ce4bhu92rcd13ifvqi70","pricing_plan_id":"free"},{"bike_id":"58573939-0d07-4f8d-8422-6654926c6d8e","system_id":"levelo_inurba_marseille","lat":43.231923,"lon":5.355545,"is_reserved":false,"is_disabled":false,"rental_uris":{"android":"levelo://app?vid=58573939-0d07-4f8d-8422-6654926c6d8e","ios":"levelo://app?vid=58573939-0d07-4f8d-8422-6654926c6d8e"},"vehicle_type_id":"4","last_reported":1679155703,"current_range_meters":19600,"station_id":"ce4bhu92rcd13ifvqi70","pricing_plan_id":"free"},{"bike_id":"c4a765e8-1981-4501-b559-fd423b924ef4","system_id":"levelo_inurba_marseille","lat":43.231923,"lon":5.355545,"is_reserved":false,"is_disabled":false,"rental_uris":{"android":"levelo://app?vid=c4a765e8-1981-4501-b559-fd423b924ef4","ios":"levelo://app?vid=c4a765e8-1981-4501-b559-fd423b924ef4"},"vehicle_type_id":"4","last_reported":1679155703,"current_range_meters":17200,"station_id":"ce4bhu92rcd13ifvqi70","pricing_plan_id":"free"},{"bike_id":"956fe110-a343-4414-91a1-6e3d50bfa094","system_id":"levelo_inurba_marseille","lat":43.231923,"lon":5.355545,"is_reserved":false,"is_disabled":false,"rental_uris":{"android":"levelo://app?vid=956fe110-a343-4414-91a1-6e3d50bfa094","ios":"levelo://app?vid=956fe110-a343-4414-91a1-6e3d50bfa094"},"vehicle_type_id":"4","last_reported":1679155703,"current_range_meters":31600,"station_id":"ce4bhu92rcd13ifvqi70","pricing_plan_id":"free"},{"bike_id":"ff98316f-748f-4069-a942-b27635abd352","system_id":"levelo_inurba_marseille","lat":43.231923,"lon":5.355545,"is_reserved":false,"is_disabled":false,"rental_uris":{"android":"levelo://app?vid=ff98316f-748f-4069-a942-b27635abd352","ios":"levelo://app?vid=ff98316f-748f-4069-a942-b27635abd352"},"vehicle_type_id":"4","last_reported":1679155703,"current_range_meters":32000,"station_id":"ce4bhu92rcd13ifvqi70","pricing_plan_id":"free"},{"bike_id":"0010ebe6-0da4-49c8-96ff-1cfa6d1925a0","system_id":"levelo_inurba_marseille","lat":43.231926,"lon":5.355582,"is_reserved":false,"is_disabled":false,"rental_uris":{"android":"levelo://app?vid=0010ebe6-0da4-49c8-96ff-1cfa6d1925a0","ios":"levelo://app?vid=0010ebe6-0da4-49c8-96ff-1cfa6d1925a0"},"vehicle_type_id":"4","last_reported":1679155703,"current_range_meters":27600,"station_id":"ce4bhu92rcd13ifvqi70","pricing_plan_id":"free"},{"bike_id":"b9f6f4f0-f36b-4f70-8715-1fede5862196","system_id":"levelo_inurba_marseille","lat":43.231926,"lon":5.355527,"is_reserved":false,"is_disabled":false,"rental_uris":{"android":"levelo://app?vid=b9f6f4f0-f36b-4f70-8715-1fede5862196","ios":"levelo://app?vid=b9f6f4f0-f36b-4f70-8715-1fede5862196"},"vehicle_type_id":"4","last_reported":1679155703,"current_range_meters":30800,"station_id":"","pricing_plan_id":"free"},{"bike_id":"d0864989-d7b0-45a1-a248-662c5fd3813d","system_id":"levelo_inurba_marseille","lat":43.231923,"lon":5.355572,"is_reserved":false,"is_disabled":false,"rental_uris":{"android":"levelo://app?vid=d0864989-d7b0-45a1-a248-662c5fd3813d","ios":"levelo://app?vid=d0864989-d7b0-45a1-a248-662c5fd3813d"},"vehicle_type_id":"4","last_reported":1679155703,"current_range_meters":26400,"station_id":"ce4bhu92rcd13ifvqi70","pricing_plan_id":"free"},{"bike_id":"b6775b1d-017b-45fd-b96a-1d778f076ef0","system_id":"levelo_inurba_marseille","lat":43.231927,"lon":5.355489,"is_reserved":false,"is_disabled":false,"rental_uris":{"android":"levelo://app?vid=b6775b1d-017b-45fd-b96a-1d778f076ef0","ios":"levelo://app?vid=b6775b1d-017b-45fd-b96a-1d778f076ef0"},"vehicle_type_id":"4","last_reported":1679155703,"current_range_meters":31600,"station_id":"ce4bhu92rcd13ifvqi70","pricing_plan_id":"free"},{"bike_id":"5c296cfe-bb42-4ddc-9604-9304ff266475","system_id":"levelo_inurba_marseille","lat":43.231923,"lon":5.355524,"is_reserved":false,"is_disabled":false,"rental_uris":{"android":"levelo://app?vid=5c296cfe-bb42-4ddc-9604-9304ff266475","ios":"levelo://app?vid=5c296cfe-bb42-4ddc-9604-9304ff266475"},"vehicle_type_id":"4","last_reported":1679155703,"current_range_meters":31600,"station_id":"","pricing_plan_id":"free"},{"bike_id":"9396a642-8421-4ca9-b20d-a2492104caf9","system_id":"levelo_inurba_marseille","lat":43.231921,"lon":5.355542,"is_reserved":false,"is_disabled":false,"rental_uris":{"android":"levelo://app?vid=9396a642-8421-4ca9-b20d-a2492104caf9","ios":"levelo://app?vid=9396a642-8421-4ca9-b20d-a2492104caf9"},"vehicle_type_id":"4","last_reported":1679155703,"current_range_meters":31600,"station_id":"","pricing_plan_id":"free"},{"bike_id":"beaf722f-8cce-48cc-9f08-62b9af3ed634","system_id":"levelo_inurba_marseille","lat":43.231911,"lon":5.355537,"is_reserved":false,"is_disabled":false,"rental_uris":{"android":"levelo://app?vid=beaf722f-8cce-48cc-9f08-62b9af3ed634","ios":"levelo://app?vid=beaf722f-8cce-48cc-9f08-62b9af3ed634"},"vehicle_type_id":"4","last_reported":1679155703,"current_range_meters":25600,"station_id":"","pricing_plan_id":"free"}]}}