{"last_updated":1751407809,"ttl":60,"version":"2.2","data":{"bikes":[{"bike_id":"3da29fb8-fc97-44c6-b9ac-31dd456b2fd4","system_id":"levelo_inurba_marseille","lat":43.33771,"lon":5.37424,"is_reserved":false,"is_disabled":true,"rental_uris":{"android":"levelo://app?vid=3da29fb8-fc97-44c6-b9ac-31dd456b2fd4","ios":"levelo://app?vid=3da29fb8-fc97-44c6-b9ac-31dd456b2fd4"},"vehicle_type_id":"4","last_reported":1751407809,"current_range_meters":0,"station_id":"","pricing_plan_id":"cebpf4jnsgd1na2vs0mg"},{"bike_id":"01861ad8-a8d7-4be6-816e-651927c87584","system_id":"levelo_inurba_marseille","lat":43.33751,"lon":5.37456,"is_reserved":false,"is_disabled":true,"rental_uris":{"android":"levelo://app?vid=01861ad8-a8d7-4be6-816e-651927c87584","ios":"levelo://app?vid=01861ad8-a8d7-4be6-816e-651927c87584"},"vehicle_type_id":"4","last_reported":1751407809,"current_range_meters":0,"station_id":"","pricing_plan_id":"cebpf4jnsgd1na2vs0mg"},{"bike_id":"3035be0e-7c3d-4f7d-a1cb-7a1af59e497b","system_id":"levelo_inurba_marseille","lat":43.298431,"lon":5.362877,"is_reserved":false,"is_disabled":false,"rental_uris":{"android":"levelo://app?vid=3035be0e-7c3d-4f7d-a1cb-7a1af59e497b","ios":"levelo://app?vid=3035be0e-7c3d-4f7d-a1cb-7a1af59e497b"},"vehicle_type_id":"4","last_reported":1751407809,"current_range_meters":0,"station_id":"","pricing_plan_id":"cebpf4jnsgd1na2vs0mg"},{"bike_id":"3168b9fb-97d2-4a0e-b7ee-673bb8cf7525","system_id":"levelo_inurba_marseille","lat":43.27766,"lon":5.3557,"is_reserved":false,"is_disabled":true,"rental_uris":{"android":"levelo://app?vid=3168b9fb-97d2-4a0e-b7ee-673bb8cf7525","ios":"levelo://app?vid=3168b9fb-97d2-4a0e-b7ee-673bb8cf7525"},"vehicle_type_id":"4","last_reported":1751407809,"current_range_meters":0,"station_id":"","pricing_plan_id":"cebpf4jnsgd1na2vs0mg"},{"bike_id":"d9ff6e9f-639f-40d8-85fa-0d0a1ef2cd49","system_id":"levelo_inurba_marseille","lat":43.269382,"lon":5.402714,"is_reserved":false,"is_disabled":true,"rental_uris":{"android":"levelo://app?vid=d9ff6e9f-639f-40d8-85fa-0d0a1ef2cd49","ios":"levelo://app?vid=d9ff6e9f-639f-40d8-85fa-0d0a1ef2cd49"},"vehicle_type_id":"4","last_reported":1751407809,"current_range_meters":0,"station_id":"","pricing_plan_id":"cebpf4jnsgd1na2vs0mg"},{"bike_id":"a0c739b7-33d0-407a-9ce5-2e701bb7e0fe","system_id":"levelo_inurba_marseille","lat":43.26992,"lon":5.43154,"is_reserved":false,"is_disabled":true,"rental_uris":{"android":"levelo://app?vid=a0c739b7-33d0-407a-9ce5-2e701bb7e0fe","ios":"levelo://app?vid=a0c739b7-33d0-407a-9ce5-2e701bb7e0fe"},"vehicle_type_id":"4","last_reported":1751407809,"current_range_meters":0,"station_id":"","pricing_plan_id":"cebpf4jnsgd1na2vs0mg"},{"bike_id":"a0fee4a0-d255-44d8-85d9-fd32ba974a7f","system_id":"levelo_inurba_marseille","lat":43.24706,"lon":5.40265,"is_reserved":false,"is_disabled":true,"rental_uris":{"android":"levelo://app?vid=a0fee4a0-d255-44d8-85d9-fd32ba974a7f","ios":"levelo://app?vid=a0fee4a0-d255-44d8-85d9-fd32ba974a7f"},"vehicle_type_id":"4","last_reported":1751407809,"current_range_meters":0,"station_id":"","pricing_plan_id":"cebpf4jnsgd1na2vs0mg"},{"bike_id":"3378c13c-e4e0-45be-9bfe-f3a4bc2c600e","system_id":"levelo_inurba_marseille","lat":43.29767,"lon":5.46022,"is_reserved":false,"is_disabled":true,"rental_uris":{"android":"levelo://app?vid=3378c13c-e4e0-45be-9bfe-f3a4bc2c600e","ios":"levelo://app?vid=3378c13c-e4e0-45be-9bfe-f3a4bc2c600e"},"vehicle_type_id":"4","last_reported":1751407809,"current_range_meters":0,"station_id":"","pricing_plan_id":"cebpf4jnsgd1na2vs0mg"},{"bike_id":"2ccccc82-c8a9-4c3b-909d-52c0bf697aa3","system_id":"levelo_inurba_marseille","lat":43.27599,"lon":5.3589,"is_reserved":false,"is_disabled":true,"rental_uris":{"android":"levelo://app?vid=2ccccc82-c8a9-4c3b-909d-52c0bf697aa3","ios":"levelo://app?vid=2ccccc82-c8a9-4c3b-909d-52c0bf697aa3"},"vehicle_type_id":"4","last_reported":1751407809,"current_range_meters":0,"station_id":"","pricing_plan_id":"cebpf4jnsgd1na2vs0mg"},{"bike_id":"c9700359-7f1e-4ea5-8eb5-d9c4ea1b8ef7","system_id":"levelo_inurba_marseille","lat":43.26324,"lon":5.37374,"is_reserved":false,"is_disabled":true,"rental_uris":{"android":"levelo://app?vid=c9700359-7f1e-4ea5-8eb5-d9c4ea1b8ef7","ios":"levelo://app?vid=c9700359-7f1e-4ea5-8eb5-d9c4ea1b8ef7"},"vehicle_type_id":"4","last_reported":1751407809,"current_range_meters":0,"station_id":"","pricing_plan_id":"cebpf4jnsgd1na2vs0mg"},{"bike_id":"95c69415-2845-4124-9fbc-8e2f89cb3a35","system_id":"levelo_inurba_marseille","lat":43.337444,"lon":5.374475,"is_reserved":false,"is_disabled":true,"rental_uris":{"android":"levelo://app?vid=95c69415-2845-4124-9fbc-8e2f89cb3a35","ios":"levelo://app?vid=95c69415-2845-4124-9fbc-8e2f89cb3a35"},"vehicle_type_id":"4","last_reported":1751407809,"current_range_meters":0,"station_id":"ce4bgh92rcd13ifvqb40","pricing_plan_id":"cebpf4jnsgd1na2vs0mg"},{"bike_id":"001b9d68-4d46-4294-9568-80b2dd5d5682","system_id":"levelo_inurba_marseille","lat":43.3064,"lon":5.40066,"is_reserved":false,"is_disabled":true,"rental_uris":{"android":"levelo://app?vid=001b9d68-4d46-4294-9568-80b2dd5d5682","ios":"levelo://app?vid=001b9d68-4d46-4294-9568-80b2dd5d5682"},"vehicle_type_id":"4","last_reported":1751407809,"current_range_meters":0,"station_id":"ce4bh112rcd13ifvqda0","pricing_plan_id":"cebpf4jnsgd1na2vs0mg"},{"bike_id":"f6790789-5c16-4a33-b3f0-d00217e07a22","system_id":"levelo_inurba_marseille","lat":43.294023,"lon":5.386583,"is_reserved":false,"is_disabled":true,"rental_uris":{"android":"levelo://app?vid=f6790789-5c16-4a33-b3f0-d00217e07a22","ios":"levelo://app?vid=f6790789-5c16-4a33-b3f0-d00217e07a22"},"vehicle_type_id":"4","last_reported":1751407809,"current_range_meters":0,"station_id":"ce4bh2h2rcd13ifvqdh0","pricing_plan_id":"cebpf4jnsgd1na2vs0mg"},{"bike_id":"895941f9-b05d-43ee-8ddb-2130ddf33e63","system_id":"levelo_inurba_marseille","lat":43.27836,"lon":5.392117,"is_reserved":false,"is_disabled":true,"rental_uris":{"android":"levelo://app?vid=895941f9-b05d-43ee-8ddb-2130ddf33e63","ios":"levelo://app?vid=895941f9-b05d-43ee-8ddb-2130ddf33e63"},"vehicle_type_id":"4","last_reported":1751407809,"current_range_meters":0,"station_id":"ce4bhjp2rcd13ifvqga0","pricing_plan_id":"cebpf4jnsgd1na2vs0mg"},{"bike_id":"eb8a719b-f1b3-4d6e-8d7a-9660d9c58538","system_id":"levelo_inurba_marseille","lat":43.25721,"lon":5.41113,"is_reserved":false,"is_disabled":true,"rental_uris":{"android":"levelo://app?vid=eb8a719b-f1b3-4d6e-8d7a-9660d9c58538","ios":"levelo://app?vid=eb8a719b-f1b3-4d6e-8d7a-9660d9c58538"},"vehicle_type_id":"4","last_reported":1751407809,"current_range_meters":0,"station_id":"ce4bhkp2rcd13ifvqgd0","pricing_plan_id":"cebpf4jnsgd1na2vs0mg"},{"bike_id":"8b2ec164-f57a-497a-b2b8-d90ab00b8a1c","system_id":"levelo_inurba_marseille","lat":43.25113,"lon":5.40326,"is_reserved":false,"is_disabled":true,"rental_uris":{"android":"levelo://app?vid=8b2ec164-f57a-497a-b2b8-d90ab00b8a1c","ios":"levelo://app?vid=8b2ec164-f57a-497a-b2b8-d90ab00b8a1c"},"vehicle_type_id":"4","last_reported":1751407809,"current_range_meters":0,"station_id":"ce4bhlh2rcd13ifvqgig","pricing_plan_id":"cebpf4jnsgd1na2vs0mg"},{"bike_id":"cb45a744-dc14-41bc-b91c-6a81e46d44f3","system_id":"levelo_inurba_marseille","lat":43.32341,"lon":5.4062,"is_reserved":false,"is_disabled":true,"rental_uris":{"android":"levelo://app?vid=cb45a744-dc14-41bc-b91c-6a81e46d44f3","ios":"levelo://app?vid=cb45a744-dc14-41bc-b91c-6a81e46d44f3"},"vehicle_type_id":"4","last_reported":1751407809,"current_range_meters":0,"station_id":"ce4bhq92rcd13ifvqhjg","pricing_plan_id":"cebpf4jnsgd1na2vs0mg"},{"bike_id":"6346854d-967c-470e-9bcf-0ee9cbb31745","system_id":"levelo_inurba_marseille","lat":43.26937,"lon":5.42027,"is_reserved":false,"is_disabled":true,"rental_uris":{"android":"levelo://app?vid=6346854d-967c-470e-9bcf-0ee9cbb31745","ios":"levelo://app?vid=6346854d-967c-470e-9bcf-0ee9cbb31745"},"vehicle_type_id":"4","last_reported":1751407809,"current_range_meters":800,"station_id":"","pricing_plan_id":"cebpf4jnsgd1na2vs0mg"},{"bike_id":"23dabb6a-b30f-4115-84e2-e0e3be07c95c","system_id":"levelo_inurba_marseille","lat":43.26371,"lon":5.37819,"is_reserved":false,"is_disabled":true,"rental_uris":{"android":"levelo://app?vid=23dabb6a-b30f-4115-84e2-e0e3be07c95c","ios":"levelo://app?vid=23dabb6a-b30f-4115-84e2-e0e3be07c95c"},"vehicle_type_id":"4","last_reported":1751407809,"current_range_meters":800,"station_id":"","pricing_plan_id":"cebpf4jnsgd1na2vs0mg"},{"bike_id":"5df883ee-e31d-484c-a69e-99c57e05c372","system_id":"levelo_inurba_marseille","lat":43.31711,"lon":5.4371,"is_reserved":false,"is_disabled":true,"rental_uris":{"android":"levelo://app?vid=5df883ee-e31d-484c-a69e-99c57e05c372","ios":"levelo://app?vid=5df883ee-e31d-484c-a69e-99c57e05c372"},"vehicle_type_id":"4","last_reported":1751407809,"current_range_meters":800,"station_id":"ce4bhp92rcd13ifvqhcg","pricing_plan_id":"cebpf4jnsgd1na2vs0mg"},{"bike_id":"7547e1e4-2d85-4907-971d-6c8e5c4cb529","system_id":"levelo_inurba_marseille","lat":43.25374,"lon":5.37501,"is_reserved":false,"is_disabled":true,"rental_uris":{"android":"levelo://app?vid=7547e1e4-2d85-4907-971d-6c8e5c4cb529","ios":"levelo://app?vid=7547e1e4-2d85-4907-971d-6c8e5c4cb529"},"vehicle_type_id":"4","last_reported":1751407809,"current_range_meters":1200,"station_id":"","pricing_plan_id":"cebpf4jnsgd1na2vs0mg"},{"bike_id":"618df8c3-f1dd-4eb0-994d-43848ec171ec","system_id":"levelo_inurba_marseille","lat":43.26557,"lon":5.37286,"is_reserved":false,"is_disabled":true,"rental_uris":{"android":"levelo://app?vid=618df8c3-f1dd-4eb0-994d-43848ec171ec","ios":"levelo://app?vid=618df8c3-f1dd-4eb0-994d-43848ec171ec"},"vehicle_type_id":"4","last_reported":1751407809,"current_range_meters":1200,"station_id":"ce4bhg12rcd13ifvqf70","pricing_plan_id":"cebpf4jnsgd1na2vs0mg"},{"bike_id":"093aeb85-c7d1-4afe-ab35-70c9d95038fb","system_id":"levelo_inurba_marseille","lat":43.27061,"lon":5.40281,"is_reserved":false,"is_disabled":true,"rental_uris":{"android":"levelo://app?vid=093aeb85-c7d1-4afe-ab35-70c9d95038fb","ios":"levelo://app?vid=093aeb85-c7d1-4afe-ab35-70c9d95038fb"},"vehicle_type_id":"4","last_reported":1751407809,"current_range_meters":1200,"station_id":"ce4bhk92rcd13ifvqgc0","pricing_plan_id":"cebpf4jnsgd1na2vs0mg"},{"bike_id":"20717010-0a59-4c58-9ada-dfa3894b4c24","system_id":"levelo_inurba_marseille","lat":43.29433,"lon":5.39759,"is_reserved":false,"is_disabled":true,"rental_uris":{"android":"levelo://app?vid=20717010-0a59-4c58-9ada-dfa3894b4c24","ios":"levelo://app?vid=20717010-0a59-4c58-9ada-dfa3894b4c24"},"vehicle_type_id":"4","last_reported":1751407809,"current_range_meters":1600,"station_id":"ce4bh3h2rcd13ifvqdo0","pricing_plan_id":"cebpf4jnsgd1na2vs0mg"},{"bike_id":"1d8797d4-76ae-4c94-9b6b-ae11f19a0454","system_id":"levelo_inurba_marseille","lat":43.30936,"lon":5.40143,"is_reserved":false,"is_disabled":true,"rental_uris":{"android":"levelo://app?vid=1d8797d4-76ae-4c94-9b6b-ae11f19a0454","ios":"levelo://app?vid=1d8797d4-76ae-4c94-9b6b-ae11f19a0454"},"vehicle_type_id":"4","last_reported":1751407809,"current_range_meters":2000,"station_id":"ce4bgvp2rcd13ifvqct0","pricing_plan_id":"cebpf4jnsgd1na2vs0mg"},{"bike_id":"668b5475-92e4-451d-a0fe-86f54d0cfbc8","system_id":"levelo_inurba_marseille","lat":43.30638,"lon":5.40078,"is_reserved":false,"is_disabled":false,"rental_uris":{"android":"levelo://app?vid=668b5475-92e4-451d-a0fe-86f54d0cfbc8","ios":"levelo://app?vid=668b5475-92e4-451d-a0fe-86f54d0cfbc8"},"vehicle_type_id":"4","last_reported":1751407809,"current_range_meters":2000,"station_id":"ce4bh112rcd13ifvqda0","pricing_plan_id":"cebpf4jnsgd1na2vs0mg"},{"bike_id":"7bbeae8d-d73c-4608-a9dc-8755de62de8c","system_id":"levelo_inurba_marseille","lat":43.31279,"lon":5.4017,"is_reserved":false,"is_disabled":false,"rental_uris":{"android":"levelo://app?vid=7bbeae8d-d73c-4608-a9dc-8755de62de8c","ios":"levelo://app?vid=7bbeae8d-d73c-4608-a9dc-8755de62de8c"},"vehicle_type_id":"4","last_reported":1751407809,"current_range_meters":3200,"station_id":"ce4bh092rcd13ifvqd30","pricing_plan_id":"cebpf4jnsgd1na2vs0mg"},{"bike_id":"cec83254-79e3-4c45-a463-aa4a696c22f3","system_id":"levelo_inurba_marseille","lat":43.278083,"lon":5.406968,"is_reserved":false,"is_disabled":false,"rental_uris":{"android":"levelo://app?vid=cec83254-79e3-4c45-a463-aa4a696c22f3","ios":"levelo://app?vid=cec83254-79e3-4c45-a463-aa4a696c22f3"},"vehicle_type_id":"4","last_reported":1751407809,"current_range_meters":3200,"station_id":"ce4bhnh2rcd13ifvqgtg","pricing_plan_id":"cebpf4jnsgd1na2vs0mg"},{"bike_id":"897cf961-b80d-4642-b6bb-094974cfb42f","system_id":"levelo_inurba_marseille","lat":43.28445,"lon":5.39188,"is_reserved":false,"is_disabled":false,"rental_uris":{"android":"levelo://app?vid=897cf961-b80d-4642-b6bb-094974cfb42f","ios":"levelo://app?vid=897cf961-b80d-4642-b6bb-094974cfb42f"},"vehicle_type_id":"4","last_reported":1751407809,"current_range_meters":3200,"station_id":"ce4bhoh2rcd13ifvqh5g","pricing_plan_id":"cebpf4jnsgd1na2vs0mg"},{"bike_id":"15458354-1b6f-485f-827c-e60834683945","system_id":"levelo_inurba_marseille","lat":43.28671,"lon":5.36344,"is_reserved":false,"is_disabled":false,"rental_uris":{"android":"levelo://app?vid=15458354-1b6f-485f-827c-e60834683945","ios":"levelo://app?vid=15458354-1b6f-485f-827c-e60834683945"},"vehicle_type_id":"4","last_reported":1751407809,"current_range_meters":3600,"station_id":"ce4bhah2rcd13ifvqej0","pricing_plan_id":"cebpf4jnsgd1na2vs0mg"},{"bike_id":"4b4d3396-2a94-40e6-b9a3-cc9e9b6be6c1","system_id":"levelo_inurba_marseille","lat":43.26551,"lon":5.37289,"is_reserved":false,"is_disabled":false,"rental_uris":{"android":"levelo://app?vid=4b4d3396-2a94-40e6-b9a3-cc9e9b6be6c1","ios":"levelo://app?vid=4b4d3396-2a94-40e6-b9a3-cc9e9b6be6c1"},"vehicle_type_id":"4","last_reported":1751407809,"current_range_meters":3600,"station_id":"ce4bhg12rcd13ifvqf70","pricing_plan_id":"cebpf4jnsgd1na2vs0mg"},{"bike_id":"855fdc8d-18be-4122-99d4-271aaa5d6f18","system_id":"levelo_inurba_marseille","lat":43.25106,"lon":5.40327,"is_reserved":false,"is_disabled":false,"rental_uris":{"android":"levelo://app?vid=855fdc8d-18be-4122-99d4-271aaa5d6f18","ios":"levelo://app?vid=855fdc8d-18be-4122-99d4-271aaa5d6f18"},"vehicle_type_id":"4","last_reported":1751407809,"current_range_meters":3600,"station_id":"ce4bhlh2rcd13ifvqgig","pricing_plan_id":"cebpf4jnsgd1na2vs0mg"},{"bike_id":"162af4e6-d224-4240-aeac-6cb0ae06de53","system_id":"levelo_inurba_marseille","lat":43.2991,"lon":5.37839,"is_reserved":false,"is_disabled":false,"rental_uris":{"android":"levelo://app?vid=162af4e6-d224-4240-aeac-6cb0ae06de53","ios":"levelo://app?vid=162af4e6-d224-4240-aeac-6cb0ae06de53"},"vehicle_type_id":"4","last_reported":1751407809,"current_range_meters":4000,"station_id":"","pricing_plan_id":"cebpf4jnsgd1na2vs0mg"},{"bike_id":"55fe1fc3-6542-4dfc-b0a9-b5dc3cd50393","system_id":"levelo_inurba_marseille","lat":43.3093,"lon":5.40139,"is_reserved":false,"is_disabled":false,"rental_uris":{"android":"levelo://app?vid=55fe1fc3-6542-4dfc-b0a9-b5dc3cd50393","ios":"levelo://app?vid=55fe1fc3-6542-4dfc-b0a9-b5dc3cd50393"},"vehicle_type_id":"4","last_reported":1751407809,"current_range_meters":4000,"station_id":"ce4bgvp2rcd13ifvqct0","pricing_plan_id":"cebpf4jnsgd1na2vs0mg"},{"bike_id":"552e034f-8972-478a-8d8b-5e6857aee11b","system_id":"levelo_inurba_marseille","lat":43.30212,"lon":5.39466,"is_reserved":false,"is_disabled":false,"rental_uris":{"android":"levelo://app?vid=552e034f-8972-478a-8d8b-5e6857aee11b","ios":"levelo://app?vid=552e034f-8972-478a-8d8b-5e6857aee11b"},"vehicle_type_id":"4","last_reported":1751407809,"current_range_meters":4000,"station_id":"ce4bh0p2rcd13ifvqd70","pricing_plan_id":"cebpf4jnsgd1na2vs0mg"},{"bike_id":"8308ae53-e0a1-49ca-9148-608d72168524","system_id":"levelo_inurba_marseille","lat":43.28698,"lon":5.37383,"is_reserved":false,"is_disabled":false,"rental_uris":{"android":"levelo://app?vid=8308ae53-e0a1-49ca-9148-608d72168524","ios":"levelo://app?vid=8308ae53-e0a1-49ca-9148-608d72168524"},"vehicle_type_id":"4","last_reported":1751407809,"current_range_meters":4000,"station_id":"ce4bh3p2rcd13ifvqdq0","pricing_plan_id":"cebpf4jnsgd1na2vs0mg"},{"bike_id":"17c513dc-7673-4993-bee8-685da341f1e4","system_id":"levelo_inurba_marseille","lat":43.29272,"lon":5.38438,"is_reserved":false,"is_disabled":false,"rental_uris":{"android":"levelo://app?vid=17c513dc-7673-4993-bee8-685da341f1e4","ios":"levelo://app?vid=17c513dc-7673-4993-bee8-685da341f1e4"},"vehicle_type_id":"4","last_reported":1751407809,"current_range_meters":4000,"station_id":"ce4bh692rcd13ifvqea0","pricing_plan_id":"cebpf4jnsgd1na2vs0mg"},{"bike_id":"e7bd469f-5ab5-4c9c-b99c-b7b01a5f9709","system_id":"levelo_inurba_marseille","lat":43.26032,"lon":5.37546,"is_reserved":false,"is_disabled":false,"rental_uris":{"android":"levelo://app?vid=e7bd469f-5ab5-4c9c-b99c-b7b01a5f9709","ios":"levelo://app?vid=e7bd469f-5ab5-4c9c-b99c-b7b01a5f9709"},"vehicle_type_id":"4","last_reported":1751407809,"current_range_meters":4000,"station_id":"ce4bhgh2rcd13ifvqfa0","pricing_plan_id":"cebpf4jnsgd1na2vs0mg"},{"bike_id":"8bab2861-4486-4d51-959a-b2430879f72d","system_id":"levelo_inurba_marseille","lat":43.30585,"lon":5.37215,"is_reserved":false,"is_disabled":false,"rental_uris":{"android":"levelo://app?vid=8bab2861-4486-4d51-959a-b2430879f72d","ios":"levelo://app?vid=8bab2861-4486-4d51-959a-b2430879f72d"},"vehicle_type_id":"4","last_reported":1751407809,"current_range_meters":4800,"station_id":"ce4bgqh2rcd13ifvqc4g","pricing_plan_id":"cebpf4jnsgd1na2vs0mg"},{"bike_id":"4dc62368-4850-449d-be00-f7dd13ce2554","system_id":"levelo_inurba_marseille","lat":43.313264,"lon":5.39697,"is_reserved":false,"is_disabled":false,"rental_uris":{"android":"levelo://app?vid=4dc62368-4850-449d-be00-f7dd13ce2554","ios":"levelo://app?vid=4dc62368-4850-449d-be00-f7dd13ce2554"},"vehicle_type_id":"4","last_reported":1751407809,"current_range_meters":4800,"station_id":"ce4bgvp2rcd13ifvqcu0","pricing_plan_id":"cebpf4jnsgd1na2vs0mg"},{"bike_id":"88af6ad9-894d-4c01-8547-9ffe7560e668","system_id":"levelo_inurba_marseille","lat":43.29278,"lon":5.40114,"is_reserved":false,"is_disabled":false,"rental_uris":{"android":"levelo://app?vid=88af6ad9-894d-4c01-8547-9ffe7560e668","ios":"levelo://app?vid=88af6ad9-894d-4c01-8547-9ffe7560e668"},"vehicle_type_id":"4","last_reported":1751407809,"current_range_meters":4800,"station_id":"ce4bh312rcd13ifvqdk0","pricing_plan_id":"cebpf4jnsgd1na2vs0mg"},{"bike_id":"7929504a-1e26-42fd-9546-1985a9be1e75","system_id":"levelo_inurba_marseille","lat":43.2863,"lon":5.38638,"is_reserved":false,"is_disabled":false,"rental_uris":{"android":"levelo://app?vid=7929504a-1e26-42fd-9546-1985a9be1e75","ios":"levelo://app?vid=7929504a-1e26-42fd-9546-1985a9be1e75"},"vehicle_type_id":"4","last_reported":1751407809,"current_range_meters":4800,"station_id":"ce4bh492rcd13ifvqdug","pricing_plan_id":"cebpf4jnsgd1na2vs0mg"},{"bike_id":"f38c3719-2f1e-40c8-9ae9-a364733a4ac3","system_id":"levelo_inurba_marseille","lat":43.25109,"lon":5.40317,"is_reserved":false,"is_disabled":false,"rental_uris":{"android":"levelo://app?vid=f38c3719-2f1e-40c8-9ae9-a364733a4ac3","ios":"levelo://app?vid=f38c3719-2f1e-40c8-9ae9-a364733a4ac3"},"vehicle_type_id":"4","last_reported":1751407809,"current_range_meters":4800,"station_id":"ce4bhlh2rcd13ifvqgig","pricing_plan_id":"cebpf4jnsgd1na2vs0mg"},{"bike_id":"21e2c51d-4563-4efd-afbf-0ddeff93c862","system_id":"levelo_inurba_marseille","lat":43.21753,"lon":5.34604,"is_reserved":false,"is_disabled":false,"rental_uris":{"android":"levelo://app?vid=21e2c51d-4563-4efd-afbf-0ddeff93c862","ios":"levelo://app?vid=21e2c51d-4563-4efd-afbf-0ddeff93c862"},"vehicle_type_id":"4","last_reported":1751407809,"current_range_meters":4800,"station_id":"st_cvj6r9ubvosntc0bgbag","pricing_plan_id":"cebpf4jnsgd1na2vs0mg"},{"bike_id":"7f1153ca-399c-420f-aca8-db6f968135f8","system_id":"levelo_inurba_marseille","lat":43.31361,"lon":5.38494,"is_reserved":false,"is_disabled":false,"rental_uris":{"android":"levelo://app?vid=7f1153ca-399c-420f-aca8-db6f968135f8","ios":"levelo://app?vid=7f1153ca-399c-420f-aca8-db6f968135f8"},"vehicle_type_id":"4","last_reported":1751407809,"current_range_meters":5600,"station_id":"ce4bgt92rcd13ifvqcf0","pricing_plan_id":"cebpf4jnsgd1na2vs0mg"},{"bike_id":"e6ac5741-3196-4aa0-b977-db237a4221d3","system_id":"levelo_inurba_marseille","lat":43.30082,"lon":5.39085,"is_reserved":false,"is_disabled":false,"rental_uris":{"android":"levelo://app?vid=e6ac5741-3196-4aa0-b977-db237a4221d3","ios":"levelo://app?vid=e6ac5741-3196-4aa0-b977-db237a4221d3"},"vehicle_type_id":"4","last_reported":1751407809,"current_range_meters":6000,"station_id":"ce4bh192rcd13ifvqdb0","pricing_plan_id":"cebpf4jnsgd1na2vs0mg"},{"bike_id":"6604fe7d-db30-4c06-ac34-5214f72f9e36","system_id":"levelo_inurba_marseille","lat":43.26565,"lon":5.39011,"is_reserved":false,"is_disabled":false,"rental_uris":{"android":"levelo://app?vid=6604fe7d-db30-4c06-ac34-5214f72f9e36","ios":"levelo://app?vid=6604fe7d-db30-4c06-ac34-5214f72f9e36"},"vehicle_type_id":"4","last_reported":1751407809,"current_range_meters":6000,"station_id":"ce4bhe12rcd13ifvqf30","pricing_plan_id":"cebpf4jnsgd1na2vs0mg"},{"bike_id":"a2017121-8342-439c-9853-789b6ff0806f","system_id":"levelo_inurba_marseille","lat":43.21188,"lon":5.34923,"is_reserved":false,"is_disabled":false,"rental_uris":{"android":"levelo://app?vid=a2017121-8342-439c-9853-789b6ff0806f","ios":"levelo://app?vid=a2017121-8342-439c-9853-789b6ff0806f"},"vehicle_type_id":"4","last_reported":1751407809,"current_range_meters":6400,"station_id":"","pricing_plan_id":"cebpf4jnsgd1na2vs0mg"},{"bike_id":"43fcb430-53f7-4349-b49c-62f8e6ea8db4","system_id":"levelo_inurba_marseille","lat":43.28454,"lon":5.43686,"is_reserved":false,"is_disabled":false,"rental_uris":{"android":"levelo://app?vid=43fcb430-53f7-4349-b49c-62f8e6ea8db4","ios":"levelo://app?vid=43fcb430-53f7-4349-b49c-62f8e6ea8db4"},"vehicle_type_id":"4","last_reported":1751407809,"current_range_meters":6400,"station_id":"","pricing_plan_id":"cebpf4jnsgd1na2vs0mg"},{"bike_id":"d7f4fa13-d990-434f-a4bf-a438a1767b9a","system_id":"levelo_inurba_marseille","lat":43.31701,"lon":5.40476,"is_reserved":false,"is_disabled":false,"rental_uris":{"android":"levelo://app?vid=d7f4fa13-d990-434f-a4bf-a438a1767b9a","ios":"levelo://app?vid=d7f4fa13-d990-434f-a4bf-a438a1767b9a"},"vehicle_type_id":"4","last_reported":1751407809,"current_range_meters":6400,"station_id":"ce4bh012rcd13ifvqd00","pricing_plan_id":"cebpf4jnsgd1na2vs0mg"},{"bike_id":"8f112b2c-a979-4354-8e37-03295332b910","system_id":"levelo_inurba_marseille","lat":43.26231,"lon":5.40451,"is_reserved":false,"is_disabled":false,"rental_uris":{"android":"levelo://app?vid=8f112b2c-a979-4354-8e37-03295332b910","ios":"levelo://app?vid=8f112b2c-a979-4354-8e37-03295332b910"},"vehicle_type_id":"4","last_reported":1751407809,"current_range_meters":6400,"station_id":"ce4bhmh2rcd13ifvqgmg","pricing_plan_id":"cebpf4jnsgd1na2vs0mg"},{"bike_id":"a8ee5399-9a2d-4f46-aa4a-26d8189b5712","system_id":"levelo_inurba_marseille","lat":43.30349,"lon":5.41882,"is_reserved":false,"is_disabled":false,"rental_uris":{"android":"levelo://app?vid=a8ee5399-9a2d-4f46-aa4a-26d8189b5712","ios":"levelo://app?vid=a8ee5399-9a2d-4f46-aa4a-26d8189b5712"},"vehicle_type_id":"4","last_reported":1751407809,"current_range_meters":6400,"station_id":"ce4bhop2rcd13ifvqh7g","pricing_plan_id":"cebpf4jnsgd1na2vs0mg"},{"bike_id":"5645747a-3a10-4473-af43-5ef6e3a1809d","system_id":"levelo_inurba_marseille","lat":43.30933,"lon":5.40137,"is_reserved":false,"is_disabled":false,"rental_uris":{"android":"levelo://app?vid=5645747a-3a10-4473-af43-5ef6e3a1809d","ios":"levelo://app?vid=5645747a-3a10-4473-af43-5ef6e3a1809d"},"vehicle_type_id":"4","last_reported":1751407809,"current_range_meters":6800,"station_id":"ce4bgvp2rcd13ifvqct0","pricing_plan_id":"cebpf4jnsgd1na2vs0mg"},{"bike_id":"7236e2e3-d1fc-4524-88d7-682fb4011ca4","system_id":"levelo_inurba_marseille","lat":43.30644,"lon":5.40108,"is_reserved":false,"is_disabled":false,"rental_uris":{"android":"levelo://app?vid=7236e2e3-d1fc-4524-88d7-682fb4011ca4","ios":"levelo://app?vid=7236e2e3-d1fc-4524-88d7-682fb4011ca4"},"vehicle_type_id":"4","last_reported":1751407809,"current_range_meters":6800,"station_id":"ce4bh112rcd13ifvqda0","pricing_plan_id":"cebpf4jnsgd1na2vs0mg"},{"bike_id":"dd0daec2-8e7d-4f80-926a-4316aa1a0529","system_id":"levelo_inurba_marseille","lat":43.25056,"lon":5.39506,"is_reserved":false,"is_disabled":false,"rental_uris":{"android":"levelo://app?vid=dd0daec2-8e7d-4f80-926a-4316aa1a0529","ios":"levelo://app?vid=dd0daec2-8e7d-4f80-926a-4316aa1a0529"},"vehicle_type_id":"4","last_reported":1751407809,"current_range_meters":6800,"station_id":"ce4bhm12rcd13ifvqgkg","pricing_plan_id":"cebpf4jnsgd1na2vs0mg"},{"bike_id":"ac071897-d5f8-45a4-8e76-54c7cfda3b1a","system_id":"levelo_inurba_marseille","lat":43.32343,"lon":5.40627,"is_reserved":false,"is_disabled":false,"rental_uris":{"android":"levelo://app?vid=ac071897-d5f8-45a4-8e76-54c7cfda3b1a","ios":"levelo://app?vid=ac071897-d5f8-45a4-8e76-54c7cfda3b1a"},"vehicle_type_id":"4","last_reported":1751407809,"current_range_meters":6800,"station_id":"ce4bhq92rcd13ifvqhjg","pricing_plan_id":"cebpf4jnsgd1na2vs0mg"},{"bike_id":"5683d2b4-d960-4ce6-8162-df1a4f7e1426","system_id":"levelo_inurba_marseille","lat":43.3106,"lon":5.3834,"is_reserved":false,"is_disabled":false,"rental_uris":{"android":"levelo://app?vid=5683d2b4-d960-4ce6-8162-df1a4f7e1426","ios":"levelo://app?vid=5683d2b4-d960-4ce6-8162-df1a4f7e1426"},"vehicle_type_id":"4","last_reported":1751407809,"current_range_meters":7200,"station_id":"ce4bgv92rcd13ifvqcr0","pricing_plan_id":"cebpf4jnsgd1na2vs0mg"},{"bike_id":"e4803da5-35b5-4ffb-a31f-370378b5a4fc","system_id":"levelo_inurba_marseille","lat":43.290278,"lon":5.381304,"is_reserved":false,"is_disabled":false,"rental_uris":{"android":"levelo://app?vid=e4803da5-35b5-4ffb-a31f-370378b5a4fc","ios":"levelo://app?vid=e4803da5-35b5-4ffb-a31f-370378b5a4fc"},"vehicle_type_id":"4","last_reported":1751407809,"current_range_meters":7200,"station_id":"ce4bh4p2rcd13ifvqe1g","pricing_plan_id":"cebpf4jnsgd1na2vs0mg"},{"bike_id":"2355fb7c-c79a-4316-ba9e-f48fa3d1f785","system_id":"levelo_inurba_marseille","lat":43.28709,"lon":5.4,"is_reserved":false,"is_disabled":false,"rental_uris":{"android":"levelo://app?vid=2355fb7c-c79a-4316-ba9e-f48fa3d1f785","ios":"levelo://app?vid=2355fb7c-c79a-4316-ba9e-f48fa3d1f785"},"vehicle_type_id":"4","last_reported":1751407809,"current_range_meters":7200,"station_id":"ce4bho92rcd13ifvqh3g","pricing_plan_id":"cebpf4jnsgd1na2vs0mg"},{"bike_id":"25ca3ae2-b4c4-49a7-bbe5-ca13bceedd9b","system_id":"levelo_inurba_marseille","lat":43.30864,"lon":5.37069,"is_reserved":false,"is_disabled":false,"rental_uris":{"android":"levelo://app?vid=25ca3ae2-b4c4-49a7-bbe5-ca13bceedd9b","ios":"levelo://app?vid=25ca3ae2-b4c4-49a7-bbe5-ca13bceedd9b"},"vehicle_type_id":"4","last_reported":1751407809,"current_range_meters":8000,"station_id":"","pricing_plan_id":"cebpf4jnsgd1na2vs0mg"},{"bike_id":"8252b44a-d048-4379-9209-2efa2e627825","system_id":"levelo_inurba_marseille","lat":43.29249,"lon":5.40617,"is_reserved":false,"is_disabled":false,"rental_uris":{"android":"levelo://app?vid=8252b44a-d048-4379-9209-2efa2e627825","ios":"levelo://app?vid=8252b44a-d048-4379-9209-2efa2e627825"},"vehicle_type_id":"4","last_reported":1751407809,"current_range_meters":8400,"station_id":"","pricing_plan_id":"cebpf4jnsgd1na2vs0mg"},{"bike_id":"0972ad3b-5543-4d36-8cd8-e19d9c553fe7","system_id":"levelo_inurba_marseille","lat":43.30891,"lon":5.39658,"is_reserved":false,"is_disabled":false,"rental_uris":{"android":"levelo://app?vid=0972ad3b-5543-4d36-8cd8-e19d9c553fe7","ios":"levelo://app?vid=0972ad3b-5543-4d36-8cd8-e19d9c553fe7"},"vehicle_type_id":"4","last_reported":1751407809,"current_range_meters":8400,"station_id":"ce4bh012rcd13ifvqcv0","pricing_plan_id":"cebpf4jnsgd1na2vs0mg"},{"bike_id":"63d63415-5f3c-408e-aa9d-62bf1ec1de03","system_id":"levelo_inurba_marseille","lat":43.30635,"lon":5.40101,"is_reserved":false,"is_disabled":false,"rental_uris":{"android":"levelo://app?vid=63d63415-5f3c-408e-aa9d-62bf1ec1de03","ios":"levelo://app?vid=63d63415-5f3c-408e-aa9d-62bf1ec1de03"},"vehicle_type_id":"4","last_reported":1751407809,"current_range_meters":8400,"station_id":"ce4bh112rcd13ifvqda0","pricing_plan_id":"cebpf4jnsgd1na2vs0mg"},{"bike_id":"f2980062-83df-4ed9-ae39-1a53bc4fe8c9","system_id":"levelo_inurba_marseille","lat":43.29287,"lon":5.40116,"is_reserved":false,"is_disabled":false,"rental_uris":{"android":"levelo://app?vid=f2980062-83df-4ed9-ae39-1a53bc4fe8c9","ios":"levelo://app?vid=f2980062-83df-4ed9-ae39-1a53bc4fe8c9"},"vehicle_type_id":"4","last_reported":1751407809,"current_range_meters":8400,"station_id":"ce4bh312rcd13ifvqdk0","pricing_plan_id":"cebpf4jnsgd1na2vs0mg"},{"bike_id":"a2c09ae1-252b-4356-a262-0c7e6c233884","system_id":"levelo_inurba_marseille","lat":43.26931,"lon":5.38914,"is_reserved":false,"is_disabled":false,"rental_uris":{"android":"levelo://app?vid=a2c09ae1-252b-4356-a262-0c7e6c233884","ios":"levelo://app?vid=a2c09ae1-252b-4356-a262-0c7e6c233884"},"vehicle_type_id":"4","last_reported":1751407809,"current_range_meters":8400,"station_id":"ce4bhhh2rcd13ifvqfl0","pricing_plan_id":"cebpf4jnsgd1na2vs0mg"},{"bike_id":"49e517ee-cefd-4cc1-8e49-00ee0ad8e160","system_id":"levelo_inurba_marseille","lat":43.28077,"lon":5.39665,"is_reserved":false,"is_disabled":false,"rental_uris":{"android":"levelo://app?vid=49e517ee-cefd-4cc1-8e49-00ee0ad8e160","ios":"levelo://app?vid=49e517ee-cefd-4cc1-8e49-00ee0ad8e160"},"vehicle_type_id":"4","last_reported":1751407809,"current_range_meters":8400,"station_id":"ce4bho12rcd13ifvqh2g","pricing_plan_id":"cebpf4jnsgd1na2vs0mg"},{"bike_id":"58e8b1e0-da6c-4e3d-a9b0-d1e850a6b512","system_id":"levelo_inurba_marseille","lat":43.3236,"lon":5.3888,"is_reserved":false,"is_disabled":false,"rental_uris":{"android":"levelo://app?vid=58e8b1e0-da6c-4e3d-a9b0-d1e850a6b512","ios":"levelo://app?vid=58e8b1e0-da6c-4e3d-a9b0-d1e850a6b512"},"vehicle_type_id":"4","last_reported":1751407809,"current_range_meters":8400,"station_id":"ce4bhqp2rcd13ifvqhog","pricing_plan_id":"cebpf4jnsgd1na2vs0mg"},{"bike_id":"e3ff2741-2c53-4741-96b7-d2ff3c39c0e2","system_id":"levelo_inurba_marseille","lat":43.30784,"lon":5.37653,"is_reserved":false,"is_disabled":false,"rental_uris":{"android":"levelo://app?vid=e3ff2741-2c53-4741-96b7-d2ff3c39c0e2","ios":"levelo://app?vid=e3ff2741-2c53-4741-96b7-d2ff3c39c0e2"},"vehicle_type_id":"4","last_reported":1751407809,"current_range_meters":8800,"station_id":"ce4bgv92rcd13ifvqcq0","pricing_plan_id":"cebpf4jnsgd1na2vs0mg"},{"bike_id":"caed79ff-ef77-41e6-adab-ae43fdc50fb2","system_id":"levelo_inurba_marseille","lat":43.30256,"lon":5.4006,"is_reserved":false,"is_disabled":false,"rental_uris":{"android":"levelo://app?vid=caed79ff-ef77-41e6-adab-ae43fdc50fb2","ios":"levelo://app?vid=caed79ff-ef77-41e6-adab-ae43fdc50fb2"},"vehicle_type_id":"4","last_reported":1751407809,"current_range_meters":8800,"station_id":"ce4bgvh2rcd13ifvqcs0","pricing_plan_id":"cebpf4jnsgd1na2vs0mg"},{"bike_id":"75a92aad-e4a4-43f5-acae-71e1898f96dd","system_id":"levelo_inurba_marseille","lat":43.29537,"lon":5.3903,"is_reserved":false,"is_disabled":false,"rental_uris":{"android":"levelo://app?vid=75a92aad-e4a4-43f5-acae-71e1898f96dd","ios":"levelo://app?vid=75a92aad-e4a4-43f5-acae-71e1898f96dd"},"vehicle_type_id":"4","last_reported":1751407809,"current_range_meters":8800,"station_id":"ce4bh3p2rcd13ifvqdp0","pricing_plan_id":"cebpf4jnsgd1na2vs0mg"},{"bike_id":"22168127-e9d9-4250-bbb7-dcbd3523608b","system_id":"levelo_inurba_marseille","lat":43.28484,"lon":5.38572,"is_reserved":false,"is_disabled":false,"rental_uris":{"android":"levelo://app?vid=22168127-e9d9-4250-bbb7-dcbd3523608b","ios":"levelo://app?vid=22168127-e9d9-4250-bbb7-dcbd3523608b"},"vehicle_type_id":"4","last_reported":1751407809,"current_range_meters":8800,"station_id":"ce4bh8p2rcd13ifvqeb0","pricing_plan_id":"cebpf4jnsgd1na2vs0mg"},{"bike_id":"f7258756-b714-46b7-8008-2311b56664b3","system_id":"levelo_inurba_marseille","lat":43.32649,"lon":5.41017,"is_reserved":false,"is_disabled":false,"rental_uris":{"android":"levelo://app?vid=f7258756-b714-46b7-8008-2311b56664b3","ios":"levelo://app?vid=f7258756-b714-46b7-8008-2311b56664b3"},"vehicle_type_id":"4","last_reported":1751407809,"current_range_meters":8800,"station_id":"ce4bhpp2rcd13ifvqhgg","pricing_plan_id":"cebpf4jnsgd1na2vs0mg"},{"bike_id":"83015633-1b29-4bf9-9024-4fe2ee97954a","system_id":"levelo_inurba_marseille","lat":43.3236,"lon":5.38887,"is_reserved":false,"is_disabled":false,"rental_uris":{"android":"levelo://app?vid=83015633-1b29-4bf9-9024-4fe2ee97954a","ios":"levelo://app?vid=83015633-1b29-4bf9-9024-4fe2ee97954a"},"vehicle_type_id":"4","last_reported":1751407809,"current_range_meters":8800,"station_id":"ce4bhqp2rcd13ifvqhog","pricing_plan_id":"cebpf4jnsgd1na2vs0mg"},{"bike_id":"306eb33e-8f50-4c2b-8c1d-e3c1d1d6a295","system_id":"levelo_inurba_marseille","lat":43.31527,"lon":5.38022,"is_reserved":false,"is_disabled":false,"rental_uris":{"android":"levelo://app?vid=306eb33e-8f50-4c2b-8c1d-e3c1d1d6a295","ios":"levelo://app?vid=306eb33e-8f50-4c2b-8c1d-e3c1d1d6a295"},"vehicle_type_id":"4","last_reported":1751407809,"current_range_meters":8800,"station_id":"ce4bhsp2rcd13ifvqi50","pricing_plan_id":"cebpf4jnsgd1na2vs0mg"},{"bike_id":"e1eb64b1-b263-4ac0-a5a5-9563de948ae5","system_id":"levelo_inurba_marseille","lat":43.29508,"lon":5.3941,"is_reserved":false,"is_disabled":false,"rental_uris":{"android":"levelo://app?vid=e1eb64b1-b263-4ac0-a5a5-9563de948ae5","ios":"levelo://app?vid=e1eb64b1-b263-4ac0-a5a5-9563de948ae5"},"vehicle_type_id":"4","last_reported":1751407809,"current_range_meters":9200,"station_id":"ce4bh292rcd13ifvqdf0","pricing_plan_id":"cebpf4jnsgd1na2vs0mg"},{"bike_id":"b2ec7371-4e1a-4f7b-ae6c-60c5a54c237b","system_id":"levelo_inurba_marseille","lat":43.21188,"lon":5.35082,"is_reserved":false,"is_disabled":false,"rental_uris":{"android":"levelo://app?vid=b2ec7371-4e1a-4f7b-ae6c-60c5a54c237b","ios":"levelo://app?vid=b2ec7371-4e1a-4f7b-ae6c-60c5a54c237b"},"vehicle_type_id":"4","last_reported":1751407809,"current_range_meters":9200,"station_id":"st_cvj6sg6p6f1abm77japg","pricing_plan_id":"cebpf4jnsgd1na2vs0mg"},{"bike_id":"28477ccc-cb48-44f2-8ac3-dc21d395da4f","system_id":"levelo_inurba_marseille","lat":43.2275,"lon":5.36595,"is_reserved":false,"is_disabled":false,"rental_uris":{"android":"levelo://app?vid=28477ccc-cb48-44f2-8ac3-dc21d395da4f","ios":"levelo://app?vid=28477ccc-cb48-44f2-8ac3-dc21d395da4f"},"vehicle_type_id":"4","last_reported":1751407809,"current_range_meters":9600,"station_id":"","pricing_plan_id":"cebpf4jnsgd1na2vs0mg"},{"bike_id":"fd658628-a052-4578-ab3d-afa4e524d5dd","system_id":"levelo_inurba_marseille","lat":43.31071,"lon":5.38352,"is_reserved":false,"is_disabled":false,"rental_uris":{"android":"levelo://app?vid=fd658628-a052-4578-ab3d-afa4e524d5dd","ios":"levelo://app?vid=fd658628-a052-4578-ab3d-afa4e524d5dd"},"vehicle_type_id":"4","last_reported":1751407809,"current_range_meters":9600,"station_id":"ce4bgv92rcd13ifvqcr0","pricing_plan_id":"cebpf4jnsgd1na2vs0mg"},{"bike_id":"c0d83e2b-ec48-4547-9efe-585cfde24f4a","system_id":"levelo_inurba_marseille","lat":43.31074,"lon":5.38352,"is_reserved":false,"is_disabled":false,"rental_uris":{"android":"levelo://app?vid=c0d83e2b-ec48-4547-9efe-585cfde24f4a","ios":"levelo://app?vid=c0d83e2b-ec48-4547-9efe-585cfde24f4a"},"vehicle_type_id":"4","last_reported":1751407809,"current_range_meters":9600,"station_id":"ce4bgv92rcd13ifvqcr0","pricing_plan_id":"cebpf4jnsgd1na2vs0mg"},{"bike_id":"58b71408-f898-419b-889f-04fdbb4fb40c","system_id":"levelo_inurba_marseille","lat":43.30244,"lon":5.40067,"is_reserved":false,"is_disabled":false,"rental_uris":{"android":"levelo://app?vid=58b71408-f898-419b-889f-04fdbb4fb40c","ios":"levelo://app?vid=58b71408-f898-419b-889f-04fdbb4fb40c"},"vehicle_type_id":"4","last_reported":1751407809,"current_range_meters":9600,"station_id":"ce4bgvh2rcd13ifvqcs0","pricing_plan_id":"cebpf4jnsgd1na2vs0mg"},{"bike_id":"438c1097-f606-44ca-9585-9a3a005a152f","system_id":"levelo_inurba_marseille","lat":43.30422,"lon":5.38885,"is_reserved":false,"is_disabled":false,"rental_uris":{"android":"levelo://app?vid=438c1097-f606-44ca-9585-9a3a005a152f","ios":"levelo://app?vid=438c1097-f606-44ca-9585-9a3a005a152f"},"vehicle_type_id":"4","last_reported":1751407809,"current_range_meters":10000,"station_id":"ce4bgk12rcd13ifvqbi0","pricing_plan_id":"cebpf4jnsgd1na2vs0mg"},{"bike_id":"3b96e17f-ffc3-420b-b29c-f5e29ec6a474","system_id":"levelo_inurba_marseille","lat":43.30655,"lon":5.40074,"is_reserved":false,"is_disabled":false,"rental_uris":{"android":"levelo://app?vid=3b96e17f-ffc3-420b-b29c-f5e29ec6a474","ios":"levelo://app?vid=3b96e17f-ffc3-420b-b29c-f5e29ec6a474"},"vehicle_type_id":"4","last_reported":1751407809,"current_range_meters":10000,"station_id":"ce4bh112rcd13ifvqda0","pricing_plan_id":"cebpf4jnsgd1na2vs0mg"},{"bike_id":"68dd4e09-533f-4a33-af06-1c3830142cb9","system_id":"levelo_inurba_marseille","lat":43.29262,"lon":5.4092,"is_reserved":false,"is_disabled":false,"rental_uris":{"android":"levelo://app?vid=68dd4e09-533f-4a33-af06-1c3830142cb9","ios":"levelo://app?vid=68dd4e09-533f-4a33-af06-1c3830142cb9"},"vehicle_type_id":"4","last_reported":1751407809,"current_range_meters":10000,"station_id":"ce4bh192rcd13ifvqdc0","pricing_plan_id":"cebpf4jnsgd1na2vs0mg"},{"bike_id":"dbd93b23-f777-44a4-9639-a8020fd43ab4","system_id":"levelo_inurba_marseille","lat":43.289533,"lon":5.396388,"is_reserved":false,"is_disabled":false,"rental_uris":{"android":"levelo://app?vid=dbd93b23-f777-44a4-9639-a8020fd43ab4","ios":"levelo://app?vid=dbd93b23-f777-44a4-9639-a8020fd43ab4"},"vehicle_type_id":"4","last_reported":1751407809,"current_range_meters":10000,"station_id":"ce4bh3h2rcd13ifvqdn0","pricing_plan_id":"cebpf4jnsgd1na2vs0mg"},{"bike_id":"45d2645f-fb5d-4f9b-b0bf-9acdbee12b2f","system_id":"levelo_inurba_marseille","lat":43.251,"lon":5.40322,"is_reserved":false,"is_disabled":false,"rental_uris":{"android":"levelo://app?vid=45d2645f-fb5d-4f9b-b0bf-9acdbee12b2f","ios":"levelo://app?vid=45d2645f-fb5d-4f9b-b0bf-9acdbee12b2f"},"vehicle_type_id":"4","last_reported":1751407809,"current_range_meters":10000,"station_id":"ce4bhlh2rcd13ifvqgig","pricing_plan_id":"cebpf4jnsgd1na2vs0mg"},{"bike_id":"61b5725b-2795-41d7-a558-c6ef5a5cb351","system_id":"levelo_inurba_marseille","lat":43.28709,"lon":5.39938,"is_reserved":false,"is_disabled":false,"rental_uris":{"android":"levelo://app?vid=61b5725b-2795-41d7-a558-c6ef5a5cb351","ios":"levelo://app?vid=61b5725b-2795-41d7-a558-c6ef5a5cb351"},"vehicle_type_id":"4","last_reported":1751407809,"current_range_meters":10000,"station_id":"ce4bho92rcd13ifvqh3g","pricing_plan_id":"cebpf4jnsgd1na2vs0mg"},{"bike_id":"2726f14f-8d32-4e17-9b3e-62cc809675e1","system_id":"levelo_inurba_marseille","lat":43.32108,"lon":5.367703,"is_reserved":false,"is_disabled":false,"rental_uris":{"android":"levelo://app?vid=2726f14f-8d32-4e17-9b3e-62cc809675e1","ios":"levelo://app?vid=2726f14f-8d32-4e17-9b3e-62cc809675e1"},"vehicle_type_id":"4","last_reported":1751407809,"current_range_meters":10000,"station_id":"ce4bhrh2rcd13ifvqhug","pricing_plan_id":"cebpf4jnsgd1na2vs0mg"},{"bike_id":"b28aa0a0-791c-4a08-9a16-c7bf6ea0ed5a","system_id":"levelo_inurba_marseille","lat":43.22503,"lon":5.34785,"is_reserved":false,"is_disabled":false,"rental_uris":{"android":"levelo://app?vid=b28aa0a0-791c-4a08-9a16-c7bf6ea0ed5a","ios":"levelo://app?vid=b28aa0a0-791c-4a08-9a16-c7bf6ea0ed5a"},"vehicle_type_id":"4","last_reported":1751407809,"current_range_meters":10000,"station_id":"st_cvj5dfep6f1abm77gieg","pricing_plan_id":"cebpf4jnsgd1na2vs0mg"},{"bike_id":"e74a06ec-710c-47ea-bc8c-a4f33c04bf8f","system_id":"levelo_inurba_marseille","lat":43.30431,"lon":5.38888,"is_reserved":false,"is_disabled":false,"rental_uris":{"android":"levelo://app?vid=e74a06ec-710c-47ea-bc8c-a4f33c04bf8f","ios":"levelo://app?vid=e74a06ec-710c-47ea-bc8c-a4f33c04bf8f"},"vehicle_type_id":"4","last_reported":1751407809,"current_range_meters":10800,"station_id":"ce4bgk12rcd13ifvqbi0","pricing_plan_id":"cebpf4jnsgd1na2vs0mg"},{"bike_id":"c2b72fe0-bae6-4c7b-ad48-9e771b203dc8","system_id":"levelo_inurba_marseille","lat":43.31363,"lon":5.3843,"is_reserved":false,"is_disabled":false,"rental_uris":{"android":"levelo://app?vid=c2b72fe0-bae6-4c7b-ad48-9e771b203dc8","ios":"levelo://app?vid=c2b72fe0-bae6-4c7b-ad48-9e771b203dc8"},"vehicle_type_id":"4","last_reported":1751407809,"current_range_meters":10800,"station_id":"ce4bgt92rcd13ifvqcf0","pricing_plan_id":"cebpf4jnsgd1na2vs0mg"},{"bike_id":"f01bf621-8371-47dd-a404-a2d2b9281d45","system_id":"levelo_inurba_marseille","lat":43.304596,"lon":5.378916,"is_reserved":false,"is_disabled":false,"rental_uris":{"android":"levelo://app?vid=f01bf621-8371-47dd-a404-a2d2b9281d45","ios":"levelo://app?vid=f01bf621-8371-47dd-a404-a2d2b9281d45"},"vehicle_type_id":"4","last_reported":1751407809,"current_range_meters":10800,"station_id":"ce4bgup2rcd13ifvqcn0","pricing_plan_id":"cebpf4jnsgd1na2vs0mg"},{"bike_id":"7ebfb1d5-eb1c-46ff-9756-994e55c0192f","system_id":"levelo_inurba_marseille","lat":43.30248,"lon":5.40063,"is_reserved":false,"is_disabled":false,"rental_uris":{"android":"levelo://app?vid=7ebfb1d5-eb1c-46ff-9756-994e55c0192f","ios":"levelo://app?vid=7ebfb1d5-eb1c-46ff-9756-994e55c0192f"},"vehicle_type_id":"4","last_reported":1751407809,"current_range_meters":10800,"station_id":"ce4bgvh2rcd13ifvqcs0","pricing_plan_id":"cebpf4jnsgd1na2vs0mg"},{"bike_id":"146ed2c8-b209-4879-9f30-c930f1862c7a","system_id":"levelo_inurba_marseille","lat":43.29443,"lon":5.39752,"is_reserved":false,"is_disabled":false,"rental_uris":{"android":"levelo://app?vid=146ed2c8-b209-4879-9f30-c930f1862c7a","ios":"levelo://app?vid=146ed2c8-b209-4879-9f30-c930f1862c7a"},"vehicle_type_id":"4","last_reported":1751407809,"current_range_meters":10800,"station_id":"ce4bh3h2rcd13ifvqdo0","pricing_plan_id":"cebpf4jnsgd1na2vs0mg"},{"bike_id":"2c27e379-c3f4-4cb9-a803-1da3ae08643e","system_id":"levelo_inurba_marseille","lat":43.23964,"lon":5.36628,"is_reserved":false,"is_disabled":false,"rental_uris":{"android":"levelo://app?vid=2c27e379-c3f4-4cb9-a803-1da3ae08643e","ios":"levelo://app?vid=2c27e379-c3f4-4cb9-a803-1da3ae08643e"},"vehicle_type_id":"4","last_reported":1751407809,"current_range_meters":10800,"station_id":"ce4bhi12rcd13ifvqfp0","pricing_plan_id":"cebpf4jnsgd1na2vs0mg"},{"bike_id":"f84f0996-d676-4748-9790-2a047c10d82b","system_id":"levelo_inurba_marseille","lat":43.27809,"lon":5.4071,"is_reserved":false,"is_disabled":false,"rental_uris":{"android":"levelo://app?vid=f84f0996-d676-4748-9790-2a047c10d82b","ios":"levelo://app?vid=f84f0996-d676-4748-9790-2a047c10d82b"},"vehicle_type_id":"4","last_reported":1751407809,"current_range_meters":10800,"station_id":"ce4bhnh2rcd13ifvqgtg","pricing_plan_id":"cebpf4jnsgd1na2vs0mg"},{"bike_id":"df3fc099-0305-4871-a513-0c72c351bb57","system_id":"levelo_inurba_marseille","lat":43.32341,"lon":5.40626,"is_reserved":false,"is_disabled":false,"rental_uris":{"android":"levelo://app?vid=df3fc099-0305-4871-a513-0c72c351bb57","ios":"levelo://app?vid=df3fc099-0305-4871-a513-0c72c351bb57"},"vehicle_type_id":"4","last_reported":1751407809,"current_range_meters":10800,"station_id":"ce4bhq92rcd13ifvqhjg","pricing_plan_id":"cebpf4jnsgd1na2vs0mg"},{"bike_id":"8f10a9ab-b2d1-48a1-84c5-75424f1b18f7","system_id":"levelo_inurba_marseille","lat":43.21188,"lon":5.350737,"is_reserved":false,"is_disabled":false,"rental_uris":{"android":"levelo://app?vid=8f10a9ab-b2d1-48a1-84c5-75424f1b18f7","ios":"levelo://app?vid=8f10a9ab-b2d1-48a1-84c5-75424f1b18f7"},"vehicle_type_id":"4","last_reported":1751407809,"current_range_meters":10800,"station_id":"st_cvj6sg6p6f1abm77japg","pricing_plan_id":"cebpf4jnsgd1na2vs0mg"},{"bike_id":"3d64f2b6-68f4-4b5e-b336-121bc5116e11","system_id":"levelo_inurba_marseille","lat":43.30936,"lon":5.40141,"is_reserved":false,"is_disabled":false,"rental_uris":{"android":"levelo://app?vid=3d64f2b6-68f4-4b5e-b336-121bc5116e11","ios":"levelo://app?vid=3d64f2b6-68f4-4b5e-b336-121bc5116e11"},"vehicle_type_id":"4","last_reported":1751407809,"current_range_meters":11200,"station_id":"ce4bgvp2rcd13ifvqct0","pricing_plan_id":"cebpf4jnsgd1na2vs0mg"},{"bike_id":"1bf55e84-ea98-40db-bdcd-49fd06c95f55","system_id":"levelo_inurba_marseille","lat":43.29029,"lon":5.39965,"is_reserved":false,"is_disabled":false,"rental_uris":{"android":"levelo://app?vid=1bf55e84-ea98-40db-bdcd-49fd06c95f55","ios":"levelo://app?vid=1bf55e84-ea98-40db-bdcd-49fd06c95f55"},"vehicle_type_id":"4","last_reported":1751407809,"current_range_meters":11200,"station_id":"ce4bh392rcd13ifvqdm0","pricing_plan_id":"cebpf4jnsgd1na2vs0mg"},{"bike_id":"705604c0-279e-488b-af6f-ee1f40283c1e","system_id":"levelo_inurba_marseille","lat":43.29447,"lon":5.39747,"is_reserved":false,"is_disabled":false,"rental_uris":{"android":"levelo://app?vid=705604c0-279e-488b-af6f-ee1f40283c1e","ios":"levelo://app?vid=705604c0-279e-488b-af6f-ee1f40283c1e"},"vehicle_type_id":"4","last_reported":1751407809,"current_range_meters":11200,"station_id":"ce4bh3h2rcd13ifvqdo0","pricing_plan_id":"cebpf4jnsgd1na2vs0mg"},{"bike_id":"974fbe3d-8c91-465e-8b62-f2388a60ae3c","system_id":"levelo_inurba_marseille","lat":43.28407,"lon":5.3753,"is_reserved":false,"is_disabled":false,"rental_uris":{"android":"levelo://app?vid=974fbe3d-8c91-465e-8b62-f2388a60ae3c","ios":"levelo://app?vid=974fbe3d-8c91-465e-8b62-f2388a60ae3c"},"vehicle_type_id":"4","last_reported":1751407809,"current_range_meters":11200,"station_id":"ce4bh412rcd13ifvqds0","pricing_plan_id":"cebpf4jnsgd1na2vs0mg"},{"bike_id":"d2d55e75-a889-4bd6-8a57-8c335d9c06f2","system_id":"levelo_inurba_marseille","lat":43.29258,"lon":5.38446,"is_reserved":false,"is_disabled":false,"rental_uris":{"android":"levelo://app?vid=d2d55e75-a889-4bd6-8a57-8c335d9c06f2","ios":"levelo://app?vid=d2d55e75-a889-4bd6-8a57-8c335d9c06f2"},"vehicle_type_id":"4","last_reported":1751407809,"current_range_meters":11200,"station_id":"ce4bh692rcd13ifvqea0","pricing_plan_id":"cebpf4jnsgd1na2vs0mg"},{"bike_id":"b5cb9e61-dd08-4033-bb12-a914e3a6f65e","system_id":"levelo_inurba_marseille","lat":43.27937,"lon":5.41049,"is_reserved":false,"is_disabled":false,"rental_uris":{"android":"levelo://app?vid=b5cb9e61-dd08-4033-bb12-a914e3a6f65e","ios":"levelo://app?vid=b5cb9e61-dd08-4033-bb12-a914e3a6f65e"},"vehicle_type_id":"4","last_reported":1751407809,"current_range_meters":11200,"station_id":"ce4bhnp2rcd13ifvqh0g","pricing_plan_id":"cebpf4jnsgd1na2vs0mg"},{"bike_id":"b72c80d1-2411-479c-9f73-214d8794eec8","system_id":"levelo_inurba_marseille","lat":43.280339,"lon":5.369433,"is_reserved":false,"is_disabled":false,"rental_uris":{"android":"levelo://app?vid=b72c80d1-2411-479c-9f73-214d8794eec8","ios":"levelo://app?vid=b72c80d1-2411-479c-9f73-214d8794eec8"},"vehicle_type_id":"4","last_reported":1751407809,"current_range_meters":11600,"station_id":"ce4bha12rcd13ifvqef0","pricing_plan_id":"cebpf4jnsgd1na2vs0mg"},{"bike_id":"c01f37e5-75f2-4628-ab41-360a5aa84c49","system_id":"levelo_inurba_marseille","lat":43.28722,"lon":5.36099,"is_reserved":false,"is_disabled":false,"rental_uris":{"android":"levelo://app?vid=c01f37e5-75f2-4628-ab41-360a5aa84c49","ios":"levelo://app?vid=c01f37e5-75f2-4628-ab41-360a5aa84c49"},"vehicle_type_id":"4","last_reported":1751407809,"current_range_meters":11600,"station_id":"cki0cbj6b192h4jlfktg","pricing_plan_id":"cebpf4jnsgd1na2vs0mg"},{"bike_id":"34ef8d19-abd3-418b-af23-9942dadb071a","system_id":"levelo_inurba_marseille","lat":43.21179,"lon":5.35085,"is_reserved":false,"is_disabled":false,"rental_uris":{"android":"levelo://app?vid=34ef8d19-abd3-418b-af23-9942dadb071a","ios":"levelo://app?vid=34ef8d19-abd3-418b-af23-9942dadb071a"},"vehicle_type_id":"4","last_reported":1751407809,"current_range_meters":11600,"station_id":"st_cvj6sg6p6f1abm77japg","pricing_plan_id":"cebpf4jnsgd1na2vs0mg"},{"bike_id":"90712f97-b7d7-45cb-916e-af7a534a4832","system_id":"levelo_inurba_marseille","lat":43.28112,"lon":5.37847,"is_reserved":false,"is_disabled":false,"rental_uris":{"android":"levelo://app?vid=90712f97-b7d7-45cb-916e-af7a534a4832","ios":"levelo://app?vid=90712f97-b7d7-45cb-916e-af7a534a4832"},"vehicle_type_id":"4","last_reported":1751407809,"current_range_meters":12000,"station_id":"ce4bha12rcd13ifvqee0","pricing_plan_id":"cebpf4jnsgd1na2vs0mg"},{"bike_id":"231bb8c0-9eeb-4a45-ac2f-858f304b8b88","system_id":"levelo_inurba_marseille","lat":43.26062,"lon":5.39399,"is_reserved":false,"is_disabled":false,"rental_uris":{"android":"levelo://app?vid=231bb8c0-9eeb-4a45-ac2f-858f304b8b88","ios":"levelo://app?vid=231bb8c0-9eeb-4a45-ac2f-858f304b8b88"},"vehicle_type_id":"4","last_reported":1751407809,"current_range_meters":12000,"station_id":"ce4bhh92rcd13ifvqfj0","pricing_plan_id":"cebpf4jnsgd1na2vs0mg"},{"bike_id":"a0ffdf28-d659-45dc-b870-b2d591eeef83","system_id":"levelo_inurba_marseille","lat":43.25724,"lon":5.41125,"is_reserved":false,"is_disabled":false,"rental_uris":{"android":"levelo://app?vid=a0ffdf28-d659-45dc-b870-b2d591eeef83","ios":"levelo://app?vid=a0ffdf28-d659-45dc-b870-b2d591eeef83"},"vehicle_type_id":"4","last_reported":1751407809,"current_range_meters":12000,"station_id":"ce4bhkp2rcd13ifvqgd0","pricing_plan_id":"cebpf4jnsgd1na2vs0mg"},{"bike_id":"8686853f-4c76-42d4-853a-8b0762870909","system_id":"levelo_inurba_marseille","lat":43.28718,"lon":5.39959,"is_reserved":false,"is_disabled":false,"rental_uris":{"android":"levelo://app?vid=8686853f-4c76-42d4-853a-8b0762870909","ios":"levelo://app?vid=8686853f-4c76-42d4-853a-8b0762870909"},"vehicle_type_id":"4","last_reported":1751407809,"current_range_meters":12000,"station_id":"ce4bho92rcd13ifvqh3g","pricing_plan_id":"cebpf4jnsgd1na2vs0mg"},{"bike_id":"c0228700-5312-4a39-89af-ec53a5d729c5","system_id":"levelo_inurba_marseille","lat":43.2825,"lon":5.43237,"is_reserved":false,"is_disabled":false,"rental_uris":{"android":"levelo://app?vid=c0228700-5312-4a39-89af-ec53a5d729c5","ios":"levelo://app?vid=c0228700-5312-4a39-89af-ec53a5d729c5"},"vehicle_type_id":"4","last_reported":1751407809,"current_range_meters":12400,"station_id":"","pricing_plan_id":"cebpf4jnsgd1na2vs0mg"},{"bike_id":"9d5f8745-b764-403f-8ea5-b25ec6baf50d","system_id":"levelo_inurba_marseille","lat":43.304261,"lon":5.388893,"is_reserved":false,"is_disabled":false,"rental_uris":{"android":"levelo://app?vid=9d5f8745-b764-403f-8ea5-b25ec6baf50d","ios":"levelo://app?vid=9d5f8745-b764-403f-8ea5-b25ec6baf50d"},"vehicle_type_id":"4","last_reported":1751407809,"current_range_meters":12400,"station_id":"ce4bgih2rcd13ifvqba0","pricing_plan_id":"cebpf4jnsgd1na2vs0mg"},{"bike_id":"b1a4f46d-cd33-412a-bad2-6c71013b8a27","system_id":"levelo_inurba_marseille","lat":43.28151,"lon":5.42644,"is_reserved":false,"is_disabled":false,"rental_uris":{"android":"levelo://app?vid=b1a4f46d-cd33-412a-bad2-6c71013b8a27","ios":"levelo://app?vid=b1a4f46d-cd33-412a-bad2-6c71013b8a27"},"vehicle_type_id":"4","last_reported":1751407809,"current_range_meters":12400,"station_id":"ce4bhnh2rcd13ifvqgug","pricing_plan_id":"cebpf4jnsgd1na2vs0mg"},{"bike_id":"c61036a9-1a66-4480-8bd4-cd2fb585b287","system_id":"levelo_inurba_marseille","lat":43.26987,"lon":5.4053,"is_reserved":false,"is_disabled":false,"rental_uris":{"android":"levelo://app?vid=c61036a9-1a66-4480-8bd4-cd2fb585b287","ios":"levelo://app?vid=c61036a9-1a66-4480-8bd4-cd2fb585b287"},"vehicle_type_id":"4","last_reported":1751407809,"current_range_meters":12800,"station_id":"","pricing_plan_id":"cebpf4jnsgd1na2vs0mg"},{"bike_id":"94a43244-f717-4d28-a079-ee4081aaddf9","system_id":"levelo_inurba_marseille","lat":43.27894,"lon":5.38012,"is_reserved":false,"is_disabled":false,"rental_uris":{"android":"levelo://app?vid=94a43244-f717-4d28-a079-ee4081aaddf9","ios":"levelo://app?vid=94a43244-f717-4d28-a079-ee4081aaddf9"},"vehicle_type_id":"4","last_reported":1751407809,"current_range_meters":12800,"station_id":"ce4bhf92rcd13ifvqf50","pricing_plan_id":"cebpf4jnsgd1na2vs0mg"},{"bike_id":"bbe4ccb3-7aa4-4da0-9051-c7c2900e028d","system_id":"levelo_inurba_marseille","lat":43.31533,"lon":5.38021,"is_reserved":false,"is_disabled":false,"rental_uris":{"android":"levelo://app?vid=bbe4ccb3-7aa4-4da0-9051-c7c2900e028d","ios":"levelo://app?vid=bbe4ccb3-7aa4-4da0-9051-c7c2900e028d"},"vehicle_type_id":"4","last_reported":1751407809,"current_range_meters":12800,"station_id":"ce4bhsp2rcd13ifvqi50","pricing_plan_id":"cebpf4jnsgd1na2vs0mg"},{"bike_id":"cfec1d71-c2fd-4ecd-9040-6f9cf567b54e","system_id":"levelo_inurba_marseille","lat":43.30787,"lon":5.37644,"is_reserved":false,"is_disabled":false,"rental_uris":{"android":"levelo://app?vid=cfec1d71-c2fd-4ecd-9040-6f9cf567b54e","ios":"levelo://app?vid=cfec1d71-c2fd-4ecd-9040-6f9cf567b54e"},"vehicle_type_id":"4","last_reported":1751407809,"current_range_meters":13600,"station_id":"ce4bgv92rcd13ifvqcq0","pricing_plan_id":"cebpf4jnsgd1na2vs0mg"},{"bike_id":"2e98dc25-5dc5-45dd-9cad-94c98181c445","system_id":"levelo_inurba_marseille","lat":43.30246,"lon":5.40066,"is_reserved":false,"is_disabled":false,"rental_uris":{"android":"levelo://app?vid=2e98dc25-5dc5-45dd-9cad-94c98181c445","ios":"levelo://app?vid=2e98dc25-5dc5-45dd-9cad-94c98181c445"},"vehicle_type_id":"4","last_reported":1751407809,"current_range_meters":13600,"station_id":"ce4bgvh2rcd13ifvqcs0","pricing_plan_id":"cebpf4jnsgd1na2vs0mg"},{"bike_id":"02b84d2d-362e-40bb-a5e8-6b01baf3a6e0","system_id":"levelo_inurba_marseille","lat":43.29277,"lon":5.36844,"is_reserved":false,"is_disabled":false,"rental_uris":{"android":"levelo://app?vid=02b84d2d-362e-40bb-a5e8-6b01baf3a6e0","ios":"levelo://app?vid=02b84d2d-362e-40bb-a5e8-6b01baf3a6e0"},"vehicle_type_id":"4","last_reported":1751407809,"current_range_meters":13600,"station_id":"ce4bhbp2rcd13ifvqesg","pricing_plan_id":"cebpf4jnsgd1na2vs0mg"},{"bike_id":"6335e18e-9829-4571-82f7-23b6ce10fe5e","system_id":"levelo_inurba_marseille","lat":43.24171,"lon":5.36401,"is_reserved":false,"is_disabled":false,"rental_uris":{"android":"levelo://app?vid=6335e18e-9829-4571-82f7-23b6ce10fe5e","ios":"levelo://app?vid=6335e18e-9829-4571-82f7-23b6ce10fe5e"},"vehicle_type_id":"4","last_reported":1751407809,"current_range_meters":13600,"station_id":"cpo36qri1sfpv3e86is0","pricing_plan_id":"cebpf4jnsgd1na2vs0mg"},{"bike_id":"86fa6ce7-8cbe-47ff-b5d3-c2b4938fd05c","system_id":"levelo_inurba_marseille","lat":43.21174,"lon":5.35082,"is_reserved":false,"is_disabled":false,"rental_uris":{"android":"levelo://app?vid=86fa6ce7-8cbe-47ff-b5d3-c2b4938fd05c","ios":"levelo://app?vid=86fa6ce7-8cbe-47ff-b5d3-c2b4938fd05c"},"vehicle_type_id":"4","last_reported":1751407809,"current_range_meters":14000,"station_id":"","pricing_plan_id":"cebpf4jnsgd1na2vs0mg"},{"bike_id":"7e918440-88b2-46bb-b33c-27dbfad1b4ca","system_id":"levelo_inurba_marseille","lat":43.28405,"lon":5.37568,"is_reserved":false,"is_disabled":false,"rental_uris":{"android":"levelo://app?vid=7e918440-88b2-46bb-b33c-27dbfad1b4ca","ios":"levelo://app?vid=7e918440-88b2-46bb-b33c-27dbfad1b4ca"},"vehicle_type_id":"4","last_reported":1751407809,"current_range_meters":14000,"station_id":"","pricing_plan_id":"cebpf4jnsgd1na2vs0mg"},{"bike_id":"544c11d1-874b-4125-81a6-313bbd11e64c","system_id":"levelo_inurba_marseille","lat":43.313213,"lon":5.396948,"is_reserved":false,"is_disabled":false,"rental_uris":{"android":"levelo://app?vid=544c11d1-874b-4125-81a6-313bbd11e64c","ios":"levelo://app?vid=544c11d1-874b-4125-81a6-313bbd11e64c"},"vehicle_type_id":"4","last_reported":1751407809,"current_range_meters":14000,"station_id":"ce4bgvp2rcd13ifvqcu0","pricing_plan_id":"cebpf4jnsgd1na2vs0mg"},{"bike_id":"14a8345c-1a0a-4f1d-bc10-2f4e01109d1c","system_id":"levelo_inurba_marseille","lat":43.30657,"lon":5.40047,"is_reserved":false,"is_disabled":false,"rental_uris":{"android":"levelo://app?vid=14a8345c-1a0a-4f1d-bc10-2f4e01109d1c","ios":"levelo://app?vid=14a8345c-1a0a-4f1d-bc10-2f4e01109d1c"},"vehicle_type_id":"4","last_reported":1751407809,"current_range_meters":14000,"station_id":"ce4bh112rcd13ifvqda0","pricing_plan_id":"cebpf4jnsgd1na2vs0mg"},{"bike_id":"9100c131-294f-4378-9b77-c233ecbccf9d","system_id":"levelo_inurba_marseille","lat":43.29038,"lon":5.39926,"is_reserved":false,"is_disabled":false,"rental_uris":{"android":"levelo://app?vid=9100c131-294f-4378-9b77-c233ecbccf9d","ios":"levelo://app?vid=9100c131-294f-4378-9b77-c233ecbccf9d"},"vehicle_type_id":"4","last_reported":1751407809,"current_range_meters":14000,"station_id":"ce4bh392rcd13ifvqdm0","pricing_plan_id":"cebpf4jnsgd1na2vs0mg"},{"bike_id":"a8403a11-7708-4518-9856-372a31d0dbd6","system_id":"levelo_inurba_marseille","lat":43.28695,"lon":5.39982,"is_reserved":false,"is_disabled":false,"rental_uris":{"android":"levelo://app?vid=a8403a11-7708-4518-9856-372a31d0dbd6","ios":"levelo://app?vid=a8403a11-7708-4518-9856-372a31d0dbd6"},"vehicle_type_id":"4","last_reported":1751407809,"current_range_meters":14000,"station_id":"ce4bho92rcd13ifvqh3g","pricing_plan_id":"cebpf4jnsgd1na2vs0mg"},{"bike_id":"174b59cd-958d-49ff-99c3-de6f8673461c","system_id":"levelo_inurba_marseille","lat":43.337227,"lon":5.391937,"is_reserved":false,"is_disabled":false,"rental_uris":{"android":"levelo://app?vid=174b59cd-958d-49ff-99c3-de6f8673461c","ios":"levelo://app?vid=174b59cd-958d-49ff-99c3-de6f8673461c"},"vehicle_type_id":"4","last_reported":1751407809,"current_range_meters":14000,"station_id":"ce4bhr92rcd13ifvqhsg","pricing_plan_id":"cebpf4jnsgd1na2vs0mg"},{"bike_id":"fbdf95a7-1dc8-4f76-8fa1-55fe106bde2a","system_id":"levelo_inurba_marseille","lat":43.2694,"lon":5.40254,"is_reserved":false,"is_disabled":false,"rental_uris":{"android":"levelo://app?vid=fbdf95a7-1dc8-4f76-8fa1-55fe106bde2a","ios":"levelo://app?vid=fbdf95a7-1dc8-4f76-8fa1-55fe106bde2a"},"vehicle_type_id":"4","last_reported":1751407809,"current_range_meters":14000,"station_id":"cjm6bp8fraef2m0cb0m0","pricing_plan_id":"cebpf4jnsgd1na2vs0mg"},{"bike_id":"ef523680-e695-47b2-b663-9d1681d0a96f","system_id":"levelo_inurba_marseille","lat":43.30631,"lon":5.40094,"is_reserved":false,"is_disabled":false,"rental_uris":{"android":"levelo://app?vid=ef523680-e695-47b2-b663-9d1681d0a96f","ios":"levelo://app?vid=ef523680-e695-47b2-b663-9d1681d0a96f"},"vehicle_type_id":"4","last_reported":1751407809,"current_range_meters":14400,"station_id":"ce4bh112rcd13ifvqda0","pricing_plan_id":"cebpf4jnsgd1na2vs0mg"},{"bike_id":"670352d3-ba5f-4bd2-a411-8499634517d3","system_id":"levelo_inurba_marseille","lat":43.3232,"lon":5.4062,"is_reserved":false,"is_disabled":false,"rental_uris":{"android":"levelo://app?vid=670352d3-ba5f-4bd2-a411-8499634517d3","ios":"levelo://app?vid=670352d3-ba5f-4bd2-a411-8499634517d3"},"vehicle_type_id":"4","last_reported":1751407809,"current_range_meters":14400,"station_id":"ce4bhq92rcd13ifvqhjg","pricing_plan_id":"cebpf4jnsgd1na2vs0mg"},{"bike_id":"5ea1dd93-3c49-4f8f-bb7f-00d3c982b0ae","system_id":"levelo_inurba_marseille","lat":43.229268,"lon":5.353796,"is_reserved":false,"is_disabled":false,"rental_uris":{"android":"levelo://app?vid=5ea1dd93-3c49-4f8f-bb7f-00d3c982b0ae","ios":"levelo://app?vid=5ea1dd93-3c49-4f8f-bb7f-00d3c982b0ae"},"vehicle_type_id":"4","last_reported":1751407809,"current_range_meters":14400,"station_id":"cpo3532slgdg3j2ikp40","pricing_plan_id":"cebpf4jnsgd1na2vs0mg"},{"bike_id":"bf9a42f0-3236-41b2-aead-463e94f79ff6","system_id":"levelo_inurba_marseille","lat":43.23278,"lon":5.35411,"is_reserved":false,"is_disabled":false,"rental_uris":{"android":"levelo://app?vid=bf9a42f0-3236-41b2-aead-463e94f79ff6","ios":"levelo://app?vid=bf9a42f0-3236-41b2-aead-463e94f79ff6"},"vehicle_type_id":"4","last_reported":1751407809,"current_range_meters":14800,"station_id":"","pricing_plan_id":"cebpf4jnsgd1na2vs0mg"},{"bike_id":"12c8f0e5-0eb8-4779-b094-556c6faf06b5","system_id":"levelo_inurba_marseille","lat":43.31072,"lon":5.38353,"is_reserved":false,"is_disabled":false,"rental_uris":{"android":"levelo://app?vid=12c8f0e5-0eb8-4779-b094-556c6faf06b5","ios":"levelo://app?vid=12c8f0e5-0eb8-4779-b094-556c6faf06b5"},"vehicle_type_id":"4","last_reported":1751407809,"current_range_meters":14800,"station_id":"ce4bgv92rcd13ifvqcr0","pricing_plan_id":"cebpf4jnsgd1na2vs0mg"},{"bike_id":"aa20020f-c0b3-472e-87b1-3641b28bc629","system_id":"levelo_inurba_marseille","lat":43.2868,"lon":5.38668,"is_reserved":false,"is_disabled":false,"rental_uris":{"android":"levelo://app?vid=aa20020f-c0b3-472e-87b1-3641b28bc629","ios":"levelo://app?vid=aa20020f-c0b3-472e-87b1-3641b28bc629"},"vehicle_type_id":"4","last_reported":1751407809,"current_range_meters":14800,"station_id":"ce4bh492rcd13ifvqdug","pricing_plan_id":"cebpf4jnsgd1na2vs0mg"},{"bike_id":"6a133ba4-4761-499b-b84d-fbbe7fead5ab","system_id":"levelo_inurba_marseille","lat":43.28936,"lon":5.36642,"is_reserved":false,"is_disabled":false,"rental_uris":{"android":"levelo://app?vid=6a133ba4-4761-499b-b84d-fbbe7fead5ab","ios":"levelo://app?vid=6a133ba4-4761-499b-b84d-fbbe7fead5ab"},"vehicle_type_id":"4","last_reported":1751407809,"current_range_meters":14800,"station_id":"ce4bhap2rcd13ifvqek0","pricing_plan_id":"cebpf4jnsgd1na2vs0mg"},{"bike_id":"a5b9b559-2e03-43c2-a5e8-b0f1984d17e8","system_id":"levelo_inurba_marseille","lat":43.25001,"lon":5.38924,"is_reserved":false,"is_disabled":false,"rental_uris":{"android":"levelo://app?vid=a5b9b559-2e03-43c2-a5e8-b0f1984d17e8","ios":"levelo://app?vid=a5b9b559-2e03-43c2-a5e8-b0f1984d17e8"},"vehicle_type_id":"4","last_reported":1751407809,"current_range_meters":14800,"station_id":"ce4bhgp2rcd13ifvqfd0","pricing_plan_id":"cebpf4jnsgd1na2vs0mg"},{"bike_id":"5d118b4f-58ea-4de8-8aba-9280737a04c7","system_id":"levelo_inurba_marseille","lat":43.246672,"lon":5.381622,"is_reserved":false,"is_disabled":false,"rental_uris":{"android":"levelo://app?vid=5d118b4f-58ea-4de8-8aba-9280737a04c7","ios":"levelo://app?vid=5d118b4f-58ea-4de8-8aba-9280737a04c7"},"vehicle_type_id":"4","last_reported":1751407809,"current_range_meters":14800,"station_id":"ce4bhih2rcd13ifvqfr0","pricing_plan_id":"cebpf4jnsgd1na2vs0mg"},{"bike_id":"96b6b043-817e-45a0-a067-97c1bfcd6862","system_id":"levelo_inurba_marseille","lat":43.27486,"lon":5.42478,"is_reserved":false,"is_disabled":false,"rental_uris":{"android":"levelo://app?vid=96b6b043-817e-45a0-a067-97c1bfcd6862","ios":"levelo://app?vid=96b6b043-817e-45a0-a067-97c1bfcd6862"},"vehicle_type_id":"4","last_reported":1751407809,"current_range_meters":14800,"station_id":"ce4bhn92rcd13ifvqgrg","pricing_plan_id":"cebpf4jnsgd1na2vs0mg"},{"bike_id":"0e893a70-31b5-4cbe-89a1-f190fe5f41c2","system_id":"levelo_inurba_marseille","lat":43.28711,"lon":5.39993,"is_reserved":false,"is_disabled":false,"rental_uris":{"android":"levelo://app?vid=0e893a70-31b5-4cbe-89a1-f190fe5f41c2","ios":"levelo://app?vid=0e893a70-31b5-4cbe-89a1-f190fe5f41c2"},"vehicle_type_id":"4","last_reported":1751407809,"current_range_meters":14800,"station_id":"ce4bho92rcd13ifvqh3g","pricing_plan_id":"cebpf4jnsgd1na2vs0mg"},{"bike_id":"539ed013-9e80-448a-999f-a7819f54786a","system_id":"levelo_inurba_marseille","lat":43.290309,"lon":5.375668,"is_reserved":false,"is_disabled":false,"rental_uris":{"android":"levelo://app?vid=539ed013-9e80-448a-999f-a7819f54786a","ios":"levelo://app?vid=539ed013-9e80-448a-999f-a7819f54786a"},"vehicle_type_id":"4","last_reported":1751407809,"current_range_meters":15200,"station_id":"","pricing_plan_id":"cebpf4jnsgd1na2vs0mg"},{"bike_id":"a0cef316-ad95-4855-8f78-a31341a2b90e","system_id":"levelo_inurba_marseille","lat":43.31268,"lon":5.37846,"is_reserved":false,"is_disabled":false,"rental_uris":{"android":"levelo://app?vid=a0cef316-ad95-4855-8f78-a31341a2b90e","ios":"levelo://app?vid=a0cef316-ad95-4855-8f78-a31341a2b90e"},"vehicle_type_id":"4","last_reported":1751407809,"current_range_meters":15200,"station_id":"","pricing_plan_id":"cebpf4jnsgd1na2vs0mg"},{"bike_id":"f1b6bdd0-6e44-43a0-a0d1-4c967470767c","system_id":"levelo_inurba_marseille","lat":43.27621,"lon":5.36117,"is_reserved":false,"is_disabled":false,"rental_uris":{"android":"levelo://app?vid=f1b6bdd0-6e44-43a0-a0d1-4c967470767c","ios":"levelo://app?vid=f1b6bdd0-6e44-43a0-a0d1-4c967470767c"},"vehicle_type_id":"4","last_reported":1751407809,"current_range_meters":15200,"station_id":"ce4bgj92rcd13ifvqbe0","pricing_plan_id":"cebpf4jnsgd1na2vs0mg"},{"bike_id":"572efbd4-3040-4e29-aba0-53d59c23467f","system_id":"levelo_inurba_marseille","lat":43.30256,"lon":5.40045,"is_reserved":false,"is_disabled":false,"rental_uris":{"android":"levelo://app?vid=572efbd4-3040-4e29-aba0-53d59c23467f","ios":"levelo://app?vid=572efbd4-3040-4e29-aba0-53d59c23467f"},"vehicle_type_id":"4","last_reported":1751407809,"current_range_meters":15200,"station_id":"ce4bgvh2rcd13ifvqcs0","pricing_plan_id":"cebpf4jnsgd1na2vs0mg"},{"bike_id":"7d6e1860-97b8-412d-a1c1-2461af7a5e02","system_id":"levelo_inurba_marseille","lat":43.27899,"lon":5.38014,"is_reserved":false,"is_disabled":false,"rental_uris":{"android":"levelo://app?vid=7d6e1860-97b8-412d-a1c1-2461af7a5e02","ios":"levelo://app?vid=7d6e1860-97b8-412d-a1c1-2461af7a5e02"},"vehicle_type_id":"4","last_reported":1751407809,"current_range_meters":15200,"station_id":"ce4bhf92rcd13ifvqf50","pricing_plan_id":"cebpf4jnsgd1na2vs0mg"},{"bike_id":"0c1b4f74-5294-4b59-932d-b742ce647d9e","system_id":"levelo_inurba_marseille","lat":43.21183,"lon":5.35089,"is_reserved":false,"is_disabled":false,"rental_uris":{"android":"levelo://app?vid=0c1b4f74-5294-4b59-932d-b742ce647d9e","ios":"levelo://app?vid=0c1b4f74-5294-4b59-932d-b742ce647d9e"},"vehicle_type_id":"4","last_reported":1751407809,"current_range_meters":15200,"station_id":"st_cvj6sg6p6f1abm77japg","pricing_plan_id":"cebpf4jnsgd1na2vs0mg"},{"bike_id":"8a74f5cd-9efa-4362-bea7-a32db4dcc85c","system_id":"levelo_inurba_marseille","lat":43.21223,"lon":5.35064,"is_reserved":false,"is_disabled":false,"rental_uris":{"android":"levelo://app?vid=8a74f5cd-9efa-4362-bea7-a32db4dcc85c","ios":"levelo://app?vid=8a74f5cd-9efa-4362-bea7-a32db4dcc85c"},"vehicle_type_id":"4","last_reported":1751407809,"current_range_meters":16000,"station_id":"","pricing_plan_id":"cebpf4jnsgd1na2vs0mg"},{"bike_id":"31917f7a-b66c-43b0-8d5d-9dbffc8528b9","system_id":"levelo_inurba_marseille","lat":43.30788,"lon":5.38166,"is_reserved":false,"is_disabled":false,"rental_uris":{"android":"levelo://app?vid=31917f7a-b66c-43b0-8d5d-9dbffc8528b9","ios":"levelo://app?vid=31917f7a-b66c-43b0-8d5d-9dbffc8528b9"},"vehicle_type_id":"4","last_reported":1751407809,"current_range_meters":16000,"station_id":"ce4bgt12rcd13ifvqce0","pricing_plan_id":"cebpf4jnsgd1na2vs0mg"},{"bike_id":"1ac3800d-b551-4226-bfa6-fbe7b45ae503","system_id":"levelo_inurba_marseille","lat":43.30651,"lon":5.40098,"is_reserved":false,"is_disabled":false,"rental_uris":{"android":"levelo://app?vid=1ac3800d-b551-4226-bfa6-fbe7b45ae503","ios":"levelo://app?vid=1ac3800d-b551-4226-bfa6-fbe7b45ae503"},"vehicle_type_id":"4","last_reported":1751407809,"current_range_meters":16000,"station_id":"ce4bh112rcd13ifvqda0","pricing_plan_id":"cebpf4jnsgd1na2vs0mg"},{"bike_id":"586532ee-214e-4350-b127-7757b004c27e","system_id":"levelo_inurba_marseille","lat":43.28708,"lon":5.37398,"is_reserved":false,"is_disabled":false,"rental_uris":{"android":"levelo://app?vid=586532ee-214e-4350-b127-7757b004c27e","ios":"levelo://app?vid=586532ee-214e-4350-b127-7757b004c27e"},"vehicle_type_id":"4","last_reported":1751407809,"current_range_meters":16000,"station_id":"ce4bh3p2rcd13ifvqdq0","pricing_plan_id":"cebpf4jnsgd1na2vs0mg"},{"bike_id":"c2cc3873-3136-4ba7-984d-6514f2a6bcc2","system_id":"levelo_inurba_marseille","lat":43.26692,"lon":5.3827,"is_reserved":false,"is_disabled":false,"rental_uris":{"android":"levelo://app?vid=c2cc3873-3136-4ba7-984d-6514f2a6bcc2","ios":"levelo://app?vid=c2cc3873-3136-4ba7-984d-6514f2a6bcc2"},"vehicle_type_id":"4","last_reported":1751407809,"current_range_meters":16000,"station_id":"ce4bhg92rcd13ifvqf90","pricing_plan_id":"cebpf4jnsgd1na2vs0mg"},{"bike_id":"d4c73a67-6ae9-4da7-86b1-c540a417377a","system_id":"levelo_inurba_marseille","lat":43.32345,"lon":5.4062,"is_reserved":false,"is_disabled":false,"rental_uris":{"android":"levelo://app?vid=d4c73a67-6ae9-4da7-86b1-c540a417377a","ios":"levelo://app?vid=d4c73a67-6ae9-4da7-86b1-c540a417377a"},"vehicle_type_id":"4","last_reported":1751407809,"current_range_meters":16000,"station_id":"ce4bhq92rcd13ifvqhjg","pricing_plan_id":"cebpf4jnsgd1na2vs0mg"},{"bike_id":"8783beea-eabc-4c19-b6eb-37f31b538208","system_id":"levelo_inurba_marseille","lat":43.33112,"lon":5.39733,"is_reserved":false,"is_disabled":false,"rental_uris":{"android":"levelo://app?vid=8783beea-eabc-4c19-b6eb-37f31b538208","ios":"levelo://app?vid=8783beea-eabc-4c19-b6eb-37f31b538208"},"vehicle_type_id":"4","last_reported":1751407809,"current_range_meters":16400,"station_id":"","pricing_plan_id":"cebpf4jnsgd1na2vs0mg"},{"bike_id":"a448f526-6496-4e66-a7a3-1b42287d1b35","system_id":"levelo_inurba_marseille","lat":43.2978,"lon":5.39334,"is_reserved":false,"is_disabled":false,"rental_uris":{"android":"levelo://app?vid=a448f526-6496-4e66-a7a3-1b42287d1b35","ios":"levelo://app?vid=a448f526-6496-4e66-a7a3-1b42287d1b35"},"vehicle_type_id":"4","last_reported":1751407809,"current_range_meters":16400,"station_id":"","pricing_plan_id":"cebpf4jnsgd1na2vs0mg"},{"bike_id":"60aed5b4-04a7-4930-a9c4-5540cdbcfb8b","system_id":"levelo_inurba_marseille","lat":43.33777,"lon":5.37457,"is_reserved":false,"is_disabled":false,"rental_uris":{"android":"levelo://app?vid=60aed5b4-04a7-4930-a9c4-5540cdbcfb8b","ios":"levelo://app?vid=60aed5b4-04a7-4930-a9c4-5540cdbcfb8b"},"vehicle_type_id":"4","last_reported":1751407809,"current_range_meters":16400,"station_id":"","pricing_plan_id":"cebpf4jnsgd1na2vs0mg"},{"bike_id":"b6abd69a-fa21-4f4b-8ff9-d4e35691bf66","system_id":"levelo_inurba_marseille","lat":43.30265,"lon":5.40079,"is_reserved":false,"is_disabled":false,"rental_uris":{"android":"levelo://app?vid=b6abd69a-fa21-4f4b-8ff9-d4e35691bf66","ios":"levelo://app?vid=b6abd69a-fa21-4f4b-8ff9-d4e35691bf66"},"vehicle_type_id":"4","last_reported":1751407809,"current_range_meters":16400,"station_id":"ce4bgvh2rcd13ifvqcs0","pricing_plan_id":"cebpf4jnsgd1na2vs0mg"},{"bike_id":"8b44a078-25b6-4fc7-a0ee-3b325d289415","system_id":"levelo_inurba_marseille","lat":43.30931,"lon":5.40146,"is_reserved":false,"is_disabled":false,"rental_uris":{"android":"levelo://app?vid=8b44a078-25b6-4fc7-a0ee-3b325d289415","ios":"levelo://app?vid=8b44a078-25b6-4fc7-a0ee-3b325d289415"},"vehicle_type_id":"4","last_reported":1751407809,"current_range_meters":16400,"station_id":"ce4bgvp2rcd13ifvqct0","pricing_plan_id":"cebpf4jnsgd1na2vs0mg"},{"bike_id":"4ee364e5-d2e6-4657-91d5-078a604c14b0","system_id":"levelo_inurba_marseille","lat":43.30896,"lon":5.39656,"is_reserved":false,"is_disabled":false,"rental_uris":{"android":"levelo://app?vid=4ee364e5-d2e6-4657-91d5-078a604c14b0","ios":"levelo://app?vid=4ee364e5-d2e6-4657-91d5-078a604c14b0"},"vehicle_type_id":"4","last_reported":1751407809,"current_range_meters":16400,"station_id":"ce4bh012rcd13ifvqcv0","pricing_plan_id":"cebpf4jnsgd1na2vs0mg"},{"bike_id":"16fe4b8f-aa54-4e34-9437-7dd47aac9baf","system_id":"levelo_inurba_marseille","lat":43.29023,"lon":5.40002,"is_reserved":false,"is_disabled":false,"rental_uris":{"android":"levelo://app?vid=16fe4b8f-aa54-4e34-9437-7dd47aac9baf","ios":"levelo://app?vid=16fe4b8f-aa54-4e34-9437-7dd47aac9baf"},"vehicle_type_id":"4","last_reported":1751407809,"current_range_meters":16400,"station_id":"ce4bh392rcd13ifvqdm0","pricing_plan_id":"cebpf4jnsgd1na2vs0mg"},{"bike_id":"00d4b252-59fb-4a29-ae45-f25f818e6498","system_id":"levelo_inurba_marseille","lat":43.28997,"lon":5.38137,"is_reserved":false,"is_disabled":false,"rental_uris":{"android":"levelo://app?vid=00d4b252-59fb-4a29-ae45-f25f818e6498","ios":"levelo://app?vid=00d4b252-59fb-4a29-ae45-f25f818e6498"},"vehicle_type_id":"4","last_reported":1751407809,"current_range_meters":16400,"station_id":"ce4bh4p2rcd13ifvqe1g","pricing_plan_id":"cebpf4jnsgd1na2vs0mg"},{"bike_id":"63367367-b385-497d-8b5c-be454710985f","system_id":"levelo_inurba_marseille","lat":43.29266,"lon":5.38434,"is_reserved":false,"is_disabled":false,"rental_uris":{"android":"levelo://app?vid=63367367-b385-497d-8b5c-be454710985f","ios":"levelo://app?vid=63367367-b385-497d-8b5c-be454710985f"},"vehicle_type_id":"4","last_reported":1751407809,"current_range_meters":16400,"station_id":"ce4bh692rcd13ifvqea0","pricing_plan_id":"cebpf4jnsgd1na2vs0mg"},{"bike_id":"1aef026b-d489-4aa5-bf7e-89f611aac7b7","system_id":"levelo_inurba_marseille","lat":43.28428,"lon":5.39183,"is_reserved":false,"is_disabled":false,"rental_uris":{"android":"levelo://app?vid=1aef026b-d489-4aa5-bf7e-89f611aac7b7","ios":"levelo://app?vid=1aef026b-d489-4aa5-bf7e-89f611aac7b7"},"vehicle_type_id":"4","last_reported":1751407809,"current_range_meters":16400,"station_id":"ce4bhoh2rcd13ifvqh5g","pricing_plan_id":"cebpf4jnsgd1na2vs0mg"},{"bike_id":"ee0317a9-0b3d-4631-9294-b4dddc155611","system_id":"levelo_inurba_marseille","lat":43.32351,"lon":5.36753,"is_reserved":false,"is_disabled":false,"rental_uris":{"android":"levelo://app?vid=ee0317a9-0b3d-4631-9294-b4dddc155611","ios":"levelo://app?vid=ee0317a9-0b3d-4631-9294-b4dddc155611"},"vehicle_type_id":"4","last_reported":1751407809,"current_range_meters":16400,"station_id":"ce4bhsh2rcd13ifvqi2g","pricing_plan_id":"cebpf4jnsgd1na2vs0mg"},{"bike_id":"3f0d1be3-df8c-406a-874a-8ed33449ff76","system_id":"levelo_inurba_marseille","lat":43.30896,"lon":5.374139,"is_reserved":false,"is_disabled":false,"rental_uris":{"android":"levelo://app?vid=3f0d1be3-df8c-406a-874a-8ed33449ff76","ios":"levelo://app?vid=3f0d1be3-df8c-406a-874a-8ed33449ff76"},"vehicle_type_id":"4","last_reported":1751407809,"current_range_meters":16800,"station_id":"","pricing_plan_id":"cebpf4jnsgd1na2vs0mg"},{"bike_id":"f00e3044-9bd1-48b5-b342-151af21b34fa","system_id":"levelo_inurba_marseille","lat":43.29985,"lon":5.37398,"is_reserved":false,"is_disabled":false,"rental_uris":{"android":"levelo://app?vid=f00e3044-9bd1-48b5-b342-151af21b34fa","ios":"levelo://app?vid=f00e3044-9bd1-48b5-b342-151af21b34fa"},"vehicle_type_id":"4","last_reported":1751407809,"current_range_meters":16800,"station_id":"","pricing_plan_id":"cebpf4jnsgd1na2vs0mg"},{"bike_id":"2cb4697f-29e8-431a-8ff6-1bd5eef105cf","system_id":"levelo_inurba_marseille","lat":43.31166,"lon":5.38714,"is_reserved":false,"is_disabled":false,"rental_uris":{"android":"levelo://app?vid=2cb4697f-29e8-431a-8ff6-1bd5eef105cf","ios":"levelo://app?vid=2cb4697f-29e8-431a-8ff6-1bd5eef105cf"},"vehicle_type_id":"4","last_reported":1751407809,"current_range_meters":16800,"station_id":"ce4bgv12rcd13ifvqcp0","pricing_plan_id":"cebpf4jnsgd1na2vs0mg"},{"bike_id":"d731f974-3968-42f0-9bb9-4c71b0cda165","system_id":"levelo_inurba_marseille","lat":43.29622,"lon":5.4062,"is_reserved":false,"is_disabled":false,"rental_uris":{"android":"levelo://app?vid=d731f974-3968-42f0-9bb9-4c71b0cda165","ios":"levelo://app?vid=d731f974-3968-42f0-9bb9-4c71b0cda165"},"vehicle_type_id":"4","last_reported":1751407809,"current_range_meters":16800,"station_id":"ce4bh0h2rcd13ifvqd60","pricing_plan_id":"cebpf4jnsgd1na2vs0mg"},{"bike_id":"5725b188-77bd-4f53-a38d-b667a7a2b9de","system_id":"levelo_inurba_marseille","lat":43.28696,"lon":5.37384,"is_reserved":false,"is_disabled":false,"rental_uris":{"android":"levelo://app?vid=5725b188-77bd-4f53-a38d-b667a7a2b9de","ios":"levelo://app?vid=5725b188-77bd-4f53-a38d-b667a7a2b9de"},"vehicle_type_id":"4","last_reported":1751407809,"current_range_meters":16800,"station_id":"ce4bh3p2rcd13ifvqdq0","pricing_plan_id":"cebpf4jnsgd1na2vs0mg"},{"bike_id":"d0f90c24-dd03-411b-9731-55305f76b7c8","system_id":"levelo_inurba_marseille","lat":43.21204,"lon":5.35125,"is_reserved":false,"is_disabled":false,"rental_uris":{"android":"levelo://app?vid=d0f90c24-dd03-411b-9731-55305f76b7c8","ios":"levelo://app?vid=d0f90c24-dd03-411b-9731-55305f76b7c8"},"vehicle_type_id":"4","last_reported":1751407809,"current_range_meters":16800,"station_id":"st_cvj6sg6p6f1abm77japg","pricing_plan_id":"cebpf4jnsgd1na2vs0mg"},{"bike_id":"fdcc33b3-b27b-4fd9-90cb-c9421efe9db6","system_id":"levelo_inurba_marseille","lat":43.27818,"lon":5.41459,"is_reserved":false,"is_disabled":false,"rental_uris":{"android":"levelo://app?vid=fdcc33b3-b27b-4fd9-90cb-c9421efe9db6","ios":"levelo://app?vid=fdcc33b3-b27b-4fd9-90cb-c9421efe9db6"},"vehicle_type_id":"4","last_reported":1751407809,"current_range_meters":17200,"station_id":"","pricing_plan_id":"cebpf4jnsgd1na2vs0mg"},{"bike_id":"53c8e5da-f5e3-4b38-adc1-6a8af76880b0","system_id":"levelo_inurba_marseille","lat":43.25105,"lon":5.40329,"is_reserved":false,"is_disabled":false,"rental_uris":{"android":"levelo://app?vid=53c8e5da-f5e3-4b38-adc1-6a8af76880b0","ios":"levelo://app?vid=53c8e5da-f5e3-4b38-adc1-6a8af76880b0"},"vehicle_type_id":"4","last_reported":1751407809,"current_range_meters":17200,"station_id":"ce4bhlh2rcd13ifvqgig","pricing_plan_id":"cebpf4jnsgd1na2vs0mg"},{"bike_id":"dbe6a7d8-6edc-4015-8658-f68eeb46a661","system_id":"levelo_inurba_marseille","lat":43.33584,"lon":5.39881,"is_reserved":false,"is_disabled":false,"rental_uris":{"android":"levelo://app?vid=dbe6a7d8-6edc-4015-8658-f68eeb46a661","ios":"levelo://app?vid=dbe6a7d8-6edc-4015-8658-f68eeb46a661"},"vehicle_type_id":"4","last_reported":1751407809,"current_range_meters":17600,"station_id":"","pricing_plan_id":"cebpf4jnsgd1na2vs0mg"},{"bike_id":"483ba61c-e9d3-4100-9ca2-9f76b3853385","system_id":"levelo_inurba_marseille","lat":43.312775,"lon":5.400688,"is_reserved":false,"is_disabled":false,"rental_uris":{"android":"levelo://app?vid=483ba61c-e9d3-4100-9ca2-9f76b3853385","ios":"levelo://app?vid=483ba61c-e9d3-4100-9ca2-9f76b3853385"},"vehicle_type_id":"4","last_reported":1751407809,"current_range_meters":17600,"station_id":"ce4bh092rcd13ifvqd30","pricing_plan_id":"cebpf4jnsgd1na2vs0mg"},{"bike_id":"0b952b41-063f-44fd-8039-09856d22ee45","system_id":"levelo_inurba_marseille","lat":43.247973,"lon":5.37454,"is_reserved":false,"is_disabled":false,"rental_uris":{"android":"levelo://app?vid=0b952b41-063f-44fd-8039-09856d22ee45","ios":"levelo://app?vid=0b952b41-063f-44fd-8039-09856d22ee45"},"vehicle_type_id":"4","last_reported":1751407809,"current_range_meters":17600,"station_id":"ce4bhgh2rcd13ifvqfb0","pricing_plan_id":"cebpf4jnsgd1na2vs0mg"},{"bike_id":"d97d51d4-0fbe-4fe4-9443-8370b6ca5f98","system_id":"levelo_inurba_marseille","lat":43.27839,"lon":5.39215,"is_reserved":false,"is_disabled":false,"rental_uris":{"android":"levelo://app?vid=d97d51d4-0fbe-4fe4-9443-8370b6ca5f98","ios":"levelo://app?vid=d97d51d4-0fbe-4fe4-9443-8370b6ca5f98"},"vehicle_type_id":"4","last_reported":1751407809,"current_range_meters":17600,"station_id":"ce4bhjp2rcd13ifvqga0","pricing_plan_id":"cebpf4jnsgd1na2vs0mg"},{"bike_id":"4fd602b9-b9fc-471c-b938-5990c9f13902","system_id":"levelo_inurba_marseille","lat":43.32368,"lon":5.38883,"is_reserved":false,"is_disabled":false,"rental_uris":{"android":"levelo://app?vid=4fd602b9-b9fc-471c-b938-5990c9f13902","ios":"levelo://app?vid=4fd602b9-b9fc-471c-b938-5990c9f13902"},"vehicle_type_id":"4","last_reported":1751407809,"current_range_meters":17600,"station_id":"ce4bhqp2rcd13ifvqhog","pricing_plan_id":"cebpf4jnsgd1na2vs0mg"},{"bike_id":"3e49e6c3-63b1-488b-8c64-bbe9476863c7","system_id":"levelo_inurba_marseille","lat":43.26806,"lon":5.40266,"is_reserved":false,"is_disabled":false,"rental_uris":{"android":"levelo://app?vid=3e49e6c3-63b1-488b-8c64-bbe9476863c7","ios":"levelo://app?vid=3e49e6c3-63b1-488b-8c64-bbe9476863c7"},"vehicle_type_id":"4","last_reported":1751407809,"current_range_meters":17600,"station_id":"ce501612rcd8frsf0b60","pricing_plan_id":"cebpf4jnsgd1na2vs0mg"},{"bike_id":"cfc0aa67-590a-4038-b894-cb7b8f074cc7","system_id":"levelo_inurba_marseille","lat":43.21749,"lon":5.34603,"is_reserved":false,"is_disabled":false,"rental_uris":{"android":"levelo://app?vid=cfc0aa67-590a-4038-b894-cb7b8f074cc7","ios":"levelo://app?vid=cfc0aa67-590a-4038-b894-cb7b8f074cc7"},"vehicle_type_id":"4","last_reported":1751407809,"current_range_meters":17600,"station_id":"st_cvj6r9ubvosntc0bgbag","pricing_plan_id":"cebpf4jnsgd1na2vs0mg"},{"bike_id":"7e62b058-a7ed-4634-80f1-04d3de596de7","system_id":"levelo_inurba_marseille","lat":43.29844,"lon":5.36834,"is_reserved":false,"is_disabled":false,"rental_uris":{"android":"levelo://app?vid=7e62b058-a7ed-4634-80f1-04d3de596de7","ios":"levelo://app?vid=7e62b058-a7ed-4634-80f1-04d3de596de7"},"vehicle_type_id":"4","last_reported":1751407809,"current_range_meters":18000,"station_id":"","pricing_plan_id":"cebpf4jnsgd1na2vs0mg"},{"bike_id":"0851ce37-886a-4d6a-b328-919db362acbf","system_id":"levelo_inurba_marseille","lat":43.30931,"lon":5.40142,"is_reserved":false,"is_disabled":false,"rental_uris":{"android":"levelo://app?vid=0851ce37-886a-4d6a-b328-919db362acbf","ios":"levelo://app?vid=0851ce37-886a-4d6a-b328-919db362acbf"},"vehicle_type_id":"4","last_reported":1751407809,"current_range_meters":18000,"station_id":"ce4bgvp2rcd13ifvqct0","pricing_plan_id":"cebpf4jnsgd1na2vs0mg"},{"bike_id":"ad8e5e49-cf35-4c3e-a6b8-3b4425d9a9e7","system_id":"levelo_inurba_marseille","lat":43.28721,"lon":5.37944,"is_reserved":false,"is_disabled":false,"rental_uris":{"android":"levelo://app?vid=ad8e5e49-cf35-4c3e-a6b8-3b4425d9a9e7","ios":"levelo://app?vid=ad8e5e49-cf35-4c3e-a6b8-3b4425d9a9e7"},"vehicle_type_id":"4","last_reported":1751407809,"current_range_meters":18000,"station_id":"ce4bh9p2rcd13ifvqec0","pricing_plan_id":"cebpf4jnsgd1na2vs0mg"},{"bike_id":"755b12ad-e5aa-4a8f-87f8-64585fb1ce89","system_id":"levelo_inurba_marseille","lat":43.27912,"lon":5.39581,"is_reserved":false,"is_disabled":false,"rental_uris":{"android":"levelo://app?vid=755b12ad-e5aa-4a8f-87f8-64585fb1ce89","ios":"levelo://app?vid=755b12ad-e5aa-4a8f-87f8-64585fb1ce89"},"vehicle_type_id":"4","last_reported":1751407809,"current_range_meters":18000,"station_id":"ce4bhf92rcd13ifvqf40","pricing_plan_id":"cebpf4jnsgd1na2vs0mg"},{"bike_id":"d68dacc3-2ebb-4596-94df-9035662fd853","system_id":"levelo_inurba_marseille","lat":43.257247,"lon":5.411107,"is_reserved":false,"is_disabled":false,"rental_uris":{"android":"levelo://app?vid=d68dacc3-2ebb-4596-94df-9035662fd853","ios":"levelo://app?vid=d68dacc3-2ebb-4596-94df-9035662fd853"},"vehicle_type_id":"4","last_reported":1751407809,"current_range_meters":18000,"station_id":"ce4bhkp2rcd13ifvqgd0","pricing_plan_id":"cebpf4jnsgd1na2vs0mg"},{"bike_id":"12968da4-6587-4337-b41d-8c292aea852f","system_id":"levelo_inurba_marseille","lat":43.319815,"lon":5.371107,"is_reserved":false,"is_disabled":false,"rental_uris":{"android":"levelo://app?vid=12968da4-6587-4337-b41d-8c292aea852f","ios":"levelo://app?vid=12968da4-6587-4337-b41d-8c292aea852f"},"vehicle_type_id":"4","last_reported":1751407809,"current_range_meters":18800,"station_id":"","pricing_plan_id":"cebpf4jnsgd1na2vs0mg"},{"bike_id":"fa9f3c87-2018-4fcf-b548-222d263433ed","system_id":"levelo_inurba_marseille","lat":43.30893,"lon":5.3966,"is_reserved":false,"is_disabled":false,"rental_uris":{"android":"levelo://app?vid=fa9f3c87-2018-4fcf-b548-222d263433ed","ios":"levelo://app?vid=fa9f3c87-2018-4fcf-b548-222d263433ed"},"vehicle_type_id":"4","last_reported":1751407809,"current_range_meters":18800,"station_id":"ce4bh012rcd13ifvqcv0","pricing_plan_id":"cebpf4jnsgd1na2vs0mg"},{"bike_id":"0e030323-4386-4e72-9a0d-0f6a2ff539de","system_id":"levelo_inurba_marseille","lat":43.29626,"lon":5.40546,"is_reserved":false,"is_disabled":false,"rental_uris":{"android":"levelo://app?vid=0e030323-4386-4e72-9a0d-0f6a2ff539de","ios":"levelo://app?vid=0e030323-4386-4e72-9a0d-0f6a2ff539de"},"vehicle_type_id":"4","last_reported":1751407809,"current_range_meters":18800,"station_id":"ce4bh0h2rcd13ifvqd60","pricing_plan_id":"cebpf4jnsgd1na2vs0mg"},{"bike_id":"b3ef04f9-a9ea-41b8-b2f4-c75083167e14","system_id":"levelo_inurba_marseille","lat":43.29034,"lon":5.38662,"is_reserved":false,"is_disabled":false,"rental_uris":{"android":"levelo://app?vid=b3ef04f9-a9ea-41b8-b2f4-c75083167e14","ios":"levelo://app?vid=b3ef04f9-a9ea-41b8-b2f4-c75083167e14"},"vehicle_type_id":"4","last_reported":1751407809,"current_range_meters":18800,"station_id":"ce4bh4p2rcd13ifvqe0g","pricing_plan_id":"cebpf4jnsgd1na2vs0mg"},{"bike_id":"1070b858-51ac-4eb2-b2f5-2f2576b4ea2d","system_id":"levelo_inurba_marseille","lat":43.27974,"lon":5.38741,"is_reserved":false,"is_disabled":false,"rental_uris":{"android":"levelo://app?vid=1070b858-51ac-4eb2-b2f5-2f2576b4ea2d","ios":"levelo://app?vid=1070b858-51ac-4eb2-b2f5-2f2576b4ea2d"},"vehicle_type_id":"4","last_reported":1751407809,"current_range_meters":18800,"station_id":"ce4bhg12rcd13ifvqf80","pricing_plan_id":"cebpf4jnsgd1na2vs0mg"},{"bike_id":"3ba081c0-2d9a-4e9e-bbd4-c134dd8430ee","system_id":"levelo_inurba_marseille","lat":43.25825,"lon":5.39438,"is_reserved":false,"is_disabled":false,"rental_uris":{"android":"levelo://app?vid=3ba081c0-2d9a-4e9e-bbd4-c134dd8430ee","ios":"levelo://app?vid=3ba081c0-2d9a-4e9e-bbd4-c134dd8430ee"},"vehicle_type_id":"4","last_reported":1751407809,"current_range_meters":18800,"station_id":"ce4bhip2rcd13ifvqft0","pricing_plan_id":"cebpf4jnsgd1na2vs0mg"},{"bike_id":"bcfd0eda-b9ab-4bec-9ca3-3f2b86617415","system_id":"levelo_inurba_marseille","lat":43.21195,"lon":5.35063,"is_reserved":false,"is_disabled":false,"rental_uris":{"android":"levelo://app?vid=bcfd0eda-b9ab-4bec-9ca3-3f2b86617415","ios":"levelo://app?vid=bcfd0eda-b9ab-4bec-9ca3-3f2b86617415"},"vehicle_type_id":"4","last_reported":1751407809,"current_range_meters":18800,"station_id":"st_cvj6sg6p6f1abm77japg","pricing_plan_id":"cebpf4jnsgd1na2vs0mg"},{"bike_id":"16a8afe6-e43e-4d1b-a7bd-ed83d113735a","system_id":"levelo_inurba_marseille","lat":43.32436,"lon":5.41185,"is_reserved":false,"is_disabled":false,"rental_uris":{"android":"levelo://app?vid=16a8afe6-e43e-4d1b-a7bd-ed83d113735a","ios":"levelo://app?vid=16a8afe6-e43e-4d1b-a7bd-ed83d113735a"},"vehicle_type_id":"4","last_reported":1751407809,"current_range_meters":19200,"station_id":"","pricing_plan_id":"cebpf4jnsgd1na2vs0mg"},{"bike_id":"d98b4152-dc5c-4709-836d-736229e21c44","system_id":"levelo_inurba_marseille","lat":43.30649,"lon":5.4008,"is_reserved":false,"is_disabled":false,"rental_uris":{"android":"levelo://app?vid=d98b4152-dc5c-4709-836d-736229e21c44","ios":"levelo://app?vid=d98b4152-dc5c-4709-836d-736229e21c44"},"vehicle_type_id":"4","last_reported":1751407809,"current_range_meters":19200,"station_id":"ce4bh112rcd13ifvqda0","pricing_plan_id":"cebpf4jnsgd1na2vs0mg"},{"bike_id":"7440a83d-d2eb-4aec-843d-e9a2bc12e9e7","system_id":"levelo_inurba_marseille","lat":43.24175,"lon":5.39726,"is_reserved":false,"is_disabled":false,"rental_uris":{"android":"levelo://app?vid=7440a83d-d2eb-4aec-843d-e9a2bc12e9e7","ios":"levelo://app?vid=7440a83d-d2eb-4aec-843d-e9a2bc12e9e7"},"vehicle_type_id":"4","last_reported":1751407809,"current_range_meters":19200,"station_id":"ce4bhn12rcd13ifvqgpg","pricing_plan_id":"cebpf4jnsgd1na2vs0mg"},{"bike_id":"d51b4beb-987c-4df3-9faf-2732939b653d","system_id":"levelo_inurba_marseille","lat":43.24077,"lon":5.3776,"is_reserved":false,"is_disabled":false,"rental_uris":{"android":"levelo://app?vid=d51b4beb-987c-4df3-9faf-2732939b653d","ios":"levelo://app?vid=d51b4beb-987c-4df3-9faf-2732939b653d"},"vehicle_type_id":"4","last_reported":1751407809,"current_range_meters":19200,"station_id":"ce4bhnp2rcd13ifvqgvg","pricing_plan_id":"cebpf4jnsgd1na2vs0mg"},{"bike_id":"110be0f7-19b6-4419-935c-8afdb1f29359","system_id":"levelo_inurba_marseille","lat":43.21176,"lon":5.35079,"is_reserved":false,"is_disabled":false,"rental_uris":{"android":"levelo://app?vid=110be0f7-19b6-4419-935c-8afdb1f29359","ios":"levelo://app?vid=110be0f7-19b6-4419-935c-8afdb1f29359"},"vehicle_type_id":"4","last_reported":1751407809,"current_range_meters":19200,"station_id":"st_cvj6sg6p6f1abm77japg","pricing_plan_id":"cebpf4jnsgd1na2vs0mg"},{"bike_id":"09a94feb-8911-4d3d-9f22-a7f611710ea1","system_id":"levelo_inurba_marseille","lat":43.21192,"lon":5.35076,"is_reserved":false,"is_disabled":false,"rental_uris":{"android":"levelo://app?vid=09a94feb-8911-4d3d-9f22-a7f611710ea1","ios":"levelo://app?vid=09a94feb-8911-4d3d-9f22-a7f611710ea1"},"vehicle_type_id":"4","last_reported":1751407809,"current_range_meters":19200,"station_id":"st_cvj6sg6p6f1abm77japg","pricing_plan_id":"cebpf4jnsgd1na2vs0mg"},{"bike_id":"959e6f20-8ed0-4d36-bc1d-3efb82d6190b","system_id":"levelo_inurba_marseille","lat":43.21185,"lon":5.35073,"is_reserved":false,"is_disabled":false,"rental_uris":{"android":"levelo://app?vid=959e6f20-8ed0-4d36-bc1d-3efb82d6190b","ios":"levelo://app?vid=959e6f20-8ed0-4d36-bc1d-3efb82d6190b"},"vehicle_type_id":"4","last_reported":1751407809,"current_range_meters":19200,"station_id":"st_cvj6sg6p6f1abm77japg","pricing_plan_id":"cebpf4jnsgd1na2vs0mg"},{"bike_id":"5b026029-dd11-4f2c-b8e4-e7689d864237","system_id":"levelo_inurba_marseille","lat":43.25107,"lon":5.40324,"is_reserved":false,"is_disabled":false,"rental_uris":{"android":"levelo://app?vid=5b026029-dd11-4f2c-b8e4-e7689d864237","ios":"levelo://app?vid=5b026029-dd11-4f2c-b8e4-e7689d864237"},"vehicle_type_id":"4","last_reported":1751407809,"current_range_meters":19600,"station_id":"ce4bhlh2rcd13ifvqgig","pricing_plan_id":"cebpf4jnsgd1na2vs0mg"},{"bike_id":"eec7b02a-461b-41f7-b40b-680625481db1","system_id":"levelo_inurba_marseille","lat":43.245697,"lon":5.395089,"is_reserved":false,"is_disabled":false,"rental_uris":{"android":"levelo://app?vid=eec7b02a-461b-41f7-b40b-680625481db1","ios":"levelo://app?vid=eec7b02a-461b-41f7-b40b-680625481db1"},"vehicle_type_id":"4","last_reported":1751407809,"current_range_meters":19600,"station_id":"ce4bhlp2rcd13ifvqgjg","pricing_plan_id":"cebpf4jnsgd1na2vs0mg"},{"bike_id":"8bf0d992-d2a0-428e-940a-091ee9b7c2a4","system_id":"levelo_inurba_marseille","lat":43.21197,"lon":5.35092,"is_reserved":false,"is_disabled":false,"rental_uris":{"android":"levelo://app?vid=8bf0d992-d2a0-428e-940a-091ee9b7c2a4","ios":"levelo://app?vid=8bf0d992-d2a0-428e-940a-091ee9b7c2a4"},"vehicle_type_id":"4","last_reported":1751407809,"current_range_meters":19600,"station_id":"st_cvj6sg6p6f1abm77japg","pricing_plan_id":"cebpf4jnsgd1na2vs0mg"},{"bike_id":"8e4147e3-1b40-4975-a726-63764f255202","system_id":"levelo_inurba_marseille","lat":43.27618,"lon":5.36114,"is_reserved":false,"is_disabled":false,"rental_uris":{"android":"levelo://app?vid=8e4147e3-1b40-4975-a726-63764f255202","ios":"levelo://app?vid=8e4147e3-1b40-4975-a726-63764f255202"},"vehicle_type_id":"4","last_reported":1751407809,"current_range_meters":20000,"station_id":"ce4bgj92rcd13ifvqbe0","pricing_plan_id":"cebpf4jnsgd1na2vs0mg"},{"bike_id":"e851b945-b8d7-415a-a64d-93f2c8adc264","system_id":"levelo_inurba_marseille","lat":43.30149,"lon":5.38079,"is_reserved":false,"is_disabled":false,"rental_uris":{"android":"levelo://app?vid=e851b945-b8d7-415a-a64d-93f2c8adc264","ios":"levelo://app?vid=e851b945-b8d7-415a-a64d-93f2c8adc264"},"vehicle_type_id":"4","last_reported":1751407809,"current_range_meters":20000,"station_id":"ce4bgjp2rcd13ifvqbh0","pricing_plan_id":"cebpf4jnsgd1na2vs0mg"},{"bike_id":"43831cd0-714e-4395-8b12-16bdff27da35","system_id":"levelo_inurba_marseille","lat":43.23968,"lon":5.36628,"is_reserved":false,"is_disabled":false,"rental_uris":{"android":"levelo://app?vid=43831cd0-714e-4395-8b12-16bdff27da35","ios":"levelo://app?vid=43831cd0-714e-4395-8b12-16bdff27da35"},"vehicle_type_id":"4","last_reported":1751407809,"current_range_meters":20000,"station_id":"ce4bhi12rcd13ifvqfp0","pricing_plan_id":"cebpf4jnsgd1na2vs0mg"},{"bike_id":"3a2acf37-c336-4877-90aa-14aff68174fc","system_id":"levelo_inurba_marseille","lat":43.24664,"lon":5.38168,"is_reserved":false,"is_disabled":false,"rental_uris":{"android":"levelo://app?vid=3a2acf37-c336-4877-90aa-14aff68174fc","ios":"levelo://app?vid=3a2acf37-c336-4877-90aa-14aff68174fc"},"vehicle_type_id":"4","last_reported":1751407809,"current_range_meters":20000,"station_id":"ce4bhih2rcd13ifvqfr0","pricing_plan_id":"cebpf4jnsgd1na2vs0mg"},{"bike_id":"9092aa20-6983-4a86-a670-05977151b1cd","system_id":"levelo_inurba_marseille","lat":43.26224,"lon":5.40449,"is_reserved":false,"is_disabled":false,"rental_uris":{"android":"levelo://app?vid=9092aa20-6983-4a86-a670-05977151b1cd","ios":"levelo://app?vid=9092aa20-6983-4a86-a670-05977151b1cd"},"vehicle_type_id":"4","last_reported":1751407809,"current_range_meters":20000,"station_id":"ce4bhmh2rcd13ifvqgmg","pricing_plan_id":"cebpf4jnsgd1na2vs0mg"},{"bike_id":"5e9b0be5-81b7-41eb-9e43-3711c5852d6f","system_id":"levelo_inurba_marseille","lat":43.31701,"lon":5.43711,"is_reserved":false,"is_disabled":false,"rental_uris":{"android":"levelo://app?vid=5e9b0be5-81b7-41eb-9e43-3711c5852d6f","ios":"levelo://app?vid=5e9b0be5-81b7-41eb-9e43-3711c5852d6f"},"vehicle_type_id":"4","last_reported":1751407809,"current_range_meters":20000,"station_id":"ce4bhp92rcd13ifvqhcg","pricing_plan_id":"cebpf4jnsgd1na2vs0mg"},{"bike_id":"c10a4283-320d-4e64-8d75-ff83e94026ba","system_id":"levelo_inurba_marseille","lat":43.21188,"lon":5.35083,"is_reserved":false,"is_disabled":false,"rental_uris":{"android":"levelo://app?vid=c10a4283-320d-4e64-8d75-ff83e94026ba","ios":"levelo://app?vid=c10a4283-320d-4e64-8d75-ff83e94026ba"},"vehicle_type_id":"4","last_reported":1751407809,"current_range_meters":20000,"station_id":"st_cvj6sg6p6f1abm77japg","pricing_plan_id":"cebpf4jnsgd1na2vs0mg"},{"bike_id":"06720856-2688-4953-8fcd-ef86831286c9","system_id":"levelo_inurba_marseille","lat":43.30289,"lon":5.377,"is_reserved":false,"is_disabled":false,"rental_uris":{"android":"levelo://app?vid=06720856-2688-4953-8fcd-ef86831286c9","ios":"levelo://app?vid=06720856-2688-4953-8fcd-ef86831286c9"},"vehicle_type_id":"4","last_reported":1751407809,"current_range_meters":20400,"station_id":"ce4bguh2rcd13ifvqcj0","pricing_plan_id":"cebpf4jnsgd1na2vs0mg"},{"bike_id":"53357e14-8322-41ce-9b6a-e5c7b975dff4","system_id":"levelo_inurba_marseille","lat":43.26223,"lon":5.404551,"is_reserved":false,"is_disabled":false,"rental_uris":{"android":"levelo://app?vid=53357e14-8322-41ce-9b6a-e5c7b975dff4","ios":"levelo://app?vid=53357e14-8322-41ce-9b6a-e5c7b975dff4"},"vehicle_type_id":"4","last_reported":1751407809,"current_range_meters":20400,"station_id":"ce4bhmh2rcd13ifvqgmg","pricing_plan_id":"cebpf4jnsgd1na2vs0mg"},{"bike_id":"07192015-99ba-4130-b8f4-3539a090248b","system_id":"levelo_inurba_marseille","lat":43.31723,"lon":5.42398,"is_reserved":false,"is_disabled":false,"rental_uris":{"android":"levelo://app?vid=07192015-99ba-4130-b8f4-3539a090248b","ios":"levelo://app?vid=07192015-99ba-4130-b8f4-3539a090248b"},"vehicle_type_id":"4","last_reported":1751407809,"current_range_meters":20400,"station_id":"ce4bhp92rcd13ifvqhbg","pricing_plan_id":"cebpf4jnsgd1na2vs0mg"},{"bike_id":"6d2da863-a742-45db-855b-55a94467cfa4","system_id":"levelo_inurba_marseille","lat":43.32607,"lon":5.42759,"is_reserved":false,"is_disabled":false,"rental_uris":{"android":"levelo://app?vid=6d2da863-a742-45db-855b-55a94467cfa4","ios":"levelo://app?vid=6d2da863-a742-45db-855b-55a94467cfa4"},"vehicle_type_id":"4","last_reported":1751407809,"current_range_meters":20800,"station_id":"","pricing_plan_id":"cebpf4jnsgd1na2vs0mg"},{"bike_id":"e8237fb6-bcf7-44f0-be8c-41d044739953","system_id":"levelo_inurba_marseille","lat":43.29534,"lon":5.39401,"is_reserved":false,"is_disabled":false,"rental_uris":{"android":"levelo://app?vid=e8237fb6-bcf7-44f0-be8c-41d044739953","ios":"levelo://app?vid=e8237fb6-bcf7-44f0-be8c-41d044739953"},"vehicle_type_id":"4","last_reported":1751407809,"current_range_meters":20800,"station_id":"ce4bh292rcd13ifvqdf0","pricing_plan_id":"cebpf4jnsgd1na2vs0mg"},{"bike_id":"a6421fcf-2207-47cf-9e3e-818c0e3f51fe","system_id":"levelo_inurba_marseille","lat":43.28103,"lon":5.37841,"is_reserved":false,"is_disabled":false,"rental_uris":{"android":"levelo://app?vid=a6421fcf-2207-47cf-9e3e-818c0e3f51fe","ios":"levelo://app?vid=a6421fcf-2207-47cf-9e3e-818c0e3f51fe"},"vehicle_type_id":"4","last_reported":1751407809,"current_range_meters":20800,"station_id":"ce4bha12rcd13ifvqee0","pricing_plan_id":"cebpf4jnsgd1na2vs0mg"},{"bike_id":"dd879079-cc55-4012-adc0-b44766bb7d50","system_id":"levelo_inurba_marseille","lat":43.24664,"lon":5.38169,"is_reserved":false,"is_disabled":false,"rental_uris":{"android":"levelo://app?vid=dd879079-cc55-4012-adc0-b44766bb7d50","ios":"levelo://app?vid=dd879079-cc55-4012-adc0-b44766bb7d50"},"vehicle_type_id":"4","last_reported":1751407809,"current_range_meters":20800,"station_id":"ce4bhih2rcd13ifvqfr0","pricing_plan_id":"cebpf4jnsgd1na2vs0mg"},{"bike_id":"1c953bc3-c110-4d5b-a309-173d94b818c7","system_id":"levelo_inurba_marseille","lat":43.232114,"lon":5.436156,"is_reserved":false,"is_disabled":false,"rental_uris":{"android":"levelo://app?vid=1c953bc3-c110-4d5b-a309-173d94b818c7","ios":"levelo://app?vid=1c953bc3-c110-4d5b-a309-173d94b818c7"},"vehicle_type_id":"4","last_reported":1751407809,"current_range_meters":20800,"station_id":"ce4bhmp2rcd13ifvqgog","pricing_plan_id":"cebpf4jnsgd1na2vs0mg"},{"bike_id":"78811adb-f50c-4bb7-82e3-1b69d586dfc1","system_id":"levelo_inurba_marseille","lat":43.293111,"lon":5.374691,"is_reserved":false,"is_disabled":false,"rental_uris":{"android":"levelo://app?vid=78811adb-f50c-4bb7-82e3-1b69d586dfc1","ios":"levelo://app?vid=78811adb-f50c-4bb7-82e3-1b69d586dfc1"},"vehicle_type_id":"4","last_reported":1751407809,"current_range_meters":21600,"station_id":"","pricing_plan_id":"cebpf4jnsgd1na2vs0mg"},{"bike_id":"fafa3e7a-ea85-47b9-9867-4cc150a47aaa","system_id":"levelo_inurba_marseille","lat":43.31067,"lon":5.38357,"is_reserved":false,"is_disabled":false,"rental_uris":{"android":"levelo://app?vid=fafa3e7a-ea85-47b9-9867-4cc150a47aaa","ios":"levelo://app?vid=fafa3e7a-ea85-47b9-9867-4cc150a47aaa"},"vehicle_type_id":"4","last_reported":1751407809,"current_range_meters":21600,"station_id":"ce4bgv92rcd13ifvqcr0","pricing_plan_id":"cebpf4jnsgd1na2vs0mg"},{"bike_id":"8b363085-4d4c-4b50-8762-189afb6b83dc","system_id":"levelo_inurba_marseille","lat":43.30635,"lon":5.40095,"is_reserved":false,"is_disabled":false,"rental_uris":{"android":"levelo://app?vid=8b363085-4d4c-4b50-8762-189afb6b83dc","ios":"levelo://app?vid=8b363085-4d4c-4b50-8762-189afb6b83dc"},"vehicle_type_id":"4","last_reported":1751407809,"current_range_meters":21600,"station_id":"ce4bh112rcd13ifvqda0","pricing_plan_id":"cebpf4jnsgd1na2vs0mg"},{"bike_id":"0f1ad247-ba2f-4a7c-8933-f7432279af1a","system_id":"levelo_inurba_marseille","lat":43.29275,"lon":5.40131,"is_reserved":false,"is_disabled":false,"rental_uris":{"android":"levelo://app?vid=0f1ad247-ba2f-4a7c-8933-f7432279af1a","ios":"levelo://app?vid=0f1ad247-ba2f-4a7c-8933-f7432279af1a"},"vehicle_type_id":"4","last_reported":1751407809,"current_range_meters":21600,"station_id":"ce4bh312rcd13ifvqdk0","pricing_plan_id":"cebpf4jnsgd1na2vs0mg"},{"bike_id":"d9f8fc09-cb79-4422-a73e-108b4363f4bb","system_id":"levelo_inurba_marseille","lat":43.29043,"lon":5.39966,"is_reserved":false,"is_disabled":false,"rental_uris":{"android":"levelo://app?vid=d9f8fc09-cb79-4422-a73e-108b4363f4bb","ios":"levelo://app?vid=d9f8fc09-cb79-4422-a73e-108b4363f4bb"},"vehicle_type_id":"4","last_reported":1751407809,"current_range_meters":21600,"station_id":"ce4bh392rcd13ifvqdm0","pricing_plan_id":"cebpf4jnsgd1na2vs0mg"},{"bike_id":"7e8761bb-bfe1-4a6e-b90d-5fa4a36f6e8e","system_id":"levelo_inurba_marseille","lat":43.24546,"lon":5.39523,"is_reserved":false,"is_disabled":false,"rental_uris":{"android":"levelo://app?vid=7e8761bb-bfe1-4a6e-b90d-5fa4a36f6e8e","ios":"levelo://app?vid=7e8761bb-bfe1-4a6e-b90d-5fa4a36f6e8e"},"vehicle_type_id":"4","last_reported":1751407809,"current_range_meters":21600,"station_id":"ce4bhlp2rcd13ifvqgjg","pricing_plan_id":"cebpf4jnsgd1na2vs0mg"},