{"last_updated":1742832790,"ttl":60,"version":"2.2","data":{"bikes":[{"bike_id":"71766c1f-8a73-40ee-9c76-d95c932ef439","system_id":"levelo_inurba_marseille","lat":43.28076,"lon":5.39656,"is_reserved":false,"is_disabled":false,"rental_uris":{"android":"levelo://app?vid=71766c1f-8a73-40ee-9c76-d95c932ef439","ios":"levelo://app?vid=71766c1f-8a73-40ee-9c76-d95c932ef439"},"vehicle_type_id":"4","last_reported":1742832790,"current_range_meters":2800,"station_id":"ce4bho12rcd13ifvqh2g","pricing_plan_id":"cebpf4jnsgd1na2vs0mg"},{"bike_id":"2c5db940-bc91-49a2-9551-bdf8643b9a7c","system_id":"levelo_inurba_marseille","lat":43.28916,"lon":5.38389,"is_reserved":false,"is_disabled":false,"rental_uris":{"android":"levelo://app?vid=2c5db940-bc91-49a2-9551-bdf8643b9a7c","ios":"levelo://app?vid=2c5db940-bc91-49a2-9551-bdf8643b9a7c"},"vehicle_type_id":"4","last_reported":1742832790,"current_range_meters":2800,"station_id":"ce4bh612rcd13ifvqe6g","pricing_plan_id":"cebpf4jnsgd1na2vs0mg"},{"bike_id":"1bf06481-d9a0-4112-85ce-090f0c187592","system_id":"levelo_inurba_marseille","lat":43.30805,"lon":5.43521,"is_reserved":false,"is_disabled":false,"rental_uris":{"android":"levelo://app?vid=1bf06481-d9a0-4112-85ce-090f0c187592","ios":"levelo://app?vid=1bf06481-d9a0-4112-85ce-090f0c187592"},"vehicle_type_id":"4","last_reported":1742832790,"current_range_meters":3600,"station_id":"ce4bhph2rcd13ifvqheg","pricing_plan_id":"cebpf4jnsgd1na2vs0mg"},{"bike_id":"aa971d6e-0a7a-47a8-9093-5dc28d1fa02d","system_id":"levelo_inurba_marseille","lat":43.26504,"lon":5.39513,"is_reserved":false,"is_disabled":false,"rental_uris":{"android":"levelo://app?vid=aa971d6e-0a7a-47a8-9093-5dc28d1fa02d","ios":"levelo://app?vid=aa971d6e-0a7a-47a8-9093-5dc28d1fa02d"},"vehicle_type_id":"4","last_reported":1742832790,"current_range_meters":3600,"station_id":"ce4bhi12rcd13ifvqfq0","pricing_plan_id":"cebpf4jnsgd1na2vs0mg"},{"bike_id":"5d02a7d5-3f53-4a08-a41f-f64309d50dd3","system_id":"levelo_inurba_marseille","lat":43.28463,"lon":5.35874,"is_reserved":false,"is_disabled":false,"rental_uris":{"android":"levelo://app?vid=5d02a7d5-3f53-4a08-a41f-f64309d50dd3","ios":"levelo://app?vid=5d02a7d5-3f53-4a08-a41f-f64309d50dd3"},"vehicle_type_id":"4","last_reported":1742832790,"current_range_meters":3600,"station_id":"ce4bhah2rcd13ifvqei0","pricing_plan_id":"cebpf4jnsgd1na2vs0mg"},{"bike_id":"6da44af1-8b7c-4791-bcb1-30013b0638eb","system_id":"levelo_inurba_marseille","lat":43.2732,"lon":5.39074,"is_reserved":false,"is_disabled":true,"rental_uris":{"android":"levelo://app?vid=6da44af1-8b7c-4791-bcb1-30013b0638eb","ios":"levelo://app?vid=6da44af1-8b7c-4791-bcb1-30013b0638eb"},"vehicle_type_id":"4","last_reported":1742832790,"current_range_meters":4000,"station_id":"ce4bhgp2rcd13ifvqfe0","pricing_plan_id":"cebpf4jnsgd1na2vs0mg"},{"bike_id":"86b056c0-541a-4e34-ba80-cdd6cae4e027","system_id":"levelo_inurba_marseille","lat":43.2572,"lon":5.4111,"is_reserved":false,"is_disabled":false,"rental_uris":{"android":"levelo://app?vid=86b056c0-541a-4e34-ba80-cdd6cae4e027","ios":"levelo://app?vid=86b056c0-541a-4e34-ba80-cdd6cae4e027"},"vehicle_type_id":"4","last_reported":1742832790,"current_range_meters":4000,"station_id":"ce4bhkp2rcd13ifvqgd0","pricing_plan_id":"cebpf4jnsgd1na2vs0mg"},{"bike_id":"942167dc-cfa0-4955-814c-3c8e85385a96","system_id":"levelo_inurba_marseille","lat":43.23045,"lon":5.35501,"is_reserved":false,"is_disabled":false,"rental_uris":{"android":"levelo://app?vid=942167dc-cfa0-4955-814c-3c8e85385a96","ios":"levelo://app?vid=942167dc-cfa0-4955-814c-3c8e85385a96"},"vehicle_type_id":"4","last_reported":1742832790,"current_range_meters":4400,"station_id":"cpo3342slgdg3j2ifvpg","pricing_plan_id":"cebpf4jnsgd1na2vs0mg"},{"bike_id":"2a12ba00-678e-4052-8eb0-35456707d8a5","system_id":"levelo_inurba_marseille","lat":43.27441,"lon":5.39419,"is_reserved":false,"is_disabled":false,"rental_uris":{"android":"levelo://app?vid=2a12ba00-678e-4052-8eb0-35456707d8a5","ios":"levelo://app?vid=2a12ba00-678e-4052-8eb0-35456707d8a5"},"vehicle_type_id":"4","last_reported":1742832790,"current_range_meters":4400,"station_id":"ce4bhdp2rcd13ifvqf20","pricing_plan_id":"cebpf4jnsgd1na2vs0mg"},{"bike_id":"a97bb306-95df-4c8f-ae32-e42f6c3f989a","system_id":"levelo_inurba_marseille","lat":43.30133,"lon":5.38791,"is_reserved":false,"is_disabled":false,"rental_uris":{"android":"levelo://app?vid=a97bb306-95df-4c8f-ae32-e42f6c3f989a","ios":"levelo://app?vid=a97bb306-95df-4c8f-ae32-e42f6c3f989a"},"vehicle_type_id":"4","last_reported":1742832790,"current_range_meters":4400,"station_id":"ce4bhr92rcd13ifvqhsg","pricing_plan_id":"cebpf4jnsgd1na2vs0mg"},{"bike_id":"2b97c6c8-6b27-48dc-abad-8bcf29b097e0","system_id":"levelo_inurba_marseille","lat":43.26806,"lon":5.39431,"is_reserved":false,"is_disabled":true,"rental_uris":{"android":"levelo://app?vid=2b97c6c8-6b27-48dc-abad-8bcf29b097e0","ios":"levelo://app?vid=2b97c6c8-6b27-48dc-abad-8bcf29b097e0"},"vehicle_type_id":"4","last_reported":1742832790,"current_range_meters":4800,"station_id":"ce4bhh12rcd13ifvqfg0","pricing_plan_id":"cebpf4jnsgd1na2vs0mg"},{"bike_id":"f7554dbb-76d6-4cc2-8f20-ed8d91f2de72","system_id":"levelo_inurba_marseille","lat":43.26811,"lon":5.40236,"is_reserved":false,"is_disabled":false,"rental_uris":{"android":"levelo://app?vid=f7554dbb-76d6-4cc2-8f20-ed8d91f2de72","ios":"levelo://app?vid=f7554dbb-76d6-4cc2-8f20-ed8d91f2de72"},"vehicle_type_id":"4","last_reported":1742832790,"current_range_meters":5600,"station_id":"ce501612rcd8frsf0b60","pricing_plan_id":"cebpf4jnsgd1na2vs0mg"},{"bike_id":"0dd409e0-1b40-472a-8498-d4ab876f4f7f","system_id":"levelo_inurba_marseille","lat":43.26196,"lon":5.37446,"is_reserved":false,"is_disabled":false,"rental_uris":{"android":"levelo://app?vid=0dd409e0-1b40-472a-8498-d4ab876f4f7f","ios":"levelo://app?vid=0dd409e0-1b40-472a-8498-d4ab876f4f7f"},"vehicle_type_id":"4","last_reported":1742832790,"current_range_meters":5600,"station_id":"ce4bhgp2rcd13ifvqfc0","pricing_plan_id":"cebpf4jnsgd1na2vs0mg"},{"bike_id":"3ccfdee9-7897-4b10-9510-003495973830","system_id":"levelo_inurba_marseille","lat":43.29535,"lon":5.3854,"is_reserved":false,"is_disabled":false,"rental_uris":{"android":"levelo://app?vid=3ccfdee9-7897-4b10-9510-003495973830","ios":"levelo://app?vid=3ccfdee9-7897-4b10-9510-003495973830"},"vehicle_type_id":"4","last_reported":1742832790,"current_range_meters":6000,"station_id":"ce4bgih2rcd13ifvqba0","pricing_plan_id":"cebpf4jnsgd1na2vs0mg"},{"bike_id":"c39dd98d-a26b-4e88-b10d-b4d4975f426e","system_id":"levelo_inurba_marseille","lat":43.29007,"lon":5.356295,"is_reserved":false,"is_disabled":false,"rental_uris":{"android":"levelo://app?vid=c39dd98d-a26b-4e88-b10d-b4d4975f426e","ios":"levelo://app?vid=c39dd98d-a26b-4e88-b10d-b4d4975f426e"},"vehicle_type_id":"4","last_reported":1742832790,"current_range_meters":6000,"station_id":"ce4bhb92rcd13ifvqen0","pricing_plan_id":"cebpf4jnsgd1na2vs0mg"},{"bike_id":"ec47b621-0fa7-4b48-b122-bffe26d4b5c9","system_id":"levelo_inurba_marseille","lat":43.24153,"lon":5.36388,"is_reserved":false,"is_disabled":false,"rental_uris":{"android":"levelo://app?vid=ec47b621-0fa7-4b48-b122-bffe26d4b5c9","ios":"levelo://app?vid=ec47b621-0fa7-4b48-b122-bffe26d4b5c9"},"vehicle_type_id":"4","last_reported":1742832790,"current_range_meters":6000,"station_id":"cpo36qri1sfpv3e86is0","pricing_plan_id":"cebpf4jnsgd1na2vs0mg"},{"bike_id":"55dcf9be-3701-4d33-9a9d-5851f359cf8f","system_id":"levelo_inurba_marseille","lat":43.29801,"lon":5.3813,"is_reserved":false,"is_disabled":false,"rental_uris":{"android":"levelo://app?vid=55dcf9be-3701-4d33-9a9d-5851f359cf8f","ios":"levelo://app?vid=55dcf9be-3701-4d33-9a9d-5851f359cf8f"},"vehicle_type_id":"4","last_reported":1742832790,"current_range_meters":6000,"station_id":"ce4bgip2rcd13ifvqbb0","pricing_plan_id":"cebpf4jnsgd1na2vs0mg"},{"bike_id":"3ab6923b-ee03-401d-a5c1-aac47b0da5bc","system_id":"levelo_inurba_marseille","lat":43.24386,"lon":5.37056,"is_reserved":false,"is_disabled":false,"rental_uris":{"android":"levelo://app?vid=3ab6923b-ee03-401d-a5c1-aac47b0da5bc","ios":"levelo://app?vid=3ab6923b-ee03-401d-a5c1-aac47b0da5bc"},"vehicle_type_id":"4","last_reported":1742832790,"current_range_meters":6000,"station_id":"ce4bhhh2rcd13ifvqfk0","pricing_plan_id":"cebpf4jnsgd1na2vs0mg"},{"bike_id":"12ae23dc-6bf6-42d3-9b0b-d314db395f4d","system_id":"levelo_inurba_marseille","lat":43.28005,"lon":5.40013,"is_reserved":false,"is_disabled":false,"rental_uris":{"android":"levelo://app?vid=12ae23dc-6bf6-42d3-9b0b-d314db395f4d","ios":"levelo://app?vid=12ae23dc-6bf6-42d3-9b0b-d314db395f4d"},"vehicle_type_id":"4","last_reported":1742832790,"current_range_meters":6000,"station_id":"ce4bho92rcd13ifvqh4g","pricing_plan_id":"cebpf4jnsgd1na2vs0mg"},{"bike_id":"411b428a-be3d-4303-a051-cffaae886dc8","system_id":"levelo_inurba_marseille","lat":43.24172,"lon":5.364,"is_reserved":false,"is_disabled":false,"rental_uris":{"android":"levelo://app?vid=411b428a-be3d-4303-a051-cffaae886dc8","ios":"levelo://app?vid=411b428a-be3d-4303-a051-cffaae886dc8"},"vehicle_type_id":"4","last_reported":1742832790,"current_range_meters":6400,"station_id":"cpo36qri1sfpv3e86is0","pricing_plan_id":"cebpf4jnsgd1na2vs0mg"},{"bike_id":"33a6cce2-0fa5-4538-a99e-e8e1a9c55e18","system_id":"levelo_inurba_marseille","lat":43.25823,"lon":5.3944,"is_reserved":false,"is_disabled":false,"rental_uris":{"android":"levelo://app?vid=33a6cce2-0fa5-4538-a99e-e8e1a9c55e18","ios":"levelo://app?vid=33a6cce2-0fa5-4538-a99e-e8e1a9c55e18"},"vehicle_type_id":"4","last_reported":1742832790,"current_range_meters":6000,"station_id":"ce4bhip2rcd13ifvqft0","pricing_plan_id":"cebpf4jnsgd1na2vs0mg"},{"bike_id":"9e4ebce5-e1a5-4283-aca3-cb0999d6416c","system_id":"levelo_inurba_marseille","lat":43.2926,"lon":5.40895,"is_reserved":false,"is_disabled":false,"rental_uris":{"android":"levelo://app?vid=9e4ebce5-e1a5-4283-aca3-cb0999d6416c","ios":"levelo://app?vid=9e4ebce5-e1a5-4283-aca3-cb0999d6416c"},"vehicle_type_id":"4","last_reported":1742832790,"current_range_meters":6400,"station_id":"ce4bh192rcd13ifvqdc0","pricing_plan_id":"cebpf4jnsgd1na2vs0mg"},{"bike_id":"9f33d375-ee65-41c2-a683-00a5644d1df3","system_id":"levelo_inurba_marseille","lat":43.30416,"lon":5.37805,"is_reserved":false,"is_disabled":false,"rental_uris":{"android":"levelo://app?vid=9f33d375-ee65-41c2-a683-00a5644d1df3","ios":"levelo://app?vid=9f33d375-ee65-41c2-a683-00a5644d1df3"},"vehicle_type_id":"4","last_reported":1742832790,"current_range_meters":6400,"station_id":"","pricing_plan_id":"cebpf4jnsgd1na2vs0mg"},{"bike_id":"47e05998-50ad-4f57-a8ed-e269ea20f151","system_id":"levelo_inurba_marseille","lat":43.27915,"lon":5.39599,"is_reserved":false,"is_disabled":false,"rental_uris":{"android":"levelo://app?vid=47e05998-50ad-4f57-a8ed-e269ea20f151","ios":"levelo://app?vid=47e05998-50ad-4f57-a8ed-e269ea20f151"},"vehicle_type_id":"4","last_reported":1742832790,"current_range_meters":6800,"station_id":"ce4bhf92rcd13ifvqf40","pricing_plan_id":"cebpf4jnsgd1na2vs0mg"},{"bike_id":"1b7c5e4e-130d-4e75-8db2-feee0d51fa46","system_id":"levelo_inurba_marseille","lat":43.24179,"lon":5.39708,"is_reserved":false,"is_disabled":false,"rental_uris":{"android":"levelo://app?vid=1b7c5e4e-130d-4e75-8db2-feee0d51fa46","ios":"levelo://app?vid=1b7c5e4e-130d-4e75-8db2-feee0d51fa46"},"vehicle_type_id":"4","last_reported":1742832790,"current_range_meters":6800,"station_id":"ce4bhn12rcd13ifvqgpg","pricing_plan_id":"cebpf4jnsgd1na2vs0mg"},{"bike_id":"d1f993ec-8e82-4e82-a38b-e848ded0cf74","system_id":"levelo_inurba_marseille","lat":43.25093,"lon":5.39522,"is_reserved":false,"is_disabled":false,"rental_uris":{"android":"levelo://app?vid=d1f993ec-8e82-4e82-a38b-e848ded0cf74","ios":"levelo://app?vid=d1f993ec-8e82-4e82-a38b-e848ded0cf74"},"vehicle_type_id":"4","last_reported":1742832790,"current_range_meters":6800,"station_id":"ce4bhm12rcd13ifvqgkg","pricing_plan_id":"cebpf4jnsgd1na2vs0mg"},{"bike_id":"5cbb11b1-f9ea-4d27-89bf-e8834c3fec70","system_id":"levelo_inurba_marseille","lat":43.29967,"lon":5.38504,"is_reserved":false,"is_disabled":false,"rental_uris":{"android":"levelo://app?vid=5cbb11b1-f9ea-4d27-89bf-e8834c3fec70","ios":"levelo://app?vid=5cbb11b1-f9ea-4d27-89bf-e8834c3fec70"},"vehicle_type_id":"4","last_reported":1742832790,"current_range_meters":6800,"station_id":"ce4bgj92rcd13ifvqbd0","pricing_plan_id":"cebpf4jnsgd1na2vs0mg"},{"bike_id":"ff148222-2977-46d8-8372-fad119e84e7a","system_id":"levelo_inurba_marseille","lat":43.28461,"lon":5.35885,"is_reserved":false,"is_disabled":false,"rental_uris":{"android":"levelo://app?vid=ff148222-2977-46d8-8372-fad119e84e7a","ios":"levelo://app?vid=ff148222-2977-46d8-8372-fad119e84e7a"},"vehicle_type_id":"4","last_reported":1742832790,"current_range_meters":6800,"station_id":"ce4bhah2rcd13ifvqei0","pricing_plan_id":"cebpf4jnsgd1na2vs0mg"},{"bike_id":"6f023766-497a-44b5-8b39-a397e2b8fcb8","system_id":"levelo_inurba_marseille","lat":43.31077,"lon":5.42443,"is_reserved":false,"is_disabled":false,"rental_uris":{"android":"levelo://app?vid=6f023766-497a-44b5-8b39-a397e2b8fcb8","ios":"levelo://app?vid=6f023766-497a-44b5-8b39-a397e2b8fcb8"},"vehicle_type_id":"4","last_reported":1742832790,"current_range_meters":7200,"station_id":"ce4bhp92rcd13ifvqhag","pricing_plan_id":"cebpf4jnsgd1na2vs0mg"},{"bike_id":"62d19d5f-6593-4237-9d54-02c9151fd2e4","system_id":"levelo_inurba_marseille","lat":43.25586,"lon":5.38219,"is_reserved":false,"is_disabled":false,"rental_uris":{"android":"levelo://app?vid=62d19d5f-6593-4237-9d54-02c9151fd2e4","ios":"levelo://app?vid=62d19d5f-6593-4237-9d54-02c9151fd2e4"},"vehicle_type_id":"4","last_reported":1742832790,"current_range_meters":7200,"station_id":"ce4bhih2rcd13ifvqfs0","pricing_plan_id":"cebpf4jnsgd1na2vs0mg"},{"bike_id":"bebbaaa4-9324-461e-b685-01f74c9202e0","system_id":"levelo_inurba_marseille","lat":43.239578,"lon":5.366299,"is_reserved":false,"is_disabled":false,"rental_uris":{"android":"levelo://app?vid=bebbaaa4-9324-461e-b685-01f74c9202e0","ios":"levelo://app?vid=bebbaaa4-9324-461e-b685-01f74c9202e0"},"vehicle_type_id":"4","last_reported":1742832790,"current_range_meters":7200,"station_id":"ce4bhi12rcd13ifvqfp0","pricing_plan_id":"cebpf4jnsgd1na2vs0mg"},{"bike_id":"86a65fab-1faf-4fc4-885c-2b086e92c069","system_id":"levelo_inurba_marseille","lat":43.2415,"lon":5.36395,"is_reserved":false,"is_disabled":false,"rental_uris":{"android":"levelo://app?vid=86a65fab-1faf-4fc4-885c-2b086e92c069","ios":"levelo://app?vid=86a65fab-1faf-4fc4-885c-2b086e92c069"},"vehicle_type_id":"4","last_reported":1742832790,"current_range_meters":7200,"station_id":"cpo36qri1sfpv3e86is0","pricing_plan_id":"cebpf4jnsgd1na2vs0mg"},{"bike_id":"e8330378-c05e-4c15-9274-2a7d6165eaba","system_id":"levelo_inurba_marseille","lat":43.30885,"lon":5.37191,"is_reserved":false,"is_disabled":false,"rental_uris":{"android":"levelo://app?vid=e8330378-c05e-4c15-9274-2a7d6165eaba","ios":"levelo://app?vid=e8330378-c05e-4c15-9274-2a7d6165eaba"},"vehicle_type_id":"4","last_reported":1742832790,"current_range_meters":7200,"station_id":"ce4bguh2rcd13ifvqckg","pricing_plan_id":"cebpf4jnsgd1na2vs0mg"},{"bike_id":"21e3a6e5-11f0-467c-9e11-90aab4ee0f83","system_id":"levelo_inurba_marseille","lat":43.27377,"lon":5.36243,"is_reserved":false,"is_disabled":false,"rental_uris":{"android":"levelo://app?vid=21e3a6e5-11f0-467c-9e11-90aab4ee0f83","ios":"levelo://app?vid=21e3a6e5-11f0-467c-9e11-90aab4ee0f83"},"vehicle_type_id":"4","last_reported":1742832790,"current_range_meters":8000,"station_id":"ce4bhbh2rcd13ifvqeo0","pricing_plan_id":"cebpf4jnsgd1na2vs0mg"},{"bike_id":"bb7d553e-f91c-478a-a14a-5f3ea0dc4964","system_id":"levelo_inurba_marseille","lat":43.24541,"lon":5.39518,"is_reserved":false,"is_disabled":false,"rental_uris":{"android":"levelo://app?vid=bb7d553e-f91c-478a-a14a-5f3ea0dc4964","ios":"levelo://app?vid=bb7d553e-f91c-478a-a14a-5f3ea0dc4964"},"vehicle_type_id":"4","last_reported":1742832790,"current_range_meters":8000,"station_id":"ce4bhlp2rcd13ifvqgjg","pricing_plan_id":"cebpf4jnsgd1na2vs0mg"},{"bike_id":"76f3d16e-d7a5-4684-96dc-ab38a67e3c56","system_id":"levelo_inurba_marseille","lat":43.2782,"lon":5.40742,"is_reserved":false,"is_disabled":false,"rental_uris":{"android":"levelo://app?vid=76f3d16e-d7a5-4684-96dc-ab38a67e3c56","ios":"levelo://app?vid=76f3d16e-d7a5-4684-96dc-ab38a67e3c56"},"vehicle_type_id":"4","last_reported":1742832790,"current_range_meters":8000,"station_id":"ce4bhnh2rcd13ifvqgtg","pricing_plan_id":"cebpf4jnsgd1na2vs0mg"},{"bike_id":"073fe5fd-0446-4ab7-8e4a-ba01ab6c5436","system_id":"levelo_inurba_marseille","lat":43.26848,"lon":5.3944,"is_reserved":false,"is_disabled":false,"rental_uris":{"android":"levelo://app?vid=073fe5fd-0446-4ab7-8e4a-ba01ab6c5436","ios":"levelo://app?vid=073fe5fd-0446-4ab7-8e4a-ba01ab6c5436"},"vehicle_type_id":"4","last_reported":1742832790,"current_range_meters":8000,"station_id":"","pricing_plan_id":"cebpf4jnsgd1na2vs0mg"},{"bike_id":"91456e3b-facc-45cb-b00f-aea26e6eaf6c","system_id":"levelo_inurba_marseille","lat":43.27814,"lon":5.40722,"is_reserved":false,"is_disabled":true,"rental_uris":{"android":"levelo://app?vid=91456e3b-facc-45cb-b00f-aea26e6eaf6c","ios":"levelo://app?vid=91456e3b-facc-45cb-b00f-aea26e6eaf6c"},"vehicle_type_id":"4","last_reported":1742832790,"current_range_meters":8000,"station_id":"ce4bhnh2rcd13ifvqgtg","pricing_plan_id":"cebpf4jnsgd1na2vs0mg"},{"bike_id":"62b4c2bc-dec4-485a-b43a-7cf857a36c53","system_id":"levelo_inurba_marseille","lat":43.26938,"lon":5.40253,"is_reserved":false,"is_disabled":false,"rental_uris":{"android":"levelo://app?vid=62b4c2bc-dec4-485a-b43a-7cf857a36c53","ios":"levelo://app?vid=62b4c2bc-dec4-485a-b43a-7cf857a36c53"},"vehicle_type_id":"4","last_reported":1742832790,"current_range_meters":8400,"station_id":"cjm6bp8fraef2m0cb0m0","pricing_plan_id":"cebpf4jnsgd1na2vs0mg"},{"bike_id":"e3c6d100-9b3b-44e1-abd1-7cf3538ee12c","system_id":"levelo_inurba_marseille","lat":43.2319,"lon":5.35546,"is_reserved":false,"is_disabled":false,"rental_uris":{"android":"levelo://app?vid=e3c6d100-9b3b-44e1-abd1-7cf3538ee12c","ios":"levelo://app?vid=e3c6d100-9b3b-44e1-abd1-7cf3538ee12c"},"vehicle_type_id":"4","last_reported":1742832790,"current_range_meters":8400,"station_id":"ce4bhu92rcd13ifvqi70","pricing_plan_id":"cebpf4jnsgd1na2vs0mg"},{"bike_id":"ba77c809-1111-412f-8eae-c3c885fbd6c5","system_id":"levelo_inurba_marseille","lat":43.24169,"lon":5.36402,"is_reserved":false,"is_disabled":false,"rental_uris":{"android":"levelo://app?vid=ba77c809-1111-412f-8eae-c3c885fbd6c5","ios":"levelo://app?vid=ba77c809-1111-412f-8eae-c3c885fbd6c5"},"vehicle_type_id":"4","last_reported":1742832790,"current_range_meters":8400,"station_id":"cpo36qri1sfpv3e86is0","pricing_plan_id":"cebpf4jnsgd1na2vs0mg"},{"bike_id":"c77ba74c-34b4-4065-8232-671a3f8577ef","system_id":"levelo_inurba_marseille","lat":43.26201,"lon":5.37918,"is_reserved":false,"is_disabled":false,"rental_uris":{"android":"levelo://app?vid=c77ba74c-34b4-4065-8232-671a3f8577ef","ios":"levelo://app?vid=c77ba74c-34b4-4065-8232-671a3f8577ef"},"vehicle_type_id":"4","last_reported":1742832790,"current_range_meters":8400,"station_id":"","pricing_plan_id":"cebpf4jnsgd1na2vs0mg"},{"bike_id":"d58d1980-01ab-493a-ac94-43667df0c38c","system_id":"levelo_inurba_marseille","lat":43.24561,"lon":5.39537,"is_reserved":false,"is_disabled":false,"rental_uris":{"android":"levelo://app?vid=d58d1980-01ab-493a-ac94-43667df0c38c","ios":"levelo://app?vid=d58d1980-01ab-493a-ac94-43667df0c38c"},"vehicle_type_id":"4","last_reported":1742832790,"current_range_meters":8400,"station_id":"ce4bhlp2rcd13ifvqgjg","pricing_plan_id":"cebpf4jnsgd1na2vs0mg"},{"bike_id":"925ebc78-bc86-4e98-801c-d3e5322c9cee","system_id":"levelo_inurba_marseille","lat":43.27307,"lon":5.39081,"is_reserved":false,"is_disabled":false,"rental_uris":{"android":"levelo://app?vid=925ebc78-bc86-4e98-801c-d3e5322c9cee","ios":"levelo://app?vid=925ebc78-bc86-4e98-801c-d3e5322c9cee"},"vehicle_type_id":"4","last_reported":1742832790,"current_range_meters":8400,"station_id":"ce4bhgp2rcd13ifvqfe0","pricing_plan_id":"cebpf4jnsgd1na2vs0mg"},{"bike_id":"64387bc2-b358-40d4-a761-76da30708a3c","system_id":"levelo_inurba_marseille","lat":43.2573,"lon":5.41111,"is_reserved":false,"is_disabled":false,"rental_uris":{"android":"levelo://app?vid=64387bc2-b358-40d4-a761-76da30708a3c","ios":"levelo://app?vid=64387bc2-b358-40d4-a761-76da30708a3c"},"vehicle_type_id":"4","last_reported":1742832790,"current_range_meters":8800,"station_id":"ce4bhkp2rcd13ifvqgd0","pricing_plan_id":"cebpf4jnsgd1na2vs0mg"},{"bike_id":"ebe31cbb-8c46-4df5-a930-a91a882409e6","system_id":"levelo_inurba_marseille","lat":43.25916,"lon":5.40883,"is_reserved":false,"is_disabled":false,"rental_uris":{"android":"levelo://app?vid=ebe31cbb-8c46-4df5-a930-a91a882409e6","ios":"levelo://app?vid=ebe31cbb-8c46-4df5-a930-a91a882409e6"},"vehicle_type_id":"4","last_reported":1742832790,"current_range_meters":8800,"station_id":"ce4bhm92rcd13ifvqglg","pricing_plan_id":"cebpf4jnsgd1na2vs0mg"},{"bike_id":"f02a77b8-f810-41ff-bf5b-5ab742b469a7","system_id":"levelo_inurba_marseille","lat":43.23153,"lon":5.43708,"is_reserved":false,"is_disabled":false,"rental_uris":{"android":"levelo://app?vid=f02a77b8-f810-41ff-bf5b-5ab742b469a7","ios":"levelo://app?vid=f02a77b8-f810-41ff-bf5b-5ab742b469a7"},"vehicle_type_id":"4","last_reported":1742832790,"current_range_meters":8800,"station_id":"ce4bhmp2rcd13ifvqgog","pricing_plan_id":"cebpf4jnsgd1na2vs0mg"},{"bike_id":"abf57370-4a05-41ff-b3e6-a853ab5579ea","system_id":"levelo_inurba_marseille","lat":43.29009,"lon":5.3814,"is_reserved":false,"is_disabled":false,"rental_uris":{"android":"levelo://app?vid=abf57370-4a05-41ff-b3e6-a853ab5579ea","ios":"levelo://app?vid=abf57370-4a05-41ff-b3e6-a853ab5579ea"},"vehicle_type_id":"4","last_reported":1742832790,"current_range_meters":8800,"station_id":"ce4bh4p2rcd13ifvqe1g","pricing_plan_id":"cebpf4jnsgd1na2vs0mg"},{"bike_id":"9eef2c13-4412-429d-a6b0-e32bea5d5b99","system_id":"levelo_inurba_marseille","lat":43.32478,"lon":5.36566,"is_reserved":false,"is_disabled":false,"rental_uris":{"android":"levelo://app?vid=9eef2c13-4412-429d-a6b0-e32bea5d5b99","ios":"levelo://app?vid=9eef2c13-4412-429d-a6b0-e32bea5d5b99"},"vehicle_type_id":"4","last_reported":1742832790,"current_range_meters":8800,"station_id":"ce4bhs12rcd13ifvqhvg","pricing_plan_id":"cebpf4jnsgd1na2vs0mg"},{"bike_id":"e8ed9da3-c0ab-46f6-b6e7-8fb3c301627a","system_id":"levelo_inurba_marseille","lat":43.25936,"lon":5.40896,"is_reserved":false,"is_disabled":false,"rental_uris":{"android":"levelo://app?vid=e8ed9da3-c0ab-46f6-b6e7-8fb3c301627a","ios":"levelo://app?vid=e8ed9da3-c0ab-46f6-b6e7-8fb3c301627a"},"vehicle_type_id":"4","last_reported":1742832790,"current_range_meters":8800,"station_id":"ce4bhm92rcd13ifvqglg","pricing_plan_id":"cebpf4jnsgd1na2vs0mg"},{"bike_id":"c086c5d2-951a-40a0-81b5-c5fb4693ccf2","system_id":"levelo_inurba_marseille","lat":43.29622,"lon":5.37167,"is_reserved":false,"is_disabled":false,"rental_uris":{"android":"levelo://app?vid=c086c5d2-951a-40a0-81b5-c5fb4693ccf2","ios":"levelo://app?vid=c086c5d2-951a-40a0-81b5-c5fb4693ccf2"},"vehicle_type_id":"4","last_reported":1742832790,"current_range_meters":8800,"station_id":"ce4bgnh2rcd13ifvqc0g","pricing_plan_id":"cebpf4jnsgd1na2vs0mg"},{"bike_id":"b5e7f36a-a4fa-46aa-838b-6317397880b2","system_id":"levelo_inurba_marseille","lat":43.30413,"lon":5.413,"is_reserved":false,"is_disabled":false,"rental_uris":{"android":"levelo://app?vid=b5e7f36a-a4fa-46aa-838b-6317397880b2","ios":"levelo://app?vid=b5e7f36a-a4fa-46aa-838b-6317397880b2"},"vehicle_type_id":"4","last_reported":1742832790,"current_range_meters":8800,"station_id":"ce4bhop2rcd13ifvqh8g","pricing_plan_id":"cebpf4jnsgd1na2vs0mg"},{"bike_id":"78a8cb45-a47e-4f62-b426-978571d8742c","system_id":"levelo_inurba_marseille","lat":43.3062,"lon":5.37233,"is_reserved":false,"is_disabled":false,"rental_uris":{"android":"levelo://app?vid=78a8cb45-a47e-4f62-b426-978571d8742c","ios":"levelo://app?vid=78a8cb45-a47e-4f62-b426-978571d8742c"},"vehicle_type_id":"4","last_reported":1742832790,"current_range_meters":9200,"station_id":"ce4bgqh2rcd13ifvqc4g","pricing_plan_id":"cebpf4jnsgd1na2vs0mg"},{"bike_id":"927919b4-d56f-444b-bbce-623424cee85b","system_id":"levelo_inurba_marseille","lat":43.23186,"lon":5.39986,"is_reserved":false,"is_disabled":false,"rental_uris":{"android":"levelo://app?vid=927919b4-d56f-444b-bbce-623424cee85b","ios":"levelo://app?vid=927919b4-d56f-444b-bbce-623424cee85b"},"vehicle_type_id":"4","last_reported":1742832790,"current_range_meters":9200,"station_id":"ce4bhn12rcd13ifvqgqg","pricing_plan_id":"cebpf4jnsgd1na2vs0mg"},{"bike_id":"dc9138b2-e629-4ae4-862b-4a8832a3732b","system_id":"levelo_inurba_marseille","lat":43.251158,"lon":5.394928,"is_reserved":false,"is_disabled":false,"rental_uris":{"android":"levelo://app?vid=dc9138b2-e629-4ae4-862b-4a8832a3732b","ios":"levelo://app?vid=dc9138b2-e629-4ae4-862b-4a8832a3732b"},"vehicle_type_id":"4","last_reported":1742832790,"current_range_meters":9200,"station_id":"ce4bhm12rcd13ifvqgkg","pricing_plan_id":"cebpf4jnsgd1na2vs0mg"},{"bike_id":"19c4d38c-721f-4a6d-8de0-ad162aee3dc3","system_id":"levelo_inurba_marseille","lat":43.29874,"lon":5.38921,"is_reserved":false,"is_disabled":true,"rental_uris":{"android":"levelo://app?vid=19c4d38c-721f-4a6d-8de0-ad162aee3dc3","ios":"levelo://app?vid=19c4d38c-721f-4a6d-8de0-ad162aee3dc3"},"vehicle_type_id":"4","last_reported":1742832790,"current_range_meters":9200,"station_id":"ce4bh392rcd13ifvqdl0","pricing_plan_id":"cebpf4jnsgd1na2vs0mg"},{"bike_id":"5d964be5-a48c-4c90-955e-4953f4d1a178","system_id":"levelo_inurba_marseille","lat":43.24546,"lon":5.39524,"is_reserved":false,"is_disabled":false,"rental_uris":{"android":"levelo://app?vid=5d964be5-a48c-4c90-955e-4953f4d1a178","ios":"levelo://app?vid=5d964be5-a48c-4c90-955e-4953f4d1a178"},"vehicle_type_id":"4","last_reported":1742832790,"current_range_meters":9200,"station_id":"ce4bhlp2rcd13ifvqgjg","pricing_plan_id":"cebpf4jnsgd1na2vs0mg"},{"bike_id":"a33ea316-a477-4b21-9e1a-cb1f468813f7","system_id":"levelo_inurba_marseille","lat":43.2936,"lon":5.37854,"is_reserved":false,"is_disabled":false,"rental_uris":{"android":"levelo://app?vid=a33ea316-a477-4b21-9e1a-cb1f468813f7","ios":"levelo://app?vid=a33ea316-a477-4b21-9e1a-cb1f468813f7"},"vehicle_type_id":"4","last_reported":1742832790,"current_range_meters":9200,"station_id":"ce4bgvp2rcd13ifvqcu0","pricing_plan_id":"cebpf4jnsgd1na2vs0mg"},{"bike_id":"ab109a35-cb7d-438b-8db8-1c92b3f80847","system_id":"levelo_inurba_marseille","lat":43.32031,"lon":5.38156,"is_reserved":false,"is_disabled":false,"rental_uris":{"android":"levelo://app?vid=ab109a35-cb7d-438b-8db8-1c92b3f80847","ios":"levelo://app?vid=ab109a35-cb7d-438b-8db8-1c92b3f80847"},"vehicle_type_id":"4","last_reported":1742832790,"current_range_meters":9200,"station_id":"ce4bhr12rcd13ifvqhpg","pricing_plan_id":"cebpf4jnsgd1na2vs0mg"},{"bike_id":"42a0b69b-f29a-4ea2-80ed-6573bad37aeb","system_id":"levelo_inurba_marseille","lat":43.24546,"lon":5.39521,"is_reserved":false,"is_disabled":false,"rental_uris":{"android":"levelo://app?vid=42a0b69b-f29a-4ea2-80ed-6573bad37aeb","ios":"levelo://app?vid=42a0b69b-f29a-4ea2-80ed-6573bad37aeb"},"vehicle_type_id":"4","last_reported":1742832790,"current_range_meters":9600,"station_id":"ce4bhlp2rcd13ifvqgjg","pricing_plan_id":"cebpf4jnsgd1na2vs0mg"},{"bike_id":"b4502992-01b3-4149-9a44-2f9ccba4cfbd","system_id":"levelo_inurba_marseille","lat":43.28943,"lon":5.39618,"is_reserved":false,"is_disabled":false,"rental_uris":{"android":"levelo://app?vid=b4502992-01b3-4149-9a44-2f9ccba4cfbd","ios":"levelo://app?vid=b4502992-01b3-4149-9a44-2f9ccba4cfbd"},"vehicle_type_id":"4","last_reported":1742832790,"current_range_meters":9600,"station_id":"ce4bh3h2rcd13ifvqdn0","pricing_plan_id":"cebpf4jnsgd1na2vs0mg"},{"bike_id":"64dbc665-6766-46a5-b85a-ff14de6d6212","system_id":"levelo_inurba_marseille","lat":43.31816,"lon":5.37447,"is_reserved":false,"is_disabled":false,"rental_uris":{"android":"levelo://app?vid=64dbc665-6766-46a5-b85a-ff14de6d6212","ios":"levelo://app?vid=64dbc665-6766-46a5-b85a-ff14de6d6212"},"vehicle_type_id":"4","last_reported":1742832790,"current_range_meters":9600,"station_id":"","pricing_plan_id":"cebpf4jnsgd1na2vs0mg"},{"bike_id":"e8a86aa1-115e-42da-a912-68f3c8fd509a","system_id":"levelo_inurba_marseille","lat":43.28157,"lon":5.42637,"is_reserved":false,"is_disabled":false,"rental_uris":{"android":"levelo://app?vid=e8a86aa1-115e-42da-a912-68f3c8fd509a","ios":"levelo://app?vid=e8a86aa1-115e-42da-a912-68f3c8fd509a"},"vehicle_type_id":"4","last_reported":1742832790,"current_range_meters":9600,"station_id":"ce4bhnh2rcd13ifvqgug","pricing_plan_id":"cebpf4jnsgd1na2vs0mg"},{"bike_id":"bd12cfe3-06c8-4374-9446-3c70a2e69a82","system_id":"levelo_inurba_marseille","lat":43.26567,"lon":5.39018,"is_reserved":false,"is_disabled":false,"rental_uris":{"android":"levelo://app?vid=bd12cfe3-06c8-4374-9446-3c70a2e69a82","ios":"levelo://app?vid=bd12cfe3-06c8-4374-9446-3c70a2e69a82"},"vehicle_type_id":"4","last_reported":1742832790,"current_range_meters":9600,"station_id":"ce4bhe12rcd13ifvqf30","pricing_plan_id":"cebpf4jnsgd1na2vs0mg"},{"bike_id":"23a4fe51-6c94-4cb2-943f-ded8ea7984b0","system_id":"levelo_inurba_marseille","lat":43.2558,"lon":5.38252,"is_reserved":false,"is_disabled":false,"rental_uris":{"android":"levelo://app?vid=23a4fe51-6c94-4cb2-943f-ded8ea7984b0","ios":"levelo://app?vid=23a4fe51-6c94-4cb2-943f-ded8ea7984b0"},"vehicle_type_id":"4","last_reported":1742832790,"current_range_meters":9600,"station_id":"ce4bhih2rcd13ifvqfs0","pricing_plan_id":"cebpf4jnsgd1na2vs0mg"},{"bike_id":"2462aff4-312c-46a9-ae18-d864ef42c20c","system_id":"levelo_inurba_marseille","lat":43.24172,"lon":5.364,"is_reserved":false,"is_disabled":false,"rental_uris":{"android":"levelo://app?vid=2462aff4-312c-46a9-ae18-d864ef42c20c","ios":"levelo://app?vid=2462aff4-312c-46a9-ae18-d864ef42c20c"},"vehicle_type_id":"4","last_reported":1742832790,"current_range_meters":10000,"station_id":"cpo36qri1sfpv3e86is0","pricing_plan_id":"cebpf4jnsgd1na2vs0mg"},{"bike_id":"1b8779ee-15bd-411f-8230-66fb3b9d06b8","system_id":"levelo_inurba_marseille","lat":43.29931,"lon":5.43661,"is_reserved":false,"is_disabled":false,"rental_uris":{"android":"levelo://app?vid=1b8779ee-15bd-411f-8230-66fb3b9d06b8","ios":"levelo://app?vid=1b8779ee-15bd-411f-8230-66fb3b9d06b8"},"vehicle_type_id":"4","last_reported":1742832790,"current_range_meters":10000,"station_id":"","pricing_plan_id":"cebpf4jnsgd1na2vs0mg"},{"bike_id":"dcf19b71-e419-4131-b366-2b2d698b362d","system_id":"levelo_inurba_marseille","lat":43.29522,"lon":5.3904,"is_reserved":false,"is_disabled":false,"rental_uris":{"android":"levelo://app?vid=dcf19b71-e419-4131-b366-2b2d698b362d","ios":"levelo://app?vid=dcf19b71-e419-4131-b366-2b2d698b362d"},"vehicle_type_id":"4","last_reported":1742832790,"current_range_meters":10000,"station_id":"ce4bh3p2rcd13ifvqdp0","pricing_plan_id":"cebpf4jnsgd1na2vs0mg"},{"bike_id":"ccf8a1dd-0c19-4833-b28c-a69ed1663f24","system_id":"levelo_inurba_marseille","lat":43.30547,"lon":5.3651,"is_reserved":false,"is_disabled":false,"rental_uris":{"android":"levelo://app?vid=ccf8a1dd-0c19-4833-b28c-a69ed1663f24","ios":"levelo://app?vid=ccf8a1dd-0c19-4833-b28c-a69ed1663f24"},"vehicle_type_id":"4","last_reported":1742832790,"current_range_meters":10000,"station_id":"","pricing_plan_id":"cebpf4jnsgd1na2vs0mg"},{"bike_id":"2ff570d2-4d8e-48ed-9e8e-8a83ca9149b2","system_id":"levelo_inurba_marseille","lat":43.27066,"lon":5.42263,"is_reserved":false,"is_disabled":true,"rental_uris":{"android":"levelo://app?vid=2ff570d2-4d8e-48ed-9e8e-8a83ca9149b2","ios":"levelo://app?vid=2ff570d2-4d8e-48ed-9e8e-8a83ca9149b2"},"vehicle_type_id":"4","last_reported":1742832790,"current_range_meters":10000,"station_id":"ce4bhk92rcd13ifvqgb0","pricing_plan_id":"cebpf4jnsgd1na2vs0mg"},{"bike_id":"4db7f2fa-c3ca-4108-ad58-1644c419963f","system_id":"levelo_inurba_marseille","lat":43.231453,"lon":5.43711,"is_reserved":false,"is_disabled":false,"rental_uris":{"android":"levelo://app?vid=4db7f2fa-c3ca-4108-ad58-1644c419963f","ios":"levelo://app?vid=4db7f2fa-c3ca-4108-ad58-1644c419963f"},"vehicle_type_id":"4","last_reported":1742832790,"current_range_meters":10000,"station_id":"ce4bhmp2rcd13ifvqgog","pricing_plan_id":"cebpf4jnsgd1na2vs0mg"},{"bike_id":"aa3f782f-f119-4f93-b8cf-a8cac6a1d8de","system_id":"levelo_inurba_marseille","lat":43.29271,"lon":5.38441,"is_reserved":false,"is_disabled":false,"rental_uris":{"android":"levelo://app?vid=aa3f782f-f119-4f93-b8cf-a8cac6a1d8de","ios":"levelo://app?vid=aa3f782f-f119-4f93-b8cf-a8cac6a1d8de"},"vehicle_type_id":"4","last_reported":1742832790,"current_range_meters":10000,"station_id":"ce4bh692rcd13ifvqea0","pricing_plan_id":"cebpf4jnsgd1na2vs0mg"},{"bike_id":"c094919f-14ee-4ffc-9259-e33190fa310d","system_id":"levelo_inurba_marseille","lat":43.29964,"lon":5.38487,"is_reserved":false,"is_disabled":false,"rental_uris":{"android":"levelo://app?vid=c094919f-14ee-4ffc-9259-e33190fa310d","ios":"levelo://app?vid=c094919f-14ee-4ffc-9259-e33190fa310d"},"vehicle_type_id":"4","last_reported":1742832790,"current_range_meters":10000,"station_id":"ce4bgj92rcd13ifvqbd0","pricing_plan_id":"cebpf4jnsgd1na2vs0mg"},{"bike_id":"5e83d74a-9965-4c7a-a982-451f4475e9f5","system_id":"levelo_inurba_marseille","lat":43.27903,"lon":5.38005,"is_reserved":false,"is_disabled":false,"rental_uris":{"android":"levelo://app?vid=5e83d74a-9965-4c7a-a982-451f4475e9f5","ios":"levelo://app?vid=5e83d74a-9965-4c7a-a982-451f4475e9f5"},"vehicle_type_id":"4","last_reported":1742832790,"current_range_meters":10800,"station_id":"ce4bhf92rcd13ifvqf50","pricing_plan_id":"cebpf4jnsgd1na2vs0mg"},{"bike_id":"134a205d-46ae-4dee-8c1a-5e151dd78ec4","system_id":"levelo_inurba_marseille","lat":43.33023,"lon":5.3904,"is_reserved":false,"is_disabled":false,"rental_uris":{"android":"levelo://app?vid=134a205d-46ae-4dee-8c1a-5e151dd78ec4","ios":"levelo://app?vid=134a205d-46ae-4dee-8c1a-5e151dd78ec4"},"vehicle_type_id":"4","last_reported":1742832790,"current_range_meters":10000,"station_id":"ce4bhr92rcd13ifvqhrg","pricing_plan_id":"cebpf4jnsgd1na2vs0mg"},{"bike_id":"544d82a1-fcad-4499-9db7-4c138e31462b","system_id":"levelo_inurba_marseille","lat":43.26684,"lon":5.38271,"is_reserved":false,"is_disabled":false,"rental_uris":{"android":"levelo://app?vid=544d82a1-fcad-4499-9db7-4c138e31462b","ios":"levelo://app?vid=544d82a1-fcad-4499-9db7-4c138e31462b"},"vehicle_type_id":"4","last_reported":1742832790,"current_range_meters":10800,"station_id":"ce4bhg92rcd13ifvqf90","pricing_plan_id":"cebpf4jnsgd1na2vs0mg"},{"bike_id":"88aa2ce0-1573-45c7-a7e7-11176d1a9050","system_id":"levelo_inurba_marseille","lat":43.2979,"lon":5.39341,"is_reserved":false,"is_disabled":false,"rental_uris":{"android":"levelo://app?vid=88aa2ce0-1573-45c7-a7e7-11176d1a9050","ios":"levelo://app?vid=88aa2ce0-1573-45c7-a7e7-11176d1a9050"},"vehicle_type_id":"4","last_reported":1742832790,"current_range_meters":10000,"station_id":"chh1huq6cuj3fo74tm60","pricing_plan_id":"cebpf4jnsgd1na2vs0mg"},{"bike_id":"cf53bba7-4308-463a-a284-400f130e1e82","system_id":"levelo_inurba_marseille","lat":43.28929,"lon":5.38393,"is_reserved":false,"is_disabled":false,"rental_uris":{"android":"levelo://app?vid=cf53bba7-4308-463a-a284-400f130e1e82","ios":"levelo://app?vid=cf53bba7-4308-463a-a284-400f130e1e82"},"vehicle_type_id":"4","last_reported":1742832790,"current_range_meters":10800,"station_id":"ce4bh612rcd13ifvqe6g","pricing_plan_id":"cebpf4jnsgd1na2vs0mg"},{"bike_id":"30f3104d-0bc9-418a-aed0-26f343dc0cdf","system_id":"levelo_inurba_marseille","lat":43.24185,"lon":5.39743,"is_reserved":false,"is_disabled":false,"rental_uris":{"android":"levelo://app?vid=30f3104d-0bc9-418a-aed0-26f343dc0cdf","ios":"levelo://app?vid=30f3104d-0bc9-418a-aed0-26f343dc0cdf"},"vehicle_type_id":"4","last_reported":1742832790,"current_range_meters":10800,"station_id":"ce4bhn12rcd13ifvqgpg","pricing_plan_id":"cebpf4jnsgd1na2vs0mg"},{"bike_id":"d6b9068b-bec0-4f76-9c03-273151aa3d54","system_id":"levelo_inurba_marseille","lat":43.2655,"lon":5.37284,"is_reserved":false,"is_disabled":false,"rental_uris":{"android":"levelo://app?vid=d6b9068b-bec0-4f76-9c03-273151aa3d54","ios":"levelo://app?vid=d6b9068b-bec0-4f76-9c03-273151aa3d54"},"vehicle_type_id":"4","last_reported":1742832790,"current_range_meters":10800,"station_id":"ce4bhg12rcd13ifvqf70","pricing_plan_id":"cebpf4jnsgd1na2vs0mg"},{"bike_id":"6adb5407-e228-44f4-a1da-80d9852b3164","system_id":"levelo_inurba_marseille","lat":43.25,"lon":5.38925,"is_reserved":false,"is_disabled":false,"rental_uris":{"android":"levelo://app?vid=6adb5407-e228-44f4-a1da-80d9852b3164","ios":"levelo://app?vid=6adb5407-e228-44f4-a1da-80d9852b3164"},"vehicle_type_id":"4","last_reported":1742832790,"current_range_meters":10800,"station_id":"ce4bhgp2rcd13ifvqfd0","pricing_plan_id":"cebpf4jnsgd1na2vs0mg"},{"bike_id":"f64a5f06-bff4-4284-a64d-ce271f664dc4","system_id":"levelo_inurba_marseille","lat":43.2617,"lon":5.40531,"is_reserved":false,"is_disabled":false,"rental_uris":{"android":"levelo://app?vid=f64a5f06-bff4-4284-a64d-ce271f664dc4","ios":"levelo://app?vid=f64a5f06-bff4-4284-a64d-ce271f664dc4"},"vehicle_type_id":"4","last_reported":1742832790,"current_range_meters":11200,"station_id":"","pricing_plan_id":"cebpf4jnsgd1na2vs0mg"},{"bike_id":"a0d4632a-7a87-4031-aeeb-061ca0feaca6","system_id":"levelo_inurba_marseille","lat":43.23971,"lon":5.36602,"is_reserved":false,"is_disabled":false,"rental_uris":{"android":"levelo://app?vid=a0d4632a-7a87-4031-aeeb-061ca0feaca6","ios":"levelo://app?vid=a0d4632a-7a87-4031-aeeb-061ca0feaca6"},"vehicle_type_id":"4","last_reported":1742832790,"current_range_meters":11600,"station_id":"ce4bhi12rcd13ifvqfp0","pricing_plan_id":"cebpf4jnsgd1na2vs0mg"},{"bike_id":"ebf86de8-a3f7-4563-b9cd-62f5316ef4ec","system_id":"levelo_inurba_marseille","lat":43.30919,"lon":5.40159,"is_reserved":false,"is_disabled":true,"rental_uris":{"android":"levelo://app?vid=ebf86de8-a3f7-4563-b9cd-62f5316ef4ec","ios":"levelo://app?vid=ebf86de8-a3f7-4563-b9cd-62f5316ef4ec"},"vehicle_type_id":"4","last_reported":1742832790,"current_range_meters":11600,"station_id":"ce4bgvp2rcd13ifvqct0","pricing_plan_id":"cebpf4jnsgd1na2vs0mg"},{"bike_id":"d255e363-201b-46df-8eeb-b694f1ccf7f5","system_id":"levelo_inurba_marseille","lat":43.31325,"lon":5.3969,"is_reserved":false,"is_disabled":false,"rental_uris":{"android":"levelo://app?vid=d255e363-201b-46df-8eeb-b694f1ccf7f5","ios":"levelo://app?vid=d255e363-201b-46df-8eeb-b694f1ccf7f5"},"vehicle_type_id":"4","last_reported":1742832790,"current_range_meters":11200,"station_id":"ce4bgvp2rcd13ifvqcu0","pricing_plan_id":"cebpf4jnsgd1na2vs0mg"},{"bike_id":"2c49ac05-b437-4e53-a732-dd335b95df30","system_id":"levelo_inurba_marseille","lat":43.31072,"lon":5.42431,"is_reserved":false,"is_disabled":false,"rental_uris":{"android":"levelo://app?vid=2c49ac05-b437-4e53-a732-dd335b95df30","ios":"levelo://app?vid=2c49ac05-b437-4e53-a732-dd335b95df30"},"vehicle_type_id":"4","last_reported":1742832790,"current_range_meters":11600,"station_id":"ce4bhp92rcd13ifvqhag","pricing_plan_id":"cebpf4jnsgd1na2vs0mg"},{"bike_id":"c9c19aa6-3fe4-401b-ab2c-9612f3df5e72","system_id":"levelo_inurba_marseille","lat":43.3094,"lon":5.39046,"is_reserved":false,"is_disabled":true,"rental_uris":{"android":"levelo://app?vid=c9c19aa6-3fe4-401b-ab2c-9612f3df5e72","ios":"levelo://app?vid=c9c19aa6-3fe4-401b-ab2c-9612f3df5e72"},"vehicle_type_id":"4","last_reported":1742832790,"current_range_meters":11600,"station_id":"ce4bgup2rcd13ifvqco0","pricing_plan_id":"cebpf4jnsgd1na2vs0mg"},{"bike_id":"d41078aa-3791-4200-a18f-7d1df66972de","system_id":"levelo_inurba_marseille","lat":43.29555,"lon":5.42295,"is_reserved":false,"is_disabled":false,"rental_uris":{"android":"levelo://app?vid=d41078aa-3791-4200-a18f-7d1df66972de","ios":"levelo://app?vid=d41078aa-3791-4200-a18f-7d1df66972de"},"vehicle_type_id":"4","last_reported":1742832790,"current_range_meters":11600,"station_id":"ce4bhph2rcd13ifvqhdg","pricing_plan_id":"cebpf4jnsgd1na2vs0mg"},{"bike_id":"8284de5c-d227-47cd-b1ac-1bc2e0170d0f","system_id":"levelo_inurba_marseille","lat":43.27806,"lon":5.40712,"is_reserved":false,"is_disabled":true,"rental_uris":{"android":"levelo://app?vid=8284de5c-d227-47cd-b1ac-1bc2e0170d0f","ios":"levelo://app?vid=8284de5c-d227-47cd-b1ac-1bc2e0170d0f"},"vehicle_type_id":"4","last_reported":1742832790,"current_range_meters":12000,"station_id":"ce4bhnh2rcd13ifvqgtg","pricing_plan_id":"cebpf4jnsgd1na2vs0mg"},{"bike_id":"e1e35c11-11be-4d6b-9a98-3de91e1bd819","system_id":"levelo_inurba_marseille","lat":43.32482,"lon":5.36571,"is_reserved":false,"is_disabled":false,"rental_uris":{"android":"levelo://app?vid=e1e35c11-11be-4d6b-9a98-3de91e1bd819","ios":"levelo://app?vid=e1e35c11-11be-4d6b-9a98-3de91e1bd819"},"vehicle_type_id":"4","last_reported":1742832790,"current_range_meters":12000,"station_id":"ce4bhs12rcd13ifvqhvg","pricing_plan_id":"cebpf4jnsgd1na2vs0mg"},{"bike_id":"101bc69d-0320-498e-abbd-f015caeb447c","system_id":"levelo_inurba_marseille","lat":43.23066,"lon":5.35492,"is_reserved":false,"is_disabled":false,"rental_uris":{"android":"levelo://app?vid=101bc69d-0320-498e-abbd-f015caeb447c","ios":"levelo://app?vid=101bc69d-0320-498e-abbd-f015caeb447c"},"vehicle_type_id":"4","last_reported":1742832790,"current_range_meters":12000,"station_id":"cpo3342slgdg3j2ifvpg","pricing_plan_id":"cebpf4jnsgd1na2vs0mg"},{"bike_id":"4aaa7b44-e996-43a7-b327-a3bfb09a2367","system_id":"levelo_inurba_marseille","lat":43.23185,"lon":5.39989,"is_reserved":false,"is_disabled":false,"rental_uris":{"android":"levelo://app?vid=4aaa7b44-e996-43a7-b327-a3bfb09a2367","ios":"levelo://app?vid=4aaa7b44-e996-43a7-b327-a3bfb09a2367"},"vehicle_type_id":"4","last_reported":1742832790,"current_range_meters":12000,"station_id":"ce4bhn12rcd13ifvqgqg","pricing_plan_id":"cebpf4jnsgd1na2vs0mg"},{"bike_id":"f30f800e-d751-4e0e-aa8f-c3c38f61ac42","system_id":"levelo_inurba_marseille","lat":43.28182,"lon":5.42655,"is_reserved":false,"is_disabled":false,"rental_uris":{"android":"levelo://app?vid=f30f800e-d751-4e0e-aa8f-c3c38f61ac42","ios":"levelo://app?vid=f30f800e-d751-4e0e-aa8f-c3c38f61ac42"},"vehicle_type_id":"4","last_reported":1742832790,"current_range_meters":12000,"station_id":"ce4bhnh2rcd13ifvqgug","pricing_plan_id":"cebpf4jnsgd1na2vs0mg"},{"bike_id":"7bccb69e-9287-43a5-9160-e5fc629ea8ff","system_id":"levelo_inurba_marseille","lat":43.31228,"lon":5.36861,"is_reserved":false,"is_disabled":false,"rental_uris":{"android":"levelo://app?vid=7bccb69e-9287-43a5-9160-e5fc629ea8ff","ios":"levelo://app?vid=7bccb69e-9287-43a5-9160-e5fc629ea8ff"},"vehicle_type_id":"4","last_reported":1742832790,"current_range_meters":12000,"station_id":"ce4bgl92rcd13ifvqbq0","pricing_plan_id":"cebpf4jnsgd1na2vs0mg"},{"bike_id":"34a01d0d-ea33-44cd-a28d-0d727e1c9134","system_id":"levelo_inurba_marseille","lat":43.30423,"lon":5.41276,"is_reserved":false,"is_disabled":false,"rental_uris":{"android":"levelo://app?vid=34a01d0d-ea33-44cd-a28d-0d727e1c9134","ios":"levelo://app?vid=34a01d0d-ea33-44cd-a28d-0d727e1c9134"},"vehicle_type_id":"4","last_reported":1742832790,"current_range_meters":12000,"station_id":"ce4bhop2rcd13ifvqh8g","pricing_plan_id":"cebpf4jnsgd1na2vs0mg"},{"bike_id":"a0d05f03-0e02-4b04-8fa4-3561235d49f8","system_id":"levelo_inurba_marseille","lat":43.28918,"lon":5.38408,"is_reserved":false,"is_disabled":true,"rental_uris":{"android":"levelo://app?vid=a0d05f03-0e02-4b04-8fa4-3561235d49f8","ios":"levelo://app?vid=a0d05f03-0e02-4b04-8fa4-3561235d49f8"},"vehicle_type_id":"4","last_reported":1742832790,"current_range_meters":12400,"station_id":"ce4bh612rcd13ifvqe6g","pricing_plan_id":"cebpf4jnsgd1na2vs0mg"},{"bike_id":"4d41cf25-369d-46da-8330-f3899742c57b","system_id":"levelo_inurba_marseille","lat":43.28669,"lon":5.3635,"is_reserved":false,"is_disabled":false,"rental_uris":{"android":"levelo://app?vid=4d41cf25-369d-46da-8330-f3899742c57b","ios":"levelo://app?vid=4d41cf25-369d-46da-8330-f3899742c57b"},"vehicle_type_id":"4","last_reported":1742832790,"current_range_meters":12000,"station_id":"ce4bhah2rcd13ifvqej0","pricing_plan_id":"cebpf4jnsgd1na2vs0mg"},{"bike_id":"42e12277-2404-40c1-a358-f3ca2810181d","system_id":"levelo_inurba_marseille","lat":43.29872,"lon":5.36298,"is_reserved":false,"is_disabled":false,"rental_uris":{"android":"levelo://app?vid=42e12277-2404-40c1-a358-f3ca2810181d","ios":"levelo://app?vid=42e12277-2404-40c1-a358-f3ca2810181d"},"vehicle_type_id":"4","last_reported":1742832790,"current_range_meters":12400,"station_id":"ce4bgpp2rcd13ifvqc3g","pricing_plan_id":"cebpf4jnsgd1na2vs0mg"},{"bike_id":"b80cef71-9250-491f-bbd3-83ef9ed785b3","system_id":"levelo_inurba_marseille","lat":43.27625,"lon":5.38885,"is_reserved":false,"is_disabled":false,"rental_uris":{"android":"levelo://app?vid=b80cef71-9250-491f-bbd3-83ef9ed785b3","ios":"levelo://app?vid=b80cef71-9250-491f-bbd3-83ef9ed785b3"},"vehicle_type_id":"4","last_reported":1742832790,"current_range_meters":12400,"station_id":"","pricing_plan_id":"cebpf4jnsgd1na2vs0mg"},{"bike_id":"fbfecbb6-5794-4d9a-9176-1810e4b4a7ef","system_id":"levelo_inurba_marseille","lat":43.2306,"lon":5.35495,"is_reserved":false,"is_disabled":false,"rental_uris":{"android":"levelo://app?vid=fbfecbb6-5794-4d9a-9176-1810e4b4a7ef","ios":"levelo://app?vid=fbfecbb6-5794-4d9a-9176-1810e4b4a7ef"},"vehicle_type_id":"4","last_reported":1742832790,"current_range_meters":12400,"station_id":"cpo3342slgdg3j2ifvpg","pricing_plan_id":"cebpf4jnsgd1na2vs0mg"},{"bike_id":"938c0f4e-65bf-479a-ba6e-fe7a68ff9b08","system_id":"levelo_inurba_marseille","lat":43.26516,"lon":5.37318,"is_reserved":false,"is_disabled":false,"rental_uris":{"android":"levelo://app?vid=938c0f4e-65bf-479a-ba6e-fe7a68ff9b08","ios":"levelo://app?vid=938c0f4e-65bf-479a-ba6e-fe7a68ff9b08"},"vehicle_type_id":"4","last_reported":1742832790,"current_range_meters":12400,"station_id":"","pricing_plan_id":"cebpf4jnsgd1na2vs0mg"},{"bike_id":"69956a41-893b-4f1d-bce8-ebdb162481e1","system_id":"levelo_inurba_marseille","lat":43.24549,"lon":5.3953,"is_reserved":false,"is_disabled":false,"rental_uris":{"android":"levelo://app?vid=69956a41-893b-4f1d-bce8-ebdb162481e1","ios":"levelo://app?vid=69956a41-893b-4f1d-bce8-ebdb162481e1"},"vehicle_type_id":"4","last_reported":1742832790,"current_range_meters":12400,"station_id":"ce4bhlp2rcd13ifvqgjg","pricing_plan_id":"cebpf4jnsgd1na2vs0mg"},{"bike_id":"d37ac247-8930-4059-8ba3-b04295c2a661","system_id":"levelo_inurba_marseille","lat":43.29797,"lon":5.381,"is_reserved":false,"is_disabled":false,"rental_uris":{"android":"levelo://app?vid=d37ac247-8930-4059-8ba3-b04295c2a661","ios":"levelo://app?vid=d37ac247-8930-4059-8ba3-b04295c2a661"},"vehicle_type_id":"4","last_reported":1742832790,"current_range_meters":12400,"station_id":"ce4bgip2rcd13ifvqbb0","pricing_plan_id":"cebpf4jnsgd1na2vs0mg"},{"bike_id":"d29c8fe2-4d2a-4a9e-a03b-780c1291c4fc","system_id":"levelo_inurba_marseille","lat":43.26577,"lon":5.39012,"is_reserved":false,"is_disabled":false,"rental_uris":{"android":"levelo://app?vid=d29c8fe2-4d2a-4a9e-a03b-780c1291c4fc","ios":"levelo://app?vid=d29c8fe2-4d2a-4a9e-a03b-780c1291c4fc"},"vehicle_type_id":"4","last_reported":1742832790,"current_range_meters":12800,"station_id":"ce4bhe12rcd13ifvqf30","pricing_plan_id":"cebpf4jnsgd1na2vs0mg"},{"bike_id":"4af4385b-bd7c-4887-a3da-0d2384494d77","system_id":"levelo_inurba_marseille","lat":43.25941,"lon":5.40917,"is_reserved":false,"is_disabled":false,"rental_uris":{"android":"levelo://app?vid=4af4385b-bd7c-4887-a3da-0d2384494d77","ios":"levelo://app?vid=4af4385b-bd7c-4887-a3da-0d2384494d77"},"vehicle_type_id":"4","last_reported":1742832790,"current_range_meters":12800,"station_id":"ce4bhm92rcd13ifvqglg","pricing_plan_id":"cebpf4jnsgd1na2vs0mg"},{"bike_id":"28b8bdb3-c73f-4e95-859b-e9db1be690ff","system_id":"levelo_inurba_marseille","lat":43.33024,"lon":5.39037,"is_reserved":false,"is_disabled":false,"rental_uris":{"android":"levelo://app?vid=28b8bdb3-c73f-4e95-859b-e9db1be690ff","ios":"levelo://app?vid=28b8bdb3-c73f-4e95-859b-e9db1be690ff"},"vehicle_type_id":"4","last_reported":1742832790,"current_range_meters":12800,"station_id":"ce4bhr92rcd13ifvqhrg","pricing_plan_id":"cebpf4jnsgd1na2vs0mg"},{"bike_id":"538b8d85-6cf0-4160-8ed4-35b16f7e38dd","system_id":"levelo_inurba_marseille","lat":43.28462,"lon":5.35891,"is_reserved":false,"is_disabled":false,"rental_uris":{"android":"levelo://app?vid=538b8d85-6cf0-4160-8ed4-35b16f7e38dd","ios":"levelo://app?vid=538b8d85-6cf0-4160-8ed4-35b16f7e38dd"},"vehicle_type_id":"4","last_reported":1742832790,"current_range_meters":12800,"station_id":"ce4bhah2rcd13ifvqei0","pricing_plan_id":"cebpf4jnsgd1na2vs0mg"},{"bike_id":"c353c957-fbb8-408a-9097-46c8d6b68074","system_id":"levelo_inurba_marseille","lat":43.24183,"lon":5.39721,"is_reserved":false,"is_disabled":false,"rental_uris":{"android":"levelo://app?vid=c353c957-fbb8-408a-9097-46c8d6b68074","ios":"levelo://app?vid=c353c957-fbb8-408a-9097-46c8d6b68074"},"vehicle_type_id":"4","last_reported":1742832790,"current_range_meters":12800,"station_id":"ce4bhn12rcd13ifvqgpg","pricing_plan_id":"cebpf4jnsgd1na2vs0mg"},{"bike_id":"6bb6f1fc-5b4f-4f3d-97c1-f093e7e9a8ef","system_id":"levelo_inurba_marseille","lat":43.23051,"lon":5.35502,"is_reserved":false,"is_disabled":false,"rental_uris":{"android":"levelo://app?vid=6bb6f1fc-5b4f-4f3d-97c1-f093e7e9a8ef","ios":"levelo://app?vid=6bb6f1fc-5b4f-4f3d-97c1-f093e7e9a8ef"},"vehicle_type_id":"4","last_reported":1742832790,"current_range_meters":12800,"station_id":"cpo3342slgdg3j2ifvpg","pricing_plan_id":"cebpf4jnsgd1na2vs0mg"},{"bike_id":"dd1e1511-a34a-4393-8f44-13db092d2312","system_id":"levelo_inurba_marseille","lat":43.28707,"lon":5.37383,"is_reserved":false,"is_disabled":false,"rental_uris":{"android":"levelo://app?vid=dd1e1511-a34a-4393-8f44-13db092d2312","ios":"levelo://app?vid=dd1e1511-a34a-4393-8f44-13db092d2312"},"vehicle_type_id":"4","last_reported":1742832790,"current_range_meters":12800,"station_id":"ce4bh3p2rcd13ifvqdq0","pricing_plan_id":"cebpf4jnsgd1na2vs0mg"},{"bike_id":"8871fee1-c30f-4721-bb9f-022f22051a94","system_id":"levelo_inurba_marseille","lat":43.24176,"lon":5.39736,"is_reserved":false,"is_disabled":false,"rental_uris":{"android":"levelo://app?vid=8871fee1-c30f-4721-bb9f-022f22051a94","ios":"levelo://app?vid=8871fee1-c30f-4721-bb9f-022f22051a94"},"vehicle_type_id":"4","last_reported":1742832790,"current_range_meters":13600,"station_id":"ce4bhn12rcd13ifvqgpg","pricing_plan_id":"cebpf4jnsgd1na2vs0mg"},{"bike_id":"d1347470-dce7-4bf6-b57b-e50d13e6362d","system_id":"levelo_inurba_marseille","lat":43.31074,"lon":5.38352,"is_reserved":false,"is_disabled":false,"rental_uris":{"android":"levelo://app?vid=d1347470-dce7-4bf6-b57b-e50d13e6362d","ios":"levelo://app?vid=d1347470-dce7-4bf6-b57b-e50d13e6362d"},"vehicle_type_id":"4","last_reported":1742832790,"current_range_meters":13600,"station_id":"ce4bgv92rcd13ifvqcr0","pricing_plan_id":"cebpf4jnsgd1na2vs0mg"},{"bike_id":"008c8db6-be2b-43ce-8a53-8af51fd8b577","system_id":"levelo_inurba_marseille","lat":43.24194,"lon":5.39729,"is_reserved":false,"is_disabled":false,"rental_uris":{"android":"levelo://app?vid=008c8db6-be2b-43ce-8a53-8af51fd8b577","ios":"levelo://app?vid=008c8db6-be2b-43ce-8a53-8af51fd8b577"},"vehicle_type_id":"4","last_reported":1742832790,"current_range_meters":13600,"station_id":"ce4bhn12rcd13ifvqgpg","pricing_plan_id":"cebpf4jnsgd1na2vs0mg"},{"bike_id":"29929969-9ca8-4c23-9eb9-38eb1500d715","system_id":"levelo_inurba_marseille","lat":43.32367,"lon":5.38887,"is_reserved":false,"is_disabled":false,"rental_uris":{"android":"levelo://app?vid=29929969-9ca8-4c23-9eb9-38eb1500d715","ios":"levelo://app?vid=29929969-9ca8-4c23-9eb9-38eb1500d715"},"vehicle_type_id":"4","last_reported":1742832790,"current_range_meters":13600,"station_id":"ce4bhqp2rcd13ifvqhog","pricing_plan_id":"cebpf4jnsgd1na2vs0mg"},{"bike_id":"1887fe37-51a0-4284-bd26-ea9ec274ce5e","system_id":"levelo_inurba_marseille","lat":43.25679,"lon":5.4112,"is_reserved":false,"is_disabled":false,"rental_uris":{"android":"levelo://app?vid=1887fe37-51a0-4284-bd26-ea9ec274ce5e","ios":"levelo://app?vid=1887fe37-51a0-4284-bd26-ea9ec274ce5e"},"vehicle_type_id":"4","last_reported":1742832790,"current_range_meters":14000,"station_id":"ce4bhkp2rcd13ifvqgd0","pricing_plan_id":"cebpf4jnsgd1na2vs0mg"},{"bike_id":"8f208df7-81e0-45c5-bd98-a49c85a38fa2","system_id":"levelo_inurba_marseille","lat":43.30317,"lon":5.36909,"is_reserved":false,"is_disabled":false,"rental_uris":{"android":"levelo://app?vid=8f208df7-81e0-45c5-bd98-a49c85a38fa2","ios":"levelo://app?vid=8f208df7-81e0-45c5-bd98-a49c85a38fa2"},"vehicle_type_id":"4","last_reported":1742832790,"current_range_meters":14000,"station_id":"ce4bgqh2rcd13ifvqc5g","pricing_plan_id":"cebpf4jnsgd1na2vs0mg"},{"bike_id":"0a2fd2bd-0465-4490-8bf0-a948a7c174a7","system_id":"levelo_inurba_marseille","lat":43.26573,"lon":5.39,"is_reserved":false,"is_disabled":true,"rental_uris":{"android":"levelo://app?vid=0a2fd2bd-0465-4490-8bf0-a948a7c174a7","ios":"levelo://app?vid=0a2fd2bd-0465-4490-8bf0-a948a7c174a7"},"vehicle_type_id":"4","last_reported":1742832790,"current_range_meters":14000,"station_id":"ce4bhe12rcd13ifvqf30","pricing_plan_id":"cebpf4jnsgd1na2vs0mg"},{"bike_id":"33995a8f-7cc1-47e3-a638-202fff118850","system_id":"levelo_inurba_marseille","lat":43.29704,"lon":5.3767,"is_reserved":false,"is_disabled":false,"rental_uris":{"android":"levelo://app?vid=33995a8f-7cc1-47e3-a638-202fff118850","ios":"levelo://app?vid=33995a8f-7cc1-47e3-a638-202fff118850"},"vehicle_type_id":"4","last_reported":1742832790,"current_range_meters":14000,"station_id":"ce4bgkh2rcd13ifvqbl0","pricing_plan_id":"cebpf4jnsgd1na2vs0mg"},{"bike_id":"e3f76d45-4904-44a7-aac2-e04832e991bb","system_id":"levelo_inurba_marseille","lat":43.29962,"lon":5.41318,"is_reserved":false,"is_disabled":true,"rental_uris":{"android":"levelo://app?vid=e3f76d45-4904-44a7-aac2-e04832e991bb","ios":"levelo://app?vid=e3f76d45-4904-44a7-aac2-e04832e991bb"},"vehicle_type_id":"4","last_reported":1742832790,"current_range_meters":14400,"station_id":"ce4bhp12rcd13ifvqh9g","pricing_plan_id":"cebpf4jnsgd1na2vs0mg"},{"bike_id":"7da1780c-a707-4e5c-9536-83f171012129","system_id":"levelo_inurba_marseille","lat":43.31072,"lon":5.38348,"is_reserved":false,"is_disabled":false,"rental_uris":{"android":"levelo://app?vid=7da1780c-a707-4e5c-9536-83f171012129","ios":"levelo://app?vid=7da1780c-a707-4e5c-9536-83f171012129"},"vehicle_type_id":"4","last_reported":1742832790,"current_range_meters":14400,"station_id":"ce4bgv92rcd13ifvqcr0","pricing_plan_id":"cebpf4jnsgd1na2vs0mg"},{"bike_id":"2f95d84a-f03d-40d7-98e6-71c071e2bbde","system_id":"levelo_inurba_marseille","lat":43.28088,"lon":5.3964,"is_reserved":false,"is_disabled":false,"rental_uris":{"android":"levelo://app?vid=2f95d84a-f03d-40d7-98e6-71c071e2bbde","ios":"levelo://app?vid=2f95d84a-f03d-40d7-98e6-71c071e2bbde"},"vehicle_type_id":"4","last_reported":1742832790,"current_range_meters":14400,"station_id":"ce4bho12rcd13ifvqh2g","pricing_plan_id":"cebpf4jnsgd1na2vs0mg"},{"bike_id":"66f403e0-fe87-4da6-a05a-d57c993bf963","system_id":"levelo_inurba_marseille","lat":43.26931,"lon":5.38942,"is_reserved":false,"is_disabled":false,"rental_uris":{"android":"levelo://app?vid=66f403e0-fe87-4da6-a05a-d57c993bf963","ios":"levelo://app?vid=66f403e0-fe87-4da6-a05a-d57c993bf963"},"vehicle_type_id":"4","last_reported":1742832790,"current_range_meters":14000,"station_id":"ce4bhhh2rcd13ifvqfl0","pricing_plan_id":"cebpf4jnsgd1na2vs0mg"},{"bike_id":"552fb8ff-98a7-4106-b06d-1880af44f89c","system_id":"levelo_inurba_marseille","lat":43.30098,"lon":5.39056,"is_reserved":false,"is_disabled":false,"rental_uris":{"android":"levelo://app?vid=552fb8ff-98a7-4106-b06d-1880af44f89c","ios":"levelo://app?vid=552fb8ff-98a7-4106-b06d-1880af44f89c"},"vehicle_type_id":"4","last_reported":1742832790,"current_range_meters":14400,"station_id":"ce4bh192rcd13ifvqdb0","pricing_plan_id":"cebpf4jnsgd1na2vs0mg"},{"bike_id":"b28ecb00-2b9b-4665-8ad5-1aeb61554a5a","system_id":"levelo_inurba_marseille","lat":43.2987,"lon":5.39734,"is_reserved":false,"is_disabled":false,"rental_uris":{"android":"levelo://app?vid=b28ecb00-2b9b-4665-8ad5-1aeb61554a5a","ios":"levelo://app?vid=b28ecb00-2b9b-4665-8ad5-1aeb61554a5a"},"vehicle_type_id":"4","last_reported":1742832790,"current_range_meters":14800,"station_id":"ce4bh0h2rcd13ifvqd50","pricing_plan_id":"cebpf4jnsgd1na2vs0mg"},{"bike_id":"2f3e2a92-1301-4a27-8eaa-7b0ea525530e","system_id":"levelo_inurba_marseille","lat":43.31711,"lon":5.43706,"is_reserved":false,"is_disabled":false,"rental_uris":{"android":"levelo://app?vid=2f3e2a92-1301-4a27-8eaa-7b0ea525530e","ios":"levelo://app?vid=2f3e2a92-1301-4a27-8eaa-7b0ea525530e"},"vehicle_type_id":"4","last_reported":1742832790,"current_range_meters":14800,"station_id":"ce4bhp92rcd13ifvqhcg","pricing_plan_id":"cebpf4jnsgd1na2vs0mg"},{"bike_id":"651bf79e-2126-451d-ac42-f548a49e86fb","system_id":"levelo_inurba_marseille","lat":43.26787,"lon":5.39411,"is_reserved":false,"is_disabled":false,"rental_uris":{"android":"levelo://app?vid=651bf79e-2126-451d-ac42-f548a49e86fb","ios":"levelo://app?vid=651bf79e-2126-451d-ac42-f548a49e86fb"},"vehicle_type_id":"4","last_reported":1742832790,"current_range_meters":14400,"station_id":"ce4bhh12rcd13ifvqfg0","pricing_plan_id":"cebpf4jnsgd1na2vs0mg"},{"bike_id":"6deb16f3-c20d-474a-bcc9-68e2dbb347ab","system_id":"levelo_inurba_marseille","lat":43.29813,"lon":5.38088,"is_reserved":false,"is_disabled":false,"rental_uris":{"android":"levelo://app?vid=6deb16f3-c20d-474a-bcc9-68e2dbb347ab","ios":"levelo://app?vid=6deb16f3-c20d-474a-bcc9-68e2dbb347ab"},"vehicle_type_id":"4","last_reported":1742832790,"current_range_meters":14800,"station_id":"ce4bgip2rcd13ifvqbb0","pricing_plan_id":"cebpf4jnsgd1na2vs0mg"},{"bike_id":"89e75ed9-7f20-48f7-ad37-e0033e47c633","system_id":"levelo_inurba_marseille","lat":43.24649,"lon":5.38878,"is_reserved":false,"is_disabled":false,"rental_uris":{"android":"levelo://app?vid=89e75ed9-7f20-48f7-ad37-e0033e47c633","ios":"levelo://app?vid=89e75ed9-7f20-48f7-ad37-e0033e47c633"},"vehicle_type_id":"4","last_reported":1742832790,"current_range_meters":14800,"station_id":"ce4bhg12rcd13ifvqf60","pricing_plan_id":"cebpf4jnsgd1na2vs0mg"},{"bike_id":"dac4e125-b602-4b44-964f-d48c4ba592f2","system_id":"levelo_inurba_marseille","lat":43.32373,"lon":5.36755,"is_reserved":false,"is_disabled":false,"rental_uris":{"android":"levelo://app?vid=dac4e125-b602-4b44-964f-d48c4ba592f2","ios":"levelo://app?vid=dac4e125-b602-4b44-964f-d48c4ba592f2"},"vehicle_type_id":"4","last_reported":1742832790,"current_range_meters":14400,"station_id":"ce4bhsh2rcd13ifvqi2g","pricing_plan_id":"cebpf4jnsgd1na2vs0mg"},{"bike_id":"369babb3-ade7-491a-88f8-6c956aa61c2d","system_id":"levelo_inurba_marseille","lat":43.29307,"lon":5.3717,"is_reserved":false,"is_disabled":false,"rental_uris":{"android":"levelo://app?vid=369babb3-ade7-491a-88f8-6c956aa61c2d","ios":"levelo://app?vid=369babb3-ade7-491a-88f8-6c956aa61c2d"},"vehicle_type_id":"4","last_reported":1742832790,"current_range_meters":15200,"station_id":"ce4bgh92rcd13ifvqb40","pricing_plan_id":"cebpf4jnsgd1na2vs0mg"},{"bike_id":"e07d8aa9-580c-4796-8adb-f499a3257abe","system_id":"levelo_inurba_marseille","lat":43.299708,"lon":5.384885,"is_reserved":false,"is_disabled":false,"rental_uris":{"android":"levelo://app?vid=e07d8aa9-580c-4796-8adb-f499a3257abe","ios":"levelo://app?vid=e07d8aa9-580c-4796-8adb-f499a3257abe"},"vehicle_type_id":"4","last_reported":1742832790,"current_range_meters":15200,"station_id":"ce4bgj92rcd13ifvqbd0","pricing_plan_id":"cebpf4jnsgd1na2vs0mg"},{"bike_id":"d7c9b119-99cc-4acd-80c4-6ecaf67a26b1","system_id":"levelo_inurba_marseille","lat":43.23057,"lon":5.35506,"is_reserved":false,"is_disabled":false,"rental_uris":{"android":"levelo://app?vid=d7c9b119-99cc-4acd-80c4-6ecaf67a26b1","ios":"levelo://app?vid=d7c9b119-99cc-4acd-80c4-6ecaf67a26b1"},"vehicle_type_id":"4","last_reported":1742832790,"current_range_meters":15200,"station_id":"cpo3342slgdg3j2ifvpg","pricing_plan_id":"cebpf4jnsgd1na2vs0mg"},{"bike_id":"ef23af8b-ba99-421d-b4e8-46275fd1a48f","system_id":"levelo_inurba_marseille","lat":43.25004,"lon":5.38928,"is_reserved":false,"is_disabled":false,"rental_uris":{"android":"levelo://app?vid=ef23af8b-ba99-421d-b4e8-46275fd1a48f","ios":"levelo://app?vid=ef23af8b-ba99-421d-b4e8-46275fd1a48f"},"vehicle_type_id":"4","last_reported":1742832790,"current_range_meters":15200,"station_id":"ce4bhgp2rcd13ifvqfd0","pricing_plan_id":"cebpf4jnsgd1na2vs0mg"},{"bike_id":"dfecd2ba-fa83-4655-915b-c94af75b5165","system_id":"levelo_inurba_marseille","lat":43.29175,"lon":5.37151,"is_reserved":false,"is_disabled":false,"rental_uris":{"android":"levelo://app?vid=dfecd2ba-fa83-4655-915b-c94af75b5165","ios":"levelo://app?vid=dfecd2ba-fa83-4655-915b-c94af75b5165"},"vehicle_type_id":"4","last_reported":1742832790,"current_range_meters":15200,"station_id":"ce4bha92rcd13ifvqeh0","pricing_plan_id":"cebpf4jnsgd1na2vs0mg"},{"bike_id":"b82c062b-ed6f-4114-8bdf-6d996a293c90","system_id":"levelo_inurba_marseille","lat":43.32108,"lon":5.3677,"is_reserved":false,"is_disabled":false,"rental_uris":{"android":"levelo://app?vid=b82c062b-ed6f-4114-8bdf-6d996a293c90","ios":"levelo://app?vid=b82c062b-ed6f-4114-8bdf-6d996a293c90"},"vehicle_type_id":"4","last_reported":1742832790,"current_range_meters":15200,"station_id":"ce4bhrh2rcd13ifvqhug","pricing_plan_id":"cebpf4jnsgd1na2vs0mg"},{"bike_id":"8e87f3a4-5bec-45cf-8082-cd8ff536033b","system_id":"levelo_inurba_marseille","lat":43.29191,"lon":5.39304,"is_reserved":false,"is_disabled":false,"rental_uris":{"android":"levelo://app?vid=8e87f3a4-5bec-45cf-8082-cd8ff536033b","ios":"levelo://app?vid=8e87f3a4-5bec-45cf-8082-cd8ff536033b"},"vehicle_type_id":"4","last_reported":1742832790,"current_range_meters":15200,"station_id":"ce4bh192rcd13ifvqdd0","pricing_plan_id":"cebpf4jnsgd1na2vs0mg"},{"bike_id":"3292810a-348e-45f2-971a-a1963d292047","system_id":"levelo_inurba_marseille","lat":43.31884,"lon":5.40731,"is_reserved":false,"is_disabled":false,"rental_uris":{"android":"levelo://app?vid=3292810a-348e-45f2-971a-a1963d292047","ios":"levelo://app?vid=3292810a-348e-45f2-971a-a1963d292047"},"vehicle_type_id":"4","last_reported":1742832790,"current_range_meters":15200,"station_id":"ce4bhq12rcd13ifvqhig","pricing_plan_id":"cebpf4jnsgd1na2vs0mg"},{"bike_id":"3402bc32-fbd6-470d-a2ab-730678855cde","system_id":"levelo_inurba_marseille","lat":43.28104,"lon":5.37834,"is_reserved":false,"is_disabled":false,"rental_uris":{"android":"levelo://app?vid=3402bc32-fbd6-470d-a2ab-730678855cde","ios":"levelo://app?vid=3402bc32-fbd6-470d-a2ab-730678855cde"},"vehicle_type_id":"4","last_reported":1742832790,"current_range_meters":15200,"station_id":"ce4bha12rcd13ifvqee0","pricing_plan_id":"cebpf4jnsgd1na2vs0mg"},{"bike_id":"274ee56e-3625-446b-b5d2-6332cf7a7e86","system_id":"levelo_inurba_marseille","lat":43.28089,"lon":5.39646,"is_reserved":false,"is_disabled":false,"rental_uris":{"android":"levelo://app?vid=274ee56e-3625-446b-b5d2-6332cf7a7e86","ios":"levelo://app?vid=274ee56e-3625-446b-b5d2-6332cf7a7e86"},"vehicle_type_id":"4","last_reported":1742832790,"current_range_meters":15200,"station_id":"ce4bho12rcd13ifvqh2g","pricing_plan_id":"cebpf4jnsgd1na2vs0mg"},{"bike_id":"c2c62d26-10e3-45f8-9c39-f066fba002c4","system_id":"levelo_inurba_marseille","lat":43.29974,"lon":5.38486,"is_reserved":false,"is_disabled":false,"rental_uris":{"android":"levelo://app?vid=c2c62d26-10e3-45f8-9c39-f066fba002c4","ios":"levelo://app?vid=c2c62d26-10e3-45f8-9c39-f066fba002c4"},"vehicle_type_id":"4","last_reported":1742832790,"current_range_meters":15200,"station_id":"ce4bgj92rcd13ifvqbd0","pricing_plan_id":"cebpf4jnsgd1na2vs0mg"},{"bike_id":"11638dcf-c183-4940-bebb-985f736789bf","system_id":"levelo_inurba_marseille","lat":43.27663,"lon":5.38891,"is_reserved":false,"is_disabled":true,"rental_uris":{"android":"levelo://app?vid=11638dcf-c183-4940-bebb-985f736789bf","ios":"levelo://app?vid=11638dcf-c183-4940-bebb-985f736789bf"},"vehicle_type_id":"4","last_reported":1742832790,"current_range_meters":16000,"station_id":"ce4bhi12rcd13ifvqfo0","pricing_plan_id":"cebpf4jnsgd1na2vs0mg"},{"bike_id":"a65a0557-05ff-4806-a33a-587f34810d96","system_id":"levelo_inurba_marseille","lat":43.28727,"lon":5.36072,"is_reserved":false,"is_disabled":false,"rental_uris":{"android":"levelo://app?vid=a65a0557-05ff-4806-a33a-587f34810d96","ios":"levelo://app?vid=a65a0557-05ff-4806-a33a-587f34810d96"},"vehicle_type_id":"4","last_reported":1742832790,"current_range_meters":16000,"station_id":"cki0cbj6b192h4jlfktg","pricing_plan_id":"cebpf4jnsgd1na2vs0mg"},{"bike_id":"49fbe21e-ba16-4e56-8617-5066ed12268a","system_id":"levelo_inurba_marseille","lat":43.31083,"lon":5.4243,"is_reserved":false,"is_disabled":false,"rental_uris":{"android":"levelo://app?vid=49fbe21e-ba16-4e56-8617-5066ed12268a","ios":"levelo://app?vid=49fbe21e-ba16-4e56-8617-5066ed12268a"},"vehicle_type_id":"4","last_reported":1742832790,"current_range_meters":15200,"station_id":"ce4bhp92rcd13ifvqhag","pricing_plan_id":"cebpf4jnsgd1na2vs0mg"},{"bike_id":"f8bf8db9-38ff-461d-985a-566eb93bb753","system_id":"levelo_inurba_marseille","lat":43.29572,"lon":5.37525,"is_reserved":false,"is_disabled":false,"rental_uris":{"android":"levelo://app?vid=f8bf8db9-38ff-461d-985a-566eb93bb753","ios":"levelo://app?vid=f8bf8db9-38ff-461d-985a-566eb93bb753"},"vehicle_type_id":"4","last_reported":1742832790,"current_range_meters":16000,"station_id":"ce4bgh92rcd13ifvqb50","pricing_plan_id":"cebpf4jnsgd1na2vs0mg"},{"bike_id":"69d45981-61c6-4086-9842-a14152408cb3","system_id":"levelo_inurba_marseille","lat":43.31229,"lon":5.36854,"is_reserved":false,"is_disabled":false,"rental_uris":{"android":"levelo://app?vid=69d45981-61c6-4086-9842-a14152408cb3","ios":"levelo://app?vid=69d45981-61c6-4086-9842-a14152408cb3"},"vehicle_type_id":"4","last_reported":1742832790,"current_range_meters":16000,"station_id":"","pricing_plan_id":"cebpf4jnsgd1na2vs0mg"},{"bike_id":"b832ecab-d515-4076-9966-61c664c7855d","system_id":"levelo_inurba_marseille","lat":43.29742,"lon":5.37687,"is_reserved":false,"is_disabled":false,"rental_uris":{"android":"levelo://app?vid=b832ecab-d515-4076-9966-61c664c7855d","ios":"levelo://app?vid=b832ecab-d515-4076-9966-61c664c7855d"},"vehicle_type_id":"4","last_reported":1742832790,"current_range_meters":15200,"station_id":"ce4bgkh2rcd13ifvqbl0","pricing_plan_id":"cebpf4jnsgd1na2vs0mg"},{"bike_id":"de8ed37f-1fd3-4667-9518-65e212de4a17","system_id":"levelo_inurba_marseille","lat":43.31234,"lon":5.36858,"is_reserved":false,"is_disabled":false,"rental_uris":{"android":"levelo://app?vid=de8ed37f-1fd3-4667-9518-65e212de4a17","ios":"levelo://app?vid=de8ed37f-1fd3-4667-9518-65e212de4a17"},"vehicle_type_id":"4","last_reported":1742832790,"current_range_meters":16000,"station_id":"ce4bgl92rcd13ifvqbq0","pricing_plan_id":"cebpf4jnsgd1na2vs0mg"},{"bike_id":"74406c35-ee35-437d-be26-2d7711378046","system_id":"levelo_inurba_marseille","lat":43.32352,"lon":5.36754,"is_reserved":false,"is_disabled":false,"rental_uris":{"android":"levelo://app?vid=74406c35-ee35-437d-be26-2d7711378046","ios":"levelo://app?vid=74406c35-ee35-437d-be26-2d7711378046"},"vehicle_type_id":"4","last_reported":1742832790,"current_range_meters":16000,"station_id":"ce4bhsh2rcd13ifvqi2g","pricing_plan_id":"cebpf4jnsgd1na2vs0mg"},{"bike_id":"0ccd79b2-51ea-4b93-86a9-89925d01380f","system_id":"levelo_inurba_marseille","lat":43.23964,"lon":5.36622,"is_reserved":false,"is_disabled":false,"rental_uris":{"android":"levelo://app?vid=0ccd79b2-51ea-4b93-86a9-89925d01380f","ios":"levelo://app?vid=0ccd79b2-51ea-4b93-86a9-89925d01380f"},"vehicle_type_id":"4","last_reported":1742832790,"current_range_meters":16000,"station_id":"ce4bhi12rcd13ifvqfp0","pricing_plan_id":"cebpf4jnsgd1na2vs0mg"},{"bike_id":"9d901bcb-7adf-402a-b67f-43b2cf34de78","system_id":"levelo_inurba_marseille","lat":43.28725,"lon":5.36074,"is_reserved":false,"is_disabled":false,"rental_uris":{"android":"levelo://app?vid=9d901bcb-7adf-402a-b67f-43b2cf34de78","ios":"levelo://app?vid=9d901bcb-7adf-402a-b67f-43b2cf34de78"},"vehicle_type_id":"4","last_reported":1742832790,"current_range_meters":16000,"station_id":"cki0cbj6b192h4jlfktg","pricing_plan_id":"cebpf4jnsgd1na2vs0mg"},{"bike_id":"8c536392-ea58-44fe-91c0-d0c458d09be3","system_id":"levelo_inurba_marseille","lat":43.29037,"lon":5.37565,"is_reserved":false,"is_disabled":false,"rental_uris":{"android":"levelo://app?vid=8c536392-ea58-44fe-91c0-d0c458d09be3","ios":"levelo://app?vid=8c536392-ea58-44fe-91c0-d0c458d09be3"},"vehicle_type_id":"4","last_reported":1742832790,"current_range_meters":15200,"station_id":"ce4bh692rcd13ifvqe90","pricing_plan_id":"cebpf4jnsgd1na2vs0mg"},{"bike_id":"e2b2b559-fa5d-4ed5-a7e4-e6e417a15825","system_id":"levelo_inurba_marseille","lat":43.31174,"lon":5.38717,"is_reserved":false,"is_disabled":false,"rental_uris":{"android":"levelo://app?vid=e2b2b559-fa5d-4ed5-a7e4-e6e417a15825","ios":"levelo://app?vid=e2b2b559-fa5d-4ed5-a7e4-e6e417a15825"},"vehicle_type_id":"4","last_reported":1742832790,"current_range_meters":16000,"station_id":"","pricing_plan_id":"cebpf4jnsgd1na2vs0mg"},{"bike_id":"47063e8c-69ad-4038-837e-1f8c41bca163","system_id":"levelo_inurba_marseille","lat":43.29859,"lon":5.36249,"is_reserved":false,"is_disabled":false,"rental_uris":{"android":"levelo://app?vid=47063e8c-69ad-4038-837e-1f8c41bca163","ios":"levelo://app?vid=47063e8c-69ad-4038-837e-1f8c41bca163"},"vehicle_type_id":"4","last_reported":1742832790,"current_range_meters":15200,"station_id":"ce4bgpp2rcd13ifvqc3g","pricing_plan_id":"cebpf4jnsgd1na2vs0mg"},{"bike_id":"a796f812-0043-405a-a042-56476b29d5d2","system_id":"levelo_inurba_marseille","lat":43.27208,"lon":5.4099,"is_reserved":false,"is_disabled":false,"rental_uris":{"android":"levelo://app?vid=a796f812-0043-405a-a042-56476b29d5d2","ios":"levelo://app?vid=a796f812-0043-405a-a042-56476b29d5d2"},"vehicle_type_id":"4","last_reported":1742832790,"current_range_meters":16000,"station_id":"ce4bhl12rcd13ifvqgf0","pricing_plan_id":"cebpf4jnsgd1na2vs0mg"},{"bike_id":"31853493-08cd-48ca-8af6-a1f588cefafe","system_id":"levelo_inurba_marseille","lat":43.2582,"lon":5.39436,"is_reserved":false,"is_disabled":false,"rental_uris":{"android":"levelo://app?vid=31853493-08cd-48ca-8af6-a1f588cefafe","ios":"levelo://app?vid=31853493-08cd-48ca-8af6-a1f588cefafe"},"vehicle_type_id":"4","last_reported":1742832790,"current_range_meters":16000,"station_id":"ce4bhip2rcd13ifvqft0","pricing_plan_id":"cebpf4jnsgd1na2vs0mg"},{"bike_id":"75cb588b-e126-4498-9bca-67a0b81a9063","system_id":"levelo_inurba_marseille","lat":43.31237,"lon":5.36846,"is_reserved":false,"is_disabled":false,"rental_uris":{"android":"levelo://app?vid=75cb588b-e126-4498-9bca-67a0b81a9063","ios":"levelo://app?vid=75cb588b-e126-4498-9bca-67a0b81a9063"},"vehicle_type_id":"4","last_reported":1742832790,"current_range_meters":16400,"station_id":"ce4bgl92rcd13ifvqbq0","pricing_plan_id":"cebpf4jnsgd1na2vs0mg"},{"bike_id":"9bc600a2-19ab-4f71-986e-faefd447e5c2","system_id":"levelo_inurba_marseille","lat":43.26206,"lon":5.37928,"is_reserved":false,"is_disabled":false,"rental_uris":{"android":"levelo://app?vid=9bc600a2-19ab-4f71-986e-faefd447e5c2","ios":"levelo://app?vid=9bc600a2-19ab-4f71-986e-faefd447e5c2"},"vehicle_type_id":"4","last_reported":1742832790,"current_range_meters":16400,"station_id":"ce4bhjp2rcd13ifvqg90","pricing_plan_id":"cebpf4jnsgd1na2vs0mg"},{"bike_id":"aec28b31-c20a-4ff3-a964-a4e5ed4c60e5","system_id":"levelo_inurba_marseille","lat":43.30545,"lon":5.36518,"is_reserved":false,"is_disabled":false,"rental_uris":{"android":"levelo://app?vid=aec28b31-c20a-4ff3-a964-a4e5ed4c60e5","ios":"levelo://app?vid=aec28b31-c20a-4ff3-a964-a4e5ed4c60e5"},"vehicle_type_id":"4","last_reported":1742832790,"current_range_meters":16400,"station_id":"ce4bgs12rcd13ifvqcag","pricing_plan_id":"cebpf4jnsgd1na2vs0mg"},{"bike_id":"47817bf6-689e-4cd2-934a-6bac2f41fe51","system_id":"levelo_inurba_marseille","lat":43.296997,"lon":5.368117,"is_reserved":false,"is_disabled":false,"rental_uris":{"android":"levelo://app?vid=47817bf6-689e-4cd2-934a-6bac2f41fe51","ios":"levelo://app?vid=47817bf6-689e-4cd2-934a-6bac2f41fe51"},"vehicle_type_id":"4","last_reported":1742832790,"current_range_meters":16400,"station_id":"ce4bgn12rcd13ifvqbt0","pricing_plan_id":"cebpf4jnsgd1na2vs0mg"},{"bike_id":"18a7fec5-cd4f-470b-b4aa-49a452d96c3f","system_id":"levelo_inurba_marseille","lat":43.30601,"lon":5.39366,"is_reserved":false,"is_disabled":true,"rental_uris":{"android":"levelo://app?vid=18a7fec5-cd4f-470b-b4aa-49a452d96c3f","ios":"levelo://app?vid=18a7fec5-cd4f-470b-b4aa-49a452d96c3f"},"vehicle_type_id":"4","last_reported":1742832790,"current_range_meters":16400,"station_id":"ce4bh0p2rcd13ifvqd80","pricing_plan_id":"cebpf4jnsgd1na2vs0mg"},{"bike_id":"844d3370-21e5-4de2-9d45-2b091e1157d6","system_id":"levelo_inurba_marseille","lat":43.23966,"lon":5.36642,"is_reserved":false,"is_disabled":false,"rental_uris":{"android":"levelo://app?vid=844d3370-21e5-4de2-9d45-2b091e1157d6","ios":"levelo://app?vid=844d3370-21e5-4de2-9d45-2b091e1157d6"},"vehicle_type_id":"4","last_reported":1742832790,"current_range_meters":16400,"station_id":"ce4bhi12rcd13ifvqfp0","pricing_plan_id":"cebpf4jnsgd1na2vs0mg"},{"bike_id":"9be956f6-2c1d-494b-914b-78678d2c024a","system_id":"levelo_inurba_marseille","lat":43.282257,"lon":5.35089,"is_reserved":false,"is_disabled":false,"rental_uris":{"android":"levelo://app?vid=9be956f6-2c1d-494b-914b-78678d2c024a","ios":"levelo://app?vid=9be956f6-2c1d-494b-914b-78678d2c024a"},"vehicle_type_id":"4","last_reported":1742832790,"current_range_meters":16000,"station_id":"ce4bhbp2rcd13ifvqerg","pricing_plan_id":"cebpf4jnsgd1na2vs0mg"},{"bike_id":"0d89eca0-5671-404f-88cc-d263b1555cb5","system_id":"levelo_inurba_marseille","lat":43.25726,"lon":5.41097,"is_reserved":false,"is_disabled":false,"rental_uris":{"android":"levelo://app?vid=0d89eca0-5671-404f-88cc-d263b1555cb5","ios":"levelo://app?vid=0d89eca0-5671-404f-88cc-d263b1555cb5"},"vehicle_type_id":"4","last_reported":1742832790,"current_range_meters":16400,"station_id":"","pricing_plan_id":"cebpf4jnsgd1na2vs0mg"},{"bike_id":"319fbde0-f02d-47c8-9ea3-00bb37a99bb2","system_id":"levelo_inurba_marseille","lat":43.24542,"lon":5.39529,"is_reserved":false,"is_disabled":false,"rental_uris":{"android":"levelo://app?vid=319fbde0-f02d-47c8-9ea3-00bb37a99bb2","ios":"levelo://app?vid=319fbde0-f02d-47c8-9ea3-00bb37a99bb2"},"vehicle_type_id":"4","last_reported":1742832790,"current_range_meters":16800,"station_id":"ce4bhlp2rcd13ifvqgjg","pricing_plan_id":"cebpf4jnsgd1na2vs0mg"},{"bike_id":"c90ab9c4-b724-48b3-94e8-bc293a9f726f","system_id":"levelo_inurba_marseille","lat":43.28694,"lon":5.39972,"is_reserved":false,"is_disabled":false,"rental_uris":{"android":"levelo://app?vid=c90ab9c4-b724-48b3-94e8-bc293a9f726f","ios":"levelo://app?vid=c90ab9c4-b724-48b3-94e8-bc293a9f726f"},"vehicle_type_id":"4","last_reported":1742832790,"current_range_meters":16800,"station_id":"ce4bho92rcd13ifvqh3g","pricing_plan_id":"cebpf4jnsgd1na2vs0mg"},{"bike_id":"3a507784-1e32-42f9-9210-f04a2955b962","system_id":"levelo_inurba_marseille","lat":43.28078,"lon":5.39654,"is_reserved":false,"is_disabled":false,"rental_uris":{"android":"levelo://app?vid=3a507784-1e32-42f9-9210-f04a2955b962","ios":"levelo://app?vid=3a507784-1e32-42f9-9210-f04a2955b962"},"vehicle_type_id":"4","last_reported":1742832790,"current_range_meters":16800,"station_id":"ce4bho12rcd13ifvqh2g","pricing_plan_id":"cebpf4jnsgd1na2vs0mg"},{"bike_id":"abc587ea-8677-42e3-8d41-2015b302e8f4","system_id":"levelo_inurba_marseille","lat":43.30141,"lon":5.37412,"is_reserved":false,"is_disabled":false,"rental_uris":{"android":"levelo://app?vid=abc587ea-8677-42e3-8d41-2015b302e8f4","ios":"levelo://app?vid=abc587ea-8677-42e3-8d41-2015b302e8f4"},"vehicle_type_id":"4","last_reported":1742832790,"current_range_meters":16800,"station_id":"ce4bgs92rcd13ifvqcc0","pricing_plan_id":"cebpf4jnsgd1na2vs0mg"},{"bike_id":"04357187-31a2-4621-9b88-fc476381d72a","system_id":"levelo_inurba_marseille","lat":43.25822,"lon":5.39429,"is_reserved":false,"is_disabled":false,"rental_uris":{"android":"levelo://app?vid=04357187-31a2-4621-9b88-fc476381d72a","ios":"levelo://app?vid=04357187-31a2-4621-9b88-fc476381d72a"},"vehicle_type_id":"4","last_reported":1742832790,"current_range_meters":16800,"station_id":"ce4bhip2rcd13ifvqft0","pricing_plan_id":"cebpf4jnsgd1na2vs0mg"},{"bike_id":"678dd2b2-cb88-4f08-8ba3-dc012f54adca","system_id":"levelo_inurba_marseille","lat":43.29181,"lon":5.3931,"is_reserved":false,"is_disabled":false,"rental_uris":{"android":"levelo://app?vid=678dd2b2-cb88-4f08-8ba3-dc012f54adca","ios":"levelo://app?vid=678dd2b2-cb88-4f08-8ba3-dc012f54adca"},"vehicle_type_id":"4","last_reported":1742832790,"current_range_meters":16800,"station_id":"ce4bh192rcd13ifvqdd0","pricing_plan_id":"cebpf4jnsgd1na2vs0mg"},{"bike_id":"b599ec8c-9116-4cb3-980c-d0a7d1e83114","system_id":"levelo_inurba_marseille","lat":43.32497,"lon":5.36559,"is_reserved":false,"is_disabled":false,"rental_uris":{"android":"levelo://app?vid=b599ec8c-9116-4cb3-980c-d0a7d1e83114","ios":"levelo://app?vid=b599ec8c-9116-4cb3-980c-d0a7d1e83114"},"vehicle_type_id":"4","last_reported":1742832790,"current_range_meters":16800,"station_id":"ce4bhs12rcd13ifvqhvg","pricing_plan_id":"cebpf4jnsgd1na2vs0mg"},{"bike_id":"bb58f931-d39b-4674-bcbc-5096c1d815e7","system_id":"levelo_inurba_marseille","lat":43.24235,"lon":5.39735,"is_reserved":false,"is_disabled":false,"rental_uris":{"android":"levelo://app?vid=bb58f931-d39b-4674-bcbc-5096c1d815e7","ios":"levelo://app?vid=bb58f931-d39b-4674-bcbc-5096c1d815e7"},"vehicle_type_id":"4","last_reported":1742832790,"current_range_meters":17200,"station_id":"","pricing_plan_id":"cebpf4jnsgd1na2vs0mg"},{"bike_id":"810bf77d-dae1-4249-85e9-6526ba5705a9","system_id":"levelo_inurba_marseille","lat":43.30142,"lon":5.38069,"is_reserved":false,"is_disabled":false,"rental_uris":{"android":"levelo://app?vid=810bf77d-dae1-4249-85e9-6526ba5705a9","ios":"levelo://app?vid=810bf77d-dae1-4249-85e9-6526ba5705a9"},"vehicle_type_id":"4","last_reported":1742832790,"current_range_meters":16800,"station_id":"ce4bgjp2rcd13ifvqbh0","pricing_plan_id":"cebpf4jnsgd1na2vs0mg"},{"bike_id":"87bc971d-7f2a-4f5b-9231-d1a713fc5fde","system_id":"levelo_inurba_marseille","lat":43.31997,"lon":5.38161,"is_reserved":false,"is_disabled":false,"rental_uris":{"android":"levelo://app?vid=87bc971d-7f2a-4f5b-9231-d1a713fc5fde","ios":"levelo://app?vid=87bc971d-7f2a-4f5b-9231-d1a713fc5fde"},"vehicle_type_id":"4","last_reported":1742832790,"current_range_meters":16800,"station_id":"ce4bhr12rcd13ifvqhpg","pricing_plan_id":"cebpf4jnsgd1na2vs0mg"},{"bike_id":"3f2cd0a7-d759-4dfd-86f6-bdaaef6db5d0","system_id":"levelo_inurba_marseille","lat":43.29898,"lon":5.43667,"is_reserved":false,"is_disabled":false,"rental_uris":{"android":"levelo://app?vid=3f2cd0a7-d759-4dfd-86f6-bdaaef6db5d0","ios":"levelo://app?vid=3f2cd0a7-d759-4dfd-86f6-bdaaef6db5d0"},"vehicle_type_id":"4","last_reported":1742832790,"current_range_meters":16800,"station_id":"ce4bhpp2rcd13ifvqhfg","pricing_plan_id":"cebpf4jnsgd1na2vs0mg"},{"bike_id":"71d053fe-72cd-4674-8064-9f91eaaa9762","system_id":"levelo_inurba_marseille","lat":43.28484,"lon":5.3856,"is_reserved":false,"is_disabled":true,"rental_uris":{"android":"levelo://app?vid=71d053fe-72cd-4674-8064-9f91eaaa9762","ios":"levelo://app?vid=71d053fe-72cd-4674-8064-9f91eaaa9762"},"vehicle_type_id":"4","last_reported":1742832790,"current_range_meters":16800,"station_id":"ce4bh8p2rcd13ifvqeb0","pricing_plan_id":"cebpf4jnsgd1na2vs0mg"},{"bike_id":"400e44de-c5db-4f95-8851-b7b69dd689aa","system_id":"levelo_inurba_marseille","lat":43.28002,"lon":5.41658,"is_reserved":false,"is_disabled":false,"rental_uris":{"android":"levelo://app?vid=400e44de-c5db-4f95-8851-b7b69dd689aa","ios":"levelo://app?vid=400e44de-c5db-4f95-8851-b7b69dd689aa"},"vehicle_type_id":"4","last_reported":1742832790,"current_range_meters":16400,"station_id":"ce4bho12rcd13ifvqh1g","pricing_plan_id":"cebpf4jnsgd1na2vs0mg"},{"bike_id":"e6153b41-b9ac-49bd-9fc3-f95e8ce52765","system_id":"levelo_inurba_marseille","lat":43.31526,"lon":5.38032,"is_reserved":false,"is_disabled":false,"rental_uris":{"android":"levelo://app?vid=e6153b41-b9ac-49bd-9fc3-f95e8ce52765","ios":"levelo://app?vid=e6153b41-b9ac-49bd-9fc3-f95e8ce52765"},"vehicle_type_id":"4","last_reported":1742832790,"current_range_meters":16800,"station_id":"ce4bhsp2rcd13ifvqi50","pricing_plan_id":"cebpf4jnsgd1na2vs0mg"},{"bike_id":"7fbb5cc4-ceec-4424-b26c-0b8b49614ca0","system_id":"levelo_inurba_marseille","lat":43.30126,"lon":5.39882,"is_reserved":false,"is_disabled":true,"rental_uris":{"android":"levelo://app?vid=7fbb5cc4-ceec-4424-b26c-0b8b49614ca0","ios":"levelo://app?vid=7fbb5cc4-ceec-4424-b26c-0b8b49614ca0"},"vehicle_type_id":"4","last_reported":1742832790,"current_range_meters":17200,"station_id":"ce4bh0h2rcd13ifvqd40","pricing_plan_id":"cebpf4jnsgd1na2vs0mg"},{"bike_id":"869ca956-34e3-4cff-99d6-d2a167c3c28d","system_id":"levelo_inurba_marseille","lat":43.31735,"lon":5.4241,"is_reserved":false,"is_disabled":false,"rental_uris":{"android":"levelo://app?vid=869ca956-34e3-4cff-99d6-d2a167c3c28d","ios":"levelo://app?vid=869ca956-34e3-4cff-99d6-d2a167c3c28d"},"vehicle_type_id":"4","last_reported":1742832790,"current_range_meters":17200,"station_id":"ce4bhp92rcd13ifvqhbg","pricing_plan_id":"cebpf4jnsgd1na2vs0mg"},{"bike_id":"60038b2e-a8e8-4f3e-9169-a66d1797462c","system_id":"levelo_inurba_marseille","lat":43.29267,"lon":5.38441,"is_reserved":false,"is_disabled":false,"rental_uris":{"android":"levelo://app?vid=60038b2e-a8e8-4f3e-9169-a66d1797462c","ios":"levelo://app?vid=60038b2e-a8e8-4f3e-9169-a66d1797462c"},"vehicle_type_id":"4","last_reported":1742832790,"current_range_meters":16800,"station_id":"ce4bh692rcd13ifvqea0","pricing_plan_id":"cebpf4jnsgd1na2vs0mg"},{"bike_id":"4984db66-5241-446c-94cd-2a35586b6040","system_id":"levelo_inurba_marseille","lat":43.27946,"lon":5.41039,"is_reserved":false,"is_disabled":false,"rental_uris":{"android":"levelo://app?vid=4984db66-5241-446c-94cd-2a35586b6040","ios":"levelo://app?vid=4984db66-5241-446c-94cd-2a35586b6040"},"vehicle_type_id":"4","last_reported":1742832790,"current_range_meters":17200,"station_id":"ce4bhnp2rcd13ifvqh0g","pricing_plan_id":"cebpf4jnsgd1na2vs0mg"},{"bike_id":"16d1a1e8-6833-46ef-8ac2-dd05daf383fb","system_id":"levelo_inurba_marseille","lat":43.27133,"lon":5.41685,"is_reserved":false,"is_disabled":false,"rental_uris":{"android":"levelo://app?vid=16d1a1e8-6833-46ef-8ac2-dd05daf383fb","ios":"levelo://app?vid=16d1a1e8-6833-46ef-8ac2-dd05daf383fb"},"vehicle_type_id":"4","last_reported":1742832790,"current_range_meters":17200,"station_id":"","pricing_plan_id":"cebpf4jnsgd1na2vs0mg"},{"bike_id":"c663b0aa-b7ed-4499-a99b-ee17c08cec4f","system_id":"levelo_inurba_marseille","lat":43.32338,"lon":5.40621,"is_reserved":false,"is_disabled":false,"rental_uris":{"android":"levelo://app?vid=c663b0aa-b7ed-4499-a99b-ee17c08cec4f","ios":"levelo://app?vid=c663b0aa-b7ed-4499-a99b-ee17c08cec4f"},"vehicle_type_id":"4","last_reported":1742832790,"current_range_meters":16800,"station_id":"ce4bhq92rcd13ifvqhjg","pricing_plan_id":"cebpf4jnsgd1na2vs0mg"},{"bike_id":"98d38a64-15b2-410c-b614-5635d097b9ba","system_id":"levelo_inurba_marseille","lat":43.30319,"lon":5.39197,"is_reserved":false,"is_disabled":true,"rental_uris":{"android":"levelo://app?vid=98d38a64-15b2-410c-b614-5635d097b9ba","ios":"levelo://app?vid=98d38a64-15b2-410c-b614-5635d097b9ba"},"vehicle_type_id":"4","last_reported":1742832790,"current_range_meters":17200,"station_id":"ce4bgkh2rcd13ifvqbk0","pricing_plan_id":"cebpf4jnsgd1na2vs0mg"},{"bike_id":"e296e7e3-9d5f-4fc2-a9eb-ca9a9ee52f86","system_id":"levelo_inurba_marseille","lat":43.3266,"lon":5.4099,"is_reserved":false,"is_disabled":false,"rental_uris":{"android":"levelo://app?vid=e296e7e3-9d5f-4fc2-a9eb-ca9a9ee52f86","ios":"levelo://app?vid=e296e7e3-9d5f-4fc2-a9eb-ca9a9ee52f86"},"vehicle_type_id":"4","last_reported":1742832790,"current_range_meters":17200,"station_id":"ce4bhpp2rcd13ifvqhgg","pricing_plan_id":"cebpf4jnsgd1na2vs0mg"},{"bike_id":"72f08a6d-719d-48b4-8d83-1b176fa8ab14","system_id":"levelo_inurba_marseille","lat":43.29898,"lon":5.4367,"is_reserved":false,"is_disabled":false,"rental_uris":{"android":"levelo://app?vid=72f08a6d-719d-48b4-8d83-1b176fa8ab14","ios":"levelo://app?vid=72f08a6d-719d-48b4-8d83-1b176fa8ab14"},"vehicle_type_id":"4","last_reported":1742832790,"current_range_meters":17600,"station_id":"ce4bhpp2rcd13ifvqhfg","pricing_plan_id":"cebpf4jnsgd1na2vs0mg"},{"bike_id":"1aeecb8e-b006-4f49-8edc-947d6456e728","system_id":"levelo_inurba_marseille","lat":43.30919,"lon":5.36854,"is_reserved":false,"is_disabled":false,"rental_uris":{"android":"levelo://app?vid=1aeecb8e-b006-4f49-8edc-947d6456e728","ios":"levelo://app?vid=1aeecb8e-b006-4f49-8edc-947d6456e728"},"vehicle_type_id":"4","last_reported":1742832790,"current_range_meters":17600,"station_id":"ce4bgn92rcd13ifvqbvg","pricing_plan_id":"cebpf4jnsgd1na2vs0mg"},{"bike_id":"1e19bcb8-1f16-4465-b8fb-8bc582b5e2dd","system_id":"levelo_inurba_marseille","lat":43.25581,"lon":5.38223,"is_reserved":false,"is_disabled":false,"rental_uris":{"android":"levelo://app?vid=1e19bcb8-1f16-4465-b8fb-8bc582b5e2dd","ios":"levelo://app?vid=1e19bcb8-1f16-4465-b8fb-8bc582b5e2dd"},"vehicle_type_id":"4","last_reported":1742832790,"current_range_meters":17600,"station_id":"ce4bhih2rcd13ifvqfs0","pricing_plan_id":"cebpf4jnsgd1na2vs0mg"},{"bike_id":"1cbfcbd4-7448-43ed-bcb9-b6974fedcb22","system_id":"levelo_inurba_marseille","lat":43.29581,"lon":5.37516,"is_reserved":false,"is_disabled":false,"rental_uris":{"android":"levelo://app?vid=1cbfcbd4-7448-43ed-bcb9-b6974fedcb22","ios":"levelo://app?vid=1cbfcbd4-7448-43ed-bcb9-b6974fedcb22"},"vehicle_type_id":"4","last_reported":1742832790,"current_range_meters":17600,"station_id":"ce4bgh92rcd13ifvqb50","pricing_plan_id":"cebpf4jnsgd1na2vs0mg"},{"bike_id":"48903a60-e120-4235-84b2-f19938505635","system_id":"levelo_inurba_marseille","lat":43.29521,"lon":5.39404,"is_reserved":false,"is_disabled":false,"rental_uris":{"android":"levelo://app?vid=48903a60-e120-4235-84b2-f19938505635","ios":"levelo://app?vid=48903a60-e120-4235-84b2-f19938505635"},"vehicle_type_id":"4","last_reported":1742832790,"current_range_meters":17200,"station_id":"ce4bh292rcd13ifvqdf0","pricing_plan_id":"cebpf4jnsgd1na2vs0mg"},{"bike_id":"fe1caea7-9395-4d60-aeaf-7d7d68a4c52d","system_id":"levelo_inurba_marseille","lat":43.30315,"lon":5.36895,"is_reserved":false,"is_disabled":false,"rental_uris":{"android":"levelo://app?vid=fe1caea7-9395-4d60-aeaf-7d7d68a4c52d","ios":"levelo://app?vid=fe1caea7-9395-4d60-aeaf-7d7d68a4c52d"},"vehicle_type_id":"4","last_reported":1742832790,"current_range_meters":17600,"station_id":"ce4bgqh2rcd13ifvqc5g","pricing_plan_id":"cebpf4jnsgd1na2vs0mg"},{"bike_id":"7e1a9145-ca6a-4a17-b5e6-320201ea3679","system_id":"levelo_inurba_marseille","lat":43.26561,"lon":5.39005,"is_reserved":false,"is_disabled":true,"rental_uris":{"android":"levelo://app?vid=7e1a9145-ca6a-4a17-b5e6-320201ea3679","ios":"levelo://app?vid=7e1a9145-ca6a-4a17-b5e6-320201ea3679"},"vehicle_type_id":"4","last_reported":1742832790,"current_range_meters":17600,"station_id":"ce4bhe12rcd13ifvqf30","pricing_plan_id":"cebpf4jnsgd1na2vs0mg"},{"bike_id":"ea3dee1b-d09f-43af-b3a9-f664d6575d56","system_id":"levelo_inurba_marseille","lat":43.29557,"lon":5.42286,"is_reserved":false,"is_disabled":false,"rental_uris":{"android":"levelo://app?vid=ea3dee1b-d09f-43af-b3a9-f664d6575d56","ios":"levelo://app?vid=ea3dee1b-d09f-43af-b3a9-f664d6575d56"},"vehicle_type_id":"4","last_reported":1742832790,"current_range_meters":17600,"station_id":"ce4bhph2rcd13ifvqhdg","pricing_plan_id":"cebpf4jnsgd1na2vs0mg"},{"bike_id":"5266ac03-7476-40d0-9b63-805f9bb2d3a0","system_id":"levelo_inurba_marseille","lat":43.27423,"lon":5.39408,"is_reserved":false,"is_disabled":false,"rental_uris":{"android":"levelo://app?vid=5266ac03-7476-40d0-9b63-805f9bb2d3a0","ios":"levelo://app?vid=5266ac03-7476-40d0-9b63-805f9bb2d3a0"},"vehicle_type_id":"4","last_reported":1742832790,"current_range_meters":17600,"station_id":"ce4bhdp2rcd13ifvqf20","pricing_plan_id":"cebpf4jnsgd1na2vs0mg"},{"bike_id":"0766057f-b34f-4c8c-9551-84a74faa0ea7","system_id":"levelo_inurba_marseille","lat":43.28427,"lon":5.39181,"is_reserved":false,"is_disabled":false,"rental_uris":{"android":"levelo://app?vid=0766057f-b34f-4c8c-9551-84a74faa0ea7","ios":"levelo://app?vid=0766057f-b34f-4c8c-9551-84a74faa0ea7"},"vehicle_type_id":"4","last_reported":1742832790,"current_range_meters":18000,"station_id":"ce4bhoh2rcd13ifvqh5g","pricing_plan_id":"cebpf4jnsgd1na2vs0mg"},{"bike_id":"fcf450d2-c235-472a-96bd-6e234d8f6e10","system_id":"levelo_inurba_marseille","lat":43.29906,"lon":5.43657,"is_reserved":false,"is_disabled":false,"rental_uris":{"android":"levelo://app?vid=fcf450d2-c235-472a-96bd-6e234d8f6e10","ios":"levelo://app?vid=fcf450d2-c235-472a-96bd-6e234d8f6e10"},"vehicle_type_id":"4","last_reported":1742832790,"current_range_meters":18000,"station_id":"ce4bhpp2rcd13ifvqhfg","pricing_plan_id":"cebpf4jnsgd1na2vs0mg"},{"bike_id":"682f6eaa-4c29-4c3b-a483-b3baee9bd977","system_id":"levelo_inurba_marseille","lat":43.2594,"lon":5.40893,"is_reserved":false,"is_disabled":true,"rental_uris":{"android":"levelo://app?vid=682f6eaa-4c29-4c3b-a483-b3baee9bd977","ios":"levelo://app?vid=682f6eaa-4c29-4c3b-a483-b3baee9bd977"},"vehicle_type_id":"4","last_reported":1742832790,"current_range_meters":18000,"station_id":"ce4bhm92rcd13ifvqglg","pricing_plan_id":"cebpf4jnsgd1na2vs0mg"},{"bike_id":"1b8446ff-9a82-479a-ad98-e5c969cb56db","system_id":"levelo_inurba_marseille","lat":43.27811,"lon":5.40708,"is_reserved":false,"is_disabled":false,"rental_uris":{"android":"levelo://app?vid=1b8446ff-9a82-479a-ad98-e5c969cb56db","ios":"levelo://app?vid=1b8446ff-9a82-479a-ad98-e5c969cb56db"},"vehicle_type_id":"4","last_reported":1742832790,"current_range_meters":17600,"station_id":"ce4bhnh2rcd13ifvqgtg","pricing_plan_id":"cebpf4jnsgd1na2vs0mg"},{"bike_id":"96d20b3d-7138-4d9e-a36f-8d41d1e93ef4","system_id":"levelo_inurba_marseille","lat":43.30792,"lon":5.37654,"is_reserved":false,"is_disabled":false,"rental_uris":{"android":"levelo://app?vid=96d20b3d-7138-4d9e-a36f-8d41d1e93ef4","ios":"levelo://app?vid=96d20b3d-7138-4d9e-a36f-8d41d1e93ef4"},"vehicle_type_id":"4","last_reported":1742832790,"current_range_meters":18800,"station_id":"ce4bgv92rcd13ifvqcq0","pricing_plan_id":"cebpf4jnsgd1na2vs0mg"},{"bike_id":"9efa0c73-3daa-4a8b-ac5e-6740df45d082","system_id":"levelo_inurba_marseille","lat":43.29198,"lon":5.39319,"is_reserved":false,"is_disabled":false,"rental_uris":{"android":"levelo://app?vid=9efa0c73-3daa-4a8b-ac5e-6740df45d082","ios":"levelo://app?vid=9efa0c73-3daa-4a8b-ac5e-6740df45d082"},"vehicle_type_id":"4","last_reported":1742832790,"current_range_meters":18800,"station_id":"ce4bh192rcd13ifvqdd0","pricing_plan_id":"cebpf4jnsgd1na2vs0mg"},{"bike_id":"84a7a785-5392-42bc-8088-fb903bcc7f5c","system_id":"levelo_inurba_marseille","lat":43.23067,"lon":5.35489,"is_reserved":false,"is_disabled":false,"rental_uris":{"android":"levelo://app?vid=84a7a785-5392-42bc-8088-fb903bcc7f5c","ios":"levelo://app?vid=84a7a785-5392-42bc-8088-fb903bcc7f5c"},"vehicle_type_id":"4","last_reported":1742832790,"current_range_meters":18800,"station_id":"cpo3342slgdg3j2ifvpg","pricing_plan_id":"cebpf4jnsgd1na2vs0mg"},{"bike_id":"6ee8a691-9f02-4996-b10a-c3a44403ac6e","system_id":"levelo_inurba_marseille","lat":43.29087,"lon":5.38129,"is_reserved":false,"is_disabled":false,"rental_uris":{"android":"levelo://app?vid=6ee8a691-9f02-4996-b10a-c3a44403ac6e","ios":"levelo://app?vid=6ee8a691-9f02-4996-b10a-c3a44403ac6e"},"vehicle_type_id":"4","last_reported":1742832790,"current_range_meters":18800,"station_id":"ce4bh512rcd13ifvqe2g","pricing_plan_id":"cebpf4jnsgd1na2vs0mg"},{"bike_id":"b949dccb-c8af-4318-9be7-4d2310eb048a","system_id":"levelo_inurba_marseille","lat":43.26356,"lon":5.39911,"is_reserved":false,"is_disabled":false,"rental_uris":{"android":"levelo://app?vid=b949dccb-c8af-4318-9be7-4d2310eb048a","ios":"levelo://app?vid=b949dccb-c8af-4318-9be7-4d2310eb048a"},"vehicle_type_id":"4","last_reported":1742832790,"current_range_meters":18800,"station_id":"","pricing_plan_id":"cebpf4jnsgd1na2vs0mg"},{"bike_id":"8f9a3bdf-201b-4192-9386-bad1be6e3060","system_id":"levelo_inurba_marseille","lat":43.24676,"lon":5.38161,"is_reserved":false,"is_disabled":false,"rental_uris":{"android":"levelo://app?vid=8f9a3bdf-201b-4192-9386-bad1be6e3060","ios":"levelo://app?vid=8f9a3bdf-201b-4192-9386-bad1be6e3060"},"vehicle_type_id":"4","last_reported":1742832790,"current_range_meters":18800,"station_id":"ce4bhih2rcd13ifvqfr0","pricing_plan_id":"cebpf4jnsgd1na2vs0mg"},{"bike_id":"3ef86fad-fb60-4870-8869-3e4add3df08a","system_id":"levelo_inurba_marseille","lat":43.301,"lon":5.39072,"is_reserved":false,"is_disabled":false,"rental_uris":{"android":"levelo://app?vid=3ef86fad-fb60-4870-8869-3e4add3df08a","ios":"levelo://app?vid=3ef86fad-fb60-4870-8869-3e4add3df08a"},"vehicle_type_id":"4","last_reported":1742832790,"current_range_meters":18800,"station_id":"ce4bh192rcd13ifvqdb0","pricing_plan_id":"cebpf4jnsgd1na2vs0mg"},{"bike_id":"eb7fc239-24dc-45ca-8336-eb1b18c22225","system_id":"levelo_inurba_marseille","lat":43.29187,"lon":5.39307,"is_reserved":false,"is_disabled":false,"rental_uris":{"android":"levelo://app?vid=eb7fc239-24dc-45ca-8336-eb1b18c22225","ios":"levelo://app?vid=eb7fc239-24dc-45ca-8336-eb1b18c22225"},"vehicle_type_id":"4","last_reported":1742832790,"current_range_meters":18800,"station_id":"ce4bh192rcd13ifvqdd0","pricing_plan_id":"cebpf4jnsgd1na2vs0mg"},{"bike_id":"66823665-2c02-462f-ad8e-502384ab4c21","system_id":"levelo_inurba_marseille","lat":43.26554,"lon":5.37281,"is_reserved":false,"is_disabled":false,"rental_uris":{"android":"levelo://app?vid=66823665-2c02-462f-ad8e-502384ab4c21","ios":"levelo://app?vid=66823665-2c02-462f-ad8e-502384ab4c21"},"vehicle_type_id":"4","last_reported":1742832790,"current_range_meters":18800,"station_id":"ce4bhg12rcd13ifvqf70","pricing_plan_id":"cebpf4jnsgd1na2vs0mg"},{"bike_id":"bb55a05d-fe63-45ff-b77a-60bcdf6f707e","system_id":"levelo_inurba_marseille","lat":43.27428,"lon":5.39405,"is_reserved":false,"is_disabled":false,"rental_uris":{"android":"levelo://app?vid=bb55a05d-fe63-45ff-b77a-60bcdf6f707e","ios":"levelo://app?vid=bb55a05d-fe63-45ff-b77a-60bcdf6f707e"},"vehicle_type_id":"4","last_reported":1742832790,"current_range_meters":18800,"station_id":"ce4bhdp2rcd13ifvqf20","pricing_plan_id":"cebpf4jnsgd1na2vs0mg"},{"bike_id":"a3c13ddb-6249-42fd-ab53-4f552527f0b9","system_id":"levelo_inurba_marseille","lat":43.29163,"lon":5.35761,"is_reserved":false,"is_disabled":false,"rental_uris":{"android":"levelo://app?vid=a3c13ddb-6249-42fd-ab53-4f552527f0b9","ios":"levelo://app?vid=a3c13ddb-6249-42fd-ab53-4f552527f0b9"},"vehicle_type_id":"4","last_reported":1742832790,"current_range_meters":19200,"station_id":"ce4bhb12rcd13ifvqel0","pricing_plan_id":"cebpf4jnsgd1na2vs0mg"},{"bike_id":"af752d7a-918b-4620-aec9-b9e7c4270e5c","system_id":"levelo_inurba_marseille","lat":43.29558,"lon":5.42292,"is_reserved":false,"is_disabled":false,"rental_uris":{"android":"levelo://app?vid=af752d7a-918b-4620-aec9-b9e7c4270e5c","ios":"levelo://app?vid=af752d7a-918b-4620-aec9-b9e7c4270e5c"},"vehicle_type_id":"4","last_reported":1742832790,"current_range_meters":19200,"station_id":"ce4bhph2rcd13ifvqhdg","pricing_plan_id":"cebpf4jnsgd1na2vs0mg"},{"bike_id":"2f575e00-0bc5-4a5a-a7f6-1dbfab4fc02f","system_id":"levelo_inurba_marseille","lat":43.28357,"lon":5.38634,"is_reserved":false,"is_disabled":false,"rental_uris":{"android":"levelo://app?vid=2f575e00-0bc5-4a5a-a7f6-1dbfab4fc02f","ios":"levelo://app?vid=2f575e00-0bc5-4a5a-a7f6-1dbfab4fc02f"},"vehicle_type_id":"4","last_reported":1742832790,"current_range_meters":19200,"station_id":"ce4bh492rcd13ifvqdvg","pricing_plan_id":"cebpf4jnsgd1na2vs0mg"},{"bike_id":"94745b7d-f83d-4637-8186-218336438d80","system_id":"levelo_inurba_marseille","lat":43.26171,"lon":5.42024,"is_reserved":false,"is_disabled":false,"rental_uris":{"android":"levelo://app?vid=94745b7d-f83d-4637-8186-218336438d80","ios":"levelo://app?vid=94745b7d-f83d-4637-8186-218336438d80"},"vehicle_type_id":"4","last_reported":1742832790,"current_range_meters":19200,"station_id":"","pricing_plan_id":"cebpf4jnsgd1na2vs0mg"},{"bike_id":"95a20dbe-fc9f-4e61-a50a-6863109ca9fb","system_id":"levelo_inurba_marseille","lat":43.29004,"lon":5.35603,"is_reserved":false,"is_disabled":false,"rental_uris":{"android":"levelo://app?vid=95a20dbe-fc9f-4e61-a50a-6863109ca9fb","ios":"levelo://app?vid=95a20dbe-fc9f-4e61-a50a-6863109ca9fb"},"vehicle_type_id":"4","last_reported":1742832790,"current_range_meters":19200,"station_id":"ce4bhb92rcd13ifvqen0","pricing_plan_id":"cebpf4jnsgd1na2vs0mg"},{"bike_id":"56cdda37-ce98-40ee-a8cf-1237548ad2ed","system_id":"levelo_inurba_marseille","lat":43.23968,"lon":5.36626,"is_reserved":false,"is_disabled":false,"rental_uris":{"android":"levelo://app?vid=56cdda37-ce98-40ee-a8cf-1237548ad2ed","ios":"levelo://app?vid=56cdda37-ce98-40ee-a8cf-1237548ad2ed"},"vehicle_type_id":"4","last_reported":1742832790,"current_range_meters":19200,"station_id":"ce4bhi12rcd13ifvqfp0","pricing_plan_id":"cebpf4jnsgd1na2vs0mg"},{"bike_id":"a2a4dbc2-a9e8-44b5-a596-aa42699b8c22","system_id":"levelo_inurba_marseille","lat":43.25084,"lon":5.39512,"is_reserved":false,"is_disabled":true,"rental_uris":{"android":"levelo://app?vid=a2a4dbc2-a9e8-44b5-a596-aa42699b8c22","ios":"levelo://app?vid=a2a4dbc2-a9e8-44b5-a596-aa42699b8c22"},"vehicle_type_id":"4","last_reported":1742832790,"current_range_meters":19200,"station_id":"","pricing_plan_id":"cebpf4jnsgd1na2vs0mg"},{"bike_id":"aa72a117-e245-4c8a-824e-9093848b944e","system_id":"levelo_inurba_marseille","lat":43.26215,"lon":5.37933,"is_reserved":false,"is_disabled":false,"rental_uris":{"android":"levelo://app?vid=aa72a117-e245-4c8a-824e-9093848b944e","ios":"levelo://app?vid=aa72a117-e245-4c8a-824e-9093848b944e"},"vehicle_type_id":"4","last_reported":1742832790,"current_range_meters":19200,"station_id":"ce4bhjp2rcd13ifvqg90","pricing_plan_id":"cebpf4jnsgd1na2vs0mg"},{"bike_id":"0ae92b9c-2d63-4e3d-bebe-da888619f6df","system_id":"levelo_inurba_marseille","lat":43.28261,"lon":5.3507,"is_reserved":false,"is_disabled":false,"rental_uris":{"android":"levelo://app?vid=0ae92b9c-2d63-4e3d-bebe-da888619f6df","ios":"levelo://app?vid=0ae92b9c-2d63-4e3d-bebe-da888619f6df"},"vehicle_type_id":"4","last_reported":1742832790,"current_range_meters":19200,"station_id":"ce4bhbp2rcd13ifvqerg","pricing_plan_id":"cebpf4jnsgd1na2vs0mg"},{"bike_id":"305ec3dc-895b-4934-8d85-547128e15355","system_id":"levelo_inurba_marseille","lat":43.260582,"lon":5.394023,"is_reserved":false,"is_disabled":false,"rental_uris":{"android":"levelo://app?vid=305ec3dc-895b-4934-8d85-547128e15355","ios":"levelo://app?vid=305ec3dc-895b-4934-8d85-547128e15355"},"vehicle_type_id":"4","last_reported":1742832790,"current_range_meters":18800,"station_id":"ce4bhh92rcd13ifvqfj0","pricing_plan_id":"cebpf4jnsgd1na2vs0mg"},{"bike_id":"cadd4f0d-91d1-4f12-98fe-f947d00fe016","system_id":"levelo_inurba_marseille","lat":43.29008,"lon":5.35608,"is_reserved":false,"is_disabled":false,"rental_uris":{"android":"levelo://app?vid=cadd4f0d-91d1-4f12-98fe-f947d00fe016","ios":"levelo://app?vid=cadd4f0d-91d1-4f12-98fe-f947d00fe016"},"vehicle_type_id":"4","last_reported":1742832790,"current_range_meters":19200,"station_id":"ce4bhb92rcd13ifvqen0","pricing_plan_id":"cebpf4jnsgd1na2vs0mg"},{"bike_id":"b4b6d11d-b53a-4c6a-ba15-70e8055da37a","system_id":"levelo_inurba_marseille","lat":43.30148,"lon":5.38089,"is_reserved":false,"is_disabled":false,"rental_uris":{"android":"levelo://app?vid=b4b6d11d-b53a-4c6a-ba15-70e8055da37a","ios":"levelo://app?vid=b4b6d11d-b53a-4c6a-ba15-70e8055da37a"},