{"last_updated":1769969980,"ttl":60,"version":"2.2","data":{"bikes":[{"bike_id":"a591b198-ffd8-42c1-96f8-07f7188eff82","system_id":"levelo_inurba_marseille","lat":43.25587,"lon":5.38248,"is_reserved":false,"is_disabled":false,"rental_uris":{"android":"levelo://app?vid=a591b198-ffd8-42c1-96f8-07f7188eff82","ios":"levelo://app?vid=a591b198-ffd8-42c1-96f8-07f7188eff82"},"vehicle_type_id":"4","last_reported":1769969981,"current_range_meters":2800,"station_id":"ce4bhih2rcd13ifvqfs0","pricing_plan_id":"cebpf4jnsgd1na2vs0mg"},{"bike_id":"11ad11d5-bb8b-4966-95f4-c96be43c05db","system_id":"levelo_inurba_marseille","lat":43.2926,"lon":5.38433,"is_reserved":false,"is_disabled":false,"rental_uris":{"android":"levelo://app?vid=11ad11d5-bb8b-4966-95f4-c96be43c05db","ios":"levelo://app?vid=11ad11d5-bb8b-4966-95f4-c96be43c05db"},"vehicle_type_id":"4","last_reported":1769969981,"current_range_meters":2800,"station_id":"ce4bh692rcd13ifvqea0","pricing_plan_id":"cebpf4jnsgd1na2vs0mg"},{"bike_id":"2eba76ae-be6b-4d81-ae8a-97bf65b4e208","system_id":"levelo_inurba_marseille","lat":43.28721,"lon":5.36086,"is_reserved":false,"is_disabled":false,"rental_uris":{"android":"levelo://app?vid=2eba76ae-be6b-4d81-ae8a-97bf65b4e208","ios":"levelo://app?vid=2eba76ae-be6b-4d81-ae8a-97bf65b4e208"},"vehicle_type_id":"4","last_reported":1769969981,"current_range_meters":2800,"station_id":"cki0cbj6b192h4jlfktg","pricing_plan_id":"cebpf4jnsgd1na2vs0mg"},{"bike_id":"1dc97b2e-d1f5-4f3f-bf58-ab267d00c025","system_id":"levelo_inurba_marseille","lat":43.23188,"lon":5.35548,"is_reserved":false,"is_disabled":false,"rental_uris":{"android":"levelo://app?vid=1dc97b2e-d1f5-4f3f-bf58-ab267d00c025","ios":"levelo://app?vid=1dc97b2e-d1f5-4f3f-bf58-ab267d00c025"},"vehicle_type_id":"4","last_reported":1769969981,"current_range_meters":2800,"station_id":"ce4bhu92rcd13ifvqi70","pricing_plan_id":"cebpf4jnsgd1na2vs0mg"},{"bike_id":"96113c6c-5474-48f6-bb6b-c57482b2da18","system_id":"levelo_inurba_marseille","lat":43.293634,"lon":5.378276,"is_reserved":false,"is_disabled":false,"rental_uris":{"android":"levelo://app?vid=96113c6c-5474-48f6-bb6b-c57482b2da18","ios":"levelo://app?vid=96113c6c-5474-48f6-bb6b-c57482b2da18"},"vehicle_type_id":"4","last_reported":1769969981,"current_range_meters":2800,"station_id":"ce4bgjh2rcd13ifvqbf0","pricing_plan_id":"cebpf4jnsgd1na2vs0mg"},{"bike_id":"1dccb8e6-9ad0-4b85-b546-15e29709d49a","system_id":"levelo_inurba_marseille","lat":43.26595,"lon":5.39033,"is_reserved":false,"is_disabled":false,"rental_uris":{"android":"levelo://app?vid=1dccb8e6-9ad0-4b85-b546-15e29709d49a","ios":"levelo://app?vid=1dccb8e6-9ad0-4b85-b546-15e29709d49a"},"vehicle_type_id":"4","last_reported":1769969981,"current_range_meters":2800,"station_id":"ce4bhe12rcd13ifvqf30","pricing_plan_id":"cebpf4jnsgd1na2vs0mg"},{"bike_id":"6259a571-4c97-41bc-9e30-1f15710670c6","system_id":"levelo_inurba_marseille","lat":43.24654,"lon":5.40098,"is_reserved":false,"is_disabled":false,"rental_uris":{"android":"levelo://app?vid=6259a571-4c97-41bc-9e30-1f15710670c6","ios":"levelo://app?vid=6259a571-4c97-41bc-9e30-1f15710670c6"},"vehicle_type_id":"4","last_reported":1769969981,"current_range_meters":2800,"station_id":"","pricing_plan_id":"cebpf4jnsgd1na2vs0mg"},{"bike_id":"08b70f2f-502d-4d12-bb99-74f278d06b70","system_id":"levelo_inurba_marseille","lat":43.30781,"lon":5.38171,"is_reserved":false,"is_disabled":false,"rental_uris":{"android":"levelo://app?vid=08b70f2f-502d-4d12-bb99-74f278d06b70","ios":"levelo://app?vid=08b70f2f-502d-4d12-bb99-74f278d06b70"},"vehicle_type_id":"4","last_reported":1769969981,"current_range_meters":2800,"station_id":"ce4bgt12rcd13ifvqce0","pricing_plan_id":"cebpf4jnsgd1na2vs0mg"},{"bike_id":"6db7d4e2-6613-4bf1-8965-27a146d49a14","system_id":"levelo_inurba_marseille","lat":43.26421,"lon":5.40401,"is_reserved":false,"is_disabled":false,"rental_uris":{"android":"levelo://app?vid=6db7d4e2-6613-4bf1-8965-27a146d49a14","ios":"levelo://app?vid=6db7d4e2-6613-4bf1-8965-27a146d49a14"},"vehicle_type_id":"4","last_reported":1769969981,"current_range_meters":2800,"station_id":"","pricing_plan_id":"cebpf4jnsgd1na2vs0mg"},{"bike_id":"5cd9ac63-1e5e-45b7-8e97-da64562f02e7","system_id":"levelo_inurba_marseille","lat":43.248091,"lon":5.374627,"is_reserved":false,"is_disabled":false,"rental_uris":{"android":"levelo://app?vid=5cd9ac63-1e5e-45b7-8e97-da64562f02e7","ios":"levelo://app?vid=5cd9ac63-1e5e-45b7-8e97-da64562f02e7"},"vehicle_type_id":"4","last_reported":1769969981,"current_range_meters":2800,"station_id":"ce4bhgh2rcd13ifvqfb0","pricing_plan_id":"cebpf4jnsgd1na2vs0mg"},{"bike_id":"01cd4626-3afe-4e4a-8b73-afe6f91a42be","system_id":"levelo_inurba_marseille","lat":43.24671,"lon":5.38135,"is_reserved":false,"is_disabled":false,"rental_uris":{"android":"levelo://app?vid=01cd4626-3afe-4e4a-8b73-afe6f91a42be","ios":"levelo://app?vid=01cd4626-3afe-4e4a-8b73-afe6f91a42be"},"vehicle_type_id":"4","last_reported":1769969981,"current_range_meters":2800,"station_id":"ce4bhih2rcd13ifvqfr0","pricing_plan_id":"cebpf4jnsgd1na2vs0mg"},{"bike_id":"e7926808-3e00-4c85-aaac-88eb134c0cf0","system_id":"levelo_inurba_marseille","lat":43.29799,"lon":5.39349,"is_reserved":false,"is_disabled":false,"rental_uris":{"android":"levelo://app?vid=e7926808-3e00-4c85-aaac-88eb134c0cf0","ios":"levelo://app?vid=e7926808-3e00-4c85-aaac-88eb134c0cf0"},"vehicle_type_id":"4","last_reported":1769969981,"current_range_meters":2800,"station_id":"chh1huq6cuj3fo74tm60","pricing_plan_id":"cebpf4jnsgd1na2vs0mg"},{"bike_id":"a892fbdd-0992-497e-89b1-841c298473b9","system_id":"levelo_inurba_marseille","lat":43.29266,"lon":5.37625,"is_reserved":false,"is_disabled":false,"rental_uris":{"android":"levelo://app?vid=a892fbdd-0992-497e-89b1-841c298473b9","ios":"levelo://app?vid=a892fbdd-0992-497e-89b1-841c298473b9"},"vehicle_type_id":"4","last_reported":1769969981,"current_range_meters":3200,"station_id":"ce4bgi12rcd13ifvqb80","pricing_plan_id":"cebpf4jnsgd1na2vs0mg"},{"bike_id":"d8ad58c2-1203-4015-8476-69a224977c61","system_id":"levelo_inurba_marseille","lat":43.26683,"lon":5.38277,"is_reserved":false,"is_disabled":false,"rental_uris":{"android":"levelo://app?vid=d8ad58c2-1203-4015-8476-69a224977c61","ios":"levelo://app?vid=d8ad58c2-1203-4015-8476-69a224977c61"},"vehicle_type_id":"4","last_reported":1769969981,"current_range_meters":3200,"station_id":"ce4bhg92rcd13ifvqf90","pricing_plan_id":"cebpf4jnsgd1na2vs0mg"},{"bike_id":"581ce60f-5f73-418f-b6cd-f362decf7a25","system_id":"levelo_inurba_marseille","lat":43.27942,"lon":5.41043,"is_reserved":false,"is_disabled":false,"rental_uris":{"android":"levelo://app?vid=581ce60f-5f73-418f-b6cd-f362decf7a25","ios":"levelo://app?vid=581ce60f-5f73-418f-b6cd-f362decf7a25"},"vehicle_type_id":"4","last_reported":1769969981,"current_range_meters":3200,"station_id":"ce4bhnp2rcd13ifvqh0g","pricing_plan_id":"cebpf4jnsgd1na2vs0mg"},{"bike_id":"318133aa-3b05-4452-b847-cf5a32021652","system_id":"levelo_inurba_marseille","lat":43.25088,"lon":5.39524,"is_reserved":false,"is_disabled":false,"rental_uris":{"android":"levelo://app?vid=318133aa-3b05-4452-b847-cf5a32021652","ios":"levelo://app?vid=318133aa-3b05-4452-b847-cf5a32021652"},"vehicle_type_id":"4","last_reported":1769969981,"current_range_meters":3200,"station_id":"ce4bhm12rcd13ifvqgkg","pricing_plan_id":"cebpf4jnsgd1na2vs0mg"},{"bike_id":"5c995b19-b831-47c2-bb3d-99027c287c62","system_id":"levelo_inurba_marseille","lat":43.29099,"lon":5.38142,"is_reserved":false,"is_disabled":false,"rental_uris":{"android":"levelo://app?vid=5c995b19-b831-47c2-bb3d-99027c287c62","ios":"levelo://app?vid=5c995b19-b831-47c2-bb3d-99027c287c62"},"vehicle_type_id":"4","last_reported":1769969981,"current_range_meters":3200,"station_id":"ce4bh512rcd13ifvqe2g","pricing_plan_id":"cebpf4jnsgd1na2vs0mg"},{"bike_id":"4ae21097-68ff-4a44-bcb7-3e142e11d517","system_id":"levelo_inurba_marseille","lat":43.242,"lon":5.36351,"is_reserved":false,"is_disabled":false,"rental_uris":{"android":"levelo://app?vid=4ae21097-68ff-4a44-bcb7-3e142e11d517","ios":"levelo://app?vid=4ae21097-68ff-4a44-bcb7-3e142e11d517"},"vehicle_type_id":"4","last_reported":1769969981,"current_range_meters":3200,"station_id":"cpo36qri1sfpv3e86is0","pricing_plan_id":"cebpf4jnsgd1na2vs0mg"},{"bike_id":"1ce878eb-4071-417b-affe-e9036002f1a6","system_id":"levelo_inurba_marseille","lat":43.24785,"lon":5.3747,"is_reserved":false,"is_disabled":false,"rental_uris":{"android":"levelo://app?vid=1ce878eb-4071-417b-affe-e9036002f1a6","ios":"levelo://app?vid=1ce878eb-4071-417b-affe-e9036002f1a6"},"vehicle_type_id":"4","last_reported":1769969981,"current_range_meters":3200,"station_id":"ce4bhgh2rcd13ifvqfb0","pricing_plan_id":"cebpf4jnsgd1na2vs0mg"},{"bike_id":"ab232c00-bc98-40c8-b712-159e9e17aa39","system_id":"levelo_inurba_marseille","lat":43.31686,"lon":5.40466,"is_reserved":false,"is_disabled":false,"rental_uris":{"android":"levelo://app?vid=ab232c00-bc98-40c8-b712-159e9e17aa39","ios":"levelo://app?vid=ab232c00-bc98-40c8-b712-159e9e17aa39"},"vehicle_type_id":"4","last_reported":1769969981,"current_range_meters":3200,"station_id":"ce4bh012rcd13ifvqd00","pricing_plan_id":"cebpf4jnsgd1na2vs0mg"},{"bike_id":"2aa1b855-a67e-44a5-9e87-0b767dbf6e7a","system_id":"levelo_inurba_marseille","lat":43.27389,"lon":5.36259,"is_reserved":false,"is_disabled":false,"rental_uris":{"android":"levelo://app?vid=2aa1b855-a67e-44a5-9e87-0b767dbf6e7a","ios":"levelo://app?vid=2aa1b855-a67e-44a5-9e87-0b767dbf6e7a"},"vehicle_type_id":"4","last_reported":1769969981,"current_range_meters":3200,"station_id":"ce4bhbh2rcd13ifvqeo0","pricing_plan_id":"cebpf4jnsgd1na2vs0mg"},{"bike_id":"79f65e29-7407-4585-a4e9-ab99c432fdef","system_id":"levelo_inurba_marseille","lat":43.29715,"lon":5.36598,"is_reserved":false,"is_disabled":false,"rental_uris":{"android":"levelo://app?vid=79f65e29-7407-4585-a4e9-ab99c432fdef","ios":"levelo://app?vid=79f65e29-7407-4585-a4e9-ab99c432fdef"},"vehicle_type_id":"4","last_reported":1769969981,"current_range_meters":3200,"station_id":"ce4bgn12rcd13ifvqbt0","pricing_plan_id":"cebpf4jnsgd1na2vs0mg"},{"bike_id":"d3215a18-ac25-47b2-bc57-dcaef897eb36","system_id":"levelo_inurba_marseille","lat":43.3142,"lon":5.38551,"is_reserved":false,"is_disabled":false,"rental_uris":{"android":"levelo://app?vid=d3215a18-ac25-47b2-bc57-dcaef897eb36","ios":"levelo://app?vid=d3215a18-ac25-47b2-bc57-dcaef897eb36"},"vehicle_type_id":"4","last_reported":1769969981,"current_range_meters":3600,"station_id":"","pricing_plan_id":"cebpf4jnsgd1na2vs0mg"},{"bike_id":"4d1543f5-e776-4815-ba04-1abf9b6958c1","system_id":"levelo_inurba_marseille","lat":43.2925,"lon":5.38435,"is_reserved":false,"is_disabled":false,"rental_uris":{"android":"levelo://app?vid=4d1543f5-e776-4815-ba04-1abf9b6958c1","ios":"levelo://app?vid=4d1543f5-e776-4815-ba04-1abf9b6958c1"},"vehicle_type_id":"4","last_reported":1769969981,"current_range_meters":3600,"station_id":"ce4bh692rcd13ifvqea0","pricing_plan_id":"cebpf4jnsgd1na2vs0mg"},{"bike_id":"fb1f73ec-8d64-40b4-904b-1a8c014b6739","system_id":"levelo_inurba_marseille","lat":43.28434,"lon":5.39202,"is_reserved":false,"is_disabled":false,"rental_uris":{"android":"levelo://app?vid=fb1f73ec-8d64-40b4-904b-1a8c014b6739","ios":"levelo://app?vid=fb1f73ec-8d64-40b4-904b-1a8c014b6739"},"vehicle_type_id":"4","last_reported":1769969981,"current_range_meters":3600,"station_id":"ce4bhoh2rcd13ifvqh5g","pricing_plan_id":"cebpf4jnsgd1na2vs0mg"},{"bike_id":"0864cf76-c5c5-493f-a678-5c38da3b97f4","system_id":"levelo_inurba_marseille","lat":43.30884,"lon":5.39663,"is_reserved":false,"is_disabled":false,"rental_uris":{"android":"levelo://app?vid=0864cf76-c5c5-493f-a678-5c38da3b97f4","ios":"levelo://app?vid=0864cf76-c5c5-493f-a678-5c38da3b97f4"},"vehicle_type_id":"4","last_reported":1769969981,"current_range_meters":3600,"station_id":"ce4bh012rcd13ifvqcv0","pricing_plan_id":"cebpf4jnsgd1na2vs0mg"},{"bike_id":"a95b6bdd-ba40-4a82-ab47-aa4cb29e4c38","system_id":"levelo_inurba_marseille","lat":43.29568,"lon":5.39978,"is_reserved":false,"is_disabled":false,"rental_uris":{"android":"levelo://app?vid=a95b6bdd-ba40-4a82-ab47-aa4cb29e4c38","ios":"levelo://app?vid=a95b6bdd-ba40-4a82-ab47-aa4cb29e4c38"},"vehicle_type_id":"4","last_reported":1769969981,"current_range_meters":3600,"station_id":"ce4bh312rcd13ifvqdj0","pricing_plan_id":"cebpf4jnsgd1na2vs0mg"},{"bike_id":"d0d25c75-a818-45ff-b16c-9f2520e5bae4","system_id":"levelo_inurba_marseille","lat":43.24802,"lon":5.37484,"is_reserved":false,"is_disabled":false,"rental_uris":{"android":"levelo://app?vid=d0d25c75-a818-45ff-b16c-9f2520e5bae4","ios":"levelo://app?vid=d0d25c75-a818-45ff-b16c-9f2520e5bae4"},"vehicle_type_id":"4","last_reported":1769969981,"current_range_meters":3600,"station_id":"ce4bhgh2rcd13ifvqfb0","pricing_plan_id":"cebpf4jnsgd1na2vs0mg"},{"bike_id":"21a72a69-9fba-4c92-b534-96b106992f8a","system_id":"levelo_inurba_marseille","lat":43.31218,"lon":5.38078,"is_reserved":false,"is_disabled":false,"rental_uris":{"android":"levelo://app?vid=21a72a69-9fba-4c92-b534-96b106992f8a","ios":"levelo://app?vid=21a72a69-9fba-4c92-b534-96b106992f8a"},"vehicle_type_id":"4","last_reported":1769969981,"current_range_meters":3600,"station_id":"","pricing_plan_id":"cebpf4jnsgd1na2vs0mg"},{"bike_id":"6ae5efa6-6ffc-465f-8aec-47e1e40444c5","system_id":"levelo_inurba_marseille","lat":43.287018,"lon":5.37378,"is_reserved":false,"is_disabled":false,"rental_uris":{"android":"levelo://app?vid=6ae5efa6-6ffc-465f-8aec-47e1e40444c5","ios":"levelo://app?vid=6ae5efa6-6ffc-465f-8aec-47e1e40444c5"},"vehicle_type_id":"4","last_reported":1769969981,"current_range_meters":3600,"station_id":"ce4bh3p2rcd13ifvqdq0","pricing_plan_id":"cebpf4jnsgd1na2vs0mg"},{"bike_id":"d0a48088-78be-413b-ae24-236eae9be830","system_id":"levelo_inurba_marseille","lat":43.22929,"lon":5.3538,"is_reserved":false,"is_disabled":false,"rental_uris":{"android":"levelo://app?vid=d0a48088-78be-413b-ae24-236eae9be830","ios":"levelo://app?vid=d0a48088-78be-413b-ae24-236eae9be830"},"vehicle_type_id":"4","last_reported":1769969981,"current_range_meters":3600,"station_id":"cpo3532slgdg3j2ikp40","pricing_plan_id":"cebpf4jnsgd1na2vs0mg"},{"bike_id":"f0218cba-f9dc-446e-bcc8-07cf561f4afd","system_id":"levelo_inurba_marseille","lat":43.27212,"lon":5.39175,"is_reserved":false,"is_disabled":false,"rental_uris":{"android":"levelo://app?vid=f0218cba-f9dc-446e-bcc8-07cf561f4afd","ios":"levelo://app?vid=f0218cba-f9dc-446e-bcc8-07cf561f4afd"},"vehicle_type_id":"4","last_reported":1769969981,"current_range_meters":3600,"station_id":"ce4bhhp2rcd13ifvqfm0","pricing_plan_id":"cebpf4jnsgd1na2vs0mg"},{"bike_id":"ae9455a0-cefc-4d5e-b9ef-a184dcd08edb","system_id":"levelo_inurba_marseille","lat":43.26544,"lon":5.37298,"is_reserved":false,"is_disabled":true,"rental_uris":{"android":"levelo://app?vid=ae9455a0-cefc-4d5e-b9ef-a184dcd08edb","ios":"levelo://app?vid=ae9455a0-cefc-4d5e-b9ef-a184dcd08edb"},"vehicle_type_id":"4","last_reported":1769969981,"current_range_meters":3600,"station_id":"ce4bhg12rcd13ifvqf70","pricing_plan_id":"cebpf4jnsgd1na2vs0mg"},{"bike_id":"ae91fa4d-2464-4444-93f6-521cd0ccaf65","system_id":"levelo_inurba_marseille","lat":43.29529,"lon":5.38549,"is_reserved":false,"is_disabled":false,"rental_uris":{"android":"levelo://app?vid=ae91fa4d-2464-4444-93f6-521cd0ccaf65","ios":"levelo://app?vid=ae91fa4d-2464-4444-93f6-521cd0ccaf65"},"vehicle_type_id":"4","last_reported":1769969981,"current_range_meters":3600,"station_id":"ce4bgih2rcd13ifvqba0","pricing_plan_id":"cebpf4jnsgd1na2vs0mg"},{"bike_id":"14b922f8-faa8-468d-9db1-fed26c45f650","system_id":"levelo_inurba_marseille","lat":43.29022,"lon":5.38631,"is_reserved":false,"is_disabled":false,"rental_uris":{"android":"levelo://app?vid=14b922f8-faa8-468d-9db1-fed26c45f650","ios":"levelo://app?vid=14b922f8-faa8-468d-9db1-fed26c45f650"},"vehicle_type_id":"4","last_reported":1769969981,"current_range_meters":3600,"station_id":"ce4bh4p2rcd13ifvqe0g","pricing_plan_id":"cebpf4jnsgd1na2vs0mg"},{"bike_id":"112b1e21-bd3a-4255-8abc-185d02b80389","system_id":"levelo_inurba_marseille","lat":43.28656,"lon":5.38681,"is_reserved":false,"is_disabled":false,"rental_uris":{"android":"levelo://app?vid=112b1e21-bd3a-4255-8abc-185d02b80389","ios":"levelo://app?vid=112b1e21-bd3a-4255-8abc-185d02b80389"},"vehicle_type_id":"4","last_reported":1769969981,"current_range_meters":3600,"station_id":"ce4bh492rcd13ifvqdug","pricing_plan_id":"cebpf4jnsgd1na2vs0mg"},{"bike_id":"ef5cdbbf-7f51-4c3d-afa2-ff57da42e253","system_id":"levelo_inurba_marseille","lat":43.28522,"lon":5.44101,"is_reserved":false,"is_disabled":false,"rental_uris":{"android":"levelo://app?vid=ef5cdbbf-7f51-4c3d-afa2-ff57da42e253","ios":"levelo://app?vid=ef5cdbbf-7f51-4c3d-afa2-ff57da42e253"},"vehicle_type_id":"4","last_reported":1769969981,"current_range_meters":3600,"station_id":"st_d3j3df2ikq2c7380ej80","pricing_plan_id":"cebpf4jnsgd1na2vs0mg"},{"bike_id":"f1afac7b-3a1b-4cac-a9fd-69907f58ad17","system_id":"levelo_inurba_marseille","lat":43.26934,"lon":5.40273,"is_reserved":false,"is_disabled":false,"rental_uris":{"android":"levelo://app?vid=f1afac7b-3a1b-4cac-a9fd-69907f58ad17","ios":"levelo://app?vid=f1afac7b-3a1b-4cac-a9fd-69907f58ad17"},"vehicle_type_id":"4","last_reported":1769969981,"current_range_meters":4000,"station_id":"cjm6bp8fraef2m0cb0m0","pricing_plan_id":"cebpf4jnsgd1na2vs0mg"},{"bike_id":"b4c053fd-97e0-4975-a1e6-32c59e4cdf43","system_id":"levelo_inurba_marseille","lat":43.29612,"lon":5.38092,"is_reserved":false,"is_disabled":false,"rental_uris":{"android":"levelo://app?vid=b4c053fd-97e0-4975-a1e6-32c59e4cdf43","ios":"levelo://app?vid=b4c053fd-97e0-4975-a1e6-32c59e4cdf43"},"vehicle_type_id":"4","last_reported":1769969981,"current_range_meters":4000,"station_id":"ce4bgl12rcd13ifvqbo0","pricing_plan_id":"cebpf4jnsgd1na2vs0mg"},{"bike_id":"2c87ecac-0fb0-4aed-b96f-c94f3d8eb77c","system_id":"levelo_inurba_marseille","lat":43.30599,"lon":5.37216,"is_reserved":false,"is_disabled":false,"rental_uris":{"android":"levelo://app?vid=2c87ecac-0fb0-4aed-b96f-c94f3d8eb77c","ios":"levelo://app?vid=2c87ecac-0fb0-4aed-b96f-c94f3d8eb77c"},"vehicle_type_id":"4","last_reported":1769969981,"current_range_meters":4000,"station_id":"ce4bgqh2rcd13ifvqc4g","pricing_plan_id":"cebpf4jnsgd1na2vs0mg"},{"bike_id":"697c8a06-61f9-4222-834d-edf7efee31b8","system_id":"levelo_inurba_marseille","lat":43.24168,"lon":5.36393,"is_reserved":false,"is_disabled":false,"rental_uris":{"android":"levelo://app?vid=697c8a06-61f9-4222-834d-edf7efee31b8","ios":"levelo://app?vid=697c8a06-61f9-4222-834d-edf7efee31b8"},"vehicle_type_id":"4","last_reported":1769969981,"current_range_meters":4000,"station_id":"cpo36qri1sfpv3e86is0","pricing_plan_id":"cebpf4jnsgd1na2vs0mg"},{"bike_id":"cc731f67-1844-4163-aa7c-d2e98863ffc7","system_id":"levelo_inurba_marseille","lat":43.23378,"lon":5.41229,"is_reserved":false,"is_disabled":false,"rental_uris":{"android":"levelo://app?vid=cc731f67-1844-4163-aa7c-d2e98863ffc7","ios":"levelo://app?vid=cc731f67-1844-4163-aa7c-d2e98863ffc7"},"vehicle_type_id":"4","last_reported":1769969981,"current_range_meters":4000,"station_id":"","pricing_plan_id":"cebpf4jnsgd1na2vs0mg"},{"bike_id":"8c0be225-2286-4fd4-866d-a46f1deb5865","system_id":"levelo_inurba_marseille","lat":43.27367,"lon":5.3625,"is_reserved":false,"is_disabled":false,"rental_uris":{"android":"levelo://app?vid=8c0be225-2286-4fd4-866d-a46f1deb5865","ios":"levelo://app?vid=8c0be225-2286-4fd4-866d-a46f1deb5865"},"vehicle_type_id":"4","last_reported":1769969981,"current_range_meters":4000,"station_id":"ce4bhbh2rcd13ifvqeo0","pricing_plan_id":"cebpf4jnsgd1na2vs0mg"},{"bike_id":"a3ff37e1-8a03-4352-a3b8-9f7d23f12798","system_id":"levelo_inurba_marseille","lat":43.27947,"lon":5.38744,"is_reserved":false,"is_disabled":false,"rental_uris":{"android":"levelo://app?vid=a3ff37e1-8a03-4352-a3b8-9f7d23f12798","ios":"levelo://app?vid=a3ff37e1-8a03-4352-a3b8-9f7d23f12798"},"vehicle_type_id":"4","last_reported":1769969981,"current_range_meters":4000,"station_id":"ce4bhg12rcd13ifvqf80","pricing_plan_id":"cebpf4jnsgd1na2vs0mg"},{"bike_id":"7725ea14-335e-4d54-91ac-40d50e39e00e","system_id":"levelo_inurba_marseille","lat":43.23185,"lon":5.39973,"is_reserved":false,"is_disabled":false,"rental_uris":{"android":"levelo://app?vid=7725ea14-335e-4d54-91ac-40d50e39e00e","ios":"levelo://app?vid=7725ea14-335e-4d54-91ac-40d50e39e00e"},"vehicle_type_id":"4","last_reported":1769969981,"current_range_meters":4000,"station_id":"ce4bhn12rcd13ifvqgqg","pricing_plan_id":"cebpf4jnsgd1na2vs0mg"},{"bike_id":"3b54eb14-3f41-45a7-af15-3be20a6e4205","system_id":"levelo_inurba_marseille","lat":43.29314,"lon":5.37449,"is_reserved":false,"is_disabled":false,"rental_uris":{"android":"levelo://app?vid=3b54eb14-3f41-45a7-af15-3be20a6e4205","ios":"levelo://app?vid=3b54eb14-3f41-45a7-af15-3be20a6e4205"},"vehicle_type_id":"4","last_reported":1769969981,"current_range_meters":4000,"station_id":"ce4bgi12rcd13ifvqb70","pricing_plan_id":"cebpf4jnsgd1na2vs0mg"},{"bike_id":"d4d18011-2bf0-4a2b-a896-7a5c21af3b9d","system_id":"levelo_inurba_marseille","lat":43.28489,"lon":5.48389,"is_reserved":false,"is_disabled":false,"rental_uris":{"android":"levelo://app?vid=d4d18011-2bf0-4a2b-a896-7a5c21af3b9d","ios":"levelo://app?vid=d4d18011-2bf0-4a2b-a896-7a5c21af3b9d"},"vehicle_type_id":"4","last_reported":1769969981,"current_range_meters":4000,"station_id":"st_d3svhcjqgbts73a3dn0g","pricing_plan_id":"cebpf4jnsgd1na2vs0mg"},{"bike_id":"a0ed992f-17ef-4506-a4ab-d07fd8f0eff4","system_id":"levelo_inurba_marseille","lat":43.25511,"lon":5.37662,"is_reserved":false,"is_disabled":false,"rental_uris":{"android":"levelo://app?vid=a0ed992f-17ef-4506-a4ab-d07fd8f0eff4","ios":"levelo://app?vid=a0ed992f-17ef-4506-a4ab-d07fd8f0eff4"},"vehicle_type_id":"4","last_reported":1769969981,"current_range_meters":4000,"station_id":"ce4bhh12rcd13ifvqff0","pricing_plan_id":"cebpf4jnsgd1na2vs0mg"},{"bike_id":"e85e70c1-4571-458d-8fbe-fceb5b130464","system_id":"levelo_inurba_marseille","lat":43.262091,"lon":5.374396,"is_reserved":false,"is_disabled":false,"rental_uris":{"android":"levelo://app?vid=e85e70c1-4571-458d-8fbe-fceb5b130464","ios":"levelo://app?vid=e85e70c1-4571-458d-8fbe-fceb5b130464"},"vehicle_type_id":"4","last_reported":1769969981,"current_range_meters":4000,"station_id":"ce4bhgp2rcd13ifvqfc0","pricing_plan_id":"cebpf4jnsgd1na2vs0mg"},{"bike_id":"4109d8e5-ee89-42d5-a586-abdf1a2487b4","system_id":"levelo_inurba_marseille","lat":43.30438,"lon":5.38886,"is_reserved":false,"is_disabled":false,"rental_uris":{"android":"levelo://app?vid=4109d8e5-ee89-42d5-a586-abdf1a2487b4","ios":"levelo://app?vid=4109d8e5-ee89-42d5-a586-abdf1a2487b4"},"vehicle_type_id":"4","last_reported":1769969981,"current_range_meters":4000,"station_id":"ce4bgk12rcd13ifvqbi0","pricing_plan_id":"cebpf4jnsgd1na2vs0mg"},{"bike_id":"62d565ac-5504-479f-9e02-9d8e6fb0f92b","system_id":"levelo_inurba_marseille","lat":43.26765,"lon":5.39423,"is_reserved":false,"is_disabled":false,"rental_uris":{"android":"levelo://app?vid=62d565ac-5504-479f-9e02-9d8e6fb0f92b","ios":"levelo://app?vid=62d565ac-5504-479f-9e02-9d8e6fb0f92b"},"vehicle_type_id":"4","last_reported":1769969981,"current_range_meters":4000,"station_id":"ce4bhh12rcd13ifvqfg0","pricing_plan_id":"cebpf4jnsgd1na2vs0mg"},{"bike_id":"5be20501-8e04-4673-9119-891aadf1acc1","system_id":"levelo_inurba_marseille","lat":43.28477,"lon":5.48401,"is_reserved":false,"is_disabled":false,"rental_uris":{"android":"levelo://app?vid=5be20501-8e04-4673-9119-891aadf1acc1","ios":"levelo://app?vid=5be20501-8e04-4673-9119-891aadf1acc1"},"vehicle_type_id":"4","last_reported":1769969981,"current_range_meters":4000,"station_id":"","pricing_plan_id":"cebpf4jnsgd1na2vs0mg"},{"bike_id":"0e681b67-3fdf-40b6-b942-590e1536d0c5","system_id":"levelo_inurba_marseille","lat":43.24394,"lon":5.3707,"is_reserved":false,"is_disabled":false,"rental_uris":{"android":"levelo://app?vid=0e681b67-3fdf-40b6-b942-590e1536d0c5","ios":"levelo://app?vid=0e681b67-3fdf-40b6-b942-590e1536d0c5"},"vehicle_type_id":"4","last_reported":1769969981,"current_range_meters":4000,"station_id":"ce4bhhh2rcd13ifvqfk0","pricing_plan_id":"cebpf4jnsgd1na2vs0mg"},{"bike_id":"52609dc9-0979-4681-a70c-5a21845e7d69","system_id":"levelo_inurba_marseille","lat":43.3042,"lon":5.4128,"is_reserved":false,"is_disabled":false,"rental_uris":{"android":"levelo://app?vid=52609dc9-0979-4681-a70c-5a21845e7d69","ios":"levelo://app?vid=52609dc9-0979-4681-a70c-5a21845e7d69"},"vehicle_type_id":"4","last_reported":1769969981,"current_range_meters":4000,"station_id":"ce4bhop2rcd13ifvqh8g","pricing_plan_id":"cebpf4jnsgd1na2vs0mg"},{"bike_id":"74856cd2-f709-469e-b628-27ee18812e7c","system_id":"levelo_inurba_marseille","lat":43.28149,"lon":5.42639,"is_reserved":false,"is_disabled":false,"rental_uris":{"android":"levelo://app?vid=74856cd2-f709-469e-b628-27ee18812e7c","ios":"levelo://app?vid=74856cd2-f709-469e-b628-27ee18812e7c"},"vehicle_type_id":"4","last_reported":1769969981,"current_range_meters":4000,"station_id":"ce4bhnh2rcd13ifvqgug","pricing_plan_id":"cebpf4jnsgd1na2vs0mg"},{"bike_id":"3d356010-648b-4cbc-9599-9c067fe7aed5","system_id":"levelo_inurba_marseille","lat":43.30276,"lon":5.37709,"is_reserved":false,"is_disabled":false,"rental_uris":{"android":"levelo://app?vid=3d356010-648b-4cbc-9599-9c067fe7aed5","ios":"levelo://app?vid=3d356010-648b-4cbc-9599-9c067fe7aed5"},"vehicle_type_id":"4","last_reported":1769969981,"current_range_meters":4000,"station_id":"ce4bguh2rcd13ifvqcj0","pricing_plan_id":"cebpf4jnsgd1na2vs0mg"},{"bike_id":"819e953f-a22f-4af1-8e39-64ffb3a9c92c","system_id":"levelo_inurba_marseille","lat":43.29265,"lon":5.38447,"is_reserved":false,"is_disabled":false,"rental_uris":{"android":"levelo://app?vid=819e953f-a22f-4af1-8e39-64ffb3a9c92c","ios":"levelo://app?vid=819e953f-a22f-4af1-8e39-64ffb3a9c92c"},"vehicle_type_id":"4","last_reported":1769969981,"current_range_meters":4000,"station_id":"ce4bh692rcd13ifvqea0","pricing_plan_id":"cebpf4jnsgd1na2vs0mg"},{"bike_id":"e0cee36f-bf7e-47b9-9bca-f3883a8ef5f7","system_id":"levelo_inurba_marseille","lat":43.31266,"lon":5.40171,"is_reserved":false,"is_disabled":false,"rental_uris":{"android":"levelo://app?vid=e0cee36f-bf7e-47b9-9bca-f3883a8ef5f7","ios":"levelo://app?vid=e0cee36f-bf7e-47b9-9bca-f3883a8ef5f7"},"vehicle_type_id":"4","last_reported":1769969981,"current_range_meters":4000,"station_id":"ce4bh092rcd13ifvqd30","pricing_plan_id":"cebpf4jnsgd1na2vs0mg"},{"bike_id":"d5e67bfe-03c5-4643-9903-6eac267b87da","system_id":"levelo_inurba_marseille","lat":43.23961,"lon":5.37913,"is_reserved":false,"is_disabled":false,"rental_uris":{"android":"levelo://app?vid=d5e67bfe-03c5-4643-9903-6eac267b87da","ios":"levelo://app?vid=d5e67bfe-03c5-4643-9903-6eac267b87da"},"vehicle_type_id":"4","last_reported":1769969981,"current_range_meters":4000,"station_id":"","pricing_plan_id":"cebpf4jnsgd1na2vs0mg"},{"bike_id":"8f843ca3-d41f-45d7-a1ea-c554adc815ab","system_id":"levelo_inurba_marseille","lat":43.250897,"lon":5.395246,"is_reserved":false,"is_disabled":false,"rental_uris":{"android":"levelo://app?vid=8f843ca3-d41f-45d7-a1ea-c554adc815ab","ios":"levelo://app?vid=8f843ca3-d41f-45d7-a1ea-c554adc815ab"},"vehicle_type_id":"4","last_reported":1769969981,"current_range_meters":4400,"station_id":"ce4bhm12rcd13ifvqgkg","pricing_plan_id":"cebpf4jnsgd1na2vs0mg"},{"bike_id":"69a12575-b1fa-4118-b4da-3c87f92eddc5","system_id":"levelo_inurba_marseille","lat":43.29539,"lon":5.37501,"is_reserved":false,"is_disabled":false,"rental_uris":{"android":"levelo://app?vid=69a12575-b1fa-4118-b4da-3c87f92eddc5","ios":"levelo://app?vid=69a12575-b1fa-4118-b4da-3c87f92eddc5"},"vehicle_type_id":"4","last_reported":1769969981,"current_range_meters":4400,"station_id":"ce4bgkp2rcd13ifvqbmg","pricing_plan_id":"cebpf4jnsgd1na2vs0mg"},{"bike_id":"a0f4c4d9-b17d-4551-87f4-b3e192df9153","system_id":"levelo_inurba_marseille","lat":43.23038,"lon":5.35484,"is_reserved":false,"is_disabled":false,"rental_uris":{"android":"levelo://app?vid=a0f4c4d9-b17d-4551-87f4-b3e192df9153","ios":"levelo://app?vid=a0f4c4d9-b17d-4551-87f4-b3e192df9153"},"vehicle_type_id":"4","last_reported":1769969981,"current_range_meters":4400,"station_id":"cpo3342slgdg3j2ifvpg","pricing_plan_id":"cebpf4jnsgd1na2vs0mg"},{"bike_id":"d1b2de6f-6e6c-4d4d-aa15-d5ac74f9da94","system_id":"levelo_inurba_marseille","lat":43.284736,"lon":5.384151,"is_reserved":false,"is_disabled":false,"rental_uris":{"android":"levelo://app?vid=d1b2de6f-6e6c-4d4d-aa15-d5ac74f9da94","ios":"levelo://app?vid=d1b2de6f-6e6c-4d4d-aa15-d5ac74f9da94"},"vehicle_type_id":"4","last_reported":1769969981,"current_range_meters":4400,"station_id":"ce4bh512rcd13ifvqe3g","pricing_plan_id":"cebpf4jnsgd1na2vs0mg"},{"bike_id":"f6dad7fe-c64e-4cd4-acac-d6cf566da82b","system_id":"levelo_inurba_marseille","lat":43.286964,"lon":5.373936,"is_reserved":false,"is_disabled":false,"rental_uris":{"android":"levelo://app?vid=f6dad7fe-c64e-4cd4-acac-d6cf566da82b","ios":"levelo://app?vid=f6dad7fe-c64e-4cd4-acac-d6cf566da82b"},"vehicle_type_id":"4","last_reported":1769969981,"current_range_meters":4400,"station_id":"ce4bh3p2rcd13ifvqdq0","pricing_plan_id":"cebpf4jnsgd1na2vs0mg"},{"bike_id":"519cc48e-d066-4eae-ab86-d197d14dc892","system_id":"levelo_inurba_marseille","lat":43.298847,"lon":5.397296,"is_reserved":false,"is_disabled":false,"rental_uris":{"android":"levelo://app?vid=519cc48e-d066-4eae-ab86-d197d14dc892","ios":"levelo://app?vid=519cc48e-d066-4eae-ab86-d197d14dc892"},"vehicle_type_id":"4","last_reported":1769969981,"current_range_meters":4400,"station_id":"ce4bh312rcd13ifvqdj0","pricing_plan_id":"cebpf4jnsgd1na2vs0mg"},{"bike_id":"ea996b6a-e4df-4475-a81a-600ad94271b6","system_id":"levelo_inurba_marseille","lat":43.30315,"lon":5.39768,"is_reserved":false,"is_disabled":false,"rental_uris":{"android":"levelo://app?vid=ea996b6a-e4df-4475-a81a-600ad94271b6","ios":"levelo://app?vid=ea996b6a-e4df-4475-a81a-600ad94271b6"},"vehicle_type_id":"4","last_reported":1769969981,"current_range_meters":4400,"station_id":"","pricing_plan_id":"cebpf4jnsgd1na2vs0mg"},{"bike_id":"d651559f-ebd3-4bcf-abfc-167cb96a457e","system_id":"levelo_inurba_marseille","lat":43.288593,"lon":5.425182,"is_reserved":false,"is_disabled":false,"rental_uris":{"android":"levelo://app?vid=d651559f-ebd3-4bcf-abfc-167cb96a457e","ios":"levelo://app?vid=d651559f-ebd3-4bcf-abfc-167cb96a457e"},"vehicle_type_id":"4","last_reported":1769969981,"current_range_meters":4400,"station_id":"st_d3b462108ojc7389ooeg","pricing_plan_id":"cebpf4jnsgd1na2vs0mg"},{"bike_id":"3a9d9d6b-764f-4558-a4a3-5611921af6a1","system_id":"levelo_inurba_marseille","lat":43.27942,"lon":5.41042,"is_reserved":false,"is_disabled":false,"rental_uris":{"android":"levelo://app?vid=3a9d9d6b-764f-4558-a4a3-5611921af6a1","ios":"levelo://app?vid=3a9d9d6b-764f-4558-a4a3-5611921af6a1"},"vehicle_type_id":"4","last_reported":1769969981,"current_range_meters":4400,"station_id":"ce4bhnp2rcd13ifvqh0g","pricing_plan_id":"cebpf4jnsgd1na2vs0mg"},{"bike_id":"0ebf6093-2d2d-453d-84a6-c92acfc7b71f","system_id":"levelo_inurba_marseille","lat":43.28224,"lon":5.39018,"is_reserved":false,"is_disabled":false,"rental_uris":{"android":"levelo://app?vid=0ebf6093-2d2d-453d-84a6-c92acfc7b71f","ios":"levelo://app?vid=0ebf6093-2d2d-453d-84a6-c92acfc7b71f"},"vehicle_type_id":"4","last_reported":1769969981,"current_range_meters":4400,"station_id":"ce4bhn92rcd13ifvqgsg","pricing_plan_id":"cebpf4jnsgd1na2vs0mg"},{"bike_id":"2d2b1675-0701-46a0-947b-c00e06e1e30f","system_id":"levelo_inurba_marseille","lat":43.25059,"lon":5.39517,"is_reserved":false,"is_disabled":false,"rental_uris":{"android":"levelo://app?vid=2d2b1675-0701-46a0-947b-c00e06e1e30f","ios":"levelo://app?vid=2d2b1675-0701-46a0-947b-c00e06e1e30f"},"vehicle_type_id":"4","last_reported":1769969981,"current_range_meters":4400,"station_id":"ce4bhm12rcd13ifvqgkg","pricing_plan_id":"cebpf4jnsgd1na2vs0mg"},{"bike_id":"92c39e43-0cd4-4171-abec-21e14bf07368","system_id":"levelo_inurba_marseille","lat":43.25581,"lon":5.38236,"is_reserved":false,"is_disabled":false,"rental_uris":{"android":"levelo://app?vid=92c39e43-0cd4-4171-abec-21e14bf07368","ios":"levelo://app?vid=92c39e43-0cd4-4171-abec-21e14bf07368"},"vehicle_type_id":"4","last_reported":1769969981,"current_range_meters":4400,"station_id":"ce4bhih2rcd13ifvqfs0","pricing_plan_id":"cebpf4jnsgd1na2vs0mg"},{"bike_id":"e701a3f7-2e1f-487e-bad5-83c9140f1723","system_id":"levelo_inurba_marseille","lat":43.31807,"lon":5.3737,"is_reserved":false,"is_disabled":false,"rental_uris":{"android":"levelo://app?vid=e701a3f7-2e1f-487e-bad5-83c9140f1723","ios":"levelo://app?vid=e701a3f7-2e1f-487e-bad5-83c9140f1723"},"vehicle_type_id":"4","last_reported":1769969981,"current_range_meters":4400,"station_id":"","pricing_plan_id":"cebpf4jnsgd1na2vs0mg"},{"bike_id":"349ffee7-dd01-4ac4-8635-76b3275f7483","system_id":"levelo_inurba_marseille","lat":43.27943,"lon":5.41053,"is_reserved":false,"is_disabled":false,"rental_uris":{"android":"levelo://app?vid=349ffee7-dd01-4ac4-8635-76b3275f7483","ios":"levelo://app?vid=349ffee7-dd01-4ac4-8635-76b3275f7483"},"vehicle_type_id":"4","last_reported":1769969981,"current_range_meters":4400,"station_id":"ce4bhnp2rcd13ifvqh0g","pricing_plan_id":"cebpf4jnsgd1na2vs0mg"},{"bike_id":"bd0b3557-9fd7-4e9c-b122-eda4f40b316d","system_id":"levelo_inurba_marseille","lat":43.24812,"lon":5.37458,"is_reserved":false,"is_disabled":false,"rental_uris":{"android":"levelo://app?vid=bd0b3557-9fd7-4e9c-b122-eda4f40b316d","ios":"levelo://app?vid=bd0b3557-9fd7-4e9c-b122-eda4f40b316d"},"vehicle_type_id":"4","last_reported":1769969981,"current_range_meters":4800,"station_id":"ce4bhgh2rcd13ifvqfb0","pricing_plan_id":"cebpf4jnsgd1na2vs0mg"},{"bike_id":"cda423b0-114c-4365-aeb1-89fb80c8de39","system_id":"levelo_inurba_marseille","lat":43.24773,"lon":5.37503,"is_reserved":false,"is_disabled":false,"rental_uris":{"android":"levelo://app?vid=cda423b0-114c-4365-aeb1-89fb80c8de39","ios":"levelo://app?vid=cda423b0-114c-4365-aeb1-89fb80c8de39"},"vehicle_type_id":"4","last_reported":1769969981,"current_range_meters":4800,"station_id":"","pricing_plan_id":"cebpf4jnsgd1na2vs0mg"},{"bike_id":"f63ad825-b273-458f-bf2e-2ef630e3fede","system_id":"levelo_inurba_marseille","lat":43.22561,"lon":5.41621,"is_reserved":false,"is_disabled":false,"rental_uris":{"android":"levelo://app?vid=f63ad825-b273-458f-bf2e-2ef630e3fede","ios":"levelo://app?vid=f63ad825-b273-458f-bf2e-2ef630e3fede"},"vehicle_type_id":"4","last_reported":1769969981,"current_range_meters":4800,"station_id":"st_d2o4gvlbi1j2169b742g","pricing_plan_id":"cebpf4jnsgd1na2vs0mg"},{"bike_id":"1b85baa8-054d-452c-96ac-e14de5f87229","system_id":"levelo_inurba_marseille","lat":43.26554,"lon":5.40303,"is_reserved":false,"is_disabled":false,"rental_uris":{"android":"levelo://app?vid=1b85baa8-054d-452c-96ac-e14de5f87229","ios":"levelo://app?vid=1b85baa8-054d-452c-96ac-e14de5f87229"},"vehicle_type_id":"4","last_reported":1769969981,"current_range_meters":4800,"station_id":"ce4bhmp2rcd13ifvqgng","pricing_plan_id":"cebpf4jnsgd1na2vs0mg"},{"bike_id":"fb793f9e-27c8-4aa6-9e5b-d172f980944b","system_id":"levelo_inurba_marseille","lat":43.27939,"lon":5.41033,"is_reserved":false,"is_disabled":true,"rental_uris":{"android":"levelo://app?vid=fb793f9e-27c8-4aa6-9e5b-d172f980944b","ios":"levelo://app?vid=fb793f9e-27c8-4aa6-9e5b-d172f980944b"},"vehicle_type_id":"4","last_reported":1769969981,"current_range_meters":4800,"station_id":"ce4bhnp2rcd13ifvqh0g","pricing_plan_id":"cebpf4jnsgd1na2vs0mg"},{"bike_id":"7a4412cf-c498-4121-be46-049419c026d4","system_id":"levelo_inurba_marseille","lat":43.2794,"lon":5.41036,"is_reserved":false,"is_disabled":false,"rental_uris":{"android":"levelo://app?vid=7a4412cf-c498-4121-be46-049419c026d4","ios":"levelo://app?vid=7a4412cf-c498-4121-be46-049419c026d4"},"vehicle_type_id":"4","last_reported":1769969981,"current_range_meters":4800,"station_id":"ce4bhnp2rcd13ifvqh0g","pricing_plan_id":"cebpf4jnsgd1na2vs0mg"},{"bike_id":"e66c0050-63ae-4842-902f-7ed4f4ed8737","system_id":"levelo_inurba_marseille","lat":43.22562,"lon":5.41615,"is_reserved":false,"is_disabled":false,"rental_uris":{"android":"levelo://app?vid=e66c0050-63ae-4842-902f-7ed4f4ed8737","ios":"levelo://app?vid=e66c0050-63ae-4842-902f-7ed4f4ed8737"},"vehicle_type_id":"4","last_reported":1769969981,"current_range_meters":4800,"station_id":"st_d2o4gvlbi1j2169b742g","pricing_plan_id":"cebpf4jnsgd1na2vs0mg"},{"bike_id":"2618561d-cd06-4493-b916-9511a3eac222","system_id":"levelo_inurba_marseille","lat":43.27379,"lon":5.36253,"is_reserved":false,"is_disabled":false,"rental_uris":{"android":"levelo://app?vid=2618561d-cd06-4493-b916-9511a3eac222","ios":"levelo://app?vid=2618561d-cd06-4493-b916-9511a3eac222"},"vehicle_type_id":"4","last_reported":1769969981,"current_range_meters":4800,"station_id":"ce4bhbh2rcd13ifvqeo0","pricing_plan_id":"cebpf4jnsgd1na2vs0mg"},{"bike_id":"a6e26a0f-f73b-4462-82cf-9518bca8be33","system_id":"levelo_inurba_marseille","lat":43.27367,"lon":5.3626,"is_reserved":false,"is_disabled":false,"rental_uris":{"android":"levelo://app?vid=a6e26a0f-f73b-4462-82cf-9518bca8be33","ios":"levelo://app?vid=a6e26a0f-f73b-4462-82cf-9518bca8be33"},"vehicle_type_id":"4","last_reported":1769969981,"current_range_meters":4800,"station_id":"ce4bhbh2rcd13ifvqeo0","pricing_plan_id":"cebpf4jnsgd1na2vs0mg"},{"bike_id":"205de095-eacc-4be6-88a9-b763d1b144d1","system_id":"levelo_inurba_marseille","lat":43.29263,"lon":5.37618,"is_reserved":false,"is_disabled":false,"rental_uris":{"android":"levelo://app?vid=205de095-eacc-4be6-88a9-b763d1b144d1","ios":"levelo://app?vid=205de095-eacc-4be6-88a9-b763d1b144d1"},"vehicle_type_id":"4","last_reported":1769969981,"current_range_meters":4800,"station_id":"ce4bgi12rcd13ifvqb80","pricing_plan_id":"cebpf4jnsgd1na2vs0mg"},{"bike_id":"8b812ece-5848-41fd-bc5a-8934053df55c","system_id":"levelo_inurba_marseille","lat":43.28746,"lon":5.36081,"is_reserved":false,"is_disabled":false,"rental_uris":{"android":"levelo://app?vid=8b812ece-5848-41fd-bc5a-8934053df55c","ios":"levelo://app?vid=8b812ece-5848-41fd-bc5a-8934053df55c"},"vehicle_type_id":"4","last_reported":1769969981,"current_range_meters":4800,"station_id":"cki0cbj6b192h4jlfktg","pricing_plan_id":"cebpf4jnsgd1na2vs0mg"},{"bike_id":"c3ceccbe-0583-4066-b2e4-bb8aa25aea5f","system_id":"levelo_inurba_marseille","lat":43.31171,"lon":5.38714,"is_reserved":false,"is_disabled":false,"rental_uris":{"android":"levelo://app?vid=c3ceccbe-0583-4066-b2e4-bb8aa25aea5f","ios":"levelo://app?vid=c3ceccbe-0583-4066-b2e4-bb8aa25aea5f"},"vehicle_type_id":"4","last_reported":1769969981,"current_range_meters":5600,"station_id":"ce4bgv12rcd13ifvqcp0","pricing_plan_id":"cebpf4jnsgd1na2vs0mg"},{"bike_id":"ec77c27c-93c9-4c58-b70c-9c56f74ef4ba","system_id":"levelo_inurba_marseille","lat":43.31119,"lon":5.37771,"is_reserved":false,"is_disabled":false,"rental_uris":{"android":"levelo://app?vid=ec77c27c-93c9-4c58-b70c-9c56f74ef4ba","ios":"levelo://app?vid=ec77c27c-93c9-4c58-b70c-9c56f74ef4ba"},"vehicle_type_id":"4","last_reported":1769969981,"current_range_meters":5600,"station_id":"ce4bgt92rcd13ifvqcg0","pricing_plan_id":"cebpf4jnsgd1na2vs0mg"},{"bike_id":"859f59e3-0ec2-41ef-9ec9-60f3d42725a1","system_id":"levelo_inurba_marseille","lat":43.30086,"lon":5.39076,"is_reserved":false,"is_disabled":false,"rental_uris":{"android":"levelo://app?vid=859f59e3-0ec2-41ef-9ec9-60f3d42725a1","ios":"levelo://app?vid=859f59e3-0ec2-41ef-9ec9-60f3d42725a1"},"vehicle_type_id":"4","last_reported":1769969981,"current_range_meters":5600,"station_id":"ce4bh192rcd13ifvqdb0","pricing_plan_id":"cebpf4jnsgd1na2vs0mg"},{"bike_id":"20e84b8e-4c28-4985-ac07-fcb15f6542ca","system_id":"levelo_inurba_marseille","lat":43.28466,"lon":5.35898,"is_reserved":false,"is_disabled":false,"rental_uris":{"android":"levelo://app?vid=20e84b8e-4c28-4985-ac07-fcb15f6542ca","ios":"levelo://app?vid=20e84b8e-4c28-4985-ac07-fcb15f6542ca"},"vehicle_type_id":"4","last_reported":1769969981,"current_range_meters":5600,"station_id":"ce4bhah2rcd13ifvqei0","pricing_plan_id":"cebpf4jnsgd1na2vs0mg"},{"bike_id":"5eda1ae5-c334-4bdc-a838-0870ce200ee1","system_id":"levelo_inurba_marseille","lat":43.28943,"lon":5.36408,"is_reserved":false,"is_disabled":false,"rental_uris":{"android":"levelo://app?vid=5eda1ae5-c334-4bdc-a838-0870ce200ee1","ios":"levelo://app?vid=5eda1ae5-c334-4bdc-a838-0870ce200ee1"},"vehicle_type_id":"4","last_reported":1769969981,"current_range_meters":5600,"station_id":"ce4bhc92rcd13ifvqetg","pricing_plan_id":"cebpf4jnsgd1na2vs0mg"},{"bike_id":"7a8af96d-09b5-42bf-bbf5-e6b3248a09dc","system_id":"levelo_inurba_marseille","lat":43.3127,"lon":5.40168,"is_reserved":false,"is_disabled":false,"rental_uris":{"android":"levelo://app?vid=7a8af96d-09b5-42bf-bbf5-e6b3248a09dc","ios":"levelo://app?vid=7a8af96d-09b5-42bf-bbf5-e6b3248a09dc"},"vehicle_type_id":"4","last_reported":1769969981,"current_range_meters":5600,"station_id":"ce4bh092rcd13ifvqd30","pricing_plan_id":"cebpf4jnsgd1na2vs0mg"},{"bike_id":"f8a0ae1c-a37d-4006-8541-a752d1a3cea9","system_id":"levelo_inurba_marseille","lat":43.29655,"lon":5.40119,"is_reserved":false,"is_disabled":false,"rental_uris":{"android":"levelo://app?vid=f8a0ae1c-a37d-4006-8541-a752d1a3cea9","ios":"levelo://app?vid=f8a0ae1c-a37d-4006-8541-a752d1a3cea9"},"vehicle_type_id":"4","last_reported":1769969981,"current_range_meters":5600,"station_id":"","pricing_plan_id":"cebpf4jnsgd1na2vs0mg"},{"bike_id":"0d9d3404-87e5-4955-8e5f-cc6505a9e73e","system_id":"levelo_inurba_marseille","lat":43.22939,"lon":5.35379,"is_reserved":false,"is_disabled":false,"rental_uris":{"android":"levelo://app?vid=0d9d3404-87e5-4955-8e5f-cc6505a9e73e","ios":"levelo://app?vid=0d9d3404-87e5-4955-8e5f-cc6505a9e73e"},"vehicle_type_id":"4","last_reported":1769969981,"current_range_meters":5600,"station_id":"cpo3532slgdg3j2ikp40","pricing_plan_id":"cebpf4jnsgd1na2vs0mg"},{"bike_id":"759ad7f6-9b09-419e-a616-98ef4c5cbbaf","system_id":"levelo_inurba_marseille","lat":43.29269,"lon":5.38446,"is_reserved":false,"is_disabled":false,"rental_uris":{"android":"levelo://app?vid=759ad7f6-9b09-419e-a616-98ef4c5cbbaf","ios":"levelo://app?vid=759ad7f6-9b09-419e-a616-98ef4c5cbbaf"},"vehicle_type_id":"4","last_reported":1769969981,"current_range_meters":5600,"station_id":"ce4bh692rcd13ifvqea0","pricing_plan_id":"cebpf4jnsgd1na2vs0mg"},{"bike_id":"48d64745-5a71-49d4-863c-6d912fff33e9","system_id":"levelo_inurba_marseille","lat":43.28355,"lon":5.38102,"is_reserved":false,"is_disabled":false,"rental_uris":{"android":"levelo://app?vid=48d64745-5a71-49d4-863c-6d912fff33e9","ios":"levelo://app?vid=48d64745-5a71-49d4-863c-6d912fff33e9"},"vehicle_type_id":"4","last_reported":1769969981,"current_range_meters":5600,"station_id":"ce4bh412rcd13ifvqdr0","pricing_plan_id":"cebpf4jnsgd1na2vs0mg"},{"bike_id":"4eba6052-b05f-4692-8caa-97d49803892c","system_id":"levelo_inurba_marseille","lat":43.30219,"lon":5.3947,"is_reserved":false,"is_disabled":false,"rental_uris":{"android":"levelo://app?vid=4eba6052-b05f-4692-8caa-97d49803892c","ios":"levelo://app?vid=4eba6052-b05f-4692-8caa-97d49803892c"},"vehicle_type_id":"4","last_reported":1769969981,"current_range_meters":5600,"station_id":"ce4bh0p2rcd13ifvqd70","pricing_plan_id":"cebpf4jnsgd1na2vs0mg"},{"bike_id":"7dc92568-a96c-433d-8f98-d4f8c606a6e3","system_id":"levelo_inurba_marseille","lat":43.29275,"lon":5.40121,"is_reserved":false,"is_disabled":false,"rental_uris":{"android":"levelo://app?vid=7dc92568-a96c-433d-8f98-d4f8c606a6e3","ios":"levelo://app?vid=7dc92568-a96c-433d-8f98-d4f8c606a6e3"},"vehicle_type_id":"4","last_reported":1769969981,"current_range_meters":5600,"station_id":"ce4bh312rcd13ifvqdk0","pricing_plan_id":"cebpf4jnsgd1na2vs0mg"},{"bike_id":"928a5b5c-a13f-47f5-89d0-7cd1422010e6","system_id":"levelo_inurba_marseille","lat":43.31096,"lon":5.38449,"is_reserved":false,"is_disabled":false,"rental_uris":{"android":"levelo://app?vid=928a5b5c-a13f-47f5-89d0-7cd1422010e6","ios":"levelo://app?vid=928a5b5c-a13f-47f5-89d0-7cd1422010e6"},"vehicle_type_id":"4","last_reported":1769969981,"current_range_meters":5600,"station_id":"","pricing_plan_id":"cebpf4jnsgd1na2vs0mg"},{"bike_id":"196eba90-9b07-4a32-a438-467a9b2b9a57","system_id":"levelo_inurba_marseille","lat":43.297115,"lon":5.376914,"is_reserved":false,"is_disabled":false,"rental_uris":{"android":"levelo://app?vid=196eba90-9b07-4a32-a438-467a9b2b9a57","ios":"levelo://app?vid=196eba90-9b07-4a32-a438-467a9b2b9a57"},"vehicle_type_id":"4","last_reported":1769969981,"current_range_meters":5600,"station_id":"ce4bgkh2rcd13ifvqbl0","pricing_plan_id":"cebpf4jnsgd1na2vs0mg"},{"bike_id":"d8d7d7c6-6bfe-4fb0-85f9-b02b994f2a2a","system_id":"levelo_inurba_marseille","lat":43.29229,"lon":5.36044,"is_reserved":false,"is_disabled":true,"rental_uris":{"android":"levelo://app?vid=d8d7d7c6-6bfe-4fb0-85f9-b02b994f2a2a","ios":"levelo://app?vid=d8d7d7c6-6bfe-4fb0-85f9-b02b994f2a2a"},"vehicle_type_id":"4","last_reported":1769969981,"current_range_meters":6000,"station_id":"ce4bhbh2rcd13ifvqeqg","pricing_plan_id":"cebpf4jnsgd1na2vs0mg"},{"bike_id":"3f016251-f617-46a2-8e71-d5c73095e4c4","system_id":"levelo_inurba_marseille","lat":43.29016,"lon":5.35606,"is_reserved":false,"is_disabled":true,"rental_uris":{"android":"levelo://app?vid=3f016251-f617-46a2-8e71-d5c73095e4c4","ios":"levelo://app?vid=3f016251-f617-46a2-8e71-d5c73095e4c4"},"vehicle_type_id":"4","last_reported":1769969981,"current_range_meters":6000,"station_id":"ce4bhb92rcd13ifvqen0","pricing_plan_id":"cebpf4jnsgd1na2vs0mg"},{"bike_id":"4bf50099-7288-4f24-87c7-44039c046e7f","system_id":"levelo_inurba_marseille","lat":43.26681,"lon":5.38272,"is_reserved":false,"is_disabled":false,"rental_uris":{"android":"levelo://app?vid=4bf50099-7288-4f24-87c7-44039c046e7f","ios":"levelo://app?vid=4bf50099-7288-4f24-87c7-44039c046e7f"},"vehicle_type_id":"4","last_reported":1769969981,"current_range_meters":6000,"station_id":"ce4bhg92rcd13ifvqf90","pricing_plan_id":"cebpf4jnsgd1na2vs0mg"},{"bike_id":"edc941b1-f353-445c-9d94-872b4e912ef7","system_id":"levelo_inurba_marseille","lat":43.26795,"lon":5.39421,"is_reserved":false,"is_disabled":false,"rental_uris":{"android":"levelo://app?vid=edc941b1-f353-445c-9d94-872b4e912ef7","ios":"levelo://app?vid=edc941b1-f353-445c-9d94-872b4e912ef7"},"vehicle_type_id":"4","last_reported":1769969981,"current_range_meters":6000,"station_id":"ce4bhh12rcd13ifvqfg0","pricing_plan_id":"cebpf4jnsgd1na2vs0mg"},{"bike_id":"004df261-4f08-4a49-a173-244244948504","system_id":"levelo_inurba_marseille","lat":43.29752,"lon":5.37749,"is_reserved":false,"is_disabled":false,"rental_uris":{"android":"levelo://app?vid=004df261-4f08-4a49-a173-244244948504","ios":"levelo://app?vid=004df261-4f08-4a49-a173-244244948504"},"vehicle_type_id":"4","last_reported":1769969981,"current_range_meters":6000,"station_id":"","pricing_plan_id":"cebpf4jnsgd1na2vs0mg"},{"bike_id":"1b262235-a4c8-42b2-9b62-c37b9e14300f","system_id":"levelo_inurba_marseille","lat":43.27804,"lon":5.4073,"is_reserved":false,"is_disabled":false,"rental_uris":{"android":"levelo://app?vid=1b262235-a4c8-42b2-9b62-c37b9e14300f","ios":"levelo://app?vid=1b262235-a4c8-42b2-9b62-c37b9e14300f"},"vehicle_type_id":"4","last_reported":1769969981,"current_range_meters":6000,"station_id":"ce4bhnh2rcd13ifvqgtg","pricing_plan_id":"cebpf4jnsgd1na2vs0mg"},{"bike_id":"360a7cc4-4a14-4903-a69b-231671ec0884","system_id":"levelo_inurba_marseille","lat":43.27843,"lon":5.39183,"is_reserved":false,"is_disabled":false,"rental_uris":{"android":"levelo://app?vid=360a7cc4-4a14-4903-a69b-231671ec0884","ios":"levelo://app?vid=360a7cc4-4a14-4903-a69b-231671ec0884"},"vehicle_type_id":"4","last_reported":1769969981,"current_range_meters":6000,"station_id":"ce4bhjp2rcd13ifvqga0","pricing_plan_id":"cebpf4jnsgd1na2vs0mg"},{"bike_id":"35321c53-c7e0-4ca6-b81e-4e15b9397397","system_id":"levelo_inurba_marseille","lat":43.30339,"lon":5.40447,"is_reserved":false,"is_disabled":false,"rental_uris":{"android":"levelo://app?vid=35321c53-c7e0-4ca6-b81e-4e15b9397397","ios":"levelo://app?vid=35321c53-c7e0-4ca6-b81e-4e15b9397397"},"vehicle_type_id":"4","last_reported":1769969981,"current_range_meters":6000,"station_id":"ce4bh012rcd13ifvqd10","pricing_plan_id":"cebpf4jnsgd1na2vs0mg"},{"bike_id":"8175ed3d-88ce-4883-b5ec-5305f42e5da2","system_id":"levelo_inurba_marseille","lat":43.27911,"lon":5.39585,"is_reserved":false,"is_disabled":false,"rental_uris":{"android":"levelo://app?vid=8175ed3d-88ce-4883-b5ec-5305f42e5da2","ios":"levelo://app?vid=8175ed3d-88ce-4883-b5ec-5305f42e5da2"},"vehicle_type_id":"4","last_reported":1769969981,"current_range_meters":6000,"station_id":"ce4bhf92rcd13ifvqf40","pricing_plan_id":"cebpf4jnsgd1na2vs0mg"},{"bike_id":"ff6065a2-0e71-4d35-8eda-c24b991ceb70","system_id":"levelo_inurba_marseille","lat":43.27378,"lon":5.36254,"is_reserved":false,"is_disabled":false,"rental_uris":{"android":"levelo://app?vid=ff6065a2-0e71-4d35-8eda-c24b991ceb70","ios":"levelo://app?vid=ff6065a2-0e71-4d35-8eda-c24b991ceb70"},"vehicle_type_id":"4","last_reported":1769969981,"current_range_meters":6000,"station_id":"ce4bhbh2rcd13ifvqeo0","pricing_plan_id":"cebpf4jnsgd1na2vs0mg"},{"bike_id":"970ba11e-f371-42a9-818d-afb81d1debdc","system_id":"levelo_inurba_marseille","lat":43.25867,"lon":5.39897,"is_reserved":false,"is_disabled":false,"rental_uris":{"android":"levelo://app?vid=970ba11e-f371-42a9-818d-afb81d1debdc","ios":"levelo://app?vid=970ba11e-f371-42a9-818d-afb81d1debdc"},"vehicle_type_id":"4","last_reported":1769969981,"current_range_meters":6000,"station_id":"ce4bhl92rcd13ifvqghg","pricing_plan_id":"cebpf4jnsgd1na2vs0mg"},{"bike_id":"5992fe4b-e612-4aea-8f95-9cf98c6641ff","system_id":"levelo_inurba_marseille","lat":43.29274,"lon":5.38443,"is_reserved":false,"is_disabled":false,"rental_uris":{"android":"levelo://app?vid=5992fe4b-e612-4aea-8f95-9cf98c6641ff","ios":"levelo://app?vid=5992fe4b-e612-4aea-8f95-9cf98c6641ff"},"vehicle_type_id":"4","last_reported":1769969981,"current_range_meters":6000,"station_id":"ce4bh692rcd13ifvqea0","pricing_plan_id":"cebpf4jnsgd1na2vs0mg"},{"bike_id":"e19dcbee-55f5-4a14-8d7c-7f5193d4d389","system_id":"levelo_inurba_marseille","lat":43.27949,"lon":5.41049,"is_reserved":false,"is_disabled":false,"rental_uris":{"android":"levelo://app?vid=e19dcbee-55f5-4a14-8d7c-7f5193d4d389","ios":"levelo://app?vid=e19dcbee-55f5-4a14-8d7c-7f5193d4d389"},"vehicle_type_id":"4","last_reported":1769969981,"current_range_meters":6000,"station_id":"ce4bhnp2rcd13ifvqh0g","pricing_plan_id":"cebpf4jnsgd1na2vs0mg"},{"bike_id":"6e2e9e6b-9180-4489-adb4-62a40596f5aa","system_id":"levelo_inurba_marseille","lat":43.29265,"lon":5.40895,"is_reserved":false,"is_disabled":false,"rental_uris":{"android":"levelo://app?vid=6e2e9e6b-9180-4489-adb4-62a40596f5aa","ios":"levelo://app?vid=6e2e9e6b-9180-4489-adb4-62a40596f5aa"},"vehicle_type_id":"4","last_reported":1769969981,"current_range_meters":6000,"station_id":"ce4bh192rcd13ifvqdc0","pricing_plan_id":"cebpf4jnsgd1na2vs0mg"},{"bike_id":"b91d0a82-1e7e-4c98-b392-1d095dbbc9b6","system_id":"levelo_inurba_marseille","lat":43.31522,"lon":5.38038,"is_reserved":false,"is_disabled":false,"rental_uris":{"android":"levelo://app?vid=b91d0a82-1e7e-4c98-b392-1d095dbbc9b6","ios":"levelo://app?vid=b91d0a82-1e7e-4c98-b392-1d095dbbc9b6"},"vehicle_type_id":"4","last_reported":1769969981,"current_range_meters":6000,"station_id":"ce4bhsp2rcd13ifvqi50","pricing_plan_id":"cebpf4jnsgd1na2vs0mg"},{"bike_id":"0c398d6c-e484-4527-83af-f5f0ca51bd77","system_id":"levelo_inurba_marseille","lat":43.29799,"lon":5.39347,"is_reserved":false,"is_disabled":false,"rental_uris":{"android":"levelo://app?vid=0c398d6c-e484-4527-83af-f5f0ca51bd77","ios":"levelo://app?vid=0c398d6c-e484-4527-83af-f5f0ca51bd77"},"vehicle_type_id":"4","last_reported":1769969981,"current_range_meters":6000,"station_id":"chh1huq6cuj3fo74tm60","pricing_plan_id":"cebpf4jnsgd1na2vs0mg"},{"bike_id":"462505fc-c395-4f91-9ae4-5b18f1fc42f2","system_id":"levelo_inurba_marseille","lat":43.29532,"lon":5.38551,"is_reserved":false,"is_disabled":false,"rental_uris":{"android":"levelo://app?vid=462505fc-c395-4f91-9ae4-5b18f1fc42f2","ios":"levelo://app?vid=462505fc-c395-4f91-9ae4-5b18f1fc42f2"},"vehicle_type_id":"4","last_reported":1769969981,"current_range_meters":6000,"station_id":"ce4bgih2rcd13ifvqba0","pricing_plan_id":"cebpf4jnsgd1na2vs0mg"},{"bike_id":"7584008c-8e0a-4441-bc43-9d9ae92b36a2","system_id":"levelo_inurba_marseille","lat":43.29524,"lon":5.38533,"is_reserved":false,"is_disabled":false,"rental_uris":{"android":"levelo://app?vid=7584008c-8e0a-4441-bc43-9d9ae92b36a2","ios":"levelo://app?vid=7584008c-8e0a-4441-bc43-9d9ae92b36a2"},"vehicle_type_id":"4","last_reported":1769969981,"current_range_meters":6000,"station_id":"ce4bgih2rcd13ifvqba0","pricing_plan_id":"cebpf4jnsgd1na2vs0mg"},{"bike_id":"79479160-05a6-47d1-9d42-838443764917","system_id":"levelo_inurba_marseille","lat":43.281084,"lon":5.378295,"is_reserved":false,"is_disabled":false,"rental_uris":{"android":"levelo://app?vid=79479160-05a6-47d1-9d42-838443764917","ios":"levelo://app?vid=79479160-05a6-47d1-9d42-838443764917"},"vehicle_type_id":"4","last_reported":1769969981,"current_range_meters":6000,"station_id":"ce4bha12rcd13ifvqee0","pricing_plan_id":"cebpf4jnsgd1na2vs0mg"},{"bike_id":"d24013f1-1c4e-4311-9b5b-055b5ff8fec1","system_id":"levelo_inurba_marseille","lat":43.29264,"lon":5.3843,"is_reserved":false,"is_disabled":false,"rental_uris":{"android":"levelo://app?vid=d24013f1-1c4e-4311-9b5b-055b5ff8fec1","ios":"levelo://app?vid=d24013f1-1c4e-4311-9b5b-055b5ff8fec1"},"vehicle_type_id":"4","last_reported":1769969981,"current_range_meters":6000,"station_id":"ce4bh692rcd13ifvqea0","pricing_plan_id":"cebpf4jnsgd1na2vs0mg"},{"bike_id":"0a8bd2b9-8f66-47cb-8794-72cdd9e9bbcd","system_id":"levelo_inurba_marseille","lat":43.27809,"lon":5.40712,"is_reserved":false,"is_disabled":false,"rental_uris":{"android":"levelo://app?vid=0a8bd2b9-8f66-47cb-8794-72cdd9e9bbcd","ios":"levelo://app?vid=0a8bd2b9-8f66-47cb-8794-72cdd9e9bbcd"},"vehicle_type_id":"4","last_reported":1769969981,"current_range_meters":6000,"station_id":"ce4bhnh2rcd13ifvqgtg","pricing_plan_id":"cebpf4jnsgd1na2vs0mg"},{"bike_id":"ee39f90f-3222-4732-9961-b784c72f0999","system_id":"levelo_inurba_marseille","lat":43.23199,"lon":5.35542,"is_reserved":false,"is_disabled":false,"rental_uris":{"android":"levelo://app?vid=ee39f90f-3222-4732-9961-b784c72f0999","ios":"levelo://app?vid=ee39f90f-3222-4732-9961-b784c72f0999"},"vehicle_type_id":"4","last_reported":1769969981,"current_range_meters":6000,"station_id":"ce4bhu92rcd13ifvqi70","pricing_plan_id":"cebpf4jnsgd1na2vs0mg"},{"bike_id":"66a661e7-8dd8-4894-b6bd-862108737aa4","system_id":"levelo_inurba_marseille","lat":43.272139,"lon":5.391782,"is_reserved":false,"is_disabled":false,"rental_uris":{"android":"levelo://app?vid=66a661e7-8dd8-4894-b6bd-862108737aa4","ios":"levelo://app?vid=66a661e7-8dd8-4894-b6bd-862108737aa4"},"vehicle_type_id":"4","last_reported":1769969981,"current_range_meters":6400,"station_id":"ce4bhhp2rcd13ifvqfm0","pricing_plan_id":"cebpf4jnsgd1na2vs0mg"},{"bike_id":"2de4ee82-68b0-45f0-afb4-39834ea6d963","system_id":"levelo_inurba_marseille","lat":43.2953,"lon":5.39031,"is_reserved":false,"is_disabled":false,"rental_uris":{"android":"levelo://app?vid=2de4ee82-68b0-45f0-afb4-39834ea6d963","ios":"levelo://app?vid=2de4ee82-68b0-45f0-afb4-39834ea6d963"},"vehicle_type_id":"4","last_reported":1769969981,"current_range_meters":6400,"station_id":"ce4bh3p2rcd13ifvqdp0","pricing_plan_id":"cebpf4jnsgd1na2vs0mg"},{"bike_id":"4b538e95-d67b-4c55-8519-1ec597c2ad3f","system_id":"levelo_inurba_marseille","lat":43.24071,"lon":5.37759,"is_reserved":false,"is_disabled":false,"rental_uris":{"android":"levelo://app?vid=4b538e95-d67b-4c55-8519-1ec597c2ad3f","ios":"levelo://app?vid=4b538e95-d67b-4c55-8519-1ec597c2ad3f"},"vehicle_type_id":"4","last_reported":1769969981,"current_range_meters":6400,"station_id":"ce4bhnp2rcd13ifvqgvg","pricing_plan_id":"cebpf4jnsgd1na2vs0mg"},{"bike_id":"d431d2dc-fe64-4d55-be3e-18b6291747e9","system_id":"levelo_inurba_marseille","lat":43.23062,"lon":5.35487,"is_reserved":false,"is_disabled":false,"rental_uris":{"android":"levelo://app?vid=d431d2dc-fe64-4d55-be3e-18b6291747e9","ios":"levelo://app?vid=d431d2dc-fe64-4d55-be3e-18b6291747e9"},"vehicle_type_id":"4","last_reported":1769969981,"current_range_meters":6400,"station_id":"cpo3342slgdg3j2ifvpg","pricing_plan_id":"cebpf4jnsgd1na2vs0mg"},{"bike_id":"c46a8bc1-ae0b-4d0c-9fd7-97be3f21ac89","system_id":"levelo_inurba_marseille","lat":43.27336,"lon":5.39064,"is_reserved":false,"is_disabled":false,"rental_uris":{"android":"levelo://app?vid=c46a8bc1-ae0b-4d0c-9fd7-97be3f21ac89","ios":"levelo://app?vid=c46a8bc1-ae0b-4d0c-9fd7-97be3f21ac89"},"vehicle_type_id":"4","last_reported":1769969981,"current_range_meters":6400,"station_id":"ce4bhgp2rcd13ifvqfe0","pricing_plan_id":"cebpf4jnsgd1na2vs0mg"},{"bike_id":"5e1c4385-fefc-40d8-9043-9539df7efdd8","system_id":"levelo_inurba_marseille","lat":43.337444,"lon":5.374475,"is_reserved":false,"is_disabled":false,"rental_uris":{"android":"levelo://app?vid=5e1c4385-fefc-40d8-9043-9539df7efdd8","ios":"levelo://app?vid=5e1c4385-fefc-40d8-9043-9539df7efdd8"},"vehicle_type_id":"4","last_reported":1769969981,"current_range_meters":6400,"station_id":"ce4bhbp2rcd13ifvqesg","pricing_plan_id":"cebpf4jnsgd1na2vs0mg"},{"bike_id":"31fb60f4-af5c-4f1a-ae92-e035bba1415a","system_id":"levelo_inurba_marseille","lat":43.25496,"lon":5.3765,"is_reserved":false,"is_disabled":false,"rental_uris":{"android":"levelo://app?vid=31fb60f4-af5c-4f1a-ae92-e035bba1415a","ios":"levelo://app?vid=31fb60f4-af5c-4f1a-ae92-e035bba1415a"},"vehicle_type_id":"4","last_reported":1769969981,"current_range_meters":6400,"station_id":"ce4bhh12rcd13ifvqff0","pricing_plan_id":"cebpf4jnsgd1na2vs0mg"},{"bike_id":"767dc731-f365-45e9-b7a0-0144ed9ff9a5","system_id":"levelo_inurba_marseille","lat":43.31231,"lon":5.36864,"is_reserved":false,"is_disabled":false,"rental_uris":{"android":"levelo://app?vid=767dc731-f365-45e9-b7a0-0144ed9ff9a5","ios":"levelo://app?vid=767dc731-f365-45e9-b7a0-0144ed9ff9a5"},"vehicle_type_id":"4","last_reported":1769969981,"current_range_meters":6400,"station_id":"ce4bgl92rcd13ifvqbq0","pricing_plan_id":"cebpf4jnsgd1na2vs0mg"},{"bike_id":"797bc733-77e4-4ff2-8258-7bb3bdcc0a31","system_id":"levelo_inurba_marseille","lat":43.265544,"lon":5.372824,"is_reserved":false,"is_disabled":false,"rental_uris":{"android":"levelo://app?vid=797bc733-77e4-4ff2-8258-7bb3bdcc0a31","ios":"levelo://app?vid=797bc733-77e4-4ff2-8258-7bb3bdcc0a31"},"vehicle_type_id":"4","last_reported":1769969981,"current_range_meters":6400,"station_id":"ce4bh0p2rcd13ifvqd80","pricing_plan_id":"cebpf4jnsgd1na2vs0mg"},{"bike_id":"26bd2557-3046-4212-82fc-da1fdbd42b2c","system_id":"levelo_inurba_marseille","lat":43.2855,"lon":5.44094,"is_reserved":false,"is_disabled":false,"rental_uris":{"android":"levelo://app?vid=26bd2557-3046-4212-82fc-da1fdbd42b2c","ios":"levelo://app?vid=26bd2557-3046-4212-82fc-da1fdbd42b2c"},"vehicle_type_id":"4","last_reported":1769969981,"current_range_meters":6400,"station_id":"st_d3j3df2ikq2c7380ej80","pricing_plan_id":"cebpf4jnsgd1na2vs0mg"},{"bike_id":"7b0fdf04-02d7-480f-b5b8-ce5e44bde997","system_id":"levelo_inurba_marseille","lat":43.28689,"lon":5.37392,"is_reserved":false,"is_disabled":false,"rental_uris":{"android":"levelo://app?vid=7b0fdf04-02d7-480f-b5b8-ce5e44bde997","ios":"levelo://app?vid=7b0fdf04-02d7-480f-b5b8-ce5e44bde997"},"vehicle_type_id":"4","last_reported":1769969981,"current_range_meters":6400,"station_id":"ce4bh3p2rcd13ifvqdq0","pricing_plan_id":"cebpf4jnsgd1na2vs0mg"},{"bike_id":"cc15c741-b789-4619-bb15-d01163161379","system_id":"levelo_inurba_marseille","lat":43.31042,"lon":5.39343,"is_reserved":false,"is_disabled":false,"rental_uris":{"android":"levelo://app?vid=cc15c741-b789-4619-bb15-d01163161379","ios":"levelo://app?vid=cc15c741-b789-4619-bb15-d01163161379"},"vehicle_type_id":"4","last_reported":1769969981,"current_range_meters":6400,"station_id":"","pricing_plan_id":"cebpf4jnsgd1na2vs0mg"},{"bike_id":"494debd8-6aa2-444b-839e-b5ba32a8416e","system_id":"levelo_inurba_marseille","lat":43.31172,"lon":5.3871,"is_reserved":false,"is_disabled":false,"rental_uris":{"android":"levelo://app?vid=494debd8-6aa2-444b-839e-b5ba32a8416e","ios":"levelo://app?vid=494debd8-6aa2-444b-839e-b5ba32a8416e"},"vehicle_type_id":"4","last_reported":1769969981,"current_range_meters":6400,"station_id":"ce4bgv12rcd13ifvqcp0","pricing_plan_id":"cebpf4jnsgd1na2vs0mg"},{"bike_id":"0b595329-88a5-4dab-8a2c-b70bbda22e84","system_id":"levelo_inurba_marseille","lat":43.27943,"lon":5.41047,"is_reserved":false,"is_disabled":false,"rental_uris":{"android":"levelo://app?vid=0b595329-88a5-4dab-8a2c-b70bbda22e84","ios":"levelo://app?vid=0b595329-88a5-4dab-8a2c-b70bbda22e84"},"vehicle_type_id":"4","last_reported":1769969981,"current_range_meters":6400,"station_id":"ce4bhnp2rcd13ifvqh0g","pricing_plan_id":"cebpf4jnsgd1na2vs0mg"},{"bike_id":"85cb4530-0c19-410a-9de0-6dc8caf607f6","system_id":"levelo_inurba_marseille","lat":43.29807,"lon":5.3809,"is_reserved":false,"is_disabled":false,"rental_uris":{"android":"levelo://app?vid=85cb4530-0c19-410a-9de0-6dc8caf607f6","ios":"levelo://app?vid=85cb4530-0c19-410a-9de0-6dc8caf607f6"},"vehicle_type_id":"4","last_reported":1769969981,"current_range_meters":6400,"station_id":"ce4bgip2rcd13ifvqbb0","pricing_plan_id":"cebpf4jnsgd1na2vs0mg"},{"bike_id":"b3309d86-8094-423c-89ae-857de47c54bf","system_id":"levelo_inurba_marseille","lat":43.30139,"lon":5.38796,"is_reserved":false,"is_disabled":false,"rental_uris":{"android":"levelo://app?vid=b3309d86-8094-423c-89ae-857de47c54bf","ios":"levelo://app?vid=b3309d86-8094-423c-89ae-857de47c54bf"},"vehicle_type_id":"4","last_reported":1769969981,"current_range_meters":6400,"station_id":"ce4bghh2rcd13ifvqb60","pricing_plan_id":"cebpf4jnsgd1na2vs0mg"},{"bike_id":"e5b9c854-52bd-4571-9d09-3836aec2957e","system_id":"levelo_inurba_marseille","lat":43.24166,"lon":5.36401,"is_reserved":false,"is_disabled":false,"rental_uris":{"android":"levelo://app?vid=e5b9c854-52bd-4571-9d09-3836aec2957e","ios":"levelo://app?vid=e5b9c854-52bd-4571-9d09-3836aec2957e"},"vehicle_type_id":"4","last_reported":1769969981,"current_range_meters":6400,"station_id":"cpo36qri1sfpv3e86is0","pricing_plan_id":"cebpf4jnsgd1na2vs0mg"},{"bike_id":"5b4c0c7a-c0c9-4273-96c2-faded5f9cc26","system_id":"levelo_inurba_marseille","lat":43.27945,"lon":5.41031,"is_reserved":false,"is_disabled":false,"rental_uris":{"android":"levelo://app?vid=5b4c0c7a-c0c9-4273-96c2-faded5f9cc26","ios":"levelo://app?vid=5b4c0c7a-c0c9-4273-96c2-faded5f9cc26"},"vehicle_type_id":"4","last_reported":1769969981,"current_range_meters":6800,"station_id":"ce4bhnp2rcd13ifvqh0g","pricing_plan_id":"cebpf4jnsgd1na2vs0mg"},{"bike_id":"87a354e2-aacd-4ec9-ade6-6f6c8860ce28","system_id":"levelo_inurba_marseille","lat":43.28008,"lon":5.36944,"is_reserved":false,"is_disabled":false,"rental_uris":{"android":"levelo://app?vid=87a354e2-aacd-4ec9-ade6-6f6c8860ce28","ios":"levelo://app?vid=87a354e2-aacd-4ec9-ade6-6f6c8860ce28"},"vehicle_type_id":"4","last_reported":1769969981,"current_range_meters":6800,"station_id":"ce4bha12rcd13ifvqef0","pricing_plan_id":"cebpf4jnsgd1na2vs0mg"},{"bike_id":"6f8455de-cdcb-4115-8f9f-1a1c57d7cc8a","system_id":"levelo_inurba_marseille","lat":43.25001,"lon":5.38933,"is_reserved":false,"is_disabled":false,"rental_uris":{"android":"levelo://app?vid=6f8455de-cdcb-4115-8f9f-1a1c57d7cc8a","ios":"levelo://app?vid=6f8455de-cdcb-4115-8f9f-1a1c57d7cc8a"},"vehicle_type_id":"4","last_reported":1769969981,"current_range_meters":6800,"station_id":"ce4bhgp2rcd13ifvqfd0","pricing_plan_id":"cebpf4jnsgd1na2vs0mg"},{"bike_id":"3ac10527-5b40-4b0f-8372-2e018bfa2ce4","system_id":"levelo_inurba_marseille","lat":43.26472,"lon":5.40949,"is_reserved":false,"is_disabled":false,"rental_uris":{"android":"levelo://app?vid=3ac10527-5b40-4b0f-8372-2e018bfa2ce4","ios":"levelo://app?vid=3ac10527-5b40-4b0f-8372-2e018bfa2ce4"},"vehicle_type_id":"4","last_reported":1769969981,"current_range_meters":6800,"station_id":"","pricing_plan_id":"cebpf4jnsgd1na2vs0mg"},{"bike_id":"dc68db14-c906-4c81-af24-38ade0c0fe18","system_id":"levelo_inurba_marseille","lat":43.22563,"lon":5.4163,"is_reserved":false,"is_disabled":false,"rental_uris":{"android":"levelo://app?vid=dc68db14-c906-4c81-af24-38ade0c0fe18","ios":"levelo://app?vid=dc68db14-c906-4c81-af24-38ade0c0fe18"},"vehicle_type_id":"4","last_reported":1769969981,"current_range_meters":6800,"station_id":"st_d2o4gvlbi1j2169b742g","pricing_plan_id":"cebpf4jnsgd1na2vs0mg"},{"bike_id":"ddcbae43-31a1-4a2a-a439-401aedcebd53","system_id":"levelo_inurba_marseille","lat":43.28465,"lon":5.35885,"is_reserved":false,"is_disabled":false,"rental_uris":{"android":"levelo://app?vid=ddcbae43-31a1-4a2a-a439-401aedcebd53","ios":"levelo://app?vid=ddcbae43-31a1-4a2a-a439-401aedcebd53"},"vehicle_type_id":"4","last_reported":1769969981,"current_range_meters":6800,"station_id":"ce4bhah2rcd13ifvqei0","pricing_plan_id":"cebpf4jnsgd1na2vs0mg"},{"bike_id":"8d19955e-e09c-4b47-a6e3-ae607dbe5088","system_id":"levelo_inurba_marseille","lat":43.26214,"lon":5.37434,"is_reserved":false,"is_disabled":true,"rental_uris":{"android":"levelo://app?vid=8d19955e-e09c-4b47-a6e3-ae607dbe5088","ios":"levelo://app?vid=8d19955e-e09c-4b47-a6e3-ae607dbe5088"},"vehicle_type_id":"4","last_reported":1769969981,"current_range_meters":6800,"station_id":"ce4bhgp2rcd13ifvqfc0","pricing_plan_id":"cebpf4jnsgd1na2vs0mg"},{"bike_id":"b8b94943-9f85-4dce-9193-e4086fb48a3d","system_id":"levelo_inurba_marseille","lat":43.28217,"lon":5.39038,"is_reserved":false,"is_disabled":false,"rental_uris":{"android":"levelo://app?vid=b8b94943-9f85-4dce-9193-e4086fb48a3d","ios":"levelo://app?vid=b8b94943-9f85-4dce-9193-e4086fb48a3d"},"vehicle_type_id":"4","last_reported":1769969981,"current_range_meters":6800,"station_id":"ce4bhn92rcd13ifvqgsg","pricing_plan_id":"cebpf4jnsgd1na2vs0mg"},{"bike_id":"93e60425-8aae-4f4b-b447-57ef8147db67","system_id":"levelo_inurba_marseille","lat":43.2848,"lon":5.48396,"is_reserved":false,"is_disabled":false,"rental_uris":{"android":"levelo://app?vid=93e60425-8aae-4f4b-b447-57ef8147db67","ios":"levelo://app?vid=93e60425-8aae-4f4b-b447-57ef8147db67"},"vehicle_type_id":"4","last_reported":1769969981,"current_range_meters":6800,"station_id":"","pricing_plan_id":"cebpf4jnsgd1na2vs0mg"},{"bike_id":"2c9d9ec4-87d2-4a0f-9375-615bf9c41c46","system_id":"levelo_inurba_marseille","lat":43.26193,"lon":5.37524,"is_reserved":false,"is_disabled":false,"rental_uris":{"android":"levelo://app?vid=2c9d9ec4-87d2-4a0f-9375-615bf9c41c46","ios":"levelo://app?vid=2c9d9ec4-87d2-4a0f-9375-615bf9c41c46"},"vehicle_type_id":"4","last_reported":1769969981,"current_range_meters":6800,"station_id":"","pricing_plan_id":"cebpf4jnsgd1na2vs0mg"},{"bike_id":"ba1d96b0-32b8-465c-8cae-95618aefc0ee","system_id":"levelo_inurba_marseille","lat":43.28926,"lon":5.38395,"is_reserved":false,"is_disabled":true,"rental_uris":{"android":"levelo://app?vid=ba1d96b0-32b8-465c-8cae-95618aefc0ee","ios":"levelo://app?vid=ba1d96b0-32b8-465c-8cae-95618aefc0ee"},"vehicle_type_id":"4","last_reported":1769969981,"current_range_meters":6800,"station_id":"ce4bh612rcd13ifvqe6g","pricing_plan_id":"cebpf4jnsgd1na2vs0mg"},{"bike_id":"e872bb48-ec6f-4b99-a9e8-ba2cbe45e5c5","system_id":"levelo_inurba_marseille","lat":43.27999,"lon":5.41666,"is_reserved":false,"is_disabled":false,"rental_uris":{"android":"levelo://app?vid=e872bb48-ec6f-4b99-a9e8-ba2cbe45e5c5","ios":"levelo://app?vid=e872bb48-ec6f-4b99-a9e8-ba2cbe45e5c5"},"vehicle_type_id":"4","last_reported":1769969981,"current_range_meters":6800,"station_id":"ce4bho12rcd13ifvqh1g","pricing_plan_id":"cebpf4jnsgd1na2vs0mg"},{"bike_id":"bb639ba9-a748-4649-ae95-1d992ce6f1a1","system_id":"levelo_inurba_marseille","lat":43.29894,"lon":5.4367,"is_reserved":false,"is_disabled":false,"rental_uris":{"android":"levelo://app?vid=bb639ba9-a748-4649-ae95-1d992ce6f1a1","ios":"levelo://app?vid=bb639ba9-a748-4649-ae95-1d992ce6f1a1"},"vehicle_type_id":"4","last_reported":1769969981,"current_range_meters":6800,"station_id":"ce4bhpp2rcd13ifvqhfg","pricing_plan_id":"cebpf4jnsgd1na2vs0mg"},{"bike_id":"74ac2feb-a7ae-41ed-97e6-16a7d353da55","system_id":"levelo_inurba_marseille","lat":43.24832,"lon":5.37408,"is_reserved":false,"is_disabled":true,"rental_uris":{"android":"levelo://app?vid=74ac2feb-a7ae-41ed-97e6-16a7d353da55","ios":"levelo://app?vid=74ac2feb-a7ae-41ed-97e6-16a7d353da55"},"vehicle_type_id":"4","last_reported":1769969981,"current_range_meters":6800,"station_id":"","pricing_plan_id":"cebpf4jnsgd1na2vs0mg"},{"bike_id":"b4aee4d3-892f-4c3a-b975-2ea1f13d72e4","system_id":"levelo_inurba_marseille","lat":43.34145,"lon":5.409,"is_reserved":false,"is_disabled":false,"rental_uris":{"android":"levelo://app?vid=b4aee4d3-892f-4c3a-b975-2ea1f13d72e4","ios":"levelo://app?vid=b4aee4d3-892f-4c3a-b975-2ea1f13d72e4"},"vehicle_type_id":"4","last_reported":1769969981,"current_range_meters":6800,"station_id":"ce4bhqh2rcd13ifvqhlg","pricing_plan_id":"cebpf4jnsgd1na2vs0mg"},{"bike_id":"04852c7d-36df-4768-a336-5111bb192f6a","system_id":"levelo_inurba_marseille","lat":43.30808,"lon":5.3815,"is_reserved":false,"is_disabled":false,"rental_uris":{"android":"levelo://app?vid=04852c7d-36df-4768-a336-5111bb192f6a","ios":"levelo://app?vid=04852c7d-36df-4768-a336-5111bb192f6a"},"vehicle_type_id":"4","last_reported":1769969981,"current_range_meters":6800,"station_id":"ce4bgt12rcd13ifvqce0","pricing_plan_id":"cebpf4jnsgd1na2vs0mg"},{"bike_id":"d6bba56f-21fc-4d3c-b6cb-de086cbce198","system_id":"levelo_inurba_marseille","lat":43.29252,"lon":5.38425,"is_reserved":false,"is_disabled":false,"rental_uris":{"android":"levelo://app?vid=d6bba56f-21fc-4d3c-b6cb-de086cbce198","ios":"levelo://app?vid=d6bba56f-21fc-4d3c-b6cb-de086cbce198"},"vehicle_type_id":"4","last_reported":1769969981,"current_range_meters":6800,"station_id":"ce4bh692rcd13ifvqea0","pricing_plan_id":"cebpf4jnsgd1na2vs0mg"},{"bike_id":"6683b936-5f74-4236-9c71-81c279f26420","system_id":"levelo_inurba_marseille","lat":43.25513,"lon":5.37656,"is_reserved":false,"is_disabled":false,"rental_uris":{"android":"levelo://app?vid=6683b936-5f74-4236-9c71-81c279f26420","ios":"levelo://app?vid=6683b936-5f74-4236-9c71-81c279f26420"},"vehicle_type_id":"4","last_reported":1769969981,"current_range_meters":6800,"station_id":"ce4bhh12rcd13ifvqff0","pricing_plan_id":"cebpf4jnsgd1na2vs0mg"},{"bike_id":"6bcf76ac-3142-4b03-924d-842a5c0b198a","system_id":"levelo_inurba_marseille","lat":43.26038,"lon":5.37547,"is_reserved":false,"is_disabled":false,"rental_uris":{"android":"levelo://app?vid=6bcf76ac-3142-4b03-924d-842a5c0b198a","ios":"levelo://app?vid=6bcf76ac-3142-4b03-924d-842a5c0b198a"},"vehicle_type_id":"4","last_reported":1769969981,"current_range_meters":6800,"station_id":"ce4bhgh2rcd13ifvqfa0","pricing_plan_id":"cebpf4jnsgd1na2vs0mg"},{"bike_id":"e1b9d24f-2421-486f-a00c-01e9adfdba49","system_id":"levelo_inurba_marseille","lat":43.23189,"lon":5.39986,"is_reserved":false,"is_disabled":false,"rental_uris":{"android":"levelo://app?vid=e1b9d24f-2421-486f-a00c-01e9adfdba49","ios":"levelo://app?vid=e1b9d24f-2421-486f-a00c-01e9adfdba49"},"vehicle_type_id":"4","last_reported":1769969981,"current_range_meters":6800,"station_id":"ce4bhn12rcd13ifvqgqg","pricing_plan_id":"cebpf4jnsgd1na2vs0mg"},{"bike_id":"e3e986c3-0db0-40fd-a1a5-f07ce5425792","system_id":"levelo_inurba_marseille","lat":43.27318,"lon":5.39079,"is_reserved":false,"is_disabled":true,"rental_uris":{"android":"levelo://app?vid=e3e986c3-0db0-40fd-a1a5-f07ce5425792","ios":"levelo://app?vid=e3e986c3-0db0-40fd-a1a5-f07ce5425792"},"vehicle_type_id":"4","last_reported":1769969981,"current_range_meters":6800,"station_id":"ce4bhgp2rcd13ifvqfe0","pricing_plan_id":"cebpf4jnsgd1na2vs0mg"},{"bike_id":"0a1300ad-2f14-46b7-8956-d36a4a430b42","system_id":"levelo_inurba_marseille","lat":43.24798,"lon":5.37448,"is_reserved":false,"is_disabled":false,"rental_uris":{"android":"levelo://app?vid=0a1300ad-2f14-46b7-8956-d36a4a430b42","ios":"levelo://app?vid=0a1300ad-2f14-46b7-8956-d36a4a430b42"},"vehicle_type_id":"4","last_reported":1769969981,"current_range_meters":7200,"station_id":"ce4bhgh2rcd13ifvqfb0","pricing_plan_id":"cebpf4jnsgd1na2vs0mg"},{"bike_id":"55821144-4cea-4c88-a4ef-ac2c18f1fa0e","system_id":"levelo_inurba_marseille","lat":43.24071,"lon":5.37744,"is_reserved":false,"is_disabled":false,"rental_uris":{"android":"levelo://app?vid=55821144-4cea-4c88-a4ef-ac2c18f1fa0e","ios":"levelo://app?vid=55821144-4cea-4c88-a4ef-ac2c18f1fa0e"},"vehicle_type_id":"4","last_reported":1769969981,"current_range_meters":7200,"station_id":"ce4bhnp2rcd13ifvqgvg","pricing_plan_id":"cebpf4jnsgd1na2vs0mg"},{"bike_id":"1c1f8539-b1ae-43f7-94e2-f9ba91100b64","system_id":"levelo_inurba_marseille","lat":43.31721,"lon":5.37792,"is_reserved":false,"is_disabled":false,"rental_uris":{"android":"levelo://app?vid=1c1f8539-b1ae-43f7-94e2-f9ba91100b64","ios":"levelo://app?vid=1c1f8539-b1ae-43f7-94e2-f9ba91100b64"},"vehicle_type_id":"4","last_reported":1769969981,"current_range_meters":7200,"station_id":"ce4bgth2rcd13ifvqch0","pricing_plan_id":"cebpf4jnsgd1na2vs0mg"},{"bike_id":"e4c8f7fa-a4ac-4202-810a-07d2608101b0","system_id":"levelo_inurba_marseille","lat":43.29096,"lon":5.3813,"is_reserved":false,"is_disabled":false,"rental_uris":{"android":"levelo://app?vid=e4c8f7fa-a4ac-4202-810a-07d2608101b0","ios":"levelo://app?vid=e4c8f7fa-a4ac-4202-810a-07d2608101b0"},"vehicle_type_id":"4","last_reported":1769969981,"current_range_meters":7200,"station_id":"ce4bh512rcd13ifvqe2g","pricing_plan_id":"cebpf4jnsgd1na2vs0mg"},{"bike_id":"b00753f6-9e43-40ef-9959-628446071746","system_id":"levelo_inurba_marseille","lat":43.2783,"lon":5.40745,"is_reserved":false,"is_disabled":true,"rental_uris":{"android":"levelo://app?vid=b00753f6-9e43-40ef-9959-628446071746","ios":"levelo://app?vid=b00753f6-9e43-40ef-9959-628446071746"},"vehicle_type_id":"4","last_reported":1769969981,"current_range_meters":7200,"station_id":"ce4bhnh2rcd13ifvqgtg","pricing_plan_id":"cebpf4jnsgd1na2vs0mg"},{"bike_id":"cec514c3-7ecb-423b-80b5-18639cf7781d","system_id":"levelo_inurba_marseille","lat":43.25633,"lon":5.37634,"is_reserved":false,"is_disabled":false,"rental_uris":{"android":"levelo://app?vid=cec514c3-7ecb-423b-80b5-18639cf7781d","ios":"levelo://app?vid=cec514c3-7ecb-423b-80b5-18639cf7781d"},"vehicle_type_id":"4","last_reported":1769969981,"current_range_meters":7200,"station_id":"","pricing_plan_id":"cebpf4jnsgd1na2vs0mg"},{"bike_id":"73aec4ff-9125-4484-b506-c6d7f904b408","system_id":"levelo_inurba_marseille","lat":43.30894,"lon":5.37198,"is_reserved":false,"is_disabled":false,"rental_uris":{"android":"levelo://app?vid=73aec4ff-9125-4484-b506-c6d7f904b408","ios":"levelo://app?vid=73aec4ff-9125-4484-b506-c6d7f904b408"},"vehicle_type_id":"4","last_reported":1769969981,"current_range_meters":7200,"station_id":"ce4bguh2rcd13ifvqckg","pricing_plan_id":"cebpf4jnsgd1na2vs0mg"},{"bike_id":"e685b8e3-afce-4dcd-a202-86a08c955aff","system_id":"levelo_inurba_marseille","lat":43.23199,"lon":5.35537,"is_reserved":false,"is_disabled":false,"rental_uris":{"android":"levelo://app?vid=e685b8e3-afce-4dcd-a202-86a08c955aff","ios":"levelo://app?vid=e685b8e3-afce-4dcd-a202-86a08c955aff"},"vehicle_type_id":"4","last_reported":1769969981,"current_range_meters":7200,"station_id":"ce4bhu92rcd13ifvqi70","pricing_plan_id":"cebpf4jnsgd1na2vs0mg"},{"bike_id":"064b8bc8-52f1-41a1-98a8-692ee47c9995","system_id":"levelo_inurba_marseille","lat":43.21752,"lon":5.34604,"is_reserved":false,"is_disabled":true,"rental_uris":{"android":"levelo://app?vid=064b8bc8-52f1-41a1-98a8-692ee47c9995","ios":"levelo://app?vid=064b8bc8-52f1-41a1-98a8-692ee47c9995"},"vehicle_type_id":"4","last_reported":1769969981,"current_range_meters":7200,"station_id":"","pricing_plan_id":"cebpf4jnsgd1na2vs0mg"},{"bike_id":"58982c61-2f00-4e02-b620-223b4d372a1d","system_id":"levelo_inurba_marseille","lat":43.25581,"lon":5.38227,"is_reserved":false,"is_disabled":false,"rental_uris":{"android":"levelo://app?vid=58982c61-2f00-4e02-b620-223b4d372a1d","ios":"levelo://app?vid=58982c61-2f00-4e02-b620-223b4d372a1d"},"vehicle_type_id":"4","last_reported":1769969981,"current_range_meters":7200,"station_id":"ce4bhih2rcd13ifvqfs0","pricing_plan_id":"cebpf4jnsgd1na2vs0mg"},{"bike_id":"53336c15-c4a9-4afd-ad5c-4a4cebf6f0c1","system_id":"levelo_inurba_marseille","lat":43.24164,"lon":5.36407,"is_reserved":false,"is_disabled":false,"rental_uris":{"android":"levelo://app?vid=53336c15-c4a9-4afd-ad5c-4a4cebf6f0c1","ios":"levelo://app?vid=53336c15-c4a9-4afd-ad5c-4a4cebf6f0c1"},"vehicle_type_id":"4","last_reported":1769969981,"current_range_meters":7200,"station_id":"cpo36qri1sfpv3e86is0","pricing_plan_id":"cebpf4jnsgd1na2vs0mg"},{"bike_id":"5abec86c-dad6-43f1-a3f4-aae181aca07b","system_id":"levelo_inurba_marseille","lat":43.29538,"lon":5.38542,"is_reserved":false,"is_disabled":false,"rental_uris":{"android":"levelo://app?vid=5abec86c-dad6-43f1-a3f4-aae181aca07b","ios":"levelo://app?vid=5abec86c-dad6-43f1-a3f4-aae181aca07b"},"vehicle_type_id":"4","last_reported":1769969981,"current_range_meters":7200,"station_id":"ce4bgih2rcd13ifvqba0","pricing_plan_id":"cebpf4jnsgd1na2vs0mg"},{"bike_id":"4c3c3cef-9caa-474d-89a5-f5635143746a","system_id":"levelo_inurba_marseille","lat":43.29066,"lon":5.37154,"is_reserved":false,"is_disabled":false,"rental_uris":{"android":"levelo://app?vid=4c3c3cef-9caa-474d-89a5-f5635143746a","ios":"levelo://app?vid=4c3c3cef-9caa-474d-89a5-f5635143746a"},"vehicle_type_id":"4","last_reported":1769969981,"current_range_meters":8000,"station_id":"ce4bh5p2rcd13ifvqe4g","pricing_plan_id":"cebpf4jnsgd1na2vs0mg"},{"bike_id":"eae001be-3b34-469f-b5f5-7615da95a4ed","system_id":"levelo_inurba_marseille","lat":43.278184,"lon":5.406952,"is_reserved":false,"is_disabled":false,"rental_uris":{"android":"levelo://app?vid=eae001be-3b34-469f-b5f5-7615da95a4ed","ios":"levelo://app?vid=eae001be-3b34-469f-b5f5-7615da95a4ed"},"vehicle_type_id":"4","last_reported":1769969981,"current_range_meters":8000,"station_id":"ce4bhnh2rcd13ifvqgtg","pricing_plan_id":"cebpf4jnsgd1na2vs0mg"},{"bike_id":"0a0d558e-7698-4c76-9579-fd855d1ed701","system_id":"levelo_inurba_marseille","lat":43.28481,"lon":5.38421,"is_reserved":false,"is_disabled":false,"rental_uris":{"android":"levelo://app?vid=0a0d558e-7698-4c76-9579-fd855d1ed701","ios":"levelo://app?vid=0a0d558e-7698-4c76-9579-fd855d1ed701"},"vehicle_type_id":"4","last_reported":1769969981,"current_range_meters":8000,"station_id":"ce4bh512rcd13ifvqe3g","pricing_plan_id":"cebpf4jnsgd1na2vs0mg"},{"bike_id":"d2ee53f1-49b6-44a6-a171-d364ff8162cf","system_id":"levelo_inurba_marseille","lat":43.33355,"lon":5.4314,"is_reserved":false,"is_disabled":false,"rental_uris":{"android":"levelo://app?vid=d2ee53f1-49b6-44a6-a171-d364ff8162cf","ios":"levelo://app?vid=d2ee53f1-49b6-44a6-a171-d364ff8162cf"},"vehicle_type_id":"4","last_reported":1769969981,"current_range_meters":8000,"station_id":"","pricing_plan_id":"cebpf4jnsgd1na2vs0mg"},{"bike_id":"4f5d5401-a251-4bec-a1d9-6a46b0771284","system_id":"levelo_inurba_marseille","lat":43.29307,"lon":5.37173,"is_reserved":false,"is_disabled":false,"rental_uris":{"android":"levelo://app?vid=4f5d5401-a251-4bec-a1d9-6a46b0771284","ios":"levelo://app?vid=4f5d5401-a251-4bec-a1d9-6a46b0771284"},"vehicle_type_id":"4","last_reported":1769969981,"current_range_meters":8000,"station_id":"ce4bgh92rcd13ifvqb40","pricing_plan_id":"cebpf4jnsgd1na2vs0mg"},{"bike_id":"cb16a0fb-a0f9-4601-ab2a-91a6d88760fa","system_id":"levelo_inurba_marseille","lat":43.26558,"lon":5.40332,"is_reserved":false,"is_disabled":false,"rental_uris":{"android":"levelo://app?vid=cb16a0fb-a0f9-4601-ab2a-91a6d88760fa","ios":"levelo://app?vid=cb16a0fb-a0f9-4601-ab2a-91a6d88760fa"},"vehicle_type_id":"4","last_reported":1769969981,"current_range_meters":8000,"station_id":"ce4bhmp2rcd13ifvqgng","pricing_plan_id":"cebpf4jnsgd1na2vs0mg"},{"bike_id":"51487434-2c5b-44ec-b6f1-b2d802fd5baf","system_id":"levelo_inurba_marseille","lat":43.295842,"lon":5.367472,"is_reserved":false,"is_disabled":false,"rental_uris":{"android":"levelo://app?vid=51487434-2c5b-44ec-b6f1-b2d802fd5baf","ios":"levelo://app?vid=51487434-2c5b-44ec-b6f1-b2d802fd5baf"},"vehicle_type_id":"4","last_reported":1769969981,"current_range_meters":8000,"station_id":"ce4bgph2rcd13ifvqc2g","pricing_plan_id":"cebpf4jnsgd1na2vs0mg"},{"bike_id":"ab6c83e0-5dad-4068-933a-4059e6467edb","system_id":"levelo_inurba_marseille","lat":43.26572,"lon":5.403249,"is_reserved":false,"is_disabled":false,"rental_uris":{"android":"levelo://app?vid=ab6c83e0-5dad-4068-933a-4059e6467edb","ios":"levelo://app?vid=ab6c83e0-5dad-4068-933a-4059e6467edb"},"vehicle_type_id":"4","last_reported":1769969981,"current_range_meters":8000,"station_id":"ce4bhmp2rcd13ifvqgng","pricing_plan_id":"cebpf4jnsgd1na2vs0mg"},{"bike_id":"12e57557-c8f6-495c-93bd-34dffc11460c","system_id":"levelo_inurba_marseille","lat":43.29557,"lon":5.38515,"is_reserved":false,"is_disabled":false,"rental_uris":{"android":"levelo://app?vid=12e57557-c8f6-495c-93bd-34dffc11460c","ios":"levelo://app?vid=12e57557-c8f6-495c-93bd-34dffc11460c"},"vehicle_type_id":"4","last_reported":1769969981,"current_range_meters":8000,"station_id":"ce4bgih2rcd13ifvqba0","pricing_plan_id":"cebpf4jnsgd1na2vs0mg"},{"bike_id":"468dc907-ebc4-4125-8397-e408e49a0037","system_id":"levelo_inurba_marseille","lat":43.28031,"lon":5.36948,"is_reserved":false,"is_disabled":false,"rental_uris":{"android":"levelo://app?vid=468dc907-ebc4-4125-8397-e408e49a0037","ios":"levelo://app?vid=468dc907-ebc4-4125-8397-e408e49a0037"},"vehicle_type_id":"4","last_reported":1769969981,"current_range_meters":8000,"station_id":"ce4bha12rcd13ifvqef0","pricing_plan_id":"cebpf4jnsgd1na2vs0mg"},{"bike_id":"2cfe0b76-7fe5-4fd9-b3a3-329506bfba9f","system_id":"levelo_inurba_marseille","lat":43.26564,"lon":5.39045,"is_reserved":false,"is_disabled":false,"rental_uris":{"android":"levelo://app?vid=2cfe0b76-7fe5-4fd9-b3a3-329506bfba9f","ios":"levelo://app?vid=2cfe0b76-7fe5-4fd9-b3a3-329506bfba9f"},"vehicle_type_id":"4","last_reported":1769969981,"current_range_meters":8000,"station_id":"ce4bhe12rcd13ifvqf30","pricing_plan_id":"cebpf4jnsgd1na2vs0mg"},{"bike_id":"ef3ac042-6517-4112-9988-08ee387cbd2b","system_id":"levelo_inurba_marseille","lat":43.28967,"lon":5.39055,"is_reserved":false,"is_disabled":false,"rental_uris":{"android":"levelo://app?vid=ef3ac042-6517-4112-9988-08ee387cbd2b","ios":"levelo://app?vid=ef3ac042-6517-4112-9988-08ee387cbd2b"},"vehicle_type_id":"4","last_reported":1769969981,"current_range_meters":8000,"station_id":"","pricing_plan_id":"cebpf4jnsgd1na2vs0mg"},{"bike_id":"bafe06f4-691a-42ad-b544-2647048d76df","system_id":"levelo_inurba_marseille","lat":43.23029,"lon":5.35501,"is_reserved":false,"is_disabled":false,"rental_uris":{"android":"levelo://app?vid=bafe06f4-691a-42ad-b544-2647048d76df","ios":"levelo://app?vid=bafe06f4-691a-42ad-b544-2647048d76df"},"vehicle_type_id":"4","last_reported":1769969981,"current_range_meters":8000,"station_id":"cpo3342slgdg3j2ifvpg","pricing_plan_id":"cebpf4jnsgd1na2vs0mg"},{"bike_id":"5114852a-ac10-4491-b494-c4c1d83bfea5","system_id":"levelo_inurba_marseille","lat":43.26502,"lon":5.395444,"is_reserved":false,"is_disabled":false,"rental_uris":{"android":"levelo://app?vid=5114852a-ac10-4491-b494-c4c1d83bfea5","ios":"levelo://app?vid=5114852a-ac10-4491-b494-c4c1d83bfea5"},"vehicle_type_id":"4","last_reported":1769969981,"current_range_meters":8000,"station_id":"ce4bhi12rcd13ifvqfq0","pricing_plan_id":"cebpf4jnsgd1na2vs0mg"},{"bike_id":"2b052603-1775-4258-80ad-ae63b6286ef5","system_id":"levelo_inurba_marseille","lat":43.29774,"lon":5.3591,"is_reserved":false,"is_disabled":true,"rental_uris":{"android":"levelo://app?vid=2b052603-1775-4258-80ad-ae63b6286ef5","ios":"levelo://app?vid=2b052603-1775-4258-80ad-ae63b6286ef5"},"vehicle_type_id":"4","last_reported":1769969981,"current_range_meters":8000,"station_id":"","pricing_plan_id":"cebpf4jnsgd1na2vs0mg"},{"bike_id":"6632b7eb-39fd-4ac6-ab18-a3a8fd79732f","system_id":"levelo_inurba_marseille","lat":43.30891,"lon":5.37162,"is_reserved":false,"is_disabled":false,"rental_uris":{"android":"levelo://app?vid=6632b7eb-39fd-4ac6-ab18-a3a8fd79732f","ios":"levelo://app?vid=6632b7eb-39fd-4ac6-ab18-a3a8fd79732f"},"vehicle_type_id":"4","last_reported":1769969981,"current_range_meters":8000,"station_id":"ce4bguh2rcd13ifvqckg","pricing_plan_id":"cebpf4jnsgd1na2vs0mg"},{"bike_id":"1ce5a42e-1a62-40ee-8b81-6065be729dab","system_id":"levelo_inurba_marseille","lat":43.27971,"lon":5.38754,"is_reserved":false,"is_disabled":false,"rental_uris":{"android":"levelo://app?vid=1ce5a42e-1a62-40ee-8b81-6065be729dab","ios":"levelo://app?vid=1ce5a42e-1a62-40ee-8b81-6065be729dab"},"vehicle_type_id":"4","last_reported":1769969981,"current_range_meters":8000,"station_id":"ce4bhg12rcd13ifvqf80","pricing_plan_id":"cebpf4jnsgd1na2vs0mg"},{"bike_id":"669cbfea-a557-4cea-af48-034865d30cc0","system_id":"levelo_inurba_marseille","lat":43.25331,"lon":5.42172,"is_reserved":false,"is_disabled":true,"rental_uris":{"android":"levelo://app?vid=669cbfea-a557-4cea-af48-034865d30cc0","ios":"levelo://app?vid=669cbfea-a557-4cea-af48-034865d30cc0"},"vehicle_type_id":"4","last_reported":1769969981,"current_range_meters":8000,"station_id":"st_d2m65c5bi1j21697t3ng","pricing_plan_id":"cebpf4jnsgd1na2vs0mg"},{"bike_id":"77885ac6-5bc3-4d5e-b14c-f5d8952185b2","system_id":"levelo_inurba_marseille","lat":43.26552,"lon":5.40324,"is_reserved":false,"is_disabled":false,"rental_uris":{"android":"levelo://app?vid=77885ac6-5bc3-4d5e-b14c-f5d8952185b2","ios":"levelo://app?vid=77885ac6-5bc3-4d5e-b14c-f5d8952185b2"},"vehicle_type_id":"4","last_reported":1769969981,"current_range_meters":8000,"station_id":"ce4bhmp2rcd13ifvqgng","pricing_plan_id":"cebpf4jnsgd1na2vs0mg"},{"bike_id":"ae6076f5-67fa-439f-8c52-3710dfc4ce50","system_id":"levelo_inurba_marseille","lat":43.27809,"lon":5.40703,"is_reserved":false,"is_disabled":false,"rental_uris":{"android":"levelo://app?vid=ae6076f5-67fa-439f-8c52-3710dfc4ce50","ios":"levelo://app?vid=ae6076f5-67fa-439f-8c52-3710dfc4ce50"},"vehicle_type_id":"4","last_reported":1769969981,"current_range_meters":8000,"station_id":"ce4bhnh2rcd13ifvqgtg","pricing_plan_id":"cebpf4jnsgd1na2vs0mg"},{"bike_id":"13a78465-a453-433f-a41a-bc195cdd923e","system_id":"levelo_inurba_marseille","lat":43.2942,"lon":5.38213,"is_reserved":false,"is_disabled":false,"rental_uris":{"android":"levelo://app?vid=13a78465-a453-433f-a41a-bc195cdd923e","ios":"levelo://app?vid=13a78465-a453-433f-a41a-bc195cdd923e"},"vehicle_type_id":"4","last_reported":1769969981,"current_range_meters":8000,"station_id":"","pricing_plan_id":"cebpf4jnsgd1na2vs0mg"},{"bike_id":"c7b2d8b3-c92c-4789-a37e-83de1b953f8c","system_id":"levelo_inurba_marseille","lat":43.26558,"lon":5.37282,"is_reserved":false,"is_disabled":false,"rental_uris":{"android":"levelo://app?vid=c7b2d8b3-c92c-4789-a37e-83de1b953f8c","ios":"levelo://app?vid=c7b2d8b3-c92c-4789-a37e-83de1b953f8c"},"vehicle_type_id":"4","last_reported":1769969981,"current_range_meters":8000,"station_id":"ce4bhg12rcd13ifvqf70","pricing_plan_id":"cebpf4jnsgd1na2vs0mg"},{"bike_id":"5a46f343-f8c0-4bd7-9859-14e3ca910ba6","system_id":"levelo_inurba_marseille","lat":43.294892,"lon":5.433008,"is_reserved":false,"is_disabled":false,"rental_uris":{"android":"levelo://app?vid=5a46f343-f8c0-4bd7-9859-14e3ca910ba6","ios":"levelo://app?vid=5a46f343-f8c0-4bd7-9859-14e3ca910ba6"},"vehicle_type_id":"4","last_reported":1769969981,"current_range_meters":8000,"station_id":"st_d3j5ugp08ojc73fj9d10","pricing_plan_id":"cebpf4jnsgd1na2vs0mg"},{"bike_id":"d1a4c207-5791-4015-8c48-e9fcda8077be","system_id":"levelo_inurba_marseille","lat":43.33169,"lon":5.37692,"is_reserved":false,"is_disabled":false,"rental_uris":{"android":"levelo://app?vid=d1a4c207-5791-4015-8c48-e9fcda8077be","ios":"levelo://app?vid=d1a4c207-5791-4015-8c48-e9fcda8077be"},"vehicle_type_id":"4","last_reported":1769969981,"current_range_meters":8400,"station_id":"st_d46cu089ee8s73dldbu0","pricing_plan_id":"cebpf4jnsgd1na2vs0mg"},{"bike_id":"c9ded565-6fe2-4c06-b0dd-052e5890e1bb","system_id":"levelo_inurba_marseille","lat":43.29893,"lon":5.38167,"is_reserved":false,"is_disabled":false,"rental_uris":{"android":"levelo://app?vid=c9ded565-6fe2-4c06-b0dd-052e5890e1bb","ios":"levelo://app?vid=c9ded565-6fe2-4c06-b0dd-052e5890e1bb"},"vehicle_type_id":"4","last_reported":1769969981,"current_range_meters":8400,"station_id":"ce4bgj12rcd13ifvqbc0","pricing_plan_id":"cebpf4jnsgd1na2vs0mg"},{"bike_id":"0de101f8-c36a-4927-bac8-482e81395b27","system_id":"levelo_inurba_marseille","lat":43.294451,"lon":5.397491,"is_reserved":false,"is_disabled":false,"rental_uris":{"android":"levelo://app?vid=0de101f8-c36a-4927-bac8-482e81395b27","ios":"levelo://app?vid=0de101f8-c36a-4927-bac8-482e81395b27"},"vehicle_type_id":"4","last_reported":1769969981,"current_range_meters":8400,"station_id":"ce4bh3h2rcd13ifvqdo0","pricing_plan_id":"cebpf4jnsgd1na2vs0mg"},{"bike_id":"e1d85e8f-816e-43e5-832f-fa3bb6c7d9fd","system_id":"levelo_inurba_marseille","lat":43.29817,"lon":5.44068,"is_reserved":false,"is_disabled":false,"rental_uris":{"android":"levelo://app?vid=e1d85e8f-816e-43e5-832f-fa3bb6c7d9fd","ios":"levelo://app?vid=e1d85e8f-816e-43e5-832f-fa3bb6c7d9fd"},"vehicle_type_id":"4","last_reported":1769969981,"current_range_meters":8400,"station_id":"st_d3jp68qikq2c7381ktn0","pricing_plan_id":"cebpf4jnsgd1na2vs0mg"},{"bike_id":"90cc7704-1d56-4c80-bbd3-26f6402cccdc","system_id":"levelo_inurba_marseille","lat":43.24946,"lon":5.4049,"is_reserved":false,"is_disabled":false,"rental_uris":{"android":"levelo://app?vid=90cc7704-1d56-4c80-bbd3-26f6402cccdc","ios":"levelo://app?vid=90cc7704-1d56-4c80-bbd3-26f6402cccdc"},"vehicle_type_id":"4","last_reported":1769969981,"current_range_meters":8400,"station_id":"st_d2ngiaodas8pm72gd1h0","pricing_plan_id":"cebpf4jnsgd1na2vs0mg"},{"bike_id":"4c50b102-00aa-40e2-83bd-5e90d2e54b17","system_id":"levelo_inurba_marseille","lat":43.27993,"lon":5.400049,"is_reserved":false,"is_disabled":false,"rental_uris":{"android":"levelo://app?vid=4c50b102-00aa-40e2-83bd-5e90d2e54b17","ios":"levelo://app?vid=4c50b102-00aa-40e2-83bd-5e90d2e54b17"},"vehicle_type_id":"4","last_reported":1769969981,"current_range_meters":8400,"station_id":"ce4bho92rcd13ifvqh4g","pricing_plan_id":"cebpf4jnsgd1na2vs0mg"},{"bike_id":"7499785d-acdd-4d7d-bbd1-2740108f97a0","system_id":"levelo_inurba_marseille","lat":43.247963,"lon":5.374526,"is_reserved":false,"is_disabled":false,"rental_uris":{"android":"levelo://app?vid=7499785d-acdd-4d7d-bbd1-2740108f97a0","ios":"levelo://app?vid=7499785d-acdd-4d7d-bbd1-2740108f97a0"},"vehicle_type_id":"4","last_reported":1769969981,"current_range_meters":8400,"station_id":"ce4bhgh2rcd13ifvqfb0","pricing_plan_id":"cebpf4jnsgd1na2vs0mg"},{"bike_id":"bb09783a-a390-4fda-b75a-eedd1b2b11f9","system_id":"levelo_inurba_marseille","lat":43.28615,"lon":5.35106,"is_reserved":false,"is_disabled":false,"rental_uris":{"android":"levelo://app?vid=bb09783a-a390-4fda-b75a-eedd1b2b11f9","ios":"levelo://app?vid=bb09783a-a390-4fda-b75a-eedd1b2b11f9"},"vehicle_type_id":"4","last_reported":1769969981,"current_range_meters":8400,"station_id":"ce4bhch2rcd13ifvqeug","pricing_plan_id":"cebpf4jnsgd1na2vs0mg"},{"bike_id":"6e279061-ada3-4f16-9322-54e8875987e2","system_id":"levelo_inurba_marseille","lat":43.29908,"lon":5.38134,"is_reserved":false,"is_disabled":false,"rental_uris":{"android":"levelo://app?vid=6e279061-ada3-4f16-9322-54e8875987e2","ios":"levelo://app?vid=6e279061-ada3-4f16-9322-54e8875987e2"},"vehicle_type_id":"4","last_reported":1769969981,"current_range_meters":8400,"station_id":"ce4bgj12rcd13ifvqbc0","pricing_plan_id":"cebpf4jnsgd1na2vs0mg"},{"bike_id":"b9a9097f-13d0-49a9-bb46-6f5237ccc9ec","system_id":"levelo_inurba_marseille","lat":43.27388,"lon":5.36252,"is_reserved":false,"is_disabled":false,"rental_uris":{"android":"levelo://app?vid=b9a9097f-13d0-49a9-bb46-6f5237ccc9ec","ios":"levelo://app?vid=b9a9097f-13d0-49a9-bb46-6f5237ccc9ec"},"vehicle_type_id":"4","last_reported":1769969981,"current_range_meters":8400,"station_id":"ce4bhbh2rcd13ifvqeo0","pricing_plan_id":"cebpf4jnsgd1na2vs0mg"},{"bike_id":"426c887f-f60f-40fd-94cb-61df12788dae","system_id":"levelo_inurba_marseille","lat":43.31054,"lon":5.3932,"is_reserved":false,"is_disabled":false,"rental_uris":{"android":"levelo://app?vid=426c887f-f60f-40fd-94cb-61df12788dae","ios":"levelo://app?vid=426c887f-f60f-40fd-94cb-61df12788dae"},"vehicle_type_id":"4","last_reported":1769969981,"current_range_meters":8400,"station_id":"","pricing_plan_id":"cebpf4jnsgd1na2vs0mg"},{"bike_id":"b5b569f9-d806-4557-88a9-6ec061d82cf9","system_id":"levelo_inurba_marseille","lat":43.29805,"lon":5.38105,"is_reserved":false,"is_disabled":false,"rental_uris":{"android":"levelo://app?vid=b5b569f9-d806-4557-88a9-6ec061d82cf9","ios":"levelo://app?vid=b5b569f9-d806-4557-88a9-6ec061d82cf9"},"vehicle_type_id":"4","last_reported":1769969981,"current_range_meters":8400,"station_id":"ce4bgip2rcd13ifvqbb0","pricing_plan_id":"cebpf4jnsgd1na2vs0mg"},{"bike_id":"1cde31b2-943f-44e5-a2bc-11e7dbffc182","system_id":"levelo_inurba_marseille","lat":43.29266,"lon":5.38445,"is_reserved":false,"is_disabled":false,"rental_uris":{"android":"levelo://app?vid=1cde31b2-943f-44e5-a2bc-11e7dbffc182","ios":"levelo://app?vid=1cde31b2-943f-44e5-a2bc-11e7dbffc182"},"vehicle_type_id":"4","last_reported":1769969981,"current_range_meters":8400,"station_id":"ce4bh692rcd13ifvqea0","pricing_plan_id":"cebpf4jnsgd1na2vs0mg"},{"bike_id":"71152f12-286e-42a6-8f55-eb19f9e283b7","system_id":"levelo_inurba_marseille","lat":43.29486,"lon":5.43305,"is_reserved":false,"is_disabled":false,"rental_uris":{"android":"levelo://app?vid=71152f12-286e-42a6-8f55-eb19f9e283b7","ios":"levelo://app?vid=71152f12-286e-42a6-8f55-eb19f9e283b7"},"vehicle_type_id":"4","last_reported":1769969981,"current_range_meters":8400,"station_id":"st_d3j5ugp08ojc73fj9d10","pricing_plan_id":"cebpf4jnsgd1na2vs0mg"},{"bike_id":"48defe86-fd01-4bdf-bb58-0b96240d5da2","system_id":"levelo_inurba_marseille","lat":43.28476,"lon":5.48397,"is_reserved":false,"is_disabled":false,"rental_uris":{"android":"levelo://app?vid=48defe86-fd01-4bdf-bb58-0b96240d5da2","ios":"levelo://app?vid=48defe86-fd01-4bdf-bb58-0b96240d5da2"},"vehicle_type_id":"4","last_reported":1769969981,"current_range_meters":8400,"station_id":"st_d3svhcjqgbts73a3dn0g","pricing_plan_id":"cebpf4jnsgd1na2vs0mg"},{"bike_id":"0f50e352-4e9f-4bc1-85f5-056cf06c966f","system_id":"levelo_inurba_marseille","lat":43.29624,"lon":5.37728,"is_reserved":false,"is_disabled":false,"rental_uris":{"android":"levelo://app?vid=0f50e352-4e9f-4bc1-85f5-056cf06c966f","ios":"levelo://app?vid=0f50e352-4e9f-4bc1-85f5-056cf06c966f"},"vehicle_type_id":"4","last_reported":1769969981,"current_range_meters":8800,"station_id":"ce4bgi92rcd13ifvqb90","pricing_plan_id":"cebpf4jnsgd1na2vs0mg"},{"bike_id":"c908c76d-5841-48a6-bd50-48ef6a9cf886","system_id":"levelo_inurba_marseille","lat":43.32495,"lon":5.38305,"is_reserved":false,"is_disabled":false,"rental_uris":{"android":"levelo://app?vid=c908c76d-5841-48a6-bd50-48ef6a9cf886","ios":"levelo://app?vid=c908c76d-5841-48a6-bd50-48ef6a9cf886"},"vehicle_type_id":"4","last_reported":1769969981,"current_range_meters":8800,"station_id":"st_d4asgbiv49dc73anf9m0","pricing_plan_id":"cebpf4jnsgd1na2vs0mg"},{"bike_id":"e09e2717-153b-489f-b446-f480f14d97b2","system_id":"levelo_inurba_marseille","lat":43.27961,"lon":5.41041,"is_reserved":false,"is_disabled":false,"rental_uris":{"android":"levelo://app?vid=e09e2717-153b-489f-b446-f480f14d97b2","ios":"levelo://app?vid=e09e2717-153b-489f-b446-f480f14d97b2"},"vehicle_type_id":"4","last_reported":1769969981,"current_range_meters":8800,"station_id":"ce4bhnp2rcd13ifvqh0g","pricing_plan_id":"cebpf4jnsgd1na2vs0mg"},{"bike_id":"915f07f8-71e8-442d-9fd7-f7e4f42ace83","system_id":"levelo_inurba_marseille","lat":43.23793,"lon":5.36626,"is_reserved":false,"is_disabled":false,"rental_uris":{"android":"levelo://app?vid=915f07f8-71e8-442d-9fd7-f7e4f42ace83","ios":"levelo://app?vid=915f07f8-71e8-442d-9fd7-f7e4f42ace83"},"vehicle_type_id":"4","last_reported":1769969981,"current_range_meters":8800,"station_id":"st_d3nk18o9ro0c73en2l3g","pricing_plan_id":"cebpf4jnsgd1na2vs0mg"},{"bike_id":"5c9ef28b-edc5-47e0-bc16-10eba66b2629","system_id":"levelo_inurba_marseille","lat":43.291016,"lon":5.381263,"is_reserved":false,"is_disabled":false,"rental_uris":{"android":"levelo://app?vid=5c9ef28b-edc5-47e0-bc16-10eba66b2629","ios":"levelo://app?vid=5c9ef28b-edc5-47e0-bc16-10eba66b2629"},"vehicle_type_id":"4","last_reported":1769969981,"current_range_meters":8800,"station_id":"ce4bh512rcd13ifvqe2g","pricing_plan_id":"cebpf4jnsgd1na2vs0mg"},{"bike_id":"c6e0ebb0-23b1-4303-abfe-64a4c571d6a5","system_id":"levelo_inurba_marseille","lat":43.26575,"lon":5.39013,"is_reserved":false,"is_disabled":false,"rental_uris":{"android":"levelo://app?vid=c6e0ebb0-23b1-4303-abfe-64a4c571d6a5","ios":"levelo://app?vid=c6e0ebb0-23b1-4303-abfe-64a4c571d6a5"},"vehicle_type_id":"4","last_reported":1769969981,"current_range_meters":8800,"station_id":"ce4bhe12rcd13ifvqf30","pricing_plan_id":"cebpf4jnsgd1na2vs0mg"},{"bike_id":"cda7d8d9-ec08-4ba8-ab16-db0e7515076a","system_id":"levelo_inurba_marseille","lat":43.29025,"lon":5.38648,"is_reserved":false,"is_disabled":false,"rental_uris":{"android":"levelo://app?vid=cda7d8d9-ec08-4ba8-ab16-db0e7515076a","ios":"levelo://app?vid=cda7d8d9-ec08-4ba8-ab16-db0e7515076a"},"vehicle_type_id":"4","last_reported":1769969981,"current_range_meters":8800,"station_id":"ce4bh4p2rcd13ifvqe0g","pricing_plan_id":"cebpf4jnsgd1na2vs0mg"},{"bike_id":"8e479c4c-f95e-4e59-acb0-f1005eec9b92","system_id":"levelo_inurba_marseille","lat":43.29259,"lon":5.38448,"is_reserved":false,"is_disabled":false,"rental_uris":{"android":"levelo://app?vid=8e479c4c-f95e-4e59-acb0-f1005eec9b92","ios":"levelo://app?vid=8e479c4c-f95e-4e59-acb0-f1005eec9b92"},"vehicle_type_id":"4","last_reported":1769969981,"current_range_meters":8800,"station_id":"ce4bh692rcd13ifvqea0","pricing_plan_id":"cebpf4jnsgd1na2vs0mg"},{"bike_id":"d64baf67-1a62-4b86-9aae-88e7781f3b30","system_id":"levelo_inurba_marseille","lat":43.23182,"lon":5.39986,"is_reserved":false,"is_disabled":false,"rental_uris":{"android":"levelo://app?vid=d64baf67-1a62-4b86-9aae-88e7781f3b30","ios":"levelo://app?vid=d64baf67-1a62-4b86-9aae-88e7781f3b30"},"vehicle_type_id":"4","last_reported":1769969981,"current_range_meters":8800,"station_id":"ce4bhn12rcd13ifvqgqg","pricing_plan_id":"cebpf4jnsgd1na2vs0mg"},{"bike_id":"4d614b31-2487-459c-80b4-20568895cab0","system_id":"levelo_inurba_marseille","lat":43.2402,"lon":5.37791,"is_reserved":false,"is_disabled":true,"rental_uris":{"android":"levelo://app?vid=4d614b31-2487-459c-80b4-20568895cab0","ios":"levelo://app?vid=4d614b31-2487-459c-80b4-20568895cab0"},"vehicle_type_id":"4","last_reported":1769969981,"current_range_meters":8800,"station_id":"ce4bhnp2rcd13ifvqgvg","pricing_plan_id":"cebpf4jnsgd1na2vs0mg"},{"bike_id":"fff7e7d9-a5a2-4648-8c64-acd8db891467","system_id":"levelo_inurba_marseille","lat":43.26231,"lon":5.40458,"is_reserved":false,"is_disabled":true,"rental_uris":{"android":"levelo://app?vid=fff7e7d9-a5a2-4648-8c64-acd8db891467","ios":"levelo://app?vid=fff7e7d9-a5a2-4648-8c64-acd8db891467"},"vehicle_type_id":"4","last_reported":1769969981,"current_range_meters":8800,"station_id":"ce4bhmh2rcd13ifvqgmg","pricing_plan_id":"cebpf4jnsgd1na2vs0mg"},{"bike_id":"ead9d525-178d-43f7-b202-498aac541976","system_id":"levelo_inurba_marseille","lat":43.22566,"lon":5.41646,"is_reserved":false,"is_disabled":false,"rental_uris":{"android":"levelo://app?vid=ead9d525-178d-43f7-b202-498aac541976","ios":"levelo://app?vid=ead9d525-178d-43f7-b202-498aac541976"},"vehicle_type_id":"4","last_reported":1769969981,"current_range_meters":8800,"station_id":"st_d2o4gvlbi1j2169b742g","pricing_plan_id":"cebpf4jnsgd1na2vs0mg"},