{"last_updated":1771423222,"ttl":60,"version":"2.2","data":{"bikes":[{"bike_id":"0d8f60b5-7d2d-4641-b40a-9554efa1a326","system_id":"levelo_inurba_marseille","lat":43.24966,"lon":5.40512,"is_reserved":false,"is_disabled":false,"rental_uris":{"android":"levelo://app?vid=0d8f60b5-7d2d-4641-b40a-9554efa1a326","ios":"levelo://app?vid=0d8f60b5-7d2d-4641-b40a-9554efa1a326"},"vehicle_type_id":"4","last_reported":1771423223,"current_range_meters":27200,"station_id":"st_d2ngiaodas8pm72gd1h0","pricing_plan_id":"cebpf4jnsgd1na2vs0mg"},{"bike_id":"72613868-2e26-467b-a691-a6420c515b4c","system_id":"levelo_inurba_marseille","lat":43.30161,"lon":5.38779,"is_reserved":false,"is_disabled":false,"rental_uris":{"android":"levelo://app?vid=72613868-2e26-467b-a691-a6420c515b4c","ios":"levelo://app?vid=72613868-2e26-467b-a691-a6420c515b4c"},"vehicle_type_id":"4","last_reported":1771423223,"current_range_meters":19600,"station_id":"ce4bghh2rcd13ifvqb60","pricing_plan_id":"cebpf4jnsgd1na2vs0mg"},{"bike_id":"f56469d6-156e-4dc9-9c3e-3416ed76c4ba","system_id":"levelo_inurba_marseille","lat":43.33166,"lon":5.37686,"is_reserved":false,"is_disabled":false,"rental_uris":{"android":"levelo://app?vid=f56469d6-156e-4dc9-9c3e-3416ed76c4ba","ios":"levelo://app?vid=f56469d6-156e-4dc9-9c3e-3416ed76c4ba"},"vehicle_type_id":"4","last_reported":1771423223,"current_range_meters":25600,"station_id":"st_d46cu089ee8s73dldbu0","pricing_plan_id":"cebpf4jnsgd1na2vs0mg"},{"bike_id":"6fdf3c0c-e2fd-48ef-ba20-cd96942d8a55","system_id":"levelo_inurba_marseille","lat":43.26229,"lon":5.40453,"is_reserved":false,"is_disabled":false,"rental_uris":{"android":"levelo://app?vid=6fdf3c0c-e2fd-48ef-ba20-cd96942d8a55","ios":"levelo://app?vid=6fdf3c0c-e2fd-48ef-ba20-cd96942d8a55"},"vehicle_type_id":"4","last_reported":1771423223,"current_range_meters":16800,"station_id":"ce4bhmh2rcd13ifvqgmg","pricing_plan_id":"cebpf4jnsgd1na2vs0mg"},{"bike_id":"d2855836-f19f-4be4-8f1e-9aea92729b43","system_id":"levelo_inurba_marseille","lat":43.282384,"lon":5.350666,"is_reserved":false,"is_disabled":false,"rental_uris":{"android":"levelo://app?vid=d2855836-f19f-4be4-8f1e-9aea92729b43","ios":"levelo://app?vid=d2855836-f19f-4be4-8f1e-9aea92729b43"},"vehicle_type_id":"4","last_reported":1771423223,"current_range_meters":14800,"station_id":"ce4bhbp2rcd13ifvqerg","pricing_plan_id":"cebpf4jnsgd1na2vs0mg"},{"bike_id":"9f4a73af-cbba-4b98-906a-d98ba0517574","system_id":"levelo_inurba_marseille","lat":43.26557,"lon":5.373,"is_reserved":false,"is_disabled":false,"rental_uris":{"android":"levelo://app?vid=9f4a73af-cbba-4b98-906a-d98ba0517574","ios":"levelo://app?vid=9f4a73af-cbba-4b98-906a-d98ba0517574"},"vehicle_type_id":"4","last_reported":1771423223,"current_range_meters":34800,"station_id":"ce4bhg12rcd13ifvqf70","pricing_plan_id":"cebpf4jnsgd1na2vs0mg"},{"bike_id":"8edd566c-9374-439c-ba80-1121ac81978b","system_id":"levelo_inurba_marseille","lat":43.27935,"lon":5.41043,"is_reserved":false,"is_disabled":false,"rental_uris":{"android":"levelo://app?vid=8edd566c-9374-439c-ba80-1121ac81978b","ios":"levelo://app?vid=8edd566c-9374-439c-ba80-1121ac81978b"},"vehicle_type_id":"4","last_reported":1771423223,"current_range_meters":6000,"station_id":"ce4bhnp2rcd13ifvqh0g","pricing_plan_id":"cebpf4jnsgd1na2vs0mg"},{"bike_id":"df2b51b8-6266-41bb-a3ab-a4dcd1fc3155","system_id":"levelo_inurba_marseille","lat":43.304207,"lon":5.412811,"is_reserved":false,"is_disabled":false,"rental_uris":{"android":"levelo://app?vid=df2b51b8-6266-41bb-a3ab-a4dcd1fc3155","ios":"levelo://app?vid=df2b51b8-6266-41bb-a3ab-a4dcd1fc3155"},"vehicle_type_id":"4","last_reported":1771423223,"current_range_meters":3600,"station_id":"ce4bhop2rcd13ifvqh8g","pricing_plan_id":"cebpf4jnsgd1na2vs0mg"},{"bike_id":"37b7f341-16d7-4eb9-9d63-c0dc411fcc94","system_id":"levelo_inurba_marseille","lat":43.24196,"lon":5.39721,"is_reserved":false,"is_disabled":false,"rental_uris":{"android":"levelo://app?vid=37b7f341-16d7-4eb9-9d63-c0dc411fcc94","ios":"levelo://app?vid=37b7f341-16d7-4eb9-9d63-c0dc411fcc94"},"vehicle_type_id":"4","last_reported":1771423223,"current_range_meters":22800,"station_id":"ce4bhn12rcd13ifvqgpg","pricing_plan_id":"cebpf4jnsgd1na2vs0mg"},{"bike_id":"d2bb17c7-6558-4b9c-ae8a-0d2292552853","system_id":"levelo_inurba_marseille","lat":43.28497,"lon":5.48366,"is_reserved":false,"is_disabled":false,"rental_uris":{"android":"levelo://app?vid=d2bb17c7-6558-4b9c-ae8a-0d2292552853","ios":"levelo://app?vid=d2bb17c7-6558-4b9c-ae8a-0d2292552853"},"vehicle_type_id":"4","last_reported":1771423223,"current_range_meters":38000,"station_id":"","pricing_plan_id":"cebpf4jnsgd1na2vs0mg"},{"bike_id":"da4093a5-6673-43a8-b7ee-b4859a45cac4","system_id":"levelo_inurba_marseille","lat":43.24394,"lon":5.37074,"is_reserved":false,"is_disabled":false,"rental_uris":{"android":"levelo://app?vid=da4093a5-6673-43a8-b7ee-b4859a45cac4","ios":"levelo://app?vid=da4093a5-6673-43a8-b7ee-b4859a45cac4"},"vehicle_type_id":"4","last_reported":1771423223,"current_range_meters":8800,"station_id":"ce4bhhh2rcd13ifvqfk0","pricing_plan_id":"cebpf4jnsgd1na2vs0mg"},{"bike_id":"c68ee61e-e73b-4a40-9338-bbc32d0135df","system_id":"levelo_inurba_marseille","lat":43.30482,"lon":5.37908,"is_reserved":false,"is_disabled":false,"rental_uris":{"android":"levelo://app?vid=c68ee61e-e73b-4a40-9338-bbc32d0135df","ios":"levelo://app?vid=c68ee61e-e73b-4a40-9338-bbc32d0135df"},"vehicle_type_id":"4","last_reported":1771423223,"current_range_meters":25600,"station_id":"ce4bgup2rcd13ifvqcn0","pricing_plan_id":"cebpf4jnsgd1na2vs0mg"},{"bike_id":"098e5456-b55d-4935-8641-5b057fa522f6","system_id":"levelo_inurba_marseille","lat":43.29944,"lon":5.36531,"is_reserved":false,"is_disabled":false,"rental_uris":{"android":"levelo://app?vid=098e5456-b55d-4935-8641-5b057fa522f6","ios":"levelo://app?vid=098e5456-b55d-4935-8641-5b057fa522f6"},"vehicle_type_id":"4","last_reported":1771423223,"current_range_meters":18800,"station_id":"ce4bgm92rcd13ifvqbr0","pricing_plan_id":"cebpf4jnsgd1na2vs0mg"},{"bike_id":"f3db919d-26f4-49f5-8c5c-0a908e0444ca","system_id":"levelo_inurba_marseille","lat":43.28957,"lon":5.37869,"is_reserved":false,"is_disabled":false,"rental_uris":{"android":"levelo://app?vid=f3db919d-26f4-49f5-8c5c-0a908e0444ca","ios":"levelo://app?vid=f3db919d-26f4-49f5-8c5c-0a908e0444ca"},"vehicle_type_id":"4","last_reported":1771423223,"current_range_meters":4800,"station_id":"ce4bh9p2rcd13ifvqed0","pricing_plan_id":"cebpf4jnsgd1na2vs0mg"},{"bike_id":"6ea2f9d9-85e7-458e-acf1-457e5caa82ce","system_id":"levelo_inurba_marseille","lat":43.29026,"lon":5.3812,"is_reserved":false,"is_disabled":false,"rental_uris":{"android":"levelo://app?vid=6ea2f9d9-85e7-458e-acf1-457e5caa82ce","ios":"levelo://app?vid=6ea2f9d9-85e7-458e-acf1-457e5caa82ce"},"vehicle_type_id":"4","last_reported":1771423223,"current_range_meters":36800,"station_id":"ce4bh4p2rcd13ifvqe1g","pricing_plan_id":"cebpf4jnsgd1na2vs0mg"},{"bike_id":"786ea790-1b16-419a-9211-d21135bd80e8","system_id":"levelo_inurba_marseille","lat":43.26228,"lon":5.37432,"is_reserved":false,"is_disabled":false,"rental_uris":{"android":"levelo://app?vid=786ea790-1b16-419a-9211-d21135bd80e8","ios":"levelo://app?vid=786ea790-1b16-419a-9211-d21135bd80e8"},"vehicle_type_id":"4","last_reported":1771423223,"current_range_meters":3600,"station_id":"ce4bhgp2rcd13ifvqfc0","pricing_plan_id":"cebpf4jnsgd1na2vs0mg"},{"bike_id":"351bcd66-96e5-4e62-ae12-2c87a2f81846","system_id":"levelo_inurba_marseille","lat":43.27563,"lon":5.38419,"is_reserved":false,"is_disabled":false,"rental_uris":{"android":"levelo://app?vid=351bcd66-96e5-4e62-ae12-2c87a2f81846","ios":"levelo://app?vid=351bcd66-96e5-4e62-ae12-2c87a2f81846"},"vehicle_type_id":"4","last_reported":1771423223,"current_range_meters":21600,"station_id":"ce4bhh92rcd13ifvqfi0","pricing_plan_id":"cebpf4jnsgd1na2vs0mg"},{"bike_id":"995dd4aa-d943-4547-aee8-c3325bdb05ae","system_id":"levelo_inurba_marseille","lat":43.31297,"lon":5.40131,"is_reserved":false,"is_disabled":true,"rental_uris":{"android":"levelo://app?vid=995dd4aa-d943-4547-aee8-c3325bdb05ae","ios":"levelo://app?vid=995dd4aa-d943-4547-aee8-c3325bdb05ae"},"vehicle_type_id":"4","last_reported":1771423223,"current_range_meters":25600,"station_id":"ce4bh092rcd13ifvqd30","pricing_plan_id":"cebpf4jnsgd1na2vs0mg"},{"bike_id":"faecdf78-8109-4d36-933f-5c27a14446f1","system_id":"levelo_inurba_marseille","lat":43.29043,"lon":5.39968,"is_reserved":false,"is_disabled":false,"rental_uris":{"android":"levelo://app?vid=faecdf78-8109-4d36-933f-5c27a14446f1","ios":"levelo://app?vid=faecdf78-8109-4d36-933f-5c27a14446f1"},"vehicle_type_id":"4","last_reported":1771423223,"current_range_meters":38000,"station_id":"ce4bh392rcd13ifvqdm0","pricing_plan_id":"cebpf4jnsgd1na2vs0mg"},{"bike_id":"b9bf90bb-42ac-4ca0-a9ca-05ae535f415b","system_id":"levelo_inurba_marseille","lat":43.30538,"lon":5.36707,"is_reserved":false,"is_disabled":false,"rental_uris":{"android":"levelo://app?vid=b9bf90bb-42ac-4ca0-a9ca-05ae535f415b","ios":"levelo://app?vid=b9bf90bb-42ac-4ca0-a9ca-05ae535f415b"},"vehicle_type_id":"4","last_reported":1771423223,"current_range_meters":38400,"station_id":"ce4bgrp2rcd13ifvqc9g","pricing_plan_id":"cebpf4jnsgd1na2vs0mg"},{"bike_id":"a6c518a1-74d1-4af5-9a18-31b671e676af","system_id":"levelo_inurba_marseille","lat":43.295272,"lon":5.39051,"is_reserved":false,"is_disabled":false,"rental_uris":{"android":"levelo://app?vid=a6c518a1-74d1-4af5-9a18-31b671e676af","ios":"levelo://app?vid=a6c518a1-74d1-4af5-9a18-31b671e676af"},"vehicle_type_id":"4","last_reported":1771423223,"current_range_meters":4800,"station_id":"","pricing_plan_id":"cebpf4jnsgd1na2vs0mg"},{"bike_id":"78300cd2-3d23-4031-97ed-d6e4990ebaf8","system_id":"levelo_inurba_marseille","lat":43.29286,"lon":5.38307,"is_reserved":false,"is_disabled":false,"rental_uris":{"android":"levelo://app?vid=78300cd2-3d23-4031-97ed-d6e4990ebaf8","ios":"levelo://app?vid=78300cd2-3d23-4031-97ed-d6e4990ebaf8"},"vehicle_type_id":"4","last_reported":1771423223,"current_range_meters":12800,"station_id":"","pricing_plan_id":"cebpf4jnsgd1na2vs0mg"},{"bike_id":"97e5b8bb-9ce2-4a3e-b4a9-8b7acc5a9dcc","system_id":"levelo_inurba_marseille","lat":43.29232,"lon":5.36056,"is_reserved":false,"is_disabled":false,"rental_uris":{"android":"levelo://app?vid=97e5b8bb-9ce2-4a3e-b4a9-8b7acc5a9dcc","ios":"levelo://app?vid=97e5b8bb-9ce2-4a3e-b4a9-8b7acc5a9dcc"},"vehicle_type_id":"4","last_reported":1771423223,"current_range_meters":33200,"station_id":"ce4bhbh2rcd13ifvqeqg","pricing_plan_id":"cebpf4jnsgd1na2vs0mg"},{"bike_id":"c0be5c69-d4d0-408f-9686-7f71cf6f7bc9","system_id":"levelo_inurba_marseille","lat":43.29288,"lon":5.37632,"is_reserved":false,"is_disabled":false,"rental_uris":{"android":"levelo://app?vid=c0be5c69-d4d0-408f-9686-7f71cf6f7bc9","ios":"levelo://app?vid=c0be5c69-d4d0-408f-9686-7f71cf6f7bc9"},"vehicle_type_id":"4","last_reported":1771423223,"current_range_meters":20400,"station_id":"ce4bgi12rcd13ifvqb80","pricing_plan_id":"cebpf4jnsgd1na2vs0mg"},{"bike_id":"0b0e423c-db6c-414d-8673-81468a2b7d18","system_id":"levelo_inurba_marseille","lat":43.25906,"lon":5.40895,"is_reserved":false,"is_disabled":false,"rental_uris":{"android":"levelo://app?vid=0b0e423c-db6c-414d-8673-81468a2b7d18","ios":"levelo://app?vid=0b0e423c-db6c-414d-8673-81468a2b7d18"},"vehicle_type_id":"4","last_reported":1771423223,"current_range_meters":33200,"station_id":"ce4bhm92rcd13ifvqglg","pricing_plan_id":"cebpf4jnsgd1na2vs0mg"},{"bike_id":"9daa25c7-d524-46ae-8d41-0a3c36c8c2a4","system_id":"levelo_inurba_marseille","lat":43.290421,"lon":5.399478,"is_reserved":false,"is_disabled":true,"rental_uris":{"android":"levelo://app?vid=9daa25c7-d524-46ae-8d41-0a3c36c8c2a4","ios":"levelo://app?vid=9daa25c7-d524-46ae-8d41-0a3c36c8c2a4"},"vehicle_type_id":"4","last_reported":1771423223,"current_range_meters":20400,"station_id":"ce4bh392rcd13ifvqdm0","pricing_plan_id":"cebpf4jnsgd1na2vs0mg"},{"bike_id":"748e0f94-1d84-4e99-a2d8-3ed4f6188416","system_id":"levelo_inurba_marseille","lat":43.25056,"lon":5.40372,"is_reserved":false,"is_disabled":false,"rental_uris":{"android":"levelo://app?vid=748e0f94-1d84-4e99-a2d8-3ed4f6188416","ios":"levelo://app?vid=748e0f94-1d84-4e99-a2d8-3ed4f6188416"},"vehicle_type_id":"4","last_reported":1771423223,"current_range_meters":36800,"station_id":"","pricing_plan_id":"cebpf4jnsgd1na2vs0mg"},{"bike_id":"09d4aefd-adc3-4f75-8707-0e43c5622ccd","system_id":"levelo_inurba_marseille","lat":43.30286,"lon":5.377,"is_reserved":false,"is_disabled":false,"rental_uris":{"android":"levelo://app?vid=09d4aefd-adc3-4f75-8707-0e43c5622ccd","ios":"levelo://app?vid=09d4aefd-adc3-4f75-8707-0e43c5622ccd"},"vehicle_type_id":"4","last_reported":1771423223,"current_range_meters":22000,"station_id":"ce4bguh2rcd13ifvqcj0","pricing_plan_id":"cebpf4jnsgd1na2vs0mg"},{"bike_id":"aadc594e-5343-41d4-86e4-ef868a6f09de","system_id":"levelo_inurba_marseille","lat":43.2954,"lon":5.42283,"is_reserved":false,"is_disabled":false,"rental_uris":{"android":"levelo://app?vid=aadc594e-5343-41d4-86e4-ef868a6f09de","ios":"levelo://app?vid=aadc594e-5343-41d4-86e4-ef868a6f09de"},"vehicle_type_id":"4","last_reported":1771423223,"current_range_meters":17200,"station_id":"ce4bhph2rcd13ifvqhdg","pricing_plan_id":"cebpf4jnsgd1na2vs0mg"},{"bike_id":"f2d30de6-4c83-468b-9ea0-b4022ee843f0","system_id":"levelo_inurba_marseille","lat":43.32351,"lon":5.36702,"is_reserved":false,"is_disabled":false,"rental_uris":{"android":"levelo://app?vid=f2d30de6-4c83-468b-9ea0-b4022ee843f0","ios":"levelo://app?vid=f2d30de6-4c83-468b-9ea0-b4022ee843f0"},"vehicle_type_id":"4","last_reported":1771423223,"current_range_meters":28400,"station_id":"ce4bhsh2rcd13ifvqi2g","pricing_plan_id":"cebpf4jnsgd1na2vs0mg"},{"bike_id":"c2601411-1596-4294-8a6c-6b3d2a9b9b83","system_id":"levelo_inurba_marseille","lat":43.30305,"lon":5.36889,"is_reserved":false,"is_disabled":false,"rental_uris":{"android":"levelo://app?vid=c2601411-1596-4294-8a6c-6b3d2a9b9b83","ios":"levelo://app?vid=c2601411-1596-4294-8a6c-6b3d2a9b9b83"},"vehicle_type_id":"4","last_reported":1771423223,"current_range_meters":35600,"station_id":"ce4bgqh2rcd13ifvqc5g","pricing_plan_id":"cebpf4jnsgd1na2vs0mg"},{"bike_id":"086329f7-9695-4e95-9918-9c8fb0248f27","system_id":"levelo_inurba_marseille","lat":43.29739,"lon":5.37668,"is_reserved":false,"is_disabled":false,"rental_uris":{"android":"levelo://app?vid=086329f7-9695-4e95-9918-9c8fb0248f27","ios":"levelo://app?vid=086329f7-9695-4e95-9918-9c8fb0248f27"},"vehicle_type_id":"4","last_reported":1771423223,"current_range_meters":36800,"station_id":"ce4bgkh2rcd13ifvqbl0","pricing_plan_id":"cebpf4jnsgd1na2vs0mg"},{"bike_id":"c12a3f3f-ee09-4692-a697-721eb5841563","system_id":"levelo_inurba_marseille","lat":43.30187,"lon":5.36606,"is_reserved":false,"is_disabled":false,"rental_uris":{"android":"levelo://app?vid=c12a3f3f-ee09-4692-a697-721eb5841563","ios":"levelo://app?vid=c12a3f3f-ee09-4692-a697-721eb5841563"},"vehicle_type_id":"4","last_reported":1771423223,"current_range_meters":40000,"station_id":"ce4bgrh2rcd13ifvqc8g","pricing_plan_id":"cebpf4jnsgd1na2vs0mg"},{"bike_id":"e071cb6b-00dd-46cc-bbae-0c336769674f","system_id":"levelo_inurba_marseille","lat":43.26495,"lon":5.39549,"is_reserved":false,"is_disabled":false,"rental_uris":{"android":"levelo://app?vid=e071cb6b-00dd-46cc-bbae-0c336769674f","ios":"levelo://app?vid=e071cb6b-00dd-46cc-bbae-0c336769674f"},"vehicle_type_id":"4","last_reported":1771423223,"current_range_meters":32800,"station_id":"ce4bhi12rcd13ifvqfq0","pricing_plan_id":"cebpf4jnsgd1na2vs0mg"},{"bike_id":"01c62984-a2ae-4489-84a9-6a173aa3a0f3","system_id":"levelo_inurba_marseille","lat":43.31202,"lon":5.36876,"is_reserved":false,"is_disabled":true,"rental_uris":{"android":"levelo://app?vid=01c62984-a2ae-4489-84a9-6a173aa3a0f3","ios":"levelo://app?vid=01c62984-a2ae-4489-84a9-6a173aa3a0f3"},"vehicle_type_id":"4","last_reported":1771423223,"current_range_meters":34800,"station_id":"ce4bgl92rcd13ifvqbq0","pricing_plan_id":"cebpf4jnsgd1na2vs0mg"},{"bike_id":"38874f42-0e79-4ca1-88f3-c7e2665a250d","system_id":"levelo_inurba_marseille","lat":43.26194,"lon":5.37449,"is_reserved":false,"is_disabled":false,"rental_uris":{"android":"levelo://app?vid=38874f42-0e79-4ca1-88f3-c7e2665a250d","ios":"levelo://app?vid=38874f42-0e79-4ca1-88f3-c7e2665a250d"},"vehicle_type_id":"4","last_reported":1771423223,"current_range_meters":33200,"station_id":"ce4bhgp2rcd13ifvqfc0","pricing_plan_id":"cebpf4jnsgd1na2vs0mg"},{"bike_id":"e9c8c195-4938-4494-9005-66aa872cbce1","system_id":"levelo_inurba_marseille","lat":43.31211,"lon":5.36844,"is_reserved":false,"is_disabled":false,"rental_uris":{"android":"levelo://app?vid=e9c8c195-4938-4494-9005-66aa872cbce1","ios":"levelo://app?vid=e9c8c195-4938-4494-9005-66aa872cbce1"},"vehicle_type_id":"4","last_reported":1771423223,"current_range_meters":16800,"station_id":"ce4bgl92rcd13ifvqbq0","pricing_plan_id":"cebpf4jnsgd1na2vs0mg"},{"bike_id":"b0447951-c1c0-4cd2-a886-8a9420a4eef0","system_id":"levelo_inurba_marseille","lat":43.30369,"lon":5.41861,"is_reserved":false,"is_disabled":false,"rental_uris":{"android":"levelo://app?vid=b0447951-c1c0-4cd2-a886-8a9420a4eef0","ios":"levelo://app?vid=b0447951-c1c0-4cd2-a886-8a9420a4eef0"},"vehicle_type_id":"4","last_reported":1771423223,"current_range_meters":28400,"station_id":"ce4bhop2rcd13ifvqh7g","pricing_plan_id":"cebpf4jnsgd1na2vs0mg"},{"bike_id":"71141714-b816-47ee-a7e8-73e3eddd920c","system_id":"levelo_inurba_marseille","lat":43.28449,"lon":5.39178,"is_reserved":false,"is_disabled":false,"rental_uris":{"android":"levelo://app?vid=71141714-b816-47ee-a7e8-73e3eddd920c","ios":"levelo://app?vid=71141714-b816-47ee-a7e8-73e3eddd920c"},"vehicle_type_id":"4","last_reported":1771423223,"current_range_meters":38800,"station_id":"ce4bhoh2rcd13ifvqh5g","pricing_plan_id":"cebpf4jnsgd1na2vs0mg"},{"bike_id":"a2aac6db-ff2a-410f-9224-52b6b4391027","system_id":"levelo_inurba_marseille","lat":43.25108,"lon":5.40331,"is_reserved":false,"is_disabled":false,"rental_uris":{"android":"levelo://app?vid=a2aac6db-ff2a-410f-9224-52b6b4391027","ios":"levelo://app?vid=a2aac6db-ff2a-410f-9224-52b6b4391027"},"vehicle_type_id":"4","last_reported":1771423223,"current_range_meters":28000,"station_id":"ce4bhlh2rcd13ifvqgig","pricing_plan_id":"cebpf4jnsgd1na2vs0mg"},{"bike_id":"efd627f9-2697-4f93-b988-afd524e58316","system_id":"levelo_inurba_marseille","lat":43.28714,"lon":5.40003,"is_reserved":false,"is_disabled":false,"rental_uris":{"android":"levelo://app?vid=efd627f9-2697-4f93-b988-afd524e58316","ios":"levelo://app?vid=efd627f9-2697-4f93-b988-afd524e58316"},"vehicle_type_id":"4","last_reported":1771423223,"current_range_meters":30800,"station_id":"ce4bho92rcd13ifvqh3g","pricing_plan_id":"cebpf4jnsgd1na2vs0mg"},{"bike_id":"81d0320a-a61a-4244-81e4-d2e5c4269b7c","system_id":"levelo_inurba_marseille","lat":43.25595,"lon":5.38234,"is_reserved":false,"is_disabled":false,"rental_uris":{"android":"levelo://app?vid=81d0320a-a61a-4244-81e4-d2e5c4269b7c","ios":"levelo://app?vid=81d0320a-a61a-4244-81e4-d2e5c4269b7c"},"vehicle_type_id":"4","last_reported":1771423223,"current_range_meters":14400,"station_id":"ce4bhih2rcd13ifvqfs0","pricing_plan_id":"cebpf4jnsgd1na2vs0mg"},{"bike_id":"06df2014-e9a7-4eea-a10c-90e91f6aa7ca","system_id":"levelo_inurba_marseille","lat":43.2649,"lon":5.39554,"is_reserved":false,"is_disabled":false,"rental_uris":{"android":"levelo://app?vid=06df2014-e9a7-4eea-a10c-90e91f6aa7ca","ios":"levelo://app?vid=06df2014-e9a7-4eea-a10c-90e91f6aa7ca"},"vehicle_type_id":"4","last_reported":1771423223,"current_range_meters":32000,"station_id":"ce4bhi12rcd13ifvqfq0","pricing_plan_id":"cebpf4jnsgd1na2vs0mg"},{"bike_id":"d2fb2733-88e8-46aa-a903-dc7e062bbe51","system_id":"levelo_inurba_marseille","lat":43.26057,"lon":5.39385,"is_reserved":false,"is_disabled":true,"rental_uris":{"android":"levelo://app?vid=d2fb2733-88e8-46aa-a903-dc7e062bbe51","ios":"levelo://app?vid=d2fb2733-88e8-46aa-a903-dc7e062bbe51"},"vehicle_type_id":"4","last_reported":1771423223,"current_range_meters":5600,"station_id":"ce4bhh92rcd13ifvqfj0","pricing_plan_id":"cebpf4jnsgd1na2vs0mg"},{"bike_id":"d795ea89-d3b1-4bf3-ac3a-6d3ce5ce0060","system_id":"levelo_inurba_marseille","lat":43.30929,"lon":5.40138,"is_reserved":false,"is_disabled":false,"rental_uris":{"android":"levelo://app?vid=d795ea89-d3b1-4bf3-ac3a-6d3ce5ce0060","ios":"levelo://app?vid=d795ea89-d3b1-4bf3-ac3a-6d3ce5ce0060"},"vehicle_type_id":"4","last_reported":1771423223,"current_range_meters":36800,"station_id":"ce4bgvp2rcd13ifvqct0","pricing_plan_id":"cebpf4jnsgd1na2vs0mg"},{"bike_id":"659923c1-de2a-425b-b089-253fcf51c04f","system_id":"levelo_inurba_marseille","lat":43.24165,"lon":5.36391,"is_reserved":false,"is_disabled":false,"rental_uris":{"android":"levelo://app?vid=659923c1-de2a-425b-b089-253fcf51c04f","ios":"levelo://app?vid=659923c1-de2a-425b-b089-253fcf51c04f"},"vehicle_type_id":"4","last_reported":1771423223,"current_range_meters":28400,"station_id":"cpo36qri1sfpv3e86is0","pricing_plan_id":"cebpf4jnsgd1na2vs0mg"},{"bike_id":"388b1bc2-2ad3-42a2-a7e4-94066aa5b495","system_id":"levelo_inurba_marseille","lat":43.29976,"lon":5.38513,"is_reserved":false,"is_disabled":true,"rental_uris":{"android":"levelo://app?vid=388b1bc2-2ad3-42a2-a7e4-94066aa5b495","ios":"levelo://app?vid=388b1bc2-2ad3-42a2-a7e4-94066aa5b495"},"vehicle_type_id":"4","last_reported":1771423223,"current_range_meters":39200,"station_id":"ce4bgj92rcd13ifvqbd0","pricing_plan_id":"cebpf4jnsgd1na2vs0mg"},{"bike_id":"bc01de01-7c7b-4c16-bb69-69d755a02ffe","system_id":"levelo_inurba_marseille","lat":43.30722,"lon":5.42456,"is_reserved":false,"is_disabled":false,"rental_uris":{"android":"levelo://app?vid=bc01de01-7c7b-4c16-bb69-69d755a02ffe","ios":"levelo://app?vid=bc01de01-7c7b-4c16-bb69-69d755a02ffe"},"vehicle_type_id":"4","last_reported":1771423223,"current_range_meters":24000,"station_id":"st_cvj6ca6bvosntc0bfgr0","pricing_plan_id":"cebpf4jnsgd1na2vs0mg"},{"bike_id":"a8ac64ba-4309-4021-98a9-d1607f0b1c3c","system_id":"levelo_inurba_marseille","lat":43.2924,"lon":5.36042,"is_reserved":false,"is_disabled":false,"rental_uris":{"android":"levelo://app?vid=a8ac64ba-4309-4021-98a9-d1607f0b1c3c","ios":"levelo://app?vid=a8ac64ba-4309-4021-98a9-d1607f0b1c3c"},"vehicle_type_id":"4","last_reported":1771423223,"current_range_meters":23200,"station_id":"ce4bhbh2rcd13ifvqeqg","pricing_plan_id":"cebpf4jnsgd1na2vs0mg"},{"bike_id":"adf114b1-1ae6-4ec4-8bac-696d0b1beeb3","system_id":"levelo_inurba_marseille","lat":43.29034,"lon":5.3995,"is_reserved":false,"is_disabled":false,"rental_uris":{"android":"levelo://app?vid=adf114b1-1ae6-4ec4-8bac-696d0b1beeb3","ios":"levelo://app?vid=adf114b1-1ae6-4ec4-8bac-696d0b1beeb3"},"vehicle_type_id":"4","last_reported":1771423223,"current_range_meters":39200,"station_id":"ce4bh392rcd13ifvqdm0","pricing_plan_id":"cebpf4jnsgd1na2vs0mg"},{"bike_id":"19d3787d-1c8e-4249-902d-f5e776447478","system_id":"levelo_inurba_marseille","lat":43.2551,"lon":5.37655,"is_reserved":false,"is_disabled":false,"rental_uris":{"android":"levelo://app?vid=19d3787d-1c8e-4249-902d-f5e776447478","ios":"levelo://app?vid=19d3787d-1c8e-4249-902d-f5e776447478"},"vehicle_type_id":"4","last_reported":1771423223,"current_range_meters":28000,"station_id":"ce4bhh12rcd13ifvqff0","pricing_plan_id":"cebpf4jnsgd1na2vs0mg"},{"bike_id":"5c0952e3-3469-48d1-b0ac-88596b084e30","system_id":"levelo_inurba_marseille","lat":43.337476,"lon":5.374823,"is_reserved":false,"is_disabled":false,"rental_uris":{"android":"levelo://app?vid=5c0952e3-3469-48d1-b0ac-88596b084e30","ios":"levelo://app?vid=5c0952e3-3469-48d1-b0ac-88596b084e30"},"vehicle_type_id":"4","last_reported":1771423223,"current_range_meters":37600,"station_id":"","pricing_plan_id":"cebpf4jnsgd1na2vs0mg"},{"bike_id":"aac69f62-161f-4d01-a165-e5977a5f8b17","system_id":"levelo_inurba_marseille","lat":43.28211,"lon":5.39046,"is_reserved":false,"is_disabled":true,"rental_uris":{"android":"levelo://app?vid=aac69f62-161f-4d01-a165-e5977a5f8b17","ios":"levelo://app?vid=aac69f62-161f-4d01-a165-e5977a5f8b17"},"vehicle_type_id":"4","last_reported":1771423223,"current_range_meters":0,"station_id":"ce4bhn92rcd13ifvqgsg","pricing_plan_id":"cebpf4jnsgd1na2vs0mg"},{"bike_id":"12dea603-7cb2-4a92-b31f-ba23aeb986a7","system_id":"levelo_inurba_marseille","lat":43.30285,"lon":5.37682,"is_reserved":false,"is_disabled":false,"rental_uris":{"android":"levelo://app?vid=12dea603-7cb2-4a92-b31f-ba23aeb986a7","ios":"levelo://app?vid=12dea603-7cb2-4a92-b31f-ba23aeb986a7"},"vehicle_type_id":"4","last_reported":1771423223,"current_range_meters":22000,"station_id":"ce4bguh2rcd13ifvqcj0","pricing_plan_id":"cebpf4jnsgd1na2vs0mg"},{"bike_id":"c4194e41-de52-45db-97b1-1968612c04dc","system_id":"levelo_inurba_marseille","lat":43.29956,"lon":5.41303,"is_reserved":false,"is_disabled":false,"rental_uris":{"android":"levelo://app?vid=c4194e41-de52-45db-97b1-1968612c04dc","ios":"levelo://app?vid=c4194e41-de52-45db-97b1-1968612c04dc"},"vehicle_type_id":"4","last_reported":1771423223,"current_range_meters":35600,"station_id":"ce4bhp12rcd13ifvqh9g","pricing_plan_id":"cebpf4jnsgd1na2vs0mg"},{"bike_id":"f30ef7dc-f16c-4ba1-a4ee-a90ead43deaf","system_id":"levelo_inurba_marseille","lat":43.30144,"lon":5.38085,"is_reserved":false,"is_disabled":false,"rental_uris":{"android":"levelo://app?vid=f30ef7dc-f16c-4ba1-a4ee-a90ead43deaf","ios":"levelo://app?vid=f30ef7dc-f16c-4ba1-a4ee-a90ead43deaf"},"vehicle_type_id":"4","last_reported":1771423223,"current_range_meters":32400,"station_id":"ce4bgjp2rcd13ifvqbh0","pricing_plan_id":"cebpf4jnsgd1na2vs0mg"},{"bike_id":"1917bf3e-ffec-4198-8dbd-fbc67a4db19d","system_id":"levelo_inurba_marseille","lat":43.30152,"lon":5.37404,"is_reserved":false,"is_disabled":false,"rental_uris":{"android":"levelo://app?vid=1917bf3e-ffec-4198-8dbd-fbc67a4db19d","ios":"levelo://app?vid=1917bf3e-ffec-4198-8dbd-fbc67a4db19d"},"vehicle_type_id":"4","last_reported":1771423223,"current_range_meters":24000,"station_id":"ce4bgs92rcd13ifvqcc0","pricing_plan_id":"cebpf4jnsgd1na2vs0mg"},{"bike_id":"9ffabed5-9b56-4f2a-a18d-0c0a1114f4da","system_id":"levelo_inurba_marseille","lat":43.30459,"lon":5.37911,"is_reserved":false,"is_disabled":false,"rental_uris":{"android":"levelo://app?vid=9ffabed5-9b56-4f2a-a18d-0c0a1114f4da","ios":"levelo://app?vid=9ffabed5-9b56-4f2a-a18d-0c0a1114f4da"},"vehicle_type_id":"4","last_reported":1771423223,"current_range_meters":25200,"station_id":"ce4bgup2rcd13ifvqcn0","pricing_plan_id":"cebpf4jnsgd1na2vs0mg"},{"bike_id":"166e35c4-ba58-48ae-81a6-945bb5d753ca","system_id":"levelo_inurba_marseille","lat":43.24647,"lon":5.38904,"is_reserved":false,"is_disabled":false,"rental_uris":{"android":"levelo://app?vid=166e35c4-ba58-48ae-81a6-945bb5d753ca","ios":"levelo://app?vid=166e35c4-ba58-48ae-81a6-945bb5d753ca"},"vehicle_type_id":"4","last_reported":1771423223,"current_range_meters":16400,"station_id":"ce4bhg12rcd13ifvqf60","pricing_plan_id":"cebpf4jnsgd1na2vs0mg"},{"bike_id":"e52969ea-e41a-4b4f-8b3e-e0a9baa48bf6","system_id":"levelo_inurba_marseille","lat":43.29492,"lon":5.43306,"is_reserved":false,"is_disabled":false,"rental_uris":{"android":"levelo://app?vid=e52969ea-e41a-4b4f-8b3e-e0a9baa48bf6","ios":"levelo://app?vid=e52969ea-e41a-4b4f-8b3e-e0a9baa48bf6"},"vehicle_type_id":"4","last_reported":1771423223,"current_range_meters":39200,"station_id":"st_d3j5ugp08ojc73fj9d10","pricing_plan_id":"cebpf4jnsgd1na2vs0mg"},{"bike_id":"44efe955-55b3-4aa2-9980-b386fed81fe9","system_id":"levelo_inurba_marseille","lat":43.28008,"lon":5.40017,"is_reserved":false,"is_disabled":false,"rental_uris":{"android":"levelo://app?vid=44efe955-55b3-4aa2-9980-b386fed81fe9","ios":"levelo://app?vid=44efe955-55b3-4aa2-9980-b386fed81fe9"},"vehicle_type_id":"4","last_reported":1771423223,"current_range_meters":40000,"station_id":"ce4bho92rcd13ifvqh4g","pricing_plan_id":"cebpf4jnsgd1na2vs0mg"},{"bike_id":"2cbbc2f5-92a3-4c38-a0e2-181ee10ae410","system_id":"levelo_inurba_marseille","lat":43.27509,"lon":5.4244,"is_reserved":false,"is_disabled":false,"rental_uris":{"android":"levelo://app?vid=2cbbc2f5-92a3-4c38-a0e2-181ee10ae410","ios":"levelo://app?vid=2cbbc2f5-92a3-4c38-a0e2-181ee10ae410"},"vehicle_type_id":"4","last_reported":1771423223,"current_range_meters":38000,"station_id":"ce4bhn92rcd13ifvqgrg","pricing_plan_id":"cebpf4jnsgd1na2vs0mg"},{"bike_id":"77c84e28-a226-4c9d-bcc9-76b7f8c0d11c","system_id":"levelo_inurba_marseille","lat":43.24566,"lon":5.3952,"is_reserved":false,"is_disabled":true,"rental_uris":{"android":"levelo://app?vid=77c84e28-a226-4c9d-bcc9-76b7f8c0d11c","ios":"levelo://app?vid=77c84e28-a226-4c9d-bcc9-76b7f8c0d11c"},"vehicle_type_id":"4","last_reported":1771423223,"current_range_meters":38400,"station_id":"ce4bhlp2rcd13ifvqgjg","pricing_plan_id":"cebpf4jnsgd1na2vs0mg"},{"bike_id":"c9b743d2-ea19-486c-9150-6905c9d98a27","system_id":"levelo_inurba_marseille","lat":43.26555,"lon":5.40328,"is_reserved":false,"is_disabled":false,"rental_uris":{"android":"levelo://app?vid=c9b743d2-ea19-486c-9150-6905c9d98a27","ios":"levelo://app?vid=c9b743d2-ea19-486c-9150-6905c9d98a27"},"vehicle_type_id":"4","last_reported":1771423223,"current_range_meters":25200,"station_id":"ce4bhmp2rcd13ifvqgng","pricing_plan_id":"cebpf4jnsgd1na2vs0mg"},{"bike_id":"bc4aca59-1548-4c6c-9b4b-d48c12a614aa","system_id":"levelo_inurba_marseille","lat":43.30259,"lon":5.40078,"is_reserved":false,"is_disabled":false,"rental_uris":{"android":"levelo://app?vid=bc4aca59-1548-4c6c-9b4b-d48c12a614aa","ios":"levelo://app?vid=bc4aca59-1548-4c6c-9b4b-d48c12a614aa"},"vehicle_type_id":"4","last_reported":1771423223,"current_range_meters":24400,"station_id":"ce4bgvh2rcd13ifvqcs0","pricing_plan_id":"cebpf4jnsgd1na2vs0mg"},{"bike_id":"8bd25637-60e8-4626-b612-05926e36f3e9","system_id":"levelo_inurba_marseille","lat":43.27321,"lon":5.3907,"is_reserved":false,"is_disabled":false,"rental_uris":{"android":"levelo://app?vid=8bd25637-60e8-4626-b612-05926e36f3e9","ios":"levelo://app?vid=8bd25637-60e8-4626-b612-05926e36f3e9"},"vehicle_type_id":"4","last_reported":1771423223,"current_range_meters":10000,"station_id":"ce4bhgp2rcd13ifvqfe0","pricing_plan_id":"cebpf4jnsgd1na2vs0mg"},{"bike_id":"fc1aa6b8-6e5e-467f-92e9-aae02099ae9d","system_id":"levelo_inurba_marseille","lat":43.24643,"lon":5.43135,"is_reserved":false,"is_disabled":false,"rental_uris":{"android":"levelo://app?vid=fc1aa6b8-6e5e-467f-92e9-aae02099ae9d","ios":"levelo://app?vid=fc1aa6b8-6e5e-467f-92e9-aae02099ae9d"},"vehicle_type_id":"4","last_reported":1771423223,"current_range_meters":9600,"station_id":"st_d2m6c4gdas8pm72e190g","pricing_plan_id":"cebpf4jnsgd1na2vs0mg"},{"bike_id":"8f275b0d-88f7-42d9-b94a-236cbb0bb5d5","system_id":"levelo_inurba_marseille","lat":43.30957,"lon":5.38357,"is_reserved":false,"is_disabled":false,"rental_uris":{"android":"levelo://app?vid=8f275b0d-88f7-42d9-b94a-236cbb0bb5d5","ios":"levelo://app?vid=8f275b0d-88f7-42d9-b94a-236cbb0bb5d5"},"vehicle_type_id":"4","last_reported":1771423223,"current_range_meters":2800,"station_id":"","pricing_plan_id":"cebpf4jnsgd1na2vs0mg"},{"bike_id":"67285332-5652-4c2b-b8be-d99c6194277d","system_id":"levelo_inurba_marseille","lat":43.26063,"lon":5.39406,"is_reserved":false,"is_disabled":false,"rental_uris":{"android":"levelo://app?vid=67285332-5652-4c2b-b8be-d99c6194277d","ios":"levelo://app?vid=67285332-5652-4c2b-b8be-d99c6194277d"},"vehicle_type_id":"4","last_reported":1771423223,"current_range_meters":26800,"station_id":"ce4bhh92rcd13ifvqfj0","pricing_plan_id":"cebpf4jnsgd1na2vs0mg"},{"bike_id":"247929ef-06db-4867-a845-71bf576c71e1","system_id":"levelo_inurba_marseille","lat":43.28873,"lon":5.42512,"is_reserved":false,"is_disabled":false,"rental_uris":{"android":"levelo://app?vid=247929ef-06db-4867-a845-71bf576c71e1","ios":"levelo://app?vid=247929ef-06db-4867-a845-71bf576c71e1"},"vehicle_type_id":"4","last_reported":1771423223,"current_range_meters":38800,"station_id":"st_d3b462108ojc7389ooeg","pricing_plan_id":"cebpf4jnsgd1na2vs0mg"},{"bike_id":"4585df67-5569-4771-aa03-6e87fdd568df","system_id":"levelo_inurba_marseille","lat":43.23145,"lon":5.43716,"is_reserved":false,"is_disabled":false,"rental_uris":{"android":"levelo://app?vid=4585df67-5569-4771-aa03-6e87fdd568df","ios":"levelo://app?vid=4585df67-5569-4771-aa03-6e87fdd568df"},"vehicle_type_id":"4","last_reported":1771423223,"current_range_meters":29600,"station_id":"ce4bhmp2rcd13ifvqgog","pricing_plan_id":"cebpf4jnsgd1na2vs0mg"},{"bike_id":"1bdf262b-5b53-4108-b666-339efbe4431c","system_id":"levelo_inurba_marseille","lat":43.29026,"lon":5.38145,"is_reserved":false,"is_disabled":true,"rental_uris":{"android":"levelo://app?vid=1bdf262b-5b53-4108-b666-339efbe4431c","ios":"levelo://app?vid=1bdf262b-5b53-4108-b666-339efbe4431c"},"vehicle_type_id":"4","last_reported":1771423223,"current_range_meters":38000,"station_id":"ce4bh4p2rcd13ifvqe1g","pricing_plan_id":"cebpf4jnsgd1na2vs0mg"},{"bike_id":"57723f7a-061e-46b7-a0ae-b6210e118d77","system_id":"levelo_inurba_marseille","lat":43.30928,"lon":5.36864,"is_reserved":false,"is_disabled":false,"rental_uris":{"android":"levelo://app?vid=57723f7a-061e-46b7-a0ae-b6210e118d77","ios":"levelo://app?vid=57723f7a-061e-46b7-a0ae-b6210e118d77"},"vehicle_type_id":"4","last_reported":1771423223,"current_range_meters":33200,"station_id":"ce4bgn92rcd13ifvqbvg","pricing_plan_id":"cebpf4jnsgd1na2vs0mg"},{"bike_id":"c1b26ae8-8837-4bd2-b0e2-b890b8516fff","system_id":"levelo_inurba_marseille","lat":43.31278,"lon":5.36861,"is_reserved":false,"is_disabled":false,"rental_uris":{"android":"levelo://app?vid=c1b26ae8-8837-4bd2-b0e2-b890b8516fff","ios":"levelo://app?vid=c1b26ae8-8837-4bd2-b0e2-b890b8516fff"},"vehicle_type_id":"4","last_reported":1771423223,"current_range_meters":39200,"station_id":"ce4bgl92rcd13ifvqbq0","pricing_plan_id":"cebpf4jnsgd1na2vs0mg"},{"bike_id":"3cf9a213-82f8-4af5-954b-9210b699cd7b","system_id":"levelo_inurba_marseille","lat":43.33167,"lon":5.37677,"is_reserved":false,"is_disabled":false,"rental_uris":{"android":"levelo://app?vid=3cf9a213-82f8-4af5-954b-9210b699cd7b","ios":"levelo://app?vid=3cf9a213-82f8-4af5-954b-9210b699cd7b"},"vehicle_type_id":"4","last_reported":1771423223,"current_range_meters":33600,"station_id":"st_d46cu089ee8s73dldbu0","pricing_plan_id":"cebpf4jnsgd1na2vs0mg"},{"bike_id":"f4b72c32-b078-47bf-bd6e-2a4cf9260d45","system_id":"levelo_inurba_marseille","lat":43.28697,"lon":5.35489,"is_reserved":false,"is_disabled":true,"rental_uris":{"android":"levelo://app?vid=f4b72c32-b078-47bf-bd6e-2a4cf9260d45","ios":"levelo://app?vid=f4b72c32-b078-47bf-bd6e-2a4cf9260d45"},"vehicle_type_id":"4","last_reported":1771423223,"current_range_meters":35200,"station_id":"","pricing_plan_id":"cebpf4jnsgd1na2vs0mg"},{"bike_id":"786db946-01e6-401d-825a-5be2365421b8","system_id":"levelo_inurba_marseille","lat":43.25602,"lon":5.38227,"is_reserved":false,"is_disabled":false,"rental_uris":{"android":"levelo://app?vid=786db946-01e6-401d-825a-5be2365421b8","ios":"levelo://app?vid=786db946-01e6-401d-825a-5be2365421b8"},"vehicle_type_id":"4","last_reported":1771423223,"current_range_meters":20800,"station_id":"ce4bhih2rcd13ifvqfs0","pricing_plan_id":"cebpf4jnsgd1na2vs0mg"},{"bike_id":"9aa7d9fa-7f16-4ecf-9e83-1b253d6936b8","system_id":"levelo_inurba_marseille","lat":43.30133,"lon":5.37417,"is_reserved":false,"is_disabled":false,"rental_uris":{"android":"levelo://app?vid=9aa7d9fa-7f16-4ecf-9e83-1b253d6936b8","ios":"levelo://app?vid=9aa7d9fa-7f16-4ecf-9e83-1b253d6936b8"},"vehicle_type_id":"4","last_reported":1771423223,"current_range_meters":38400,"station_id":"ce4bgs92rcd13ifvqcc0","pricing_plan_id":"cebpf4jnsgd1na2vs0mg"},{"bike_id":"f5d22547-d06e-4fad-85c6-2cbbdcd29ad4","system_id":"levelo_inurba_marseille","lat":43.29189,"lon":5.37214,"is_reserved":false,"is_disabled":false,"rental_uris":{"android":"levelo://app?vid=f5d22547-d06e-4fad-85c6-2cbbdcd29ad4","ios":"levelo://app?vid=f5d22547-d06e-4fad-85c6-2cbbdcd29ad4"},"vehicle_type_id":"4","last_reported":1771423223,"current_range_meters":31200,"station_id":"","pricing_plan_id":"cebpf4jnsgd1na2vs0mg"},{"bike_id":"7046527a-324f-4284-b438-5371afdd00ff","system_id":"levelo_inurba_marseille","lat":43.276189,"lon":5.361053,"is_reserved":false,"is_disabled":false,"rental_uris":{"android":"levelo://app?vid=7046527a-324f-4284-b438-5371afdd00ff","ios":"levelo://app?vid=7046527a-324f-4284-b438-5371afdd00ff"},"vehicle_type_id":"4","last_reported":1771423223,"current_range_meters":39200,"station_id":"ce4bgj92rcd13ifvqbe0","pricing_plan_id":"cebpf4jnsgd1na2vs0mg"},{"bike_id":"ef1aa0f8-ae58-47b4-b1fd-062991b0fff7","system_id":"levelo_inurba_marseille","lat":43.29637,"lon":5.37161,"is_reserved":false,"is_disabled":false,"rental_uris":{"android":"levelo://app?vid=ef1aa0f8-ae58-47b4-b1fd-062991b0fff7","ios":"levelo://app?vid=ef1aa0f8-ae58-47b4-b1fd-062991b0fff7"},"vehicle_type_id":"4","last_reported":1771423223,"current_range_meters":39200,"station_id":"ce4bgnh2rcd13ifvqc0g","pricing_plan_id":"cebpf4jnsgd1na2vs0mg"},{"bike_id":"b7601282-08f0-4516-b769-80e43d9f0326","system_id":"levelo_inurba_marseille","lat":43.29279,"lon":5.36824,"is_reserved":false,"is_disabled":false,"rental_uris":{"android":"levelo://app?vid=b7601282-08f0-4516-b769-80e43d9f0326","ios":"levelo://app?vid=b7601282-08f0-4516-b769-80e43d9f0326"},"vehicle_type_id":"4","last_reported":1771423223,"current_range_meters":37600,"station_id":"ce4bhbp2rcd13ifvqesg","pricing_plan_id":"cebpf4jnsgd1na2vs0mg"},{"bike_id":"e1400a97-c181-4f54-be3e-0569af26a141","system_id":"levelo_inurba_marseille","lat":43.29604,"lon":5.37738,"is_reserved":false,"is_disabled":false,"rental_uris":{"android":"levelo://app?vid=e1400a97-c181-4f54-be3e-0569af26a141","ios":"levelo://app?vid=e1400a97-c181-4f54-be3e-0569af26a141"},"vehicle_type_id":"4","last_reported":1771423223,"current_range_meters":38000,"station_id":"ce4bgi92rcd13ifvqb90","pricing_plan_id":"cebpf4jnsgd1na2vs0mg"},{"bike_id":"8e88b741-7fc5-4239-947a-128f1d311f8c","system_id":"levelo_inurba_marseille","lat":43.29927,"lon":5.36475,"is_reserved":false,"is_disabled":false,"rental_uris":{"android":"levelo://app?vid=8e88b741-7fc5-4239-947a-128f1d311f8c","ios":"levelo://app?vid=8e88b741-7fc5-4239-947a-128f1d311f8c"},"vehicle_type_id":"4","last_reported":1771423223,"current_range_meters":38800,"station_id":"ce4bgm92rcd13ifvqbr0","pricing_plan_id":"cebpf4jnsgd1na2vs0mg"},{"bike_id":"ded98d33-589f-41f4-bb93-00d47e49d5a3","system_id":"levelo_inurba_marseille","lat":43.32536,"lon":5.41477,"is_reserved":false,"is_disabled":false,"rental_uris":{"android":"levelo://app?vid=ded98d33-589f-41f4-bb93-00d47e49d5a3","ios":"levelo://app?vid=ded98d33-589f-41f4-bb93-00d47e49d5a3"},"vehicle_type_id":"4","last_reported":1771423223,"current_range_meters":24800,"station_id":"ce4bhq12rcd13ifvqhhg","pricing_plan_id":"cebpf4jnsgd1na2vs0mg"},{"bike_id":"cdcd8c42-d26a-4e42-9873-59170e37aa87","system_id":"levelo_inurba_marseille","lat":43.23052,"lon":5.35495,"is_reserved":false,"is_disabled":false,"rental_uris":{"android":"levelo://app?vid=cdcd8c42-d26a-4e42-9873-59170e37aa87","ios":"levelo://app?vid=cdcd8c42-d26a-4e42-9873-59170e37aa87"},"vehicle_type_id":"4","last_reported":1771423223,"current_range_meters":39200,"station_id":"cpo3342slgdg3j2ifvpg","pricing_plan_id":"cebpf4jnsgd1na2vs0mg"},{"bike_id":"bfa54b00-fa95-4e6b-ab86-33a95629a983","system_id":"levelo_inurba_marseille","lat":43.27935,"lon":5.41052,"is_reserved":false,"is_disabled":false,"rental_uris":{"android":"levelo://app?vid=bfa54b00-fa95-4e6b-ab86-33a95629a983","ios":"levelo://app?vid=bfa54b00-fa95-4e6b-ab86-33a95629a983"},"vehicle_type_id":"4","last_reported":1771423223,"current_range_meters":40000,"station_id":"ce4bhnp2rcd13ifvqh0g","pricing_plan_id":"cebpf4jnsgd1na2vs0mg"},{"bike_id":"e7def23d-4cb3-4f70-ad84-7e80f75f4887","system_id":"levelo_inurba_marseille","lat":43.24809,"lon":5.37446,"is_reserved":false,"is_disabled":false,"rental_uris":{"android":"levelo://app?vid=e7def23d-4cb3-4f70-ad84-7e80f75f4887","ios":"levelo://app?vid=e7def23d-4cb3-4f70-ad84-7e80f75f4887"},"vehicle_type_id":"4","last_reported":1771423223,"current_range_meters":38000,"station_id":"ce4bhgh2rcd13ifvqfb0","pricing_plan_id":"cebpf4jnsgd1na2vs0mg"},{"bike_id":"dd8100c3-3169-4922-bf7d-5a153f40b247","system_id":"levelo_inurba_marseille","lat":43.278155,"lon":5.407166,"is_reserved":false,"is_disabled":false,"rental_uris":{"android":"levelo://app?vid=dd8100c3-3169-4922-bf7d-5a153f40b247","ios":"levelo://app?vid=dd8100c3-3169-4922-bf7d-5a153f40b247"},"vehicle_type_id":"4","last_reported":1771423223,"current_range_meters":16800,"station_id":"ce4bhnh2rcd13ifvqgtg","pricing_plan_id":"cebpf4jnsgd1na2vs0mg"},{"bike_id":"acc728cd-ad25-43c2-b545-1e473d88f901","system_id":"levelo_inurba_marseille","lat":43.27989,"lon":5.3877,"is_reserved":false,"is_disabled":false,"rental_uris":{"android":"levelo://app?vid=acc728cd-ad25-43c2-b545-1e473d88f901","ios":"levelo://app?vid=acc728cd-ad25-43c2-b545-1e473d88f901"},"vehicle_type_id":"4","last_reported":1771423223,"current_range_meters":24400,"station_id":"ce4bhg12rcd13ifvqf80","pricing_plan_id":"cebpf4jnsgd1na2vs0mg"},{"bike_id":"91f95071-cb44-4294-8d05-12a1be58ba9d","system_id":"levelo_inurba_marseille","lat":43.25136,"lon":5.40309,"is_reserved":false,"is_disabled":false,"rental_uris":{"android":"levelo://app?vid=91f95071-cb44-4294-8d05-12a1be58ba9d","ios":"levelo://app?vid=91f95071-cb44-4294-8d05-12a1be58ba9d"},"vehicle_type_id":"4","last_reported":1771423223,"current_range_meters":37600,"station_id":"ce4bhlh2rcd13ifvqgig","pricing_plan_id":"cebpf4jnsgd1na2vs0mg"},{"bike_id":"180e5942-7cde-4b03-949b-44ef424b5e5d","system_id":"levelo_inurba_marseille","lat":43.29626,"lon":5.37691,"is_reserved":false,"is_disabled":false,"rental_uris":{"android":"levelo://app?vid=180e5942-7cde-4b03-949b-44ef424b5e5d","ios":"levelo://app?vid=180e5942-7cde-4b03-949b-44ef424b5e5d"},"vehicle_type_id":"4","last_reported":1771423223,"current_range_meters":17600,"station_id":"ce4bgi92rcd13ifvqb90","pricing_plan_id":"cebpf4jnsgd1na2vs0mg"},{"bike_id":"dc655ea5-70fb-48d3-8b6f-7b58498d97e2","system_id":"levelo_inurba_marseille","lat":43.28272,"lon":5.35074,"is_reserved":false,"is_disabled":false,"rental_uris":{"android":"levelo://app?vid=dc655ea5-70fb-48d3-8b6f-7b58498d97e2","ios":"levelo://app?vid=dc655ea5-70fb-48d3-8b6f-7b58498d97e2"},"vehicle_type_id":"4","last_reported":1771423223,"current_range_meters":19200,"station_id":"ce4bhbp2rcd13ifvqerg","pricing_plan_id":"cebpf4jnsgd1na2vs0mg"},{"bike_id":"808e17f3-e8fb-4322-91e5-e0d3af4ac05c","system_id":"levelo_inurba_marseille","lat":43.23184,"lon":5.3998,"is_reserved":false,"is_disabled":false,"rental_uris":{"android":"levelo://app?vid=808e17f3-e8fb-4322-91e5-e0d3af4ac05c","ios":"levelo://app?vid=808e17f3-e8fb-4322-91e5-e0d3af4ac05c"},"vehicle_type_id":"4","last_reported":1771423223,"current_range_meters":6000,"station_id":"ce4bhn12rcd13ifvqgqg","pricing_plan_id":"cebpf4jnsgd1na2vs0mg"},{"bike_id":"0cd885fc-f607-4775-bbd9-be3deac4a95d","system_id":"levelo_inurba_marseille","lat":43.2971,"lon":5.366293,"is_reserved":false,"is_disabled":false,"rental_uris":{"android":"levelo://app?vid=0cd885fc-f607-4775-bbd9-be3deac4a95d","ios":"levelo://app?vid=0cd885fc-f607-4775-bbd9-be3deac4a95d"},"vehicle_type_id":"4","last_reported":1771423223,"current_range_meters":12800,"station_id":"ce4bgn12rcd13ifvqbt0","pricing_plan_id":"cebpf4jnsgd1na2vs0mg"},{"bike_id":"a68b4305-b95a-44fa-a8f9-fb050648ab50","system_id":"levelo_inurba_marseille","lat":43.27376,"lon":5.36256,"is_reserved":false,"is_disabled":true,"rental_uris":{"android":"levelo://app?vid=a68b4305-b95a-44fa-a8f9-fb050648ab50","ios":"levelo://app?vid=a68b4305-b95a-44fa-a8f9-fb050648ab50"},"vehicle_type_id":"4","last_reported":1771423223,"current_range_meters":0,"station_id":"ce4bhbh2rcd13ifvqeo0","pricing_plan_id":"cebpf4jnsgd1na2vs0mg"},{"bike_id":"ed801aba-6299-4abc-846c-98c2ac128308","system_id":"levelo_inurba_marseille","lat":43.24389,"lon":5.37072,"is_reserved":false,"is_disabled":false,"rental_uris":{"android":"levelo://app?vid=ed801aba-6299-4abc-846c-98c2ac128308","ios":"levelo://app?vid=ed801aba-6299-4abc-846c-98c2ac128308"},"vehicle_type_id":"4","last_reported":1771423223,"current_range_meters":22800,"station_id":"ce4bhhh2rcd13ifvqfk0","pricing_plan_id":"cebpf4jnsgd1na2vs0mg"},{"bike_id":"14589d13-7cd9-43b4-88ac-9e3761dbb58c","system_id":"levelo_inurba_marseille","lat":43.29232,"lon":5.36044,"is_reserved":false,"is_disabled":false,"rental_uris":{"android":"levelo://app?vid=14589d13-7cd9-43b4-88ac-9e3761dbb58c","ios":"levelo://app?vid=14589d13-7cd9-43b4-88ac-9e3761dbb58c"},"vehicle_type_id":"4","last_reported":1771423223,"current_range_meters":37600,"station_id":"ce4bhbh2rcd13ifvqeqg","pricing_plan_id":"cebpf4jnsgd1na2vs0mg"},{"bike_id":"0d1233e3-1195-40cd-8c66-3b11e1089ff0","system_id":"levelo_inurba_marseille","lat":43.27994,"lon":5.400075,"is_reserved":false,"is_disabled":false,"rental_uris":{"android":"levelo://app?vid=0d1233e3-1195-40cd-8c66-3b11e1089ff0","ios":"levelo://app?vid=0d1233e3-1195-40cd-8c66-3b11e1089ff0"},"vehicle_type_id":"4","last_reported":1771423223,"current_range_meters":38000,"station_id":"ce4bho92rcd13ifvqh4g","pricing_plan_id":"cebpf4jnsgd1na2vs0mg"},{"bike_id":"f29121dd-4f20-4b78-aa38-d3d565dbdfae","system_id":"levelo_inurba_marseille","lat":43.25609,"lon":5.38195,"is_reserved":false,"is_disabled":false,"rental_uris":{"android":"levelo://app?vid=f29121dd-4f20-4b78-aa38-d3d565dbdfae","ios":"levelo://app?vid=f29121dd-4f20-4b78-aa38-d3d565dbdfae"},"vehicle_type_id":"4","last_reported":1771423223,"current_range_meters":39200,"station_id":"ce4bhih2rcd13ifvqfs0","pricing_plan_id":"cebpf4jnsgd1na2vs0mg"},{"bike_id":"e59f665b-ca8e-40ab-a2ed-9455369e7fbf","system_id":"levelo_inurba_marseille","lat":43.28477,"lon":5.48401,"is_reserved":false,"is_disabled":false,"rental_uris":{"android":"levelo://app?vid=e59f665b-ca8e-40ab-a2ed-9455369e7fbf","ios":"levelo://app?vid=e59f665b-ca8e-40ab-a2ed-9455369e7fbf"},"vehicle_type_id":"4","last_reported":1771423223,"current_range_meters":28000,"station_id":"","pricing_plan_id":"cebpf4jnsgd1na2vs0mg"},{"bike_id":"7b8c7193-f1f2-43c9-91a4-a4cc93269862","system_id":"levelo_inurba_marseille","lat":43.29556,"lon":5.42285,"is_reserved":false,"is_disabled":false,"rental_uris":{"android":"levelo://app?vid=7b8c7193-f1f2-43c9-91a4-a4cc93269862","ios":"levelo://app?vid=7b8c7193-f1f2-43c9-91a4-a4cc93269862"},"vehicle_type_id":"4","last_reported":1771423223,"current_range_meters":39200,"station_id":"ce4bhph2rcd13ifvqhdg","pricing_plan_id":"cebpf4jnsgd1na2vs0mg"},{"bike_id":"d37d6a73-da33-4850-a66d-33477454e1e4","system_id":"levelo_inurba_marseille","lat":43.29645,"lon":5.37159,"is_reserved":false,"is_disabled":false,"rental_uris":{"android":"levelo://app?vid=d37d6a73-da33-4850-a66d-33477454e1e4","ios":"levelo://app?vid=d37d6a73-da33-4850-a66d-33477454e1e4"},"vehicle_type_id":"4","last_reported":1771423223,"current_range_meters":39200,"station_id":"ce4bgnh2rcd13ifvqc0g","pricing_plan_id":"cebpf4jnsgd1na2vs0mg"},{"bike_id":"ae1526ac-94c0-4471-b06e-92c0bff1ac42","system_id":"levelo_inurba_marseille","lat":43.28079,"lon":5.39639,"is_reserved":false,"is_disabled":false,"rental_uris":{"android":"levelo://app?vid=ae1526ac-94c0-4471-b06e-92c0bff1ac42","ios":"levelo://app?vid=ae1526ac-94c0-4471-b06e-92c0bff1ac42"},"vehicle_type_id":"4","last_reported":1771423223,"current_range_meters":25200,"station_id":"ce4bho12rcd13ifvqh2g","pricing_plan_id":"cebpf4jnsgd1na2vs0mg"},{"bike_id":"bc0a4eba-6c77-416c-a3ae-7304b4ee5134","system_id":"levelo_inurba_marseille","lat":43.28266,"lon":5.3508,"is_reserved":false,"is_disabled":false,"rental_uris":{"android":"levelo://app?vid=bc0a4eba-6c77-416c-a3ae-7304b4ee5134","ios":"levelo://app?vid=bc0a4eba-6c77-416c-a3ae-7304b4ee5134"},"vehicle_type_id":"4","last_reported":1771423223,"current_range_meters":11600,"station_id":"ce4bhbp2rcd13ifvqerg","pricing_plan_id":"cebpf4jnsgd1na2vs0mg"},{"bike_id":"6a073e53-b7ba-45d5-a82b-20ab8b7b8e96","system_id":"levelo_inurba_marseille","lat":43.33539,"lon":5.37462,"is_reserved":false,"is_disabled":false,"rental_uris":{"android":"levelo://app?vid=6a073e53-b7ba-45d5-a82b-20ab8b7b8e96","ios":"levelo://app?vid=6a073e53-b7ba-45d5-a82b-20ab8b7b8e96"},"vehicle_type_id":"4","last_reported":1771423223,"current_range_meters":21600,"station_id":"st_d46tts09ee8s73dlu43g","pricing_plan_id":"cebpf4jnsgd1na2vs0mg"},{"bike_id":"27586e15-78a0-41b9-981d-e5de2751a5b3","system_id":"levelo_inurba_marseille","lat":43.30306,"lon":5.36886,"is_reserved":false,"is_disabled":false,"rental_uris":{"android":"levelo://app?vid=27586e15-78a0-41b9-981d-e5de2751a5b3","ios":"levelo://app?vid=27586e15-78a0-41b9-981d-e5de2751a5b3"},"vehicle_type_id":"4","last_reported":1771423223,"current_range_meters":19200,"station_id":"ce4bgqh2rcd13ifvqc5g","pricing_plan_id":"cebpf4jnsgd1na2vs0mg"},{"bike_id":"4e6ae03e-50eb-4e46-ad3a-b607c4b7ae2f","system_id":"levelo_inurba_marseille","lat":43.2695,"lon":5.40239,"is_reserved":false,"is_disabled":false,"rental_uris":{"android":"levelo://app?vid=4e6ae03e-50eb-4e46-ad3a-b607c4b7ae2f","ios":"levelo://app?vid=4e6ae03e-50eb-4e46-ad3a-b607c4b7ae2f"},"vehicle_type_id":"4","last_reported":1771423223,"current_range_meters":38800,"station_id":"cjm6bp8fraef2m0cb0m0","pricing_plan_id":"cebpf4jnsgd1na2vs0mg"},{"bike_id":"f28bc7c9-bfde-4f78-b8a8-190bcc017b7d","system_id":"levelo_inurba_marseille","lat":43.21751,"lon":5.34604,"is_reserved":false,"is_disabled":false,"rental_uris":{"android":"levelo://app?vid=f28bc7c9-bfde-4f78-b8a8-190bcc017b7d","ios":"levelo://app?vid=f28bc7c9-bfde-4f78-b8a8-190bcc017b7d"},"vehicle_type_id":"4","last_reported":1771423223,"current_range_meters":20800,"station_id":"st_cvj6r9ubvosntc0bgbag","pricing_plan_id":"cebpf4jnsgd1na2vs0mg"},{"bike_id":"e87cafb3-c406-4824-9e46-4ead45fa0dad","system_id":"levelo_inurba_marseille","lat":43.2761,"lon":5.36111,"is_reserved":false,"is_disabled":false,"rental_uris":{"android":"levelo://app?vid=e87cafb3-c406-4824-9e46-4ead45fa0dad","ios":"levelo://app?vid=e87cafb3-c406-4824-9e46-4ead45fa0dad"},"vehicle_type_id":"4","last_reported":1771423223,"current_range_meters":18800,"station_id":"ce4bgj92rcd13ifvqbe0","pricing_plan_id":"cebpf4jnsgd1na2vs0mg"},{"bike_id":"b256f836-d3c4-4133-9b55-7e5a3accf6d7","system_id":"levelo_inurba_marseille","lat":43.26695,"lon":5.38252,"is_reserved":false,"is_disabled":false,"rental_uris":{"android":"levelo://app?vid=b256f836-d3c4-4133-9b55-7e5a3accf6d7","ios":"levelo://app?vid=b256f836-d3c4-4133-9b55-7e5a3accf6d7"},"vehicle_type_id":"4","last_reported":1771423223,"current_range_meters":32800,"station_id":"ce4bhg92rcd13ifvqf90","pricing_plan_id":"cebpf4jnsgd1na2vs0mg"},{"bike_id":"cdedfe68-8f81-48b1-a1d4-83bdd88645c6","system_id":"levelo_inurba_marseille","lat":43.22934,"lon":5.35376,"is_reserved":false,"is_disabled":false,"rental_uris":{"android":"levelo://app?vid=cdedfe68-8f81-48b1-a1d4-83bdd88645c6","ios":"levelo://app?vid=cdedfe68-8f81-48b1-a1d4-83bdd88645c6"},"vehicle_type_id":"4","last_reported":1771423223,"current_range_meters":32400,"station_id":"cpo3532slgdg3j2ikp40","pricing_plan_id":"cebpf4jnsgd1na2vs0mg"},{"bike_id":"9c1b82a1-61b6-48fa-96f9-4294d2d0f7d8","system_id":"levelo_inurba_marseille","lat":43.286389,"lon":5.370003,"is_reserved":false,"is_disabled":false,"rental_uris":{"android":"levelo://app?vid=9c1b82a1-61b6-48fa-96f9-4294d2d0f7d8","ios":"levelo://app?vid=9c1b82a1-61b6-48fa-96f9-4294d2d0f7d8"},"vehicle_type_id":"4","last_reported":1771423223,"current_range_meters":30800,"station_id":"ce4bht12rcd13ifvqi60","pricing_plan_id":"cebpf4jnsgd1na2vs0mg"},{"bike_id":"13340ecb-169e-475c-8d80-1f8d20f37097","system_id":"levelo_inurba_marseille","lat":43.29254,"lon":5.40909,"is_reserved":false,"is_disabled":false,"rental_uris":{"android":"levelo://app?vid=13340ecb-169e-475c-8d80-1f8d20f37097","ios":"levelo://app?vid=13340ecb-169e-475c-8d80-1f8d20f37097"},"vehicle_type_id":"4","last_reported":1771423223,"current_range_meters":34000,"station_id":"ce4bh192rcd13ifvqdc0","pricing_plan_id":"cebpf4jnsgd1na2vs0mg"},{"bike_id":"d05a8cd2-85db-4488-ad02-d6b781a6099f","system_id":"levelo_inurba_marseille","lat":43.29712,"lon":5.36604,"is_reserved":false,"is_disabled":false,"rental_uris":{"android":"levelo://app?vid=d05a8cd2-85db-4488-ad02-d6b781a6099f","ios":"levelo://app?vid=d05a8cd2-85db-4488-ad02-d6b781a6099f"},"vehicle_type_id":"4","last_reported":1771423223,"current_range_meters":12400,"station_id":"ce4bgn12rcd13ifvqbt0","pricing_plan_id":"cebpf4jnsgd1na2vs0mg"},{"bike_id":"b7afb529-95a3-4dfd-9ea1-6025ea4e30f1","system_id":"levelo_inurba_marseille","lat":43.28932,"lon":5.38387,"is_reserved":false,"is_disabled":false,"rental_uris":{"android":"levelo://app?vid=b7afb529-95a3-4dfd-9ea1-6025ea4e30f1","ios":"levelo://app?vid=b7afb529-95a3-4dfd-9ea1-6025ea4e30f1"},"vehicle_type_id":"4","last_reported":1771423223,"current_range_meters":16000,"station_id":"ce4bh612rcd13ifvqe6g","pricing_plan_id":"cebpf4jnsgd1na2vs0mg"},{"bike_id":"12673977-5b25-450a-8cdc-00ac951258dd","system_id":"levelo_inurba_marseille","lat":43.31042,"lon":5.37189,"is_reserved":false,"is_disabled":true,"rental_uris":{"android":"levelo://app?vid=12673977-5b25-450a-8cdc-00ac951258dd","ios":"levelo://app?vid=12673977-5b25-450a-8cdc-00ac951258dd"},"vehicle_type_id":"4","last_reported":1771423223,"current_range_meters":36800,"station_id":"st_d4kl2rp97mjs73e7tdfg","pricing_plan_id":"cebpf4jnsgd1na2vs0mg"},{"bike_id":"099fe592-2fa3-4f57-bfab-42a8e4b3770c","system_id":"levelo_inurba_marseille","lat":43.23195,"lon":5.39983,"is_reserved":false,"is_disabled":false,"rental_uris":{"android":"levelo://app?vid=099fe592-2fa3-4f57-bfab-42a8e4b3770c","ios":"levelo://app?vid=099fe592-2fa3-4f57-bfab-42a8e4b3770c"},"vehicle_type_id":"4","last_reported":1771423223,"current_range_meters":20400,"station_id":"ce4bhn12rcd13ifvqgqg","pricing_plan_id":"cebpf4jnsgd1na2vs0mg"},{"bike_id":"9cedbc59-c329-42ca-8428-d7644086f6b2","system_id":"levelo_inurba_marseille","lat":43.325,"lon":5.36645,"is_reserved":false,"is_disabled":false,"rental_uris":{"android":"levelo://app?vid=9cedbc59-c329-42ca-8428-d7644086f6b2","ios":"levelo://app?vid=9cedbc59-c329-42ca-8428-d7644086f6b2"},"vehicle_type_id":"4","last_reported":1771423223,"current_range_meters":10800,"station_id":"","pricing_plan_id":"cebpf4jnsgd1na2vs0mg"},{"bike_id":"dbee3b04-5ad0-4739-9be1-4a344053621f","system_id":"levelo_inurba_marseille","lat":43.29951,"lon":5.41329,"is_reserved":false,"is_disabled":false,"rental_uris":{"android":"levelo://app?vid=dbee3b04-5ad0-4739-9be1-4a344053621f","ios":"levelo://app?vid=dbee3b04-5ad0-4739-9be1-4a344053621f"},"vehicle_type_id":"4","last_reported":1771423223,"current_range_meters":40000,"station_id":"ce4bhp12rcd13ifvqh9g","pricing_plan_id":"cebpf4jnsgd1na2vs0mg"},{"bike_id":"0fbe3a82-3ccb-45d1-8343-13ee240f2c2f","system_id":"levelo_inurba_marseille","lat":43.27377,"lon":5.36256,"is_reserved":false,"is_disabled":false,"rental_uris":{"android":"levelo://app?vid=0fbe3a82-3ccb-45d1-8343-13ee240f2c2f","ios":"levelo://app?vid=0fbe3a82-3ccb-45d1-8343-13ee240f2c2f"},"vehicle_type_id":"4","last_reported":1771423223,"current_range_meters":36400,"station_id":"ce4bhbh2rcd13ifvqeo0","pricing_plan_id":"cebpf4jnsgd1na2vs0mg"},{"bike_id":"201ca36c-c632-433f-8e63-028103426023","system_id":"levelo_inurba_marseille","lat":43.284751,"lon":5.484021,"is_reserved":false,"is_disabled":false,"rental_uris":{"android":"levelo://app?vid=201ca36c-c632-433f-8e63-028103426023","ios":"levelo://app?vid=201ca36c-c632-433f-8e63-028103426023"},"vehicle_type_id":"4","last_reported":1771423223,"current_range_meters":14800,"station_id":"","pricing_plan_id":"cebpf4jnsgd1na2vs0mg"},{"bike_id":"ef70ce12-fd44-42a0-88ed-3b2ca489b7fa","system_id":"levelo_inurba_marseille","lat":43.28872,"lon":5.42524,"is_reserved":false,"is_disabled":false,"rental_uris":{"android":"levelo://app?vid=ef70ce12-fd44-42a0-88ed-3b2ca489b7fa","ios":"levelo://app?vid=ef70ce12-fd44-42a0-88ed-3b2ca489b7fa"},"vehicle_type_id":"4","last_reported":1771423223,"current_range_meters":38400,"station_id":"st_d3b462108ojc7389ooeg","pricing_plan_id":"cebpf4jnsgd1na2vs0mg"},{"bike_id":"ec6770e7-ed64-4495-878f-8ee65c0e3087","system_id":"levelo_inurba_marseille","lat":43.27916,"lon":5.38019,"is_reserved":false,"is_disabled":false,"rental_uris":{"android":"levelo://app?vid=ec6770e7-ed64-4495-878f-8ee65c0e3087","ios":"levelo://app?vid=ec6770e7-ed64-4495-878f-8ee65c0e3087"},"vehicle_type_id":"4","last_reported":1771423223,"current_range_meters":9200,"station_id":"ce4bhf92rcd13ifvqf50","pricing_plan_id":"cebpf4jnsgd1na2vs0mg"},{"bike_id":"892c093f-3820-44d8-b368-1377fa417eb5","system_id":"levelo_inurba_marseille","lat":43.23969,"lon":5.36635,"is_reserved":false,"is_disabled":false,"rental_uris":{"android":"levelo://app?vid=892c093f-3820-44d8-b368-1377fa417eb5","ios":"levelo://app?vid=892c093f-3820-44d8-b368-1377fa417eb5"},"vehicle_type_id":"4","last_reported":1771423223,"current_range_meters":16400,"station_id":"ce4bhi12rcd13ifvqfp0","pricing_plan_id":"cebpf4jnsgd1na2vs0mg"},{"bike_id":"8eec4919-dd75-4dee-a3ff-fb5db29f0f67","system_id":"levelo_inurba_marseille","lat":43.26687,"lon":5.38266,"is_reserved":false,"is_disabled":false,"rental_uris":{"android":"levelo://app?vid=8eec4919-dd75-4dee-a3ff-fb5db29f0f67","ios":"levelo://app?vid=8eec4919-dd75-4dee-a3ff-fb5db29f0f67"},"vehicle_type_id":"4","last_reported":1771423223,"current_range_meters":26000,"station_id":"ce4bhg92rcd13ifvqf90","pricing_plan_id":"cebpf4jnsgd1na2vs0mg"},{"bike_id":"24bfcccb-9737-4ff6-b269-73bf67dd668b","system_id":"levelo_inurba_marseille","lat":43.27204,"lon":5.3917,"is_reserved":false,"is_disabled":false,"rental_uris":{"android":"levelo://app?vid=24bfcccb-9737-4ff6-b269-73bf67dd668b","ios":"levelo://app?vid=24bfcccb-9737-4ff6-b269-73bf67dd668b"},"vehicle_type_id":"4","last_reported":1771423223,"current_range_meters":39200,"station_id":"ce4bhhp2rcd13ifvqfm0","pricing_plan_id":"cebpf4jnsgd1na2vs0mg"},{"bike_id":"eef09d19-d955-412f-8ee3-e8a4a10008f3","system_id":"levelo_inurba_marseille","lat":43.2905,"lon":5.37568,"is_reserved":false,"is_disabled":false,"rental_uris":{"android":"levelo://app?vid=eef09d19-d955-412f-8ee3-e8a4a10008f3","ios":"levelo://app?vid=eef09d19-d955-412f-8ee3-e8a4a10008f3"},"vehicle_type_id":"4","last_reported":1771423223,"current_range_meters":38000,"station_id":"ce4bh692rcd13ifvqe90","pricing_plan_id":"cebpf4jnsgd1na2vs0mg"},{"bike_id":"5b012de4-7e8b-4538-86be-6640a0946719","system_id":"levelo_inurba_marseille","lat":43.24161,"lon":5.36415,"is_reserved":false,"is_disabled":true,"rental_uris":{"android":"levelo://app?vid=5b012de4-7e8b-4538-86be-6640a0946719","ios":"levelo://app?vid=5b012de4-7e8b-4538-86be-6640a0946719"},"vehicle_type_id":"4","last_reported":1771423223,"current_range_meters":17200,"station_id":"cpo36qri1sfpv3e86is0","pricing_plan_id":"cebpf4jnsgd1na2vs0mg"},{"bike_id":"76c587c4-69bc-4af5-940a-775b8ad9b058","system_id":"levelo_inurba_marseille","lat":43.30548,"lon":5.36555,"is_reserved":false,"is_disabled":false,"rental_uris":{"android":"levelo://app?vid=76c587c4-69bc-4af5-940a-775b8ad9b058","ios":"levelo://app?vid=76c587c4-69bc-4af5-940a-775b8ad9b058"},"vehicle_type_id":"4","last_reported":1771423223,"current_range_meters":35200,"station_id":"ce4bgs12rcd13ifvqcag","pricing_plan_id":"cebpf4jnsgd1na2vs0mg"},{"bike_id":"4455645d-a31e-4811-bd5e-9830c8ef57b4","system_id":"levelo_inurba_marseille","lat":43.30527,"lon":5.36498,"is_reserved":false,"is_disabled":false,"rental_uris":{"android":"levelo://app?vid=4455645d-a31e-4811-bd5e-9830c8ef57b4","ios":"levelo://app?vid=4455645d-a31e-4811-bd5e-9830c8ef57b4"},"vehicle_type_id":"4","last_reported":1771423223,"current_range_meters":39200,"station_id":"","pricing_plan_id":"cebpf4jnsgd1na2vs0mg"},{"bike_id":"4176571c-754f-4582-8e5a-2f156b2feddd","system_id":"levelo_inurba_marseille","lat":43.2559,"lon":5.38229,"is_reserved":false,"is_disabled":false,"rental_uris":{"android":"levelo://app?vid=4176571c-754f-4582-8e5a-2f156b2feddd","ios":"levelo://app?vid=4176571c-754f-4582-8e5a-2f156b2feddd"},"vehicle_type_id":"4","last_reported":1771423223,"current_range_meters":26000,"station_id":"ce4bhih2rcd13ifvqfs0","pricing_plan_id":"cebpf4jnsgd1na2vs0mg"},{"bike_id":"e764085e-f4e1-42a6-baab-ba6d13c85e46","system_id":"levelo_inurba_marseille","lat":43.27895,"lon":5.37994,"is_reserved":false,"is_disabled":false,"rental_uris":{"android":"levelo://app?vid=e764085e-f4e1-42a6-baab-ba6d13c85e46","ios":"levelo://app?vid=e764085e-f4e1-42a6-baab-ba6d13c85e46"},"vehicle_type_id":"4","last_reported":1771423223,"current_range_meters":34800,"station_id":"ce4bhf92rcd13ifvqf50","pricing_plan_id":"cebpf4jnsgd1na2vs0mg"},{"bike_id":"96438059-8ec7-4cad-b18f-887d9f3a4374","system_id":"levelo_inurba_marseille","lat":43.31607,"lon":5.37245,"is_reserved":false,"is_disabled":false,"rental_uris":{"android":"levelo://app?vid=96438059-8ec7-4cad-b18f-887d9f3a4374","ios":"levelo://app?vid=96438059-8ec7-4cad-b18f-887d9f3a4374"},"vehicle_type_id":"4","last_reported":1771423223,"current_range_meters":36800,"station_id":"","pricing_plan_id":"cebpf4jnsgd1na2vs0mg"},{"bike_id":"0dfa6421-c8cf-4d26-9aa4-6c0a5c5b4d53","system_id":"levelo_inurba_marseille","lat":43.26684,"lon":5.38271,"is_reserved":false,"is_disabled":false,"rental_uris":{"android":"levelo://app?vid=0dfa6421-c8cf-4d26-9aa4-6c0a5c5b4d53","ios":"levelo://app?vid=0dfa6421-c8cf-4d26-9aa4-6c0a5c5b4d53"},"vehicle_type_id":"4","last_reported":1771423223,"current_range_meters":30400,"station_id":"ce4bhg92rcd13ifvqf90","pricing_plan_id":"cebpf4jnsgd1na2vs0mg"},{"bike_id":"a84261d8-c742-4cbf-818d-0d1588364405","system_id":"levelo_inurba_marseille","lat":43.26557,"lon":5.39063,"is_reserved":false,"is_disabled":false,"rental_uris":{"android":"levelo://app?vid=a84261d8-c742-4cbf-818d-0d1588364405","ios":"levelo://app?vid=a84261d8-c742-4cbf-818d-0d1588364405"},"vehicle_type_id":"4","last_reported":1771423223,"current_range_meters":37600,"station_id":"ce4bhe12rcd13ifvqf30","pricing_plan_id":"cebpf4jnsgd1na2vs0mg"},{"bike_id":"60d19533-d916-46e5-9e83-963557cfb5f0","system_id":"levelo_inurba_marseille","lat":43.30884,"lon":5.36878,"is_reserved":false,"is_disabled":false,"rental_uris":{"android":"levelo://app?vid=60d19533-d916-46e5-9e83-963557cfb5f0","ios":"levelo://app?vid=60d19533-d916-46e5-9e83-963557cfb5f0"},"vehicle_type_id":"4","last_reported":1771423223,"current_range_meters":36800,"station_id":"ce4bgn92rcd13ifvqbvg","pricing_plan_id":"cebpf4jnsgd1na2vs0mg"},{"bike_id":"200f07f2-6ab6-46ed-9f22-639cf1d5ab95","system_id":"levelo_inurba_marseille","lat":43.27072,"lon":5.42286,"is_reserved":false,"is_disabled":false,"rental_uris":{"android":"levelo://app?vid=200f07f2-6ab6-46ed-9f22-639cf1d5ab95","ios":"levelo://app?vid=200f07f2-6ab6-46ed-9f22-639cf1d5ab95"},"vehicle_type_id":"4","last_reported":1771423223,"current_range_meters":33200,"station_id":"ce4bhk92rcd13ifvqgb0","pricing_plan_id":"cebpf4jnsgd1na2vs0mg"},{"bike_id":"9e4610df-db29-48f2-8f30-efbbe0bc64f6","system_id":"levelo_inurba_marseille","lat":43.29102,"lon":5.38161,"is_reserved":false,"is_disabled":false,"rental_uris":{"android":"levelo://app?vid=9e4610df-db29-48f2-8f30-efbbe0bc64f6","ios":"levelo://app?vid=9e4610df-db29-48f2-8f30-efbbe0bc64f6"},"vehicle_type_id":"4","last_reported":1771423223,"current_range_meters":35600,"station_id":"ce4bh512rcd13ifvqe2g","pricing_plan_id":"cebpf4jnsgd1na2vs0mg"},{"bike_id":"d1caf5ba-7c4a-415f-905d-23a4643ede0f","system_id":"levelo_inurba_marseille","lat":43.304258,"lon":5.388896,"is_reserved":false,"is_disabled":false,"rental_uris":{"android":"levelo://app?vid=d1caf5ba-7c4a-415f-905d-23a4643ede0f","ios":"levelo://app?vid=d1caf5ba-7c4a-415f-905d-23a4643ede0f"},"vehicle_type_id":"4","last_reported":1771423223,"current_range_meters":32400,"station_id":"ce4bgk12rcd13ifvqbi0","pricing_plan_id":"cebpf4jnsgd1na2vs0mg"},{"bike_id":"f6041667-a189-4c35-8328-024fab0e230c","system_id":"levelo_inurba_marseille","lat":43.2649,"lon":5.39535,"is_reserved":false,"is_disabled":false,"rental_uris":{"android":"levelo://app?vid=f6041667-a189-4c35-8328-024fab0e230c","ios":"levelo://app?vid=f6041667-a189-4c35-8328-024fab0e230c"},"vehicle_type_id":"4","last_reported":1771423223,"current_range_meters":14400,"station_id":"ce4bhi12rcd13ifvqfq0","pricing_plan_id":"cebpf4jnsgd1na2vs0mg"},{"bike_id":"9da307a9-6eeb-417a-bd1a-5a2bc5ec4b21","system_id":"levelo_inurba_marseille","lat":43.297003,"lon":5.376916,"is_reserved":false,"is_disabled":false,"rental_uris":{"android":"levelo://app?vid=9da307a9-6eeb-417a-bd1a-5a2bc5ec4b21","ios":"levelo://app?vid=9da307a9-6eeb-417a-bd1a-5a2bc5ec4b21"},"vehicle_type_id":"4","last_reported":1771423223,"current_range_meters":30000,"station_id":"ce4bh4p2rcd13ifvqe1g","pricing_plan_id":"cebpf4jnsgd1na2vs0mg"},{"bike_id":"c7d2b54a-d383-408d-9a81-b600a9105a37","system_id":"levelo_inurba_marseille","lat":43.3355,"lon":5.37454,"is_reserved":false,"is_disabled":false,"rental_uris":{"android":"levelo://app?vid=c7d2b54a-d383-408d-9a81-b600a9105a37","ios":"levelo://app?vid=c7d2b54a-d383-408d-9a81-b600a9105a37"},"vehicle_type_id":"4","last_reported":1771423223,"current_range_meters":24800,"station_id":"st_d46tts09ee8s73dlu43g","pricing_plan_id":"cebpf4jnsgd1na2vs0mg"},{"bike_id":"b98b3b1e-44a4-4576-a90e-65a084a6b17c","system_id":"levelo_inurba_marseille","lat":43.30203,"lon":5.3945,"is_reserved":false,"is_disabled":false,"rental_uris":{"android":"levelo://app?vid=b98b3b1e-44a4-4576-a90e-65a084a6b17c","ios":"levelo://app?vid=b98b3b1e-44a4-4576-a90e-65a084a6b17c"},"vehicle_type_id":"4","last_reported":1771423223,"current_range_meters":22800,"station_id":"ce4bh0p2rcd13ifvqd70","pricing_plan_id":"cebpf4jnsgd1na2vs0mg"},{"bike_id":"03ae242d-7c3f-4e64-b4ea-0fd10be2035b","system_id":"levelo_inurba_marseille","lat":43.29766,"lon":5.42782,"is_reserved":false,"is_disabled":false,"rental_uris":{"android":"levelo://app?vid=03ae242d-7c3f-4e64-b4ea-0fd10be2035b","ios":"levelo://app?vid=03ae242d-7c3f-4e64-b4ea-0fd10be2035b"},"vehicle_type_id":"4","last_reported":1771423223,"current_range_meters":30000,"station_id":"st_d3md5207bmas73dh9klg","pricing_plan_id":"cebpf4jnsgd1na2vs0mg"},{"bike_id":"8b446e86-2b50-4f39-9a4f-22e4f253640f","system_id":"levelo_inurba_marseille","lat":43.30814,"lon":5.38148,"is_reserved":false,"is_disabled":false,"rental_uris":{"android":"levelo://app?vid=8b446e86-2b50-4f39-9a4f-22e4f253640f","ios":"levelo://app?vid=8b446e86-2b50-4f39-9a4f-22e4f253640f"},"vehicle_type_id":"4","last_reported":1771423223,"current_range_meters":12000,"station_id":"ce4bgt12rcd13ifvqce0","pricing_plan_id":"cebpf4jnsgd1na2vs0mg"},{"bike_id":"5cda5c36-f096-4794-8ac2-5c68a28a2acc","system_id":"levelo_inurba_marseille","lat":43.31021,"lon":5.37166,"is_reserved":false,"is_disabled":false,"rental_uris":{"android":"levelo://app?vid=5cda5c36-f096-4794-8ac2-5c68a28a2acc","ios":"levelo://app?vid=5cda5c36-f096-4794-8ac2-5c68a28a2acc"},"vehicle_type_id":"4","last_reported":1771423223,"current_range_meters":32000,"station_id":"st_d4kl2rp97mjs73e7tdfg","pricing_plan_id":"cebpf4jnsgd1na2vs0mg"},{"bike_id":"bc33fc08-f85a-4f32-84fb-8b24d5daa10d","system_id":"levelo_inurba_marseille","lat":43.27995,"lon":5.41666,"is_reserved":false,"is_disabled":false,"rental_uris":{"android":"levelo://app?vid=bc33fc08-f85a-4f32-84fb-8b24d5daa10d","ios":"levelo://app?vid=bc33fc08-f85a-4f32-84fb-8b24d5daa10d"},"vehicle_type_id":"4","last_reported":1771423223,"current_range_meters":35200,"station_id":"ce4bho12rcd13ifvqh1g","pricing_plan_id":"cebpf4jnsgd1na2vs0mg"},{"bike_id":"092117a9-4db6-42cb-9df2-c9f3a42c8f5a","system_id":"levelo_inurba_marseille","lat":43.24797,"lon":5.37449,"is_reserved":false,"is_disabled":false,"rental_uris":{"android":"levelo://app?vid=092117a9-4db6-42cb-9df2-c9f3a42c8f5a","ios":"levelo://app?vid=092117a9-4db6-42cb-9df2-c9f3a42c8f5a"},"vehicle_type_id":"4","last_reported":1771423223,"current_range_meters":39200,"station_id":"ce4bhgh2rcd13ifvqfb0","pricing_plan_id":"cebpf4jnsgd1na2vs0mg"},{"bike_id":"b56380f9-a759-4bad-ae97-ee9b0c34fdbe","system_id":"levelo_inurba_marseille","lat":43.33549,"lon":5.37461,"is_reserved":false,"is_disabled":false,"rental_uris":{"android":"levelo://app?vid=b56380f9-a759-4bad-ae97-ee9b0c34fdbe","ios":"levelo://app?vid=b56380f9-a759-4bad-ae97-ee9b0c34fdbe"},"vehicle_type_id":"4","last_reported":1771423223,"current_range_meters":24800,"station_id":"st_d46tts09ee8s73dlu43g","pricing_plan_id":"cebpf4jnsgd1na2vs0mg"},{"bike_id":"ec4dbac0-9bbc-4877-b0a4-5e970b8017d8","system_id":"levelo_inurba_marseille","lat":43.31379,"lon":5.36784,"is_reserved":false,"is_disabled":false,"rental_uris":{"android":"levelo://app?vid=ec4dbac0-9bbc-4877-b0a4-5e970b8017d8","ios":"levelo://app?vid=ec4dbac0-9bbc-4877-b0a4-5e970b8017d8"},"vehicle_type_id":"4","last_reported":1771423223,"current_range_meters":11200,"station_id":"","pricing_plan_id":"cebpf4jnsgd1na2vs0mg"},{"bike_id":"2412dde1-34ed-4d2b-a68d-ac7df292189c","system_id":"levelo_inurba_marseille","lat":43.29855,"lon":5.36275,"is_reserved":false,"is_disabled":false,"rental_uris":{"android":"levelo://app?vid=2412dde1-34ed-4d2b-a68d-ac7df292189c","ios":"levelo://app?vid=2412dde1-34ed-4d2b-a68d-ac7df292189c"},"vehicle_type_id":"4","last_reported":1771423223,"current_range_meters":35600,"station_id":"ce4bgpp2rcd13ifvqc3g","pricing_plan_id":"cebpf4jnsgd1na2vs0mg"},{"bike_id":"e5c37de4-5b20-40fe-851e-2d0c03d75c93","system_id":"levelo_inurba_marseille","lat":43.33125,"lon":5.39271,"is_reserved":false,"is_disabled":false,"rental_uris":{"android":"levelo://app?vid=e5c37de4-5b20-40fe-851e-2d0c03d75c93","ios":"levelo://app?vid=e5c37de4-5b20-40fe-851e-2d0c03d75c93"},"vehicle_type_id":"4","last_reported":1771423223,"current_range_meters":16400,"station_id":"","pricing_plan_id":"cebpf4jnsgd1na2vs0mg"},{"bike_id":"07b0f432-5e82-4f8c-81ee-67d93dfdf4d8","system_id":"levelo_inurba_marseille","lat":43.28622,"lon":5.35109,"is_reserved":false,"is_disabled":false,"rental_uris":{"android":"levelo://app?vid=07b0f432-5e82-4f8c-81ee-67d93dfdf4d8","ios":"levelo://app?vid=07b0f432-5e82-4f8c-81ee-67d93dfdf4d8"},"vehicle_type_id":"4","last_reported":1771423223,"current_range_meters":9200,"station_id":"ce4bhch2rcd13ifvqeug","pricing_plan_id":"cebpf4jnsgd1na2vs0mg"},{"bike_id":"127677c5-4cab-4685-9cfe-a1e546a48838","system_id":"levelo_inurba_marseille","lat":43.32075,"lon":5.36808,"is_reserved":false,"is_disabled":false,"rental_uris":{"android":"levelo://app?vid=127677c5-4cab-4685-9cfe-a1e546a48838","ios":"levelo://app?vid=127677c5-4cab-4685-9cfe-a1e546a48838"},"vehicle_type_id":"4","last_reported":1771423223,"current_range_meters":19200,"station_id":"ce4bhrh2rcd13ifvqhug","pricing_plan_id":"cebpf4jnsgd1na2vs0mg"},{"bike_id":"dcd0cf55-ffb3-4ae8-85bc-3fda68997124","system_id":"levelo_inurba_marseille","lat":43.26957,"lon":5.38625,"is_reserved":false,"is_disabled":true,"rental_uris":{"android":"levelo://app?vid=dcd0cf55-ffb3-4ae8-85bc-3fda68997124","ios":"levelo://app?vid=dcd0cf55-ffb3-4ae8-85bc-3fda68997124"},"vehicle_type_id":"4","last_reported":1771423223,"current_range_meters":16800,"station_id":"ce4bhh92rcd13ifvqfh0","pricing_plan_id":"cebpf4jnsgd1na2vs0mg"},{"bike_id":"c55a6103-f739-43a8-85c1-e9cbb225b61e","system_id":"levelo_inurba_marseille","lat":43.24108,"lon":5.37737,"is_reserved":false,"is_disabled":false,"rental_uris":{"android":"levelo://app?vid=c55a6103-f739-43a8-85c1-e9cbb225b61e","ios":"levelo://app?vid=c55a6103-f739-43a8-85c1-e9cbb225b61e"},"vehicle_type_id":"4","last_reported":1771423223,"current_range_meters":8800,"station_id":"ce4bhnp2rcd13ifvqgvg","pricing_plan_id":"cebpf4jnsgd1na2vs0mg"},{"bike_id":"47788a9b-3d71-4615-adaa-2c88572889ac","system_id":"levelo_inurba_marseille","lat":43.31482,"lon":5.37279,"is_reserved":false,"is_disabled":false,"rental_uris":{"android":"levelo://app?vid=47788a9b-3d71-4615-adaa-2c88572889ac","ios":"levelo://app?vid=47788a9b-3d71-4615-adaa-2c88572889ac"},"vehicle_type_id":"4","last_reported":1771423223,"current_range_meters":34800,"station_id":"ce4bgt12rcd13ifvqcd0","pricing_plan_id":"cebpf4jnsgd1na2vs0mg"},{"bike_id":"66cd7626-20d3-41a1-b9d3-0eeed17323ae","system_id":"levelo_inurba_marseille","lat":43.29947,"lon":5.36532,"is_reserved":false,"is_disabled":false,"rental_uris":{"android":"levelo://app?vid=66cd7626-20d3-41a1-b9d3-0eeed17323ae","ios":"levelo://app?vid=66cd7626-20d3-41a1-b9d3-0eeed17323ae"},"vehicle_type_id":"4","last_reported":1771423223,"current_range_meters":24000,"station_id":"ce4bgm92rcd13ifvqbr0","pricing_plan_id":"cebpf4jnsgd1na2vs0mg"},{"bike_id":"7290e0e5-5b78-44af-aec2-e1b87a7d4c80","system_id":"levelo_inurba_marseille","lat":43.2397,"lon":5.36623,"is_reserved":false,"is_disabled":false,"rental_uris":{"android":"levelo://app?vid=7290e0e5-5b78-44af-aec2-e1b87a7d4c80","ios":"levelo://app?vid=7290e0e5-5b78-44af-aec2-e1b87a7d4c80"},"vehicle_type_id":"4","last_reported":1771423223,"current_range_meters":39200,"station_id":"ce4bhi12rcd13ifvqfp0","pricing_plan_id":"cebpf4jnsgd1na2vs0mg"},{"bike_id":"1dfc9df6-efc3-44e1-bfa7-eabdccc695a9","system_id":"levelo_inurba_marseille","lat":43.33533,"lon":5.37461,"is_reserved":false,"is_disabled":false,"rental_uris":{"android":"levelo://app?vid=1dfc9df6-efc3-44e1-bfa7-eabdccc695a9","ios":"levelo://app?vid=1dfc9df6-efc3-44e1-bfa7-eabdccc695a9"},"vehicle_type_id":"4","last_reported":1771423223,"current_range_meters":14400,"station_id":"st_d46tts09ee8s73dlu43g","pricing_plan_id":"cebpf4jnsgd1na2vs0mg"},{"bike_id":"11fb42ab-c9c3-46ed-93b1-291897de14c2","system_id":"levelo_inurba_marseille","lat":43.29787,"lon":5.36326,"is_reserved":false,"is_disabled":false,"rental_uris":{"android":"levelo://app?vid=11fb42ab-c9c3-46ed-93b1-291897de14c2","ios":"levelo://app?vid=11fb42ab-c9c3-46ed-93b1-291897de14c2"},"vehicle_type_id":"4","last_reported":1771423223,"current_range_meters":16000,"station_id":"","pricing_plan_id":"cebpf4jnsgd1na2vs0mg"},{"bike_id":"feddf533-e694-4295-8a00-2ac5034dd517","system_id":"levelo_inurba_marseille","lat":43.26592,"lon":5.38139,"is_reserved":false,"is_disabled":false,"rental_uris":{"android":"levelo://app?vid=feddf533-e694-4295-8a00-2ac5034dd517","ios":"levelo://app?vid=feddf533-e694-4295-8a00-2ac5034dd517"},"vehicle_type_id":"4","last_reported":1771423223,"current_range_meters":39200,"station_id":"","pricing_plan_id":"cebpf4jnsgd1na2vs0mg"},{"bike_id":"14867868-6aed-41c1-9296-5792e4f862f8","system_id":"levelo_inurba_marseille","lat":43.25331,"lon":5.42159,"is_reserved":false,"is_disabled":false,"rental_uris":{"android":"levelo://app?vid=14867868-6aed-41c1-9296-5792e4f862f8","ios":"levelo://app?vid=14867868-6aed-41c1-9296-5792e4f862f8"},"vehicle_type_id":"4","last_reported":1771423223,"current_range_meters":27600,"station_id":"st_d2m65c5bi1j21697t3ng","pricing_plan_id":"cebpf4jnsgd1na2vs0mg"},{"bike_id":"2f84c6f6-1af1-4f12-9943-f4b364371f34","system_id":"levelo_inurba_marseille","lat":43.305502,"lon":5.365259,"is_reserved":false,"is_disabled":false,"rental_uris":{"android":"levelo://app?vid=2f84c6f6-1af1-4f12-9943-f4b364371f34","ios":"levelo://app?vid=2f84c6f6-1af1-4f12-9943-f4b364371f34"},"vehicle_type_id":"4","last_reported":1771423223,"current_range_meters":9200,"station_id":"ce4bgs12rcd13ifvqcag","pricing_plan_id":"cebpf4jnsgd1na2vs0mg"},{"bike_id":"baf5634a-458e-4f5a-a6f0-61ff3624b257","system_id":"levelo_inurba_marseille","lat":43.27559,"lon":5.38427,"is_reserved":false,"is_disabled":false,"rental_uris":{"android":"levelo://app?vid=baf5634a-458e-4f5a-a6f0-61ff3624b257","ios":"levelo://app?vid=baf5634a-458e-4f5a-a6f0-61ff3624b257"},"vehicle_type_id":"4","last_reported":1771423223,"current_range_meters":32400,"station_id":"ce4bhh92rcd13ifvqfi0","pricing_plan_id":"cebpf4jnsgd1na2vs0mg"},{"bike_id":"e5ddf298-59a6-48a6-9f22-1ea1820e4aeb","system_id":"levelo_inurba_marseille","lat":43.28079,"lon":5.39625,"is_reserved":false,"is_disabled":false,"rental_uris":{"android":"levelo://app?vid=e5ddf298-59a6-48a6-9f22-1ea1820e4aeb","ios":"levelo://app?vid=e5ddf298-59a6-48a6-9f22-1ea1820e4aeb"},"vehicle_type_id":"4","last_reported":1771423223,"current_range_meters":39200,"station_id":"ce4bho12rcd13ifvqh2g","pricing_plan_id":"cebpf4jnsgd1na2vs0mg"},{"bike_id":"400a55e3-1f67-48f3-b2a0-4ffd9094c8ef","system_id":"levelo_inurba_marseille","lat":43.2571,"lon":5.41082,"is_reserved":false,"is_disabled":false,"rental_uris":{"android":"levelo://app?vid=400a55e3-1f67-48f3-b2a0-4ffd9094c8ef","ios":"levelo://app?vid=400a55e3-1f67-48f3-b2a0-4ffd9094c8ef"},"vehicle_type_id":"4","last_reported":1771423223,"current_range_meters":28000,"station_id":"ce4bhkp2rcd13ifvqgd0","pricing_plan_id":"cebpf4jnsgd1na2vs0mg"},{"bike_id":"d62a45b9-4827-4d38-b36b-656d8a9fce75","system_id":"levelo_inurba_marseille","lat":43.2736,"lon":5.3912,"is_reserved":false,"is_disabled":false,"rental_uris":{"android":"levelo://app?vid=d62a45b9-4827-4d38-b36b-656d8a9fce75","ios":"levelo://app?vid=d62a45b9-4827-4d38-b36b-656d8a9fce75"},"vehicle_type_id":"4","last_reported":1771423223,"current_range_meters":26800,"station_id":"","pricing_plan_id":"cebpf4jnsgd1na2vs0mg"},{"bike_id":"0a9805da-4766-4522-9e65-e3830b56acec","system_id":"levelo_inurba_marseille","lat":43.246706,"lon":5.381704,"is_reserved":false,"is_disabled":false,"rental_uris":{"android":"levelo://app?vid=0a9805da-4766-4522-9e65-e3830b56acec","ios":"levelo://app?vid=0a9805da-4766-4522-9e65-e3830b56acec"},"vehicle_type_id":"4","last_reported":1771423223,"current_range_meters":38800,"station_id":"ce4bhih2rcd13ifvqfr0","pricing_plan_id":"cebpf4jnsgd1na2vs0mg"},{"bike_id":"4ec29948-c60f-4139-b4b2-dc04182e0373","system_id":"levelo_inurba_marseille","lat":43.26706,"lon":5.38254,"is_reserved":false,"is_disabled":false,"rental_uris":{"android":"levelo://app?vid=4ec29948-c60f-4139-b4b2-dc04182e0373","ios":"levelo://app?vid=4ec29948-c60f-4139-b4b2-dc04182e0373"},"vehicle_type_id":"4","last_reported":1771423223,"current_range_meters":34000,"station_id":"ce4bhg92rcd13ifvqf90","pricing_plan_id":"cebpf4jnsgd1na2vs0mg"},{"bike_id":"a390b538-2807-40e2-95f9-4ed175e72a0b","system_id":"levelo_inurba_marseille","lat":43.2495,"lon":5.40507,"is_reserved":false,"is_disabled":false,"rental_uris":{"android":"levelo://app?vid=a390b538-2807-40e2-95f9-4ed175e72a0b","ios":"levelo://app?vid=a390b538-2807-40e2-95f9-4ed175e72a0b"},"vehicle_type_id":"4","last_reported":1771423223,"current_range_meters":25600,"station_id":"st_d2ngiaodas8pm72gd1h0","pricing_plan_id":"cebpf4jnsgd1na2vs0mg"},{"bike_id":"822a37e9-cc86-4db6-b810-29ef8016af0b","system_id":"levelo_inurba_marseille","lat":43.29817,"lon":5.44065,"is_reserved":false,"is_disabled":false,"rental_uris":{"android":"levelo://app?vid=822a37e9-cc86-4db6-b810-29ef8016af0b","ios":"levelo://app?vid=822a37e9-cc86-4db6-b810-29ef8016af0b"},"vehicle_type_id":"4","last_reported":1771423223,"current_range_meters":24400,"station_id":"st_d3jp68qikq2c7381ktn0","pricing_plan_id":"cebpf4jnsgd1na2vs0mg"},{"bike_id":"89a34713-cef8-437f-a0f3-8d1ab5296d6b","system_id":"levelo_inurba_marseille","lat":43.30969,"lon":5.39054,"is_reserved":false,"is_disabled":false,"rental_uris":{"android":"levelo://app?vid=89a34713-cef8-437f-a0f3-8d1ab5296d6b","ios":"levelo://app?vid=89a34713-cef8-437f-a0f3-8d1ab5296d6b"},"vehicle_type_id":"4","last_reported":1771423223,"current_range_meters":40000,"station_id":"ce4bgup2rcd13ifvqco0","pricing_plan_id":"cebpf4jnsgd1na2vs0mg"},{"bike_id":"a80a5edf-9c06-430b-a090-097190f72f17","system_id":"levelo_inurba_marseille","lat":43.270528,"lon":5.40273,"is_reserved":false,"is_disabled":false,"rental_uris":{"android":"levelo://app?vid=a80a5edf-9c06-430b-a090-097190f72f17","ios":"levelo://app?vid=a80a5edf-9c06-430b-a090-097190f72f17"},"vehicle_type_id":"4","last_reported":1771423223,"current_range_meters":34800,"station_id":"ce4bhk92rcd13ifvqgc0","pricing_plan_id":"cebpf4jnsgd1na2vs0mg"},{"bike_id":"55eb0aad-f6b5-4ef8-8c2b-ee220d251165","system_id":"levelo_inurba_marseille","lat":43.23979,"lon":5.36652,"is_reserved":false,"is_disabled":false,"rental_uris":{"android":"levelo://app?vid=55eb0aad-f6b5-4ef8-8c2b-ee220d251165","ios":"levelo://app?vid=55eb0aad-f6b5-4ef8-8c2b-ee220d251165"},"vehicle_type_id":"4","last_reported":1771423223,"current_range_meters":30400,"station_id":"","pricing_plan_id":"cebpf4jnsgd1na2vs0mg"},{"bike_id":"59aabee3-6211-4f8a-9630-29cde1e1b3d7","system_id":"levelo_inurba_marseille","lat":43.29541,"lon":5.37488,"is_reserved":false,"is_disabled":false,"rental_uris":{"android":"levelo://app?vid=59aabee3-6211-4f8a-9630-29cde1e1b3d7","ios":"levelo://app?vid=59aabee3-6211-4f8a-9630-29cde1e1b3d7"},"vehicle_type_id":"4","last_reported":1771423223,"current_range_meters":20400,"station_id":"ce4bgkp2rcd13ifvqbmg","pricing_plan_id":"cebpf4jnsgd1na2vs0mg"},{"bike_id":"89b3e01c-4867-4ddb-b4c3-f53bd946fe77","system_id":"levelo_inurba_marseille","lat":43.2922,"lon":5.36064,"is_reserved":false,"is_disabled":false,"rental_uris":{"android":"levelo://app?vid=89b3e01c-4867-4ddb-b4c3-f53bd946fe77","ios":"levelo://app?vid=89b3e01c-4867-4ddb-b4c3-f53bd946fe77"},"vehicle_type_id":"4","last_reported":1771423223,"current_range_meters":7200,"station_id":"ce4bhbh2rcd13ifvqeqg","pricing_plan_id":"cebpf4jnsgd1na2vs0mg"},{"bike_id":"012436c7-b0d2-44f6-9f1e-20d7a40c23a6","system_id":"levelo_inurba_marseille","lat":43.26182,"lon":5.40384,"is_reserved":false,"is_disabled":false,"rental_uris":{"android":"levelo://app?vid=012436c7-b0d2-44f6-9f1e-20d7a40c23a6","ios":"levelo://app?vid=012436c7-b0d2-44f6-9f1e-20d7a40c23a6"},"vehicle_type_id":"4","last_reported":1771423223,"current_range_meters":36800,"station_id":"","pricing_plan_id":"cebpf4jnsgd1na2vs0mg"},{"bike_id":"ddb35e99-7580-4184-b1a3-39dee08fd05d","system_id":"levelo_inurba_marseille","lat":43.29579,"lon":5.43883,"is_reserved":false,"is_disabled":false,"rental_uris":{"android":"levelo://app?vid=ddb35e99-7580-4184-b1a3-39dee08fd05d","ios":"levelo://app?vid=ddb35e99-7580-4184-b1a3-39dee08fd05d"},"vehicle_type_id":"4","last_reported":1771423223,"current_range_meters":16800,"station_id":"","pricing_plan_id":"cebpf4jnsgd1na2vs0mg"},{"bike_id":"4d976bf5-f813-4b36-99cd-ae82b3487f1d","system_id":"levelo_inurba_marseille","lat":43.279966,"lon":5.416643,"is_reserved":false,"is_disabled":false,"rental_uris":{"android":"levelo://app?vid=4d976bf5-f813-4b36-99cd-ae82b3487f1d","ios":"levelo://app?vid=4d976bf5-f813-4b36-99cd-ae82b3487f1d"},"vehicle_type_id":"4","last_reported":1771423223,"current_range_meters":9200,"station_id":"ce4bho12rcd13ifvqh1g","pricing_plan_id":"cebpf4jnsgd1na2vs0mg"},{"bike_id":"635c9c39-632a-46e9-bf95-a85388f579d0","system_id":"levelo_inurba_marseille","lat":43.30463,"lon":5.37912,"is_reserved":false,"is_disabled":false,"rental_uris":{"android":"levelo://app?vid=635c9c39-632a-46e9-bf95-a85388f579d0","ios":"levelo://app?vid=635c9c39-632a-46e9-bf95-a85388f579d0"},"vehicle_type_id":"4","last_reported":1771423223,"current_range_meters":38400,"station_id":"ce4bgup2rcd13ifvqcn0","pricing_plan_id":"cebpf4jnsgd1na2vs0mg"},{"bike_id":"734bfdb5-ef63-4303-b505-7c739f8a7025","system_id":"levelo_inurba_marseille","lat":43.29813,"lon":5.38077,"is_reserved":false,"is_disabled":false,"rental_uris":{"android":"levelo://app?vid=734bfdb5-ef63-4303-b505-7c739f8a7025","ios":"levelo://app?vid=734bfdb5-ef63-4303-b505-7c739f8a7025"},"vehicle_type_id":"4","last_reported":1771423223,"current_range_meters":39200,"station_id":"ce4bgip2rcd13ifvqbb0","pricing_plan_id":"cebpf4jnsgd1na2vs0mg"},{"bike_id":"f38e42b5-7d8f-44af-83ac-8232eb7666b4","system_id":"levelo_inurba_marseille","lat":43.27206,"lon":5.39179,"is_reserved":false,"is_disabled":false,"rental_uris":{"android":"levelo://app?vid=f38e42b5-7d8f-44af-83ac-8232eb7666b4","ios":"levelo://app?vid=f38e42b5-7d8f-44af-83ac-8232eb7666b4"},"vehicle_type_id":"4","last_reported":1771423223,"current_range_meters":19600,"station_id":"ce4bhhp2rcd13ifvqfm0","pricing_plan_id":"cebpf4jnsgd1na2vs0mg"},{"bike_id":"e20c4760-3d10-4402-8539-0046b00120e2","system_id":"levelo_inurba_marseille","lat":43.257222,"lon":5.411026,"is_reserved":false,"is_disabled":false,"rental_uris":{"android":"levelo://app?vid=e20c4760-3d10-4402-8539-0046b00120e2","ios":"levelo://app?vid=e20c4760-3d10-4402-8539-0046b00120e2"},"vehicle_type_id":"4","last_reported":1771423223,"current_range_meters":39200,"station_id":"ce4bhkp2rcd13ifvqgd0","pricing_plan_id":"cebpf4jnsgd1na2vs0mg"},{"bike_id":"48069e9b-c1b3-4aeb-979d-4d068a913fd0","system_id":"levelo_inurba_marseille","lat":43.3148,"lon":5.37305,"is_reserved":false,"is_disabled":false,"rental_uris":{"android":"levelo://app?vid=48069e9b-c1b3-4aeb-979d-4d068a913fd0","ios":"levelo://app?vid=48069e9b-c1b3-4aeb-979d-4d068a913fd0"},"vehicle_type_id":"4","last_reported":1771423223,"current_range_meters":16000,"station_id":"ce4bgt12rcd13ifvqcd0","pricing_plan_id":"cebpf4jnsgd1na2vs0mg"},{"bike_id":"9b1aa077-c899-4d93-9614-bf098199063e","system_id":"levelo_inurba_marseille","lat":43.24986,"lon":5.3896,"is_reserved":false,"is_disabled":false,"rental_uris":{"android":"levelo://app?vid=9b1aa077-c899-4d93-9614-bf098199063e","ios":"levelo://app?vid=9b1aa077-c899-4d93-9614-bf098199063e"},"vehicle_type_id":"4","last_reported":1771423223,"current_range_meters":35200,"station_id":"ce4bhgp2rcd13ifvqfd0","pricing_plan_id":"cebpf4jnsgd1na2vs0mg"},{"bike_id":"a6a087cf-2a67-47b9-99e4-d67b90925e09","system_id":"levelo_inurba_marseille","lat":43.28278,"lon":5.35079,"is_reserved":false,"is_disabled":false,"rental_uris":{"android":"levelo://app?vid=a6a087cf-2a67-47b9-99e4-d67b90925e09","ios":"levelo://app?vid=a6a087cf-2a67-47b9-99e4-d67b90925e09"},"vehicle_type_id":"4","last_reported":1771423223,"current_range_meters":22800,"station_id":"ce4bhbp2rcd13ifvqerg","pricing_plan_id":"cebpf4jnsgd1na2vs0mg"},{"bike_id":"0c285a3b-0a97-45f4-bbcf-2e8735c1e540","system_id":"levelo_inurba_marseille","lat":43.2533,"lon":5.42149,"is_reserved":false,"is_disabled":false,"rental_uris":{"android":"levelo://app?vid=0c285a3b-0a97-45f4-bbcf-2e8735c1e540","ios":"levelo://app?vid=0c285a3b-0a97-45f4-bbcf-2e8735c1e540"},"vehicle_type_id":"4","last_reported":1771423223,"current_range_meters":6400,"station_id":"st_d2m65c5bi1j21697t3ng","pricing_plan_id":"cebpf4jnsgd1na2vs0mg"},{"bike_id":"bc27f817-2110-4022-81c0-1b6ce9a635da","system_id":"levelo_inurba_marseille","lat":43.29612,"lon":5.377152,"is_reserved":false,"is_disabled":false,"rental_uris":{"android":"levelo://app?vid=bc27f817-2110-4022-81c0-1b6ce9a635da","ios":"levelo://app?vid=bc27f817-2110-4022-81c0-1b6ce9a635da"},"vehicle_type_id":"4","last_reported":1771423223,"current_range_meters":16000,"station_id":"","pricing_plan_id":"cebpf4jnsgd1na2vs0mg"},{"bike_id":"412faf5a-cc25-4156-ad69-888407301d08","system_id":"levelo_inurba_marseille","lat":43.23196,"lon":5.39981,"is_reserved":false,"is_disabled":false,"rental_uris":{"android":"levelo://app?vid=412faf5a-cc25-4156-ad69-888407301d08","ios":"levelo://app?vid=412faf5a-cc25-4156-ad69-888407301d08"},"vehicle_type_id":"4","last_reported":1771423223,"current_range_meters":24800,"station_id":"ce4bhn12rcd13ifvqgqg","pricing_plan_id":"cebpf4jnsgd1na2vs0mg"},{"bike_id":"759f0a09-9669-46dc-9822-7ecc825b93de","system_id":"levelo_inurba_marseille","lat":43.30563,"lon":5.3653,"is_reserved":false,"is_disabled":false,"rental_uris":{"android":"levelo://app?vid=759f0a09-9669-46dc-9822-7ecc825b93de","ios":"levelo://app?vid=759f0a09-9669-46dc-9822-7ecc825b93de"},"vehicle_type_id":"4","last_reported":1771423223,"current_range_meters":38800,"station_id":"ce4bgs12rcd13ifvqcag","pricing_plan_id":"cebpf4jnsgd1na2vs0mg"},{"bike_id":"b8dcc597-4759-4122-9592-969487759374","system_id":"levelo_inurba_marseille","lat":43.26293,"lon":5.40343,"is_reserved":false,"is_disabled":false,"rental_uris":{"android":"levelo://app?vid=b8dcc597-4759-4122-9592-969487759374","ios":"levelo://app?vid=b8dcc597-4759-4122-9592-969487759374"},"vehicle_type_id":"4","last_reported":1771423223,"current_range_meters":19600,"station_id":"","pricing_plan_id":"cebpf4jnsgd1na2vs0mg"},{"bike_id":"da21f500-f4fc-44f8-8b60-d25decbd1f0c","system_id":"levelo_inurba_marseille","lat":43.29538,"lon":5.37513,"is_reserved":false,"is_disabled":false,"rental_uris":{"android":"levelo://app?vid=da21f500-f4fc-44f8-8b60-d25decbd1f0c","ios":"levelo://app?vid=da21f500-f4fc-44f8-8b60-d25decbd1f0c"},"vehicle_type_id":"4","last_reported":1771423223,"current_range_meters":37600,"station_id":"ce4bgkp2rcd13ifvqbmg","pricing_plan_id":"cebpf4jnsgd1na2vs0mg"},{"bike_id":"1f736713-40bb-4417-989e-c059341c3cc8","system_id":"levelo_inurba_marseille","lat":43.29827,"lon":5.4404,"is_reserved":false,"is_disabled":false,"rental_uris":{"android":"levelo://app?vid=1f736713-40bb-4417-989e-c059341c3cc8","ios":"levelo://app?vid=1f736713-40bb-4417-989e-c059341c3cc8"},"vehicle_type_id":"4","last_reported":1771423223,"current_range_meters":4400,"station_id":"st_d3jp68qikq2c7381ktn0","pricing_plan_id":"cebpf4jnsgd1na2vs0mg"},{"bike_id":"e9625b04-fbb5-47f1-a190-0741f506f4fb","system_id":"levelo_inurba_marseille","lat":43.30194,"lon":5.36615,"is_reserved":false,"is_disabled":false,"rental_uris":{"android":"levelo://app?vid=e9625b04-fbb5-47f1-a190-0741f506f4fb","ios":"levelo://app?vid=e9625b04-fbb5-47f1-a190-0741f506f4fb"},"vehicle_type_id":"4","last_reported":1771423223,"current_range_meters":30800,"station_id":"ce4bgrh2rcd13ifvqc8g","pricing_plan_id":"cebpf4jnsgd1na2vs0mg"},{"bike_id":"17f7ca05-9ff1-4847-81f4-6f637ce906bc","system_id":"levelo_inurba_marseille","lat":43.253413,"lon":5.421727,"is_reserved":false,"is_disabled":true,"rental_uris":{"android":"levelo://app?vid=17f7ca05-9ff1-4847-81f4-6f637ce906bc","ios":"levelo://app?vid=17f7ca05-9ff1-4847-81f4-6f637ce906bc"},"vehicle_type_id":"4","last_reported":1771423223,"current_range_meters":2000,"station_id":"st_d2m65c5bi1j21697t3ng","pricing_plan_id":"cebpf4jnsgd1na2vs0mg"},{"bike_id":"2c25d654-b135-4813-92cc-877e0c70e8da","system_id":"levelo_inurba_marseille","lat":43.31221,"lon":5.36874,"is_reserved":false,"is_disabled":false,"rental_uris":{"android":"levelo://app?vid=2c25d654-b135-4813-92cc-877e0c70e8da","ios":"levelo://app?vid=2c25d654-b135-4813-92cc-877e0c70e8da"},"vehicle_type_id":"4","last_reported":1771423223,"current_range_meters":28800,"station_id":"ce4bgl92rcd13ifvqbq0","pricing_plan_id":"cebpf4jnsgd1na2vs0mg"},{"bike_id":"41ccd3f3-430a-4c74-a651-2f112b3d9094","system_id":"levelo_inurba_marseille","lat":43.25491,"lon":5.37655,"is_reserved":false,"is_disabled":false,"rental_uris":{"android":"levelo://app?vid=41ccd3f3-430a-4c74-a651-2f112b3d9094","ios":"levelo://app?vid=41ccd3f3-430a-4c74-a651-2f112b3d9094"},"vehicle_type_id":"4","last_reported":1771423223,"current_range_meters":40000,"station_id":"ce4bhh12rcd13ifvqff0","pricing_plan_id":"cebpf4jnsgd1na2vs0mg"},{"bike_id":"95ac3875-f146-4303-af46-f73fc1aee76b","system_id":"levelo_inurba_marseille","lat":43.28469,"lon":5.484,"is_reserved":false,"is_disabled":false,"rental_uris":{"android":"levelo://app?vid=95ac3875-f146-4303-af46-f73fc1aee76b","ios":"levelo://app?vid=95ac3875-f146-4303-af46-f73fc1aee76b"},"vehicle_type_id":"4","last_reported":1771423223,"current_range_meters":6000,"station_id":"st_d3svhcjqgbts73a3dn0g","pricing_plan_id":"cebpf4jnsgd1na2vs0mg"},{"bike_id":"b7f87733-4438-47c5-8f3b-bb631c3a62bf","system_id":"levelo_inurba_marseille","lat":43.29963,"lon":5.38493,"is_reserved":false,"is_disabled":true,"rental_uris":{"android":"levelo://app?vid=b7f87733-4438-47c5-8f3b-bb631c3a62bf","ios":"levelo://app?vid=b7f87733-4438-47c5-8f3b-bb631c3a62bf"},"vehicle_type_id":"4","last_reported":1771423223,"current_range_meters":800,"station_id":"ce4bgj92rcd13ifvqbd0","pricing_plan_id":"cebpf4jnsgd1na2vs0mg"},{"bike_id":"5a7441dd-4a33-48a2-b3bf-8431fc7d51d9","system_id":"levelo_inurba_marseille","lat":43.24409,"lon":5.37039,"is_reserved":false,"is_disabled":false,"rental_uris":{"android":"levelo://app?vid=5a7441dd-4a33-48a2-b3bf-8431fc7d51d9","ios":"levelo://app?vid=5a7441dd-4a33-48a2-b3bf-8431fc7d51d9"},"vehicle_type_id":"4","last_reported":1771423223,"current_range_meters":29600,"station_id":"ce4bhhh2rcd13ifvqfk0","pricing_plan_id":"cebpf4jnsgd1na2vs0mg"},{"bike_id":"7c0371cf-0394-4ac1-aa66-ff09705d015f","system_id":"levelo_inurba_marseille","lat":43.28686,"lon":5.38664,"is_reserved":false,"is_disabled":false,"rental_uris":{"android":"levelo://app?vid=7c0371cf-0394-4ac1-aa66-ff09705d015f","ios":"levelo://app?vid=7c0371cf-0394-4ac1-aa66-ff09705d015f"},"vehicle_type_id":"4","last_reported":1771423223,"current_range_meters":18000,"station_id":"ce4bh492rcd13ifvqdug","pricing_plan_id":"cebpf4jnsgd1na2vs0mg"},{"bike_id":"18ceb81d-27e0-4edf-8b51-8d82df69131f","system_id":"levelo_inurba_marseille","lat":43.26572,"lon":5.40324,"is_reserved":false,"is_disabled":false,"rental_uris":{"android":"levelo://app?vid=18ceb81d-27e0-4edf-8b51-8d82df69131f","ios":"levelo://app?vid=18ceb81d-27e0-4edf-8b51-8d82df69131f"},"vehicle_type_id":"4","last_reported":1771423223,"current_range_meters":31200,"station_id":"ce4bhmp2rcd13ifvqgng","pricing_plan_id":"cebpf4jnsgd1na2vs0mg"},{"bike_id":"ce9e9485-2f02-49c5-81ab-b31dbb5f770f","system_id":"levelo_inurba_marseille","lat":43.2409,"lon":5.37756,"is_reserved":false,"is_disabled":false,"rental_uris":{"android":"levelo://app?vid=ce9e9485-2f02-49c5-81ab-b31dbb5f770f","ios":"levelo://app?vid=ce9e9485-2f02-49c5-81ab-b31dbb5f770f"},"vehicle_type_id":"4","last_reported":1771423223,"current_range_meters":39200,"station_id":"ce4bhnp2rcd13ifvqgvg","pricing_plan_id":"cebpf4jnsgd1na2vs0mg"},{"bike_id":"b17b59e0-45b5-4a28-9c0b-fa0d086392c0","system_id":"levelo_inurba_marseille","lat":43.30522,"lon":5.3655,"is_reserved":false,"is_disabled":false,"rental_uris":{"android":"levelo://app?vid=b17b59e0-45b5-4a28-9c0b-fa0d086392c0","ios":"levelo://app?vid=b17b59e0-45b5-4a28-9c0b-fa0d086392c0"},"vehicle_type_id":"4","last_reported":1771423223,"current_range_meters":13600,"station_id":"ce4bgs12rcd13ifvqcag","pricing_plan_id":"cebpf4jnsgd1na2vs0mg"},{"bike_id":"6155bb94-0027-430a-a184-064ee2103de4","system_id":"levelo_inurba_marseille","lat":43.24754,"lon":5.38065,"is_reserved":false,"is_disabled":false,"rental_uris":{"android":"levelo://app?vid=6155bb94-0027-430a-a184-064ee2103de4","ios":"levelo://app?vid=6155bb94-0027-430a-a184-064ee2103de4"},"vehicle_type_id":"4","last_reported":1771423223,"current_range_meters":26000,"station_id":"","pricing_plan_id":"cebpf4jnsgd1na2vs0mg"},{"bike_id":"59dd2ebd-5dec-41f2-a010-f120325ff5df","system_id":"levelo_inurba_marseille","lat":43.29918,"lon":5.37487,"is_reserved":false,"is_disabled":false,"rental_uris":{"android":"levelo://app?vid=59dd2ebd-5dec-41f2-a010-f120325ff5df","ios":"levelo://app?vid=59dd2ebd-5dec-41f2-a010-f120325ff5df"},"vehicle_type_id":"4","last_reported":1771423223,"current_range_meters":35600,"station_id":"ce4bgjh2rcd13ifvqbg0","pricing_plan_id":"cebpf4jnsgd1na2vs0mg"},{"bike_id":"16f9162b-c995-4e49-b3ad-d6ec99be55fd","system_id":"levelo_inurba_marseille","lat":43.30733,"lon":5.42434,"is_reserved":false,"is_disabled":false,"rental_uris":{"android":"levelo://app?vid=16f9162b-c995-4e49-b3ad-d6ec99be55fd","ios":"levelo://app?vid=16f9162b-c995-4e49-b3ad-d6ec99be55fd"},"vehicle_type_id":"4","last_reported":1771423223,"current_range_meters":12000,"station_id":"st_cvj6ca6bvosntc0bfgr0","pricing_plan_id":"cebpf4jnsgd1na2vs0mg"},{"bike_id":"f5a83828-f353-4692-b521-be18cc9b6b45","system_id":"levelo_inurba_marseille","lat":43.2898,"lon":5.35573,"is_reserved":false,"is_disabled":false,"rental_uris":{"android":"levelo://app?vid=f5a83828-f353-4692-b521-be18cc9b6b45","ios":"levelo://app?vid=f5a83828-f353-4692-b521-be18cc9b6b45"},"vehicle_type_id":"4","last_reported":1771423223,"current_range_meters":24800,"station_id":"ce4bhb92rcd13ifvqen0","pricing_plan_id":"cebpf4jnsgd1na2vs0mg"},{"bike_id":"e5a53d9a-99d1-43d7-ae95-edc0215af7c2","system_id":"levelo_inurba_marseille","lat":43.30309,"lon":5.37672,"is_reserved":false,"is_disabled":false,"rental_uris":{"android":"levelo://app?vid=e5a53d9a-99d1-43d7-ae95-edc0215af7c2","ios":"levelo://app?vid=e5a53d9a-99d1-43d7-ae95-edc0215af7c2"},"vehicle_type_id":"4","last_reported":1771423223,"current_range_meters":39200,"station_id":"ce4bguh2rcd13ifvqcj0","pricing_plan_id":"cebpf4jnsgd1na2vs0mg"},{"bike_id":"71077255-d179-4ce7-b671-04d262817497","system_id":"levelo_inurba_marseille","lat":43.31326,"lon":5.39689,"is_reserved":false,"is_disabled":false,"rental_uris":{"android":"levelo://app?vid=71077255-d179-4ce7-b671-04d262817497","ios":"levelo://app?vid=71077255-d179-4ce7-b671-04d262817497"},"vehicle_type_id":"4","last_reported":1771423223,"current_range_meters":34000,"station_id":"ce4bgvp2rcd13ifvqcu0","pricing_plan_id":"cebpf4jnsgd1na2vs0mg"},{"bike_id":"aa2207b7-265c-4ad3-bf19-8d2f813f1c3e","system_id":"levelo_inurba_marseille","lat":43.2455,"lon":5.39525,"is_reserved":false,"is_disabled":false,"rental_uris":{"android":"levelo://app?vid=aa2207b7-265c-4ad3-bf19-8d2f813f1c3e","ios":"levelo://app?vid=aa2207b7-265c-4ad3-bf19-8d2f813f1c3e"},"vehicle_type_id":"4","last_reported":1771423223,"current_range_meters":30400,"station_id":"ce4bhlp2rcd13ifvqgjg","pricing_plan_id":"cebpf4jnsgd1na2vs0mg"},{"bike_id":"73bf502a-28e1-47b3-aaa9-7c0f62e718cb","system_id":"levelo_inurba_marseille","lat":43.298717,"lon":5.397746,"is_reserved":false,"is_disabled":false,"rental_uris":{"android":"levelo://app?vid=73bf502a-28e1-47b3-aaa9-7c0f62e718cb","ios":"levelo://app?vid=73bf502a-28e1-47b3-aaa9-7c0f62e718cb"},"vehicle_type_id":"4","last_reported":1771423223,"current_range_meters":7200,"station_id":"ce4bh0h2rcd13ifvqd50","pricing_plan_id":"cebpf4jnsgd1na2vs0mg"},{"bike_id":"2348469c-45b7-4332-b9e2-b2adf4281a44","system_id":"levelo_inurba_marseille","lat":43.28623,"lon":5.35112,"is_reserved":false,"is_disabled":false,"rental_uris":{"android":"levelo://app?vid=2348469c-45b7-4332-b9e2-b2adf4281a44","ios":"levelo://app?vid=2348469c-45b7-4332-b9e2-b2adf4281a44"},"vehicle_type_id":"4","last_reported":1771423223,"current_range_meters":17600,"station_id":"ce4bhch2rcd13ifvqeug","pricing_plan_id":"cebpf4jnsgd1na2vs0mg"},{"bike_id":"203389d2-db71-424b-bc25-f4ac96ab8010","system_id":"levelo_inurba_marseille","lat":43.27996,"lon":5.41659,"is_reserved":false,"is_disabled":false,"rental_uris":{"android":"levelo://app?vid=203389d2-db71-424b-bc25-f4ac96ab8010","ios":"levelo://app?vid=203389d2-db71-424b-bc25-f4ac96ab8010"},"vehicle_type_id":"4","last_reported":1771423223,"current_range_meters":36400,"station_id":"ce4bho12rcd13ifvqh1g","pricing_plan_id":"cebpf4jnsgd1na2vs0mg"},{"bike_id":"c1b93aaa-3851-4141-a3a2-469a9b9eac56","system_id":"levelo_inurba_marseille","lat":43.312406,"lon":5.368791,"is_reserved":false,"is_disabled":false,"rental_uris":{"android":"levelo://app?vid=c1b93aaa-3851-4141-a3a2-469a9b9eac56","ios":"levelo://app?vid=c1b93aaa-3851-4141-a3a2-469a9b9eac56"},"vehicle_type_id":"4","last_reported":1771423223,"current_range_meters":39200,"station_id":"ce4bgl92rcd13ifvqbq0","pricing_plan_id":"cebpf4jnsgd1na2vs0mg"},{"bike_id":"2c2661ae-ead4-40d4-991b-9fc93c540ace","system_id":"levelo_inurba_marseille","lat":43.2751,"lon":5.42445,"is_reserved":false,"is_disabled":false,"rental_uris":{"android":"levelo://app?vid=2c2661ae-ead4-40d4-991b-9fc93c540ace","ios":"levelo://app?vid=2c2661ae-ead4-40d4-991b-9fc93c540ace"},"vehicle_type_id":"4","last_reported":1771423223,"current_range_meters":23200,"station_id":"ce4bhn92rcd13ifvqgrg","pricing_plan_id":"cebpf4jnsgd1na2vs0mg"},{"bike_id":"6dca4464-4955-47d4-a773-df0c504b4817","system_id":"levelo_inurba_marseille","lat":43.31238,"lon":5.36843,"is_reserved":false,"is_disabled":false,"rental_uris":{"android":"levelo://app?vid=6dca4464-4955-47d4-a773-df0c504b4817","ios":"levelo://app?vid=6dca4464-4955-47d4-a773-df0c504b4817"},"vehicle_type_id":"4","last_reported":1771423223,"current_range_meters":31200,"station_id":"ce4bgl92rcd13ifvqbq0","pricing_plan_id":"cebpf4jnsgd1na2vs0mg"},{"bike_id":"73679b7b-ca48-4c83-aae3-88b61ffe5764","system_id":"levelo_inurba_marseille","lat":43.23212,"lon":5.39942,"is_reserved":false,"is_disabled":false,"rental_uris":{"android":"levelo://app?vid=73679b7b-ca48-4c83-aae3-88b61ffe5764","ios":"levelo://app?vid=73679b7b-ca48-4c83-aae3-88b61ffe5764"},