{"last_updated":1733735492,"ttl":60,"version":"2.2","data":{"bikes":[{"bike_id":"55d7a831-40f8-4501-9bc4-264da11c1dd0","system_id":"levelo_inurba_marseille","lat":43.29269,"lon":5.40126,"is_reserved":false,"is_disabled":false,"rental_uris":{"android":"levelo://app?vid=55d7a831-40f8-4501-9bc4-264da11c1dd0","ios":"levelo://app?vid=55d7a831-40f8-4501-9bc4-264da11c1dd0"},"vehicle_type_id":"4","last_reported":1733735492,"current_range_meters":16000,"station_id":"ce4bh312rcd13ifvqdk0","pricing_plan_id":"cebpf4jnsgd1na2vs0mg"},{"bike_id":"8e029eaf-e104-4c5d-858d-6cd39de73d09","system_id":"levelo_inurba_marseille","lat":43.24162,"lon":5.36403,"is_reserved":false,"is_disabled":false,"rental_uris":{"android":"levelo://app?vid=8e029eaf-e104-4c5d-858d-6cd39de73d09","ios":"levelo://app?vid=8e029eaf-e104-4c5d-858d-6cd39de73d09"},"vehicle_type_id":"4","last_reported":1733735492,"current_range_meters":23200,"station_id":"cpo36qri1sfpv3e86is0","pricing_plan_id":"cebpf4jnsgd1na2vs0mg"},{"bike_id":"3006b2a5-4f4d-4698-b1f8-9554bd0487cc","system_id":"levelo_inurba_marseille","lat":43.29579,"lon":5.37495,"is_reserved":false,"is_disabled":true,"rental_uris":{"android":"levelo://app?vid=3006b2a5-4f4d-4698-b1f8-9554bd0487cc","ios":"levelo://app?vid=3006b2a5-4f4d-4698-b1f8-9554bd0487cc"},"vehicle_type_id":"4","last_reported":1733735492,"current_range_meters":0,"station_id":"ce4bgh92rcd13ifvqb50","pricing_plan_id":"cebpf4jnsgd1na2vs0mg"},{"bike_id":"59e6776f-d4bf-4fc1-9db8-d404c59c553b","system_id":"levelo_inurba_marseille","lat":43.27835,"lon":5.39211,"is_reserved":false,"is_disabled":false,"rental_uris":{"android":"levelo://app?vid=59e6776f-d4bf-4fc1-9db8-d404c59c553b","ios":"levelo://app?vid=59e6776f-d4bf-4fc1-9db8-d404c59c553b"},"vehicle_type_id":"4","last_reported":1733735492,"current_range_meters":12800,"station_id":"ce4bhjp2rcd13ifvqga0","pricing_plan_id":"cebpf4jnsgd1na2vs0mg"},{"bike_id":"1baed02a-e464-43ba-afc4-40178be48c97","system_id":"levelo_inurba_marseille","lat":43.25001,"lon":5.38931,"is_reserved":false,"is_disabled":false,"rental_uris":{"android":"levelo://app?vid=1baed02a-e464-43ba-afc4-40178be48c97","ios":"levelo://app?vid=1baed02a-e464-43ba-afc4-40178be48c97"},"vehicle_type_id":"4","last_reported":1733735492,"current_range_meters":23200,"station_id":"ce4bhgp2rcd13ifvqfd0","pricing_plan_id":"cebpf4jnsgd1na2vs0mg"},{"bike_id":"a8f51250-5df8-4a33-90cc-2bd162226f64","system_id":"levelo_inurba_marseille","lat":43.24179,"lon":5.39721,"is_reserved":false,"is_disabled":false,"rental_uris":{"android":"levelo://app?vid=a8f51250-5df8-4a33-90cc-2bd162226f64","ios":"levelo://app?vid=a8f51250-5df8-4a33-90cc-2bd162226f64"},"vehicle_type_id":"4","last_reported":1733735492,"current_range_meters":35600,"station_id":"ce4bhn12rcd13ifvqgpg","pricing_plan_id":"cebpf4jnsgd1na2vs0mg"},{"bike_id":"8cbf539a-0a33-4377-a87d-af26406b33d8","system_id":"levelo_inurba_marseille","lat":43.26951,"lon":5.38625,"is_reserved":false,"is_disabled":false,"rental_uris":{"android":"levelo://app?vid=8cbf539a-0a33-4377-a87d-af26406b33d8","ios":"levelo://app?vid=8cbf539a-0a33-4377-a87d-af26406b33d8"},"vehicle_type_id":"4","last_reported":1733735492,"current_range_meters":22800,"station_id":"ce4bhh92rcd13ifvqfh0","pricing_plan_id":"cebpf4jnsgd1na2vs0mg"},{"bike_id":"ba5e9603-9efa-46a1-a491-af58be8cd5cb","system_id":"levelo_inurba_marseille","lat":43.32364,"lon":5.36753,"is_reserved":false,"is_disabled":false,"rental_uris":{"android":"levelo://app?vid=ba5e9603-9efa-46a1-a491-af58be8cd5cb","ios":"levelo://app?vid=ba5e9603-9efa-46a1-a491-af58be8cd5cb"},"vehicle_type_id":"4","last_reported":1733735492,"current_range_meters":36400,"station_id":"ce4bhsh2rcd13ifvqi2g","pricing_plan_id":"cebpf4jnsgd1na2vs0mg"},{"bike_id":"5fd8fda4-5ceb-4e39-b9f4-ea27acda2ce7","system_id":"levelo_inurba_marseille","lat":43.27195,"lon":5.40987,"is_reserved":false,"is_disabled":true,"rental_uris":{"android":"levelo://app?vid=5fd8fda4-5ceb-4e39-b9f4-ea27acda2ce7","ios":"levelo://app?vid=5fd8fda4-5ceb-4e39-b9f4-ea27acda2ce7"},"vehicle_type_id":"4","last_reported":1733735492,"current_range_meters":11200,"station_id":"ce4bhl12rcd13ifvqgf0","pricing_plan_id":"cebpf4jnsgd1na2vs0mg"},{"bike_id":"7076e633-86a9-45e7-b89b-adbd9a632e0f","system_id":"levelo_inurba_marseille","lat":43.24382,"lon":5.37055,"is_reserved":false,"is_disabled":false,"rental_uris":{"android":"levelo://app?vid=7076e633-86a9-45e7-b89b-adbd9a632e0f","ios":"levelo://app?vid=7076e633-86a9-45e7-b89b-adbd9a632e0f"},"vehicle_type_id":"4","last_reported":1733735492,"current_range_meters":39200,"station_id":"ce4bhhh2rcd13ifvqfk0","pricing_plan_id":"cebpf4jnsgd1na2vs0mg"},{"bike_id":"8bd642b2-0279-44c7-9ee2-fc3b57332c83","system_id":"levelo_inurba_marseille","lat":43.27455,"lon":5.40073,"is_reserved":false,"is_disabled":true,"rental_uris":{"android":"levelo://app?vid=8bd642b2-0279-44c7-9ee2-fc3b57332c83","ios":"levelo://app?vid=8bd642b2-0279-44c7-9ee2-fc3b57332c83"},"vehicle_type_id":"4","last_reported":1733735492,"current_range_meters":0,"station_id":"","pricing_plan_id":"cebpf4jnsgd1na2vs0mg"},{"bike_id":"4d6734ba-ecfc-4542-90d5-c7f302403810","system_id":"levelo_inurba_marseille","lat":43.25001,"lon":5.38937,"is_reserved":false,"is_disabled":false,"rental_uris":{"android":"levelo://app?vid=4d6734ba-ecfc-4542-90d5-c7f302403810","ios":"levelo://app?vid=4d6734ba-ecfc-4542-90d5-c7f302403810"},"vehicle_type_id":"4","last_reported":1733735492,"current_range_meters":10800,"station_id":"ce4bhgp2rcd13ifvqfd0","pricing_plan_id":"cebpf4jnsgd1na2vs0mg"},{"bike_id":"db83b18e-3a7e-4991-8793-b61a2373ff38","system_id":"levelo_inurba_marseille","lat":43.31359,"lon":5.38487,"is_reserved":false,"is_disabled":false,"rental_uris":{"android":"levelo://app?vid=db83b18e-3a7e-4991-8793-b61a2373ff38","ios":"levelo://app?vid=db83b18e-3a7e-4991-8793-b61a2373ff38"},"vehicle_type_id":"4","last_reported":1733735492,"current_range_meters":13600,"station_id":"ce4bgt92rcd13ifvqcf0","pricing_plan_id":"cebpf4jnsgd1na2vs0mg"},{"bike_id":"49f3e024-9aaa-4aa8-b975-7ff8cccc980f","system_id":"levelo_inurba_marseille","lat":43.31345,"lon":5.36707,"is_reserved":false,"is_disabled":false,"rental_uris":{"android":"levelo://app?vid=49f3e024-9aaa-4aa8-b975-7ff8cccc980f","ios":"levelo://app?vid=49f3e024-9aaa-4aa8-b975-7ff8cccc980f"},"vehicle_type_id":"4","last_reported":1733735492,"current_range_meters":35600,"station_id":"ce4bgr92rcd13ifvqc6g","pricing_plan_id":"cebpf4jnsgd1na2vs0mg"},{"bike_id":"8fccb5c2-2e10-476b-b0ff-85a911329ed6","system_id":"levelo_inurba_marseille","lat":43.30903,"lon":5.3685,"is_reserved":false,"is_disabled":false,"rental_uris":{"android":"levelo://app?vid=8fccb5c2-2e10-476b-b0ff-85a911329ed6","ios":"levelo://app?vid=8fccb5c2-2e10-476b-b0ff-85a911329ed6"},"vehicle_type_id":"4","last_reported":1733735492,"current_range_meters":35200,"station_id":"ce4bgn92rcd13ifvqbvg","pricing_plan_id":"cebpf4jnsgd1na2vs0mg"},{"bike_id":"f09914a1-032a-4233-965f-c73f49a269ba","system_id":"levelo_inurba_marseille","lat":43.337444,"lon":5.374475,"is_reserved":false,"is_disabled":true,"rental_uris":{"android":"levelo://app?vid=f09914a1-032a-4233-965f-c73f49a269ba","ios":"levelo://app?vid=f09914a1-032a-4233-965f-c73f49a269ba"},"vehicle_type_id":"4","last_reported":1733735492,"current_range_meters":0,"station_id":"","pricing_plan_id":"cebpf4jnsgd1na2vs0mg"},{"bike_id":"ca801751-b095-4db9-8a09-965a4a5d5400","system_id":"levelo_inurba_marseille","lat":43.26677,"lon":5.38268,"is_reserved":false,"is_disabled":false,"rental_uris":{"android":"levelo://app?vid=ca801751-b095-4db9-8a09-965a4a5d5400","ios":"levelo://app?vid=ca801751-b095-4db9-8a09-965a4a5d5400"},"vehicle_type_id":"4","last_reported":1733735492,"current_range_meters":38400,"station_id":"ce4bhg92rcd13ifvqf90","pricing_plan_id":"cebpf4jnsgd1na2vs0mg"},{"bike_id":"cb442d5a-cce0-41d7-9c51-b4c2e4d876d4","system_id":"levelo_inurba_marseille","lat":43.32634,"lon":5.36472,"is_reserved":false,"is_disabled":false,"rental_uris":{"android":"levelo://app?vid=cb442d5a-cce0-41d7-9c51-b4c2e4d876d4","ios":"levelo://app?vid=cb442d5a-cce0-41d7-9c51-b4c2e4d876d4"},"vehicle_type_id":"4","last_reported":1733735492,"current_range_meters":28400,"station_id":"","pricing_plan_id":"cebpf4jnsgd1na2vs0mg"},{"bike_id":"650aedbd-7fe9-41b2-ab79-4b8450652642","system_id":"levelo_inurba_marseille","lat":43.29186,"lon":5.35796,"is_reserved":false,"is_disabled":true,"rental_uris":{"android":"levelo://app?vid=650aedbd-7fe9-41b2-ab79-4b8450652642","ios":"levelo://app?vid=650aedbd-7fe9-41b2-ab79-4b8450652642"},"vehicle_type_id":"4","last_reported":1733735492,"current_range_meters":32800,"station_id":"ce4bhb12rcd13ifvqel0","pricing_plan_id":"cebpf4jnsgd1na2vs0mg"},{"bike_id":"e41ed976-6e12-43ea-99b1-7b5a195154d1","system_id":"levelo_inurba_marseille","lat":43.269494,"lon":5.386372,"is_reserved":false,"is_disabled":false,"rental_uris":{"android":"levelo://app?vid=e41ed976-6e12-43ea-99b1-7b5a195154d1","ios":"levelo://app?vid=e41ed976-6e12-43ea-99b1-7b5a195154d1"},"vehicle_type_id":"4","last_reported":1733735492,"current_range_meters":19200,"station_id":"ce4bhh92rcd13ifvqfh0","pricing_plan_id":"cebpf4jnsgd1na2vs0mg"},{"bike_id":"1055c99e-6a30-4bd9-b979-6d399b57fff2","system_id":"levelo_inurba_marseille","lat":43.29892,"lon":5.43658,"is_reserved":false,"is_disabled":false,"rental_uris":{"android":"levelo://app?vid=1055c99e-6a30-4bd9-b979-6d399b57fff2","ios":"levelo://app?vid=1055c99e-6a30-4bd9-b979-6d399b57fff2"},"vehicle_type_id":"4","last_reported":1733735492,"current_range_meters":32000,"station_id":"ce4bhpp2rcd13ifvqhfg","pricing_plan_id":"cebpf4jnsgd1na2vs0mg"},{"bike_id":"e14ff483-f290-4a96-beab-fc577b54c818","system_id":"levelo_inurba_marseille","lat":43.28486,"lon":5.36817,"is_reserved":false,"is_disabled":false,"rental_uris":{"android":"levelo://app?vid=e14ff483-f290-4a96-beab-fc577b54c818","ios":"levelo://app?vid=e14ff483-f290-4a96-beab-fc577b54c818"},"vehicle_type_id":"4","last_reported":1733735492,"current_range_meters":8000,"station_id":"","pricing_plan_id":"cebpf4jnsgd1na2vs0mg"},{"bike_id":"5ed68eb7-74a2-45fc-9637-e721e5028db3","system_id":"levelo_inurba_marseille","lat":43.25864,"lon":5.39898,"is_reserved":false,"is_disabled":false,"rental_uris":{"android":"levelo://app?vid=5ed68eb7-74a2-45fc-9637-e721e5028db3","ios":"levelo://app?vid=5ed68eb7-74a2-45fc-9637-e721e5028db3"},"vehicle_type_id":"4","last_reported":1733735492,"current_range_meters":25600,"station_id":"ce4bhl92rcd13ifvqghg","pricing_plan_id":"cebpf4jnsgd1na2vs0mg"},{"bike_id":"95cfddd6-1f3c-4fd2-9652-931f20cf06bd","system_id":"levelo_inurba_marseille","lat":43.25579,"lon":5.38226,"is_reserved":false,"is_disabled":false,"rental_uris":{"android":"levelo://app?vid=95cfddd6-1f3c-4fd2-9652-931f20cf06bd","ios":"levelo://app?vid=95cfddd6-1f3c-4fd2-9652-931f20cf06bd"},"vehicle_type_id":"4","last_reported":1733735492,"current_range_meters":22000,"station_id":"ce4bhih2rcd13ifvqfs0","pricing_plan_id":"cebpf4jnsgd1na2vs0mg"},{"bike_id":"70842c24-ecf6-4910-86b9-1831a07b6d27","system_id":"levelo_inurba_marseille","lat":43.3311,"lon":5.38218,"is_reserved":false,"is_disabled":false,"rental_uris":{"android":"levelo://app?vid=70842c24-ecf6-4910-86b9-1831a07b6d27","ios":"levelo://app?vid=70842c24-ecf6-4910-86b9-1831a07b6d27"},"vehicle_type_id":"4","last_reported":1733735492,"current_range_meters":27600,"station_id":"","pricing_plan_id":"cebpf4jnsgd1na2vs0mg"},{"bike_id":"177710ab-6c33-41e0-bace-f99a4477c0bc","system_id":"levelo_inurba_marseille","lat":43.24999,"lon":5.38932,"is_reserved":false,"is_disabled":false,"rental_uris":{"android":"levelo://app?vid=177710ab-6c33-41e0-bace-f99a4477c0bc","ios":"levelo://app?vid=177710ab-6c33-41e0-bace-f99a4477c0bc"},"vehicle_type_id":"4","last_reported":1733735492,"current_range_meters":24400,"station_id":"ce4bhgp2rcd13ifvqfd0","pricing_plan_id":"cebpf4jnsgd1na2vs0mg"},{"bike_id":"bbcea475-9cb6-491e-8477-7eda53a87982","system_id":"levelo_inurba_marseille","lat":43.2954,"lon":5.38543,"is_reserved":false,"is_disabled":true,"rental_uris":{"android":"levelo://app?vid=bbcea475-9cb6-491e-8477-7eda53a87982","ios":"levelo://app?vid=bbcea475-9cb6-491e-8477-7eda53a87982"},"vehicle_type_id":"4","last_reported":1733735492,"current_range_meters":34000,"station_id":"ce4bgih2rcd13ifvqba0","pricing_plan_id":"cebpf4jnsgd1na2vs0mg"},{"bike_id":"89ceac00-2c22-4cb1-b85d-583fccdb788b","system_id":"levelo_inurba_marseille","lat":43.321,"lon":5.36781,"is_reserved":false,"is_disabled":false,"rental_uris":{"android":"levelo://app?vid=89ceac00-2c22-4cb1-b85d-583fccdb788b","ios":"levelo://app?vid=89ceac00-2c22-4cb1-b85d-583fccdb788b"},"vehicle_type_id":"4","last_reported":1733735492,"current_range_meters":38800,"station_id":"ce4bhrh2rcd13ifvqhug","pricing_plan_id":"cebpf4jnsgd1na2vs0mg"},{"bike_id":"62f2d370-c816-4136-bd65-6c5118149e01","system_id":"levelo_inurba_marseille","lat":43.27946,"lon":5.41049,"is_reserved":false,"is_disabled":false,"rental_uris":{"android":"levelo://app?vid=62f2d370-c816-4136-bd65-6c5118149e01","ios":"levelo://app?vid=62f2d370-c816-4136-bd65-6c5118149e01"},"vehicle_type_id":"4","last_reported":1733735492,"current_range_meters":18000,"station_id":"ce4bhnp2rcd13ifvqh0g","pricing_plan_id":"cebpf4jnsgd1na2vs0mg"},{"bike_id":"9fe6b7cd-2407-4646-bd70-b263eb65c9e1","system_id":"levelo_inurba_marseille","lat":43.33724,"lon":5.39183,"is_reserved":false,"is_disabled":false,"rental_uris":{"android":"levelo://app?vid=9fe6b7cd-2407-4646-bd70-b263eb65c9e1","ios":"levelo://app?vid=9fe6b7cd-2407-4646-bd70-b263eb65c9e1"},"vehicle_type_id":"4","last_reported":1733735492,"current_range_meters":27200,"station_id":"ce4bhr92rcd13ifvqhsg","pricing_plan_id":"cebpf4jnsgd1na2vs0mg"},{"bike_id":"7ce7cf12-335b-4aea-bf7b-f495438b5ff6","system_id":"levelo_inurba_marseille","lat":43.24164,"lon":5.36389,"is_reserved":false,"is_disabled":false,"rental_uris":{"android":"levelo://app?vid=7ce7cf12-335b-4aea-bf7b-f495438b5ff6","ios":"levelo://app?vid=7ce7cf12-335b-4aea-bf7b-f495438b5ff6"},"vehicle_type_id":"4","last_reported":1733735492,"current_range_meters":11200,"station_id":"cpo36qri1sfpv3e86is0","pricing_plan_id":"cebpf4jnsgd1na2vs0mg"},{"bike_id":"af9e058d-95ec-46e4-9eef-2ecefa97a96d","system_id":"levelo_inurba_marseille","lat":43.24812,"lon":5.37456,"is_reserved":false,"is_disabled":true,"rental_uris":{"android":"levelo://app?vid=af9e058d-95ec-46e4-9eef-2ecefa97a96d","ios":"levelo://app?vid=af9e058d-95ec-46e4-9eef-2ecefa97a96d"},"vehicle_type_id":"4","last_reported":1733735492,"current_range_meters":36800,"station_id":"ce4bhgh2rcd13ifvqfb0","pricing_plan_id":"cebpf4jnsgd1na2vs0mg"},{"bike_id":"938640b4-f78c-4def-9b16-e6205edb88bc","system_id":"levelo_inurba_marseille","lat":43.28154,"lon":5.42636,"is_reserved":false,"is_disabled":true,"rental_uris":{"android":"levelo://app?vid=938640b4-f78c-4def-9b16-e6205edb88bc","ios":"levelo://app?vid=938640b4-f78c-4def-9b16-e6205edb88bc"},"vehicle_type_id":"4","last_reported":1733735492,"current_range_meters":36400,"station_id":"ce4bhnh2rcd13ifvqgug","pricing_plan_id":"cebpf4jnsgd1na2vs0mg"},{"bike_id":"3d4c746d-f598-4448-b218-522fe1b9ba51","system_id":"levelo_inurba_marseille","lat":43.29452,"lon":5.39745,"is_reserved":false,"is_disabled":false,"rental_uris":{"android":"levelo://app?vid=3d4c746d-f598-4448-b218-522fe1b9ba51","ios":"levelo://app?vid=3d4c746d-f598-4448-b218-522fe1b9ba51"},"vehicle_type_id":"4","last_reported":1733735492,"current_range_meters":38800,"station_id":"ce4bh3h2rcd13ifvqdo0","pricing_plan_id":"cebpf4jnsgd1na2vs0mg"},{"bike_id":"cf55b169-9388-4819-bfa4-c55a8fa03873","system_id":"levelo_inurba_marseille","lat":43.27611,"lon":5.36109,"is_reserved":false,"is_disabled":true,"rental_uris":{"android":"levelo://app?vid=cf55b169-9388-4819-bfa4-c55a8fa03873","ios":"levelo://app?vid=cf55b169-9388-4819-bfa4-c55a8fa03873"},"vehicle_type_id":"4","last_reported":1733735492,"current_range_meters":30400,"station_id":"ce4bgj92rcd13ifvqbe0","pricing_plan_id":"cebpf4jnsgd1na2vs0mg"},{"bike_id":"32d80771-6afa-481c-905b-bbdfdc2c61dd","system_id":"levelo_inurba_marseille","lat":43.32477,"lon":5.36581,"is_reserved":false,"is_disabled":true,"rental_uris":{"android":"levelo://app?vid=32d80771-6afa-481c-905b-bbdfdc2c61dd","ios":"levelo://app?vid=32d80771-6afa-481c-905b-bbdfdc2c61dd"},"vehicle_type_id":"4","last_reported":1733735492,"current_range_meters":6400,"station_id":"ce4bhs12rcd13ifvqhvg","pricing_plan_id":"cebpf4jnsgd1na2vs0mg"},{"bike_id":"2f3968e7-9336-4ee4-ba78-8e92c0a818cc","system_id":"levelo_inurba_marseille","lat":43.31322,"lon":5.36647,"is_reserved":false,"is_disabled":true,"rental_uris":{"android":"levelo://app?vid=2f3968e7-9336-4ee4-ba78-8e92c0a818cc","ios":"levelo://app?vid=2f3968e7-9336-4ee4-ba78-8e92c0a818cc"},"vehicle_type_id":"4","last_reported":1733735492,"current_range_meters":0,"station_id":"","pricing_plan_id":"cebpf4jnsgd1na2vs0mg"},{"bike_id":"442ec397-f107-4c75-99a4-d95d87577819","system_id":"levelo_inurba_marseille","lat":43.25502,"lon":5.3765,"is_reserved":false,"is_disabled":false,"rental_uris":{"android":"levelo://app?vid=442ec397-f107-4c75-99a4-d95d87577819","ios":"levelo://app?vid=442ec397-f107-4c75-99a4-d95d87577819"},"vehicle_type_id":"4","last_reported":1733735492,"current_range_meters":29600,"station_id":"ce4bhh12rcd13ifvqff0","pricing_plan_id":"cebpf4jnsgd1na2vs0mg"},{"bike_id":"455ef41c-ae3d-420b-ba62-e3da0f61c8bc","system_id":"levelo_inurba_marseille","lat":43.29793,"lon":5.38107,"is_reserved":false,"is_disabled":false,"rental_uris":{"android":"levelo://app?vid=455ef41c-ae3d-420b-ba62-e3da0f61c8bc","ios":"levelo://app?vid=455ef41c-ae3d-420b-ba62-e3da0f61c8bc"},"vehicle_type_id":"4","last_reported":1733735492,"current_range_meters":33200,"station_id":"ce4bgip2rcd13ifvqbb0","pricing_plan_id":"cebpf4jnsgd1na2vs0mg"},{"bike_id":"6d34cc84-2e6c-4e40-ae0d-d77091ecdb17","system_id":"levelo_inurba_marseille","lat":43.27068,"lon":5.42277,"is_reserved":false,"is_disabled":false,"rental_uris":{"android":"levelo://app?vid=6d34cc84-2e6c-4e40-ae0d-d77091ecdb17","ios":"levelo://app?vid=6d34cc84-2e6c-4e40-ae0d-d77091ecdb17"},"vehicle_type_id":"4","last_reported":1733735492,"current_range_meters":36400,"station_id":"ce4bhk92rcd13ifvqgb0","pricing_plan_id":"cebpf4jnsgd1na2vs0mg"},{"bike_id":"400f0ea8-6588-4f76-b369-fca13002ea1f","system_id":"levelo_inurba_marseille","lat":43.27613,"lon":5.36107,"is_reserved":false,"is_disabled":false,"rental_uris":{"android":"levelo://app?vid=400f0ea8-6588-4f76-b369-fca13002ea1f","ios":"levelo://app?vid=400f0ea8-6588-4f76-b369-fca13002ea1f"},"vehicle_type_id":"4","last_reported":1733735492,"current_range_meters":26000,"station_id":"ce4bgj92rcd13ifvqbe0","pricing_plan_id":"cebpf4jnsgd1na2vs0mg"},{"bike_id":"7f0b121b-7748-43bd-b861-318cbdf6fb69","system_id":"levelo_inurba_marseille","lat":43.28459,"lon":5.35877,"is_reserved":false,"is_disabled":true,"rental_uris":{"android":"levelo://app?vid=7f0b121b-7748-43bd-b861-318cbdf6fb69","ios":"levelo://app?vid=7f0b121b-7748-43bd-b861-318cbdf6fb69"},"vehicle_type_id":"4","last_reported":1733735492,"current_range_meters":6400,"station_id":"ce4bhah2rcd13ifvqei0","pricing_plan_id":"cebpf4jnsgd1na2vs0mg"},{"bike_id":"6583aefc-6815-4bd5-8f5c-a9c5d794f47e","system_id":"levelo_inurba_marseille","lat":43.36443,"lon":5.34241,"is_reserved":false,"is_disabled":false,"rental_uris":{"android":"levelo://app?vid=6583aefc-6815-4bd5-8f5c-a9c5d794f47e","ios":"levelo://app?vid=6583aefc-6815-4bd5-8f5c-a9c5d794f47e"},"vehicle_type_id":"4","last_reported":1733735492,"current_range_meters":15200,"station_id":"","pricing_plan_id":"cebpf4jnsgd1na2vs0mg"},{"bike_id":"de0ba87f-2b03-499b-a935-565f442183ab","system_id":"levelo_inurba_marseille","lat":43.26572,"lon":5.39007,"is_reserved":false,"is_disabled":false,"rental_uris":{"android":"levelo://app?vid=de0ba87f-2b03-499b-a935-565f442183ab","ios":"levelo://app?vid=de0ba87f-2b03-499b-a935-565f442183ab"},"vehicle_type_id":"4","last_reported":1733735492,"current_range_meters":34000,"station_id":"ce4bhe12rcd13ifvqf30","pricing_plan_id":"cebpf4jnsgd1na2vs0mg"},{"bike_id":"6738dbdc-10d7-4808-8efe-1811d7c261b3","system_id":"levelo_inurba_marseille","lat":43.30535,"lon":5.36691,"is_reserved":false,"is_disabled":false,"rental_uris":{"android":"levelo://app?vid=6738dbdc-10d7-4808-8efe-1811d7c261b3","ios":"levelo://app?vid=6738dbdc-10d7-4808-8efe-1811d7c261b3"},"vehicle_type_id":"4","last_reported":1733735492,"current_range_meters":14800,"station_id":"ce4bgrp2rcd13ifvqc9g","pricing_plan_id":"cebpf4jnsgd1na2vs0mg"},{"bike_id":"8c7a6400-9f79-403c-b59a-e8e456bb0ff8","system_id":"levelo_inurba_marseille","lat":43.27068,"lon":5.42272,"is_reserved":false,"is_disabled":false,"rental_uris":{"android":"levelo://app?vid=8c7a6400-9f79-403c-b59a-e8e456bb0ff8","ios":"levelo://app?vid=8c7a6400-9f79-403c-b59a-e8e456bb0ff8"},"vehicle_type_id":"4","last_reported":1733735492,"current_range_meters":38800,"station_id":"ce4bhk92rcd13ifvqgb0","pricing_plan_id":"cebpf4jnsgd1na2vs0mg"},{"bike_id":"60d0b96e-2c7a-4c0d-ac33-77ab1bebe474","system_id":"levelo_inurba_marseille","lat":43.32059,"lon":5.41557,"is_reserved":false,"is_disabled":false,"rental_uris":{"android":"levelo://app?vid=60d0b96e-2c7a-4c0d-ac33-77ab1bebe474","ios":"levelo://app?vid=60d0b96e-2c7a-4c0d-ac33-77ab1bebe474"},"vehicle_type_id":"4","last_reported":1733735492,"current_range_meters":28400,"station_id":"ce4bhq92rcd13ifvqhkg","pricing_plan_id":"cebpf4jnsgd1na2vs0mg"},{"bike_id":"468d023e-e483-49f2-92d7-7b95c7b3c650","system_id":"levelo_inurba_marseille","lat":43.298935,"lon":5.436557,"is_reserved":false,"is_disabled":false,"rental_uris":{"android":"levelo://app?vid=468d023e-e483-49f2-92d7-7b95c7b3c650","ios":"levelo://app?vid=468d023e-e483-49f2-92d7-7b95c7b3c650"},"vehicle_type_id":"4","last_reported":1733735492,"current_range_meters":6000,"station_id":"ce4bhpp2rcd13ifvqhfg","pricing_plan_id":"cebpf4jnsgd1na2vs0mg"},{"bike_id":"2c1b2324-f9c3-428b-8991-5768d22455e3","system_id":"levelo_inurba_marseille","lat":43.27189,"lon":5.40995,"is_reserved":false,"is_disabled":false,"rental_uris":{"android":"levelo://app?vid=2c1b2324-f9c3-428b-8991-5768d22455e3","ios":"levelo://app?vid=2c1b2324-f9c3-428b-8991-5768d22455e3"},"vehicle_type_id":"4","last_reported":1733735492,"current_range_meters":30800,"station_id":"ce4bhl12rcd13ifvqgf0","pricing_plan_id":"cebpf4jnsgd1na2vs0mg"},{"bike_id":"9a4c1697-0c8c-48d4-ba0e-1d67a9869b13","system_id":"levelo_inurba_marseille","lat":43.297882,"lon":5.381037,"is_reserved":false,"is_disabled":false,"rental_uris":{"android":"levelo://app?vid=9a4c1697-0c8c-48d4-ba0e-1d67a9869b13","ios":"levelo://app?vid=9a4c1697-0c8c-48d4-ba0e-1d67a9869b13"},"vehicle_type_id":"4","last_reported":1733735492,"current_range_meters":34800,"station_id":"","pricing_plan_id":"cebpf4jnsgd1na2vs0mg"},{"bike_id":"be11bf77-dce6-4575-b3d6-de65c68412a2","system_id":"levelo_inurba_marseille","lat":43.26065,"lon":5.39385,"is_reserved":false,"is_disabled":false,"rental_uris":{"android":"levelo://app?vid=be11bf77-dce6-4575-b3d6-de65c68412a2","ios":"levelo://app?vid=be11bf77-dce6-4575-b3d6-de65c68412a2"},"vehicle_type_id":"4","last_reported":1733735492,"current_range_meters":36800,"station_id":"ce4bhh92rcd13ifvqfj0","pricing_plan_id":"cebpf4jnsgd1na2vs0mg"},{"bike_id":"91be662f-0a90-49fb-8d10-2f6c7f6af74f","system_id":"levelo_inurba_marseille","lat":43.29008,"lon":5.35611,"is_reserved":false,"is_disabled":false,"rental_uris":{"android":"levelo://app?vid=91be662f-0a90-49fb-8d10-2f6c7f6af74f","ios":"levelo://app?vid=91be662f-0a90-49fb-8d10-2f6c7f6af74f"},"vehicle_type_id":"4","last_reported":1733735492,"current_range_meters":38400,"station_id":"ce4bhb92rcd13ifvqen0","pricing_plan_id":"cebpf4jnsgd1na2vs0mg"},{"bike_id":"f10c5e90-601b-4bd4-87e7-4cbb6a13a4fb","system_id":"levelo_inurba_marseille","lat":43.26123,"lon":5.39268,"is_reserved":false,"is_disabled":true,"rental_uris":{"android":"levelo://app?vid=f10c5e90-601b-4bd4-87e7-4cbb6a13a4fb","ios":"levelo://app?vid=f10c5e90-601b-4bd4-87e7-4cbb6a13a4fb"},"vehicle_type_id":"4","last_reported":1733735492,"current_range_meters":0,"station_id":"","pricing_plan_id":"cebpf4jnsgd1na2vs0mg"},{"bike_id":"e49bac90-7c8f-4468-a1ce-d43e7732a138","system_id":"levelo_inurba_marseille","lat":43.34121,"lon":5.40944,"is_reserved":false,"is_disabled":false,"rental_uris":{"android":"levelo://app?vid=e49bac90-7c8f-4468-a1ce-d43e7732a138","ios":"levelo://app?vid=e49bac90-7c8f-4468-a1ce-d43e7732a138"},"vehicle_type_id":"4","last_reported":1733735492,"current_range_meters":38800,"station_id":"ce4bhqh2rcd13ifvqhlg","pricing_plan_id":"cebpf4jnsgd1na2vs0mg"},{"bike_id":"a9c92845-55ae-4653-9c5d-606f306a0f38","system_id":"levelo_inurba_marseille","lat":43.2706,"lon":5.40266,"is_reserved":false,"is_disabled":false,"rental_uris":{"android":"levelo://app?vid=a9c92845-55ae-4653-9c5d-606f306a0f38","ios":"levelo://app?vid=a9c92845-55ae-4653-9c5d-606f306a0f38"},"vehicle_type_id":"4","last_reported":1733735492,"current_range_meters":38000,"station_id":"ce4bhk92rcd13ifvqgc0","pricing_plan_id":"cebpf4jnsgd1na2vs0mg"},{"bike_id":"7421e3f1-63c3-42f1-aa3e-9e31fa52e606","system_id":"levelo_inurba_marseille","lat":43.26564,"lon":5.39004,"is_reserved":false,"is_disabled":false,"rental_uris":{"android":"levelo://app?vid=7421e3f1-63c3-42f1-aa3e-9e31fa52e606","ios":"levelo://app?vid=7421e3f1-63c3-42f1-aa3e-9e31fa52e606"},"vehicle_type_id":"4","last_reported":1733735492,"current_range_meters":25200,"station_id":"ce4bhe12rcd13ifvqf30","pricing_plan_id":"cebpf4jnsgd1na2vs0mg"},{"bike_id":"817da011-353f-4414-b975-a91eec1f0ce1","system_id":"levelo_inurba_marseille","lat":43.27999,"lon":5.40009,"is_reserved":false,"is_disabled":false,"rental_uris":{"android":"levelo://app?vid=817da011-353f-4414-b975-a91eec1f0ce1","ios":"levelo://app?vid=817da011-353f-4414-b975-a91eec1f0ce1"},"vehicle_type_id":"4","last_reported":1733735492,"current_range_meters":30400,"station_id":"ce4bho92rcd13ifvqh4g","pricing_plan_id":"cebpf4jnsgd1na2vs0mg"},{"bike_id":"dea2bed1-602b-4bd6-a848-8c099d7bd802","system_id":"levelo_inurba_marseille","lat":43.24082,"lon":5.37748,"is_reserved":false,"is_disabled":false,"rental_uris":{"android":"levelo://app?vid=dea2bed1-602b-4bd6-a848-8c099d7bd802","ios":"levelo://app?vid=dea2bed1-602b-4bd6-a848-8c099d7bd802"},"vehicle_type_id":"4","last_reported":1733735492,"current_range_meters":34800,"station_id":"ce4bhnp2rcd13ifvqgvg","pricing_plan_id":"cebpf4jnsgd1na2vs0mg"},{"bike_id":"57f03205-ed9c-437a-8096-e5205544ae73","system_id":"levelo_inurba_marseille","lat":43.309528,"lon":5.390247,"is_reserved":false,"is_disabled":false,"rental_uris":{"android":"levelo://app?vid=57f03205-ed9c-437a-8096-e5205544ae73","ios":"levelo://app?vid=57f03205-ed9c-437a-8096-e5205544ae73"},"vehicle_type_id":"4","last_reported":1733735492,"current_range_meters":39200,"station_id":"ce4bgup2rcd13ifvqco0","pricing_plan_id":"cebpf4jnsgd1na2vs0mg"},{"bike_id":"e23cee80-994b-465d-a199-77212dcb20aa","system_id":"levelo_inurba_marseille","lat":43.25002,"lon":5.38928,"is_reserved":false,"is_disabled":false,"rental_uris":{"android":"levelo://app?vid=e23cee80-994b-465d-a199-77212dcb20aa","ios":"levelo://app?vid=e23cee80-994b-465d-a199-77212dcb20aa"},"vehicle_type_id":"4","last_reported":1733735492,"current_range_meters":12000,"station_id":"ce4bhgp2rcd13ifvqfd0","pricing_plan_id":"cebpf4jnsgd1na2vs0mg"},{"bike_id":"1cac5cf1-44de-417e-a41a-17392ee92558","system_id":"levelo_inurba_marseille","lat":43.29306,"lon":5.37163,"is_reserved":false,"is_disabled":false,"rental_uris":{"android":"levelo://app?vid=1cac5cf1-44de-417e-a41a-17392ee92558","ios":"levelo://app?vid=1cac5cf1-44de-417e-a41a-17392ee92558"},"vehicle_type_id":"4","last_reported":1733735492,"current_range_meters":32000,"station_id":"ce4bgh92rcd13ifvqb40","pricing_plan_id":"cebpf4jnsgd1na2vs0mg"},{"bike_id":"58c4a809-128a-4b73-86b2-6406fa5b615d","system_id":"levelo_inurba_marseille","lat":43.30529,"lon":5.36698,"is_reserved":false,"is_disabled":false,"rental_uris":{"android":"levelo://app?vid=58c4a809-128a-4b73-86b2-6406fa5b615d","ios":"levelo://app?vid=58c4a809-128a-4b73-86b2-6406fa5b615d"},"vehicle_type_id":"4","last_reported":1733735492,"current_range_meters":37600,"station_id":"ce4bgrp2rcd13ifvqc9g","pricing_plan_id":"cebpf4jnsgd1na2vs0mg"},{"bike_id":"44929562-8075-4161-b0b0-11262546f85c","system_id":"levelo_inurba_marseille","lat":43.31703,"lon":5.40442,"is_reserved":false,"is_disabled":false,"rental_uris":{"android":"levelo://app?vid=44929562-8075-4161-b0b0-11262546f85c","ios":"levelo://app?vid=44929562-8075-4161-b0b0-11262546f85c"},"vehicle_type_id":"4","last_reported":1733735492,"current_range_meters":24400,"station_id":"ce4bh012rcd13ifvqd00","pricing_plan_id":"cebpf4jnsgd1na2vs0mg"},{"bike_id":"0b591eb0-f3e5-4907-9bd0-84a70636c58f","system_id":"levelo_inurba_marseille","lat":43.3135,"lon":5.36711,"is_reserved":false,"is_disabled":false,"rental_uris":{"android":"levelo://app?vid=0b591eb0-f3e5-4907-9bd0-84a70636c58f","ios":"levelo://app?vid=0b591eb0-f3e5-4907-9bd0-84a70636c58f"},"vehicle_type_id":"4","last_reported":1733735492,"current_range_meters":32000,"station_id":"ce4bgr92rcd13ifvqc6g","pricing_plan_id":"cebpf4jnsgd1na2vs0mg"},{"bike_id":"1a572d35-d484-45c0-8bc4-913107598312","system_id":"levelo_inurba_marseille","lat":43.27373,"lon":5.36247,"is_reserved":false,"is_disabled":false,"rental_uris":{"android":"levelo://app?vid=1a572d35-d484-45c0-8bc4-913107598312","ios":"levelo://app?vid=1a572d35-d484-45c0-8bc4-913107598312"},"vehicle_type_id":"4","last_reported":1733735492,"current_range_meters":28800,"station_id":"ce4bhbh2rcd13ifvqeo0","pricing_plan_id":"cebpf4jnsgd1na2vs0mg"},{"bike_id":"9aa3780a-6013-45f7-8f19-55cea3085c1f","system_id":"levelo_inurba_marseille","lat":43.27492,"lon":5.4244,"is_reserved":false,"is_disabled":false,"rental_uris":{"android":"levelo://app?vid=9aa3780a-6013-45f7-8f19-55cea3085c1f","ios":"levelo://app?vid=9aa3780a-6013-45f7-8f19-55cea3085c1f"},"vehicle_type_id":"4","last_reported":1733735492,"current_range_meters":28000,"station_id":"ce4bhn92rcd13ifvqgrg","pricing_plan_id":"cebpf4jnsgd1na2vs0mg"},{"bike_id":"dd7d5d75-bedb-4589-916b-916f600d8dbb","system_id":"levelo_inurba_marseille","lat":43.29721,"lon":5.3769,"is_reserved":false,"is_disabled":false,"rental_uris":{"android":"levelo://app?vid=dd7d5d75-bedb-4589-916b-916f600d8dbb","ios":"levelo://app?vid=dd7d5d75-bedb-4589-916b-916f600d8dbb"},"vehicle_type_id":"4","last_reported":1733735492,"current_range_meters":30800,"station_id":"ce4bgkh2rcd13ifvqbl0","pricing_plan_id":"cebpf4jnsgd1na2vs0mg"},{"bike_id":"67378829-8746-46f4-aa10-ed9b35d85ab5","system_id":"levelo_inurba_marseille","lat":43.28934,"lon":5.36627,"is_reserved":false,"is_disabled":true,"rental_uris":{"android":"levelo://app?vid=67378829-8746-46f4-aa10-ed9b35d85ab5","ios":"levelo://app?vid=67378829-8746-46f4-aa10-ed9b35d85ab5"},"vehicle_type_id":"4","last_reported":1733735492,"current_range_meters":37600,"station_id":"ce4bhap2rcd13ifvqek0","pricing_plan_id":"cebpf4jnsgd1na2vs0mg"},{"bike_id":"74ddbdc3-b082-4f44-a075-38dfc2e6b2cd","system_id":"levelo_inurba_marseille","lat":43.24161,"lon":5.36386,"is_reserved":false,"is_disabled":false,"rental_uris":{"android":"levelo://app?vid=74ddbdc3-b082-4f44-a075-38dfc2e6b2cd","ios":"levelo://app?vid=74ddbdc3-b082-4f44-a075-38dfc2e6b2cd"},"vehicle_type_id":"4","last_reported":1733735492,"current_range_meters":27600,"station_id":"cpo36qri1sfpv3e86is0","pricing_plan_id":"cebpf4jnsgd1na2vs0mg"},{"bike_id":"d2a8f726-48ff-4491-8310-12938e06dce7","system_id":"levelo_inurba_marseille","lat":43.30884,"lon":5.39639,"is_reserved":false,"is_disabled":false,"rental_uris":{"android":"levelo://app?vid=d2a8f726-48ff-4491-8310-12938e06dce7","ios":"levelo://app?vid=d2a8f726-48ff-4491-8310-12938e06dce7"},"vehicle_type_id":"4","last_reported":1733735492,"current_range_meters":28400,"station_id":"ce4bh012rcd13ifvqcv0","pricing_plan_id":"cebpf4jnsgd1na2vs0mg"},{"bike_id":"8171ac9a-b6ac-4295-aad4-cdf4428d56ee","system_id":"levelo_inurba_marseille","lat":43.23188,"lon":5.35543,"is_reserved":false,"is_disabled":false,"rental_uris":{"android":"levelo://app?vid=8171ac9a-b6ac-4295-aad4-cdf4428d56ee","ios":"levelo://app?vid=8171ac9a-b6ac-4295-aad4-cdf4428d56ee"},"vehicle_type_id":"4","last_reported":1733735492,"current_range_meters":8800,"station_id":"ce4bhu92rcd13ifvqi70","pricing_plan_id":"cebpf4jnsgd1na2vs0mg"},{"bike_id":"35172008-bffd-4bf9-9720-ab88e5f3cfd8","system_id":"levelo_inurba_marseille","lat":43.27067,"lon":5.42274,"is_reserved":false,"is_disabled":false,"rental_uris":{"android":"levelo://app?vid=35172008-bffd-4bf9-9720-ab88e5f3cfd8","ios":"levelo://app?vid=35172008-bffd-4bf9-9720-ab88e5f3cfd8"},"vehicle_type_id":"4","last_reported":1733735492,"current_range_meters":38800,"station_id":"ce4bhk92rcd13ifvqgb0","pricing_plan_id":"cebpf4jnsgd1na2vs0mg"},{"bike_id":"f942e722-5039-4601-9971-0207b150598d","system_id":"levelo_inurba_marseille","lat":43.29857,"lon":5.36287,"is_reserved":false,"is_disabled":false,"rental_uris":{"android":"levelo://app?vid=f942e722-5039-4601-9971-0207b150598d","ios":"levelo://app?vid=f942e722-5039-4601-9971-0207b150598d"},"vehicle_type_id":"4","last_reported":1733735492,"current_range_meters":22000,"station_id":"ce4bgpp2rcd13ifvqc3g","pricing_plan_id":"cebpf4jnsgd1na2vs0mg"},{"bike_id":"9cd79aab-6f4c-4919-b570-803a9e8b35c5","system_id":"levelo_inurba_marseille","lat":43.30464,"lon":5.36709,"is_reserved":false,"is_disabled":true,"rental_uris":{"android":"levelo://app?vid=9cd79aab-6f4c-4919-b570-803a9e8b35c5","ios":"levelo://app?vid=9cd79aab-6f4c-4919-b570-803a9e8b35c5"},"vehicle_type_id":"4","last_reported":1733735492,"current_range_meters":28400,"station_id":"","pricing_plan_id":"cebpf4jnsgd1na2vs0mg"},{"bike_id":"8aff6776-3096-4300-a6eb-e6d90bea1957","system_id":"levelo_inurba_marseille","lat":43.2903,"lon":5.39983,"is_reserved":false,"is_disabled":false,"rental_uris":{"android":"levelo://app?vid=8aff6776-3096-4300-a6eb-e6d90bea1957","ios":"levelo://app?vid=8aff6776-3096-4300-a6eb-e6d90bea1957"},"vehicle_type_id":"4","last_reported":1733735492,"current_range_meters":38000,"station_id":"ce4bh392rcd13ifvqdm0","pricing_plan_id":"cebpf4jnsgd1na2vs0mg"},{"bike_id":"4a74c10f-6658-453e-959b-726fe1311d20","system_id":"levelo_inurba_marseille","lat":43.30906,"lon":5.36854,"is_reserved":false,"is_disabled":false,"rental_uris":{"android":"levelo://app?vid=4a74c10f-6658-453e-959b-726fe1311d20","ios":"levelo://app?vid=4a74c10f-6658-453e-959b-726fe1311d20"},"vehicle_type_id":"4","last_reported":1733735492,"current_range_meters":38400,"station_id":"ce4bgn92rcd13ifvqbvg","pricing_plan_id":"cebpf4jnsgd1na2vs0mg"},{"bike_id":"d316433b-de77-48bf-9cbb-3830eee5ce74","system_id":"levelo_inurba_marseille","lat":43.27992,"lon":5.41658,"is_reserved":false,"is_disabled":true,"rental_uris":{"android":"levelo://app?vid=d316433b-de77-48bf-9cbb-3830eee5ce74","ios":"levelo://app?vid=d316433b-de77-48bf-9cbb-3830eee5ce74"},"vehicle_type_id":"4","last_reported":1733735492,"current_range_meters":0,"station_id":"ce4bho12rcd13ifvqh1g","pricing_plan_id":"cebpf4jnsgd1na2vs0mg"},{"bike_id":"165d3311-a977-4745-b689-5e6993d37f26","system_id":"levelo_inurba_marseille","lat":43.3249,"lon":5.36577,"is_reserved":false,"is_disabled":true,"rental_uris":{"android":"levelo://app?vid=165d3311-a977-4745-b689-5e6993d37f26","ios":"levelo://app?vid=165d3311-a977-4745-b689-5e6993d37f26"},"vehicle_type_id":"4","last_reported":1733735492,"current_range_meters":38800,"station_id":"ce4bhs12rcd13ifvqhvg","pricing_plan_id":"cebpf4jnsgd1na2vs0mg"},{"bike_id":"46010d90-dde3-4883-8f93-a37adb0c7913","system_id":"levelo_inurba_marseille","lat":43.31347,"lon":5.36718,"is_reserved":false,"is_disabled":true,"rental_uris":{"android":"levelo://app?vid=46010d90-dde3-4883-8f93-a37adb0c7913","ios":"levelo://app?vid=46010d90-dde3-4883-8f93-a37adb0c7913"},"vehicle_type_id":"4","last_reported":1733735492,"current_range_meters":30000,"station_id":"ce4bgr92rcd13ifvqc6g","pricing_plan_id":"cebpf4jnsgd1na2vs0mg"},{"bike_id":"b2029abd-d39e-42a8-a020-1a718141f5d4","system_id":"levelo_inurba_marseille","lat":43.27491,"lon":5.42449,"is_reserved":false,"is_disabled":false,"rental_uris":{"android":"levelo://app?vid=b2029abd-d39e-42a8-a020-1a718141f5d4","ios":"levelo://app?vid=b2029abd-d39e-42a8-a020-1a718141f5d4"},"vehicle_type_id":"4","last_reported":1733735492,"current_range_meters":25200,"station_id":"ce4bhn92rcd13ifvqgrg","pricing_plan_id":"cebpf4jnsgd1na2vs0mg"},{"bike_id":"11e86528-eb6b-4391-86a5-9b1822d069a4","system_id":"levelo_inurba_marseille","lat":43.278805,"lon":5.388003,"is_reserved":false,"is_disabled":true,"rental_uris":{"android":"levelo://app?vid=11e86528-eb6b-4391-86a5-9b1822d069a4","ios":"levelo://app?vid=11e86528-eb6b-4391-86a5-9b1822d069a4"},"vehicle_type_id":"4","last_reported":1733735492,"current_range_meters":0,"station_id":"","pricing_plan_id":"cebpf4jnsgd1na2vs0mg"},{"bike_id":"6cc6805f-c0ca-4585-bdf1-b5a0339762b0","system_id":"levelo_inurba_marseille","lat":43.29027,"lon":5.42744,"is_reserved":false,"is_disabled":true,"rental_uris":{"android":"levelo://app?vid=6cc6805f-c0ca-4585-bdf1-b5a0339762b0","ios":"levelo://app?vid=6cc6805f-c0ca-4585-bdf1-b5a0339762b0"},"vehicle_type_id":"4","last_reported":1733735492,"current_range_meters":0,"station_id":"","pricing_plan_id":"cebpf4jnsgd1na2vs0mg"},{"bike_id":"a478bcff-2af8-4db5-8351-cdbe6b849a6d","system_id":"levelo_inurba_marseille","lat":43.3346,"lon":5.3622,"is_reserved":false,"is_disabled":true,"rental_uris":{"android":"levelo://app?vid=a478bcff-2af8-4db5-8351-cdbe6b849a6d","ios":"levelo://app?vid=a478bcff-2af8-4db5-8351-cdbe6b849a6d"},"vehicle_type_id":"4","last_reported":1733735492,"current_range_meters":0,"station_id":"","pricing_plan_id":"cebpf4jnsgd1na2vs0mg"},{"bike_id":"119d4240-b6ae-449e-8bc5-ea0fef34c576","system_id":"levelo_inurba_marseille","lat":43.29071,"lon":5.37172,"is_reserved":false,"is_disabled":false,"rental_uris":{"android":"levelo://app?vid=119d4240-b6ae-449e-8bc5-ea0fef34c576","ios":"levelo://app?vid=119d4240-b6ae-449e-8bc5-ea0fef34c576"},"vehicle_type_id":"4","last_reported":1733735492,"current_range_meters":26000,"station_id":"ce4bh5p2rcd13ifvqe4g","pricing_plan_id":"cebpf4jnsgd1na2vs0mg"},{"bike_id":"3369b8a9-294e-4f80-9dfc-d9c32096bff6","system_id":"levelo_inurba_marseille","lat":43.28478,"lon":5.38416,"is_reserved":false,"is_disabled":false,"rental_uris":{"android":"levelo://app?vid=3369b8a9-294e-4f80-9dfc-d9c32096bff6","ios":"levelo://app?vid=3369b8a9-294e-4f80-9dfc-d9c32096bff6"},"vehicle_type_id":"4","last_reported":1733735492,"current_range_meters":27600,"station_id":"ce4bgr92rcd13ifvqc6g","pricing_plan_id":"cebpf4jnsgd1na2vs0mg"},{"bike_id":"7eb6dfb6-6da7-49ed-b380-aa64e5c5e4b4","system_id":"levelo_inurba_marseille","lat":43.30538,"lon":5.36699,"is_reserved":false,"is_disabled":false,"rental_uris":{"android":"levelo://app?vid=7eb6dfb6-6da7-49ed-b380-aa64e5c5e4b4","ios":"levelo://app?vid=7eb6dfb6-6da7-49ed-b380-aa64e5c5e4b4"},"vehicle_type_id":"4","last_reported":1733735492,"current_range_meters":28400,"station_id":"ce4bgrp2rcd13ifvqc9g","pricing_plan_id":"cebpf4jnsgd1na2vs0mg"},{"bike_id":"09cdbbd6-9018-4c4b-bdbe-0e1a278a7c74","system_id":"levelo_inurba_marseille","lat":43.30537,"lon":5.37273,"is_reserved":false,"is_disabled":false,"rental_uris":{"android":"levelo://app?vid=09cdbbd6-9018-4c4b-bdbe-0e1a278a7c74","ios":"levelo://app?vid=09cdbbd6-9018-4c4b-bdbe-0e1a278a7c74"},"vehicle_type_id":"4","last_reported":1733735492,"current_range_meters":4000,"station_id":"","pricing_plan_id":"cebpf4jnsgd1na2vs0mg"},{"bike_id":"ea9504d9-aff2-4542-b984-f952cc4ceb4b","system_id":"levelo_inurba_marseille","lat":43.25009,"lon":5.38919,"is_reserved":false,"is_disabled":false,"rental_uris":{"android":"levelo://app?vid=ea9504d9-aff2-4542-b984-f952cc4ceb4b","ios":"levelo://app?vid=ea9504d9-aff2-4542-b984-f952cc4ceb4b"},"vehicle_type_id":"4","last_reported":1733735492,"current_range_meters":7200,"station_id":"ce4bhgp2rcd13ifvqfd0","pricing_plan_id":"cebpf4jnsgd1na2vs0mg"},{"bike_id":"ee1bd046-e8e1-4799-afbf-a4e41237c099","system_id":"levelo_inurba_marseille","lat":43.26687,"lon":5.38274,"is_reserved":false,"is_disabled":false,"rental_uris":{"android":"levelo://app?vid=ee1bd046-e8e1-4799-afbf-a4e41237c099","ios":"levelo://app?vid=ee1bd046-e8e1-4799-afbf-a4e41237c099"},"vehicle_type_id":"4","last_reported":1733735492,"current_range_meters":18000,"station_id":"ce4bhg92rcd13ifvqf90","pricing_plan_id":"cebpf4jnsgd1na2vs0mg"},{"bike_id":"cf995f0f-a2d6-4303-85db-6d52c33aec36","system_id":"levelo_inurba_marseille","lat":43.33021,"lon":5.39032,"is_reserved":false,"is_disabled":false,"rental_uris":{"android":"levelo://app?vid=cf995f0f-a2d6-4303-85db-6d52c33aec36","ios":"levelo://app?vid=cf995f0f-a2d6-4303-85db-6d52c33aec36"},"vehicle_type_id":"4","last_reported":1733735492,"current_range_meters":39200,"station_id":"ce4bhr92rcd13ifvqhrg","pricing_plan_id":"cebpf4jnsgd1na2vs0mg"},{"bike_id":"cbf9c981-cbe9-407f-b4c6-5d2065d44b78","system_id":"levelo_inurba_marseille","lat":43.33025,"lon":5.39046,"is_reserved":false,"is_disabled":false,"rental_uris":{"android":"levelo://app?vid=cbf9c981-cbe9-407f-b4c6-5d2065d44b78","ios":"levelo://app?vid=cbf9c981-cbe9-407f-b4c6-5d2065d44b78"},"vehicle_type_id":"4","last_reported":1733735492,"current_range_meters":24800,"station_id":"ce4bhr92rcd13ifvqhrg","pricing_plan_id":"cebpf4jnsgd1na2vs0mg"},{"bike_id":"e301fb9b-fdcc-43a0-ab66-d6957eaeb5ee","system_id":"levelo_inurba_marseille","lat":43.23148,"lon":5.43721,"is_reserved":false,"is_disabled":false,"rental_uris":{"android":"levelo://app?vid=e301fb9b-fdcc-43a0-ab66-d6957eaeb5ee","ios":"levelo://app?vid=e301fb9b-fdcc-43a0-ab66-d6957eaeb5ee"},"vehicle_type_id":"4","last_reported":1733735492,"current_range_meters":39200,"station_id":"ce4bhmp2rcd13ifvqgog","pricing_plan_id":"cebpf4jnsgd1na2vs0mg"},{"bike_id":"3a1cabfd-7ea0-40e5-ba2a-bc16f7acb1fa","system_id":"levelo_inurba_marseille","lat":43.34335,"lon":5.35815,"is_reserved":false,"is_disabled":true,"rental_uris":{"android":"levelo://app?vid=3a1cabfd-7ea0-40e5-ba2a-bc16f7acb1fa","ios":"levelo://app?vid=3a1cabfd-7ea0-40e5-ba2a-bc16f7acb1fa"},"vehicle_type_id":"4","last_reported":1733735492,"current_range_meters":0,"station_id":"","pricing_plan_id":"cebpf4jnsgd1na2vs0mg"},{"bike_id":"243c0fa9-fb27-4111-81f0-175e30eaaaed","system_id":"levelo_inurba_marseille","lat":43.29045,"lon":5.35908,"is_reserved":false,"is_disabled":true,"rental_uris":{"android":"levelo://app?vid=243c0fa9-fb27-4111-81f0-175e30eaaaed","ios":"levelo://app?vid=243c0fa9-fb27-4111-81f0-175e30eaaaed"},"vehicle_type_id":"4","last_reported":1733735492,"current_range_meters":24000,"station_id":"ce4bha92rcd13ifvqeg0","pricing_plan_id":"cebpf4jnsgd1na2vs0mg"},{"bike_id":"393ae7fb-ee6b-4e50-b10b-2e6aa2dca957","system_id":"levelo_inurba_marseille","lat":43.26946,"lon":5.38639,"is_reserved":false,"is_disabled":false,"rental_uris":{"android":"levelo://app?vid=393ae7fb-ee6b-4e50-b10b-2e6aa2dca957","ios":"levelo://app?vid=393ae7fb-ee6b-4e50-b10b-2e6aa2dca957"},"vehicle_type_id":"4","last_reported":1733735492,"current_range_meters":6400,"station_id":"ce4bhh92rcd13ifvqfh0","pricing_plan_id":"cebpf4jnsgd1na2vs0mg"},{"bike_id":"a873af9b-a353-4469-b239-adbb5bf5dc0d","system_id":"levelo_inurba_marseille","lat":43.25867,"lon":5.39893,"is_reserved":false,"is_disabled":false,"rental_uris":{"android":"levelo://app?vid=a873af9b-a353-4469-b239-adbb5bf5dc0d","ios":"levelo://app?vid=a873af9b-a353-4469-b239-adbb5bf5dc0d"},"vehicle_type_id":"4","last_reported":1733735492,"current_range_meters":24000,"station_id":"ce4bhl92rcd13ifvqghg","pricing_plan_id":"cebpf4jnsgd1na2vs0mg"},{"bike_id":"a410c0b7-5772-4814-b6fc-ba7ab8c82411","system_id":"levelo_inurba_marseille","lat":43.312263,"lon":5.36847,"is_reserved":false,"is_disabled":false,"rental_uris":{"android":"levelo://app?vid=a410c0b7-5772-4814-b6fc-ba7ab8c82411","ios":"levelo://app?vid=a410c0b7-5772-4814-b6fc-ba7ab8c82411"},"vehicle_type_id":"4","last_reported":1733735492,"current_range_meters":20400,"station_id":"ce4bgl92rcd13ifvqbq0","pricing_plan_id":"cebpf4jnsgd1na2vs0mg"},{"bike_id":"95b68163-8c31-4ce4-989b-0d594a1f53e9","system_id":"levelo_inurba_marseille","lat":43.29682,"lon":5.37237,"is_reserved":false,"is_disabled":false,"rental_uris":{"android":"levelo://app?vid=95b68163-8c31-4ce4-989b-0d594a1f53e9","ios":"levelo://app?vid=95b68163-8c31-4ce4-989b-0d594a1f53e9"},"vehicle_type_id":"4","last_reported":1733735492,"current_range_meters":28000,"station_id":"ce4bgk12rcd13ifvqbj0","pricing_plan_id":"cebpf4jnsgd1na2vs0mg"},{"bike_id":"16d4975c-e9d3-4622-9e69-6ca21679f96a","system_id":"levelo_inurba_marseille","lat":43.24401,"lon":5.3707,"is_reserved":false,"is_disabled":false,"rental_uris":{"android":"levelo://app?vid=16d4975c-e9d3-4622-9e69-6ca21679f96a","ios":"levelo://app?vid=16d4975c-e9d3-4622-9e69-6ca21679f96a"},"vehicle_type_id":"4","last_reported":1733735492,"current_range_meters":32000,"station_id":"","pricing_plan_id":"cebpf4jnsgd1na2vs0mg"},{"bike_id":"85d1ba34-a6bd-4c9b-b015-6e8109e00660","system_id":"levelo_inurba_marseille","lat":43.30535,"lon":5.36536,"is_reserved":false,"is_disabled":false,"rental_uris":{"android":"levelo://app?vid=85d1ba34-a6bd-4c9b-b015-6e8109e00660","ios":"levelo://app?vid=85d1ba34-a6bd-4c9b-b015-6e8109e00660"},"vehicle_type_id":"4","last_reported":1733735492,"current_range_meters":17200,"station_id":"ce4bgs12rcd13ifvqcag","pricing_plan_id":"cebpf4jnsgd1na2vs0mg"},{"bike_id":"4bbe9ccf-9b5e-422d-906f-7de6b263edd8","system_id":"levelo_inurba_marseille","lat":43.32537,"lon":5.41446,"is_reserved":false,"is_disabled":false,"rental_uris":{"android":"levelo://app?vid=4bbe9ccf-9b5e-422d-906f-7de6b263edd8","ios":"levelo://app?vid=4bbe9ccf-9b5e-422d-906f-7de6b263edd8"},"vehicle_type_id":"4","last_reported":1733735492,"current_range_meters":38800,"station_id":"ce4bhq12rcd13ifvqhhg","pricing_plan_id":"cebpf4jnsgd1na2vs0mg"},{"bike_id":"0c0f9cc1-481c-44ef-a5eb-cf00dec55547","system_id":"levelo_inurba_marseille","lat":43.30198,"lon":5.3947,"is_reserved":false,"is_disabled":false,"rental_uris":{"android":"levelo://app?vid=0c0f9cc1-481c-44ef-a5eb-cf00dec55547","ios":"levelo://app?vid=0c0f9cc1-481c-44ef-a5eb-cf00dec55547"},"vehicle_type_id":"4","last_reported":1733735492,"current_range_meters":38000,"station_id":"ce4bh0p2rcd13ifvqd70","pricing_plan_id":"cebpf4jnsgd1na2vs0mg"},{"bike_id":"8a3b90a9-b1cc-4628-83f4-2f9e628eccda","system_id":"levelo_inurba_marseille","lat":43.33025,"lon":5.39034,"is_reserved":false,"is_disabled":false,"rental_uris":{"android":"levelo://app?vid=8a3b90a9-b1cc-4628-83f4-2f9e628eccda","ios":"levelo://app?vid=8a3b90a9-b1cc-4628-83f4-2f9e628eccda"},"vehicle_type_id":"4","last_reported":1733735492,"current_range_meters":38800,"station_id":"ce4bhr92rcd13ifvqhrg","pricing_plan_id":"cebpf4jnsgd1na2vs0mg"},{"bike_id":"2e14ff18-3a06-4388-ad18-1e3f20ce59bb","system_id":"levelo_inurba_marseille","lat":43.30527,"lon":5.36559,"is_reserved":false,"is_disabled":false,"rental_uris":{"android":"levelo://app?vid=2e14ff18-3a06-4388-ad18-1e3f20ce59bb","ios":"levelo://app?vid=2e14ff18-3a06-4388-ad18-1e3f20ce59bb"},"vehicle_type_id":"4","last_reported":1733735492,"current_range_meters":24800,"station_id":"ce4bgs12rcd13ifvqcag","pricing_plan_id":"cebpf4jnsgd1na2vs0mg"},{"bike_id":"2be97ccb-b953-4305-9487-268ca9b01140","system_id":"levelo_inurba_marseille","lat":43.28418,"lon":5.34986,"is_reserved":false,"is_disabled":false,"rental_uris":{"android":"levelo://app?vid=2be97ccb-b953-4305-9487-268ca9b01140","ios":"levelo://app?vid=2be97ccb-b953-4305-9487-268ca9b01140"},"vehicle_type_id":"4","last_reported":1733735492,"current_range_meters":37600,"station_id":"ce4bhbh2rcd13ifvqepg","pricing_plan_id":"cebpf4jnsgd1na2vs0mg"},{"bike_id":"51851808-aee3-4ca6-a2a1-e8308ef8a83a","system_id":"levelo_inurba_marseille","lat":43.24163,"lon":5.39724,"is_reserved":false,"is_disabled":false,"rental_uris":{"android":"levelo://app?vid=51851808-aee3-4ca6-a2a1-e8308ef8a83a","ios":"levelo://app?vid=51851808-aee3-4ca6-a2a1-e8308ef8a83a"},"vehicle_type_id":"4","last_reported":1733735492,"current_range_meters":6800,"station_id":"ce4bhn12rcd13ifvqgpg","pricing_plan_id":"cebpf4jnsgd1na2vs0mg"},{"bike_id":"58d3480e-9a25-4142-9952-995aac0b5e71","system_id":"levelo_inurba_marseille","lat":43.30544,"lon":5.36523,"is_reserved":false,"is_disabled":false,"rental_uris":{"android":"levelo://app?vid=58d3480e-9a25-4142-9952-995aac0b5e71","ios":"levelo://app?vid=58d3480e-9a25-4142-9952-995aac0b5e71"},"vehicle_type_id":"4","last_reported":1733735492,"current_range_meters":38800,"station_id":"ce4bgs12rcd13ifvqcag","pricing_plan_id":"cebpf4jnsgd1na2vs0mg"},{"bike_id":"067d4f8e-eded-4040-9b89-eb14aebc4852","system_id":"levelo_inurba_marseille","lat":43.299,"lon":5.43672,"is_reserved":false,"is_disabled":false,"rental_uris":{"android":"levelo://app?vid=067d4f8e-eded-4040-9b89-eb14aebc4852","ios":"levelo://app?vid=067d4f8e-eded-4040-9b89-eb14aebc4852"},"vehicle_type_id":"4","last_reported":1733735492,"current_range_meters":38000,"station_id":"ce4bhpp2rcd13ifvqhfg","pricing_plan_id":"cebpf4jnsgd1na2vs0mg"},{"bike_id":"f3eeef00-0938-4e70-8ac2-35904f16afbe","system_id":"levelo_inurba_marseille","lat":43.27065,"lon":5.40255,"is_reserved":false,"is_disabled":false,"rental_uris":{"android":"levelo://app?vid=f3eeef00-0938-4e70-8ac2-35904f16afbe","ios":"levelo://app?vid=f3eeef00-0938-4e70-8ac2-35904f16afbe"},"vehicle_type_id":"4","last_reported":1733735492,"current_range_meters":34800,"station_id":"ce4bhk92rcd13ifvqgc0","pricing_plan_id":"cebpf4jnsgd1na2vs0mg"},{"bike_id":"681674da-7e5f-4953-bf8a-561784c9370d","system_id":"levelo_inurba_marseille","lat":43.25494,"lon":5.37648,"is_reserved":false,"is_disabled":false,"rental_uris":{"android":"levelo://app?vid=681674da-7e5f-4953-bf8a-561784c9370d","ios":"levelo://app?vid=681674da-7e5f-4953-bf8a-561784c9370d"},"vehicle_type_id":"4","last_reported":1733735492,"current_range_meters":10800,"station_id":"ce4bhh12rcd13ifvqff0","pricing_plan_id":"cebpf4jnsgd1na2vs0mg"},{"bike_id":"83985555-c848-4b28-808f-8a7e7cf8519e","system_id":"levelo_inurba_marseille","lat":43.28115,"lon":5.43955,"is_reserved":false,"is_disabled":true,"rental_uris":{"android":"levelo://app?vid=83985555-c848-4b28-808f-8a7e7cf8519e","ios":"levelo://app?vid=83985555-c848-4b28-808f-8a7e7cf8519e"},"vehicle_type_id":"4","last_reported":1733735492,"current_range_meters":0,"station_id":"","pricing_plan_id":"cebpf4jnsgd1na2vs0mg"},{"bike_id":"9f3769a7-f392-475e-913a-8ad10d3e2daf","system_id":"levelo_inurba_marseille","lat":43.24169,"lon":5.36395,"is_reserved":false,"is_disabled":false,"rental_uris":{"android":"levelo://app?vid=9f3769a7-f392-475e-913a-8ad10d3e2daf","ios":"levelo://app?vid=9f3769a7-f392-475e-913a-8ad10d3e2daf"},"vehicle_type_id":"4","last_reported":1733735492,"current_range_meters":23200,"station_id":"cpo36qri1sfpv3e86is0","pricing_plan_id":"cebpf4jnsgd1na2vs0mg"},{"bike_id":"a39735c5-ca3c-48b6-b7df-50ec418d611f","system_id":"levelo_inurba_marseille","lat":43.24073,"lon":5.37761,"is_reserved":false,"is_disabled":false,"rental_uris":{"android":"levelo://app?vid=a39735c5-ca3c-48b6-b7df-50ec418d611f","ios":"levelo://app?vid=a39735c5-ca3c-48b6-b7df-50ec418d611f"},"vehicle_type_id":"4","last_reported":1733735492,"current_range_meters":38400,"station_id":"ce4bhnp2rcd13ifvqgvg","pricing_plan_id":"cebpf4jnsgd1na2vs0mg"},{"bike_id":"9c052843-348e-4375-88bc-ca3c6bd71312","system_id":"levelo_inurba_marseille","lat":43.30888,"lon":5.37184,"is_reserved":false,"is_disabled":false,"rental_uris":{"android":"levelo://app?vid=9c052843-348e-4375-88bc-ca3c6bd71312","ios":"levelo://app?vid=9c052843-348e-4375-88bc-ca3c6bd71312"},"vehicle_type_id":"4","last_reported":1733735492,"current_range_meters":38800,"station_id":"ce4bguh2rcd13ifvqckg","pricing_plan_id":"cebpf4jnsgd1na2vs0mg"},{"bike_id":"60f0c33f-61b5-4bb5-9bbd-5574664eb532","system_id":"levelo_inurba_marseille","lat":43.25001,"lon":5.38932,"is_reserved":false,"is_disabled":false,"rental_uris":{"android":"levelo://app?vid=60f0c33f-61b5-4bb5-9bbd-5574664eb532","ios":"levelo://app?vid=60f0c33f-61b5-4bb5-9bbd-5574664eb532"},"vehicle_type_id":"4","last_reported":1733735492,"current_range_meters":32000,"station_id":"ce4bhgp2rcd13ifvqfd0","pricing_plan_id":"cebpf4jnsgd1na2vs0mg"},{"bike_id":"69aa3a0a-5721-46c5-9758-98476b5fa0cc","system_id":"levelo_inurba_marseille","lat":43.32484,"lon":5.36561,"is_reserved":false,"is_disabled":false,"rental_uris":{"android":"levelo://app?vid=69aa3a0a-5721-46c5-9758-98476b5fa0cc","ios":"levelo://app?vid=69aa3a0a-5721-46c5-9758-98476b5fa0cc"},"vehicle_type_id":"4","last_reported":1733735492,"current_range_meters":17600,"station_id":"ce4bhs12rcd13ifvqhvg","pricing_plan_id":"cebpf4jnsgd1na2vs0mg"},{"bike_id":"10968a25-6c97-491e-bc95-579c03d9e583","system_id":"levelo_inurba_marseille","lat":43.30275,"lon":5.37692,"is_reserved":false,"is_disabled":false,"rental_uris":{"android":"levelo://app?vid=10968a25-6c97-491e-bc95-579c03d9e583","ios":"levelo://app?vid=10968a25-6c97-491e-bc95-579c03d9e583"},"vehicle_type_id":"4","last_reported":1733735492,"current_range_meters":34000,"station_id":"ce4bguh2rcd13ifvqcj0","pricing_plan_id":"cebpf4jnsgd1na2vs0mg"},{"bike_id":"9e0086f4-2f6b-424f-93ec-f62f3a62a2f6","system_id":"levelo_inurba_marseille","lat":43.30536,"lon":5.367,"is_reserved":false,"is_disabled":false,"rental_uris":{"android":"levelo://app?vid=9e0086f4-2f6b-424f-93ec-f62f3a62a2f6","ios":"levelo://app?vid=9e0086f4-2f6b-424f-93ec-f62f3a62a2f6"},"vehicle_type_id":"4","last_reported":1733735492,"current_range_meters":32800,"station_id":"ce4bgrp2rcd13ifvqc9g","pricing_plan_id":"cebpf4jnsgd1na2vs0mg"},{"bike_id":"4f24dfdd-d799-4325-ae50-35af627ad4ab","system_id":"levelo_inurba_marseille","lat":43.23192,"lon":5.35544,"is_reserved":false,"is_disabled":false,"rental_uris":{"android":"levelo://app?vid=4f24dfdd-d799-4325-ae50-35af627ad4ab","ios":"levelo://app?vid=4f24dfdd-d799-4325-ae50-35af627ad4ab"},"vehicle_type_id":"4","last_reported":1733735492,"current_range_meters":10000,"station_id":"ce4bhu92rcd13ifvqi70","pricing_plan_id":"cebpf4jnsgd1na2vs0mg"},{"bike_id":"72d08032-ec03-47c5-8d2a-2d59c15e4f99","system_id":"levelo_inurba_marseille","lat":43.24392,"lon":5.3705,"is_reserved":false,"is_disabled":false,"rental_uris":{"android":"levelo://app?vid=72d08032-ec03-47c5-8d2a-2d59c15e4f99","ios":"levelo://app?vid=72d08032-ec03-47c5-8d2a-2d59c15e4f99"},"vehicle_type_id":"4","last_reported":1733735492,"current_range_meters":32800,"station_id":"ce4bhhh2rcd13ifvqfk0","pricing_plan_id":"cebpf4jnsgd1na2vs0mg"},{"bike_id":"9eaed330-d346-4322-87d7-4fe15ccf7ddf","system_id":"levelo_inurba_marseille","lat":43.3266,"lon":5.41003,"is_reserved":false,"is_disabled":false,"rental_uris":{"android":"levelo://app?vid=9eaed330-d346-4322-87d7-4fe15ccf7ddf","ios":"levelo://app?vid=9eaed330-d346-4322-87d7-4fe15ccf7ddf"},"vehicle_type_id":"4","last_reported":1733735492,"current_range_meters":36800,"station_id":"ce4bhpp2rcd13ifvqhgg","pricing_plan_id":"cebpf4jnsgd1na2vs0mg"},{"bike_id":"dd752027-199c-4884-b13c-712908e512e0","system_id":"levelo_inurba_marseille","lat":43.3053,"lon":5.3653,"is_reserved":false,"is_disabled":false,"rental_uris":{"android":"levelo://app?vid=dd752027-199c-4884-b13c-712908e512e0","ios":"levelo://app?vid=dd752027-199c-4884-b13c-712908e512e0"},"vehicle_type_id":"4","last_reported":1733735492,"current_range_meters":23200,"station_id":"ce4bgs12rcd13ifvqcag","pricing_plan_id":"cebpf4jnsgd1na2vs0mg"},{"bike_id":"5edf82fa-e9d0-4d1f-98f1-37c98092771a","system_id":"levelo_inurba_marseille","lat":43.23203,"lon":5.3555,"is_reserved":false,"is_disabled":false,"rental_uris":{"android":"levelo://app?vid=5edf82fa-e9d0-4d1f-98f1-37c98092771a","ios":"levelo://app?vid=5edf82fa-e9d0-4d1f-98f1-37c98092771a"},"vehicle_type_id":"4","last_reported":1733735492,"current_range_meters":38800,"station_id":"ce4bhu92rcd13ifvqi70","pricing_plan_id":"cebpf4jnsgd1na2vs0mg"},{"bike_id":"25a20b03-9830-4773-bc6b-d425633d2c5c","system_id":"levelo_inurba_marseille","lat":43.247664,"lon":5.400351,"is_reserved":false,"is_disabled":true,"rental_uris":{"android":"levelo://app?vid=25a20b03-9830-4773-bc6b-d425633d2c5c","ios":"levelo://app?vid=25a20b03-9830-4773-bc6b-d425633d2c5c"},"vehicle_type_id":"4","last_reported":1733735492,"current_range_meters":0,"station_id":"","pricing_plan_id":"cebpf4jnsgd1na2vs0mg"},{"bike_id":"ff4d4df8-8594-4023-95bb-7ada819d62d3","system_id":"levelo_inurba_marseille","lat":43.29842,"lon":5.36268,"is_reserved":false,"is_disabled":false,"rental_uris":{"android":"levelo://app?vid=ff4d4df8-8594-4023-95bb-7ada819d62d3","ios":"levelo://app?vid=ff4d4df8-8594-4023-95bb-7ada819d62d3"},"vehicle_type_id":"4","last_reported":1733735492,"current_range_meters":28000,"station_id":"ce4bgpp2rcd13ifvqc3g","pricing_plan_id":"cebpf4jnsgd1na2vs0mg"},{"bike_id":"347300de-85cc-49be-9998-8e1d0d0aceae","system_id":"levelo_inurba_marseille","lat":43.27669,"lon":5.38874,"is_reserved":false,"is_disabled":false,"rental_uris":{"android":"levelo://app?vid=347300de-85cc-49be-9998-8e1d0d0aceae","ios":"levelo://app?vid=347300de-85cc-49be-9998-8e1d0d0aceae"},"vehicle_type_id":"4","last_reported":1733735492,"current_range_meters":20000,"station_id":"ce4bhi12rcd13ifvqfo0","pricing_plan_id":"cebpf4jnsgd1na2vs0mg"},{"bike_id":"83319820-ad4f-4208-bf65-c9fc431b1a4c","system_id":"levelo_inurba_marseille","lat":43.25827,"lon":5.39429,"is_reserved":false,"is_disabled":false,"rental_uris":{"android":"levelo://app?vid=83319820-ad4f-4208-bf65-c9fc431b1a4c","ios":"levelo://app?vid=83319820-ad4f-4208-bf65-c9fc431b1a4c"},"vehicle_type_id":"4","last_reported":1733735492,"current_range_meters":24400,"station_id":"ce4bhip2rcd13ifvqft0","pricing_plan_id":"cebpf4jnsgd1na2vs0mg"},{"bike_id":"41280458-ae88-4417-8dc6-f945ccffd9d3","system_id":"levelo_inurba_marseille","lat":43.28846,"lon":5.39315,"is_reserved":false,"is_disabled":false,"rental_uris":{"android":"levelo://app?vid=41280458-ae88-4417-8dc6-f945ccffd9d3","ios":"levelo://app?vid=41280458-ae88-4417-8dc6-f945ccffd9d3"},"vehicle_type_id":"4","last_reported":1733735492,"current_range_meters":38800,"station_id":"ce4bh2p2rcd13ifvqdi0","pricing_plan_id":"cebpf4jnsgd1na2vs0mg"},{"bike_id":"57b36515-4aca-4588-bac6-dbb69eff4d69","system_id":"levelo_inurba_marseille","lat":43.29556,"lon":5.42278,"is_reserved":false,"is_disabled":false,"rental_uris":{"android":"levelo://app?vid=57b36515-4aca-4588-bac6-dbb69eff4d69","ios":"levelo://app?vid=57b36515-4aca-4588-bac6-dbb69eff4d69"},"vehicle_type_id":"4","last_reported":1733735492,"current_range_meters":38400,"station_id":"ce4bhph2rcd13ifvqhdg","pricing_plan_id":"cebpf4jnsgd1na2vs0mg"},{"bike_id":"b497ad4d-1643-419c-aba6-8e8a5474d77a","system_id":"levelo_inurba_marseille","lat":43.29896,"lon":5.43666,"is_reserved":false,"is_disabled":false,"rental_uris":{"android":"levelo://app?vid=b497ad4d-1643-419c-aba6-8e8a5474d77a","ios":"levelo://app?vid=b497ad4d-1643-419c-aba6-8e8a5474d77a"},"vehicle_type_id":"4","last_reported":1733735492,"current_range_meters":8000,"station_id":"ce4bhpp2rcd13ifvqhfg","pricing_plan_id":"cebpf4jnsgd1na2vs0mg"},{"bike_id":"218f9458-3d05-4466-a747-3b810565e228","system_id":"levelo_inurba_marseille","lat":43.29962,"lon":5.38498,"is_reserved":false,"is_disabled":false,"rental_uris":{"android":"levelo://app?vid=218f9458-3d05-4466-a747-3b810565e228","ios":"levelo://app?vid=218f9458-3d05-4466-a747-3b810565e228"},"vehicle_type_id":"4","last_reported":1733735492,"current_range_meters":26000,"station_id":"ce4bgj92rcd13ifvqbd0","pricing_plan_id":"cebpf4jnsgd1na2vs0mg"},{"bike_id":"198eaf8c-d149-43eb-8825-17963de82262","system_id":"levelo_inurba_marseille","lat":43.29442,"lon":5.43885,"is_reserved":false,"is_disabled":false,"rental_uris":{"android":"levelo://app?vid=198eaf8c-d149-43eb-8825-17963de82262","ios":"levelo://app?vid=198eaf8c-d149-43eb-8825-17963de82262"},"vehicle_type_id":"4","last_reported":1733735492,"current_range_meters":11200,"station_id":"","pricing_plan_id":"cebpf4jnsgd1na2vs0mg"},{"bike_id":"a0bc7ace-5f9b-4cdd-8a83-fa8c0a7b0cd9","system_id":"levelo_inurba_marseille","lat":43.29045,"lon":5.39952,"is_reserved":false,"is_disabled":false,"rental_uris":{"android":"levelo://app?vid=a0bc7ace-5f9b-4cdd-8a83-fa8c0a7b0cd9","ios":"levelo://app?vid=a0bc7ace-5f9b-4cdd-8a83-fa8c0a7b0cd9"},"vehicle_type_id":"4","last_reported":1733735492,"current_range_meters":38800,"station_id":"ce4bh392rcd13ifvqdm0","pricing_plan_id":"cebpf4jnsgd1na2vs0mg"},{"bike_id":"8cd4149f-756b-4a7e-908c-fb8839696c4b","system_id":"levelo_inurba_marseille","lat":43.2707,"lon":5.42275,"is_reserved":false,"is_disabled":false,"rental_uris":{"android":"levelo://app?vid=8cd4149f-756b-4a7e-908c-fb8839696c4b","ios":"levelo://app?vid=8cd4149f-756b-4a7e-908c-fb8839696c4b"},"vehicle_type_id":"4","last_reported":1733735492,"current_range_meters":35200,"station_id":"ce4bhk92rcd13ifvqgb0","pricing_plan_id":"cebpf4jnsgd1na2vs0mg"},{"bike_id":"32389338-5494-4add-865d-3982018eb560","system_id":"levelo_inurba_marseille","lat":43.29936,"lon":5.36558,"is_reserved":false,"is_disabled":false,"rental_uris":{"android":"levelo://app?vid=32389338-5494-4add-865d-3982018eb560","ios":"levelo://app?vid=32389338-5494-4add-865d-3982018eb560"},"vehicle_type_id":"4","last_reported":1733735492,"current_range_meters":12800,"station_id":"ce4bgm92rcd13ifvqbr0","pricing_plan_id":"cebpf4jnsgd1na2vs0mg"},{"bike_id":"9fe46de1-438d-4522-bbbc-10c4bb3ce1c3","system_id":"levelo_inurba_marseille","lat":43.28973,"lon":5.37831,"is_reserved":false,"is_disabled":false,"rental_uris":{"android":"levelo://app?vid=9fe46de1-438d-4522-bbbc-10c4bb3ce1c3","ios":"levelo://app?vid=9fe46de1-438d-4522-bbbc-10c4bb3ce1c3"},"vehicle_type_id":"4","last_reported":1733735492,"current_range_meters":38400,"station_id":"ce4bh9p2rcd13ifvqed0","pricing_plan_id":"cebpf4jnsgd1na2vs0mg"},{"bike_id":"ecd2e6b8-af01-4b95-9cef-d1451309c715","system_id":"levelo_inurba_marseille","lat":43.26953,"lon":5.38635,"is_reserved":false,"is_disabled":false,"rental_uris":{"android":"levelo://app?vid=ecd2e6b8-af01-4b95-9cef-d1451309c715","ios":"levelo://app?vid=ecd2e6b8-af01-4b95-9cef-d1451309c715"},"vehicle_type_id":"4","last_reported":1733735492,"current_range_meters":38400,"station_id":"ce4bhh92rcd13ifvqfh0","pricing_plan_id":"cebpf4jnsgd1na2vs0mg"},{"bike_id":"2c2812b2-0f96-448f-bd20-1e16053fbc63","system_id":"levelo_inurba_marseille","lat":43.29717,"lon":5.37697,"is_reserved":false,"is_disabled":false,"rental_uris":{"android":"levelo://app?vid=2c2812b2-0f96-448f-bd20-1e16053fbc63","ios":"levelo://app?vid=2c2812b2-0f96-448f-bd20-1e16053fbc63"},"vehicle_type_id":"4","last_reported":1733735492,"current_range_meters":31200,"station_id":"ce4bgkh2rcd13ifvqbl0","pricing_plan_id":"cebpf4jnsgd1na2vs0mg"},{"bike_id":"e471678f-d5da-4a2e-95d6-46e8540ec649","system_id":"levelo_inurba_marseille","lat":43.30908,"lon":5.36849,"is_reserved":false,"is_disabled":false,"rental_uris":{"android":"levelo://app?vid=e471678f-d5da-4a2e-95d6-46e8540ec649","ios":"levelo://app?vid=e471678f-d5da-4a2e-95d6-46e8540ec649"},"vehicle_type_id":"4","last_reported":1733735492,"current_range_meters":39200,"station_id":"ce4bgn92rcd13ifvqbvg","pricing_plan_id":"cebpf4jnsgd1na2vs0mg"},{"bike_id":"e652bd0e-f25c-4f49-88d2-3023d62cd5aa","system_id":"levelo_inurba_marseille","lat":43.295892,"lon":5.37506,"is_reserved":false,"is_disabled":true,"rental_uris":{"android":"levelo://app?vid=e652bd0e-f25c-4f49-88d2-3023d62cd5aa","ios":"levelo://app?vid=e652bd0e-f25c-4f49-88d2-3023d62cd5aa"},"vehicle_type_id":"4","last_reported":1733735492,"current_range_meters":0,"station_id":"","pricing_plan_id":"cebpf4jnsgd1na2vs0mg"},{"bike_id":"9f53acdf-b2be-4b69-b01b-87cbf7343be4","system_id":"levelo_inurba_marseille","lat":43.26502,"lon":5.39539,"is_reserved":false,"is_disabled":false,"rental_uris":{"android":"levelo://app?vid=9f53acdf-b2be-4b69-b01b-87cbf7343be4","ios":"levelo://app?vid=9f53acdf-b2be-4b69-b01b-87cbf7343be4"},"vehicle_type_id":"4","last_reported":1733735492,"current_range_meters":26000,"station_id":"ce4bhi12rcd13ifvqfq0","pricing_plan_id":"cebpf4jnsgd1na2vs0mg"},{"bike_id":"50f52497-54ca-47ea-a19e-1fc86f8c6045","system_id":"levelo_inurba_marseille","lat":43.28237,"lon":5.42393,"is_reserved":false,"is_disabled":true,"rental_uris":{"android":"levelo://app?vid=50f52497-54ca-47ea-a19e-1fc86f8c6045","ios":"levelo://app?vid=50f52497-54ca-47ea-a19e-1fc86f8c6045"},"vehicle_type_id":"4","last_reported":1733735492,"current_range_meters":8800,"station_id":"","pricing_plan_id":"cebpf4jnsgd1na2vs0mg"},{"bike_id":"752f0fcf-d3c3-41e2-a1e9-51894dcb343a","system_id":"levelo_inurba_marseille","lat":43.2319,"lon":5.35542,"is_reserved":false,"is_disabled":false,"rental_uris":{"android":"levelo://app?vid=752f0fcf-d3c3-41e2-a1e9-51894dcb343a","ios":"levelo://app?vid=752f0fcf-d3c3-41e2-a1e9-51894dcb343a"},"vehicle_type_id":"4","last_reported":1733735492,"current_range_meters":20800,"station_id":"ce4bhu92rcd13ifvqi70","pricing_plan_id":"cebpf4jnsgd1na2vs0mg"},{"bike_id":"561f1b87-0f16-45bb-9060-6ce7723ae9e8","system_id":"levelo_inurba_marseille","lat":43.2694,"lon":5.4025,"is_reserved":false,"is_disabled":false,"rental_uris":{"android":"levelo://app?vid=561f1b87-0f16-45bb-9060-6ce7723ae9e8","ios":"levelo://app?vid=561f1b87-0f16-45bb-9060-6ce7723ae9e8"},"vehicle_type_id":"4","last_reported":1733735492,"current_range_meters":38800,"station_id":"cjm6bp8fraef2m0cb0m0","pricing_plan_id":"cebpf4jnsgd1na2vs0mg"},{"bike_id":"5fdd27f7-11e2-4d7e-a1f4-c3aea6418467","system_id":"levelo_inurba_marseille","lat":43.30321,"lon":5.36898,"is_reserved":false,"is_disabled":false,"rental_uris":{"android":"levelo://app?vid=5fdd27f7-11e2-4d7e-a1f4-c3aea6418467","ios":"levelo://app?vid=5fdd27f7-11e2-4d7e-a1f4-c3aea6418467"},"vehicle_type_id":"4","last_reported":1733735492,"current_range_meters":5600,"station_id":"ce4bgqh2rcd13ifvqc5g","pricing_plan_id":"cebpf4jnsgd1na2vs0mg"},{"bike_id":"33f1a526-a5a3-4261-b1e0-d90c46ff918d","system_id":"levelo_inurba_marseille","lat":43.28151,"lon":5.42643,"is_reserved":false,"is_disabled":true,"rental_uris":{"android":"levelo://app?vid=33f1a526-a5a3-4261-b1e0-d90c46ff918d","ios":"levelo://app?vid=33f1a526-a5a3-4261-b1e0-d90c46ff918d"},"vehicle_type_id":"4","last_reported":1733735492,"current_range_meters":24400,"station_id":"ce4bhnh2rcd13ifvqgug","pricing_plan_id":"cebpf4jnsgd1na2vs0mg"},{"bike_id":"4dd6a144-8aec-4000-aed9-ef74a1821e87","system_id":"levelo_inurba_marseille","lat":43.32365,"lon":5.38888,"is_reserved":false,"is_disabled":false,"rental_uris":{"android":"levelo://app?vid=4dd6a144-8aec-4000-aed9-ef74a1821e87","ios":"levelo://app?vid=4dd6a144-8aec-4000-aed9-ef74a1821e87"},"vehicle_type_id":"4","last_reported":1733735492,"current_range_meters":38800,"station_id":"ce4bhqp2rcd13ifvqhog","pricing_plan_id":"cebpf4jnsgd1na2vs0mg"},{"bike_id":"7d60acff-cb6c-4a92-aca6-d0de3845edf6","system_id":"levelo_inurba_marseille","lat":43.29531,"lon":5.38536,"is_reserved":false,"is_disabled":true,"rental_uris":{"android":"levelo://app?vid=7d60acff-cb6c-4a92-aca6-d0de3845edf6","ios":"levelo://app?vid=7d60acff-cb6c-4a92-aca6-d0de3845edf6"},"vehicle_type_id":"4","last_reported":1733735492,"current_range_meters":16800,"station_id":"ce4bgih2rcd13ifvqba0","pricing_plan_id":"cebpf4jnsgd1na2vs0mg"},{"bike_id":"93c5653f-c071-4e31-86cf-5d1b729e0cd5","system_id":"levelo_inurba_marseille","lat":43.28336,"lon":5.38102,"is_reserved":false,"is_disabled":false,"rental_uris":{"android":"levelo://app?vid=93c5653f-c071-4e31-86cf-5d1b729e0cd5","ios":"levelo://app?vid=93c5653f-c071-4e31-86cf-5d1b729e0cd5"},"vehicle_type_id":"4","last_reported":1733735492,"current_range_meters":28400,"station_id":"ce4bh412rcd13ifvqdr0","pricing_plan_id":"cebpf4jnsgd1na2vs0mg"},{"bike_id":"0013832b-0f69-439d-8d9d-ea1055d29c18","system_id":"levelo_inurba_marseille","lat":43.24072,"lon":5.37749,"is_reserved":false,"is_disabled":false,"rental_uris":{"android":"levelo://app?vid=0013832b-0f69-439d-8d9d-ea1055d29c18","ios":"levelo://app?vid=0013832b-0f69-439d-8d9d-ea1055d29c18"},"vehicle_type_id":"4","last_reported":1733735492,"current_range_meters":32800,"station_id":"ce4bhnp2rcd13ifvqgvg","pricing_plan_id":"cebpf4jnsgd1na2vs0mg"},{"bike_id":"5185558a-c833-4e0f-9eaf-09c5556c6428","system_id":"levelo_inurba_marseille","lat":43.30913,"lon":5.36851,"is_reserved":false,"is_disabled":false,"rental_uris":{"android":"levelo://app?vid=5185558a-c833-4e0f-9eaf-09c5556c6428","ios":"levelo://app?vid=5185558a-c833-4e0f-9eaf-09c5556c6428"},"vehicle_type_id":"4","last_reported":1733735492,"current_range_meters":32000,"station_id":"ce4bgn92rcd13ifvqbvg","pricing_plan_id":"cebpf4jnsgd1na2vs0mg"},{"bike_id":"eb7d58b7-c858-4dae-987b-31378fa72ecc","system_id":"levelo_inurba_marseille","lat":43.25114,"lon":5.40317,"is_reserved":false,"is_disabled":false,"rental_uris":{"android":"levelo://app?vid=eb7d58b7-c858-4dae-987b-31378fa72ecc","ios":"levelo://app?vid=eb7d58b7-c858-4dae-987b-31378fa72ecc"},"vehicle_type_id":"4","last_reported":1733735492,"current_range_meters":38800,"station_id":"ce4bhlh2rcd13ifvqgig","pricing_plan_id":"cebpf4jnsgd1na2vs0mg"},{"bike_id":"fd29a55a-2a4f-4795-85f1-acdd51136697","system_id":"levelo_inurba_marseille","lat":43.33603,"lon":5.41031,"is_reserved":false,"is_disabled":false,"rental_uris":{"android":"levelo://app?vid=fd29a55a-2a4f-4795-85f1-acdd51136697","ios":"levelo://app?vid=fd29a55a-2a4f-4795-85f1-acdd51136697"},"vehicle_type_id":"4","last_reported":1733735492,"current_range_meters":18800,"station_id":"ce4bhqh2rcd13ifvqhmg","pricing_plan_id":"cebpf4jnsgd1na2vs0mg"},{"bike_id":"369fa2d8-1a9b-4d91-8661-c3407579d723","system_id":"levelo_inurba_marseille","lat":43.2707,"lon":5.42279,"is_reserved":false,"is_disabled":false,"rental_uris":{"android":"levelo://app?vid=369fa2d8-1a9b-4d91-8661-c3407579d723","ios":"levelo://app?vid=369fa2d8-1a9b-4d91-8661-c3407579d723"},"vehicle_type_id":"4","last_reported":1733735492,"current_range_meters":22800,"station_id":"ce4bhk92rcd13ifvqgb0","pricing_plan_id":"cebpf4jnsgd1na2vs0mg"},{"bike_id":"564304a8-6bcd-49e7-8203-96cd1cd598da","system_id":"levelo_inurba_marseille","lat":43.34141,"lon":5.40911,"is_reserved":false,"is_disabled":false,"rental_uris":{"android":"levelo://app?vid=564304a8-6bcd-49e7-8203-96cd1cd598da","ios":"levelo://app?vid=564304a8-6bcd-49e7-8203-96cd1cd598da"},"vehicle_type_id":"4","last_reported":1733735492,"current_range_meters":35600,"station_id":"ce4bhqh2rcd13ifvqhlg","pricing_plan_id":"cebpf4jnsgd1na2vs0mg"},{"bike_id":"19169c2d-3853-42f1-819c-2ec449e0866e","system_id":"levelo_inurba_marseille","lat":43.28712,"lon":5.37933,"is_reserved":false,"is_disabled":false,"rental_uris":{"android":"levelo://app?vid=19169c2d-3853-42f1-819c-2ec449e0866e","ios":"levelo://app?vid=19169c2d-3853-42f1-819c-2ec449e0866e"},"vehicle_type_id":"4","last_reported":1733735492,"current_range_meters":33600,"station_id":"ce4bh9p2rcd13ifvqec0","pricing_plan_id":"cebpf4jnsgd1na2vs0mg"},{"bike_id":"c908d40e-1bb1-45db-b307-5185fcfb3f7b","system_id":"levelo_inurba_marseille","lat":43.257255,"lon":5.411088,"is_reserved":false,"is_disabled":false,"rental_uris":{"android":"levelo://app?vid=c908d40e-1bb1-45db-b307-5185fcfb3f7b","ios":"levelo://app?vid=c908d40e-1bb1-45db-b307-5185fcfb3f7b"},"vehicle_type_id":"4","last_reported":1733735492,"current_range_meters":38400,"station_id":"ce4bhkp2rcd13ifvqgd0","pricing_plan_id":"cebpf4jnsgd1na2vs0mg"},{"bike_id":"a3dd1984-4193-477f-b9a6-7f14c8f93b26","system_id":"levelo_inurba_marseille","lat":43.30104,"lon":5.39089,"is_reserved":false,"is_disabled":true,"rental_uris":{"android":"levelo://app?vid=a3dd1984-4193-477f-b9a6-7f14c8f93b26","ios":"levelo://app?vid=a3dd1984-4193-477f-b9a6-7f14c8f93b26"},"vehicle_type_id":"4","last_reported":1733735492,"current_range_meters":28400,"station_id":"ce4bh192rcd13ifvqdb0","pricing_plan_id":"cebpf4jnsgd1na2vs0mg"},{"bike_id":"a1873f62-ccbe-4247-96f2-0cad6aa96151","system_id":"levelo_inurba_marseille","lat":43.28613,"lon":5.35105,"is_reserved":false,"is_disabled":false,"rental_uris":{"android":"levelo://app?vid=a1873f62-ccbe-4247-96f2-0cad6aa96151","ios":"levelo://app?vid=a1873f62-ccbe-4247-96f2-0cad6aa96151"},"vehicle_type_id":"4","last_reported":1733735492,"current_range_meters":22800,"station_id":"ce4bhch2rcd13ifvqeug","pricing_plan_id":"cebpf4jnsgd1na2vs0mg"},{"bike_id":"5ac1c430-b416-4d56-8a0b-c67b5e80ba2c","system_id":"levelo_inurba_marseille","lat":43.2315,"lon":5.43715,"is_reserved":false,"is_disabled":true,"rental_uris":{"android":"levelo://app?vid=5ac1c430-b416-4d56-8a0b-c67b5e80ba2c","ios":"levelo://app?vid=5ac1c430-b416-4d56-8a0b-c67b5e80ba2c"},"vehicle_type_id":"4","last_reported":1733735492,"current_range_meters":0,"station_id":"ce4bhmp2rcd13ifvqgog","pricing_plan_id":"cebpf4jnsgd1na2vs0mg"},{"bike_id":"30635fd6-1dd8-4e5f-96d8-561a62d4fe6b","system_id":"levelo_inurba_marseille","lat":43.298,"lon":5.38091,"is_reserved":false,"is_disabled":true,"rental_uris":{"android":"levelo://app?vid=30635fd6-1dd8-4e5f-96d8-561a62d4fe6b","ios":"levelo://app?vid=30635fd6-1dd8-4e5f-96d8-561a62d4fe6b"},"vehicle_type_id":"4","last_reported":1733735492,"current_range_meters":7200,"station_id":"ce4bgip2rcd13ifvqbb0","pricing_plan_id":"cebpf4jnsgd1na2vs0mg"},{"bike_id":"30c16de7-4a91-4729-ad2c-5f31ef961b7c","system_id":"levelo_inurba_marseille","lat":43.2558,"lon":5.38233,"is_reserved":false,"is_disabled":false,"rental_uris":{"android":"levelo://app?vid=30c16de7-4a91-4729-ad2c-5f31ef961b7c","ios":"levelo://app?vid=30c16de7-4a91-4729-ad2c-5f31ef961b7c"},"vehicle_type_id":"4","last_reported":1733735492,"current_range_meters":11200,"station_id":"ce4bhih2rcd13ifvqfs0","pricing_plan_id":"cebpf4jnsgd1na2vs0mg"},{"bike_id":"8adb385c-4540-45bd-bf84-7345f9c5670e","system_id":"levelo_inurba_marseille","lat":43.23208,"lon":5.35541,"is_reserved":false,"is_disabled":false,"rental_uris":{"android":"levelo://app?vid=8adb385c-4540-45bd-bf84-7345f9c5670e","ios":"levelo://app?vid=8adb385c-4540-45bd-bf84-7345f9c5670e"},"vehicle_type_id":"4","last_reported":1733735492,"current_range_meters":36400,"station_id":"ce4bhu92rcd13ifvqi70","pricing_plan_id":"cebpf4jnsgd1na2vs0mg"},{"bike_id":"06cbc9bc-31e7-4dc4-a15a-916676e349b8","system_id":"levelo_inurba_marseille","lat":43.27374,"lon":5.36246,"is_reserved":false,"is_disabled":true,"rental_uris":{"android":"levelo://app?vid=06cbc9bc-31e7-4dc4-a15a-916676e349b8","ios":"levelo://app?vid=06cbc9bc-31e7-4dc4-a15a-916676e349b8"},"vehicle_type_id":"4","last_reported":1733735492,"current_range_meters":38400,"station_id":"ce4bhbh2rcd13ifvqeo0","pricing_plan_id":"cebpf4jnsgd1na2vs0mg"},{"bike_id":"32218e1f-9317-401f-97ac-c7825aa156d6","system_id":"levelo_inurba_marseille","lat":43.29614,"lon":5.37717,"is_reserved":false,"is_disabled":false,"rental_uris":{"android":"levelo://app?vid=32218e1f-9317-401f-97ac-c7825aa156d6","ios":"levelo://app?vid=32218e1f-9317-401f-97ac-c7825aa156d6"},"vehicle_type_id":"4","last_reported":1733735492,"current_range_meters":21600,"station_id":"ce4bgi92rcd13ifvqb90","pricing_plan_id":"cebpf4jnsgd1na2vs0mg"},{"bike_id":"5260ced4-7564-448d-9818-7245cb224691","system_id":"levelo_inurba_marseille","lat":43.27612,"lon":5.36112,"is_reserved":false,"is_disabled":false,"rental_uris":{"android":"levelo://app?vid=5260ced4-7564-448d-9818-7245cb224691","ios":"levelo://app?vid=5260ced4-7564-448d-9818-7245cb224691"},"vehicle_type_id":"4","last_reported":1733735492,"current_range_meters":38000,"station_id":"ce4bgj92rcd13ifvqbe0","pricing_plan_id":"cebpf4jnsgd1na2vs0mg"},{"bike_id":"47eabf25-c81f-42bd-acba-8d44e89fa85d","system_id":"levelo_inurba_marseille","lat":43.24548,"lon":5.39524,"is_reserved":false,"is_disabled":true,"rental_uris":{"android":"levelo://app?vid=47eabf25-c81f-42bd-acba-8d44e89fa85d","ios":"levelo://app?vid=47eabf25-c81f-42bd-acba-8d44e89fa85d"},"vehicle_type_id":"4","last_reported":1733735492,"current_range_meters":16400,"station_id":"ce4bhlp2rcd13ifvqgjg","pricing_plan_id":"cebpf4jnsgd1na2vs0mg"},{"bike_id":"8e678fab-7d05-4428-97e7-1127e44ba29d","system_id":"levelo_inurba_marseille","lat":43.29292,"lon":5.37455,"is_reserved":false,"is_disabled":false,"rental_uris":{"android":"levelo://app?vid=8e678fab-7d05-4428-97e7-1127e44ba29d","ios":"levelo://app?vid=8e678fab-7d05-4428-97e7-1127e44ba29d"},"vehicle_type_id":"4","last_reported":1733735492,"current_range_meters":39200,"station_id":"ce4bgi12rcd13ifvqb70","pricing_plan_id":"cebpf4jnsgd1na2vs0mg"},{"bike_id":"bca5b063-17d1-4348-9f3a-b8e9d0b657d5","system_id":"levelo_inurba_marseille","lat":43.31355,"lon":5.36696,"is_reserved":false,"is_disabled":false,"rental_uris":{"android":"levelo://app?vid=bca5b063-17d1-4348-9f3a-b8e9d0b657d5","ios":"levelo://app?vid=bca5b063-17d1-4348-9f3a-b8e9d0b657d5"},"vehicle_type_id":"4","last_reported":1733735492,"current_range_meters":32400,"station_id":"ce4bgr92rcd13ifvqc6g","pricing_plan_id":"cebpf4jnsgd1na2vs0mg"},{"bike_id":"2448d306-ffa5-42ab-bfbf-45dbd788edba","system_id":"levelo_inurba_marseille","lat":43.31625,"lon":5.39397,"is_reserved":false,"is_disabled":false,"rental_uris":{"android":"levelo://app?vid=2448d306-ffa5-42ab-bfbf-45dbd788edba","ios":"levelo://app?vid=2448d306-ffa5-42ab-bfbf-45dbd788edba"},"vehicle_type_id":"4","last_reported":1733735492,"current_range_meters":6400,"station_id":"","pricing_plan_id":"cebpf4jnsgd1na2vs0mg"},{"bike_id":"eb4e32cd-a02d-4e92-a013-1fdc0dd71ccb","system_id":"levelo_inurba_marseille","lat":43.324799,"lon":5.365716,"is_reserved":false,"is_disabled":true,"rental_uris":{"android":"levelo://app?vid=eb4e32cd-a02d-4e92-a013-1fdc0dd71ccb","ios":"levelo://app?vid=eb4e32cd-a02d-4e92-a013-1fdc0dd71ccb"},"vehicle_type_id":"4","last_reported":1733735492,"current_range_meters":0,"station_id":"","pricing_plan_id":"cebpf4jnsgd1na2vs0mg"},{"bike_id":"d747e713-5b73-42a0-b79a-b5064bd28209","system_id":"levelo_inurba_marseille","lat":43.27172,"lon":5.40987,"is_reserved":false,"is_disabled":true,"rental_uris":{"android":"levelo://app?vid=d747e713-5b73-42a0-b79a-b5064bd28209","ios":"levelo://app?vid=d747e713-5b73-42a0-b79a-b5064bd28209"},"vehicle_type_id":"4","last_reported":1733735492,"current_range_meters":38800,"station_id":"ce4bhl12rcd13ifvqgf0","pricing_plan_id":"cebpf4jnsgd1na2vs0mg"},{"bike_id":"42d16af5-e592-41dc-8235-293be6861e34","system_id":"levelo_inurba_marseille","lat":43.24067,"lon":5.37766,"is_reserved":false,"is_disabled":false,"rental_uris":{"android":"levelo://app?vid=42d16af5-e592-41dc-8235-293be6861e34","ios":"levelo://app?vid=42d16af5-e592-41dc-8235-293be6861e34"},"vehicle_type_id":"4","last_reported":1733735492,"current_range_meters":35200,"station_id":"ce4bhnp2rcd13ifvqgvg","pricing_plan_id":"cebpf4jnsgd1na2vs0mg"},{"bike_id":"0fe6e81e-db94-4c1f-b1e7-76a009e392e8","system_id":"levelo_inurba_marseille","lat":43.27835,"lon":5.39204,"is_reserved":false,"is_disabled":true,"rental_uris":{"android":"levelo://app?vid=0fe6e81e-db94-4c1f-b1e7-76a009e392e8","ios":"levelo://app?vid=0fe6e81e-db94-4c1f-b1e7-76a009e392e8"},"vehicle_type_id":"4","last_reported":1733735492,"current_range_meters":38800,"station_id":"ce4bhjp2rcd13ifvqga0","pricing_plan_id":"cebpf4jnsgd1na2vs0mg"},{"bike_id":"4c6855b3-fce3-456f-97d5-6c6296a5be0f","system_id":"levelo_inurba_marseille","lat":43.3028,"lon":5.37688,"is_reserved":false,"is_disabled":false,"rental_uris":{"android":"levelo://app?vid=4c6855b3-fce3-456f-97d5-6c6296a5be0f","ios":"levelo://app?vid=4c6855b3-fce3-456f-97d5-6c6296a5be0f"},"vehicle_type_id":"4","last_reported":1733735492,"current_range_meters":19200,"station_id":"ce4bguh2rcd13ifvqcj0","pricing_plan_id":"cebpf4jnsgd1na2vs0mg"},{"bike_id":"89677916-48e6-4507-b7e0-5175f62ba4aa","system_id":"levelo_inurba_marseille","lat":43.29553,"lon":5.42283,"is_reserved":false,"is_disabled":false,"rental_uris":{"android":"levelo://app?vid=89677916-48e6-4507-b7e0-5175f62ba4aa","ios":"levelo://app?vid=89677916-48e6-4507-b7e0-5175f62ba4aa"},"vehicle_type_id":"4","last_reported":1733735492,"current_range_meters":33600,"station_id":"ce4bhph2rcd13ifvqhdg","pricing_plan_id":"cebpf4jnsgd1na2vs0mg"},{"bike_id":"d3a8f63a-1c51-4398-b244-8a13d3ce5688","system_id":"levelo_inurba_marseille","lat":43.337444,"lon":5.374475,"is_reserved":false,"is_disabled":false,"rental_uris":{"android":"levelo://app?vid=d3a8f63a-1c51-4398-b244-8a13d3ce5688","ios":"levelo://app?vid=d3a8f63a-1c51-4398-b244-8a13d3ce5688"},"vehicle_type_id":"4","last_reported":1733735492,"current_range_meters":33600,"station_id":"","pricing_plan_id":"cebpf4jnsgd1na2vs0mg"},{"bike_id":"4d6f1e75-e847-4823-aa93-09d038ee3504","system_id":"levelo_inurba_marseille","lat":43.27798,"lon":5.40705,"is_reserved":false,"is_disabled":false,"rental_uris":{"android":"levelo://app?vid=4d6f1e75-e847-4823-aa93-09d038ee3504","ios":"levelo://app?vid=4d6f1e75-e847-4823-aa93-09d038ee3504"},"vehicle_type_id":"4","last_reported":1733735492,"current_range_meters":37600,"station_id":"ce4bhnh2rcd13ifvqgtg","pricing_plan_id":"cebpf4jnsgd1na2vs0mg"},{"bike_id":"f360271e-662d-4ead-8c2a-718605af80f7","system_id":"levelo_inurba_marseille","lat":43.33602,"lon":5.41033,"is_reserved":false,"is_disabled":false,"rental_uris":{"android":"levelo://app?vid=f360271e-662d-4ead-8c2a-718605af80f7","ios":"levelo://app?vid=f360271e-662d-4ead-8c2a-718605af80f7"},"vehicle_type_id":"4","last_reported":1733735492,"current_range_meters":38800,"station_id":"ce4bhqh2rcd13ifvqhmg","pricing_plan_id":"cebpf4jnsgd1na2vs0mg"},{"bike_id":"35675959-4155-4be1-b22f-037b271b8136","system_id":"levelo_inurba_marseille","lat":43.30959,"lon":5.39057,"is_reserved":false,"is_disabled":false,"rental_uris":{"android":"levelo://app?vid=35675959-4155-4be1-b22f-037b271b8136","ios":"levelo://app?vid=35675959-4155-4be1-b22f-037b271b8136"},"vehicle_type_id":"4","last_reported":1733735492,"current_range_meters":26000,"station_id":"ce4bgup2rcd13ifvqco0","pricing_plan_id":"cebpf4jnsgd1na2vs0mg"},{"bike_id":"3b2e3ce8-7d4a-4581-8b02-5deff31350a7","system_id":"levelo_inurba_marseille","lat":43.32659,"lon":5.40984,"is_reserved":false,"is_disabled":false,"rental_uris":{"android":"levelo://app?vid=3b2e3ce8-7d4a-4581-8b02-5deff31350a7","ios":"levelo://app?vid=3b2e3ce8-7d4a-4581-8b02-5deff31350a7"},"vehicle_type_id":"4","last_reported":1733735492,"current_range_meters":38800,"station_id":"ce4bhpp2rcd13ifvqhgg","pricing_plan_id":"cebpf4jnsgd1na2vs0mg"},{"bike_id":"c0abe749-4c6e-4563-badf-b96b4b6f64fe","system_id":"levelo_inurba_marseille","lat":43.30557,"lon":5.36717,"is_reserved":false,"is_disabled":false,"rental_uris":{"android":"levelo://app?vid=c0abe749-4c6e-4563-badf-b96b4b6f64fe","ios":"levelo://app?vid=c0abe749-4c6e-4563-badf-b96b4b6f64fe"},"vehicle_type_id":"4","last_reported":1733735492,"current_range_meters":38800,"station_id":"ce4bgrp2rcd13ifvqc9g","pricing_plan_id":"cebpf4jnsgd1na2vs0mg"},{"bike_id":"c2b1fa7c-c8a0-4edf-86b1-acaa3eea3550","system_id":"levelo_inurba_marseille","lat":43.33771,"lon":5.37436,"is_reserved":false,"is_disabled":false,"rental_uris":{"android":"levelo://app?vid=c2b1fa7c-c8a0-4edf-86b1-acaa3eea3550","ios":"levelo://app?vid=c2b1fa7c-c8a0-4edf-86b1-acaa3eea3550"},"vehicle_type_id":"4","last_reported":1733735492,"current_range_meters":36800,"station_id":"","pricing_plan_id":"cebpf4jnsgd1na2vs0mg"},{"bike_id":"a7d24957-4460-4d60-9e8e-3ad51176c883","system_id":"levelo_inurba_marseille","lat":43.25011,"lon":5.38943,"is_reserved":false,"is_disabled":false,"rental_uris":{"android":"levelo://app?vid=a7d24957-4460-4d60-9e8e-3ad51176c883","ios":"levelo://app?vid=a7d24957-4460-4d60-9e8e-3ad51176c883"},"vehicle_type_id":"4","last_reported":1733735492,"current_range_meters":17200,"station_id":"ce4bhgp2rcd13ifvqfd0","pricing_plan_id":"cebpf4jnsgd1na2vs0mg"},{"bike_id":"5c6886c6-d5ff-4a8a-ae0c-798b3d19d717","system_id":"levelo_inurba_marseille","lat":43.28356,"lon":5.38099,"is_reserved":false,"is_disabled":false,"rental_uris":{"android":"levelo://app?vid=5c6886c6-d5ff-4a8a-ae0c-798b3d19d717","ios":"levelo://app?vid=5c6886c6-d5ff-4a8a-ae0c-798b3d19d717"},"vehicle_type_id":"4","last_reported":1733735492,"current_range_meters":29600,"station_id":"ce4bh412rcd13ifvqdr0","pricing_plan_id":"cebpf4jnsgd1na2vs0mg"},{"bike_id":"07da9e1b-34ac-4d90-af38-476e3928df16","system_id":"levelo_inurba_marseille","lat":43.2783,"lon":5.39205,"is_reserved":false,"is_disabled":false,"rental_uris":{"android":"levelo://app?vid=07da9e1b-34ac-4d90-af38-476e3928df16","ios":"levelo://app?vid=07da9e1b-34ac-4d90-af38-476e3928df16"},"vehicle_type_id":"4","last_reported":1733735492,"current_range_meters":16800,"station_id":"ce4bhjp2rcd13ifvqga0","pricing_plan_id":"cebpf4jnsgd1na2vs0mg"},{"bike_id":"ce6ab432-20be-41d0-a6b6-cf1027c976cf","system_id":"levelo_inurba_marseille","lat":43.30927,"lon":5.36836,"is_reserved":false,"is_disabled":false,"rental_uris":{"android":"levelo://app?vid=ce6ab432-20be-41d0-a6b6-cf1027c976cf","ios":"levelo://app?vid=ce6ab432-20be-41d0-a6b6-cf1027c976cf"},"vehicle_type_id":"4","last_reported":1733735492,"current_range_meters":36400,"station_id":"ce4bgn92rcd13ifvqbvg","pricing_plan_id":"cebpf4jnsgd1na2vs0mg"},{"bike_id":"09281e7f-b15d-40c3-92c2-6ba7a2702b6b","system_id":"levelo_inurba_marseille","lat":43.27615,"lon":5.36103,"is_reserved":false,"is_disabled":false,"rental_uris":{"android":"levelo://app?vid=09281e7f-b15d-40c3-92c2-6ba7a2702b6b","ios":"levelo://app?vid=09281e7f-b15d-40c3-92c2-6ba7a2702b6b"},"vehicle_type_id":"4","last_reported":1733735492,"current_range_meters":12000,"station_id":"ce4bgj92rcd13ifvqbe0","pricing_plan_id":"cebpf4jnsgd1na2vs0mg"},{"bike_id":"0bff9157-1c4b-44c6-bca8-a8d8094c2395","system_id":"levelo_inurba_marseille","lat":43.27054,"lon":5.40264,"is_reserved":false,"is_disabled":false,"rental_uris":{"android":"levelo://app?vid=0bff9157-1c4b-44c6-bca8-a8d8094c2395","ios":"levelo://app?vid=0bff9157-1c4b-44c6-bca8-a8d8094c2395"},"vehicle_type_id":"4","last_reported":1733735492,"current_range_meters":12800,"station_id":"ce4bhk92rcd13ifvqgc0","pricing_plan_id":"cebpf4jnsgd1na2vs0mg"},{"bike_id":"4ad4489d-ea7b-49f5-a12e-9356c8af13a5","system_id":"levelo_inurba_marseille","lat":43.30162,"lon":5.38088,"is_reserved":false,"is_disabled":true,"rental_uris":{"android":"levelo://app?vid=4ad4489d-ea7b-49f5-a12e-9356c8af13a5","ios":"levelo://app?vid=4ad4489d-ea7b-49f5-a12e-9356c8af13a5"},"vehicle_type_id":"4","last_reported":1733735492,"current_range_meters":0,"station_id":"ce4bgjp2rcd13ifvqbh0","pricing_plan_id":"cebpf4jnsgd1na2vs0mg"},{"bike_id":"a1fb4f57-ffa8-4d00-bb62-ace7c0ed7095","system_id":"levelo_inurba_marseille","lat":43.32364,"lon":5.38882,"is_reserved":false,"is_disabled":false,"rental_uris":{"android":"levelo://app?vid=a1fb4f57-ffa8-4d00-bb62-ace7c0ed7095","ios":"levelo://app?vid=a1fb4f57-ffa8-4d00-bb62-ace7c0ed7095"},"vehicle_type_id":"4","last_reported":1733735492,"current_range_meters":21600,"station_id":"ce4bhqp2rcd13ifvqhog","pricing_plan_id":"cebpf4jnsgd1na2vs0mg"},{"bike_id":"95d8628d-10b1-47e7-9a42-9b126ec315c6","system_id":"levelo_inurba_marseille","lat":43.23202,"lon":5.3556,"is_reserved":false,"is_disabled":false,"rental_uris":{"android":"levelo://app?vid=95d8628d-10b1-47e7-9a42-9b126ec315c6","ios":"levelo://app?vid=95d8628d-10b1-47e7-9a42-9b126ec315c6"},"vehicle_type_id":"4","last_reported":1733735492,"current_range_meters":29600,"station_id":"ce4bhu92rcd13ifvqi70","pricing_plan_id":"cebpf4jnsgd1na2vs0mg"},{"bike_id":"84160b40-ce7b-44a2-a7ca-4591eb995185","system_id":"levelo_inurba_marseille","lat":43.32078,"lon":5.38815,"is_reserved":false,"is_disabled":false,"rental_uris":{"android":"levelo://app?vid=84160b40-ce7b-44a2-a7ca-4591eb995185","ios":"levelo://app?vid=84160b40-ce7b-44a2-a7ca-4591eb995185"},"vehicle_type_id":"4","last_reported":1733735492,"current_range_meters":10800,"station_id":"","pricing_plan_id":"cebpf4jnsgd1na2vs0mg"},{"bike_id":"f5561434-0740-4a3c-abc2-013f37687b8d","system_id":"levelo_inurba_marseille","lat":43.24826,"lon":5.37475,"is_reserved":false,"is_disabled":true,"rental_uris":{"android":"levelo://app?vid=f5561434-0740-4a3c-abc2-013f37687b8d","ios":"levelo://app?vid=f5561434-0740-4a3c-abc2-013f37687b8d"},"vehicle_type_id":"4","last_reported":1733735492,"current_range_meters":28000,"station_id":"ce4bhgh2rcd13ifvqfb0","pricing_plan_id":"cebpf4jnsgd1na2vs0mg"},{"bike_id":"1d789c1d-3b58-4c38-91c3-52d3ffc3c943","system_id":"levelo_inurba_marseille","lat":43.30539,"lon":5.36544,"is_reserved":false,"is_disabled":false,"rental_uris":{"android":"levelo://app?vid=1d789c1d-3b58-4c38-91c3-52d3ffc3c943","ios":"levelo://app?vid=1d789c1d-3b58-4c38-91c3-52d3ffc3c943"},"vehicle_type_id":"4","last_reported":1733735492,"current_range_meters":14400,"station_id":"ce4bgs12rcd13ifvqcag","pricing_plan_id":"cebpf4jnsgd1na2vs0mg"},{"bike_id":"de6f56f6-9471-4735-9964-1d8fad202346","system_id":"levelo_inurba_marseille","lat":43.29257,"lon":5.40909,"is_reserved":false,"is_disabled":false,"rental_uris":{"android":"levelo://app?vid=de6f56f6-9471-4735-9964-1d8fad202346","ios":"levelo://app?vid=de6f56f6-9471-4735-9964-1d8fad202346"},"vehicle_type_id":"4","last_reported":1733735492,"current_range_meters":38800,"station_id":"ce4bh192rcd13ifvqdc0","pricing_plan_id":"cebpf4jnsgd1na2vs0mg"},{"bike_id":"76bd6b8b-3bd2-4b02-bd6e-379029e15bf1","system_id":"levelo_inurba_marseille","lat":43.30878,"lon":5.3721,"is_reserved":false,"is_disabled":false,"rental_uris":{"android":"levelo://app?vid=76bd6b8b-3bd2-4b02-bd6e-379029e15bf1","ios":"levelo://app?vid=76bd6b8b-3bd2-4b02-bd6e-379029e15bf1"},"vehicle_type_id":"4","last_reported":1733735492,"current_range_meters":38800,"station_id":"ce4bguh2rcd13ifvqckg","pricing_plan_id":"cebpf4jnsgd1na2vs0mg"},{"bike_id":"f59351c8-7893-4686-ad9a-24664a2e73b6","system_id":"levelo_inurba_marseille","lat":43.24662,"lon":5.38166,"is_reserved":false,"is_disabled":false,"rental_uris":{"android":"levelo://app?vid=f59351c8-7893-4686-ad9a-24664a2e73b6","ios":"levelo://app?vid=f59351c8-7893-4686-ad9a-24664a2e73b6"},"vehicle_type_id":"4","last_reported":1733735492,"current_range_meters":24800,"station_id":"ce4bhih2rcd13ifvqfr0","pricing_plan_id":"cebpf4jnsgd1na2vs0mg"},{"bike_id":"7b40ee34-e14e-41bc-a947-25e5d1979b7e","system_id":"levelo_inurba_marseille","lat":43.25007,"lon":5.38914,"is_reserved":false,"is_disabled":false,"rental_uris":{"android":"levelo://app?vid=7b40ee34-e14e-41bc-a947-25e5d1979b7e","ios":"levelo://app?vid=7b40ee34-e14e-41bc-a947-25e5d1979b7e"},"vehicle_type_id":"4","last_reported":1733735492,"current_range_meters":38800,"station_id":"ce4bhgp2rcd13ifvqfd0","pricing_plan_id":"cebpf4jnsgd1na2vs0mg"},{"bike_id":"6c660714-bd36-4e1d-858f-095636bba76e","system_id":"levelo_inurba_marseille","lat":43.25937,"lon":5.40907,"is_reserved":false,"is_disabled":false,"rental_uris":{"android":"levelo://app?vid=6c660714-bd36-4e1d-858f-095636bba76e","ios":"levelo://app?vid=6c660714-bd36-4e1d-858f-095636bba76e"},"vehicle_type_id":"4","last_reported":1733735492,"current_range_meters":38800,"station_id":"ce4bhm92rcd13ifvqglg","pricing_plan_id":"cebpf4jnsgd1na2vs0mg"},{"bike_id":"fdbe1005-b4fb-44f6-88fb-f62b7c565355","system_id":"levelo_inurba_marseille","lat":43.27495,"lon":5.42449,"is_reserved":false,"is_disabled":false,"rental_uris":{"android":"levelo://app?vid=fdbe1005-b4fb-44f6-88fb-f62b7c565355","ios":"levelo://app?vid=fdbe1005-b4fb-44f6-88fb-f62b7c565355"},"vehicle_type_id":"4","last_reported":1733735492,"current_range_meters":25200,"station_id":"ce4bhn92rcd13ifvqgrg","pricing_plan_id":"cebpf4jnsgd1na2vs0mg"},{"bike_id":"c960a6a5-4cd6-4d5b-8ddb-399168bc819c","system_id":"levelo_inurba_marseille","lat":43.30947,"lon":5.39031,"is_reserved":false,"is_disabled":false,"rental_uris":{"android":"levelo://app?vid=c960a6a5-4cd6-4d5b-8ddb-399168bc819c","ios":"levelo://app?vid=c960a6a5-4cd6-4d5b-8ddb-399168bc819c"},"vehicle_type_id":"4","last_reported":1733735492,"current_range_meters":22400,"station_id":"ce4bgup2rcd13ifvqco0","pricing_plan_id":"cebpf4jnsgd1na2vs0mg"},{"bike_id":"ab9fce9f-62f1-4182-8e80-13a542b55411","system_id":"levelo_inurba_marseille","lat":43.30878,"lon":5.3964,"is_reserved":false,"is_disabled":true,"rental_uris":{"android":"levelo://app?vid=ab9fce9f-62f1-4182-8e80-13a542b55411","ios":"levelo://app?vid=ab9fce9f-62f1-4182-8e80-13a542b55411"},"vehicle_type_id":"4","last_reported":1733735492,"current_range_meters":38800,"station_id":"ce4bh012rcd13ifvqcv0","pricing_plan_id":"cebpf4jnsgd1na2vs0mg"},{"bike_id":"1aa281b2-43ac-484c-a589-e7ad3ec64887","system_id":"levelo_inurba_marseille","lat":43.2407,"lon":5.37761,"is_reserved":false,"is_disabled":false,"rental_uris":{"android":"levelo://app?vid=1aa281b2-43ac-484c-a589-e7ad3ec64887","ios":"levelo://app?vid=1aa281b2-43ac-484c-a589-e7ad3ec64887"},"vehicle_type_id":"4","last_reported":1733735492,"current_range_meters":20800,"station_id":"ce4bhnp2rcd13ifvqgvg","pricing_plan_id":"cebpf4jnsgd1na2vs0mg"},{"bike_id":"9f4ac9b3-50ef-42a2-a27e-02b78e29df4d","system_id":"levelo_inurba_marseille","lat":43.30413,"lon":5.41288,"is_reserved":false,"is_disabled":false,"rental_uris":{"android":"levelo://app?vid=9f4ac9b3-50ef-42a2-a27e-02b78e29df4d","ios":"levelo://app?vid=9f4ac9b3-50ef-42a2-a27e-02b78e29df4d"},"vehicle_type_id":"4","last_reported":1733735492,"current_range_meters":10800,"station_id":"ce4bhop2rcd13ifvqh8g","pricing_plan_id":"cebpf4jnsgd1na2vs0mg"},{"bike_id":"fa477f15-a4f1-4cd4-b64e-4106e6886c17","system_id":"levelo_inurba_marseille","lat":43.23197,"lon":5.3555,"is_reserved":false,"is_disabled":false,"rental_uris":{"android":"levelo://app?vid=fa477f15-a4f1-4cd4-b64e-4106e6886c17","ios":"levelo://app?vid=fa477f15-a4f1-4cd4-b64e-4106e6886c17"},"vehicle_type_id":"4","last_reported":1733735492,"current_range_meters":16000,"station_id":"ce4bhu92rcd13ifvqi70","pricing_plan_id":"cebpf4jnsgd1na2vs0mg"},{"bike_id":"080fcb1c-52b8-42d7-b477-4dbab7fa601d","system_id":"levelo_inurba_marseille","lat":43.33023,"lon":5.3904,"is_reserved":false,"is_disabled":false,"rental_uris":{"android":"levelo://app?vid=080fcb1c-52b8-42d7-b477-4dbab7fa601d","ios":"levelo://app?vid=080fcb1c-52b8-42d7-b477-4dbab7fa601d"},"vehicle_type_id":"4","last_reported":1733735492,"current_range_meters":28400,"station_id":"ce4bhr92rcd13ifvqhrg","pricing_plan_id":"cebpf4jnsgd1na2vs0mg"},{"bike_id":"00dfce39-0a3e-42bd-85ef-7a7a8f87f756","system_id":"levelo_inurba_marseille","lat":43.27059,"lon":5.40259,"is_reserved":false,"is_disabled":false,"rental_uris":{"android":"levelo://app?vid=00dfce39-0a3e-42bd-85ef-7a7a8f87f756","ios":"levelo://app?vid=00dfce39-0a3e-42bd-85ef-7a7a8f87f756"},"vehicle_type_id":"4","last_reported":1733735492,"current_range_meters":22400,"station_id":"ce4bhk92rcd13ifvqgc0","pricing_plan_id":"cebpf4jnsgd1na2vs0mg"},{"bike_id":"0a5ac30e-86e1-4275-bad9-9f07d41227f8","system_id":"levelo_inurba_marseille","lat":43.25858,"lon":5.39875,"is_reserved":false,"is_disabled":false,"rental_uris":{"android":"levelo://app?vid=0a5ac30e-86e1-4275-bad9-9f07d41227f8","ios":"levelo://app?vid=0a5ac30e-86e1-4275-bad9-9f07d41227f8"},"vehicle_type_id":"4","last_reported":1733735492,"current_range_meters":38800,"station_id":"ce4bhl92rcd13ifvqghg","pricing_plan_id":"cebpf4jnsgd1na2vs0mg"},{"bike_id":"28b16c12-530c-4918-8814-311ad3447400","system_id":"levelo_inurba_marseille","lat":43.336,"lon":5.41007,"is_reserved":false,"is_disabled":false,"rental_uris":{"android":"levelo://app?vid=28b16c12-530c-4918-8814-311ad3447400","ios":"levelo://app?vid=28b16c12-530c-4918-8814-311ad3447400"},"vehicle_type_id":"4","last_reported":1733735492,"current_range_meters":25600,"station_id":"ce4bhqh2rcd13ifvqhmg","pricing_plan_id":"cebpf4jnsgd1na2vs0mg"},{"bike_id":"08c2a45a-da89-4dd7-af84-428076a257bb","system_id":"levelo_inurba_marseille","lat":43.27367,"lon":5.36255,"is_reserved":false,"is_disabled":false,"rental_uris":{"android":"levelo://app?vid=08c2a45a-da89-4dd7-af84-428076a257bb","ios":"levelo://app?vid=08c2a45a-da89-4dd7-af84-428076a257bb"},"vehicle_type_id":"4","last_reported":1733735492,"current_range_meters":32000,"station_id":"ce4bhbh2rcd13ifvqeo0","pricing_plan_id":"cebpf4jnsgd1na2vs0mg"},{"bike_id":"bbbfb292-3d43-43a5-a6bc-bd133b9a8d23","system_id":"levelo_inurba_marseille","lat":43.33026,"lon":5.39035,"is_reserved":false,"is_disabled":false,"rental_uris":{"android":"levelo://app?vid=bbbfb292-3d43-43a5-a6bc-bd133b9a8d23","ios":"levelo://app?vid=bbbfb292-3d43-43a5-a6bc-bd133b9a8d23"},"vehicle_type_id":"4","last_reported":1733735492,"current_range_meters":16400,"station_id":"ce4bhr92rcd13ifvqhrg","pricing_plan_id":"cebpf4jnsgd1na2vs0mg"},{"bike_id":"a0b44e86-9121-4df3-b62a-0fc9a0d1110c","system_id":"levelo_inurba_marseille","lat":43.23064,"lon":5.35492,"is_reserved":false,"is_disabled":false,"rental_uris":{"android":"levelo://app?vid=a0b44e86-9121-4df3-b62a-0fc9a0d1110c","ios":"levelo://app?vid=a0b44e86-9121-4df3-b62a-0fc9a0d1110c"},"vehicle_type_id":"4","last_reported":1733735492,"current_range_meters":7200,"station_id":"cpo3342slgdg3j2ifvpg","pricing_plan_id":"cebpf4jnsgd1na2vs0mg"},{"bike_id":"4c8b77e0-44a3-4695-a664-ecb5da6a9925","system_id":"levelo_inurba_marseille","lat":43.29571,"lon":5.3971,"is_reserved":false,"is_disabled":true,"rental_uris":{"android":"levelo://app?vid=4c8b77e0-44a3-4695-a664-ecb5da6a9925","ios":"levelo://app?vid=4c8b77e0-44a3-4695-a664-ecb5da6a9925"},"vehicle_type_id":"4","last_reported":1733735492,"current_range_meters":0,"station_id":"","pricing_plan_id":"cebpf4jnsgd1na2vs0mg"},{"bike_id":"10e02497-99ed-494a-9afd-42b125779829","system_id":"levelo_inurba_marseille","lat":43.23153,"lon":5.43716,"is_reserved":false,"is_disabled":false,"rental_uris":{"android":"levelo://app?vid=10e02497-99ed-494a-9afd-42b125779829","ios":"levelo://app?vid=10e02497-99ed-494a-9afd-42b125779829"},"vehicle_type_id":"4","last_reported":1733735492,"current_range_meters":28000,"station_id":"ce4bhmp2rcd13ifvqgog","pricing_plan_id":"cebpf4jnsgd1na2vs0mg"},{"bike_id":"a4a69015-4a9b-4c6f-8e9c-372b21ecf3a8","system_id":"levelo_inurba_marseille","lat":43.27854,"lon":5.36866,"is_reserved":false,"is_disabled":false,"rental_uris":{"android":"levelo://app?vid=a4a69015-4a9b-4c6f-8e9c-372b21ecf3a8","ios":"levelo://app?vid=a4a69015-4a9b-4c6f-8e9c-372b21ecf3a8"},"vehicle_type_id":"4","last_reported":1733735492,"current_range_meters":23200,"station_id":"ce4bhg12rcd13ifvqf80","pricing_plan_id":"cebpf4jnsgd1na2vs0mg"},{"bike_id":"618e2218-1b11-4dc6-b49f-04d56fdc5014","system_id":"levelo_inurba_marseille","lat":43.25002,"lon":5.38929,"is_reserved":false,"is_disabled":false,"rental_uris":{"android":"levelo://app?vid=618e2218-1b11-4dc6-b49f-04d56fdc5014","ios":"levelo://app?vid=618e2218-1b11-4dc6-b49f-04d56fdc5014"},"vehicle_type_id":"4","last_reported":1733735492,"current_range_meters":27600,"station_id":"ce4bhgp2rcd13ifvqfd0","pricing_plan_id":"cebpf4jnsgd1na2vs0mg"},{"bike_id":"4ae5fe7f-a755-40fe-9b35-59fbb2437146","system_id":"levelo_inurba_marseille","lat":43.24178,"lon":5.36417,"is_reserved":false,"is_disabled":false,"rental_uris":{"android":"levelo://app?vid=4ae5fe7f-a755-40fe-9b35-59fbb2437146","ios":"levelo://app?vid=4ae5fe7f-a755-40fe-9b35-59fbb2437146"},"vehicle_type_id":"4","last_reported":1733735492,"current_range_meters":23200,"station_id":"cpo36qri1sfpv3e86is0","pricing_plan_id":"cebpf4jnsgd1na2vs0mg"},{"bike_id":"fe83daf6-b71a-4793-8f05-bb7a02058af1","system_id":"levelo_inurba_marseille","lat":43.30273,"lon":5.37705,"is_reserved":false,"is_disabled":false,"rental_uris":{"android":"levelo://app?vid=fe83daf6-b71a-4793-8f05-bb7a02058af1","ios":"levelo://app?vid=fe83daf6-b71a-4793-8f05-bb7a02058af1"},"vehicle_type_id":"4","last_reported":1733735492,"current_range_meters":39200,"station_id":"ce4bguh2rcd13ifvqcj0","pricing_plan_id":"cebpf4jnsgd1na2vs0mg"},{"bike_id":"72a2c5fa-2e6d-4cd4-97dc-684f3ef3fc6b","system_id":"levelo_inurba_marseille","lat":43.24997,"lon":5.38926,"is_reserved":false,"is_disabled":false,"rental_uris":{"android":"levelo://app?vid=72a2c5fa-2e6d-4cd4-97dc-684f3ef3fc6b","ios":"levelo://app?vid=72a2c5fa-2e6d-4cd4-97dc-684f3ef3fc6b"},"vehicle_type_id":"4","last_reported":1733735492,"current_range_meters":24800,"station_id":"ce4bhgp2rcd13ifvqfd0","pricing_plan_id":"cebpf4jnsgd1na2vs0mg"},