{"last_updated":1698980851,"ttl":30,"version":"2.2","data":{"bikes":[{"bike_id":"401a38a3-39bb-41ce-8372-4c717408a13d","system_id":"levelo_inurba_marseille","lat":43.314811,"lon":5.373103,"is_reserved":false,"is_disabled":false,"rental_uris":{"android":"levelo://app?vid=401a38a3-39bb-41ce-8372-4c717408a13d","ios":"levelo://app?vid=401a38a3-39bb-41ce-8372-4c717408a13d"},"vehicle_type_id":"4","last_reported":1698980852,"current_range_meters":31200,"station_id":"ce4bgt12rcd13ifvqcd0","pricing_plan_id":"free"},{"bike_id":"dd118c42-5025-429f-ae40-6feb4b8f1b4a","system_id":"levelo_inurba_marseille","lat":43.314811,"lon":5.373103,"is_reserved":false,"is_disabled":false,"rental_uris":{"android":"levelo://app?vid=dd118c42-5025-429f-ae40-6feb4b8f1b4a","ios":"levelo://app?vid=dd118c42-5025-429f-ae40-6feb4b8f1b4a"},"vehicle_type_id":"4","last_reported":1698980852,"current_range_meters":22400,"station_id":"ce4bgt12rcd13ifvqcd0","pricing_plan_id":"free"},{"bike_id":"62a33733-b598-4bc9-8854-36472c43876b","system_id":"levelo_inurba_marseille","lat":43.314811,"lon":5.373103,"is_reserved":false,"is_disabled":false,"rental_uris":{"android":"levelo://app?vid=62a33733-b598-4bc9-8854-36472c43876b","ios":"levelo://app?vid=62a33733-b598-4bc9-8854-36472c43876b"},"vehicle_type_id":"4","last_reported":1698980852,"current_range_meters":30400,"station_id":"ce4bgt12rcd13ifvqcd0","pricing_plan_id":"free"},{"bike_id":"fa60f9b6-ea3b-4021-8059-d16bf53d9bca","system_id":"levelo_inurba_marseille","lat":43.314811,"lon":5.373103,"is_reserved":false,"is_disabled":false,"rental_uris":{"android":"levelo://app?vid=fa60f9b6-ea3b-4021-8059-d16bf53d9bca","ios":"levelo://app?vid=fa60f9b6-ea3b-4021-8059-d16bf53d9bca"},"vehicle_type_id":"4","last_reported":1698980852,"current_range_meters":30400,"station_id":"ce4bgt12rcd13ifvqcd0","pricing_plan_id":"free"},{"bike_id":"cb73ad4b-2f5b-4de8-bf3c-53b04cc67b2c","system_id":"levelo_inurba_marseille","lat":43.314811,"lon":5.373104,"is_reserved":false,"is_disabled":false,"rental_uris":{"android":"levelo://app?vid=cb73ad4b-2f5b-4de8-bf3c-53b04cc67b2c","ios":"levelo://app?vid=cb73ad4b-2f5b-4de8-bf3c-53b04cc67b2c"},"vehicle_type_id":"4","last_reported":1698980852,"current_range_meters":28000,"station_id":"ce4bgt12rcd13ifvqcd0","pricing_plan_id":"free"},{"bike_id":"e55adaa8-b754-4939-ab10-a36530890f1b","system_id":"levelo_inurba_marseille","lat":43.314996,"lon":5.373035,"is_reserved":false,"is_disabled":false,"rental_uris":{"android":"levelo://app?vid=e55adaa8-b754-4939-ab10-a36530890f1b","ios":"levelo://app?vid=e55adaa8-b754-4939-ab10-a36530890f1b"},"vehicle_type_id":"4","last_reported":1698980852,"current_range_meters":25200,"station_id":"","pricing_plan_id":"free"},{"bike_id":"d4cf3515-dcc2-464c-b510-aa7301e82eb4","system_id":"levelo_inurba_marseille","lat":43.314811,"lon":5.373103,"is_reserved":false,"is_disabled":false,"rental_uris":{"android":"levelo://app?vid=d4cf3515-dcc2-464c-b510-aa7301e82eb4","ios":"levelo://app?vid=d4cf3515-dcc2-464c-b510-aa7301e82eb4"},"vehicle_type_id":"4","last_reported":1698980852,"current_range_meters":11600,"station_id":"ce4bgt12rcd13ifvqcd0","pricing_plan_id":"free"},{"bike_id":"87f0d1da-a26c-4d67-ab1f-0646e1d1cc6a","system_id":"levelo_inurba_marseille","lat":43.309039,"lon":5.371797,"is_reserved":false,"is_disabled":false,"rental_uris":{"android":"levelo://app?vid=87f0d1da-a26c-4d67-ab1f-0646e1d1cc6a","ios":"levelo://app?vid=87f0d1da-a26c-4d67-ab1f-0646e1d1cc6a"},"vehicle_type_id":"4","last_reported":1698980852,"current_range_meters":31200,"station_id":"ce4bguh2rcd13ifvqckg","pricing_plan_id":"free"},{"bike_id":"7f6d1821-d960-4aa5-81c2-8064a10d310c","system_id":"levelo_inurba_marseille","lat":43.31885,"lon":5.370823,"is_reserved":false,"is_disabled":false,"rental_uris":{"android":"levelo://app?vid=7f6d1821-d960-4aa5-81c2-8064a10d310c","ios":"levelo://app?vid=7f6d1821-d960-4aa5-81c2-8064a10d310c"},"vehicle_type_id":"4","last_reported":1698980852,"current_range_meters":14800,"station_id":"","pricing_plan_id":"free"},{"bike_id":"f252b071-dddd-4e5f-ad07-506846af6d1a","system_id":"levelo_inurba_marseille","lat":43.30542,"lon":5.36522,"is_reserved":false,"is_disabled":false,"rental_uris":{"android":"levelo://app?vid=f252b071-dddd-4e5f-ad07-506846af6d1a","ios":"levelo://app?vid=f252b071-dddd-4e5f-ad07-506846af6d1a"},"vehicle_type_id":"4","last_reported":1698980852,"current_range_meters":11600,"station_id":"ce4bgs12rcd13ifvqcag","pricing_plan_id":"free"},{"bike_id":"6aab3002-a2df-4885-bb41-bed51d8df105","system_id":"levelo_inurba_marseille","lat":43.305989,"lon":5.37225,"is_reserved":false,"is_disabled":false,"rental_uris":{"android":"levelo://app?vid=6aab3002-a2df-4885-bb41-bed51d8df105","ios":"levelo://app?vid=6aab3002-a2df-4885-bb41-bed51d8df105"},"vehicle_type_id":"4","last_reported":1698980852,"current_range_meters":19600,"station_id":"ce4bgqh2rcd13ifvqc4g","pricing_plan_id":"free"},{"bike_id":"be6ea036-9c8a-4522-ba08-a567e3ee3945","system_id":"levelo_inurba_marseille","lat":43.311131,"lon":5.377651,"is_reserved":false,"is_disabled":false,"rental_uris":{"android":"levelo://app?vid=be6ea036-9c8a-4522-ba08-a567e3ee3945","ios":"levelo://app?vid=be6ea036-9c8a-4522-ba08-a567e3ee3945"},"vehicle_type_id":"4","last_reported":1698980852,"current_range_meters":25600,"station_id":"ce4bgt92rcd13ifvqcg0","pricing_plan_id":"free"},{"bike_id":"6b157df2-9045-45e2-a3be-68a94382e69c","system_id":"levelo_inurba_marseille","lat":43.311125,"lon":5.377624,"is_reserved":false,"is_disabled":false,"rental_uris":{"android":"levelo://app?vid=6b157df2-9045-45e2-a3be-68a94382e69c","ios":"levelo://app?vid=6b157df2-9045-45e2-a3be-68a94382e69c"},"vehicle_type_id":"4","last_reported":1698980852,"current_range_meters":27600,"station_id":"ce4bgt92rcd13ifvqcg0","pricing_plan_id":"free"},{"bike_id":"0b1b2908-1b82-49c7-bb81-c08de41e9bc0","system_id":"levelo_inurba_marseille","lat":43.311209,"lon":5.37776,"is_reserved":false,"is_disabled":false,"rental_uris":{"android":"levelo://app?vid=0b1b2908-1b82-49c7-bb81-c08de41e9bc0","ios":"levelo://app?vid=0b1b2908-1b82-49c7-bb81-c08de41e9bc0"},"vehicle_type_id":"4","last_reported":1698980852,"current_range_meters":9600,"station_id":"ce4bgt92rcd13ifvqcg0","pricing_plan_id":"free"},{"bike_id":"ce15ffe5-58f2-416c-a9bf-c1a82ed09825","system_id":"levelo_inurba_marseille","lat":43.311176,"lon":5.377768,"is_reserved":false,"is_disabled":false,"rental_uris":{"android":"levelo://app?vid=ce15ffe5-58f2-416c-a9bf-c1a82ed09825","ios":"levelo://app?vid=ce15ffe5-58f2-416c-a9bf-c1a82ed09825"},"vehicle_type_id":"4","last_reported":1698980852,"current_range_meters":13600,"station_id":"ce4bgt92rcd13ifvqcg0","pricing_plan_id":"free"},{"bike_id":"e31334af-7b84-4ef5-aead-51d42892df8e","system_id":"levelo_inurba_marseille","lat":43.311125,"lon":5.377624,"is_reserved":false,"is_disabled":false,"rental_uris":{"android":"levelo://app?vid=e31334af-7b84-4ef5-aead-51d42892df8e","ios":"levelo://app?vid=e31334af-7b84-4ef5-aead-51d42892df8e"},"vehicle_type_id":"4","last_reported":1698980852,"current_range_meters":28800,"station_id":"ce4bgt92rcd13ifvqcg0","pricing_plan_id":"free"},{"bike_id":"c64bdf7f-edcf-4f85-a33e-af33119be905","system_id":"levelo_inurba_marseille","lat":43.307945,"lon":5.376487,"is_reserved":false,"is_disabled":false,"rental_uris":{"android":"levelo://app?vid=c64bdf7f-edcf-4f85-a33e-af33119be905","ios":"levelo://app?vid=c64bdf7f-edcf-4f85-a33e-af33119be905"},"vehicle_type_id":"4","last_reported":1698980852,"current_range_meters":5200,"station_id":"ce4bgv92rcd13ifvqcq0","pricing_plan_id":"free"},{"bike_id":"86a4b0c7-08d5-4963-a39c-9bcb8e1b727b","system_id":"levelo_inurba_marseille","lat":43.307945,"lon":5.376487,"is_reserved":false,"is_disabled":false,"rental_uris":{"android":"levelo://app?vid=86a4b0c7-08d5-4963-a39c-9bcb8e1b727b","ios":"levelo://app?vid=86a4b0c7-08d5-4963-a39c-9bcb8e1b727b"},"vehicle_type_id":"4","last_reported":1698980852,"current_range_meters":30800,"station_id":"ce4bgv92rcd13ifvqcq0","pricing_plan_id":"free"},{"bike_id":"1f9ae95e-b0f9-4296-a27e-52faeca5c693","system_id":"levelo_inurba_marseille","lat":43.307945,"lon":5.376487,"is_reserved":false,"is_disabled":false,"rental_uris":{"android":"levelo://app?vid=1f9ae95e-b0f9-4296-a27e-52faeca5c693","ios":"levelo://app?vid=1f9ae95e-b0f9-4296-a27e-52faeca5c693"},"vehicle_type_id":"4","last_reported":1698980852,"current_range_meters":14000,"station_id":"ce4bgv92rcd13ifvqcq0","pricing_plan_id":"free"},{"bike_id":"25b6e46a-8ec4-4aa9-b8ad-fb87bae9b196","system_id":"levelo_inurba_marseille","lat":43.317075,"lon":5.377367,"is_reserved":false,"is_disabled":false,"rental_uris":{"android":"levelo://app?vid=25b6e46a-8ec4-4aa9-b8ad-fb87bae9b196","ios":"levelo://app?vid=25b6e46a-8ec4-4aa9-b8ad-fb87bae9b196"},"vehicle_type_id":"4","last_reported":1698980852,"current_range_meters":6000,"station_id":"ce4bgth2rcd13ifvqch0","pricing_plan_id":"free"},{"bike_id":"cf44a4cd-e48b-4caa-9c33-578dcf8dc3bf","system_id":"levelo_inurba_marseille","lat":43.317075,"lon":5.377367,"is_reserved":false,"is_disabled":false,"rental_uris":{"android":"levelo://app?vid=cf44a4cd-e48b-4caa-9c33-578dcf8dc3bf","ios":"levelo://app?vid=cf44a4cd-e48b-4caa-9c33-578dcf8dc3bf"},"vehicle_type_id":"4","last_reported":1698980852,"current_range_meters":31200,"station_id":"ce4bgth2rcd13ifvqch0","pricing_plan_id":"free"},{"bike_id":"9461126f-a78b-43f1-85d8-aff362d44cd9","system_id":"levelo_inurba_marseille","lat":43.315295,"lon":5.380248,"is_reserved":false,"is_disabled":false,"rental_uris":{"android":"levelo://app?vid=9461126f-a78b-43f1-85d8-aff362d44cd9","ios":"levelo://app?vid=9461126f-a78b-43f1-85d8-aff362d44cd9"},"vehicle_type_id":"4","last_reported":1698980852,"current_range_meters":3600,"station_id":"ce4bhsp2rcd13ifvqi50","pricing_plan_id":"free"},{"bike_id":"7e69553b-c97e-42b9-be15-99c5249605a8","system_id":"levelo_inurba_marseille","lat":43.31539,"lon":5.38037,"is_reserved":false,"is_disabled":false,"rental_uris":{"android":"levelo://app?vid=7e69553b-c97e-42b9-be15-99c5249605a8","ios":"levelo://app?vid=7e69553b-c97e-42b9-be15-99c5249605a8"},"vehicle_type_id":"4","last_reported":1698980852,"current_range_meters":13200,"station_id":"ce4bhsp2rcd13ifvqi50","pricing_plan_id":"free"},{"bike_id":"bcd6a423-2b38-4c66-848e-26b70bd5985b","system_id":"levelo_inurba_marseille","lat":43.301939,"lon":5.366286,"is_reserved":false,"is_disabled":false,"rental_uris":{"android":"levelo://app?vid=bcd6a423-2b38-4c66-848e-26b70bd5985b","ios":"levelo://app?vid=bcd6a423-2b38-4c66-848e-26b70bd5985b"},"vehicle_type_id":"4","last_reported":1698980852,"current_range_meters":22000,"station_id":"ce4bgrh2rcd13ifvqc8g","pricing_plan_id":"free"},{"bike_id":"44db846b-dfe7-4cd5-a424-7ae197fd55d5","system_id":"levelo_inurba_marseille","lat":43.308012,"lon":5.381511,"is_reserved":false,"is_disabled":false,"rental_uris":{"android":"levelo://app?vid=44db846b-dfe7-4cd5-a424-7ae197fd55d5","ios":"levelo://app?vid=44db846b-dfe7-4cd5-a424-7ae197fd55d5"},"vehicle_type_id":"4","last_reported":1698980852,"current_range_meters":2400,"station_id":"ce4bgt12rcd13ifvqce0","pricing_plan_id":"free"},{"bike_id":"a549cc28-408e-4a47-b17c-36f5089788c2","system_id":"levelo_inurba_marseille","lat":43.308012,"lon":5.381511,"is_reserved":false,"is_disabled":false,"rental_uris":{"android":"levelo://app?vid=a549cc28-408e-4a47-b17c-36f5089788c2","ios":"levelo://app?vid=a549cc28-408e-4a47-b17c-36f5089788c2"},"vehicle_type_id":"4","last_reported":1698980852,"current_range_meters":31200,"station_id":"ce4bgt12rcd13ifvqce0","pricing_plan_id":"free"},{"bike_id":"e2a06484-3044-4c81-bd8f-b87963cc35b8","system_id":"levelo_inurba_marseille","lat":43.308012,"lon":5.381511,"is_reserved":false,"is_disabled":false,"rental_uris":{"android":"levelo://app?vid=e2a06484-3044-4c81-bd8f-b87963cc35b8","ios":"levelo://app?vid=e2a06484-3044-4c81-bd8f-b87963cc35b8"},"vehicle_type_id":"4","last_reported":1698980852,"current_range_meters":25200,"station_id":"ce4bgt12rcd13ifvqce0","pricing_plan_id":"free"},{"bike_id":"e72a3400-69ac-4e00-89c9-ec989acd6308","system_id":"levelo_inurba_marseille","lat":43.308045,"lon":5.38159,"is_reserved":false,"is_disabled":false,"rental_uris":{"android":"levelo://app?vid=e72a3400-69ac-4e00-89c9-ec989acd6308","ios":"levelo://app?vid=e72a3400-69ac-4e00-89c9-ec989acd6308"},"vehicle_type_id":"4","last_reported":1698980852,"current_range_meters":12400,"station_id":"ce4bgt12rcd13ifvqce0","pricing_plan_id":"free"},{"bike_id":"8ea84694-63f1-4557-93a2-6b76029ad644","system_id":"levelo_inurba_marseille","lat":43.308012,"lon":5.381511,"is_reserved":false,"is_disabled":false,"rental_uris":{"android":"levelo://app?vid=8ea84694-63f1-4557-93a2-6b76029ad644","ios":"levelo://app?vid=8ea84694-63f1-4557-93a2-6b76029ad644"},"vehicle_type_id":"4","last_reported":1698980852,"current_range_meters":20000,"station_id":"ce4bgt12rcd13ifvqce0","pricing_plan_id":"free"},{"bike_id":"3ef14f8b-0ce2-42c3-89dc-3fd8cdc2bd72","system_id":"levelo_inurba_marseille","lat":43.304606,"lon":5.379026,"is_reserved":false,"is_disabled":false,"rental_uris":{"android":"levelo://app?vid=3ef14f8b-0ce2-42c3-89dc-3fd8cdc2bd72","ios":"levelo://app?vid=3ef14f8b-0ce2-42c3-89dc-3fd8cdc2bd72"},"vehicle_type_id":"4","last_reported":1698980852,"current_range_meters":0,"station_id":"ce4bgup2rcd13ifvqcn0","pricing_plan_id":"free"},{"bike_id":"d37cc8ee-6516-43f8-95b6-96a199ee7849","system_id":"levelo_inurba_marseille","lat":43.304606,"lon":5.379026,"is_reserved":false,"is_disabled":false,"rental_uris":{"android":"levelo://app?vid=d37cc8ee-6516-43f8-95b6-96a199ee7849","ios":"levelo://app?vid=d37cc8ee-6516-43f8-95b6-96a199ee7849"},"vehicle_type_id":"4","last_reported":1698980852,"current_range_meters":26000,"station_id":"ce4bgup2rcd13ifvqcn0","pricing_plan_id":"free"},{"bike_id":"77a47d14-c357-4c48-8907-047e203fcef4","system_id":"levelo_inurba_marseille","lat":43.324863,"lon":5.365616,"is_reserved":false,"is_disabled":false,"rental_uris":{"android":"levelo://app?vid=77a47d14-c357-4c48-8907-047e203fcef4","ios":"levelo://app?vid=77a47d14-c357-4c48-8907-047e203fcef4"},"vehicle_type_id":"4","last_reported":1698980852,"current_range_meters":14000,"station_id":"ce4bhs12rcd13ifvqhvg","pricing_plan_id":"free"},{"bike_id":"5f6eadb7-7600-4bd8-84b2-05eeda72ff8b","system_id":"levelo_inurba_marseille","lat":43.302836,"lon":5.376942,"is_reserved":false,"is_disabled":false,"rental_uris":{"android":"levelo://app?vid=5f6eadb7-7600-4bd8-84b2-05eeda72ff8b","ios":"levelo://app?vid=5f6eadb7-7600-4bd8-84b2-05eeda72ff8b"},"vehicle_type_id":"4","last_reported":1698980852,"current_range_meters":22800,"station_id":"ce4bguh2rcd13ifvqcj0","pricing_plan_id":"free"},{"bike_id":"dcd8af7f-cced-4949-a326-2adac63e0390","system_id":"levelo_inurba_marseille","lat":43.302688,"lon":5.37696,"is_reserved":false,"is_disabled":false,"rental_uris":{"android":"levelo://app?vid=dcd8af7f-cced-4949-a326-2adac63e0390","ios":"levelo://app?vid=dcd8af7f-cced-4949-a326-2adac63e0390"},"vehicle_type_id":"4","last_reported":1698980852,"current_range_meters":29600,"station_id":"","pricing_plan_id":"free"},{"bike_id":"cde09343-cb34-42b4-bd82-ba3dc99ca7a9","system_id":"levelo_inurba_marseille","lat":43.31541,"lon":5.38404,"is_reserved":false,"is_disabled":false,"rental_uris":{"android":"levelo://app?vid=cde09343-cb34-42b4-bd82-ba3dc99ca7a9","ios":"levelo://app?vid=cde09343-cb34-42b4-bd82-ba3dc99ca7a9"},"vehicle_type_id":"4","last_reported":1698980852,"current_range_meters":17600,"station_id":"ce4bhqp2rcd13ifvqhng","pricing_plan_id":"free"},{"bike_id":"7c825a59-2b5f-4720-8b3b-2cdbc5d11a8c","system_id":"levelo_inurba_marseille","lat":43.314157,"lon":5.384462,"is_reserved":false,"is_disabled":false,"rental_uris":{"android":"levelo://app?vid=7c825a59-2b5f-4720-8b3b-2cdbc5d11a8c","ios":"levelo://app?vid=7c825a59-2b5f-4720-8b3b-2cdbc5d11a8c"},"vehicle_type_id":"4","last_reported":1698980852,"current_range_meters":24400,"station_id":"","pricing_plan_id":"free"},{"bike_id":"4927cbff-2fc0-42aa-be34-c4e9b955930b","system_id":"levelo_inurba_marseille","lat":43.313571,"lon":5.384829,"is_reserved":false,"is_disabled":false,"rental_uris":{"android":"levelo://app?vid=4927cbff-2fc0-42aa-be34-c4e9b955930b","ios":"levelo://app?vid=4927cbff-2fc0-42aa-be34-c4e9b955930b"},"vehicle_type_id":"4","last_reported":1698980852,"current_range_meters":30400,"station_id":"ce4bgt92rcd13ifvqcf0","pricing_plan_id":"free"},{"bike_id":"1059be2a-71ec-4130-8e45-855189e693d6","system_id":"levelo_inurba_marseille","lat":43.313571,"lon":5.384829,"is_reserved":false,"is_disabled":false,"rental_uris":{"android":"levelo://app?vid=1059be2a-71ec-4130-8e45-855189e693d6","ios":"levelo://app?vid=1059be2a-71ec-4130-8e45-855189e693d6"},"vehicle_type_id":"4","last_reported":1698980852,"current_range_meters":25600,"station_id":"ce4bgt92rcd13ifvqcf0","pricing_plan_id":"free"},{"bike_id":"c8d80ef1-6e66-4342-bc6b-f4fda5af8154","system_id":"levelo_inurba_marseille","lat":43.313566,"lon":5.384994,"is_reserved":false,"is_disabled":false,"rental_uris":{"android":"levelo://app?vid=c8d80ef1-6e66-4342-bc6b-f4fda5af8154","ios":"levelo://app?vid=c8d80ef1-6e66-4342-bc6b-f4fda5af8154"},"vehicle_type_id":"4","last_reported":1698980852,"current_range_meters":31200,"station_id":"ce4bgt92rcd13ifvqcf0","pricing_plan_id":"free"},{"bike_id":"b2f20780-ce77-4284-b590-712f1ed93aea","system_id":"levelo_inurba_marseille","lat":43.313673,"lon":5.385,"is_reserved":false,"is_disabled":false,"rental_uris":{"android":"levelo://app?vid=b2f20780-ce77-4284-b590-712f1ed93aea","ios":"levelo://app?vid=b2f20780-ce77-4284-b590-712f1ed93aea"},"vehicle_type_id":"4","last_reported":1698980852,"current_range_meters":31200,"station_id":"ce4bgt92rcd13ifvqcf0","pricing_plan_id":"free"},{"bike_id":"ab91b426-5c11-48b7-81ba-8858d7376cd1","system_id":"levelo_inurba_marseille","lat":43.313571,"lon":5.384829,"is_reserved":false,"is_disabled":false,"rental_uris":{"android":"levelo://app?vid=ab91b426-5c11-48b7-81ba-8858d7376cd1","ios":"levelo://app?vid=ab91b426-5c11-48b7-81ba-8858d7376cd1"},"vehicle_type_id":"4","last_reported":1698980852,"current_range_meters":24400,"station_id":"ce4bgt92rcd13ifvqcf0","pricing_plan_id":"free"},{"bike_id":"77636c9a-8883-4e30-9768-0cd175c8ac13","system_id":"levelo_inurba_marseille","lat":43.299724,"lon":5.371829,"is_reserved":false,"is_disabled":false,"rental_uris":{"android":"levelo://app?vid=77636c9a-8883-4e30-9768-0cd175c8ac13","ios":"levelo://app?vid=77636c9a-8883-4e30-9768-0cd175c8ac13"},"vehicle_type_id":"4","last_reported":1698980852,"current_range_meters":26400,"station_id":"ce4bgr92rcd13ifvqc7g","pricing_plan_id":"free"},{"bike_id":"6cdcc0a5-af66-4eee-af72-7e2f236589ae","system_id":"levelo_inurba_marseille","lat":43.299341,"lon":5.36557,"is_reserved":false,"is_disabled":false,"rental_uris":{"android":"levelo://app?vid=6cdcc0a5-af66-4eee-af72-7e2f236589ae","ios":"levelo://app?vid=6cdcc0a5-af66-4eee-af72-7e2f236589ae"},"vehicle_type_id":"4","last_reported":1698980852,"current_range_meters":26400,"station_id":"ce4bgm92rcd13ifvqbr0","pricing_plan_id":"free"},{"bike_id":"cffe800b-8e46-4367-92e9-d9a0f2cba0f2","system_id":"levelo_inurba_marseille","lat":43.299626,"lon":5.375372,"is_reserved":false,"is_disabled":false,"rental_uris":{"android":"levelo://app?vid=cffe800b-8e46-4367-92e9-d9a0f2cba0f2","ios":"levelo://app?vid=cffe800b-8e46-4367-92e9-d9a0f2cba0f2"},"vehicle_type_id":"4","last_reported":1698980852,"current_range_meters":30400,"station_id":"ce4bgjh2rcd13ifvqbg0","pricing_plan_id":"free"},{"bike_id":"5225a7cb-b1d9-44a7-b9a6-fa929b831b95","system_id":"levelo_inurba_marseille","lat":43.298433,"lon":5.362774,"is_reserved":false,"is_disabled":false,"rental_uris":{"android":"levelo://app?vid=5225a7cb-b1d9-44a7-b9a6-fa929b831b95","ios":"levelo://app?vid=5225a7cb-b1d9-44a7-b9a6-fa929b831b95"},"vehicle_type_id":"4","last_reported":1698980852,"current_range_meters":27600,"station_id":"ce4bgpp2rcd13ifvqc3g","pricing_plan_id":"free"},{"bike_id":"bdd39e14-bcd2-4788-804c-653909f02d9c","system_id":"levelo_inurba_marseille","lat":43.305439,"lon":5.384266,"is_reserved":false,"is_disabled":false,"rental_uris":{"android":"levelo://app?vid=bdd39e14-bcd2-4788-804c-653909f02d9c","ios":"levelo://app?vid=bdd39e14-bcd2-4788-804c-653909f02d9c"},"vehicle_type_id":"4","last_reported":1698980852,"current_range_meters":8000,"station_id":"","pricing_plan_id":"free"},{"bike_id":"9f25f31c-89e4-4ff8-95eb-2e6e2d975a66","system_id":"levelo_inurba_marseille","lat":43.305452,"lon":5.384282,"is_reserved":false,"is_disabled":false,"rental_uris":{"android":"levelo://app?vid=9f25f31c-89e4-4ff8-95eb-2e6e2d975a66","ios":"levelo://app?vid=9f25f31c-89e4-4ff8-95eb-2e6e2d975a66"},"vehicle_type_id":"4","last_reported":1698980852,"current_range_meters":4000,"station_id":"ce4bgg92rcd13ifvqb30","pricing_plan_id":"free"},{"bike_id":"275cec4e-fe16-41e7-93d2-aa77628de4d4","system_id":"levelo_inurba_marseille","lat":43.305364,"lon":5.384119,"is_reserved":false,"is_disabled":false,"rental_uris":{"android":"levelo://app?vid=275cec4e-fe16-41e7-93d2-aa77628de4d4","ios":"levelo://app?vid=275cec4e-fe16-41e7-93d2-aa77628de4d4"},"vehicle_type_id":"4","last_reported":1698980852,"current_range_meters":28800,"station_id":"ce4bgg92rcd13ifvqb30","pricing_plan_id":"free"},{"bike_id":"f86a7f1d-a35a-4caf-baa6-c73e73c44051","system_id":"levelo_inurba_marseille","lat":43.305364,"lon":5.384119,"is_reserved":false,"is_disabled":false,"rental_uris":{"android":"levelo://app?vid=f86a7f1d-a35a-4caf-baa6-c73e73c44051","ios":"levelo://app?vid=f86a7f1d-a35a-4caf-baa6-c73e73c44051"},"vehicle_type_id":"4","last_reported":1698980852,"current_range_meters":24000,"station_id":"ce4bgg92rcd13ifvqb30","pricing_plan_id":"free"},{"bike_id":"407b7f9d-83d5-4e3f-b185-bca905015c6d","system_id":"levelo_inurba_marseille","lat":43.311676,"lon":5.387107,"is_reserved":false,"is_disabled":false,"rental_uris":{"android":"levelo://app?vid=407b7f9d-83d5-4e3f-b185-bca905015c6d","ios":"levelo://app?vid=407b7f9d-83d5-4e3f-b185-bca905015c6d"},"vehicle_type_id":"4","last_reported":1698980852,"current_range_meters":0,"station_id":"ce4bgv12rcd13ifvqcp0","pricing_plan_id":"free"},{"bike_id":"dd8e3607-1887-4f47-8ed8-6d21d7866c85","system_id":"levelo_inurba_marseille","lat":43.31166,"lon":5.3872,"is_reserved":false,"is_disabled":false,"rental_uris":{"android":"levelo://app?vid=dd8e3607-1887-4f47-8ed8-6d21d7866c85","ios":"levelo://app?vid=dd8e3607-1887-4f47-8ed8-6d21d7866c85"},"vehicle_type_id":"4","last_reported":1698980852,"current_range_meters":7200,"station_id":"ce4bgv12rcd13ifvqcp0","pricing_plan_id":"free"},{"bike_id":"41a6f496-85dc-4590-b6bd-cabc28088674","system_id":"levelo_inurba_marseille","lat":43.311722,"lon":5.387247,"is_reserved":false,"is_disabled":false,"rental_uris":{"android":"levelo://app?vid=41a6f496-85dc-4590-b6bd-cabc28088674","ios":"levelo://app?vid=41a6f496-85dc-4590-b6bd-cabc28088674"},"vehicle_type_id":"4","last_reported":1698980852,"current_range_meters":21600,"station_id":"ce4bgv12rcd13ifvqcp0","pricing_plan_id":"free"},{"bike_id":"300d0619-9ab8-44aa-96da-1188fbe012d0","system_id":"levelo_inurba_marseille","lat":43.311722,"lon":5.387247,"is_reserved":false,"is_disabled":false,"rental_uris":{"android":"levelo://app?vid=300d0619-9ab8-44aa-96da-1188fbe012d0","ios":"levelo://app?vid=300d0619-9ab8-44aa-96da-1188fbe012d0"},"vehicle_type_id":"4","last_reported":1698980852,"current_range_meters":31200,"station_id":"ce4bgv12rcd13ifvqcp0","pricing_plan_id":"free"},{"bike_id":"c9428514-9197-4976-812b-d61139ef9187","system_id":"levelo_inurba_marseille","lat":43.318846,"lon":5.386473,"is_reserved":false,"is_disabled":false,"rental_uris":{"android":"levelo://app?vid=c9428514-9197-4976-812b-d61139ef9187","ios":"levelo://app?vid=c9428514-9197-4976-812b-d61139ef9187"},"vehicle_type_id":"4","last_reported":1698980852,"current_range_meters":14400,"station_id":"","pricing_plan_id":"free"},{"bike_id":"89517e2e-a73a-49e0-9795-31e8e5413245","system_id":"levelo_inurba_marseille","lat":43.297163,"lon":5.365866,"is_reserved":false,"is_disabled":false,"rental_uris":{"android":"levelo://app?vid=89517e2e-a73a-49e0-9795-31e8e5413245","ios":"levelo://app?vid=89517e2e-a73a-49e0-9795-31e8e5413245"},"vehicle_type_id":"4","last_reported":1698980852,"current_range_meters":31200,"station_id":"ce4bgn12rcd13ifvqbt0","pricing_plan_id":"free"},{"bike_id":"edb83278-50aa-4a4d-a9fb-1337e7dd7a81","system_id":"levelo_inurba_marseille","lat":43.328313,"lon":5.366795,"is_reserved":false,"is_disabled":false,"rental_uris":{"android":"levelo://app?vid=edb83278-50aa-4a4d-a9fb-1337e7dd7a81","ios":"levelo://app?vid=edb83278-50aa-4a4d-a9fb-1337e7dd7a81"},"vehicle_type_id":"4","last_reported":1698980852,"current_range_meters":10000,"station_id":"ce4bhs92rcd13ifvqi0g","pricing_plan_id":"free"},{"bike_id":"1bc8db34-ad1b-4827-8ca6-bc0dc883f6d3","system_id":"levelo_inurba_marseille","lat":43.328371,"lon":5.366909,"is_reserved":false,"is_disabled":false,"rental_uris":{"android":"levelo://app?vid=1bc8db34-ad1b-4827-8ca6-bc0dc883f6d3","ios":"levelo://app?vid=1bc8db34-ad1b-4827-8ca6-bc0dc883f6d3"},"vehicle_type_id":"4","last_reported":1698980852,"current_range_meters":21600,"station_id":"ce4bhs92rcd13ifvqi0g","pricing_plan_id":"free"},{"bike_id":"ca31d840-44f4-46bd-a22b-bd0356794633","system_id":"levelo_inurba_marseille","lat":43.297163,"lon":5.365866,"is_reserved":false,"is_disabled":false,"rental_uris":{"android":"levelo://app?vid=ca31d840-44f4-46bd-a22b-bd0356794633","ios":"levelo://app?vid=ca31d840-44f4-46bd-a22b-bd0356794633"},"vehicle_type_id":"4","last_reported":1698980852,"current_range_meters":31200,"station_id":"ce4bgn12rcd13ifvqbt0","pricing_plan_id":"free"},{"bike_id":"e8584f7f-3a22-4191-9ecd-5314ed574e4e","system_id":"levelo_inurba_marseille","lat":43.29801,"lon":5.37405,"is_reserved":false,"is_disabled":false,"rental_uris":{"android":"levelo://app?vid=e8584f7f-3a22-4191-9ecd-5314ed574e4e","ios":"levelo://app?vid=e8584f7f-3a22-4191-9ecd-5314ed574e4e"},"vehicle_type_id":"4","last_reported":1698980852,"current_range_meters":21200,"station_id":"ce4bhr12rcd13ifvqhpg","pricing_plan_id":"free"},{"bike_id":"beb49614-a265-45aa-886b-1afd1082dea6","system_id":"levelo_inurba_marseille","lat":43.29713,"lon":5.36611,"is_reserved":false,"is_disabled":false,"rental_uris":{"android":"levelo://app?vid=beb49614-a265-45aa-886b-1afd1082dea6","ios":"levelo://app?vid=beb49614-a265-45aa-886b-1afd1082dea6"},"vehicle_type_id":"4","last_reported":1698980852,"current_range_meters":18800,"station_id":"ce4bgn12rcd13ifvqbt0","pricing_plan_id":"free"},{"bike_id":"ae5d8bcd-b790-4400-b7fb-908e750211ba","system_id":"levelo_inurba_marseille","lat":43.297104,"lon":5.366128,"is_reserved":false,"is_disabled":false,"rental_uris":{"android":"levelo://app?vid=ae5d8bcd-b790-4400-b7fb-908e750211ba","ios":"levelo://app?vid=ae5d8bcd-b790-4400-b7fb-908e750211ba"},"vehicle_type_id":"4","last_reported":1698980852,"current_range_meters":10800,"station_id":"ce4bgn12rcd13ifvqbt0","pricing_plan_id":"free"},{"bike_id":"0ff87b7d-c0ad-4b71-90e6-bd0e32084126","system_id":"levelo_inurba_marseille","lat":43.297063,"lon":5.36621,"is_reserved":false,"is_disabled":false,"rental_uris":{"android":"levelo://app?vid=0ff87b7d-c0ad-4b71-90e6-bd0e32084126","ios":"levelo://app?vid=0ff87b7d-c0ad-4b71-90e6-bd0e32084126"},"vehicle_type_id":"4","last_reported":1698980852,"current_range_meters":23200,"station_id":"ce4bgn12rcd13ifvqbt0","pricing_plan_id":"free"},{"bike_id":"671fa751-9bb4-47af-a078-683ce4ee5e2f","system_id":"levelo_inurba_marseille","lat":43.320434,"lon":5.386019,"is_reserved":false,"is_disabled":false,"rental_uris":{"android":"levelo://app?vid=671fa751-9bb4-47af-a078-683ce4ee5e2f","ios":"levelo://app?vid=671fa751-9bb4-47af-a078-683ce4ee5e2f"},"vehicle_type_id":"4","last_reported":1698980852,"current_range_meters":6000,"station_id":"","pricing_plan_id":"free"},{"bike_id":"67bb7dbe-50ea-4249-bc98-d0ad4814b4a6","system_id":"levelo_inurba_marseille","lat":43.321453,"lon":5.385595,"is_reserved":false,"is_disabled":false,"rental_uris":{"android":"levelo://app?vid=67bb7dbe-50ea-4249-bc98-d0ad4814b4a6","ios":"levelo://app?vid=67bb7dbe-50ea-4249-bc98-d0ad4814b4a6"},"vehicle_type_id":"4","last_reported":1698980852,"current_range_meters":24400,"station_id":"","pricing_plan_id":"free"},{"bike_id":"ac64cfce-5505-455a-9537-62af5dd3a90a","system_id":"levelo_inurba_marseille","lat":43.32355,"lon":5.38416,"is_reserved":false,"is_disabled":false,"rental_uris":{"android":"levelo://app?vid=ac64cfce-5505-455a-9537-62af5dd3a90a","ios":"levelo://app?vid=ac64cfce-5505-455a-9537-62af5dd3a90a"},"vehicle_type_id":"4","last_reported":1698980852,"current_range_meters":26000,"station_id":"","pricing_plan_id":"free"},{"bike_id":"5a3e4389-a6dc-483b-abd6-709292f6e071","system_id":"levelo_inurba_marseille","lat":43.295858,"lon":5.367132,"is_reserved":false,"is_disabled":false,"rental_uris":{"android":"levelo://app?vid=5a3e4389-a6dc-483b-abd6-709292f6e071","ios":"levelo://app?vid=5a3e4389-a6dc-483b-abd6-709292f6e071"},"vehicle_type_id":"4","last_reported":1698980852,"current_range_meters":21200,"station_id":"ce4bgph2rcd13ifvqc2g","pricing_plan_id":"free"},{"bike_id":"770aa8b0-74e4-477c-8cc4-fd5d552902a6","system_id":"levelo_inurba_marseille","lat":43.321356,"lon":5.386887,"is_reserved":false,"is_disabled":false,"rental_uris":{"android":"levelo://app?vid=770aa8b0-74e4-477c-8cc4-fd5d552902a6","ios":"levelo://app?vid=770aa8b0-74e4-477c-8cc4-fd5d552902a6"},"vehicle_type_id":"4","last_reported":1698980852,"current_range_meters":11200,"station_id":"","pricing_plan_id":"free"},{"bike_id":"63233ee7-73f7-4fce-a898-a89656e60c34","system_id":"levelo_inurba_marseille","lat":43.29584,"lon":5.36779,"is_reserved":false,"is_disabled":false,"rental_uris":{"android":"levelo://app?vid=63233ee7-73f7-4fce-a898-a89656e60c34","ios":"levelo://app?vid=63233ee7-73f7-4fce-a898-a89656e60c34"},"vehicle_type_id":"4","last_reported":1698980852,"current_range_meters":28400,"station_id":"ce4bgph2rcd13ifvqc2g","pricing_plan_id":"free"},{"bike_id":"deee5cf3-2e08-4d15-b631-db692d7937ef","system_id":"levelo_inurba_marseille","lat":43.29636,"lon":5.36007,"is_reserved":false,"is_disabled":false,"rental_uris":{"android":"levelo://app?vid=deee5cf3-2e08-4d15-b631-db692d7937ef","ios":"levelo://app?vid=deee5cf3-2e08-4d15-b631-db692d7937ef"},"vehicle_type_id":"4","last_reported":1698980852,"current_range_meters":17200,"station_id":"","pricing_plan_id":"free"},{"bike_id":"cfa22e54-bc78-4676-b2a1-1a910cab0f47","system_id":"levelo_inurba_marseille","lat":43.309589,"lon":5.390258,"is_reserved":false,"is_disabled":false,"rental_uris":{"android":"levelo://app?vid=cfa22e54-bc78-4676-b2a1-1a910cab0f47","ios":"levelo://app?vid=cfa22e54-bc78-4676-b2a1-1a910cab0f47"},"vehicle_type_id":"4","last_reported":1698980852,"current_range_meters":31200,"station_id":"ce4bgup2rcd13ifvqco0","pricing_plan_id":"free"},{"bike_id":"efd49251-3155-4ae1-959b-3dbe1b8f8577","system_id":"levelo_inurba_marseille","lat":43.297594,"lon":5.378752,"is_reserved":false,"is_disabled":false,"rental_uris":{"android":"levelo://app?vid=efd49251-3155-4ae1-959b-3dbe1b8f8577","ios":"levelo://app?vid=efd49251-3155-4ae1-959b-3dbe1b8f8577"},"vehicle_type_id":"4","last_reported":1698980852,"current_range_meters":22400,"station_id":"","pricing_plan_id":"free"},{"bike_id":"28b6a7ea-ca5d-4fbb-b9b0-8fa1cfa20b97","system_id":"levelo_inurba_marseille","lat":43.309589,"lon":5.390258,"is_reserved":false,"is_disabled":false,"rental_uris":{"android":"levelo://app?vid=28b6a7ea-ca5d-4fbb-b9b0-8fa1cfa20b97","ios":"levelo://app?vid=28b6a7ea-ca5d-4fbb-b9b0-8fa1cfa20b97"},"vehicle_type_id":"4","last_reported":1698980852,"current_range_meters":28000,"station_id":"ce4bgup2rcd13ifvqco0","pricing_plan_id":"free"},{"bike_id":"8a447473-5840-4531-b994-00e821cba5c6","system_id":"levelo_inurba_marseille","lat":43.317557,"lon":5.390173,"is_reserved":false,"is_disabled":false,"rental_uris":{"android":"levelo://app?vid=8a447473-5840-4531-b994-00e821cba5c6","ios":"levelo://app?vid=8a447473-5840-4531-b994-00e821cba5c6"},"vehicle_type_id":"4","last_reported":1698980852,"current_range_meters":28400,"station_id":"ce4bhqp2rcd13ifvqhng","pricing_plan_id":"free"},{"bike_id":"b5ee86ca-a295-4673-a341-1ee674842925","system_id":"levelo_inurba_marseille","lat":43.296263,"lon":5.377094,"is_reserved":false,"is_disabled":false,"rental_uris":{"android":"levelo://app?vid=b5ee86ca-a295-4673-a341-1ee674842925","ios":"levelo://app?vid=b5ee86ca-a295-4673-a341-1ee674842925"},"vehicle_type_id":"4","last_reported":1698980852,"current_range_meters":31200,"station_id":"ce4bgi92rcd13ifvqb90","pricing_plan_id":"free"},{"bike_id":"b97e2d71-30f3-4351-8f3c-efb278566870","system_id":"levelo_inurba_marseille","lat":43.295748,"lon":5.37522,"is_reserved":false,"is_disabled":false,"rental_uris":{"android":"levelo://app?vid=b97e2d71-30f3-4351-8f3c-efb278566870","ios":"levelo://app?vid=b97e2d71-30f3-4351-8f3c-efb278566870"},"vehicle_type_id":"4","last_reported":1698980852,"current_range_meters":16800,"station_id":"ce4bgh92rcd13ifvqb50","pricing_plan_id":"free"},{"bike_id":"b2bbf724-fbfb-4c48-ae47-63c01674626c","system_id":"levelo_inurba_marseille","lat":43.298037,"lon":5.381066,"is_reserved":false,"is_disabled":false,"rental_uris":{"android":"levelo://app?vid=b2bbf724-fbfb-4c48-ae47-63c01674626c","ios":"levelo://app?vid=b2bbf724-fbfb-4c48-ae47-63c01674626c"},"vehicle_type_id":"4","last_reported":1698980852,"current_range_meters":27200,"station_id":"ce4bgip2rcd13ifvqbb0","pricing_plan_id":"free"},{"bike_id":"8dc71877-2627-4da3-92f0-fe8fe73b0426","system_id":"levelo_inurba_marseille","lat":43.296238,"lon":5.377179,"is_reserved":false,"is_disabled":false,"rental_uris":{"android":"levelo://app?vid=8dc71877-2627-4da3-92f0-fe8fe73b0426","ios":"levelo://app?vid=8dc71877-2627-4da3-92f0-fe8fe73b0426"},"vehicle_type_id":"4","last_reported":1698980852,"current_range_meters":21600,"station_id":"ce4bgh92rcd13ifvqb50","pricing_plan_id":"free"},{"bike_id":"b96c5bf2-e9d2-4f1f-87c9-b8231cf2b97d","system_id":"levelo_inurba_marseille","lat":43.295833,"lon":5.376997,"is_reserved":false,"is_disabled":false,"rental_uris":{"android":"levelo://app?vid=b96c5bf2-e9d2-4f1f-87c9-b8231cf2b97d","ios":"levelo://app?vid=b96c5bf2-e9d2-4f1f-87c9-b8231cf2b97d"},"vehicle_type_id":"4","last_reported":1698980852,"current_range_meters":28000,"station_id":"","pricing_plan_id":"free"},{"bike_id":"1f580447-7b2c-4630-9a51-33e28281b372","system_id":"levelo_inurba_marseille","lat":43.329065,"lon":5.379814,"is_reserved":false,"is_disabled":false,"rental_uris":{"android":"levelo://app?vid=1f580447-7b2c-4630-9a51-33e28281b372","ios":"levelo://app?vid=1f580447-7b2c-4630-9a51-33e28281b372"},"vehicle_type_id":"4","last_reported":1698980852,"current_range_meters":21200,"station_id":"","pricing_plan_id":"free"},{"bike_id":"2102ba41-8b8f-4565-b0c4-fd2f1f4c4e7f","system_id":"levelo_inurba_marseille","lat":43.323776,"lon":5.387932,"is_reserved":false,"is_disabled":false,"rental_uris":{"android":"levelo://app?vid=2102ba41-8b8f-4565-b0c4-fd2f1f4c4e7f","ios":"levelo://app?vid=2102ba41-8b8f-4565-b0c4-fd2f1f4c4e7f"},"vehicle_type_id":"4","last_reported":1698980852,"current_range_meters":19200,"station_id":"","pricing_plan_id":"free"},{"bike_id":"eab5d605-eaca-4660-a5fd-3fd2b2fdfd03","system_id":"levelo_inurba_marseille","lat":43.29476,"lon":5.37582,"is_reserved":false,"is_disabled":false,"rental_uris":{"android":"levelo://app?vid=eab5d605-eaca-4660-a5fd-3fd2b2fdfd03","ios":"levelo://app?vid=eab5d605-eaca-4660-a5fd-3fd2b2fdfd03"},"vehicle_type_id":"4","last_reported":1698980852,"current_range_meters":5200,"station_id":"","pricing_plan_id":"free"},{"bike_id":"64e7d080-06db-4acc-9e94-7963f4137736","system_id":"levelo_inurba_marseille","lat":43.32366,"lon":5.3888,"is_reserved":false,"is_disabled":false,"rental_uris":{"android":"levelo://app?vid=64e7d080-06db-4acc-9e94-7963f4137736","ios":"levelo://app?vid=64e7d080-06db-4acc-9e94-7963f4137736"},"vehicle_type_id":"4","last_reported":1698980852,"current_range_meters":23600,"station_id":"ce4bhqp2rcd13ifvqhog","pricing_plan_id":"free"},{"bike_id":"c7086e66-3732-4e81-855b-ee9cf1933671","system_id":"levelo_inurba_marseille","lat":43.32367,"lon":5.388836,"is_reserved":false,"is_disabled":false,"rental_uris":{"android":"levelo://app?vid=c7086e66-3732-4e81-855b-ee9cf1933671","ios":"levelo://app?vid=c7086e66-3732-4e81-855b-ee9cf1933671"},"vehicle_type_id":"4","last_reported":1698980852,"current_range_meters":22800,"station_id":"ce4bhqp2rcd13ifvqhog","pricing_plan_id":"free"},{"bike_id":"8ab6b5d9-e934-4b49-996f-86fdd1bf59f0","system_id":"levelo_inurba_marseille","lat":43.29602,"lon":5.381084,"is_reserved":false,"is_disabled":false,"rental_uris":{"android":"levelo://app?vid=8ab6b5d9-e934-4b49-996f-86fdd1bf59f0","ios":"levelo://app?vid=8ab6b5d9-e934-4b49-996f-86fdd1bf59f0"},"vehicle_type_id":"4","last_reported":1698980852,"current_range_meters":22000,"station_id":"ce4bgl12rcd13ifvqbo0","pricing_plan_id":"free"},{"bike_id":"8aaaa87a-55db-47f6-af0a-92a3ad63e8dc","system_id":"levelo_inurba_marseille","lat":43.305994,"lon":5.393687,"is_reserved":false,"is_disabled":false,"rental_uris":{"android":"levelo://app?vid=8aaaa87a-55db-47f6-af0a-92a3ad63e8dc","ios":"levelo://app?vid=8aaaa87a-55db-47f6-af0a-92a3ad63e8dc"},"vehicle_type_id":"4","last_reported":1698980852,"current_range_meters":27600,"station_id":"ce4bh0p2rcd13ifvqd80","pricing_plan_id":"free"},{"bike_id":"95b38f76-361d-45af-93a5-4380100f8206","system_id":"levelo_inurba_marseille","lat":43.305994,"lon":5.393687,"is_reserved":false,"is_disabled":false,"rental_uris":{"android":"levelo://app?vid=95b38f76-361d-45af-93a5-4380100f8206","ios":"levelo://app?vid=95b38f76-361d-45af-93a5-4380100f8206"},"vehicle_type_id":"4","last_reported":1698980852,"current_range_meters":31600,"station_id":"ce4bh0p2rcd13ifvqd80","pricing_plan_id":"free"},{"bike_id":"831a3170-3db7-4f68-91fd-e0067c45d77e","system_id":"levelo_inurba_marseille","lat":43.305994,"lon":5.393687,"is_reserved":false,"is_disabled":false,"rental_uris":{"android":"levelo://app?vid=831a3170-3db7-4f68-91fd-e0067c45d77e","ios":"levelo://app?vid=831a3170-3db7-4f68-91fd-e0067c45d77e"},"vehicle_type_id":"4","last_reported":1698980852,"current_range_meters":28400,"station_id":"ce4bh0p2rcd13ifvqd80","pricing_plan_id":"free"},{"bike_id":"bd0165f6-bd5a-487e-9cb8-dd4138bd82f0","system_id":"levelo_inurba_marseille","lat":43.305994,"lon":5.393687,"is_reserved":false,"is_disabled":false,"rental_uris":{"android":"levelo://app?vid=bd0165f6-bd5a-487e-9cb8-dd4138bd82f0","ios":"levelo://app?vid=bd0165f6-bd5a-487e-9cb8-dd4138bd82f0"},"vehicle_type_id":"4","last_reported":1698980852,"current_range_meters":23600,"station_id":"ce4bh0p2rcd13ifvqd80","pricing_plan_id":"free"},{"bike_id":"713b3820-7e87-4ec5-ba17-7343a917675c","system_id":"levelo_inurba_marseille","lat":43.305994,"lon":5.393687,"is_reserved":false,"is_disabled":false,"rental_uris":{"android":"levelo://app?vid=713b3820-7e87-4ec5-ba17-7343a917675c","ios":"levelo://app?vid=713b3820-7e87-4ec5-ba17-7343a917675c"},"vehicle_type_id":"4","last_reported":1698980852,"current_range_meters":28000,"station_id":"ce4bh0p2rcd13ifvqd80","pricing_plan_id":"free"},{"bike_id":"d486f1a0-f35e-423b-92e7-363a84639566","system_id":"levelo_inurba_marseille","lat":43.302992,"lon":5.392136,"is_reserved":false,"is_disabled":false,"rental_uris":{"android":"levelo://app?vid=d486f1a0-f35e-423b-92e7-363a84639566","ios":"levelo://app?vid=d486f1a0-f35e-423b-92e7-363a84639566"},"vehicle_type_id":"4","last_reported":1698980852,"current_range_meters":27600,"station_id":"ce4bgkh2rcd13ifvqbk0","pricing_plan_id":"free"},{"bike_id":"132c975e-8fd3-4c0a-b82b-0b705e3c3469","system_id":"levelo_inurba_marseille","lat":43.303002,"lon":5.392142,"is_reserved":false,"is_disabled":false,"rental_uris":{"android":"levelo://app?vid=132c975e-8fd3-4c0a-b82b-0b705e3c3469","ios":"levelo://app?vid=132c975e-8fd3-4c0a-b82b-0b705e3c3469"},"vehicle_type_id":"4","last_reported":1698980852,"current_range_meters":28400,"station_id":"ce4bgkh2rcd13ifvqbk0","pricing_plan_id":"free"},{"bike_id":"dadbd93e-ce14-4f01-bb2d-9e5d5705e888","system_id":"levelo_inurba_marseille","lat":43.303002,"lon":5.392142,"is_reserved":false,"is_disabled":false,"rental_uris":{"android":"levelo://app?vid=dadbd93e-ce14-4f01-bb2d-9e5d5705e888","ios":"levelo://app?vid=dadbd93e-ce14-4f01-bb2d-9e5d5705e888"},"vehicle_type_id":"4","last_reported":1698980852,"current_range_meters":31200,"station_id":"ce4bgkh2rcd13ifvqbk0","pricing_plan_id":"free"},{"bike_id":"ecd5fcfb-e675-41c4-803e-df009ca85e60","system_id":"levelo_inurba_marseille","lat":43.30981,"lon":5.395493,"is_reserved":false,"is_disabled":false,"rental_uris":{"android":"levelo://app?vid=ecd5fcfb-e675-41c4-803e-df009ca85e60","ios":"levelo://app?vid=ecd5fcfb-e675-41c4-803e-df009ca85e60"},"vehicle_type_id":"4","last_reported":1698980852,"current_range_meters":20400,"station_id":"","pricing_plan_id":"free"},{"bike_id":"1575422b-f99f-4525-ab00-681f712b3765","system_id":"levelo_inurba_marseille","lat":43.333047,"lon":5.359521,"is_reserved":false,"is_disabled":false,"rental_uris":{"android":"levelo://app?vid=1575422b-f99f-4525-ab00-681f712b3765","ios":"levelo://app?vid=1575422b-f99f-4525-ab00-681f712b3765"},"vehicle_type_id":"4","last_reported":1698980852,"current_range_meters":13600,"station_id":"","pricing_plan_id":"free"},{"bike_id":"b18cffb9-079e-4fed-b373-0c4bc0af15df","system_id":"levelo_inurba_marseille","lat":43.33004,"lon":5.38353,"is_reserved":false,"is_disabled":false,"rental_uris":{"android":"levelo://app?vid=b18cffb9-079e-4fed-b373-0c4bc0af15df","ios":"levelo://app?vid=b18cffb9-079e-4fed-b373-0c4bc0af15df"},"vehicle_type_id":"4","last_reported":1698980852,"current_range_meters":26000,"station_id":"","pricing_plan_id":"free"},{"bike_id":"d797f1e6-f3ca-4ad7-8b56-5ed6191da53c","system_id":"levelo_inurba_marseille","lat":43.29261,"lon":5.37612,"is_reserved":false,"is_disabled":false,"rental_uris":{"android":"levelo://app?vid=d797f1e6-f3ca-4ad7-8b56-5ed6191da53c","ios":"levelo://app?vid=d797f1e6-f3ca-4ad7-8b56-5ed6191da53c"},"vehicle_type_id":"4","last_reported":1698980852,"current_range_meters":31200,"station_id":"ce4bgi12rcd13ifvqb80","pricing_plan_id":"free"},{"bike_id":"0e8233d2-0d57-470f-8c07-e9f753046a4f","system_id":"levelo_inurba_marseille","lat":43.33217,"lon":5.3788,"is_reserved":false,"is_disabled":false,"rental_uris":{"android":"levelo://app?vid=0e8233d2-0d57-470f-8c07-e9f753046a4f","ios":"levelo://app?vid=0e8233d2-0d57-470f-8c07-e9f753046a4f"},"vehicle_type_id":"4","last_reported":1698980852,"current_range_meters":18400,"station_id":"","pricing_plan_id":"free"},{"bike_id":"64f78c9c-bb2e-4a90-8c4e-46a8f1c8317a","system_id":"levelo_inurba_marseille","lat":43.298764,"lon":5.388973,"is_reserved":false,"is_disabled":false,"rental_uris":{"android":"levelo://app?vid=64f78c9c-bb2e-4a90-8c4e-46a8f1c8317a","ios":"levelo://app?vid=64f78c9c-bb2e-4a90-8c4e-46a8f1c8317a"},"vehicle_type_id":"4","last_reported":1698980852,"current_range_meters":28400,"station_id":"ce4bh392rcd13ifvqdl0","pricing_plan_id":"free"},{"bike_id":"ba021b3f-58a5-4a68-ae7b-3b2b4a98f670","system_id":"levelo_inurba_marseille","lat":43.298764,"lon":5.388973,"is_reserved":false,"is_disabled":false,"rental_uris":{"android":"levelo://app?vid=ba021b3f-58a5-4a68-ae7b-3b2b4a98f670","ios":"levelo://app?vid=ba021b3f-58a5-4a68-ae7b-3b2b4a98f670"},"vehicle_type_id":"4","last_reported":1698980852,"current_range_meters":8800,"station_id":"ce4bh392rcd13ifvqdl0","pricing_plan_id":"free"},{"bike_id":"be3599a8-b6f9-4c15-ab26-ddb4770a105d","system_id":"levelo_inurba_marseille","lat":43.298764,"lon":5.388973,"is_reserved":false,"is_disabled":false,"rental_uris":{"android":"levelo://app?vid=be3599a8-b6f9-4c15-ab26-ddb4770a105d","ios":"levelo://app?vid=be3599a8-b6f9-4c15-ab26-ddb4770a105d"},"vehicle_type_id":"4","last_reported":1698980852,"current_range_meters":31200,"station_id":"ce4bh392rcd13ifvqdl0","pricing_plan_id":"free"},{"bike_id":"fdf9a026-3a69-4c41-af50-48d8d660b5a8","system_id":"levelo_inurba_marseille","lat":43.308834,"lon":5.396329,"is_reserved":false,"is_disabled":false,"rental_uris":{"android":"levelo://app?vid=fdf9a026-3a69-4c41-af50-48d8d660b5a8","ios":"levelo://app?vid=fdf9a026-3a69-4c41-af50-48d8d660b5a8"},"vehicle_type_id":"4","last_reported":1698980852,"current_range_meters":15600,"station_id":"ce4bh012rcd13ifvqcv0","pricing_plan_id":"free"},{"bike_id":"d9d85118-5dfd-4319-af56-4cb08885fbb2","system_id":"levelo_inurba_marseille","lat":43.29196,"lon":5.358018,"is_reserved":false,"is_disabled":false,"rental_uris":{"android":"levelo://app?vid=d9d85118-5dfd-4319-af56-4cb08885fbb2","ios":"levelo://app?vid=d9d85118-5dfd-4319-af56-4cb08885fbb2"},"vehicle_type_id":"4","last_reported":1698980852,"current_range_meters":22000,"station_id":"ce4bhb12rcd13ifvqel0","pricing_plan_id":"free"},{"bike_id":"251860cf-f809-4fd3-9230-9d3a8c4d8d60","system_id":"levelo_inurba_marseille","lat":43.309038,"lon":5.396546,"is_reserved":false,"is_disabled":false,"rental_uris":{"android":"levelo://app?vid=251860cf-f809-4fd3-9230-9d3a8c4d8d60","ios":"levelo://app?vid=251860cf-f809-4fd3-9230-9d3a8c4d8d60"},"vehicle_type_id":"4","last_reported":1698980852,"current_range_meters":31200,"station_id":"ce4bh012rcd13ifvqcv0","pricing_plan_id":"free"},{"bike_id":"efc6d702-5c8a-4fe3-96a5-327e8dd1c273","system_id":"levelo_inurba_marseille","lat":43.29197,"lon":5.35797,"is_reserved":false,"is_disabled":false,"rental_uris":{"android":"levelo://app?vid=efc6d702-5c8a-4fe3-96a5-327e8dd1c273","ios":"levelo://app?vid=efc6d702-5c8a-4fe3-96a5-327e8dd1c273"},"vehicle_type_id":"4","last_reported":1698980852,"current_range_meters":20400,"station_id":"ce4bhb12rcd13ifvqel0","pricing_plan_id":"free"},{"bike_id":"4ebe5b28-81f4-4c41-86f0-931bf8695285","system_id":"levelo_inurba_marseille","lat":43.291939,"lon":5.358043,"is_reserved":false,"is_disabled":false,"rental_uris":{"android":"levelo://app?vid=4ebe5b28-81f4-4c41-86f0-931bf8695285","ios":"levelo://app?vid=4ebe5b28-81f4-4c41-86f0-931bf8695285"},"vehicle_type_id":"4","last_reported":1698980852,"current_range_meters":25600,"station_id":"ce4bhb12rcd13ifvqel0","pricing_plan_id":"free"},{"bike_id":"8fb04462-35d3-41fa-ada7-4ec624a408bf","system_id":"levelo_inurba_marseille","lat":43.308816,"lon":5.396382,"is_reserved":false,"is_disabled":false,"rental_uris":{"android":"levelo://app?vid=8fb04462-35d3-41fa-ada7-4ec624a408bf","ios":"levelo://app?vid=8fb04462-35d3-41fa-ada7-4ec624a408bf"},"vehicle_type_id":"4","last_reported":1698980852,"current_range_meters":30000,"station_id":"ce4bh012rcd13ifvqcv0","pricing_plan_id":"free"},{"bike_id":"75cc4f50-74fc-43b5-ba7c-5837b23f9666","system_id":"levelo_inurba_marseille","lat":43.291927,"lon":5.358026,"is_reserved":false,"is_disabled":false,"rental_uris":{"android":"levelo://app?vid=75cc4f50-74fc-43b5-ba7c-5837b23f9666","ios":"levelo://app?vid=75cc4f50-74fc-43b5-ba7c-5837b23f9666"},"vehicle_type_id":"4","last_reported":1698980852,"current_range_meters":0,"station_id":"ce4bhb12rcd13ifvqel0","pricing_plan_id":"free"},{"bike_id":"3363b430-87b4-43a5-a8e2-2cae2774cf8d","system_id":"levelo_inurba_marseille","lat":43.31327,"lon":5.39688,"is_reserved":false,"is_disabled":false,"rental_uris":{"android":"levelo://app?vid=3363b430-87b4-43a5-a8e2-2cae2774cf8d","ios":"levelo://app?vid=3363b430-87b4-43a5-a8e2-2cae2774cf8d"},"vehicle_type_id":"4","last_reported":1698980852,"current_range_meters":22400,"station_id":"ce4bgvp2rcd13ifvqcu0","pricing_plan_id":"free"},{"bike_id":"c33a917d-b9be-4e0e-82a0-378e95ed0689","system_id":"levelo_inurba_marseille","lat":43.309047,"lon":5.396551,"is_reserved":false,"is_disabled":false,"rental_uris":{"android":"levelo://app?vid=c33a917d-b9be-4e0e-82a0-378e95ed0689","ios":"levelo://app?vid=c33a917d-b9be-4e0e-82a0-378e95ed0689"},"vehicle_type_id":"4","last_reported":1698980852,"current_range_meters":31200,"station_id":"ce4bh012rcd13ifvqcv0","pricing_plan_id":"free"},{"bike_id":"2c345191-f690-44d5-8f42-c739f38903db","system_id":"levelo_inurba_marseille","lat":43.308878,"lon":5.396423,"is_reserved":false,"is_disabled":false,"rental_uris":{"android":"levelo://app?vid=2c345191-f690-44d5-8f42-c739f38903db","ios":"levelo://app?vid=2c345191-f690-44d5-8f42-c739f38903db"},"vehicle_type_id":"4","last_reported":1698980852,"current_range_meters":31200,"station_id":"ce4bh012rcd13ifvqcv0","pricing_plan_id":"free"},{"bike_id":"056c289b-568c-4e1a-a1c0-798ad83b06df","system_id":"levelo_inurba_marseille","lat":43.291903,"lon":5.358036,"is_reserved":false,"is_disabled":false,"rental_uris":{"android":"levelo://app?vid=056c289b-568c-4e1a-a1c0-798ad83b06df","ios":"levelo://app?vid=056c289b-568c-4e1a-a1c0-798ad83b06df"},"vehicle_type_id":"4","last_reported":1698980852,"current_range_meters":400,"station_id":"ce4bhb12rcd13ifvqel0","pricing_plan_id":"free"},{"bike_id":"302104fc-8591-468e-a193-1db72452e4ef","system_id":"levelo_inurba_marseille","lat":43.30882,"lon":5.39643,"is_reserved":false,"is_disabled":false,"rental_uris":{"android":"levelo://app?vid=302104fc-8591-468e-a193-1db72452e4ef","ios":"levelo://app?vid=302104fc-8591-468e-a193-1db72452e4ef"},"vehicle_type_id":"4","last_reported":1698980852,"current_range_meters":16400,"station_id":"ce4bh012rcd13ifvqcv0","pricing_plan_id":"free"},{"bike_id":"4473111d-ea0d-4903-b065-1a18c5d2cc0c","system_id":"levelo_inurba_marseille","lat":43.31328,"lon":5.39691,"is_reserved":false,"is_disabled":false,"rental_uris":{"android":"levelo://app?vid=4473111d-ea0d-4903-b065-1a18c5d2cc0c","ios":"levelo://app?vid=4473111d-ea0d-4903-b065-1a18c5d2cc0c"},"vehicle_type_id":"4","last_reported":1698980852,"current_range_meters":14800,"station_id":"ce4bgvp2rcd13ifvqcu0","pricing_plan_id":"free"},{"bike_id":"a375c61d-711c-4026-b9fe-21435989dbed","system_id":"levelo_inurba_marseille","lat":43.30878,"lon":5.39644,"is_reserved":false,"is_disabled":false,"rental_uris":{"android":"levelo://app?vid=a375c61d-711c-4026-b9fe-21435989dbed","ios":"levelo://app?vid=a375c61d-711c-4026-b9fe-21435989dbed"},"vehicle_type_id":"4","last_reported":1698980852,"current_range_meters":31200,"station_id":"ce4bh012rcd13ifvqcv0","pricing_plan_id":"free"},{"bike_id":"aa7c4e0e-3554-40ca-84f7-7f020841fa5a","system_id":"levelo_inurba_marseille","lat":43.308882,"lon":5.396466,"is_reserved":false,"is_disabled":false,"rental_uris":{"android":"levelo://app?vid=aa7c4e0e-3554-40ca-84f7-7f020841fa5a","ios":"levelo://app?vid=aa7c4e0e-3554-40ca-84f7-7f020841fa5a"},"vehicle_type_id":"4","last_reported":1698980852,"current_range_meters":25200,"station_id":"ce4bh012rcd13ifvqcv0","pricing_plan_id":"free"},{"bike_id":"a406e8b6-d40d-4fbd-8b24-050e8fe5a5b2","system_id":"levelo_inurba_marseille","lat":43.30869,"lon":5.39642,"is_reserved":false,"is_disabled":false,"rental_uris":{"android":"levelo://app?vid=a406e8b6-d40d-4fbd-8b24-050e8fe5a5b2","ios":"levelo://app?vid=a406e8b6-d40d-4fbd-8b24-050e8fe5a5b2"},"vehicle_type_id":"4","last_reported":1698980852,"current_range_meters":29200,"station_id":"ce4bh012rcd13ifvqcv0","pricing_plan_id":"free"},{"bike_id":"0528e42f-ee88-4d66-883b-f84437ce697f","system_id":"levelo_inurba_marseille","lat":43.29189,"lon":5.357989,"is_reserved":false,"is_disabled":false,"rental_uris":{"android":"levelo://app?vid=0528e42f-ee88-4d66-883b-f84437ce697f","ios":"levelo://app?vid=0528e42f-ee88-4d66-883b-f84437ce697f"},"vehicle_type_id":"4","last_reported":1698980852,"current_range_meters":30800,"station_id":"ce4bhb12rcd13ifvqel0","pricing_plan_id":"free"},{"bike_id":"875afc8e-8913-4213-b413-dcc50442fbe1","system_id":"levelo_inurba_marseille","lat":43.308798,"lon":5.396457,"is_reserved":false,"is_disabled":false,"rental_uris":{"android":"levelo://app?vid=875afc8e-8913-4213-b413-dcc50442fbe1","ios":"levelo://app?vid=875afc8e-8913-4213-b413-dcc50442fbe1"},"vehicle_type_id":"4","last_reported":1698980852,"current_range_meters":21200,"station_id":"ce4bh012rcd13ifvqcv0","pricing_plan_id":"free"},{"bike_id":"0ff8390f-2d21-428b-91b9-6f2b0f478a3f","system_id":"levelo_inurba_marseille","lat":43.31324,"lon":5.39695,"is_reserved":false,"is_disabled":false,"rental_uris":{"android":"levelo://app?vid=0ff8390f-2d21-428b-91b9-6f2b0f478a3f","ios":"levelo://app?vid=0ff8390f-2d21-428b-91b9-6f2b0f478a3f"},"vehicle_type_id":"4","last_reported":1698980852,"current_range_meters":24400,"station_id":"ce4bgvp2rcd13ifvqcu0","pricing_plan_id":"free"},{"bike_id":"c61aa185-84d6-494d-ba2f-0b7af8b4d099","system_id":"levelo_inurba_marseille","lat":43.308854,"lon":5.396479,"is_reserved":false,"is_disabled":false,"rental_uris":{"android":"levelo://app?vid=c61aa185-84d6-494d-ba2f-0b7af8b4d099","ios":"levelo://app?vid=c61aa185-84d6-494d-ba2f-0b7af8b4d099"},"vehicle_type_id":"4","last_reported":1698980852,"current_range_meters":31200,"station_id":"ce4bh012rcd13ifvqcv0","pricing_plan_id":"free"},{"bike_id":"0fecf4a8-be6f-47d9-a869-e266631b3d66","system_id":"levelo_inurba_marseille","lat":43.31326,"lon":5.39696,"is_reserved":false,"is_disabled":false,"rental_uris":{"android":"levelo://app?vid=0fecf4a8-be6f-47d9-a869-e266631b3d66","ios":"levelo://app?vid=0fecf4a8-be6f-47d9-a869-e266631b3d66"},"vehicle_type_id":"4","last_reported":1698980852,"current_range_meters":9600,"station_id":"ce4bgvp2rcd13ifvqcu0","pricing_plan_id":"free"},{"bike_id":"3130bb17-74ad-40ec-af68-badb61237991","system_id":"levelo_inurba_marseille","lat":43.31331,"lon":5.39696,"is_reserved":false,"is_disabled":false,"rental_uris":{"android":"levelo://app?vid=3130bb17-74ad-40ec-af68-badb61237991","ios":"levelo://app?vid=3130bb17-74ad-40ec-af68-badb61237991"},"vehicle_type_id":"4","last_reported":1698980852,"current_range_meters":10800,"station_id":"ce4bgvp2rcd13ifvqcu0","pricing_plan_id":"free"},{"bike_id":"b4e439e0-3012-4667-8eaf-05e43550e95c","system_id":"levelo_inurba_marseille","lat":43.313291,"lon":5.396838,"is_reserved":false,"is_disabled":false,"rental_uris":{"android":"levelo://app?vid=b4e439e0-3012-4667-8eaf-05e43550e95c","ios":"levelo://app?vid=b4e439e0-3012-4667-8eaf-05e43550e95c"},"vehicle_type_id":"4","last_reported":1698980852,"current_range_meters":8400,"station_id":"ce4bgvp2rcd13ifvqcu0","pricing_plan_id":"free"},{"bike_id":"8bcdf9ed-4784-4dd3-a7ab-496876f9d232","system_id":"levelo_inurba_marseille","lat":43.313291,"lon":5.396838,"is_reserved":false,"is_disabled":false,"rental_uris":{"android":"levelo://app?vid=8bcdf9ed-4784-4dd3-a7ab-496876f9d232","ios":"levelo://app?vid=8bcdf9ed-4784-4dd3-a7ab-496876f9d232"},"vehicle_type_id":"4","last_reported":1698980852,"current_range_meters":30400,"station_id":"ce4bgvp2rcd13ifvqcu0","pricing_plan_id":"free"},{"bike_id":"286ca56e-647d-4422-bf48-237f0b39998c","system_id":"levelo_inurba_marseille","lat":43.309047,"lon":5.396551,"is_reserved":false,"is_disabled":false,"rental_uris":{"android":"levelo://app?vid=286ca56e-647d-4422-bf48-237f0b39998c","ios":"levelo://app?vid=286ca56e-647d-4422-bf48-237f0b39998c"},"vehicle_type_id":"4","last_reported":1698980852,"current_range_meters":31600,"station_id":"ce4bh012rcd13ifvqcv0","pricing_plan_id":"free"},{"bike_id":"92152461-8d9e-422c-b36c-fb0377aa94dd","system_id":"levelo_inurba_marseille","lat":43.313291,"lon":5.396838,"is_reserved":false,"is_disabled":false,"rental_uris":{"android":"levelo://app?vid=92152461-8d9e-422c-b36c-fb0377aa94dd","ios":"levelo://app?vid=92152461-8d9e-422c-b36c-fb0377aa94dd"},"vehicle_type_id":"4","last_reported":1698980852,"current_range_meters":28000,"station_id":"ce4bgvp2rcd13ifvqcu0","pricing_plan_id":"free"},{"bike_id":"e9a66fdf-5fb7-4bda-8922-b3c2e99c2694","system_id":"levelo_inurba_marseille","lat":43.309047,"lon":5.396551,"is_reserved":false,"is_disabled":false,"rental_uris":{"android":"levelo://app?vid=e9a66fdf-5fb7-4bda-8922-b3c2e99c2694","ios":"levelo://app?vid=e9a66fdf-5fb7-4bda-8922-b3c2e99c2694"},"vehicle_type_id":"4","last_reported":1698980852,"current_range_meters":26000,"station_id":"ce4bh012rcd13ifvqcv0","pricing_plan_id":"free"},{"bike_id":"7516ec1c-a08b-4c6e-9ba6-5ca4580c8da3","system_id":"levelo_inurba_marseille","lat":43.31332,"lon":5.39699,"is_reserved":false,"is_disabled":false,"rental_uris":{"android":"levelo://app?vid=7516ec1c-a08b-4c6e-9ba6-5ca4580c8da3","ios":"levelo://app?vid=7516ec1c-a08b-4c6e-9ba6-5ca4580c8da3"},"vehicle_type_id":"4","last_reported":1698980852,"current_range_meters":18000,"station_id":"ce4bgvp2rcd13ifvqcu0","pricing_plan_id":"free"},{"bike_id":"6ddc6725-6828-4bb8-bdb4-900792d55fa7","system_id":"levelo_inurba_marseille","lat":43.309047,"lon":5.396551,"is_reserved":false,"is_disabled":false,"rental_uris":{"android":"levelo://app?vid=6ddc6725-6828-4bb8-bdb4-900792d55fa7","ios":"levelo://app?vid=6ddc6725-6828-4bb8-bdb4-900792d55fa7"},"vehicle_type_id":"4","last_reported":1698980852,"current_range_meters":22400,"station_id":"ce4bh012rcd13ifvqcv0","pricing_plan_id":"free"},{"bike_id":"141fe2a8-9661-43b1-9025-8127edefce9e","system_id":"levelo_inurba_marseille","lat":43.313268,"lon":5.397012,"is_reserved":false,"is_disabled":false,"rental_uris":{"android":"levelo://app?vid=141fe2a8-9661-43b1-9025-8127edefce9e","ios":"levelo://app?vid=141fe2a8-9661-43b1-9025-8127edefce9e"},"vehicle_type_id":"4","last_reported":1698980852,"current_range_meters":31200,"station_id":"ce4bgvp2rcd13ifvqcu0","pricing_plan_id":"free"},{"bike_id":"0b91b079-af67-4d28-b391-17ea4c84c27a","system_id":"levelo_inurba_marseille","lat":43.309038,"lon":5.396546,"is_reserved":false,"is_disabled":false,"rental_uris":{"android":"levelo://app?vid=0b91b079-af67-4d28-b391-17ea4c84c27a","ios":"levelo://app?vid=0b91b079-af67-4d28-b391-17ea4c84c27a"},"vehicle_type_id":"4","last_reported":1698980852,"current_range_meters":31200,"station_id":"ce4bh012rcd13ifvqcv0","pricing_plan_id":"free"},{"bike_id":"bbf7055f-28c6-4c1e-bea3-7ccdef632fa7","system_id":"levelo_inurba_marseille","lat":43.29162,"lon":5.35784,"is_reserved":false,"is_disabled":false,"rental_uris":{"android":"levelo://app?vid=bbf7055f-28c6-4c1e-bea3-7ccdef632fa7","ios":"levelo://app?vid=bbf7055f-28c6-4c1e-bea3-7ccdef632fa7"},"vehicle_type_id":"4","last_reported":1698980852,"current_range_meters":23200,"station_id":"ce4bhb12rcd13ifvqel0","pricing_plan_id":"free"},{"bike_id":"4735725b-0650-45aa-8fac-76737444a880","system_id":"levelo_inurba_marseille","lat":43.302008,"lon":5.394694,"is_reserved":false,"is_disabled":false,"rental_uris":{"android":"levelo://app?vid=4735725b-0650-45aa-8fac-76737444a880","ios":"levelo://app?vid=4735725b-0650-45aa-8fac-76737444a880"},"vehicle_type_id":"4","last_reported":1698980852,"current_range_meters":31200,"station_id":"ce4bh0p2rcd13ifvqd70","pricing_plan_id":"free"},{"bike_id":"a0c7ec8b-88c9-4cb2-883a-94dcfeef900e","system_id":"levelo_inurba_marseille","lat":43.302008,"lon":5.394694,"is_reserved":false,"is_disabled":false,"rental_uris":{"android":"levelo://app?vid=a0c7ec8b-88c9-4cb2-883a-94dcfeef900e","ios":"levelo://app?vid=a0c7ec8b-88c9-4cb2-883a-94dcfeef900e"},"vehicle_type_id":"4","last_reported":1698980852,"current_range_meters":30800,"station_id":"ce4bh0p2rcd13ifvqd70","pricing_plan_id":"free"},{"bike_id":"5d4ac381-49df-4c6d-9d64-764b77514c24","system_id":"levelo_inurba_marseille","lat":43.302008,"lon":5.394694,"is_reserved":false,"is_disabled":false,"rental_uris":{"android":"levelo://app?vid=5d4ac381-49df-4c6d-9d64-764b77514c24","ios":"levelo://app?vid=5d4ac381-49df-4c6d-9d64-764b77514c24"},"vehicle_type_id":"4","last_reported":1698980852,"current_range_meters":20400,"station_id":"ce4bh0p2rcd13ifvqd70","pricing_plan_id":"free"},{"bike_id":"2248b992-5297-4afa-a017-792a1ba2121d","system_id":"levelo_inurba_marseille","lat":43.302008,"lon":5.394694,"is_reserved":false,"is_disabled":false,"rental_uris":{"android":"levelo://app?vid=2248b992-5297-4afa-a017-792a1ba2121d","ios":"levelo://app?vid=2248b992-5297-4afa-a017-792a1ba2121d"},"vehicle_type_id":"4","last_reported":1698980852,"current_range_meters":29200,"station_id":"ce4bh0p2rcd13ifvqd70","pricing_plan_id":"free"},{"bike_id":"dd5a96da-297a-4ba8-b44b-9d56c2c37c62","system_id":"levelo_inurba_marseille","lat":43.290624,"lon":5.359245,"is_reserved":false,"is_disabled":false,"rental_uris":{"android":"levelo://app?vid=dd5a96da-297a-4ba8-b44b-9d56c2c37c62","ios":"levelo://app?vid=dd5a96da-297a-4ba8-b44b-9d56c2c37c62"},"vehicle_type_id":"4","last_reported":1698980852,"current_range_meters":31200,"station_id":"ce4bha92rcd13ifvqeg0","pricing_plan_id":"free"},{"bike_id":"faee6291-135b-407a-a838-f70e4982866e","system_id":"levelo_inurba_marseille","lat":43.290624,"lon":5.359245,"is_reserved":false,"is_disabled":false,"rental_uris":{"android":"levelo://app?vid=faee6291-135b-407a-a838-f70e4982866e","ios":"levelo://app?vid=faee6291-135b-407a-a838-f70e4982866e"},"vehicle_type_id":"4","last_reported":1698980852,"current_range_meters":29600,"station_id":"ce4bha92rcd13ifvqeg0","pricing_plan_id":"free"},{"bike_id":"7a408370-b460-48ed-80d6-fd1c943b5979","system_id":"levelo_inurba_marseille","lat":43.290624,"lon":5.359245,"is_reserved":false,"is_disabled":false,"rental_uris":{"android":"levelo://app?vid=7a408370-b460-48ed-80d6-fd1c943b5979","ios":"levelo://app?vid=7a408370-b460-48ed-80d6-fd1c943b5979"},"vehicle_type_id":"4","last_reported":1698980852,"current_range_meters":26400,"station_id":"ce4bha92rcd13ifvqeg0","pricing_plan_id":"free"},{"bike_id":"6b2fc0bb-b430-476a-bb45-eee8ff7ebd28","system_id":"levelo_inurba_marseille","lat":43.290631,"lon":5.359244,"is_reserved":false,"is_disabled":false,"rental_uris":{"android":"levelo://app?vid=6b2fc0bb-b430-476a-bb45-eee8ff7ebd28","ios":"levelo://app?vid=6b2fc0bb-b430-476a-bb45-eee8ff7ebd28"},"vehicle_type_id":"4","last_reported":1698980852,"current_range_meters":30400,"station_id":"ce4bha92rcd13ifvqeg0","pricing_plan_id":"free"},{"bike_id":"6f87e969-f8ce-4ee6-ae42-797d6440dafd","system_id":"levelo_inurba_marseille","lat":43.327591,"lon":5.391132,"is_reserved":false,"is_disabled":false,"rental_uris":{"android":"levelo://app?vid=6f87e969-f8ce-4ee6-ae42-797d6440dafd","ios":"levelo://app?vid=6f87e969-f8ce-4ee6-ae42-797d6440dafd"},"vehicle_type_id":"4","last_reported":1698980852,"current_range_meters":23600,"station_id":"","pricing_plan_id":"free"},{"bike_id":"f36f131d-1318-4065-8d01-604e85611445","system_id":"levelo_inurba_marseille","lat":43.290624,"lon":5.359245,"is_reserved":false,"is_disabled":false,"rental_uris":{"android":"levelo://app?vid=f36f131d-1318-4065-8d01-604e85611445","ios":"levelo://app?vid=f36f131d-1318-4065-8d01-604e85611445"},"vehicle_type_id":"4","last_reported":1698980852,"current_range_meters":31200,"station_id":"ce4bha92rcd13ifvqeg0","pricing_plan_id":"free"},{"bike_id":"d8601a54-9491-429c-a28c-65e2180f12bb","system_id":"levelo_inurba_marseille","lat":43.290631,"lon":5.359244,"is_reserved":false,"is_disabled":false,"rental_uris":{"android":"levelo://app?vid=d8601a54-9491-429c-a28c-65e2180f12bb","ios":"levelo://app?vid=d8601a54-9491-429c-a28c-65e2180f12bb"},"vehicle_type_id":"4","last_reported":1698980852,"current_range_meters":31200,"station_id":"ce4bha92rcd13ifvqeg0","pricing_plan_id":"free"},{"bike_id":"03c5ab11-f976-4ae9-bc5d-6787fdd4eb90","system_id":"levelo_inurba_marseille","lat":43.290624,"lon":5.359245,"is_reserved":false,"is_disabled":false,"rental_uris":{"android":"levelo://app?vid=03c5ab11-f976-4ae9-bc5d-6787fdd4eb90","ios":"levelo://app?vid=03c5ab11-f976-4ae9-bc5d-6787fdd4eb90"},"vehicle_type_id":"4","last_reported":1698980852,"current_range_meters":22800,"station_id":"ce4bha92rcd13ifvqeg0","pricing_plan_id":"free"},{"bike_id":"798871d4-524b-4ff6-aa07-8c5dac4c9b57","system_id":"levelo_inurba_marseille","lat":43.290631,"lon":5.359244,"is_reserved":false,"is_disabled":false,"rental_uris":{"android":"levelo://app?vid=798871d4-524b-4ff6-aa07-8c5dac4c9b57","ios":"levelo://app?vid=798871d4-524b-4ff6-aa07-8c5dac4c9b57"},"vehicle_type_id":"4","last_reported":1698980852,"current_range_meters":30800,"station_id":"ce4bha92rcd13ifvqeg0","pricing_plan_id":"free"},{"bike_id":"9693c673-a118-4369-b628-4b205d6a42e7","system_id":"levelo_inurba_marseille","lat":43.289383,"lon":5.366263,"is_reserved":false,"is_disabled":false,"rental_uris":{"android":"levelo://app?vid=9693c673-a118-4369-b628-4b205d6a42e7","ios":"levelo://app?vid=9693c673-a118-4369-b628-4b205d6a42e7"},"vehicle_type_id":"4","last_reported":1698980852,"current_range_meters":30000,"station_id":"ce4bhap2rcd13ifvqek0","pricing_plan_id":"free"},{"bike_id":"6b14f6a4-8e2f-4c23-932c-498998e2dcee","system_id":"levelo_inurba_marseille","lat":43.289375,"lon":5.366305,"is_reserved":false,"is_disabled":false,"rental_uris":{"android":"levelo://app?vid=6b14f6a4-8e2f-4c23-932c-498998e2dcee","ios":"levelo://app?vid=6b14f6a4-8e2f-4c23-932c-498998e2dcee"},"vehicle_type_id":"4","last_reported":1698980852,"current_range_meters":31200,"station_id":"ce4bhap2rcd13ifvqek0","pricing_plan_id":"free"},{"bike_id":"edb3e902-21bc-42ee-b5cf-83cffbe43b27","system_id":"levelo_inurba_marseille","lat":43.289184,"lon":5.366408,"is_reserved":false,"is_disabled":false,"rental_uris":{"android":"levelo://app?vid=edb3e902-21bc-42ee-b5cf-83cffbe43b27","ios":"levelo://app?vid=edb3e902-21bc-42ee-b5cf-83cffbe43b27"},"vehicle_type_id":"4","last_reported":1698980852,"current_range_meters":30000,"station_id":"ce4bhap2rcd13ifvqek0","pricing_plan_id":"free"},{"bike_id":"d28620f1-993a-4ad6-94e5-e6de3969e6ae","system_id":"levelo_inurba_marseille","lat":43.289184,"lon":5.366408,"is_reserved":false,"is_disabled":false,"rental_uris":{"android":"levelo://app?vid=d28620f1-993a-4ad6-94e5-e6de3969e6ae","ios":"levelo://app?vid=d28620f1-993a-4ad6-94e5-e6de3969e6ae"},"vehicle_type_id":"4","last_reported":1698980852,"current_range_meters":31200,"station_id":"ce4bhap2rcd13ifvqek0","pricing_plan_id":"free"},{"bike_id":"7c3d7cdc-3e84-4217-a110-f4169626ccc8","system_id":"levelo_inurba_marseille","lat":43.289468,"lon":5.363719,"is_reserved":false,"is_disabled":false,"rental_uris":{"android":"levelo://app?vid=7c3d7cdc-3e84-4217-a110-f4169626ccc8","ios":"levelo://app?vid=7c3d7cdc-3e84-4217-a110-f4169626ccc8"},"vehicle_type_id":"4","last_reported":1698980852,"current_range_meters":400,"station_id":"ce4bhc92rcd13ifvqetg","pricing_plan_id":"free"},{"bike_id":"f79c808a-640f-4d6b-8c5c-b214106daf4d","system_id":"levelo_inurba_marseille","lat":43.289468,"lon":5.363719,"is_reserved":false,"is_disabled":false,"rental_uris":{"android":"levelo://app?vid=f79c808a-640f-4d6b-8c5c-b214106daf4d","ios":"levelo://app?vid=f79c808a-640f-4d6b-8c5c-b214106daf4d"},"vehicle_type_id":"4","last_reported":1698980852,"current_range_meters":31200,"station_id":"ce4bhc92rcd13ifvqetg","pricing_plan_id":"free"},{"bike_id":"cb9002d2-bbcf-410c-904e-f58955267a4b","system_id":"levelo_inurba_marseille","lat":43.290104,"lon":5.356111,"is_reserved":false,"is_disabled":false,"rental_uris":{"android":"levelo://app?vid=cb9002d2-bbcf-410c-904e-f58955267a4b","ios":"levelo://app?vid=cb9002d2-bbcf-410c-904e-f58955267a4b"},"vehicle_type_id":"4","last_reported":1698980852,"current_range_meters":24000,"station_id":"ce4bhb92rcd13ifvqen0","pricing_plan_id":"free"},{"bike_id":"c9441294-1088-4db6-a2c6-46ea92dca345","system_id":"levelo_inurba_marseille","lat":43.290104,"lon":5.356111,"is_reserved":false,"is_disabled":false,"rental_uris":{"android":"levelo://app?vid=c9441294-1088-4db6-a2c6-46ea92dca345","ios":"levelo://app?vid=c9441294-1088-4db6-a2c6-46ea92dca345"},"vehicle_type_id":"4","last_reported":1698980852,"current_range_meters":30000,"station_id":"ce4bhb92rcd13ifvqen0","pricing_plan_id":"free"},{"bike_id":"62290be8-2b42-4cd9-83c4-f69245bb676c","system_id":"levelo_inurba_marseille","lat":43.290104,"lon":5.356111,"is_reserved":false,"is_disabled":false,"rental_uris":{"android":"levelo://app?vid=62290be8-2b42-4cd9-83c4-f69245bb676c","ios":"levelo://app?vid=62290be8-2b42-4cd9-83c4-f69245bb676c"},"vehicle_type_id":"4","last_reported":1698980852,"current_range_meters":30800,"station_id":"ce4bhb92rcd13ifvqen0","pricing_plan_id":"free"},{"bike_id":"4fb445ea-edeb-413e-a3d7-d74182d96d6c","system_id":"levelo_inurba_marseille","lat":43.290104,"lon":5.356111,"is_reserved":false,"is_disabled":false,"rental_uris":{"android":"levelo://app?vid=4fb445ea-edeb-413e-a3d7-d74182d96d6c","ios":"levelo://app?vid=4fb445ea-edeb-413e-a3d7-d74182d96d6c"},"vehicle_type_id":"4","last_reported":1698980852,"current_range_meters":31200,"station_id":"ce4bhb92rcd13ifvqen0","pricing_plan_id":"free"},{"bike_id":"fa304e1f-872a-496a-ab51-1f8aa79a4e9e","system_id":"levelo_inurba_marseille","lat":43.290104,"lon":5.356111,"is_reserved":false,"is_disabled":false,"rental_uris":{"android":"levelo://app?vid=fa304e1f-872a-496a-ab51-1f8aa79a4e9e","ios":"levelo://app?vid=fa304e1f-872a-496a-ab51-1f8aa79a4e9e"},"vehicle_type_id":"4","last_reported":1698980852,"current_range_meters":31200,"station_id":"ce4bhb92rcd13ifvqen0","pricing_plan_id":"free"},{"bike_id":"12e43a30-4ad7-4a1f-a286-46ec846da60a","system_id":"levelo_inurba_marseille","lat":43.295376,"lon":5.390189,"is_reserved":false,"is_disabled":false,"rental_uris":{"android":"levelo://app?vid=12e43a30-4ad7-4a1f-a286-46ec846da60a","ios":"levelo://app?vid=12e43a30-4ad7-4a1f-a286-46ec846da60a"},"vehicle_type_id":"4","last_reported":1698980852,"current_range_meters":20000,"station_id":"ce4bh3p2rcd13ifvqdp0","pricing_plan_id":"free"},{"bike_id":"a3781ba8-ee1d-4e20-8cd5-d862747cf9fa","system_id":"levelo_inurba_marseille","lat":43.297874,"lon":5.393339,"is_reserved":false,"is_disabled":false,"rental_uris":{"android":"levelo://app?vid=a3781ba8-ee1d-4e20-8cd5-d862747cf9fa","ios":"levelo://app?vid=a3781ba8-ee1d-4e20-8cd5-d862747cf9fa"},"vehicle_type_id":"4","last_reported":1698980852,"current_range_meters":23200,"station_id":"chh1huq6cuj3fo74tm60","pricing_plan_id":"free"},{"bike_id":"e0d713cd-ec81-44ec-8ba4-571dd76a2b05","system_id":"levelo_inurba_marseille","lat":43.295169,"lon":5.390426,"is_reserved":false,"is_disabled":false,"rental_uris":{"android":"levelo://app?vid=e0d713cd-ec81-44ec-8ba4-571dd76a2b05","ios":"levelo://app?vid=e0d713cd-ec81-44ec-8ba4-571dd76a2b05"},"vehicle_type_id":"4","last_reported":1698980852,"current_range_meters":6800,"station_id":"ce4bh3p2rcd13ifvqdp0","pricing_plan_id":"free"},{"bike_id":"1512beff-1511-4166-8b51-d6e1900662ad","system_id":"levelo_inurba_marseille","lat":43.297815,"lon":5.393548,"is_reserved":false,"is_disabled":false,"rental_uris":{"android":"levelo://app?vid=1512beff-1511-4166-8b51-d6e1900662ad","ios":"levelo://app?vid=1512beff-1511-4166-8b51-d6e1900662ad"},"vehicle_type_id":"4","last_reported":1698980852,"current_range_meters":12000,"station_id":"chh1huq6cuj3fo74tm60","pricing_plan_id":"free"},{"bike_id":"a69f8c67-cc11-422e-a439-68c014175275","system_id":"levelo_inurba_marseille","lat":43.297853,"lon":5.393364,"is_reserved":false,"is_disabled":false,"rental_uris":{"android":"levelo://app?vid=a69f8c67-cc11-422e-a439-68c014175275","ios":"levelo://app?vid=a69f8c67-cc11-422e-a439-68c014175275"},"vehicle_type_id":"4","last_reported":1698980852,"current_range_meters":22400,"station_id":"chh1huq6cuj3fo74tm60","pricing_plan_id":"free"},{"bike_id":"c71ff774-d276-4fdb-b102-1fbbe8fbe888","system_id":"levelo_inurba_marseille","lat":43.29768,"lon":5.39319,"is_reserved":false,"is_disabled":false,"rental_uris":{"android":"levelo://app?vid=c71ff774-d276-4fdb-b102-1fbbe8fbe888","ios":"levelo://app?vid=c71ff774-d276-4fdb-b102-1fbbe8fbe888"},"vehicle_type_id":"4","last_reported":1698980852,"current_range_meters":26000,"station_id":"chh1huq6cuj3fo74tm60","pricing_plan_id":"free"},{"bike_id":"c5c1ebd4-6703-4428-aab7-a8a61bd8d8f8","system_id":"levelo_inurba_marseille","lat":43.297815,"lon":5.393548,"is_reserved":false,"is_disabled":false,"rental_uris":{"android":"levelo://app?vid=c5c1ebd4-6703-4428-aab7-a8a61bd8d8f8","ios":"levelo://app?vid=c5c1ebd4-6703-4428-aab7-a8a61bd8d8f8"},"vehicle_type_id":"4","last_reported":1698980852,"current_range_meters":31600,"station_id":"chh1huq6cuj3fo74tm60","pricing_plan_id":"free"},{"bike_id":"296d6d39-5e4a-4fad-90f9-58f557e67439","system_id":"levelo_inurba_marseille","lat":43.297815,"lon":5.393548,"is_reserved":false,"is_disabled":false,"rental_uris":{"android":"levelo://app?vid=296d6d39-5e4a-4fad-90f9-58f557e67439","ios":"levelo://app?vid=296d6d39-5e4a-4fad-90f9-58f557e67439"},"vehicle_type_id":"4","last_reported":1698980852,"current_range_meters":31600,"station_id":"chh1huq6cuj3fo74tm60","pricing_plan_id":"free"},{"bike_id":"59fb8f0d-24ee-4faa-ba4e-628fd9be1e15","system_id":"levelo_inurba_marseille","lat":43.297815,"lon":5.393548,"is_reserved":false,"is_disabled":false,"rental_uris":{"android":"levelo://app?vid=59fb8f0d-24ee-4faa-ba4e-628fd9be1e15","ios":"levelo://app?vid=59fb8f0d-24ee-4faa-ba4e-628fd9be1e15"},"vehicle_type_id":"4","last_reported":1698980852,"current_range_meters":31600,"station_id":"chh1huq6cuj3fo74tm60","pricing_plan_id":"free"},{"bike_id":"e969db6f-b94e-49f3-97bd-69d8f60451e4","system_id":"levelo_inurba_marseille","lat":43.295241,"lon":5.39031,"is_reserved":false,"is_disabled":false,"rental_uris":{"android":"levelo://app?vid=e969db6f-b94e-49f3-97bd-69d8f60451e4","ios":"levelo://app?vid=e969db6f-b94e-49f3-97bd-69d8f60451e4"},"vehicle_type_id":"4","last_reported":1698980852,"current_range_meters":20800,"station_id":"ce4bh3p2rcd13ifvqdp0","pricing_plan_id":"free"},{"bike_id":"fc0dabcb-8d0d-4859-8087-f9c201d0c3a1","system_id":"levelo_inurba_marseille","lat":43.295224,"lon":5.390295,"is_reserved":false,"is_disabled":false,"rental_uris":{"android":"levelo://app?vid=fc0dabcb-8d0d-4859-8087-f9c201d0c3a1","ios":"levelo://app?vid=fc0dabcb-8d0d-4859-8087-f9c201d0c3a1"},"vehicle_type_id":"4","last_reported":1698980852,"current_range_meters":23200,"station_id":"ce4bh3p2rcd13ifvqdp0","pricing_plan_id":"free"},{"bike_id":"c3a8def9-fa80-4df5-8e49-2710599753b0","system_id":"levelo_inurba_marseille","lat":43.295217,"lon":5.390305,"is_reserved":false,"is_disabled":false,"rental_uris":{"android":"levelo://app?vid=c3a8def9-fa80-4df5-8e49-2710599753b0","ios":"levelo://app?vid=c3a8def9-fa80-4df5-8e49-2710599753b0"},"vehicle_type_id":"4","last_reported":1698980852,"current_range_meters":31200,"station_id":"ce4bh3p2rcd13ifvqdp0","pricing_plan_id":"free"},{"bike_id":"35183e83-d020-4164-b817-188101d8fe68","system_id":"levelo_inurba_marseille","lat":43.295155,"lon":5.390382,"is_reserved":false,"is_disabled":false,"rental_uris":{"android":"levelo://app?vid=35183e83-d020-4164-b817-188101d8fe68","ios":"levelo://app?vid=35183e83-d020-4164-b817-188101d8fe68"},"vehicle_type_id":"4","last_reported":1698980852,"current_range_meters":22400,"station_id":"ce4bh3p2rcd13ifvqdp0","pricing_plan_id":"free"},{"bike_id":"888c12a2-faca-47ab-b33b-ee36c37ef841","system_id":"levelo_inurba_marseille","lat":43.28856,"lon":5.358371,"is_reserved":false,"is_disabled":false,"rental_uris":{"android":"levelo://app?vid=888c12a2-faca-47ab-b33b-ee36c37ef841","ios":"levelo://app?vid=888c12a2-faca-47ab-b33b-ee36c37ef841"},"vehicle_type_id":"4","last_reported":1698980852,"current_range_meters":18000,"station_id":"ce4bhb12rcd13ifvqem0","pricing_plan_id":"free"},{"bike_id":"11b03456-7007-4fb5-a676-1cfcfc93e754","system_id":"levelo_inurba_marseille","lat":43.28856,"lon":5.358371,"is_reserved":false,"is_disabled":false,"rental_uris":{"android":"levelo://app?vid=11b03456-7007-4fb5-a676-1cfcfc93e754","ios":"levelo://app?vid=11b03456-7007-4fb5-a676-1cfcfc93e754"},"vehicle_type_id":"4","last_reported":1698980852,"current_range_meters":31600,"station_id":"ce4bhb12rcd13ifvqem0","pricing_plan_id":"free"},{"bike_id":"b6280932-31aa-428a-9241-2cade159cc1a","system_id":"levelo_inurba_marseille","lat":43.28856,"lon":5.358371,"is_reserved":false,"is_disabled":false,"rental_uris":{"android":"levelo://app?vid=b6280932-31aa-428a-9241-2cade159cc1a","ios":"levelo://app?vid=b6280932-31aa-428a-9241-2cade159cc1a"},"vehicle_type_id":"4","last_reported":1698980852,"current_range_meters":31600,"station_id":"ce4bhb12rcd13ifvqem0","pricing_plan_id":"free"},{"bike_id":"147d21ff-4ee4-439c-be75-580e8ae9d3cd","system_id":"levelo_inurba_marseille","lat":43.28856,"lon":5.358371,"is_reserved":false,"is_disabled":false,"rental_uris":{"android":"levelo://app?vid=147d21ff-4ee4-439c-be75-580e8ae9d3cd","ios":"levelo://app?vid=147d21ff-4ee4-439c-be75-580e8ae9d3cd"},"vehicle_type_id":"4","last_reported":1698980852,"current_range_meters":16000,"station_id":"ce4bhb12rcd13ifvqem0","pricing_plan_id":"free"},{"bike_id":"eb16b1e7-3e40-437f-89af-b26302c1a90a","system_id":"levelo_inurba_marseille","lat":43.28856,"lon":5.358371,"is_reserved":false,"is_disabled":false,"rental_uris":{"android":"levelo://app?vid=eb16b1e7-3e40-437f-89af-b26302c1a90a","ios":"levelo://app?vid=eb16b1e7-3e40-437f-89af-b26302c1a90a"},"vehicle_type_id":"4","last_reported":1698980852,"current_range_meters":31600,"station_id":"ce4bhb12rcd13ifvqem0","pricing_plan_id":"free"},{"bike_id":"e3c4e028-b071-4ce5-b311-70a29c9a9274","system_id":"levelo_inurba_marseille","lat":43.28856,"lon":5.358371,"is_reserved":false,"is_disabled":false,"rental_uris":{"android":"levelo://app?vid=e3c4e028-b071-4ce5-b311-70a29c9a9274","ios":"levelo://app?vid=e3c4e028-b071-4ce5-b311-70a29c9a9274"},"vehicle_type_id":"4","last_reported":1698980852,"current_range_meters":26000,"station_id":"ce4bhb12rcd13ifvqem0","pricing_plan_id":"free"},{"bike_id":"91798a6b-3902-4acc-a51d-ed61ef0b5443","system_id":"levelo_inurba_marseille","lat":43.312609,"lon":5.401662,"is_reserved":false,"is_disabled":false,"rental_uris":{"android":"levelo://app?vid=91798a6b-3902-4acc-a51d-ed61ef0b5443","ios":"levelo://app?vid=91798a6b-3902-4acc-a51d-ed61ef0b5443"},"vehicle_type_id":"4","last_reported":1698980852,"current_range_meters":15200,"station_id":"ce4bh092rcd13ifvqd30","pricing_plan_id":"free"},{"bike_id":"b62753c5-f517-445b-8005-6907cfecdfb7","system_id":"levelo_inurba_marseille","lat":43.312609,"lon":5.401662,"is_reserved":false,"is_disabled":false,"rental_uris":{"android":"levelo://app?vid=b62753c5-f517-445b-8005-6907cfecdfb7","ios":"levelo://app?vid=b62753c5-f517-445b-8005-6907cfecdfb7"},"vehicle_type_id":"4","last_reported":1698980852,"current_range_meters":16000,"station_id":"ce4bh092rcd13ifvqd30","pricing_plan_id":"free"},{"bike_id":"ea1257ad-5653-4c96-8922-d31d84d6dab7","system_id":"levelo_inurba_marseille","lat":43.309352,"lon":5.401364,"is_reserved":false,"is_disabled":false,"rental_uris":{"android":"levelo://app?vid=ea1257ad-5653-4c96-8922-d31d84d6dab7","ios":"levelo://app?vid=ea1257ad-5653-4c96-8922-d31d84d6dab7"},"vehicle_type_id":"4","last_reported":1698980852,"current_range_meters":8000,"station_id":"ce4bgvp2rcd13ifvqct0","pricing_plan_id":"free"},{"bike_id":"275c6a9b-5c8d-4b8f-836e-05ed511a338a","system_id":"levelo_inurba_marseille","lat":43.309308,"lon":5.401364,"is_reserved":false,"is_disabled":false,"rental_uris":{"android":"levelo://app?vid=275c6a9b-5c8d-4b8f-836e-05ed511a338a","ios":"levelo://app?vid=275c6a9b-5c8d-4b8f-836e-05ed511a338a"},"vehicle_type_id":"4","last_reported":1698980852,"current_range_meters":30400,"station_id":"ce4bgvp2rcd13ifvqct0","pricing_plan_id":"free"},{"bike_id":"6353e55c-0853-4d00-8dbb-68593509b6b6","system_id":"levelo_inurba_marseille","lat":43.312664,"lon":5.401722,"is_reserved":false,"is_disabled":false,"rental_uris":{"android":"levelo://app?vid=6353e55c-0853-4d00-8dbb-68593509b6b6","ios":"levelo://app?vid=6353e55c-0853-4d00-8dbb-68593509b6b6"},"vehicle_type_id":"4","last_reported":1698980852,"current_range_meters":23200,"station_id":"ce4bh092rcd13ifvqd30","pricing_plan_id":"free"},{"bike_id":"d87e7cfa-5391-4b01-bc9e-d61a11912517","system_id":"levelo_inurba_marseille","lat":43.3093,"lon":5.40141,"is_reserved":false,"is_disabled":false,"rental_uris":{"android":"levelo://app?vid=d87e7cfa-5391-4b01-bc9e-d61a11912517","ios":"levelo://app?vid=d87e7cfa-5391-4b01-bc9e-d61a11912517"},"vehicle_type_id":"4","last_reported":1698980852,"current_range_meters":19600,"station_id":"ce4bgvp2rcd13ifvqct0","pricing_plan_id":"free"},{"bike_id":"c4a3966c-18a1-4af4-8e57-3e03dded1f88","system_id":"levelo_inurba_marseille","lat":43.309371,"lon":5.401449,"is_reserved":false,"is_disabled":false,"rental_uris":{"android":"levelo://app?vid=c4a3966c-18a1-4af4-8e57-3e03dded1f88","ios":"levelo://app?vid=c4a3966c-18a1-4af4-8e57-3e03dded1f88"},"vehicle_type_id":"4","last_reported":1698980852,"current_range_meters":30800,"station_id":"ce4bgvp2rcd13ifvqct0","pricing_plan_id":"free"},{"bike_id":"46e27dc7-8355-4692-bf8a-8b8f5beeea67","system_id":"levelo_inurba_marseille","lat":43.312609,"lon":5.401662,"is_reserved":false,"is_disabled":false,"rental_uris":{"android":"levelo://app?vid=46e27dc7-8355-4692-bf8a-8b8f5beeea67","ios":"levelo://app?vid=46e27dc7-8355-4692-bf8a-8b8f5beeea67"},"vehicle_type_id":"4","last_reported":1698980852,"current_range_meters":25200,"station_id":"ce4bh092rcd13ifvqd30","pricing_plan_id":"free"},{"bike_id":"293e7fb3-f9bb-40e4-b522-bcb94934049a","system_id":"levelo_inurba_marseille","lat":43.309364,"lon":5.401428,"is_reserved":false,"is_disabled":false,"rental_uris":{"android":"levelo://app?vid=293e7fb3-f9bb-40e4-b522-bcb94934049a","ios":"levelo://app?vid=293e7fb3-f9bb-40e4-b522-bcb94934049a"},"vehicle_type_id":"4","last_reported":1698980852,"current_range_meters":28800,"station_id":"ce4bgvp2rcd13ifvqct0","pricing_plan_id":"free"},{"bike_id":"6dcbba3f-a6d5-456b-a100-0eda95f92d9d","system_id":"levelo_inurba_marseille","lat":43.309347,"lon":5.401455,"is_reserved":false,"is_disabled":false,"rental_uris":{"android":"levelo://app?vid=6dcbba3f-a6d5-456b-a100-0eda95f92d9d","ios":"levelo://app?vid=6dcbba3f-a6d5-456b-a100-0eda95f92d9d"},"vehicle_type_id":"4","last_reported":1698980852,"current_range_meters":15200,"station_id":"ce4bgvp2rcd13ifvqct0","pricing_plan_id":"free"},{"bike_id":"9e99918e-64f1-449c-ac3a-a1c50403c083","system_id":"levelo_inurba_marseille","lat":43.309302,"lon":5.401451,"is_reserved":false,"is_disabled":false,"rental_uris":{"android":"levelo://app?vid=9e99918e-64f1-449c-ac3a-a1c50403c083","ios":"levelo://app?vid=9e99918e-64f1-449c-ac3a-a1c50403c083"},"vehicle_type_id":"4","last_reported":1698980852,"current_range_meters":21600,"station_id":"ce4bgvp2rcd13ifvqct0","pricing_plan_id":"free"},{"bike_id":"6dbe0b57-62dc-41d6-89ad-7767dcda3dc8","system_id":"levelo_inurba_marseille","lat":43.30651,"lon":5.40071,"is_reserved":false,"is_disabled":false,"rental_uris":{"android":"levelo://app?vid=6dbe0b57-62dc-41d6-89ad-7767dcda3dc8","ios":"levelo://app?vid=6dbe0b57-62dc-41d6-89ad-7767dcda3dc8"},"vehicle_type_id":"4","last_reported":1698980852,"current_range_meters":22800,"station_id":"ce4bh112rcd13ifvqda0","pricing_plan_id":"free"},{"bike_id":"58f6c66f-a891-43e2-8dd1-f459c39d8bcf","system_id":"levelo_inurba_marseille","lat":43.30641,"lon":5.40068,"is_reserved":false,"is_disabled":false,"rental_uris":{"android":"levelo://app?vid=58f6c66f-a891-43e2-8dd1-f459c39d8bcf","ios":"levelo://app?vid=58f6c66f-a891-43e2-8dd1-f459c39d8bcf"},"vehicle_type_id":"4","last_reported":1698980852,"current_range_meters":24800,"station_id":"ce4bh112rcd13ifvqda0","pricing_plan_id":"free"},{"bike_id":"3692218a-1f9d-4797-8651-81b9b67edf95","system_id":"levelo_inurba_marseille","lat":43.30935,"lon":5.40148,"is_reserved":false,"is_disabled":false,"rental_uris":{"android":"levelo://app?vid=3692218a-1f9d-4797-8651-81b9b67edf95","ios":"levelo://app?vid=3692218a-1f9d-4797-8651-81b9b67edf95"},"vehicle_type_id":"4","last_reported":1698980852,"current_range_meters":22400,"station_id":"ce4bgvp2rcd13ifvqct0","pricing_plan_id":"free"},{"bike_id":"0f469199-b784-4e0d-9879-c96f315972e5","system_id":"levelo_inurba_marseille","lat":43.30929,"lon":5.4015,"is_reserved":false,"is_disabled":false,"rental_uris":{"android":"levelo://app?vid=0f469199-b784-4e0d-9879-c96f315972e5","ios":"levelo://app?vid=0f469199-b784-4e0d-9879-c96f315972e5"},"vehicle_type_id":"4","last_reported":1698980852,"current_range_meters":30000,"station_id":"ce4bgvp2rcd13ifvqct0","pricing_plan_id":"free"},{"bike_id":"ac310e49-b1ca-4435-a667-be437d054dd3","system_id":"levelo_inurba_marseille","lat":43.30932,"lon":5.40153,"is_reserved":false,"is_disabled":false,"rental_uris":{"android":"levelo://app?vid=ac310e49-b1ca-4435-a667-be437d054dd3","ios":"levelo://app?vid=ac310e49-b1ca-4435-a667-be437d054dd3"},"vehicle_type_id":"4","last_reported":1698980852,"current_range_meters":15200,"station_id":"ce4bgvp2rcd13ifvqct0","pricing_plan_id":"free"},{"bike_id":"0b1ae411-aad6-4cab-95db-a2f958b9daf6","system_id":"levelo_inurba_marseille","lat":43.309371,"lon":5.401449,"is_reserved":false,"is_disabled":false,"rental_uris":{"android":"levelo://app?vid=0b1ae411-aad6-4cab-95db-a2f958b9daf6","ios":"levelo://app?vid=0b1ae411-aad6-4cab-95db-a2f958b9daf6"},"vehicle_type_id":"4","last_reported":1698980852,"current_range_meters":21200,"station_id":"ce4bgvp2rcd13ifvqct0","pricing_plan_id":"free"},{"bike_id":"7cdc46c7-8306-4b37-9ab5-3bcdf0438597","system_id":"levelo_inurba_marseille","lat":43.306538,"lon":5.400817,"is_reserved":false,"is_disabled":false,"rental_uris":{"android":"levelo://app?vid=7cdc46c7-8306-4b37-9ab5-3bcdf0438597","ios":"levelo://app?vid=7cdc46c7-8306-4b37-9ab5-3bcdf0438597"},"vehicle_type_id":"4","last_reported":1698980852,"current_range_meters":19600,"station_id":"ce4bh112rcd13ifvqda0","pricing_plan_id":"free"},{"bike_id":"c3ae53cd-1896-4bea-b85f-ba77dbf22341","system_id":"levelo_inurba_marseille","lat":43.306544,"lon":5.40086,"is_reserved":false,"is_disabled":false,"rental_uris":{"android":"levelo://app?vid=c3ae53cd-1896-4bea-b85f-ba77dbf22341","ios":"levelo://app?vid=c3ae53cd-1896-4bea-b85f-ba77dbf22341"},"vehicle_type_id":"4","last_reported":1698980852,"current_range_meters":26400,"station_id":"ce4bh112rcd13ifvqda0","pricing_plan_id":"free"},{"bike_id":"17d3dcea-046d-4b61-aa99-cef6ece2f410","system_id":"levelo_inurba_marseille","lat":43.306503,"lon":5.400847,"is_reserved":false,"is_disabled":false,"rental_uris":{"android":"levelo://app?vid=17d3dcea-046d-4b61-aa99-cef6ece2f410","ios":"levelo://app?vid=17d3dcea-046d-4b61-aa99-cef6ece2f410"},"vehicle_type_id":"4","last_reported":1698980852,"current_range_meters":31200,"station_id":"ce4bh112rcd13ifvqda0","pricing_plan_id":"free"},{"bike_id":"d73032b4-28a5-4fbf-a600-45ba1b87bb0f","system_id":"levelo_inurba_marseille","lat":43.306506,"lon":5.400986,"is_reserved":false,"is_disabled":false,"rental_uris":{"android":"levelo://app?vid=d73032b4-28a5-4fbf-a600-45ba1b87bb0f","ios":"levelo://app?vid=d73032b4-28a5-4fbf-a600-45ba1b87bb0f"},"vehicle_type_id":"4","last_reported":1698980852,"current_range_meters":9600,"station_id":"ce4bh112rcd13ifvqda0","pricing_plan_id":"free"},{"bike_id":"8491e08e-6966-4aab-ba75-fdbbab2f286e","system_id":"levelo_inurba_marseille","lat":43.330308,"lon":5.392461,"is_reserved":false,"is_disabled":false,"rental_uris":{"android":"levelo://app?vid=8491e08e-6966-4aab-ba75-fdbbab2f286e","ios":"levelo://app?vid=8491e08e-6966-4aab-ba75-fdbbab2f286e"},"vehicle_type_id":"4","last_reported":1698980852,"current_range_meters":9600,"station_id":"","pricing_plan_id":"free"},{"bike_id":"9ab8ec1f-b975-44db-bb45-f3d9da0501ee","system_id":"levelo_inurba_marseille","lat":43.306388,"lon":5.400971,"is_reserved":false,"is_disabled":false,"rental_uris":{"android":"levelo://app?vid=9ab8ec1f-b975-44db-bb45-f3d9da0501ee","ios":"levelo://app?vid=9ab8ec1f-b975-44db-bb45-f3d9da0501ee"},"vehicle_type_id":"4","last_reported":1698980852,"current_range_meters":30000,"station_id":"ce4bh112rcd13ifvqda0","pricing_plan_id":"free"},{"bike_id":"0bf61386-be5b-42a9-ae74-9983fa3f7dc9","system_id":"levelo_inurba_marseille","lat":43.301303,"lon":5.398527,"is_reserved":false,"is_disabled":false,"rental_uris":{"android":"levelo://app?vid=0bf61386-be5b-42a9-ae74-9983fa3f7dc9","ios":"levelo://app?vid=0bf61386-be5b-42a9-ae74-9983fa3f7dc9"},"vehicle_type_id":"4","last_reported":1698980852,"current_range_meters":18000,"station_id":"ce4bh0h2rcd13ifvqd40","pricing_plan_id":"free"},{"bike_id":"6b95949f-aead-4d8f-9e2c-f7564ac4fcd5","system_id":"levelo_inurba_marseille","lat":43.28727,"lon":5.36078,"is_reserved":false,"is_disabled":false,"rental_uris":{"android":"levelo://app?vid=6b95949f-aead-4d8f-9e2c-f7564ac4fcd5","ios":"levelo://app?vid=6b95949f-aead-4d8f-9e2c-f7564ac4fcd5"},"vehicle_type_id":"4","last_reported":1698980852,"current_range_meters":30400,"station_id":"cki0cbj6b192h4jlfktg","pricing_plan_id":"free"},{"bike_id":"97a4f256-9bd1-4a9b-b718-285182d1a604","system_id":"levelo_inurba_marseille","lat":43.28727,"lon":5.36078,"is_reserved":false,"is_disabled":false,"rental_uris":{"android":"levelo://app?vid=97a4f256-9bd1-4a9b-b718-285182d1a604","ios":"levelo://app?vid=97a4f256-9bd1-4a9b-b718-285182d1a604"},"vehicle_type_id":"4","last_reported":1698980852,"current_range_meters":28000,"station_id":"cki0cbj6b192h4jlfktg","pricing_plan_id":"free"},{"bike_id":"196d7185-355b-4fa4-8633-2457b444c4c1","system_id":"levelo_inurba_marseille","lat":43.28727,"lon":5.36078,"is_reserved":false,"is_disabled":false,"rental_uris":{"android":"levelo://app?vid=196d7185-355b-4fa4-8633-2457b444c4c1","ios":"levelo://app?vid=196d7185-355b-4fa4-8633-2457b444c4c1"},"vehicle_type_id":"4","last_reported":1698980852,"current_range_meters":31200,"station_id":"cki0cbj6b192h4jlfktg","pricing_plan_id":"free"},{"bike_id":"5503e6ee-dce8-40d5-8705-cf53887b9fdf","system_id":"levelo_inurba_marseille","lat":43.28727,"lon":5.36078,"is_reserved":false,"is_disabled":false,"rental_uris":{"android":"levelo://app?vid=5503e6ee-dce8-40d5-8705-cf53887b9fdf","ios":"levelo://app?vid=5503e6ee-dce8-40d5-8705-cf53887b9fdf"},"vehicle_type_id":"4","last_reported":1698980852,"current_range_meters":27600,"station_id":"cki0cbj6b192h4jlfktg","pricing_plan_id":"free"},{"bike_id":"82bf58e4-dee4-442b-8801-f1c6d6945d47","system_id":"levelo_inurba_marseille","lat":43.286961,"lon":5.373785,"is_reserved":false,"is_disabled":false,"rental_uris":{"android":"levelo://app?vid=82bf58e4-dee4-442b-8801-f1c6d6945d47","ios":"levelo://app?vid=82bf58e4-dee4-442b-8801-f1c6d6945d47"},"vehicle_type_id":"4","last_reported":1698980852,"current_range_meters":11600,"station_id":"ce4bh3p2rcd13ifvqdq0","pricing_plan_id":"free"},{"bike_id":"4a1c7fb6-d497-4670-85a2-a35f2900f5e3","system_id":"levelo_inurba_marseille","lat":43.286591,"lon":5.363346,"is_reserved":false,"is_disabled":false,"rental_uris":{"android":"levelo://app?vid=4a1c7fb6-d497-4670-85a2-a35f2900f5e3","ios":"levelo://app?vid=4a1c7fb6-d497-4670-85a2-a35f2900f5e3"},"vehicle_type_id":"4","last_reported":1698980852,"current_range_meters":27200,"station_id":"ce4bhah2rcd13ifvqej0","pricing_plan_id":"free"},{"bike_id":"d5a91e99-fa52-4682-ae32-9c9c161dc4b4","system_id":"levelo_inurba_marseille","lat":43.298681,"lon":5.397225,"is_reserved":false,"is_disabled":false,"rental_uris":{"android":"levelo://app?vid=d5a91e99-fa52-4682-ae32-9c9c161dc4b4","ios":"levelo://app?vid=d5a91e99-fa52-4682-ae32-9c9c161dc4b4"},"vehicle_type_id":"4","last_reported":1698980852,"current_range_meters":29600,"station_id":"ce4bh0h2rcd13ifvqd50","pricing_plan_id":"free"},{"bike_id":"d541ab2d-3a25-48c1-beed-072e0e660c55","system_id":"levelo_inurba_marseille","lat":43.286961,"lon":5.373785,"is_reserved":false,"is_disabled":false,"rental_uris":{"android":"levelo://app?vid=d541ab2d-3a25-48c1-beed-072e0e660c55","ios":"levelo://app?vid=d541ab2d-3a25-48c1-beed-072e0e660c55"},"vehicle_type_id":"4","last_reported":1698980852,"current_range_meters":31600,"station_id":"ce4bh3p2rcd13ifvqdq0","pricing_plan_id":"free"},{"bike_id":"0e981f3c-83e2-466b-9d9f-74f7c39c78a6","system_id":"levelo_inurba_marseille","lat":43.298681,"lon":5.397225,"is_reserved":false,"is_disabled":false,"rental_uris":{"android":"levelo://app?vid=0e981f3c-83e2-466b-9d9f-74f7c39c78a6","ios":"levelo://app?vid=0e981f3c-83e2-466b-9d9f-74f7c39c78a6"},"vehicle_type_id":"4","last_reported":1698980852,"current_range_meters":20400,"station_id":"ce4bh0h2rcd13ifvqd50","pricing_plan_id":"free"},{"bike_id":"e468a769-2a13-4d55-ad7a-189943531dc8","system_id":"levelo_inurba_marseille","lat":43.286591,"lon":5.363346,"is_reserved":false,"is_disabled":false,"rental_uris":{"android":"levelo://app?vid=e468a769-2a13-4d55-ad7a-189943531dc8","ios":"levelo://app?vid=e468a769-2a13-4d55-ad7a-189943531dc8"},"vehicle_type_id":"4","last_reported":1698980852,"current_range_meters":28400,"station_id":"ce4bhah2rcd13ifvqej0","pricing_plan_id":"free"},{"bike_id":"c13a824f-77d9-4e29-ba09-5ff55c9b81f9","system_id":"levelo_inurba_marseille","lat":43.298681,"lon":5.397225,"is_reserved":false,"is_disabled":false,"rental_uris":{"android":"levelo://app?vid=c13a824f-77d9-4e29-ba09-5ff55c9b81f9","ios":"levelo://app?vid=c13a824f-77d9-4e29-ba09-5ff55c9b81f9"},"vehicle_type_id":"4","last_reported":1698980852,"current_range_meters":31200,"station_id":"ce4bh0h2rcd13ifvqd50","pricing_plan_id":"free"},{"bike_id":"67347ed6-c049-4427-9206-04bd6d3808af","system_id":"levelo_inurba_marseille","lat":43.295196,"lon":5.39397,"is_reserved":false,"is_disabled":false,"rental_uris":{"android":"levelo://app?vid=67347ed6-c049-4427-9206-04bd6d3808af","ios":"levelo://app?vid=67347ed6-c049-4427-9206-04bd6d3808af"},"vehicle_type_id":"4","last_reported":1698980852,"current_range_meters":24800,"station_id":"ce4bh292rcd13ifvqdf0","pricing_plan_id":"free"},{"bike_id":"5648ed5f-7a8b-4b1c-989e-1ad840382d9c","system_id":"levelo_inurba_marseille","lat":43.286961,"lon":5.373785,"is_reserved":false,"is_disabled":false,"rental_uris":{"android":"levelo://app?vid=5648ed5f-7a8b-4b1c-989e-1ad840382d9c","ios":"levelo://app?vid=5648ed5f-7a8b-4b1c-989e-1ad840382d9c"},"vehicle_type_id":"4","last_reported":1698980852,"current_range_meters":16400,"station_id":"ce4bh3p2rcd13ifvqdq0","pricing_plan_id":"free"},{"bike_id":"e40ecab4-720b-4486-ad57-89019eb82c43","system_id":"levelo_inurba_marseille","lat":43.286961,"lon":5.373785,"is_reserved":false,"is_disabled":false,"rental_uris":{"android":"levelo://app?vid=e40ecab4-720b-4486-ad57-89019eb82c43","ios":"levelo://app?vid=e40ecab4-720b-4486-ad57-89019eb82c43"},"vehicle_type_id":"4","last_reported":1698980852,"current_range_meters":7200,"station_id":"ce4bh3p2rcd13ifvqdq0","pricing_plan_id":"free"},{"bike_id":"3662ba27-6106-4950-8a1d-8392d65ab410","system_id":"levelo_inurba_marseille","lat":43.286593,"lon":5.363346,"is_reserved":false,"is_disabled":false,"rental_uris":{"android":"levelo://app?vid=3662ba27-6106-4950-8a1d-8392d65ab410","ios":"levelo://app?vid=3662ba27-6106-4950-8a1d-8392d65ab410"},"vehicle_type_id":"4","last_reported":1698980852,"current_range_meters":26400,"station_id":"ce4bhah2rcd13ifvqej0","pricing_plan_id":"free"},{"bike_id":"3e4e06af-fdb7-456a-ad0d-1d4d748526b7","system_id":"levelo_inurba_marseille","lat":43.298681,"lon":5.397225,"is_reserved":false,"is_disabled":false,"rental_uris":{"android":"levelo://app?vid=3e4e06af-fdb7-456a-ad0d-1d4d748526b7","ios":"levelo://app?vid=3e4e06af-fdb7-456a-ad0d-1d4d748526b7"},"vehicle_type_id":"4","last_reported":1698980852,"current_range_meters":31600,"station_id":"ce4bh0h2rcd13ifvqd50","pricing_plan_id":"free"},{"bike_id":"9c125b51-8247-4525-a7bf-d02b54b15076","system_id":"levelo_inurba_marseille","lat":43.29867,"lon":5.3974,"is_reserved":false,"is_disabled":false,"rental_uris":{"android":"levelo://app?vid=9c125b51-8247-4525-a7bf-d02b54b15076","ios":"levelo://app?vid=9c125b51-8247-4525-a7bf-d02b54b15076"},"vehicle_type_id":"4","last_reported":1698980852,"current_range_meters":31200,"station_id":"ce4bh0h2rcd13ifvqd50","pricing_plan_id":"free"},{"bike_id":"49813931-11af-48e7-8b06-2abd048dcf1d","system_id":"levelo_inurba_marseille","lat":43.286957,"lon":5.373891,"is_reserved":false,"is_disabled":false,"rental_uris":{"android":"levelo://app?vid=49813931-11af-48e7-8b06-2abd048dcf1d","ios":"levelo://app?vid=49813931-11af-48e7-8b06-2abd048dcf1d"},"vehicle_type_id":"4","last_reported":1698980852,"current_range_meters":13600,"station_id":"ce4bh3p2rcd13ifvqdq0","pricing_plan_id":"free"},{"bike_id":"6fee58b6-4282-4694-aff8-ad1ebce27be4","system_id":"levelo_inurba_marseille","lat":43.286961,"lon":5.373785,"is_reserved":false,"is_disabled":false,"rental_uris":{"android":"levelo://app?vid=6fee58b6-4282-4694-aff8-ad1ebce27be4","ios":"levelo://app?vid=6fee58b6-4282-4694-aff8-ad1ebce27be4"},"vehicle_type_id":"4","last_reported":1698980852,"current_range_meters":31200,"station_id":"ce4bh3p2rcd13ifvqdq0","pricing_plan_id":"free"},{"bike_id":"0620efc9-0f1e-4fe6-9105-6923a7b69fad","system_id":"levelo_inurba_marseille","lat":43.295196,"lon":5.39397,"is_reserved":false,"is_disabled":false,"rental_uris":{"android":"levelo://app?vid=0620efc9-0f1e-4fe6-9105-6923a7b69fad","ios":"levelo://app?vid=0620efc9-0f1e-4fe6-9105-6923a7b69fad"},"vehicle_type_id":"4","last_reported":1698980852,"current_range_meters":25200,"station_id":"ce4bh292rcd13ifvqdf0","pricing_plan_id":"free"},{"bike_id":"56a0c8b6-2deb-497a-ac35-963de028cfa7","system_id":"levelo_inurba_marseille","lat":43.298681,"lon":5.397225,"is_reserved":false,"is_disabled":false,"rental_uris":{"android":"levelo://app?vid=56a0c8b6-2deb-497a-ac35-963de028cfa7","ios":"levelo://app?vid=56a0c8b6-2deb-497a-ac35-963de028cfa7"},"vehicle_type_id":"4","last_reported":1698980852,"current_range_meters":26000,"station_id":"ce4bh0h2rcd13ifvqd50","pricing_plan_id":"free"},{"bike_id":"ece74837-5f64-439f-8ab3-2683a2f9c1e3","system_id":"levelo_inurba_marseille","lat":43.295196,"lon":5.39397,"is_reserved":false,"is_disabled":false,"rental_uris":{"android":"levelo://app?vid=ece74837-5f64-439f-8ab3-2683a2f9c1e3","ios":"levelo://app?vid=ece74837-5f64-439f-8ab3-2683a2f9c1e3"},"vehicle_type_id":"4","last_reported":1698980852,"current_range_meters":32000,"station_id":"ce4bh292rcd13ifvqdf0","pricing_plan_id":"free"},{"bike_id":"a9c1832d-249b-4e38-bd1b-ddd2975583a2","system_id":"levelo_inurba_marseille","lat":43.295202,"lon":5.394016,"is_reserved":false,"is_disabled":false,"rental_uris":{"android":"levelo://app?vid=a9c1832d-249b-4e38-bd1b-ddd2975583a2","ios":"levelo://app?vid=a9c1832d-249b-4e38-bd1b-ddd2975583a2"},"vehicle_type_id":"4","last_reported":1698980852,"current_range_meters":31200,"station_id":"ce4bh292rcd13ifvqdf0","pricing_plan_id":"free"},{"bike_id":"8743f61d-e4e5-42de-886a-162d091e2e02","system_id":"levelo_inurba_marseille","lat":43.295181,"lon":5.394072,"is_reserved":false,"is_disabled":false,"rental_uris":{"android":"levelo://app?vid=8743f61d-e4e5-42de-886a-162d091e2e02","ios":"levelo://app?vid=8743f61d-e4e5-42de-886a-162d091e2e02"},"vehicle_type_id":"4","last_reported":1698980852,"current_range_meters":30000,"station_id":"ce4bh292rcd13ifvqdf0","pricing_plan_id":"free"},{"bike_id":"1bec69ce-9b85-4a12-b6f2-5a1c3f915e3c","system_id":"levelo_inurba_marseille","lat":43.295149,"lon":5.394055,"is_reserved":false,"is_disabled":false,"rental_uris":{"android":"levelo://app?vid=1bec69ce-9b85-4a12-b6f2-5a1c3f915e3c","ios":"levelo://app?vid=1bec69ce-9b85-4a12-b6f2-5a1c3f915e3c"},"vehicle_type_id":"4","last_reported":1698980852,"current_range_meters":20800,"station_id":"ce4bh292rcd13ifvqdf0","pricing_plan_id":"free"},{"bike_id":"29e04547-40c4-4715-bf95-6163466ae310","system_id":"levelo_inurba_marseille","lat":43.295164,"lon":5.394123,"is_reserved":false,"is_disabled":false,"rental_uris":{"android":"levelo://app?vid=29e04547-40c4-4715-bf95-6163466ae310","ios":"levelo://app?vid=29e04547-40c4-4715-bf95-6163466ae310"},"vehicle_type_id":"4","last_reported":1698980852,"current_range_meters":20000,"station_id":"ce4bh292rcd13ifvqdf0","pricing_plan_id":"free"},{"bike_id":"690c9ee8-1dba-4621-98ca-b32d60a80478","system_id":"levelo_inurba_marseille","lat":43.302759,"lon":5.400793,"is_reserved":false,"is_disabled":false,"rental_uris":{"android":"levelo://app?vid=690c9ee8-1dba-4621-98ca-b32d60a80478","ios":"levelo://app?vid=690c9ee8-1dba-4621-98ca-b32d60a80478"},"vehicle_type_id":"4","last_reported":1698980852,"current_range_meters":28800,"station_id":"ce4bgvh2rcd13ifvqcs0","pricing_plan_id":"free"},{"bike_id":"3f5febbb-4ab0-4293-be52-88e6bfdcc055","system_id":"levelo_inurba_marseille","lat":43.289307,"lon":5.38406,"is_reserved":false,"is_disabled":false,"rental_uris":{"android":"levelo://app?vid=3f5febbb-4ab0-4293-be52-88e6bfdcc055","ios":"levelo://app?vid=3f5febbb-4ab0-4293-be52-88e6bfdcc055"},