{"last_updated":1701511596,"ttl":30,"version":"2.2","data":{"bikes":[{"bike_id":"08e39174-3b40-4bf4-b750-7bdcdab4e57a","system_id":"levelo_inurba_marseille","lat":43.313205,"lon":5.367278,"is_reserved":false,"is_disabled":false,"rental_uris":{"android":"levelo://app?vid=08e39174-3b40-4bf4-b750-7bdcdab4e57a","ios":"levelo://app?vid=08e39174-3b40-4bf4-b750-7bdcdab4e57a"},"vehicle_type_id":"4","last_reported":1701511596,"current_range_meters":0,"station_id":"ce4bgr92rcd13ifvqc6g","pricing_plan_id":"free"},{"bike_id":"df8ed9dd-5083-493f-bcd3-d33b6c6564b9","system_id":"levelo_inurba_marseille","lat":43.305712,"lon":5.365641,"is_reserved":false,"is_disabled":false,"rental_uris":{"android":"levelo://app?vid=df8ed9dd-5083-493f-bcd3-d33b6c6564b9","ios":"levelo://app?vid=df8ed9dd-5083-493f-bcd3-d33b6c6564b9"},"vehicle_type_id":"4","last_reported":1701511596,"current_range_meters":28000,"station_id":"ce4bgs12rcd13ifvqcag","pricing_plan_id":"free"},{"bike_id":"8e2b412b-aad9-42bf-ad73-a1e7f7ef83f0","system_id":"levelo_inurba_marseille","lat":43.305712,"lon":5.365641,"is_reserved":false,"is_disabled":false,"rental_uris":{"android":"levelo://app?vid=8e2b412b-aad9-42bf-ad73-a1e7f7ef83f0","ios":"levelo://app?vid=8e2b412b-aad9-42bf-ad73-a1e7f7ef83f0"},"vehicle_type_id":"4","last_reported":1701511596,"current_range_meters":26800,"station_id":"ce4bgs12rcd13ifvqcag","pricing_plan_id":"free"},{"bike_id":"e98eb580-0759-4230-ad80-44e61349e9e0","system_id":"levelo_inurba_marseille","lat":43.305712,"lon":5.365641,"is_reserved":false,"is_disabled":false,"rental_uris":{"android":"levelo://app?vid=e98eb580-0759-4230-ad80-44e61349e9e0","ios":"levelo://app?vid=e98eb580-0759-4230-ad80-44e61349e9e0"},"vehicle_type_id":"4","last_reported":1701511596,"current_range_meters":24000,"station_id":"ce4bgs12rcd13ifvqcag","pricing_plan_id":"free"},{"bike_id":"7861355c-7e57-494b-aa47-577a1dd19de3","system_id":"levelo_inurba_marseille","lat":43.305706,"lon":5.365654,"is_reserved":false,"is_disabled":false,"rental_uris":{"android":"levelo://app?vid=7861355c-7e57-494b-aa47-577a1dd19de3","ios":"levelo://app?vid=7861355c-7e57-494b-aa47-577a1dd19de3"},"vehicle_type_id":"4","last_reported":1701511596,"current_range_meters":28800,"station_id":"ce4bgs12rcd13ifvqcag","pricing_plan_id":"free"},{"bike_id":"d0f3661c-aa9d-483e-ac45-d261c78f8c21","system_id":"levelo_inurba_marseille","lat":43.305714,"lon":5.365633,"is_reserved":false,"is_disabled":false,"rental_uris":{"android":"levelo://app?vid=d0f3661c-aa9d-483e-ac45-d261c78f8c21","ios":"levelo://app?vid=d0f3661c-aa9d-483e-ac45-d261c78f8c21"},"vehicle_type_id":"4","last_reported":1701511596,"current_range_meters":20000,"station_id":"ce4bgs12rcd13ifvqcag","pricing_plan_id":"free"},{"bike_id":"f62b84be-11b6-423f-af76-cf1a18df68c7","system_id":"levelo_inurba_marseille","lat":43.305706,"lon":5.365654,"is_reserved":false,"is_disabled":false,"rental_uris":{"android":"levelo://app?vid=f62b84be-11b6-423f-af76-cf1a18df68c7","ios":"levelo://app?vid=f62b84be-11b6-423f-af76-cf1a18df68c7"},"vehicle_type_id":"4","last_reported":1701511596,"current_range_meters":23600,"station_id":"ce4bgs12rcd13ifvqcag","pricing_plan_id":"free"},{"bike_id":"4e6f5d1c-bd9e-419c-aabb-bb75f9aefa42","system_id":"levelo_inurba_marseille","lat":43.305714,"lon":5.365633,"is_reserved":false,"is_disabled":false,"rental_uris":{"android":"levelo://app?vid=4e6f5d1c-bd9e-419c-aabb-bb75f9aefa42","ios":"levelo://app?vid=4e6f5d1c-bd9e-419c-aabb-bb75f9aefa42"},"vehicle_type_id":"4","last_reported":1701511596,"current_range_meters":26400,"station_id":"ce4bgs12rcd13ifvqcag","pricing_plan_id":"free"},{"bike_id":"3956f250-55c9-43e4-b380-b14acf0b0031","system_id":"levelo_inurba_marseille","lat":43.305706,"lon":5.365654,"is_reserved":false,"is_disabled":false,"rental_uris":{"android":"levelo://app?vid=3956f250-55c9-43e4-b380-b14acf0b0031","ios":"levelo://app?vid=3956f250-55c9-43e4-b380-b14acf0b0031"},"vehicle_type_id":"4","last_reported":1701511596,"current_range_meters":22000,"station_id":"ce4bgs12rcd13ifvqcag","pricing_plan_id":"free"},{"bike_id":"3168ad0c-3141-4d65-b98e-84603810b120","system_id":"levelo_inurba_marseille","lat":43.305706,"lon":5.365654,"is_reserved":false,"is_disabled":false,"rental_uris":{"android":"levelo://app?vid=3168ad0c-3141-4d65-b98e-84603810b120","ios":"levelo://app?vid=3168ad0c-3141-4d65-b98e-84603810b120"},"vehicle_type_id":"4","last_reported":1701511596,"current_range_meters":14000,"station_id":"ce4bgs12rcd13ifvqcag","pricing_plan_id":"free"},{"bike_id":"1e77f73a-4e68-4bed-bde8-3c07753704ec","system_id":"levelo_inurba_marseille","lat":43.305714,"lon":5.365633,"is_reserved":false,"is_disabled":false,"rental_uris":{"android":"levelo://app?vid=1e77f73a-4e68-4bed-bde8-3c07753704ec","ios":"levelo://app?vid=1e77f73a-4e68-4bed-bde8-3c07753704ec"},"vehicle_type_id":"4","last_reported":1701511596,"current_range_meters":31200,"station_id":"ce4bgs12rcd13ifvqcag","pricing_plan_id":"free"},{"bike_id":"195d7c3e-f2ea-4a38-a1cd-813098425ac1","system_id":"levelo_inurba_marseille","lat":43.305714,"lon":5.365633,"is_reserved":false,"is_disabled":false,"rental_uris":{"android":"levelo://app?vid=195d7c3e-f2ea-4a38-a1cd-813098425ac1","ios":"levelo://app?vid=195d7c3e-f2ea-4a38-a1cd-813098425ac1"},"vehicle_type_id":"4","last_reported":1701511596,"current_range_meters":2800,"station_id":"ce4bgs12rcd13ifvqcag","pricing_plan_id":"free"},{"bike_id":"5f6920cf-a217-4255-a435-4d7e9b1286fc","system_id":"levelo_inurba_marseille","lat":43.305706,"lon":5.365654,"is_reserved":false,"is_disabled":false,"rental_uris":{"android":"levelo://app?vid=5f6920cf-a217-4255-a435-4d7e9b1286fc","ios":"levelo://app?vid=5f6920cf-a217-4255-a435-4d7e9b1286fc"},"vehicle_type_id":"4","last_reported":1701511596,"current_range_meters":20000,"station_id":"ce4bgs12rcd13ifvqcag","pricing_plan_id":"free"},{"bike_id":"94f6c913-8bf4-4879-bafb-44767fcbc1a8","system_id":"levelo_inurba_marseille","lat":43.305706,"lon":5.365654,"is_reserved":false,"is_disabled":false,"rental_uris":{"android":"levelo://app?vid=94f6c913-8bf4-4879-bafb-44767fcbc1a8","ios":"levelo://app?vid=94f6c913-8bf4-4879-bafb-44767fcbc1a8"},"vehicle_type_id":"4","last_reported":1701511596,"current_range_meters":21600,"station_id":"ce4bgs12rcd13ifvqcag","pricing_plan_id":"free"},{"bike_id":"e7bd8103-096e-4179-a87d-71e961ce1d7a","system_id":"levelo_inurba_marseille","lat":43.305706,"lon":5.365654,"is_reserved":false,"is_disabled":false,"rental_uris":{"android":"levelo://app?vid=e7bd8103-096e-4179-a87d-71e961ce1d7a","ios":"levelo://app?vid=e7bd8103-096e-4179-a87d-71e961ce1d7a"},"vehicle_type_id":"4","last_reported":1701511596,"current_range_meters":25600,"station_id":"ce4bgs12rcd13ifvqcag","pricing_plan_id":"free"},{"bike_id":"347eb81c-09d8-487c-a10f-4aeed7e4697e","system_id":"levelo_inurba_marseille","lat":43.305706,"lon":5.365654,"is_reserved":false,"is_disabled":false,"rental_uris":{"android":"levelo://app?vid=347eb81c-09d8-487c-a10f-4aeed7e4697e","ios":"levelo://app?vid=347eb81c-09d8-487c-a10f-4aeed7e4697e"},"vehicle_type_id":"4","last_reported":1701511596,"current_range_meters":31200,"station_id":"ce4bgs12rcd13ifvqcag","pricing_plan_id":"free"},{"bike_id":"6e0bac6d-20c6-44a4-bcec-b29ec0d465c2","system_id":"levelo_inurba_marseille","lat":43.30529,"lon":5.36714,"is_reserved":false,"is_disabled":false,"rental_uris":{"android":"levelo://app?vid=6e0bac6d-20c6-44a4-bcec-b29ec0d465c2","ios":"levelo://app?vid=6e0bac6d-20c6-44a4-bcec-b29ec0d465c2"},"vehicle_type_id":"4","last_reported":1701511596,"current_range_meters":19600,"station_id":"ce4bgrp2rcd13ifvqc9g","pricing_plan_id":"free"},{"bike_id":"b4eb9028-f77f-43aa-ba86-602f97911689","system_id":"levelo_inurba_marseille","lat":43.305706,"lon":5.365654,"is_reserved":false,"is_disabled":false,"rental_uris":{"android":"levelo://app?vid=b4eb9028-f77f-43aa-ba86-602f97911689","ios":"levelo://app?vid=b4eb9028-f77f-43aa-ba86-602f97911689"},"vehicle_type_id":"4","last_reported":1701511596,"current_range_meters":17600,"station_id":"ce4bgs12rcd13ifvqcag","pricing_plan_id":"free"},{"bike_id":"9725572e-c4fc-4fab-b0f1-fadf586fa7a5","system_id":"levelo_inurba_marseille","lat":43.305706,"lon":5.365654,"is_reserved":false,"is_disabled":false,"rental_uris":{"android":"levelo://app?vid=9725572e-c4fc-4fab-b0f1-fadf586fa7a5","ios":"levelo://app?vid=9725572e-c4fc-4fab-b0f1-fadf586fa7a5"},"vehicle_type_id":"4","last_reported":1701511596,"current_range_meters":14800,"station_id":"ce4bgs12rcd13ifvqcag","pricing_plan_id":"free"},{"bike_id":"0aaf3861-4fbd-43cd-9aeb-d3387327a892","system_id":"levelo_inurba_marseille","lat":43.305989,"lon":5.37225,"is_reserved":false,"is_disabled":false,"rental_uris":{"android":"levelo://app?vid=0aaf3861-4fbd-43cd-9aeb-d3387327a892","ios":"levelo://app?vid=0aaf3861-4fbd-43cd-9aeb-d3387327a892"},"vehicle_type_id":"4","last_reported":1701511596,"current_range_meters":22400,"station_id":"ce4bgqh2rcd13ifvqc4g","pricing_plan_id":"free"},{"bike_id":"cfd3bb51-5657-4943-be4a-4ca2f802bb01","system_id":"levelo_inurba_marseille","lat":43.308151,"lon":5.376619,"is_reserved":false,"is_disabled":false,"rental_uris":{"android":"levelo://app?vid=cfd3bb51-5657-4943-be4a-4ca2f802bb01","ios":"levelo://app?vid=cfd3bb51-5657-4943-be4a-4ca2f802bb01"},"vehicle_type_id":"4","last_reported":1701511596,"current_range_meters":11200,"station_id":"ce4bgv92rcd13ifvqcq0","pricing_plan_id":"free"},{"bike_id":"f427a2c3-6e4a-446b-ae2f-9be8aa7f4122","system_id":"levelo_inurba_marseille","lat":43.31719,"lon":5.376813,"is_reserved":false,"is_disabled":false,"rental_uris":{"android":"levelo://app?vid=f427a2c3-6e4a-446b-ae2f-9be8aa7f4122","ios":"levelo://app?vid=f427a2c3-6e4a-446b-ae2f-9be8aa7f4122"},"vehicle_type_id":"4","last_reported":1701511596,"current_range_meters":0,"station_id":"","pricing_plan_id":"free"},{"bike_id":"ab1a45bc-5c86-4dc9-86c5-b3cdd9eb5b1a","system_id":"levelo_inurba_marseille","lat":43.32041,"lon":5.37191,"is_reserved":false,"is_disabled":false,"rental_uris":{"android":"levelo://app?vid=ab1a45bc-5c86-4dc9-86c5-b3cdd9eb5b1a","ios":"levelo://app?vid=ab1a45bc-5c86-4dc9-86c5-b3cdd9eb5b1a"},"vehicle_type_id":"4","last_reported":1701511596,"current_range_meters":0,"station_id":"","pricing_plan_id":"free"},{"bike_id":"e913f328-1e31-4c22-bd87-f809ea246de4","system_id":"levelo_inurba_marseille","lat":43.317168,"lon":5.376883,"is_reserved":false,"is_disabled":false,"rental_uris":{"android":"levelo://app?vid=e913f328-1e31-4c22-bd87-f809ea246de4","ios":"levelo://app?vid=e913f328-1e31-4c22-bd87-f809ea246de4"},"vehicle_type_id":"4","last_reported":1701511596,"current_range_meters":800,"station_id":"","pricing_plan_id":"free"},{"bike_id":"c65d31cd-1967-4352-a1f0-a1b7ae66d4f9","system_id":"levelo_inurba_marseille","lat":43.317075,"lon":5.377367,"is_reserved":false,"is_disabled":false,"rental_uris":{"android":"levelo://app?vid=c65d31cd-1967-4352-a1f0-a1b7ae66d4f9","ios":"levelo://app?vid=c65d31cd-1967-4352-a1f0-a1b7ae66d4f9"},"vehicle_type_id":"4","last_reported":1701511596,"current_range_meters":24400,"station_id":"ce4bgth2rcd13ifvqch0","pricing_plan_id":"free"},{"bike_id":"11ee79d0-7afd-4f50-af27-09b3d860ef8b","system_id":"levelo_inurba_marseille","lat":43.317075,"lon":5.377367,"is_reserved":false,"is_disabled":false,"rental_uris":{"android":"levelo://app?vid=11ee79d0-7afd-4f50-af27-09b3d860ef8b","ios":"levelo://app?vid=11ee79d0-7afd-4f50-af27-09b3d860ef8b"},"vehicle_type_id":"4","last_reported":1701511596,"current_range_meters":26400,"station_id":"ce4bgth2rcd13ifvqch0","pricing_plan_id":"free"},{"bike_id":"fb6fd937-527b-4585-9058-0dfdc6436ac8","system_id":"levelo_inurba_marseille","lat":43.31351,"lon":5.37909,"is_reserved":false,"is_disabled":false,"rental_uris":{"android":"levelo://app?vid=fb6fd937-527b-4585-9058-0dfdc6436ac8","ios":"levelo://app?vid=fb6fd937-527b-4585-9058-0dfdc6436ac8"},"vehicle_type_id":"4","last_reported":1701511596,"current_range_meters":22000,"station_id":"","pricing_plan_id":"free"},{"bike_id":"92d8af04-b91c-4fe9-87f2-3d7cc202feb7","system_id":"levelo_inurba_marseille","lat":43.317075,"lon":5.377367,"is_reserved":false,"is_disabled":false,"rental_uris":{"android":"levelo://app?vid=92d8af04-b91c-4fe9-87f2-3d7cc202feb7","ios":"levelo://app?vid=92d8af04-b91c-4fe9-87f2-3d7cc202feb7"},"vehicle_type_id":"4","last_reported":1701511596,"current_range_meters":26400,"station_id":"ce4bgth2rcd13ifvqch0","pricing_plan_id":"free"},{"bike_id":"194ff67d-738d-48c1-a517-c6d5095fe7b4","system_id":"levelo_inurba_marseille","lat":43.31534,"lon":5.38029,"is_reserved":false,"is_disabled":false,"rental_uris":{"android":"levelo://app?vid=194ff67d-738d-48c1-a517-c6d5095fe7b4","ios":"levelo://app?vid=194ff67d-738d-48c1-a517-c6d5095fe7b4"},"vehicle_type_id":"4","last_reported":1701511596,"current_range_meters":16800,"station_id":"ce4bhsp2rcd13ifvqi50","pricing_plan_id":"free"},{"bike_id":"2ff25ca5-3fef-4a73-93ed-394e693ea104","system_id":"levelo_inurba_marseille","lat":43.304606,"lon":5.379026,"is_reserved":false,"is_disabled":false,"rental_uris":{"android":"levelo://app?vid=2ff25ca5-3fef-4a73-93ed-394e693ea104","ios":"levelo://app?vid=2ff25ca5-3fef-4a73-93ed-394e693ea104"},"vehicle_type_id":"4","last_reported":1701511596,"current_range_meters":800,"station_id":"ce4bgup2rcd13ifvqcn0","pricing_plan_id":"free"},{"bike_id":"886d82dc-ab28-4cfa-94d9-c2b57a72a60c","system_id":"levelo_inurba_marseille","lat":43.30458,"lon":5.379,"is_reserved":false,"is_disabled":false,"rental_uris":{"android":"levelo://app?vid=886d82dc-ab28-4cfa-94d9-c2b57a72a60c","ios":"levelo://app?vid=886d82dc-ab28-4cfa-94d9-c2b57a72a60c"},"vehicle_type_id":"4","last_reported":1701511596,"current_range_meters":28000,"station_id":"ce4bgup2rcd13ifvqcn0","pricing_plan_id":"free"},{"bike_id":"ea8747fe-3ebc-4213-ab84-2dd2186a25f1","system_id":"levelo_inurba_marseille","lat":43.304606,"lon":5.379026,"is_reserved":false,"is_disabled":false,"rental_uris":{"android":"levelo://app?vid=ea8747fe-3ebc-4213-ab84-2dd2186a25f1","ios":"levelo://app?vid=ea8747fe-3ebc-4213-ab84-2dd2186a25f1"},"vehicle_type_id":"4","last_reported":1701511596,"current_range_meters":28800,"station_id":"ce4bgup2rcd13ifvqcn0","pricing_plan_id":"free"},{"bike_id":"c6d52433-ae1f-4f2e-bf9c-c4fbac3abb8d","system_id":"levelo_inurba_marseille","lat":43.304606,"lon":5.379026,"is_reserved":false,"is_disabled":false,"rental_uris":{"android":"levelo://app?vid=c6d52433-ae1f-4f2e-bf9c-c4fbac3abb8d","ios":"levelo://app?vid=c6d52433-ae1f-4f2e-bf9c-c4fbac3abb8d"},"vehicle_type_id":"4","last_reported":1701511596,"current_range_meters":15600,"station_id":"ce4bgup2rcd13ifvqcn0","pricing_plan_id":"free"},{"bike_id":"e56c4c03-d6ac-416d-8380-bbaf7fb49559","system_id":"levelo_inurba_marseille","lat":43.32483,"lon":5.36557,"is_reserved":false,"is_disabled":false,"rental_uris":{"android":"levelo://app?vid=e56c4c03-d6ac-416d-8380-bbaf7fb49559","ios":"levelo://app?vid=e56c4c03-d6ac-416d-8380-bbaf7fb49559"},"vehicle_type_id":"4","last_reported":1701511596,"current_range_meters":3200,"station_id":"ce4bhs12rcd13ifvqhvg","pricing_plan_id":"free"},{"bike_id":"bc8eac31-4b5b-48b3-aa99-5c3fdd18d82e","system_id":"levelo_inurba_marseille","lat":43.324771,"lon":5.36557,"is_reserved":false,"is_disabled":false,"rental_uris":{"android":"levelo://app?vid=bc8eac31-4b5b-48b3-aa99-5c3fdd18d82e","ios":"levelo://app?vid=bc8eac31-4b5b-48b3-aa99-5c3fdd18d82e"},"vehicle_type_id":"4","last_reported":1701511596,"current_range_meters":19200,"station_id":"ce4bhs12rcd13ifvqhvg","pricing_plan_id":"free"},{"bike_id":"51fef08f-3ba0-49c7-bc4a-5220b043f2d1","system_id":"levelo_inurba_marseille","lat":43.301429,"lon":5.37413,"is_reserved":false,"is_disabled":false,"rental_uris":{"android":"levelo://app?vid=51fef08f-3ba0-49c7-bc4a-5220b043f2d1","ios":"levelo://app?vid=51fef08f-3ba0-49c7-bc4a-5220b043f2d1"},"vehicle_type_id":"4","last_reported":1701511596,"current_range_meters":28400,"station_id":"ce4bgs92rcd13ifvqcc0","pricing_plan_id":"free"},{"bike_id":"2275aca5-3158-4c2c-8022-ca5d2714bc86","system_id":"levelo_inurba_marseille","lat":43.319997,"lon":5.381594,"is_reserved":false,"is_disabled":false,"rental_uris":{"android":"levelo://app?vid=2275aca5-3158-4c2c-8022-ca5d2714bc86","ios":"levelo://app?vid=2275aca5-3158-4c2c-8022-ca5d2714bc86"},"vehicle_type_id":"4","last_reported":1701511596,"current_range_meters":15600,"station_id":"ce4bhr12rcd13ifvqhpg","pricing_plan_id":"free"},{"bike_id":"2a181da4-301e-4dd6-8be7-111ddccf252a","system_id":"levelo_inurba_marseille","lat":43.31368,"lon":5.38496,"is_reserved":false,"is_disabled":false,"rental_uris":{"android":"levelo://app?vid=2a181da4-301e-4dd6-8be7-111ddccf252a","ios":"levelo://app?vid=2a181da4-301e-4dd6-8be7-111ddccf252a"},"vehicle_type_id":"4","last_reported":1701511596,"current_range_meters":23200,"station_id":"ce4bgt92rcd13ifvqcf0","pricing_plan_id":"free"},{"bike_id":"9fdb7f97-586d-42d2-befd-15216ba2e422","system_id":"levelo_inurba_marseille","lat":43.31183,"lon":5.38523,"is_reserved":false,"is_disabled":false,"rental_uris":{"android":"levelo://app?vid=9fdb7f97-586d-42d2-befd-15216ba2e422","ios":"levelo://app?vid=9fdb7f97-586d-42d2-befd-15216ba2e422"},"vehicle_type_id":"4","last_reported":1701511596,"current_range_meters":2000,"station_id":"","pricing_plan_id":"free"},{"bike_id":"a13cef5a-df98-4aac-86cb-a26639f70ff9","system_id":"levelo_inurba_marseille","lat":43.299724,"lon":5.371829,"is_reserved":false,"is_disabled":false,"rental_uris":{"android":"levelo://app?vid=a13cef5a-df98-4aac-86cb-a26639f70ff9","ios":"levelo://app?vid=a13cef5a-df98-4aac-86cb-a26639f70ff9"},"vehicle_type_id":"4","last_reported":1701511596,"current_range_meters":800,"station_id":"ce4bgr92rcd13ifvqc7g","pricing_plan_id":"free"},{"bike_id":"9a97449a-7de8-4666-803c-529bbb85173c","system_id":"levelo_inurba_marseille","lat":43.299724,"lon":5.371829,"is_reserved":false,"is_disabled":false,"rental_uris":{"android":"levelo://app?vid=9a97449a-7de8-4666-803c-529bbb85173c","ios":"levelo://app?vid=9a97449a-7de8-4666-803c-529bbb85173c"},"vehicle_type_id":"4","last_reported":1701511596,"current_range_meters":20400,"station_id":"ce4bgr92rcd13ifvqc7g","pricing_plan_id":"free"},{"bike_id":"748d12ab-8e09-4ecd-b2d2-cbe0ea9624f6","system_id":"levelo_inurba_marseille","lat":43.29852,"lon":5.36761,"is_reserved":false,"is_disabled":false,"rental_uris":{"android":"levelo://app?vid=748d12ab-8e09-4ecd-b2d2-cbe0ea9624f6","ios":"levelo://app?vid=748d12ab-8e09-4ecd-b2d2-cbe0ea9624f6"},"vehicle_type_id":"4","last_reported":1701511596,"current_range_meters":6800,"station_id":"","pricing_plan_id":"free"},{"bike_id":"65073be3-64d5-4947-9113-fd11101b78dd","system_id":"levelo_inurba_marseille","lat":43.322872,"lon":5.382756,"is_reserved":false,"is_disabled":false,"rental_uris":{"android":"levelo://app?vid=65073be3-64d5-4947-9113-fd11101b78dd","ios":"levelo://app?vid=65073be3-64d5-4947-9113-fd11101b78dd"},"vehicle_type_id":"4","last_reported":1701511596,"current_range_meters":9600,"station_id":"ce4bhr12rcd13ifvqhqg","pricing_plan_id":"free"},{"bike_id":"863e68e6-f678-4404-9035-1f0c001016cb","system_id":"levelo_inurba_marseille","lat":43.328298,"lon":5.366814,"is_reserved":false,"is_disabled":false,"rental_uris":{"android":"levelo://app?vid=863e68e6-f678-4404-9035-1f0c001016cb","ios":"levelo://app?vid=863e68e6-f678-4404-9035-1f0c001016cb"},"vehicle_type_id":"4","last_reported":1701511596,"current_range_meters":17600,"station_id":"ce4bhs92rcd13ifvqi0g","pricing_plan_id":"free"},{"bike_id":"3c6eacad-63e8-42f7-9988-09cf64b64dd8","system_id":"levelo_inurba_marseille","lat":43.328371,"lon":5.366909,"is_reserved":false,"is_disabled":false,"rental_uris":{"android":"levelo://app?vid=3c6eacad-63e8-42f7-9988-09cf64b64dd8","ios":"levelo://app?vid=3c6eacad-63e8-42f7-9988-09cf64b64dd8"},"vehicle_type_id":"4","last_reported":1701511596,"current_range_meters":8800,"station_id":"ce4bhs92rcd13ifvqi0g","pricing_plan_id":"free"},{"bike_id":"c0284961-478e-4ccd-b43e-321d6e4c5580","system_id":"levelo_inurba_marseille","lat":43.328371,"lon":5.366909,"is_reserved":false,"is_disabled":false,"rental_uris":{"android":"levelo://app?vid=c0284961-478e-4ccd-b43e-321d6e4c5580","ios":"levelo://app?vid=c0284961-478e-4ccd-b43e-321d6e4c5580"},"vehicle_type_id":"4","last_reported":1701511596,"current_range_meters":3600,"station_id":"ce4bhs92rcd13ifvqi0g","pricing_plan_id":"free"},{"bike_id":"7adcd94b-08f9-46ef-9183-0420f8c39d35","system_id":"levelo_inurba_marseille","lat":43.328371,"lon":5.366909,"is_reserved":false,"is_disabled":false,"rental_uris":{"android":"levelo://app?vid=7adcd94b-08f9-46ef-9183-0420f8c39d35","ios":"levelo://app?vid=7adcd94b-08f9-46ef-9183-0420f8c39d35"},"vehicle_type_id":"4","last_reported":1701511596,"current_range_meters":26400,"station_id":"ce4bhs92rcd13ifvqi0g","pricing_plan_id":"free"},{"bike_id":"5c26bdfb-7b7c-43fb-8a01-250128a1a6f8","system_id":"levelo_inurba_marseille","lat":43.32833,"lon":5.36688,"is_reserved":false,"is_disabled":false,"rental_uris":{"android":"levelo://app?vid=5c26bdfb-7b7c-43fb-8a01-250128a1a6f8","ios":"levelo://app?vid=5c26bdfb-7b7c-43fb-8a01-250128a1a6f8"},"vehicle_type_id":"4","last_reported":1701511596,"current_range_meters":21600,"station_id":"ce4bhs92rcd13ifvqi0g","pricing_plan_id":"free"},{"bike_id":"e534fd44-dab6-4fb5-9fff-46be915b05af","system_id":"levelo_inurba_marseille","lat":43.297163,"lon":5.365866,"is_reserved":false,"is_disabled":false,"rental_uris":{"android":"levelo://app?vid=e534fd44-dab6-4fb5-9fff-46be915b05af","ios":"levelo://app?vid=e534fd44-dab6-4fb5-9fff-46be915b05af"},"vehicle_type_id":"4","last_reported":1701511596,"current_range_meters":27600,"station_id":"ce4bgn12rcd13ifvqbt0","pricing_plan_id":"free"},{"bike_id":"ae3b8fe9-05d6-4234-859d-01298f6f5d09","system_id":"levelo_inurba_marseille","lat":43.29573,"lon":5.367355,"is_reserved":false,"is_disabled":false,"rental_uris":{"android":"levelo://app?vid=ae3b8fe9-05d6-4234-859d-01298f6f5d09","ios":"levelo://app?vid=ae3b8fe9-05d6-4234-859d-01298f6f5d09"},"vehicle_type_id":"4","last_reported":1701511596,"current_range_meters":8400,"station_id":"ce4bgph2rcd13ifvqc2g","pricing_plan_id":"free"},{"bike_id":"eaa0e7e7-2390-47fa-909b-7b240952cbef","system_id":"levelo_inurba_marseille","lat":43.316387,"lon":5.389627,"is_reserved":false,"is_disabled":false,"rental_uris":{"android":"levelo://app?vid=eaa0e7e7-2390-47fa-909b-7b240952cbef","ios":"levelo://app?vid=eaa0e7e7-2390-47fa-909b-7b240952cbef"},"vehicle_type_id":"4","last_reported":1701511596,"current_range_meters":17600,"station_id":"","pricing_plan_id":"free"},{"bike_id":"a7903466-e576-4964-9bfd-b1775e336901","system_id":"levelo_inurba_marseille","lat":43.296131,"lon":5.370791,"is_reserved":false,"is_disabled":false,"rental_uris":{"android":"levelo://app?vid=a7903466-e576-4964-9bfd-b1775e336901","ios":"levelo://app?vid=a7903466-e576-4964-9bfd-b1775e336901"},"vehicle_type_id":"4","last_reported":1701511596,"current_range_meters":29600,"station_id":"ce4bgnh2rcd13ifvqc0g","pricing_plan_id":"free"},{"bike_id":"bf0f0e08-f340-4452-891a-052c45c08e0e","system_id":"levelo_inurba_marseille","lat":43.29573,"lon":5.367355,"is_reserved":false,"is_disabled":false,"rental_uris":{"android":"levelo://app?vid=bf0f0e08-f340-4452-891a-052c45c08e0e","ios":"levelo://app?vid=bf0f0e08-f340-4452-891a-052c45c08e0e"},"vehicle_type_id":"4","last_reported":1701511596,"current_range_meters":20800,"station_id":"ce4bgph2rcd13ifvqc2g","pricing_plan_id":"free"},{"bike_id":"252cd08a-a9d3-431d-bb4d-3f1029a0d7a9","system_id":"levelo_inurba_marseille","lat":43.296921,"lon":5.376579,"is_reserved":false,"is_disabled":false,"rental_uris":{"android":"levelo://app?vid=252cd08a-a9d3-431d-bb4d-3f1029a0d7a9","ios":"levelo://app?vid=252cd08a-a9d3-431d-bb4d-3f1029a0d7a9"},"vehicle_type_id":"4","last_reported":1701511596,"current_range_meters":14000,"station_id":"ce4bgkh2rcd13ifvqbl0","pricing_plan_id":"free"},{"bike_id":"7cf749fd-85ba-409d-a34f-db74dc2e1316","system_id":"levelo_inurba_marseille","lat":43.296921,"lon":5.376579,"is_reserved":false,"is_disabled":false,"rental_uris":{"android":"levelo://app?vid=7cf749fd-85ba-409d-a34f-db74dc2e1316","ios":"levelo://app?vid=7cf749fd-85ba-409d-a34f-db74dc2e1316"},"vehicle_type_id":"4","last_reported":1701511596,"current_range_meters":20400,"station_id":"ce4bgkh2rcd13ifvqbl0","pricing_plan_id":"free"},{"bike_id":"20750967-dbe2-4832-8f1e-eeab7a5d74d9","system_id":"levelo_inurba_marseille","lat":43.317557,"lon":5.390173,"is_reserved":false,"is_disabled":false,"rental_uris":{"android":"levelo://app?vid=20750967-dbe2-4832-8f1e-eeab7a5d74d9","ios":"levelo://app?vid=20750967-dbe2-4832-8f1e-eeab7a5d74d9"},"vehicle_type_id":"4","last_reported":1701511596,"current_range_meters":22400,"station_id":"ce4bhqp2rcd13ifvqhng","pricing_plan_id":"free"},{"bike_id":"3b706827-0ec9-4bd8-b97c-2ad7dd731bb5","system_id":"levelo_inurba_marseille","lat":43.298037,"lon":5.381066,"is_reserved":false,"is_disabled":false,"rental_uris":{"android":"levelo://app?vid=3b706827-0ec9-4bd8-b97c-2ad7dd731bb5","ios":"levelo://app?vid=3b706827-0ec9-4bd8-b97c-2ad7dd731bb5"},"vehicle_type_id":"4","last_reported":1701511596,"current_range_meters":23600,"station_id":"ce4bgip2rcd13ifvqbb0","pricing_plan_id":"free"},{"bike_id":"c5e04668-7e19-408d-908e-6795c1060628","system_id":"levelo_inurba_marseille","lat":43.29567,"lon":5.37514,"is_reserved":false,"is_disabled":false,"rental_uris":{"android":"levelo://app?vid=c5e04668-7e19-408d-908e-6795c1060628","ios":"levelo://app?vid=c5e04668-7e19-408d-908e-6795c1060628"},"vehicle_type_id":"4","last_reported":1701511596,"current_range_meters":27600,"station_id":"ce4bgh92rcd13ifvqb50","pricing_plan_id":"free"},{"bike_id":"be994b74-d1a0-49ed-af80-282d774f97ea","system_id":"levelo_inurba_marseille","lat":43.304278,"lon":5.388868,"is_reserved":false,"is_disabled":false,"rental_uris":{"android":"levelo://app?vid=be994b74-d1a0-49ed-af80-282d774f97ea","ios":"levelo://app?vid=be994b74-d1a0-49ed-af80-282d774f97ea"},"vehicle_type_id":"4","last_reported":1701511596,"current_range_meters":26000,"station_id":"ce4bgk12rcd13ifvqbi0","pricing_plan_id":"free"},{"bike_id":"13ca97e5-82b5-4e06-8d78-e9793b7e594e","system_id":"levelo_inurba_marseille","lat":43.297142,"lon":5.379705,"is_reserved":false,"is_disabled":false,"rental_uris":{"android":"levelo://app?vid=13ca97e5-82b5-4e06-8d78-e9793b7e594e","ios":"levelo://app?vid=13ca97e5-82b5-4e06-8d78-e9793b7e594e"},"vehicle_type_id":"4","last_reported":1701511596,"current_range_meters":19600,"station_id":"","pricing_plan_id":"free"},{"bike_id":"7e848431-e295-4e64-b46d-02e764e9e221","system_id":"levelo_inurba_marseille","lat":43.296263,"lon":5.377094,"is_reserved":false,"is_disabled":false,"rental_uris":{"android":"levelo://app?vid=7e848431-e295-4e64-b46d-02e764e9e221","ios":"levelo://app?vid=7e848431-e295-4e64-b46d-02e764e9e221"},"vehicle_type_id":"4","last_reported":1701511596,"current_range_meters":28400,"station_id":"ce4bgi92rcd13ifvqb90","pricing_plan_id":"free"},{"bike_id":"fb951e72-b857-4f64-ae4b-b8a2b85809bc","system_id":"levelo_inurba_marseille","lat":43.296263,"lon":5.377094,"is_reserved":false,"is_disabled":false,"rental_uris":{"android":"levelo://app?vid=fb951e72-b857-4f64-ae4b-b8a2b85809bc","ios":"levelo://app?vid=fb951e72-b857-4f64-ae4b-b8a2b85809bc"},"vehicle_type_id":"4","last_reported":1701511596,"current_range_meters":20400,"station_id":"ce4bgi92rcd13ifvqb90","pricing_plan_id":"free"},{"bike_id":"47f1c221-62cc-423e-ac3e-e7b48613a6dc","system_id":"levelo_inurba_marseille","lat":43.299707,"lon":5.384859,"is_reserved":false,"is_disabled":false,"rental_uris":{"android":"levelo://app?vid=47f1c221-62cc-423e-ac3e-e7b48613a6dc","ios":"levelo://app?vid=47f1c221-62cc-423e-ac3e-e7b48613a6dc"},"vehicle_type_id":"4","last_reported":1701511596,"current_range_meters":24800,"station_id":"ce4bgj92rcd13ifvqbd0","pricing_plan_id":"free"},{"bike_id":"eaeabf79-8564-4755-bf5f-eff2bcd6c36a","system_id":"levelo_inurba_marseille","lat":43.29601,"lon":5.381084,"is_reserved":false,"is_disabled":false,"rental_uris":{"android":"levelo://app?vid=eaeabf79-8564-4755-bf5f-eff2bcd6c36a","ios":"levelo://app?vid=eaeabf79-8564-4755-bf5f-eff2bcd6c36a"},"vehicle_type_id":"4","last_reported":1701511596,"current_range_meters":20800,"station_id":"ce4bgl12rcd13ifvqbo0","pricing_plan_id":"free"},{"bike_id":"63092bc2-812e-4c19-9698-cfcfddcc3d62","system_id":"levelo_inurba_marseille","lat":43.296076,"lon":5.381066,"is_reserved":false,"is_disabled":false,"rental_uris":{"android":"levelo://app?vid=63092bc2-812e-4c19-9698-cfcfddcc3d62","ios":"levelo://app?vid=63092bc2-812e-4c19-9698-cfcfddcc3d62"},"vehicle_type_id":"4","last_reported":1701511596,"current_range_meters":30400,"station_id":"","pricing_plan_id":"free"},{"bike_id":"dd6cb1e5-a044-4904-8e25-9d403524d9aa","system_id":"levelo_inurba_marseille","lat":43.29601,"lon":5.381084,"is_reserved":false,"is_disabled":false,"rental_uris":{"android":"levelo://app?vid=dd6cb1e5-a044-4904-8e25-9d403524d9aa","ios":"levelo://app?vid=dd6cb1e5-a044-4904-8e25-9d403524d9aa"},"vehicle_type_id":"4","last_reported":1701511596,"current_range_meters":23600,"station_id":"ce4bgl12rcd13ifvqbo0","pricing_plan_id":"free"},{"bike_id":"4303d3ae-fb48-47c5-822e-8aad0999d6e7","system_id":"levelo_inurba_marseille","lat":43.293259,"lon":5.371586,"is_reserved":false,"is_disabled":false,"rental_uris":{"android":"levelo://app?vid=4303d3ae-fb48-47c5-822e-8aad0999d6e7","ios":"levelo://app?vid=4303d3ae-fb48-47c5-822e-8aad0999d6e7"},"vehicle_type_id":"4","last_reported":1701511596,"current_range_meters":1200,"station_id":"ce4bgh92rcd13ifvqb40","pricing_plan_id":"free"},{"bike_id":"ca64b7df-6c2a-46a4-b9ac-06281549966b","system_id":"levelo_inurba_marseille","lat":43.293259,"lon":5.371586,"is_reserved":false,"is_disabled":false,"rental_uris":{"android":"levelo://app?vid=ca64b7df-6c2a-46a4-b9ac-06281549966b","ios":"levelo://app?vid=ca64b7df-6c2a-46a4-b9ac-06281549966b"},"vehicle_type_id":"4","last_reported":1701511596,"current_range_meters":22800,"station_id":"ce4bgh92rcd13ifvqb40","pricing_plan_id":"free"},{"bike_id":"460c72c6-c4f9-4e9e-87b8-44f389b236f7","system_id":"levelo_inurba_marseille","lat":43.293824,"lon":5.378559,"is_reserved":false,"is_disabled":false,"rental_uris":{"android":"levelo://app?vid=460c72c6-c4f9-4e9e-87b8-44f389b236f7","ios":"levelo://app?vid=460c72c6-c4f9-4e9e-87b8-44f389b236f7"},"vehicle_type_id":"4","last_reported":1701511596,"current_range_meters":30000,"station_id":"ce4bgjh2rcd13ifvqbf0","pricing_plan_id":"free"},{"bike_id":"b4439dd6-11ae-4845-8dc3-e4eb94a13a97","system_id":"levelo_inurba_marseille","lat":43.292311,"lon":5.360731,"is_reserved":false,"is_disabled":false,"rental_uris":{"android":"levelo://app?vid=b4439dd6-11ae-4845-8dc3-e4eb94a13a97","ios":"levelo://app?vid=b4439dd6-11ae-4845-8dc3-e4eb94a13a97"},"vehicle_type_id":"4","last_reported":1701511596,"current_range_meters":31200,"station_id":"ce4bhbh2rcd13ifvqeqg","pricing_plan_id":"free"},{"bike_id":"87282010-caf5-46f2-9056-258c815ae16d","system_id":"levelo_inurba_marseille","lat":43.292311,"lon":5.360731,"is_reserved":false,"is_disabled":false,"rental_uris":{"android":"levelo://app?vid=87282010-caf5-46f2-9056-258c815ae16d","ios":"levelo://app?vid=87282010-caf5-46f2-9056-258c815ae16d"},"vehicle_type_id":"4","last_reported":1701511596,"current_range_meters":7600,"station_id":"ce4bhbh2rcd13ifvqeqg","pricing_plan_id":"free"},{"bike_id":"e6a0c808-54a1-4e44-8bd1-42d583ca9bda","system_id":"levelo_inurba_marseille","lat":43.291671,"lon":5.371575,"is_reserved":false,"is_disabled":false,"rental_uris":{"android":"levelo://app?vid=e6a0c808-54a1-4e44-8bd1-42d583ca9bda","ios":"levelo://app?vid=e6a0c808-54a1-4e44-8bd1-42d583ca9bda"},"vehicle_type_id":"4","last_reported":1701511596,"current_range_meters":22800,"station_id":"ce4bha92rcd13ifvqeh0","pricing_plan_id":"free"},{"bike_id":"0a0ba4a1-979c-44ca-ae22-6d249922ea24","system_id":"levelo_inurba_marseille","lat":43.29872,"lon":5.38908,"is_reserved":false,"is_disabled":false,"rental_uris":{"android":"levelo://app?vid=0a0ba4a1-979c-44ca-ae22-6d249922ea24","ios":"levelo://app?vid=0a0ba4a1-979c-44ca-ae22-6d249922ea24"},"vehicle_type_id":"4","last_reported":1701511596,"current_range_meters":10000,"station_id":"ce4bh392rcd13ifvqdl0","pricing_plan_id":"free"},{"bike_id":"e0ba2197-c4de-4a13-8a86-19786f88ca6c","system_id":"levelo_inurba_marseille","lat":43.291671,"lon":5.371575,"is_reserved":false,"is_disabled":false,"rental_uris":{"android":"levelo://app?vid=e0ba2197-c4de-4a13-8a86-19786f88ca6c","ios":"levelo://app?vid=e0ba2197-c4de-4a13-8a86-19786f88ca6c"},"vehicle_type_id":"4","last_reported":1701511596,"current_range_meters":9600,"station_id":"ce4bha92rcd13ifvqeh0","pricing_plan_id":"free"},{"bike_id":"2842af82-a673-49e8-9234-6c524dff2971","system_id":"levelo_inurba_marseille","lat":43.2916,"lon":5.3717,"is_reserved":false,"is_disabled":false,"rental_uris":{"android":"levelo://app?vid=2842af82-a673-49e8-9234-6c524dff2971","ios":"levelo://app?vid=2842af82-a673-49e8-9234-6c524dff2971"},"vehicle_type_id":"4","last_reported":1701511596,"current_range_meters":29200,"station_id":"ce4bha92rcd13ifvqeh0","pricing_plan_id":"free"},{"bike_id":"db82567e-71ae-4e2e-9558-bf9cd49ee168","system_id":"levelo_inurba_marseille","lat":43.291671,"lon":5.371575,"is_reserved":false,"is_disabled":false,"rental_uris":{"android":"levelo://app?vid=db82567e-71ae-4e2e-9558-bf9cd49ee168","ios":"levelo://app?vid=db82567e-71ae-4e2e-9558-bf9cd49ee168"},"vehicle_type_id":"4","last_reported":1701511596,"current_range_meters":27600,"station_id":"ce4bha92rcd13ifvqeh0","pricing_plan_id":"free"},{"bike_id":"d423c366-5660-402d-b423-950252dfeb0f","system_id":"levelo_inurba_marseille","lat":43.290779,"lon":5.371482,"is_reserved":false,"is_disabled":false,"rental_uris":{"android":"levelo://app?vid=d423c366-5660-402d-b423-950252dfeb0f","ios":"levelo://app?vid=d423c366-5660-402d-b423-950252dfeb0f"},"vehicle_type_id":"4","last_reported":1701511596,"current_range_meters":14800,"station_id":"ce4bh5p2rcd13ifvqe4g","pricing_plan_id":"free"},{"bike_id":"d5fe1c47-a03d-44c2-a544-4ed4b5a08c62","system_id":"levelo_inurba_marseille","lat":43.290631,"lon":5.359244,"is_reserved":false,"is_disabled":false,"rental_uris":{"android":"levelo://app?vid=d5fe1c47-a03d-44c2-a544-4ed4b5a08c62","ios":"levelo://app?vid=d5fe1c47-a03d-44c2-a544-4ed4b5a08c62"},"vehicle_type_id":"4","last_reported":1701511596,"current_range_meters":15200,"station_id":"ce4bha92rcd13ifvqeg0","pricing_plan_id":"free"},{"bike_id":"99574e99-e4a2-43ef-ac9d-754e0190cf21","system_id":"levelo_inurba_marseille","lat":43.28946,"lon":5.36401,"is_reserved":false,"is_disabled":false,"rental_uris":{"android":"levelo://app?vid=99574e99-e4a2-43ef-ac9d-754e0190cf21","ios":"levelo://app?vid=99574e99-e4a2-43ef-ac9d-754e0190cf21"},"vehicle_type_id":"4","last_reported":1701511596,"current_range_meters":22000,"station_id":"ce4bhc92rcd13ifvqetg","pricing_plan_id":"free"},{"bike_id":"c58b39fe-f050-44d5-bbe7-4abcb7249795","system_id":"levelo_inurba_marseille","lat":43.291541,"lon":5.380542,"is_reserved":false,"is_disabled":false,"rental_uris":{"android":"levelo://app?vid=c58b39fe-f050-44d5-bbe7-4abcb7249795","ios":"levelo://app?vid=c58b39fe-f050-44d5-bbe7-4abcb7249795"},"vehicle_type_id":"4","last_reported":1701511596,"current_range_meters":15200,"station_id":"ce4bhn92rcd13ifvqgrg","pricing_plan_id":"free"},{"bike_id":"0756de63-2751-442f-8f5e-256f9c286003","system_id":"levelo_inurba_marseille","lat":43.304296,"lon":5.397513,"is_reserved":false,"is_disabled":false,"rental_uris":{"android":"levelo://app?vid=0756de63-2751-442f-8f5e-256f9c286003","ios":"levelo://app?vid=0756de63-2751-442f-8f5e-256f9c286003"},"vehicle_type_id":"4","last_reported":1701511596,"current_range_meters":28000,"station_id":"ce4bh092rcd13ifvqd20","pricing_plan_id":"free"},{"bike_id":"75a250fb-5c12-4611-a67f-092bd7f8b073","system_id":"levelo_inurba_marseille","lat":43.290104,"lon":5.356111,"is_reserved":false,"is_disabled":false,"rental_uris":{"android":"levelo://app?vid=75a250fb-5c12-4611-a67f-092bd7f8b073","ios":"levelo://app?vid=75a250fb-5c12-4611-a67f-092bd7f8b073"},"vehicle_type_id":"4","last_reported":1701511596,"current_range_meters":31200,"station_id":"ce4bhb92rcd13ifvqen0","pricing_plan_id":"free"},{"bike_id":"a6468dd2-6632-46da-be39-0cc8552c84c7","system_id":"levelo_inurba_marseille","lat":43.330442,"lon":5.389148,"is_reserved":false,"is_disabled":false,"rental_uris":{"android":"levelo://app?vid=a6468dd2-6632-46da-be39-0cc8552c84c7","ios":"levelo://app?vid=a6468dd2-6632-46da-be39-0cc8552c84c7"},"vehicle_type_id":"4","last_reported":1701511596,"current_range_meters":29200,"station_id":"ce4bhr92rcd13ifvqhrg","pricing_plan_id":"free"},{"bike_id":"987dcd6d-de64-4388-bebe-19f7a4414e8f","system_id":"levelo_inurba_marseille","lat":43.33041,"lon":5.38923,"is_reserved":false,"is_disabled":false,"rental_uris":{"android":"levelo://app?vid=987dcd6d-de64-4388-bebe-19f7a4414e8f","ios":"levelo://app?vid=987dcd6d-de64-4388-bebe-19f7a4414e8f"},"vehicle_type_id":"4","last_reported":1701511596,"current_range_meters":6400,"station_id":"ce4bhr92rcd13ifvqhrg","pricing_plan_id":"free"},{"bike_id":"b38135b0-bb14-4c25-bf29-b49d406cc922","system_id":"levelo_inurba_marseille","lat":43.33043,"lon":5.38921,"is_reserved":false,"is_disabled":false,"rental_uris":{"android":"levelo://app?vid=b38135b0-bb14-4c25-bf29-b49d406cc922","ios":"levelo://app?vid=b38135b0-bb14-4c25-bf29-b49d406cc922"},"vehicle_type_id":"4","last_reported":1701511596,"current_range_meters":1200,"station_id":"ce4bhr92rcd13ifvqhrg","pricing_plan_id":"free"},{"bike_id":"7a6762eb-d7bc-4214-b172-ae44b4a4c395","system_id":"levelo_inurba_marseille","lat":43.290103,"lon":5.356114,"is_reserved":false,"is_disabled":false,"rental_uris":{"android":"levelo://app?vid=7a6762eb-d7bc-4214-b172-ae44b4a4c395","ios":"levelo://app?vid=7a6762eb-d7bc-4214-b172-ae44b4a4c395"},"vehicle_type_id":"4","last_reported":1701511596,"current_range_meters":31600,"station_id":"ce4bhb92rcd13ifvqen0","pricing_plan_id":"free"},{"bike_id":"b862b610-986c-4799-88ce-090b19db6a0a","system_id":"levelo_inurba_marseille","lat":43.289741,"lon":5.378306,"is_reserved":false,"is_disabled":false,"rental_uris":{"android":"levelo://app?vid=b862b610-986c-4799-88ce-090b19db6a0a","ios":"levelo://app?vid=b862b610-986c-4799-88ce-090b19db6a0a"},"vehicle_type_id":"4","last_reported":1701511596,"current_range_meters":25200,"station_id":"ce4bh9p2rcd13ifvqed0","pricing_plan_id":"free"},{"bike_id":"5c282972-64a0-4fd1-8fdc-6a38e620fb8a","system_id":"levelo_inurba_marseille","lat":43.312609,"lon":5.401662,"is_reserved":false,"is_disabled":false,"rental_uris":{"android":"levelo://app?vid=5c282972-64a0-4fd1-8fdc-6a38e620fb8a","ios":"levelo://app?vid=5c282972-64a0-4fd1-8fdc-6a38e620fb8a"},"vehicle_type_id":"4","last_reported":1701511596,"current_range_meters":21600,"station_id":"ce4bh092rcd13ifvqd30","pricing_plan_id":"free"},{"bike_id":"dd06d97c-c441-4bca-9e32-15fd0ebed003","system_id":"levelo_inurba_marseille","lat":43.309371,"lon":5.401449,"is_reserved":false,"is_disabled":false,"rental_uris":{"android":"levelo://app?vid=dd06d97c-c441-4bca-9e32-15fd0ebed003","ios":"levelo://app?vid=dd06d97c-c441-4bca-9e32-15fd0ebed003"},"vehicle_type_id":"4","last_reported":1701511596,"current_range_meters":6000,"station_id":"ce4bgvp2rcd13ifvqct0","pricing_plan_id":"free"},{"bike_id":"420e463a-bc09-4833-913c-7f60e0dabbb1","system_id":"levelo_inurba_marseille","lat":43.306412,"lon":5.401035,"is_reserved":false,"is_disabled":false,"rental_uris":{"android":"levelo://app?vid=420e463a-bc09-4833-913c-7f60e0dabbb1","ios":"levelo://app?vid=420e463a-bc09-4833-913c-7f60e0dabbb1"},"vehicle_type_id":"4","last_reported":1701511596,"current_range_meters":26400,"station_id":"ce4bh112rcd13ifvqda0","pricing_plan_id":"free"},{"bike_id":"475b9bb8-5294-42be-84d0-831304032cbf","system_id":"levelo_inurba_marseille","lat":43.306412,"lon":5.401035,"is_reserved":false,"is_disabled":false,"rental_uris":{"android":"levelo://app?vid=475b9bb8-5294-42be-84d0-831304032cbf","ios":"levelo://app?vid=475b9bb8-5294-42be-84d0-831304032cbf"},"vehicle_type_id":"4","last_reported":1701511596,"current_range_meters":10000,"station_id":"ce4bh112rcd13ifvqda0","pricing_plan_id":"free"},{"bike_id":"8449e256-9052-4c1a-ac34-5b263eb8b551","system_id":"levelo_inurba_marseille","lat":43.301117,"lon":5.398795,"is_reserved":false,"is_disabled":false,"rental_uris":{"android":"levelo://app?vid=8449e256-9052-4c1a-ac34-5b263eb8b551","ios":"levelo://app?vid=8449e256-9052-4c1a-ac34-5b263eb8b551"},"vehicle_type_id":"4","last_reported":1701511596,"current_range_meters":28800,"station_id":"ce4bh0h2rcd13ifvqd40","pricing_plan_id":"free"},{"bike_id":"ea0c8089-16fd-47a0-b4c3-1a5cda8b4b0b","system_id":"levelo_inurba_marseille","lat":43.289307,"lon":5.38406,"is_reserved":false,"is_disabled":false,"rental_uris":{"android":"levelo://app?vid=ea0c8089-16fd-47a0-b4c3-1a5cda8b4b0b","ios":"levelo://app?vid=ea0c8089-16fd-47a0-b4c3-1a5cda8b4b0b"},"vehicle_type_id":"4","last_reported":1701511596,"current_range_meters":3600,"station_id":"ce4bh612rcd13ifvqe6g","pricing_plan_id":"free"},{"bike_id":"2e4a6fef-d910-42b7-8cd6-deb380afab64","system_id":"levelo_inurba_marseille","lat":43.289307,"lon":5.38406,"is_reserved":false,"is_disabled":false,"rental_uris":{"android":"levelo://app?vid=2e4a6fef-d910-42b7-8cd6-deb380afab64","ios":"levelo://app?vid=2e4a6fef-d910-42b7-8cd6-deb380afab64"},"vehicle_type_id":"4","last_reported":1701511596,"current_range_meters":18400,"station_id":"ce4bh612rcd13ifvqe6g","pricing_plan_id":"free"},{"bike_id":"126ce498-ae14-4d68-8f87-20a96c89964f","system_id":"levelo_inurba_marseille","lat":43.290345,"lon":5.38646,"is_reserved":false,"is_disabled":false,"rental_uris":{"android":"levelo://app?vid=126ce498-ae14-4d68-8f87-20a96c89964f","ios":"levelo://app?vid=126ce498-ae14-4d68-8f87-20a96c89964f"},"vehicle_type_id":"4","last_reported":1701511596,"current_range_meters":17200,"station_id":"ce4bh4p2rcd13ifvqe0g","pricing_plan_id":"free"},{"bike_id":"5ffc400f-750d-4d9b-b5a6-2cfaafcfe2c6","system_id":"levelo_inurba_marseille","lat":43.286039,"lon":5.370679,"is_reserved":false,"is_disabled":false,"rental_uris":{"android":"levelo://app?vid=5ffc400f-750d-4d9b-b5a6-2cfaafcfe2c6","ios":"levelo://app?vid=5ffc400f-750d-4d9b-b5a6-2cfaafcfe2c6"},"vehicle_type_id":"4","last_reported":1701511596,"current_range_meters":28400,"station_id":"ce4bht12rcd13ifvqi60","pricing_plan_id":"free"},{"bike_id":"40b013a4-8905-48ea-afb9-3ba70bd67899","system_id":"levelo_inurba_marseille","lat":43.28607,"lon":5.3707,"is_reserved":false,"is_disabled":false,"rental_uris":{"android":"levelo://app?vid=40b013a4-8905-48ea-afb9-3ba70bd67899","ios":"levelo://app?vid=40b013a4-8905-48ea-afb9-3ba70bd67899"},"vehicle_type_id":"4","last_reported":1701511596,"current_range_meters":4800,"station_id":"ce4bht12rcd13ifvqi60","pricing_plan_id":"free"},{"bike_id":"b8d094eb-a1e1-4b3b-ac7e-e2cbe4c9297f","system_id":"levelo_inurba_marseille","lat":43.316517,"lon":5.404375,"is_reserved":false,"is_disabled":false,"rental_uris":{"android":"levelo://app?vid=b8d094eb-a1e1-4b3b-ac7e-e2cbe4c9297f","ios":"levelo://app?vid=b8d094eb-a1e1-4b3b-ac7e-e2cbe4c9297f"},"vehicle_type_id":"4","last_reported":1701511596,"current_range_meters":14000,"station_id":"ce4bh012rcd13ifvqd00","pricing_plan_id":"free"},{"bike_id":"45b587a0-dc74-4019-8317-30ab3722618e","system_id":"levelo_inurba_marseille","lat":43.284538,"lon":5.358657,"is_reserved":false,"is_disabled":false,"rental_uris":{"android":"levelo://app?vid=45b587a0-dc74-4019-8317-30ab3722618e","ios":"levelo://app?vid=45b587a0-dc74-4019-8317-30ab3722618e"},"vehicle_type_id":"4","last_reported":1701511596,"current_range_meters":24800,"station_id":"ce4bhah2rcd13ifvqei0","pricing_plan_id":"free"},{"bike_id":"e5ff3180-42fc-444d-a2bf-0a71e68cb830","system_id":"levelo_inurba_marseille","lat":43.285848,"lon":5.350787,"is_reserved":false,"is_disabled":false,"rental_uris":{"android":"levelo://app?vid=e5ff3180-42fc-444d-a2bf-0a71e68cb830","ios":"levelo://app?vid=e5ff3180-42fc-444d-a2bf-0a71e68cb830"},"vehicle_type_id":"4","last_reported":1701511596,"current_range_meters":15200,"station_id":"ce4bhch2rcd13ifvqeug","pricing_plan_id":"free"},{"bike_id":"84e5d3cf-9b78-4311-89a4-61c6fbb9a121","system_id":"levelo_inurba_marseille","lat":43.285848,"lon":5.350787,"is_reserved":false,"is_disabled":false,"rental_uris":{"android":"levelo://app?vid=84e5d3cf-9b78-4311-89a4-61c6fbb9a121","ios":"levelo://app?vid=84e5d3cf-9b78-4311-89a4-61c6fbb9a121"},"vehicle_type_id":"4","last_reported":1701511596,"current_range_meters":18400,"station_id":"ce4bhch2rcd13ifvqeug","pricing_plan_id":"free"},{"bike_id":"0d5d7ab8-9ae7-432f-9189-bf46aad59761","system_id":"levelo_inurba_marseille","lat":43.319179,"lon":5.407725,"is_reserved":false,"is_disabled":false,"rental_uris":{"android":"levelo://app?vid=0d5d7ab8-9ae7-432f-9189-bf46aad59761","ios":"levelo://app?vid=0d5d7ab8-9ae7-432f-9189-bf46aad59761"},"vehicle_type_id":"4","last_reported":1701511596,"current_range_meters":31200,"station_id":"ce4bhq12rcd13ifvqhig","pricing_plan_id":"free"},{"bike_id":"f99fc4d8-709b-4cee-a32c-2cdd6f1e8b1e","system_id":"levelo_inurba_marseille","lat":43.337168,"lon":5.391825,"is_reserved":false,"is_disabled":false,"rental_uris":{"android":"levelo://app?vid=f99fc4d8-709b-4cee-a32c-2cdd6f1e8b1e","ios":"levelo://app?vid=f99fc4d8-709b-4cee-a32c-2cdd6f1e8b1e"},"vehicle_type_id":"4","last_reported":1701511596,"current_range_meters":26400,"station_id":"ce4bhr92rcd13ifvqhsg","pricing_plan_id":"free"},{"bike_id":"4714f7cd-5ff4-41d0-870b-3e9261538b58","system_id":"levelo_inurba_marseille","lat":43.323464,"lon":5.406297,"is_reserved":false,"is_disabled":false,"rental_uris":{"android":"levelo://app?vid=4714f7cd-5ff4-41d0-870b-3e9261538b58","ios":"levelo://app?vid=4714f7cd-5ff4-41d0-870b-3e9261538b58"},"vehicle_type_id":"4","last_reported":1701511596,"current_range_meters":27600,"station_id":"ce4bhq92rcd13ifvqhjg","pricing_plan_id":"free"},{"bike_id":"7f458fab-3a0c-4609-8310-733ff5bbba57","system_id":"levelo_inurba_marseille","lat":43.33717,"lon":5.391857,"is_reserved":false,"is_disabled":false,"rental_uris":{"android":"levelo://app?vid=7f458fab-3a0c-4609-8310-733ff5bbba57","ios":"levelo://app?vid=7f458fab-3a0c-4609-8310-733ff5bbba57"},"vehicle_type_id":"4","last_reported":1701511596,"current_range_meters":30000,"station_id":"ce4bhr92rcd13ifvqhsg","pricing_plan_id":"free"},{"bike_id":"4092b413-a8f0-49fd-8cc3-69bf3f509a40","system_id":"levelo_inurba_marseille","lat":43.32339,"lon":5.40634,"is_reserved":false,"is_disabled":false,"rental_uris":{"android":"levelo://app?vid=4092b413-a8f0-49fd-8cc3-69bf3f509a40","ios":"levelo://app?vid=4092b413-a8f0-49fd-8cc3-69bf3f509a40"},"vehicle_type_id":"4","last_reported":1701511596,"current_range_meters":10800,"station_id":"ce4bhq92rcd13ifvqhjg","pricing_plan_id":"free"},{"bike_id":"5d41343f-06fb-4495-9c3c-d1cb8e7d7bbc","system_id":"levelo_inurba_marseille","lat":43.284787,"lon":5.384116,"is_reserved":false,"is_disabled":false,"rental_uris":{"android":"levelo://app?vid=5d41343f-06fb-4495-9c3c-d1cb8e7d7bbc","ios":"levelo://app?vid=5d41343f-06fb-4495-9c3c-d1cb8e7d7bbc"},"vehicle_type_id":"4","last_reported":1701511596,"current_range_meters":26400,"station_id":"ce4bh512rcd13ifvqe3g","pricing_plan_id":"free"},{"bike_id":"1720395e-40ea-4c2a-9496-155072addb1b","system_id":"levelo_inurba_marseille","lat":43.284787,"lon":5.384116,"is_reserved":false,"is_disabled":false,"rental_uris":{"android":"levelo://app?vid=1720395e-40ea-4c2a-9496-155072addb1b","ios":"levelo://app?vid=1720395e-40ea-4c2a-9496-155072addb1b"},"vehicle_type_id":"4","last_reported":1701511596,"current_range_meters":12400,"station_id":"ce4bh512rcd13ifvqe3g","pricing_plan_id":"free"},{"bike_id":"bf3c028d-ed58-45c0-a21e-929be32ec5b6","system_id":"levelo_inurba_marseille","lat":43.292724,"lon":5.401131,"is_reserved":false,"is_disabled":false,"rental_uris":{"android":"levelo://app?vid=bf3c028d-ed58-45c0-a21e-929be32ec5b6","ios":"levelo://app?vid=bf3c028d-ed58-45c0-a21e-929be32ec5b6"},"vehicle_type_id":"4","last_reported":1701511596,"current_range_meters":24000,"station_id":"ce4bh312rcd13ifvqdk0","pricing_plan_id":"free"},{"bike_id":"810da89c-313f-4537-9c62-e8eda877354d","system_id":"levelo_inurba_marseille","lat":43.28039,"lon":5.369297,"is_reserved":false,"is_disabled":false,"rental_uris":{"android":"levelo://app?vid=810da89c-313f-4537-9c62-e8eda877354d","ios":"levelo://app?vid=810da89c-313f-4537-9c62-e8eda877354d"},"vehicle_type_id":"4","last_reported":1701511596,"current_range_meters":24000,"station_id":"ce4bha12rcd13ifvqef0","pricing_plan_id":"free"},{"bike_id":"813446d6-8006-4a95-bc9a-32762eb7f1da","system_id":"levelo_inurba_marseille","lat":43.283502,"lon":5.386471,"is_reserved":false,"is_disabled":false,"rental_uris":{"android":"levelo://app?vid=813446d6-8006-4a95-bc9a-32762eb7f1da","ios":"levelo://app?vid=813446d6-8006-4a95-bc9a-32762eb7f1da"},"vehicle_type_id":"4","last_reported":1701511596,"current_range_meters":20400,"station_id":"ce4bh492rcd13ifvqdvg","pricing_plan_id":"free"},{"bike_id":"57cdbfce-df63-4771-a874-a093578ca0c6","system_id":"levelo_inurba_marseille","lat":43.290412,"lon":5.399633,"is_reserved":false,"is_disabled":false,"rental_uris":{"android":"levelo://app?vid=57cdbfce-df63-4771-a874-a093578ca0c6","ios":"levelo://app?vid=57cdbfce-df63-4771-a874-a093578ca0c6"},"vehicle_type_id":"4","last_reported":1701511596,"current_range_meters":16000,"station_id":"ce4bh392rcd13ifvqdm0","pricing_plan_id":"free"},{"bike_id":"59db8bfb-d01a-4bdc-ac0c-2cdd6af9656e","system_id":"levelo_inurba_marseille","lat":43.290412,"lon":5.399633,"is_reserved":false,"is_disabled":false,"rental_uris":{"android":"levelo://app?vid=59db8bfb-d01a-4bdc-ac0c-2cdd6af9656e","ios":"levelo://app?vid=59db8bfb-d01a-4bdc-ac0c-2cdd6af9656e"},"vehicle_type_id":"4","last_reported":1701511596,"current_range_meters":17200,"station_id":"ce4bh392rcd13ifvqdm0","pricing_plan_id":"free"},{"bike_id":"8d1cdbae-ac40-4221-b242-9565466a2f0b","system_id":"levelo_inurba_marseille","lat":43.29041,"lon":5.399634,"is_reserved":false,"is_disabled":false,"rental_uris":{"android":"levelo://app?vid=8d1cdbae-ac40-4221-b242-9565466a2f0b","ios":"levelo://app?vid=8d1cdbae-ac40-4221-b242-9565466a2f0b"},"vehicle_type_id":"4","last_reported":1701511596,"current_range_meters":30000,"station_id":"ce4bh392rcd13ifvqdm0","pricing_plan_id":"free"},{"bike_id":"65ad266f-f3b1-43f7-8c56-e824101e19f1","system_id":"levelo_inurba_marseille","lat":43.28573,"lon":5.394992,"is_reserved":false,"is_disabled":false,"rental_uris":{"android":"levelo://app?vid=65ad266f-f3b1-43f7-8c56-e824101e19f1","ios":"levelo://app?vid=65ad266f-f3b1-43f7-8c56-e824101e19f1"},"vehicle_type_id":"4","last_reported":1701511596,"current_range_meters":5600,"station_id":"ce4bh292rcd13ifvqdg0","pricing_plan_id":"free"},{"bike_id":"d6a71aca-fdd4-43c6-830b-d6ba2981a18f","system_id":"levelo_inurba_marseille","lat":43.287154,"lon":5.399979,"is_reserved":false,"is_disabled":false,"rental_uris":{"android":"levelo://app?vid=d6a71aca-fdd4-43c6-830b-d6ba2981a18f","ios":"levelo://app?vid=d6a71aca-fdd4-43c6-830b-d6ba2981a18f"},"vehicle_type_id":"4","last_reported":1701511596,"current_range_meters":30000,"station_id":"ce4bho92rcd13ifvqh3g","pricing_plan_id":"free"},{"bike_id":"2a48ec58-a18d-49d2-9fda-72b787fa06c4","system_id":"levelo_inurba_marseille","lat":43.28698,"lon":5.3998,"is_reserved":false,"is_disabled":false,"rental_uris":{"android":"levelo://app?vid=2a48ec58-a18d-49d2-9fda-72b787fa06c4","ios":"levelo://app?vid=2a48ec58-a18d-49d2-9fda-72b787fa06c4"},"vehicle_type_id":"4","last_reported":1701511596,"current_range_meters":0,"station_id":"","pricing_plan_id":"free"},{"bike_id":"97209419-73c6-4656-9c00-2d7ec198c9a2","system_id":"levelo_inurba_marseille","lat":43.320045,"lon":5.415046,"is_reserved":false,"is_disabled":false,"rental_uris":{"android":"levelo://app?vid=97209419-73c6-4656-9c00-2d7ec198c9a2","ios":"levelo://app?vid=97209419-73c6-4656-9c00-2d7ec198c9a2"},"vehicle_type_id":"4","last_reported":1701511596,"current_range_meters":26800,"station_id":"ce4bhq92rcd13ifvqhkg","pricing_plan_id":"free"},{"bike_id":"43ca2b81-6b8a-4cd8-8b37-5c5a5caf98bf","system_id":"levelo_inurba_marseille","lat":43.279742,"lon":5.38744,"is_reserved":false,"is_disabled":false,"rental_uris":{"android":"levelo://app?vid=43ca2b81-6b8a-4cd8-8b37-5c5a5caf98bf","ios":"levelo://app?vid=43ca2b81-6b8a-4cd8-8b37-5c5a5caf98bf"},"vehicle_type_id":"4","last_reported":1701511596,"current_range_meters":17200,"station_id":"ce4bhg12rcd13ifvqf80","pricing_plan_id":"free"},{"bike_id":"2aa6f81f-7cf1-4aae-91a0-e94c50802a31","system_id":"levelo_inurba_marseille","lat":43.279742,"lon":5.38744,"is_reserved":false,"is_disabled":false,"rental_uris":{"android":"levelo://app?vid=2aa6f81f-7cf1-4aae-91a0-e94c50802a31","ios":"levelo://app?vid=2aa6f81f-7cf1-4aae-91a0-e94c50802a31"},"vehicle_type_id":"4","last_reported":1701511596,"current_range_meters":12400,"station_id":"ce4bhg12rcd13ifvqf80","pricing_plan_id":"free"},{"bike_id":"e4541f04-5fbd-4f93-8a1e-9305cfe93c65","system_id":"levelo_inurba_marseille","lat":43.279742,"lon":5.38744,"is_reserved":false,"is_disabled":false,"rental_uris":{"android":"levelo://app?vid=e4541f04-5fbd-4f93-8a1e-9305cfe93c65","ios":"levelo://app?vid=e4541f04-5fbd-4f93-8a1e-9305cfe93c65"},"vehicle_type_id":"4","last_reported":1701511596,"current_range_meters":23200,"station_id":"ce4bhg12rcd13ifvqf80","pricing_plan_id":"free"},{"bike_id":"823c646d-176f-4f30-949d-a987458cb2a9","system_id":"levelo_inurba_marseille","lat":43.279742,"lon":5.38744,"is_reserved":false,"is_disabled":false,"rental_uris":{"android":"levelo://app?vid=823c646d-176f-4f30-949d-a987458cb2a9","ios":"levelo://app?vid=823c646d-176f-4f30-949d-a987458cb2a9"},"vehicle_type_id":"4","last_reported":1701511596,"current_range_meters":14000,"station_id":"ce4bhg12rcd13ifvqf80","pricing_plan_id":"free"},{"bike_id":"1d48a79f-4917-4233-a5bf-f37a1c61163b","system_id":"levelo_inurba_marseille","lat":43.320045,"lon":5.415046,"is_reserved":false,"is_disabled":false,"rental_uris":{"android":"levelo://app?vid=1d48a79f-4917-4233-a5bf-f37a1c61163b","ios":"levelo://app?vid=1d48a79f-4917-4233-a5bf-f37a1c61163b"},"vehicle_type_id":"4","last_reported":1701511596,"current_range_meters":22800,"station_id":"ce4bhq92rcd13ifvqhkg","pricing_plan_id":"free"},{"bike_id":"3952f81c-a1aa-4d58-a7f0-b89bc3bcb0f8","system_id":"levelo_inurba_marseille","lat":43.292571,"lon":5.409107,"is_reserved":false,"is_disabled":false,"rental_uris":{"android":"levelo://app?vid=3952f81c-a1aa-4d58-a7f0-b89bc3bcb0f8","ios":"levelo://app?vid=3952f81c-a1aa-4d58-a7f0-b89bc3bcb0f8"},"vehicle_type_id":"4","last_reported":1701511596,"current_range_meters":21600,"station_id":"ce4bh192rcd13ifvqdc0","pricing_plan_id":"free"},{"bike_id":"81c3d2e1-d711-4403-8a56-f859e0dd931b","system_id":"levelo_inurba_marseille","lat":43.292647,"lon":5.409162,"is_reserved":false,"is_disabled":false,"rental_uris":{"android":"levelo://app?vid=81c3d2e1-d711-4403-8a56-f859e0dd931b","ios":"levelo://app?vid=81c3d2e1-d711-4403-8a56-f859e0dd931b"},"vehicle_type_id":"4","last_reported":1701511596,"current_range_meters":20400,"station_id":"","pricing_plan_id":"free"},{"bike_id":"662d7ac0-b60c-4589-b775-59c466096683","system_id":"levelo_inurba_marseille","lat":43.325233,"lon":5.414318,"is_reserved":false,"is_disabled":false,"rental_uris":{"android":"levelo://app?vid=662d7ac0-b60c-4589-b775-59c466096683","ios":"levelo://app?vid=662d7ac0-b60c-4589-b775-59c466096683"},"vehicle_type_id":"4","last_reported":1701511596,"current_range_meters":31200,"station_id":"ce4bhq12rcd13ifvqhhg","pricing_plan_id":"free"},{"bike_id":"0e213d99-3509-4b22-8ea3-187711179b82","system_id":"levelo_inurba_marseille","lat":43.325233,"lon":5.414318,"is_reserved":false,"is_disabled":false,"rental_uris":{"android":"levelo://app?vid=0e213d99-3509-4b22-8ea3-187711179b82","ios":"levelo://app?vid=0e213d99-3509-4b22-8ea3-187711179b82"},"vehicle_type_id":"4","last_reported":1701511596,"current_range_meters":14000,"station_id":"ce4bhq12rcd13ifvqhhg","pricing_plan_id":"free"},{"bike_id":"bcdb50df-13be-4393-adc8-1a79a4e56c43","system_id":"levelo_inurba_marseille","lat":43.28619,"lon":5.40406,"is_reserved":false,"is_disabled":false,"rental_uris":{"android":"levelo://app?vid=bcdb50df-13be-4393-adc8-1a79a4e56c43","ios":"levelo://app?vid=bcdb50df-13be-4393-adc8-1a79a4e56c43"},"vehicle_type_id":"4","last_reported":1701511596,"current_range_meters":0,"station_id":"","pricing_plan_id":"free"},{"bike_id":"5cc6494a-7c11-48ad-92c1-104e232af1fc","system_id":"levelo_inurba_marseille","lat":43.280784,"lon":5.396622,"is_reserved":false,"is_disabled":false,"rental_uris":{"android":"levelo://app?vid=5cc6494a-7c11-48ad-92c1-104e232af1fc","ios":"levelo://app?vid=5cc6494a-7c11-48ad-92c1-104e232af1fc"},"vehicle_type_id":"4","last_reported":1701511596,"current_range_meters":25200,"station_id":"ce4bho12rcd13ifvqh2g","pricing_plan_id":"free"},{"bike_id":"dad9420d-36bf-47cb-8906-3c62e7ceb4b7","system_id":"levelo_inurba_marseille","lat":43.30359,"lon":5.41887,"is_reserved":false,"is_disabled":false,"rental_uris":{"android":"levelo://app?vid=dad9420d-36bf-47cb-8906-3c62e7ceb4b7","ios":"levelo://app?vid=dad9420d-36bf-47cb-8906-3c62e7ceb4b7"},"vehicle_type_id":"4","last_reported":1701511596,"current_range_meters":16800,"station_id":"ce4bhop2rcd13ifvqh7g","pricing_plan_id":"free"},{"bike_id":"451e5711-912b-4e6f-ba92-14f20d0093e3","system_id":"levelo_inurba_marseille","lat":43.33604,"lon":5.41015,"is_reserved":false,"is_disabled":false,"rental_uris":{"android":"levelo://app?vid=451e5711-912b-4e6f-ba92-14f20d0093e3","ios":"levelo://app?vid=451e5711-912b-4e6f-ba92-14f20d0093e3"},"vehicle_type_id":"4","last_reported":1701511596,"current_range_meters":20800,"station_id":"ce4bhqh2rcd13ifvqhmg","pricing_plan_id":"free"},{"bike_id":"940711cf-4108-447f-8feb-26c8ebf49788","system_id":"levelo_inurba_marseille","lat":43.275625,"lon":5.384392,"is_reserved":false,"is_disabled":false,"rental_uris":{"android":"levelo://app?vid=940711cf-4108-447f-8feb-26c8ebf49788","ios":"levelo://app?vid=940711cf-4108-447f-8feb-26c8ebf49788"},"vehicle_type_id":"4","last_reported":1701511596,"current_range_meters":400,"station_id":"ce4bhh92rcd13ifvqfi0","pricing_plan_id":"free"},{"bike_id":"8206dba6-19cf-46fa-8275-3c22df5b4764","system_id":"levelo_inurba_marseille","lat":43.33598,"lon":5.4103,"is_reserved":false,"is_disabled":false,"rental_uris":{"android":"levelo://app?vid=8206dba6-19cf-46fa-8275-3c22df5b4764","ios":"levelo://app?vid=8206dba6-19cf-46fa-8275-3c22df5b4764"},"vehicle_type_id":"4","last_reported":1701511596,"current_range_meters":12800,"station_id":"ce4bhqh2rcd13ifvqhmg","pricing_plan_id":"free"},{"bike_id":"f6aae63c-1a78-45b5-858c-7885e945d550","system_id":"levelo_inurba_marseille","lat":43.276769,"lon":5.388787,"is_reserved":false,"is_disabled":false,"rental_uris":{"android":"levelo://app?vid=f6aae63c-1a78-45b5-858c-7885e945d550","ios":"levelo://app?vid=f6aae63c-1a78-45b5-858c-7885e945d550"},"vehicle_type_id":"4","last_reported":1701511596,"current_range_meters":31200,"station_id":"ce4bhi12rcd13ifvqfo0","pricing_plan_id":"free"},{"bike_id":"50415618-e0c7-4c83-af76-e7d428c4b51d","system_id":"levelo_inurba_marseille","lat":43.279952,"lon":5.400085,"is_reserved":false,"is_disabled":false,"rental_uris":{"android":"levelo://app?vid=50415618-e0c7-4c83-af76-e7d428c4b51d","ios":"levelo://app?vid=50415618-e0c7-4c83-af76-e7d428c4b51d"},"vehicle_type_id":"4","last_reported":1701511596,"current_range_meters":23600,"station_id":"ce4bho92rcd13ifvqh4g","pricing_plan_id":"free"},{"bike_id":"0256d9f5-c275-485b-a67b-c6d8e2bee501","system_id":"levelo_inurba_marseille","lat":43.317121,"lon":5.423936,"is_reserved":false,"is_disabled":false,"rental_uris":{"android":"levelo://app?vid=0256d9f5-c275-485b-a67b-c6d8e2bee501","ios":"levelo://app?vid=0256d9f5-c275-485b-a67b-c6d8e2bee501"},"vehicle_type_id":"4","last_reported":1701511596,"current_range_meters":29200,"station_id":"ce4bhp92rcd13ifvqhbg","pricing_plan_id":"free"},{"bike_id":"4aa97cd1-6a39-4439-81f1-99ae1420ed06","system_id":"levelo_inurba_marseille","lat":43.310785,"lon":5.424305,"is_reserved":false,"is_disabled":false,"rental_uris":{"android":"levelo://app?vid=4aa97cd1-6a39-4439-81f1-99ae1420ed06","ios":"levelo://app?vid=4aa97cd1-6a39-4439-81f1-99ae1420ed06"},"vehicle_type_id":"4","last_reported":1701511596,"current_range_meters":29200,"station_id":"ce4bhp92rcd13ifvqhag","pricing_plan_id":"free"},{"bike_id":"894f6494-585b-4b1b-a39f-39b137cf17d0","system_id":"levelo_inurba_marseille","lat":43.310785,"lon":5.424305,"is_reserved":false,"is_disabled":false,"rental_uris":{"android":"levelo://app?vid=894f6494-585b-4b1b-a39f-39b137cf17d0","ios":"levelo://app?vid=894f6494-585b-4b1b-a39f-39b137cf17d0"},"vehicle_type_id":"4","last_reported":1701511596,"current_range_meters":10400,"station_id":"ce4bhp92rcd13ifvqhag","pricing_plan_id":"free"},{"bike_id":"ec8cda27-8133-4ca8-abd6-6a978c40f976","system_id":"levelo_inurba_marseille","lat":43.34141,"lon":5.40898,"is_reserved":false,"is_disabled":false,"rental_uris":{"android":"levelo://app?vid=ec8cda27-8133-4ca8-abd6-6a978c40f976","ios":"levelo://app?vid=ec8cda27-8133-4ca8-abd6-6a978c40f976"},"vehicle_type_id":"4","last_reported":1701511596,"current_range_meters":31200,"station_id":"ce4bhqh2rcd13ifvqhlg","pricing_plan_id":"free"},{"bike_id":"7729778a-d587-4a31-9e2a-fc6f9d799c22","system_id":"levelo_inurba_marseille","lat":43.340804,"lon":5.410219,"is_reserved":false,"is_disabled":false,"rental_uris":{"android":"levelo://app?vid=7729778a-d587-4a31-9e2a-fc6f9d799c22","ios":"levelo://app?vid=7729778a-d587-4a31-9e2a-fc6f9d799c22"},"vehicle_type_id":"4","last_reported":1701511596,"current_range_meters":31200,"station_id":"ce4bhqh2rcd13ifvqhlg","pricing_plan_id":"free"},{"bike_id":"c84c523d-4354-4ec5-8acc-748b30d9aa68","system_id":"levelo_inurba_marseille","lat":43.340804,"lon":5.410219,"is_reserved":false,"is_disabled":false,"rental_uris":{"android":"levelo://app?vid=c84c523d-4354-4ec5-8acc-748b30d9aa68","ios":"levelo://app?vid=c84c523d-4354-4ec5-8acc-748b30d9aa68"},"vehicle_type_id":"4","last_reported":1701511596,"current_range_meters":26000,"station_id":"ce4bhqh2rcd13ifvqhlg","pricing_plan_id":"free"},{"bike_id":"1a48bf85-74eb-4034-bd52-5266f84e3894","system_id":"levelo_inurba_marseille","lat":43.273125,"lon":5.390731,"is_reserved":false,"is_disabled":false,"rental_uris":{"android":"levelo://app?vid=1a48bf85-74eb-4034-bd52-5266f84e3894","ios":"levelo://app?vid=1a48bf85-74eb-4034-bd52-5266f84e3894"},"vehicle_type_id":"4","last_reported":1701511596,"current_range_meters":18400,"station_id":"ce4bhgp2rcd13ifvqfe0","pricing_plan_id":"free"},{"bike_id":"60968a53-64db-42d6-a2da-8fc166caa71c","system_id":"levelo_inurba_marseille","lat":43.273125,"lon":5.390731,"is_reserved":false,"is_disabled":false,"rental_uris":{"android":"levelo://app?vid=60968a53-64db-42d6-a2da-8fc166caa71c","ios":"levelo://app?vid=60968a53-64db-42d6-a2da-8fc166caa71c"},"vehicle_type_id":"4","last_reported":1701511596,"current_range_meters":26800,"station_id":"ce4bhgp2rcd13ifvqfe0","pricing_plan_id":"free"},{"bike_id":"e7f792d1-5e84-4484-88af-6fdf98873029","system_id":"levelo_inurba_marseille","lat":43.273125,"lon":5.390731,"is_reserved":false,"is_disabled":false,"rental_uris":{"android":"levelo://app?vid=e7f792d1-5e84-4484-88af-6fdf98873029","ios":"levelo://app?vid=e7f792d1-5e84-4484-88af-6fdf98873029"},"vehicle_type_id":"4","last_reported":1701511596,"current_range_meters":31200,"station_id":"ce4bhgp2rcd13ifvqfe0","pricing_plan_id":"free"},{"bike_id":"ad02872c-8cb7-49d6-84c8-a2a206cd2787","system_id":"levelo_inurba_marseille","lat":43.273129,"lon":5.390725,"is_reserved":false,"is_disabled":false,"rental_uris":{"android":"levelo://app?vid=ad02872c-8cb7-49d6-84c8-a2a206cd2787","ios":"levelo://app?vid=ad02872c-8cb7-49d6-84c8-a2a206cd2787"},"vehicle_type_id":"4","last_reported":1701511596,"current_range_meters":12800,"station_id":"ce4bhgp2rcd13ifvqfe0","pricing_plan_id":"free"},{"bike_id":"c0c04cc4-a717-4722-a246-757fbde82c2e","system_id":"levelo_inurba_marseille","lat":43.273129,"lon":5.390725,"is_reserved":false,"is_disabled":false,"rental_uris":{"android":"levelo://app?vid=c0c04cc4-a717-4722-a246-757fbde82c2e","ios":"levelo://app?vid=c0c04cc4-a717-4722-a246-757fbde82c2e"},"vehicle_type_id":"4","last_reported":1701511596,"current_range_meters":28400,"station_id":"ce4bhgp2rcd13ifvqfe0","pricing_plan_id":"free"},{"bike_id":"a3527c32-1fa7-4ebe-9b65-a997c7b104de","system_id":"levelo_inurba_marseille","lat":43.30415,"lon":5.42538,"is_reserved":false,"is_disabled":false,"rental_uris":{"android":"levelo://app?vid=a3527c32-1fa7-4ebe-9b65-a997c7b104de","ios":"levelo://app?vid=a3527c32-1fa7-4ebe-9b65-a997c7b104de"},"vehicle_type_id":"4","last_reported":1701511596,"current_range_meters":14800,"station_id":"ce4bhoh2rcd13ifvqh6g","pricing_plan_id":"free"},{"bike_id":"7ed57e64-d5e4-414f-8eb1-b422e851258b","system_id":"levelo_inurba_marseille","lat":43.295523,"lon":5.422926,"is_reserved":false,"is_disabled":false,"rental_uris":{"android":"levelo://app?vid=7ed57e64-d5e4-414f-8eb1-b422e851258b","ios":"levelo://app?vid=7ed57e64-d5e4-414f-8eb1-b422e851258b"},"vehicle_type_id":"4","last_reported":1701511596,"current_range_meters":25600,"station_id":"ce4bhph2rcd13ifvqhdg","pricing_plan_id":"free"},{"bike_id":"6f506726-5bca-4c85-a641-94fffd3a16f1","system_id":"levelo_inurba_marseille","lat":43.272124,"lon":5.391768,"is_reserved":false,"is_disabled":false,"rental_uris":{"android":"levelo://app?vid=6f506726-5bca-4c85-a641-94fffd3a16f1","ios":"levelo://app?vid=6f506726-5bca-4c85-a641-94fffd3a16f1"},"vehicle_type_id":"4","last_reported":1701511596,"current_range_meters":16400,"station_id":"ce4bhhp2rcd13ifvqfm0","pricing_plan_id":"free"},{"bike_id":"6c4af35b-4eb6-487d-9998-7284bf4ee870","system_id":"levelo_inurba_marseille","lat":43.272116,"lon":5.391763,"is_reserved":false,"is_disabled":false,"rental_uris":{"android":"levelo://app?vid=6c4af35b-4eb6-487d-9998-7284bf4ee870","ios":"levelo://app?vid=6c4af35b-4eb6-487d-9998-7284bf4ee870"},"vehicle_type_id":"4","last_reported":1701511596,"current_range_meters":29200,"station_id":"ce4bhhp2rcd13ifvqfm0","pricing_plan_id":"free"},{"bike_id":"8595e7a1-0577-4743-b551-59079f587447","system_id":"levelo_inurba_marseille","lat":43.272116,"lon":5.391747,"is_reserved":false,"is_disabled":false,"rental_uris":{"android":"levelo://app?vid=8595e7a1-0577-4743-b551-59079f587447","ios":"levelo://app?vid=8595e7a1-0577-4743-b551-59079f587447"},"vehicle_type_id":"4","last_reported":1701511596,"current_range_meters":31600,"station_id":"ce4bhhp2rcd13ifvqfm0","pricing_plan_id":"free"},{"bike_id":"947b15c5-4130-4a42-a669-ab3663753c16","system_id":"levelo_inurba_marseille","lat":43.269467,"lon":5.386439,"is_reserved":false,"is_disabled":false,"rental_uris":{"android":"levelo://app?vid=947b15c5-4130-4a42-a669-ab3663753c16","ios":"levelo://app?vid=947b15c5-4130-4a42-a669-ab3663753c16"},"vehicle_type_id":"4","last_reported":1701511596,"current_range_meters":27200,"station_id":"ce4bhh92rcd13ifvqfh0","pricing_plan_id":"free"},{"bike_id":"5bf020ad-6595-41e6-bd36-29a3f420324d","system_id":"levelo_inurba_marseille","lat":43.279465,"lon":5.410561,"is_reserved":false,"is_disabled":false,"rental_uris":{"android":"levelo://app?vid=5bf020ad-6595-41e6-bd36-29a3f420324d","ios":"levelo://app?vid=5bf020ad-6595-41e6-bd36-29a3f420324d"},"vehicle_type_id":"4","last_reported":1701511596,"current_range_meters":31200,"station_id":"ce4bhnp2rcd13ifvqh0g","pricing_plan_id":"free"},{"bike_id":"f06fe833-5c3b-4412-979c-5f81362ffc42","system_id":"levelo_inurba_marseille","lat":43.269319,"lon":5.389397,"is_reserved":false,"is_disabled":false,"rental_uris":{"android":"levelo://app?vid=f06fe833-5c3b-4412-979c-5f81362ffc42","ios":"levelo://app?vid=f06fe833-5c3b-4412-979c-5f81362ffc42"},"vehicle_type_id":"4","last_reported":1701511596,"current_range_meters":24000,"station_id":"ce4bhhh2rcd13ifvqfl0","pricing_plan_id":"free"},{"bike_id":"03f08fbd-65af-4218-8c0c-07863874b3f6","system_id":"levelo_inurba_marseille","lat":43.269319,"lon":5.389397,"is_reserved":false,"is_disabled":false,"rental_uris":{"android":"levelo://app?vid=03f08fbd-65af-4218-8c0c-07863874b3f6","ios":"levelo://app?vid=03f08fbd-65af-4218-8c0c-07863874b3f6"},"vehicle_type_id":"4","last_reported":1701511596,"current_range_meters":7600,"station_id":"ce4bhhh2rcd13ifvqfl0","pricing_plan_id":"free"},{"bike_id":"406f5a08-0534-41ff-985d-f1db6075c287","system_id":"levelo_inurba_marseille","lat":43.265714,"lon":5.372891,"is_reserved":false,"is_disabled":false,"rental_uris":{"android":"levelo://app?vid=406f5a08-0534-41ff-985d-f1db6075c287","ios":"levelo://app?vid=406f5a08-0534-41ff-985d-f1db6075c287"},"vehicle_type_id":"4","last_reported":1701511596,"current_range_meters":4800,"station_id":"ce4bhg12rcd13ifvqf70","pricing_plan_id":"free"},{"bike_id":"b429aee9-4493-4f91-b4ae-efedac520502","system_id":"levelo_inurba_marseille","lat":43.26553,"lon":5.37284,"is_reserved":false,"is_disabled":false,"rental_uris":{"android":"levelo://app?vid=b429aee9-4493-4f91-b4ae-efedac520502","ios":"levelo://app?vid=b429aee9-4493-4f91-b4ae-efedac520502"},"vehicle_type_id":"4","last_reported":1701511596,"current_range_meters":21200,"station_id":"ce4bhg12rcd13ifvqf70","pricing_plan_id":"free"},{"bike_id":"a29f5531-9d28-4dd2-9461-8d4e0e489b22","system_id":"levelo_inurba_marseille","lat":43.27996,"lon":5.416624,"is_reserved":false,"is_disabled":false,"rental_uris":{"android":"levelo://app?vid=a29f5531-9d28-4dd2-9461-8d4e0e489b22","ios":"levelo://app?vid=a29f5531-9d28-4dd2-9461-8d4e0e489b22"},"vehicle_type_id":"4","last_reported":1701511596,"current_range_meters":19600,"station_id":"ce4bho12rcd13ifvqh1g","pricing_plan_id":"free"},{"bike_id":"55b33a5c-1177-4dd9-b3a0-e993463bd4e2","system_id":"levelo_inurba_marseille","lat":43.308051,"lon":5.43527,"is_reserved":false,"is_disabled":false,"rental_uris":{"android":"levelo://app?vid=55b33a5c-1177-4dd9-b3a0-e993463bd4e2","ios":"levelo://app?vid=55b33a5c-1177-4dd9-b3a0-e993463bd4e2"},"vehicle_type_id":"4","last_reported":1701511596,"current_range_meters":31200,"station_id":"ce4bhph2rcd13ifvqheg","pricing_plan_id":"free"},{"bike_id":"3566be00-75b6-403d-b6df-62c4cf4d0f7c","system_id":"levelo_inurba_marseille","lat":43.26949,"lon":5.40262,"is_reserved":false,"is_disabled":false,"rental_uris":{"android":"levelo://app?vid=3566be00-75b6-403d-b6df-62c4cf4d0f7c","ios":"levelo://app?vid=3566be00-75b6-403d-b6df-62c4cf4d0f7c"},"vehicle_type_id":"4","last_reported":1701511596,"current_range_meters":25200,"station_id":"cjm6bp8fraef2m0cb0m0","pricing_plan_id":"free"},{"bike_id":"cf20c175-6988-4473-8c7d-b67449351266","system_id":"levelo_inurba_marseille","lat":43.317104,"lon":5.436818,"is_reserved":false,"is_disabled":false,"rental_uris":{"android":"levelo://app?vid=cf20c175-6988-4473-8c7d-b67449351266","ios":"levelo://app?vid=cf20c175-6988-4473-8c7d-b67449351266"},"vehicle_type_id":"4","last_reported":1701511596,"current_range_meters":30400,"station_id":"ce4bhp92rcd13ifvqhcg","pricing_plan_id":"free"},{"bike_id":"c71160fc-c7b7-4c0b-8b7c-da5014dcb825","system_id":"levelo_inurba_marseille","lat":43.317104,"lon":5.436818,"is_reserved":false,"is_disabled":false,"rental_uris":{"android":"levelo://app?vid=c71160fc-c7b7-4c0b-8b7c-da5014dcb825","ios":"levelo://app?vid=c71160fc-c7b7-4c0b-8b7c-da5014dcb825"},"vehicle_type_id":"4","last_reported":1701511596,"current_range_meters":30800,"station_id":"ce4bhp92rcd13ifvqhcg","pricing_plan_id":"free"},{"bike_id":"2ba9db67-bc08-4181-91bc-5b87bbc9227d","system_id":"levelo_inurba_marseille","lat":43.26202,"lon":5.379299,"is_reserved":false,"is_disabled":false,"rental_uris":{"android":"levelo://app?vid=2ba9db67-bc08-4181-91bc-5b87bbc9227d","ios":"levelo://app?vid=2ba9db67-bc08-4181-91bc-5b87bbc9227d"},"vehicle_type_id":"4","last_reported":1701511596,"current_range_meters":31200,"station_id":"ce4bhjp2rcd13ifvqg90","pricing_plan_id":"free"},{"bike_id":"8782370c-2bfe-40c4-822e-6ed8026b8702","system_id":"levelo_inurba_marseille","lat":43.26202,"lon":5.379299,"is_reserved":false,"is_disabled":false,"rental_uris":{"android":"levelo://app?vid=8782370c-2bfe-40c4-822e-6ed8026b8702","ios":"levelo://app?vid=8782370c-2bfe-40c4-822e-6ed8026b8702"},"vehicle_type_id":"4","last_reported":1701511596,"current_range_meters":24000,"station_id":"ce4bhjp2rcd13ifvqg90","pricing_plan_id":"free"},{"bike_id":"a265f57d-2203-4406-8278-bc194922c399","system_id":"levelo_inurba_marseille","lat":43.28155,"lon":5.42636,"is_reserved":false,"is_disabled":false,"rental_uris":{"android":"levelo://app?vid=a265f57d-2203-4406-8278-bc194922c399","ios":"levelo://app?vid=a265f57d-2203-4406-8278-bc194922c399"},"vehicle_type_id":"4","last_reported":1701511596,"current_range_meters":28800,"station_id":"ce4bhnh2rcd13ifvqgug","pricing_plan_id":"free"},{"bike_id":"98ae87ac-4925-422e-a3d1-bbbbb3392668","system_id":"levelo_inurba_marseille","lat":43.281548,"lon":5.42643,"is_reserved":false,"is_disabled":false,"rental_uris":{"android":"levelo://app?vid=98ae87ac-4925-422e-a3d1-bbbbb3392668","ios":"levelo://app?vid=98ae87ac-4925-422e-a3d1-bbbbb3392668"},"vehicle_type_id":"4","last_reported":1701511596,"current_range_meters":31200,"station_id":"ce4bhnh2rcd13ifvqgug","pricing_plan_id":"free"},{"bike_id":"b802834e-51f4-41a4-96cb-c31681473515","system_id":"levelo_inurba_marseille","lat":43.28151,"lon":5.426446,"is_reserved":false,"is_disabled":false,"rental_uris":{"android":"levelo://app?vid=b802834e-51f4-41a4-96cb-c31681473515","ios":"levelo://app?vid=b802834e-51f4-41a4-96cb-c31681473515"},"vehicle_type_id":"4","last_reported":1701511596,"current_range_meters":30000,"station_id":"ce4bhnh2rcd13ifvqgug","pricing_plan_id":"free"},{"bike_id":"d3df04f1-aa36-401c-b9f0-16ea3bba87de","system_id":"levelo_inurba_marseille","lat":43.281553,"lon":5.426523,"is_reserved":false,"is_disabled":false,"rental_uris":{"android":"levelo://app?vid=d3df04f1-aa36-401c-b9f0-16ea3bba87de","ios":"levelo://app?vid=d3df04f1-aa36-401c-b9f0-16ea3bba87de"},"vehicle_type_id":"4","last_reported":1701511596,"current_range_meters":14000,"station_id":"ce4bhnh2rcd13ifvqgug","pricing_plan_id":"free"},{"bike_id":"3532a786-7312-4db1-88be-2e5e8a274941","system_id":"levelo_inurba_marseille","lat":43.281549,"lon":5.426528,"is_reserved":false,"is_disabled":false,"rental_uris":{"android":"levelo://app?vid=3532a786-7312-4db1-88be-2e5e8a274941","ios":"levelo://app?vid=3532a786-7312-4db1-88be-2e5e8a274941"},"vehicle_type_id":"4","last_reported":1701511596,"current_range_meters":24000,"station_id":"ce4bhnh2rcd13ifvqgug","pricing_plan_id":"free"},{"bike_id":"81f4f34a-8d36-4c09-961e-e42c57ef3483","system_id":"levelo_inurba_marseille","lat":43.28148,"lon":5.42649,"is_reserved":false,"is_disabled":false,"rental_uris":{"android":"levelo://app?vid=81f4f34a-8d36-4c09-961e-e42c57ef3483","ios":"levelo://app?vid=81f4f34a-8d36-4c09-961e-e42c57ef3483"},"vehicle_type_id":"4","last_reported":1701511596,"current_range_meters":0,"station_id":"ce4bhnh2rcd13ifvqgug","pricing_plan_id":"free"},{"bike_id":"7cc9499f-917c-4e58-9b7d-14ec101a41f1","system_id":"levelo_inurba_marseille","lat":43.2607,"lon":5.393983,"is_reserved":false,"is_disabled":false,"rental_uris":{"android":"levelo://app?vid=7cc9499f-917c-4e58-9b7d-14ec101a41f1","ios":"levelo://app?vid=7cc9499f-917c-4e58-9b7d-14ec101a41f1"},"vehicle_type_id":"4","last_reported":1701511596,"current_range_meters":24400,"station_id":"ce4bhh92rcd13ifvqfj0","pricing_plan_id":"free"},{"bike_id":"5465ab4d-f99f-48b0-9201-2349ea9fec71","system_id":"levelo_inurba_marseille","lat":43.274924,"lon":5.424473,"is_reserved":false,"is_disabled":false,"rental_uris":{"android":"levelo://app?vid=5465ab4d-f99f-48b0-9201-2349ea9fec71","ios":"levelo://app?vid=5465ab4d-f99f-48b0-9201-2349ea9fec71"},"vehicle_type_id":"4","last_reported":1701511596,"current_range_meters":18800,"station_id":"ce4bhn92rcd13ifvqgrg","pricing_plan_id":"free"},{"bike_id":"6b6e6cf0-4543-4c63-b29c-e0245eacca66","system_id":"levelo_inurba_marseille","lat":43.26091,"lon":5.39762,"is_reserved":false,"is_disabled":false,"rental_uris":{"android":"levelo://app?vid=6b6e6cf0-4543-4c63-b29c-e0245eacca66","ios":"levelo://app?vid=6b6e6cf0-4543-4c63-b29c-e0245eacca66"},"vehicle_type_id":"4","last_reported":1701511596,"current_range_meters":19600,"station_id":"","pricing_plan_id":"free"},{"bike_id":"994caf70-8e1f-40de-af4c-a7ce43a6b2d4","system_id":"levelo_inurba_marseille","lat":43.275028,"lon":5.424534,"is_reserved":false,"is_disabled":false,"rental_uris":{"android":"levelo://app?vid=994caf70-8e1f-40de-af4c-a7ce43a6b2d4","ios":"levelo://app?vid=994caf70-8e1f-40de-af4c-a7ce43a6b2d4"},"vehicle_type_id":"4","last_reported":1701511596,"current_range_meters":31200,"station_id":"ce4bhn92rcd13ifvqgrg","pricing_plan_id":"free"},{"bike_id":"722f553f-699e-469b-be0e-77b6de97bebc","system_id":"levelo_inurba_marseille","lat":43.27491,"lon":5.42463,"is_reserved":false,"is_disabled":false,"rental_uris":{"android":"levelo://app?vid=722f553f-699e-469b-be0e-77b6de97bebc","ios":"levelo://app?vid=722f553f-699e-469b-be0e-77b6de97bebc"},"vehicle_type_id":"4","last_reported":1701511596,"current_range_meters":2400,"station_id":"ce4bhn92rcd13ifvqgrg","pricing_plan_id":"free"},{"bike_id":"bca0fa38-5660-402d-8eb6-c035f953ba94","system_id":"levelo_inurba_marseille","lat":43.2608,"lon":5.39768,"is_reserved":false,"is_disabled":false,"rental_uris":{"android":"levelo://app?vid=bca0fa38-5660-402d-8eb6-c035f953ba94","ios":"levelo://app?vid=bca0fa38-5660-402d-8eb6-c035f953ba94"},"vehicle_type_id":"4","last_reported":1701511596,"current_range_meters":12000,"station_id":"","pricing_plan_id":"free"},{"bike_id":"962b74e7-03ef-4247-b9e1-285f2c85cf56","system_id":"levelo_inurba_marseille","lat":43.258224,"lon":5.394369,"is_reserved":false,"is_disabled":false,"rental_uris":{"android":"levelo://app?vid=962b74e7-03ef-4247-b9e1-285f2c85cf56","ios":"levelo://app?vid=962b74e7-03ef-4247-b9e1-285f2c85cf56"},"vehicle_type_id":"4","last_reported":1701511596,"current_range_meters":18800,"station_id":"ce4bhip2rcd13ifvqft0","pricing_plan_id":"free"},{"bike_id":"12312d76-b3d1-4c51-91c3-2f6a3a7bf61e","system_id":"levelo_inurba_marseille","lat":43.254947,"lon":5.376454,"is_reserved":false,"is_disabled":false,"rental_uris":{"android":"levelo://app?vid=12312d76-b3d1-4c51-91c3-2f6a3a7bf61e","ios":"levelo://app?vid=12312d76-b3d1-4c51-91c3-2f6a3a7bf61e"},"vehicle_type_id":"4","last_reported":1701511596,"current_range_meters":20400,"station_id":"ce4bhh12rcd13ifvqff0","pricing_plan_id":"free"},{"bike_id":"5f957d95-e4f6-4778-bd7f-a7990ab59efd","system_id":"levelo_inurba_marseille","lat":43.254947,"lon":5.376454,"is_reserved":false,"is_disabled":false,"rental_uris":{"android":"levelo://app?vid=5f957d95-e4f6-4778-bd7f-a7990ab59efd","ios":"levelo://app?vid=5f957d95-e4f6-4778-bd7f-a7990ab59efd"},"vehicle_type_id":"4","last_reported":1701511596,"current_range_meters":31600,"station_id":"ce4bhh12rcd13ifvqff0","pricing_plan_id":"free"},{"bike_id":"86c1bbfb-43d0-485a-8564-32eb4d98fae5","system_id":"levelo_inurba_marseille","lat":43.254947,"lon":5.376454,"is_reserved":false,"is_disabled":false,"rental_uris":{"android":"levelo://app?vid=86c1bbfb-43d0-485a-8564-32eb4d98fae5","ios":"levelo://app?vid=86c1bbfb-43d0-485a-8564-32eb4d98fae5"},"vehicle_type_id":"4","last_reported":1701511596,"current_range_meters":24800,"station_id":"ce4bhh12rcd13ifvqff0","pricing_plan_id":"free"},{"bike_id":"6b55de0b-bf22-4d3b-bb7b-9bfacee3cb65","system_id":"levelo_inurba_marseille","lat":43.270721,"lon":5.422764,"is_reserved":false,"is_disabled":false,"rental_uris":{"android":"levelo://app?vid=6b55de0b-bf22-4d3b-bb7b-9bfacee3cb65","ios":"levelo://app?vid=6b55de0b-bf22-4d3b-bb7b-9bfacee3cb65"},"vehicle_type_id":"4","last_reported":1701511596,"current_range_meters":31600,"station_id":"ce4bhk92rcd13ifvqgb0","pricing_plan_id":"free"},{"bike_id":"292a6f9a-7610-4701-bedc-5c382c13353c","system_id":"levelo_inurba_marseille","lat":43.27067,"lon":5.42272,"is_reserved":false,"is_disabled":false,"rental_uris":{"android":"levelo://app?vid=292a6f9a-7610-4701-bedc-5c382c13353c","ios":"levelo://app?vid=292a6f9a-7610-4701-bedc-5c382c13353c"},"vehicle_type_id":"4","last_reported":1701511596,"current_range_meters":17600,"station_id":"ce4bhk92rcd13ifvqgb0","pricing_plan_id":"free"},{"bike_id":"5f2b184b-bb78-4024-abeb-dca267596caa","system_id":"levelo_inurba_marseille","lat":43.270721,"lon":5.422764,"is_reserved":false,"is_disabled":false,"rental_uris":{"android":"levelo://app?vid=5f2b184b-bb78-4024-abeb-dca267596caa","ios":"levelo://app?vid=5f2b184b-bb78-4024-abeb-dca267596caa"},"vehicle_type_id":"4","last_reported":1701511596,"current_range_meters":4800,"station_id":"ce4bhk92rcd13ifvqgb0","pricing_plan_id":"free"},{"bike_id":"56de3f0e-b18c-485a-8c58-e4c4956ba711","system_id":"levelo_inurba_marseille","lat":43.270721,"lon":5.422764,"is_reserved":false,"is_disabled":false,"rental_uris":{"android":"levelo://app?vid=56de3f0e-b18c-485a-8c58-e4c4956ba711","ios":"levelo://app?vid=56de3f0e-b18c-485a-8c58-e4c4956ba711"},"vehicle_type_id":"4","last_reported":1701511596,"current_range_meters":31200,"station_id":"ce4bhk92rcd13ifvqgb0","pricing_plan_id":"free"},{"bike_id":"acce3b6b-c95f-46c6-b4b6-edf03f7be051","system_id":"levelo_inurba_marseille","lat":43.258658,"lon":5.398935,"is_reserved":false,"is_disabled":false,"rental_uris":{"android":"levelo://app?vid=acce3b6b-c95f-46c6-b4b6-edf03f7be051","ios":"levelo://app?vid=acce3b6b-c95f-46c6-b4b6-edf03f7be051"},"vehicle_type_id":"4","last_reported":1701511596,"current_range_meters":31200,"station_id":"ce4bhl92rcd13ifvqghg","pricing_plan_id":"free"},{"bike_id":"d66c0fdb-df4a-47e6-92d7-19705d3322ce","system_id":"levelo_inurba_marseille","lat":43.258658,"lon":5.398935,"is_reserved":false,"is_disabled":false,"rental_uris":{"android":"levelo://app?vid=d66c0fdb-df4a-47e6-92d7-19705d3322ce","ios":"levelo://app?vid=d66c0fdb-df4a-47e6-92d7-19705d3322ce"},"vehicle_type_id":"4","last_reported":1701511596,"current_range_meters":30400,"station_id":"ce4bhl92rcd13ifvqghg","pricing_plan_id":"free"},{"bike_id":"99ee76bf-253b-45b6-98c6-870f3c2c3282","system_id":"levelo_inurba_marseille","lat":43.257079,"lon":5.411051,"is_reserved":false,"is_disabled":false,"rental_uris":{"android":"levelo://app?vid=99ee76bf-253b-45b6-98c6-870f3c2c3282","ios":"levelo://app?vid=99ee76bf-253b-45b6-98c6-870f3c2c3282"},"vehicle_type_id":"4","last_reported":1701511596,"current_range_meters":27600,"station_id":"ce4bhkp2rcd13ifvqgd0","pricing_plan_id":"free"},{"bike_id":"85209143-86a1-4061-abf8-91e633e8e017","system_id":"levelo_inurba_marseille","lat":43.250009,"lon":5.389195,"is_reserved":false,"is_disabled":false,"rental_uris":{"android":"levelo://app?vid=85209143-86a1-4061-abf8-91e633e8e017","ios":"levelo://app?vid=85209143-86a1-4061-abf8-91e633e8e017"},"vehicle_type_id":"4","last_reported":1701511596,"current_range_meters":20800,"station_id":"ce4bhgp2rcd13ifvqfd0","pricing_plan_id":"free"},{"bike_id":"7ae9d20b-20b6-494e-b650-d8d4514463c2","system_id":"levelo_inurba_marseille","lat":43.250966,"lon":5.395186,"is_reserved":false,"is_disabled":false,"rental_uris":{"android":"levelo://app?vid=7ae9d20b-20b6-494e-b650-d8d4514463c2","ios":"levelo://app?vid=7ae9d20b-20b6-494e-b650-d8d4514463c2"},"vehicle_type_id":"4","last_reported":1701511596,"current_range_meters":25200,"station_id":"ce4bhm12rcd13ifvqgkg","pricing_plan_id":"free"},{"bike_id":"299a91cc-575e-4138-bd9a-ea3370e1ebf7","system_id":"levelo_inurba_marseille","lat":43.250966,"lon":5.395186,"is_reserved":false,"is_disabled":false,"rental_uris":{"android":"levelo://app?vid=299a91cc-575e-4138-bd9a-ea3370e1ebf7","ios":"levelo://app?vid=299a91cc-575e-4138-bd9a-ea3370e1ebf7"},"vehicle_type_id":"4","last_reported":1701511596,"current_range_meters":26400,"station_id":"ce4bhm12rcd13ifvqgkg","pricing_plan_id":"free"},{"bike_id":"c3211ad5-f4de-47db-8033-c18605f0f9bd","system_id":"levelo_inurba_marseille","lat":43.24693,"lon":5.382096,"is_reserved":false,"is_disabled":false,"rental_uris":{"android":"levelo://app?vid=c3211ad5-f4de-47db-8033-c18605f0f9bd","ios":"levelo://app?vid=c3211ad5-f4de-47db-8033-c18605f0f9bd"},"vehicle_type_id":"4","last_reported":1701511596,"current_range_meters":22000,"station_id":"ce4bhih2rcd13ifvqfr0","pricing_plan_id":"free"},{"bike_id":"ecd44699-276b-409e-87eb-8d1cbf3d99f2","system_id":"levelo_inurba_marseille","lat":43.24659,"lon":5.38162,"is_reserved":false,"is_disabled":false,"rental_uris":{"android":"levelo://app?vid=ecd44699-276b-409e-87eb-8d1cbf3d99f2","ios":"levelo://app?vid=ecd44699-276b-409e-87eb-8d1cbf3d99f2"},"vehicle_type_id":"4","last_reported":1701511596,"current_range_meters":15200,"station_id":"ce4bhih2rcd13ifvqfr0","pricing_plan_id":"free"},{"bike_id":"7b98becb-2f6d-46b8-8a5f-b763510c6cac","system_id":"levelo_inurba_marseille","lat":43.25102,"lon":5.403214,"is_reserved":false,"is_disabled":false,"rental_uris":{"android":"levelo://app?vid=7b98becb-2f6d-46b8-8a5f-b763510c6cac","ios":"levelo://app?vid=7b98becb-2f6d-46b8-8a5f-b763510c6cac"},"vehicle_type_id":"4","last_reported":1701511596,"current_range_meters":20400,"station_id":"ce4bhlh2rcd13ifvqgig","pricing_plan_id":"free"},{"bike_id":"da028402-8e0e-4e4e-a75f-b471b38c153e","system_id":"levelo_inurba_marseille","lat":43.25102,"lon":5.403214,"is_reserved":false,"is_disabled":false,"rental_uris":{"android":"levelo://app?vid=da028402-8e0e-4e4e-a75f-b471b38c153e","ios":"levelo://app?vid=da028402-8e0e-4e4e-a75f-b471b38c153e"},"vehicle_type_id":"4","last_reported":1701511596,"current_range_meters":28800,"station_id":"ce4bhlh2rcd13ifvqgig","pricing_plan_id":"free"},{"bike_id":"077efc32-e352-4c0f-93c0-6c8f24e1e490","system_id":"levelo_inurba_marseille","lat":43.25102,"lon":5.403214,"is_reserved":false,"is_disabled":false,"rental_uris":{"android":"levelo://app?vid=077efc32-e352-4c0f-93c0-6c8f24e1e490","ios":"levelo://app?vid=077efc32-e352-4c0f-93c0-6c8f24e1e490"},"vehicle_type_id":"4","last_reported":1701511596,"current_range_meters":24000,"station_id":"ce4bhlh2rcd13ifvqgig","pricing_plan_id":"free"},{"bike_id":"95e593f5-5177-489b-821c-e4e1ea8ae353","system_id":"levelo_inurba_marseille","lat":43.24392,"lon":5.37073,"is_reserved":false,"is_disabled":false,"rental_uris":{"android":"levelo://app?vid=95e593f5-5177-489b-821c-e4e1ea8ae353","ios":"levelo://app?vid=95e593f5-5177-489b-821c-e4e1ea8ae353"},"vehicle_type_id":"4","last_reported":1701511596,"current_range_meters":17600,"station_id":"ce4bhhh2rcd13ifvqfk0","pricing_plan_id":"free"},{"bike_id":"69f1bff5-758b-4ced-b763-896e81f472be","system_id":"levelo_inurba_marseille","lat":43.243884,"lon":5.370736,"is_reserved":false,"is_disabled":false,"rental_uris":{"android":"levelo://app?vid=69f1bff5-758b-4ced-b763-896e81f472be","ios":"levelo://app?vid=69f1bff5-758b-4ced-b763-896e81f472be"},"vehicle_type_id":"4","last_reported":1701511596,"current_range_meters":27600,"station_id":"ce4bhhh2rcd13ifvqfk0","pricing_plan_id":"free"},{"bike_id":"0c00f1f7-91b0-4c50-948b-6ce70c0f8465","system_id":"levelo_inurba_marseille","lat":43.243884,"lon":5.370736,"is_reserved":false,"is_disabled":false,"rental_uris":{"android":"levelo://app?vid=0c00f1f7-91b0-4c50-948b-6ce70c0f8465","ios":"levelo://app?vid=0c00f1f7-91b0-4c50-948b-6ce70c0f8465"},"vehicle_type_id":"4","last_reported":1701511596,"current_range_meters":29600,"station_id":"ce4bhhh2rcd13ifvqfk0","pricing_plan_id":"free"},{"bike_id":"f5aca0df-07ae-4b9a-b4ac-2a2a426551f7","system_id":"levelo_inurba_marseille","lat":43.243884,"lon":5.370737,"is_reserved":false,"is_disabled":false,"rental_uris":{"android":"levelo://app?vid=f5aca0df-07ae-4b9a-b4ac-2a2a426551f7","ios":"levelo://app?vid=f5aca0df-07ae-4b9a-b4ac-2a2a426551f7"},"vehicle_type_id":"4","last_reported":1701511596,"current_range_meters":20400,"station_id":"ce4bhhh2rcd13ifvqfk0","pricing_plan_id":"free"},{"bike_id":"eb95a476-d790-40e8-952c-8d686addcdbd","system_id":"levelo_inurba_marseille","lat":43.243884,"lon":5.370736,"is_reserved":false,"is_disabled":false,"rental_uris":{"android":"levelo://app?vid=eb95a476-d790-40e8-952c-8d686addcdbd","ios":"levelo://app?vid=eb95a476-d790-40e8-952c-8d686addcdbd"},"vehicle_type_id":"4","last_reported":1701511596,"current_range_meters":22400,"station_id":"ce4bhhh2rcd13ifvqfk0","pricing_plan_id":"free"},{"bike_id":"5154980c-980b-4903-b93f-c9a9da401da6","system_id":"levelo_inurba_marseille","lat":43.243884,"lon":5.370737,"is_reserved":false,"is_disabled":false,"rental_uris":{"android":"levelo://app?vid=5154980c-980b-4903-b93f-c9a9da401da6","ios":"levelo://app?vid=5154980c-980b-4903-b93f-c9a9da401da6"},"vehicle_type_id":"4","last_reported":1701511596,"current_range_meters":18000,"station_id":"ce4bhhh2rcd13ifvqfk0","pricing_plan_id":"free"},{"bike_id":"0e244749-8415-4d7f-bf24-20c42fc3276e","system_id":"levelo_inurba_marseille","lat":43.245581,"lon":5.395069,"is_reserved":false,"is_disabled":false,"rental_uris":{"android":"levelo://app?vid=0e244749-8415-4d7f-bf24-20c42fc3276e","ios":"levelo://app?vid=0e244749-8415-4d7f-bf24-20c42fc3276e"},"vehicle_type_id":"4","last_reported":1701511596,"current_range_meters":31200,"station_id":"ce4bhlp2rcd13ifvqgjg","pricing_plan_id":"free"},{"bike_id":"a5b80185-335f-4a68-81e9-a2a2d538b03a","system_id":"levelo_inurba_marseille","lat":43.24539,"lon":5.3952,"is_reserved":false,"is_disabled":false,"rental_uris":{"android":"levelo://app?vid=a5b80185-335f-4a68-81e9-a2a2d538b03a","ios":"levelo://app?vid=a5b80185-335f-4a68-81e9-a2a2d538b03a"},"vehicle_type_id":"4","last_reported":1701511596,"current_range_meters":22800,"station_id":"ce4bhlp2rcd13ifvqgjg","pricing_plan_id":"free"},{"bike_id":"e967ad71-484e-4d79-a53d-9d9bc7581d0a","system_id":"levelo_inurba_marseille","lat":43.2454,"lon":5.39526,"is_reserved":false,"is_disabled":false,"rental_uris":{"android":"levelo://app?vid=e967ad71-484e-4d79-a53d-9d9bc7581d0a","ios":"levelo://app?vid=e967ad71-484e-4d79-a53d-9d9bc7581d0a"},"vehicle_type_id":"4","last_reported":1701511596,"current_range_meters":31200,"station_id":"ce4bhlp2rcd13ifvqgjg","pricing_plan_id":"free"},{"bike_id":"f093fa9a-f7aa-44d2-b5e3-a1f52283c98b","system_id":"levelo_inurba_marseille","lat":43.239588,"lon":5.366238,"is_reserved":false,"is_disabled":false,"rental_uris":{"android":"levelo://app?vid=f093fa9a-f7aa-44d2-b5e3-a1f52283c98b","ios":"levelo://app?vid=f093fa9a-f7aa-44d2-b5e3-a1f52283c98b"},"vehicle_type_id":"4","last_reported":1701511596,"current_range_meters":27600,"station_id":"ce4bhi12rcd13ifvqfp0","pricing_plan_id":"free"},{"bike_id":"dfcfb16b-188c-4640-9387-e576512ba81f","system_id":"levelo_inurba_marseille","lat":43.23964,"lon":5.36624,"is_reserved":false,"is_disabled":false,"rental_uris":{"android":"levelo://app?vid=dfcfb16b-188c-4640-9387-e576512ba81f","ios":"levelo://app?vid=dfcfb16b-188c-4640-9387-e576512ba81f"},"vehicle_type_id":"4","last_reported":1701511596,"current_range_meters":2000,"station_id":"ce4bhi12rcd13ifvqfp0","pricing_plan_id":"free"},{"bike_id":"d3872640-84e1-4d1c-a007-af24fef4e18f","system_id":"levelo_inurba_marseille","lat":43.23963,"lon":5.36628,"is_reserved":false,"is_disabled":false,"rental_uris":{"android":"levelo://app?vid=d3872640-84e1-4d1c-a007-af24fef4e18f","ios":"levelo://app?vid=d3872640-84e1-4d1c-a007-af24fef4e18f"},"vehicle_type_id":"4","last_reported":1701511596,"current_range_meters":18000,"station_id":"ce4bhi12rcd13ifvqfp0","pricing_plan_id":"free"},{"bike_id":"b101f295-ac85-402a-8afe-c635c176f114","system_id":"levelo_inurba_marseille","lat":43.28523,"lon":5.46045,"is_reserved":false,"is_disabled":false,"rental_uris":{"android":"levelo://app?vid=b101f295-ac85-402a-8afe-c635c176f114","ios":"levelo://app?vid=b101f295-ac85-402a-8afe-c635c176f114"},"vehicle_type_id":"4","last_reported":1701511596,"current_range_meters":24400,"station_id":"","pricing_plan_id":"free"},{"bike_id":"6b7e9c5d-ac08-44c4-808d-17da2b849f0a","system_id":"levelo_inurba_marseille","lat":43.2418,"lon":5.39724,"is_reserved":false,"is_disabled":false,"rental_uris":{"android":"levelo://app?vid=6b7e9c5d-ac08-44c4-808d-17da2b849f0a","ios":"levelo://app?vid=6b7e9c5d-ac08-44c4-808d-17da2b849f0a"},"vehicle_type_id":"4","last_reported":1701511596,"current_range_meters":14000,"station_id":"ce4bhn12rcd13ifvqgpg","pricing_plan_id":"free"},{"bike_id":"7292cb98-02c1-4dbf-be0f-631ba6e41bf4","system_id":"levelo_inurba_marseille","lat":43.241782,"lon":5.397261,"is_reserved":false,"is_disabled":false,"rental_uris":{"android":"levelo://app?vid=7292cb98-02c1-4dbf-be0f-631ba6e41bf4","ios":"levelo://app?vid=7292cb98-02c1-4dbf-be0f-631ba6e41bf4"},"vehicle_type_id":"4","last_reported":1701511596,"current_range_meters":28800,"station_id":"ce4bhn12rcd13ifvqgpg","pricing_plan_id":"free"},{"bike_id":"8d32c52d-9c9c-458e-b295-d4c6432bf0b1","system_id":"levelo_inurba_marseille","lat":43.231999,"lon":5.355474,"is_reserved":false,"is_disabled":false,"rental_uris":{"android":"levelo://app?vid=8d32c52d-9c9c-458e-b295-d4c6432bf0b1","ios":"levelo://app?vid=8d32c52d-9c9c-458e-b295-d4c6432bf0b1"},"vehicle_type_id":"4","last_reported":1701511596,"current_range_meters":10400,"station_id":"ce4bhu92rcd13ifvqi70","pricing_plan_id":"free"},{"bike_id":"6462fbc5-ceb8-47e3-b56d-fc1e69bef19f","system_id":"levelo_inurba_marseille","lat":43.231919,"lon":5.355532,"is_reserved":false,"is_disabled":false,"rental_uris":{"android":"levelo://app?vid=6462fbc5-ceb8-47e3-b56d-fc1e69bef19f","ios":"levelo://app?vid=6462fbc5-ceb8-47e3-b56d-fc1e69bef19f"},"vehicle_type_id":"4","last_reported":1701511596,"current_range_meters":29600,"station_id":"ce4bhu92rcd13ifvqi70","pricing_plan_id":"free"},{"bike_id":"6382809b-45d0-4ad2-8be7-697249f82077","system_id":"levelo_inurba_marseille","lat":43.231919,"lon":5.355532,"is_reserved":false,"is_disabled":false,"rental_uris":{"android":"levelo://app?vid=6382809b-45d0-4ad2-8be7-697249f82077","ios":"levelo://app?vid=6382809b-45d0-4ad2-8be7-697249f82077"},"vehicle_type_id":"4","last_reported":1701511596,"current_range_meters":31200,"station_id":"ce4bhu92rcd13ifvqi70","pricing_plan_id":"free"},{"bike_id":"dc03c4db-7fa1-40b2-b6c4-6e2c35355c9e","system_id":"levelo_inurba_marseille","lat":43.231919,"lon":5.355532,"is_reserved":false,"is_disabled":false,"rental_uris":{"android":"levelo://app?vid=dc03c4db-7fa1-40b2-b6c4-6e2c35355c9e","ios":"levelo://app?vid=dc03c4db-7fa1-40b2-b6c4-6e2c35355c9e"},"vehicle_type_id":"4","last_reported":1701511596,"current_range_meters":20000,"station_id":"ce4bhu92rcd13ifvqi70","pricing_plan_id":"free"},{"bike_id":"c07b0be8-3ec1-4f51-b661-de25758a5a36","system_id":"levelo_inurba_marseille","lat":43.231919,"lon":5.355532,"is_reserved":false,"is_disabled":false,"rental_uris":{"android":"levelo://app?vid=c07b0be8-3ec1-4f51-b661-de25758a5a36","ios":"levelo://app?vid=c07b0be8-3ec1-4f51-b661-de25758a5a36"},"vehicle_type_id":"4","last_reported":1701511596,"current_range_meters":15600,"station_id":"ce4bhu92rcd13ifvqi70","pricing_plan_id":"free"},{"bike_id":"9dc97c96-8e15-4d34-bc42-2b10dd83e9f4","system_id":"levelo_inurba_marseille","lat":43.231978,"lon":5.355449,"is_reserved":false,"is_disabled":false,"rental_uris":{"android":"levelo://app?vid=9dc97c96-8e15-4d34-bc42-2b10dd83e9f4","ios":"levelo://app?vid=9dc97c96-8e15-4d34-bc42-2b10dd83e9f4"},"vehicle_type_id":"4","last_reported":1701511596,"current_range_meters":20000,"station_id":"ce4bhu92rcd13ifvqi70","pricing_plan_id":"free"},{"bike_id":"cf3102c4-88e0-4a41-86b7-69a76932d3e6","system_id":"levelo_inurba_marseille","lat":43.231923,"lon":5.355545,"is_reserved":false,"is_disabled":false,"rental_uris":{"android":"levelo://app?vid=cf3102c4-88e0-4a41-86b7-69a76932d3e6","ios":"levelo://app?vid=cf3102c4-88e0-4a41-86b7-69a76932d3e6"},"vehicle_type_id":"4","last_reported":1701511596,"current_range_meters":31200,"station_id":"ce4bhu92rcd13ifvqi70","pricing_plan_id":"free"},{"bike_id":"d0b35396-6769-42d4-8160-8b44cb829902","system_id":"levelo_inurba_marseille","lat":43.231793,"lon":5.400044,"is_reserved":false,"is_disabled":false,"rental_uris":{"android":"levelo://app?vid=d0b35396-6769-42d4-8160-8b44cb829902","ios":"levelo://app?vid=d0b35396-6769-42d4-8160-8b44cb829902"},"vehicle_type_id":"4","last_reported":1701511596,"current_range_meters":31200,"station_id":"ce4bhn12rcd13ifvqgqg","pricing_plan_id":"free"},{"bike_id":"6bd9f065-50d9-4657-9ca0-a006f413d305","system_id":"levelo_inurba_marseille","lat":43.231794,"lon":5.400052,"is_reserved":false,"is_disabled":false,"rental_uris":{"android":"levelo://app?vid=6bd9f065-50d9-4657-9ca0-a006f413d305","ios":"levelo://app?vid=6bd9f065-50d9-4657-9ca0-a006f413d305"},"vehicle_type_id":"4","last_reported":1701511596,"current_range_meters":31200,"station_id":"ce4bhn12rcd13ifvqgqg","pricing_plan_id":"free"},{"bike_id":"22bd98e3-c33f-4c44-ae2b-f96729d36f4f","system_id":"levelo_inurba_marseille","lat":43.231793,"lon":5.400044,"is_reserved":false,"is_disabled":false,"rental_uris":{"android":"levelo://app?vid=22bd98e3-c33f-4c44-ae2b-f96729d36f4f","ios":"levelo://app?vid=22bd98e3-c33f-4c44-ae2b-f96729d36f4f"},"vehicle_type_id":"4","last_reported":1701511596,"current_range_meters":29200,"station_id":"ce4bhn12rcd13ifvqgqg","pricing_plan_id":"free"},{"bike_id":"c2189b33-a31e-4851-9831-001d4716dec5","system_id":"levelo_inurba_marseille","lat":43.231794,"lon":5.400052,"is_reserved":false,"is_disabled":false,"rental_uris":{"android":"levelo://app?vid=c2189b33-a31e-4851-9831-001d4716dec5","ios":"levelo://app?vid=c2189b33-a31e-4851-9831-001d4716dec5"},"vehicle_type_id":"4","last_reported":1701511596,"current_range_meters":14800,"station_id":"ce4bhn12rcd13ifvqgqg","pricing_plan_id":"free"},{"bike_id":"1eeab9a5-d341-4bc8-8d21-ee151ff9d9b2","system_id":"levelo_inurba_marseille","lat":43.23187,"lon":5.399889,"is_reserved":false,"is_disabled":false,"rental_uris":{"android":"levelo://app?vid=1eeab9a5-d341-4bc8-8d21-ee151ff9d9b2","ios":"levelo://app?vid=1eeab9a5-d341-4bc8-8d21-ee151ff9d9b2"},"vehicle_type_id":"4","last_reported":1701511596,"current_range_meters":16400,"station_id":"ce4bhn12rcd13ifvqgqg","pricing_plan_id":"free"},{"bike_id":"457c552c-8af5-4b7b-9f6b-8c901265a623","system_id":"levelo_inurba_marseille","lat":43.231793,"lon":5.400044,"is_reserved":false,"is_disabled":false,"rental_uris":{"android":"levelo://app?vid=457c552c-8af5-4b7b-9f6b-8c901265a623","ios":"levelo://app?vid=457c552c-8af5-4b7b-9f6b-8c901265a623"},"vehicle_type_id":"4","last_reported":1701511596,"current_range_meters":31200,"station_id":"ce4bhn12rcd13ifvqgqg","pricing_plan_id":"free"},{"bike_id":"713044a8-ca11-4321-b8d6-b7a5ba1a8a49","system_id":"levelo_inurba_marseille","lat":43.231793,"lon":5.400044,"is_reserved":false,"is_disabled":false,"rental_uris":{"android":"levelo://app?vid=713044a8-ca11-4321-b8d6-b7a5ba1a8a49","ios":"levelo://app?vid=713044a8-ca11-4321-b8d6-b7a5ba1a8a49"},"vehicle_type_id":"4","last_reported":1701511596,"current_range_meters":23200,"station_id":"ce4bhn12rcd13ifvqgqg","pricing_plan_id":"free"}]}}