{"last_updated":1730754470,"ttl":60,"version":"2.2","data":{"bikes":[{"bike_id":"a5d15f62-e815-44e1-b6c6-9fed168c27a7","system_id":"levelo_inurba_marseille","lat":43.298839,"lon":5.389051,"is_reserved":false,"is_disabled":false,"rental_uris":{"android":"levelo://app?vid=a5d15f62-e815-44e1-b6c6-9fed168c27a7","ios":"levelo://app?vid=a5d15f62-e815-44e1-b6c6-9fed168c27a7"},"vehicle_type_id":"4","last_reported":1730754470,"current_range_meters":26800,"station_id":"ce4bhop2rcd13ifvqh8g","pricing_plan_id":"cebpf4jnsgd1na2vs0mg"},{"bike_id":"0371acda-a2cf-455b-8ec8-056cee40fd62","system_id":"levelo_inurba_marseille","lat":43.29273,"lon":5.40116,"is_reserved":false,"is_disabled":false,"rental_uris":{"android":"levelo://app?vid=0371acda-a2cf-455b-8ec8-056cee40fd62","ios":"levelo://app?vid=0371acda-a2cf-455b-8ec8-056cee40fd62"},"vehicle_type_id":"4","last_reported":1730754470,"current_range_meters":20400,"station_id":"ce4bh312rcd13ifvqdk0","pricing_plan_id":"cebpf4jnsgd1na2vs0mg"},{"bike_id":"b7837f34-17a9-43ad-b99a-4bf61e4fa6db","system_id":"levelo_inurba_marseille","lat":43.30238,"lon":5.40057,"is_reserved":false,"is_disabled":false,"rental_uris":{"android":"levelo://app?vid=b7837f34-17a9-43ad-b99a-4bf61e4fa6db","ios":"levelo://app?vid=b7837f34-17a9-43ad-b99a-4bf61e4fa6db"},"vehicle_type_id":"4","last_reported":1730754470,"current_range_meters":36800,"station_id":"ce4bgvh2rcd13ifvqcs0","pricing_plan_id":"cebpf4jnsgd1na2vs0mg"},{"bike_id":"bcac3ad2-33ea-454e-b32a-bb7e115d1f16","system_id":"levelo_inurba_marseille","lat":43.280838,"lon":5.396559,"is_reserved":false,"is_disabled":false,"rental_uris":{"android":"levelo://app?vid=bcac3ad2-33ea-454e-b32a-bb7e115d1f16","ios":"levelo://app?vid=bcac3ad2-33ea-454e-b32a-bb7e115d1f16"},"vehicle_type_id":"4","last_reported":1730754470,"current_range_meters":36400,"station_id":"ce4bho12rcd13ifvqh2g","pricing_plan_id":"cebpf4jnsgd1na2vs0mg"},{"bike_id":"c24fb9a5-b454-4ee1-a0d9-7727e66a5e9b","system_id":"levelo_inurba_marseille","lat":43.29088,"lon":5.38143,"is_reserved":false,"is_disabled":false,"rental_uris":{"android":"levelo://app?vid=c24fb9a5-b454-4ee1-a0d9-7727e66a5e9b","ios":"levelo://app?vid=c24fb9a5-b454-4ee1-a0d9-7727e66a5e9b"},"vehicle_type_id":"4","last_reported":1730754470,"current_range_meters":38000,"station_id":"ce4bh512rcd13ifvqe2g","pricing_plan_id":"cebpf4jnsgd1na2vs0mg"},{"bike_id":"2b6c8443-1848-4bd1-a5f7-cb79fbd151e5","system_id":"levelo_inurba_marseille","lat":43.28461,"lon":5.35892,"is_reserved":false,"is_disabled":false,"rental_uris":{"android":"levelo://app?vid=2b6c8443-1848-4bd1-a5f7-cb79fbd151e5","ios":"levelo://app?vid=2b6c8443-1848-4bd1-a5f7-cb79fbd151e5"},"vehicle_type_id":"4","last_reported":1730754470,"current_range_meters":33600,"station_id":"ce4bhah2rcd13ifvqei0","pricing_plan_id":"cebpf4jnsgd1na2vs0mg"},{"bike_id":"75ffce48-8c1d-4207-a3ed-d2d7ad52ce2d","system_id":"levelo_inurba_marseille","lat":43.23963,"lon":5.3664,"is_reserved":false,"is_disabled":false,"rental_uris":{"android":"levelo://app?vid=75ffce48-8c1d-4207-a3ed-d2d7ad52ce2d","ios":"levelo://app?vid=75ffce48-8c1d-4207-a3ed-d2d7ad52ce2d"},"vehicle_type_id":"4","last_reported":1730754470,"current_range_meters":9200,"station_id":"ce4bhi12rcd13ifvqfp0","pricing_plan_id":"cebpf4jnsgd1na2vs0mg"},{"bike_id":"0813b8d9-95b0-4ee8-8c30-0a2f8f5acae7","system_id":"levelo_inurba_marseille","lat":43.28662,"lon":5.36357,"is_reserved":false,"is_disabled":false,"rental_uris":{"android":"levelo://app?vid=0813b8d9-95b0-4ee8-8c30-0a2f8f5acae7","ios":"levelo://app?vid=0813b8d9-95b0-4ee8-8c30-0a2f8f5acae7"},"vehicle_type_id":"4","last_reported":1730754470,"current_range_meters":38800,"station_id":"ce4bhah2rcd13ifvqej0","pricing_plan_id":"cebpf4jnsgd1na2vs0mg"},{"bike_id":"e69268df-bf99-404c-a39a-ee9f2a3ecdf5","system_id":"levelo_inurba_marseille","lat":43.30638,"lon":5.4008,"is_reserved":false,"is_disabled":false,"rental_uris":{"android":"levelo://app?vid=e69268df-bf99-404c-a39a-ee9f2a3ecdf5","ios":"levelo://app?vid=e69268df-bf99-404c-a39a-ee9f2a3ecdf5"},"vehicle_type_id":"4","last_reported":1730754470,"current_range_meters":8000,"station_id":"ce4bh112rcd13ifvqda0","pricing_plan_id":"cebpf4jnsgd1na2vs0mg"},{"bike_id":"0491a692-c395-4566-a937-f7786ff3a5f7","system_id":"levelo_inurba_marseille","lat":43.31261,"lon":5.40168,"is_reserved":false,"is_disabled":false,"rental_uris":{"android":"levelo://app?vid=0491a692-c395-4566-a937-f7786ff3a5f7","ios":"levelo://app?vid=0491a692-c395-4566-a937-f7786ff3a5f7"},"vehicle_type_id":"4","last_reported":1730754470,"current_range_meters":10800,"station_id":"ce4bh092rcd13ifvqd30","pricing_plan_id":"cebpf4jnsgd1na2vs0mg"},{"bike_id":"7d640c47-a4ae-4641-8ed6-4165bb1caeb6","system_id":"levelo_inurba_marseille","lat":43.26487,"lon":5.39554,"is_reserved":false,"is_disabled":false,"rental_uris":{"android":"levelo://app?vid=7d640c47-a4ae-4641-8ed6-4165bb1caeb6","ios":"levelo://app?vid=7d640c47-a4ae-4641-8ed6-4165bb1caeb6"},"vehicle_type_id":"4","last_reported":1730754470,"current_range_meters":38000,"station_id":"ce4bhi12rcd13ifvqfq0","pricing_plan_id":"cebpf4jnsgd1na2vs0mg"},{"bike_id":"bef6e360-e6a9-4673-8e18-0a89fd02a098","system_id":"levelo_inurba_marseille","lat":43.30091,"lon":5.39087,"is_reserved":false,"is_disabled":false,"rental_uris":{"android":"levelo://app?vid=bef6e360-e6a9-4673-8e18-0a89fd02a098","ios":"levelo://app?vid=bef6e360-e6a9-4673-8e18-0a89fd02a098"},"vehicle_type_id":"4","last_reported":1730754470,"current_range_meters":17200,"station_id":"ce4bh192rcd13ifvqdb0","pricing_plan_id":"cebpf4jnsgd1na2vs0mg"},{"bike_id":"cb837012-d890-4b1f-b6e8-aeb4d1a733d2","system_id":"levelo_inurba_marseille","lat":43.28105,"lon":5.37839,"is_reserved":false,"is_disabled":false,"rental_uris":{"android":"levelo://app?vid=cb837012-d890-4b1f-b6e8-aeb4d1a733d2","ios":"levelo://app?vid=cb837012-d890-4b1f-b6e8-aeb4d1a733d2"},"vehicle_type_id":"4","last_reported":1730754470,"current_range_meters":36800,"station_id":"ce4bha12rcd13ifvqee0","pricing_plan_id":"cebpf4jnsgd1na2vs0mg"},{"bike_id":"d7680b91-790b-4028-b988-1d6c2608791c","system_id":"levelo_inurba_marseille","lat":43.32359,"lon":5.38894,"is_reserved":false,"is_disabled":false,"rental_uris":{"android":"levelo://app?vid=d7680b91-790b-4028-b988-1d6c2608791c","ios":"levelo://app?vid=d7680b91-790b-4028-b988-1d6c2608791c"},"vehicle_type_id":"4","last_reported":1730754470,"current_range_meters":23200,"station_id":"ce4bhqp2rcd13ifvqhog","pricing_plan_id":"cebpf4jnsgd1na2vs0mg"},{"bike_id":"02cfb5d4-700c-4b94-9b4b-4c46170a4f98","system_id":"levelo_inurba_marseille","lat":43.29881,"lon":5.38921,"is_reserved":false,"is_disabled":false,"rental_uris":{"android":"levelo://app?vid=02cfb5d4-700c-4b94-9b4b-4c46170a4f98","ios":"levelo://app?vid=02cfb5d4-700c-4b94-9b4b-4c46170a4f98"},"vehicle_type_id":"4","last_reported":1730754470,"current_range_meters":38800,"station_id":"ce4bh392rcd13ifvqdl0","pricing_plan_id":"cebpf4jnsgd1na2vs0mg"},{"bike_id":"590de1cb-eae9-4a79-b020-0e8321b145ef","system_id":"levelo_inurba_marseille","lat":43.289333,"lon":5.383999,"is_reserved":false,"is_disabled":false,"rental_uris":{"android":"levelo://app?vid=590de1cb-eae9-4a79-b020-0e8321b145ef","ios":"levelo://app?vid=590de1cb-eae9-4a79-b020-0e8321b145ef"},"vehicle_type_id":"4","last_reported":1730754470,"current_range_meters":22400,"station_id":"ce4bhu92rcd13ifvqi70","pricing_plan_id":"cebpf4jnsgd1na2vs0mg"},{"bike_id":"4147bbfb-4b14-4aca-b782-8ec6c0473609","system_id":"levelo_inurba_marseille","lat":43.23594,"lon":5.40343,"is_reserved":false,"is_disabled":false,"rental_uris":{"android":"levelo://app?vid=4147bbfb-4b14-4aca-b782-8ec6c0473609","ios":"levelo://app?vid=4147bbfb-4b14-4aca-b782-8ec6c0473609"},"vehicle_type_id":"4","last_reported":1730754470,"current_range_meters":11600,"station_id":"","pricing_plan_id":"cebpf4jnsgd1na2vs0mg"},{"bike_id":"8113a11d-faa1-4a73-a7b9-57f2c7a19838","system_id":"levelo_inurba_marseille","lat":43.3234,"lon":5.40622,"is_reserved":false,"is_disabled":false,"rental_uris":{"android":"levelo://app?vid=8113a11d-faa1-4a73-a7b9-57f2c7a19838","ios":"levelo://app?vid=8113a11d-faa1-4a73-a7b9-57f2c7a19838"},"vehicle_type_id":"4","last_reported":1730754470,"current_range_meters":17600,"station_id":"ce4bhq92rcd13ifvqhjg","pricing_plan_id":"cebpf4jnsgd1na2vs0mg"},{"bike_id":"fa66adb8-19da-4b56-aeb9-ccf1206b3e1e","system_id":"levelo_inurba_marseille","lat":43.32368,"lon":5.36755,"is_reserved":false,"is_disabled":false,"rental_uris":{"android":"levelo://app?vid=fa66adb8-19da-4b56-aeb9-ccf1206b3e1e","ios":"levelo://app?vid=fa66adb8-19da-4b56-aeb9-ccf1206b3e1e"},"vehicle_type_id":"4","last_reported":1730754470,"current_range_meters":37600,"station_id":"ce4bhsh2rcd13ifvqi2g","pricing_plan_id":"cebpf4jnsgd1na2vs0mg"},{"bike_id":"146b94cf-b81c-43a8-a126-d1471621d458","system_id":"levelo_inurba_marseille","lat":43.28001,"lon":5.40011,"is_reserved":false,"is_disabled":false,"rental_uris":{"android":"levelo://app?vid=146b94cf-b81c-43a8-a126-d1471621d458","ios":"levelo://app?vid=146b94cf-b81c-43a8-a126-d1471621d458"},"vehicle_type_id":"4","last_reported":1730754470,"current_range_meters":29600,"station_id":"ce4bho92rcd13ifvqh4g","pricing_plan_id":"cebpf4jnsgd1na2vs0mg"},{"bike_id":"64a2b89f-49f7-40b2-a980-02000405203c","system_id":"levelo_inurba_marseille","lat":43.28836,"lon":5.39321,"is_reserved":false,"is_disabled":false,"rental_uris":{"android":"levelo://app?vid=64a2b89f-49f7-40b2-a980-02000405203c","ios":"levelo://app?vid=64a2b89f-49f7-40b2-a980-02000405203c"},"vehicle_type_id":"4","last_reported":1730754470,"current_range_meters":24400,"station_id":"ce4bh2p2rcd13ifvqdi0","pricing_plan_id":"cebpf4jnsgd1na2vs0mg"},{"bike_id":"9dd4c1b5-f2ec-496b-8f02-a2c3d2c60a9c","system_id":"levelo_inurba_marseille","lat":43.24769,"lon":5.4183,"is_reserved":false,"is_disabled":false,"rental_uris":{"android":"levelo://app?vid=9dd4c1b5-f2ec-496b-8f02-a2c3d2c60a9c","ios":"levelo://app?vid=9dd4c1b5-f2ec-496b-8f02-a2c3d2c60a9c"},"vehicle_type_id":"4","last_reported":1730754470,"current_range_meters":30800,"station_id":"ce4bhkp2rcd13ifvqgd0","pricing_plan_id":"cebpf4jnsgd1na2vs0mg"},{"bike_id":"526eedd4-db5c-4687-9de3-3c089eba7751","system_id":"levelo_inurba_marseille","lat":43.23176,"lon":5.39988,"is_reserved":false,"is_disabled":false,"rental_uris":{"android":"levelo://app?vid=526eedd4-db5c-4687-9de3-3c089eba7751","ios":"levelo://app?vid=526eedd4-db5c-4687-9de3-3c089eba7751"},"vehicle_type_id":"4","last_reported":1730754470,"current_range_meters":10000,"station_id":"ce4bhn12rcd13ifvqgqg","pricing_plan_id":"cebpf4jnsgd1na2vs0mg"},{"bike_id":"47662166-db17-4d16-a97b-519c42566d41","system_id":"levelo_inurba_marseille","lat":43.27812,"lon":5.40717,"is_reserved":false,"is_disabled":false,"rental_uris":{"android":"levelo://app?vid=47662166-db17-4d16-a97b-519c42566d41","ios":"levelo://app?vid=47662166-db17-4d16-a97b-519c42566d41"},"vehicle_type_id":"4","last_reported":1730754470,"current_range_meters":6800,"station_id":"ce4bhnh2rcd13ifvqgtg","pricing_plan_id":"cebpf4jnsgd1na2vs0mg"},{"bike_id":"399c091d-eea8-444a-a560-3632601b8775","system_id":"levelo_inurba_marseille","lat":43.294403,"lon":5.414898,"is_reserved":false,"is_disabled":false,"rental_uris":{"android":"levelo://app?vid=399c091d-eea8-444a-a560-3632601b8775","ios":"levelo://app?vid=399c091d-eea8-444a-a560-3632601b8775"},"vehicle_type_id":"4","last_reported":1730754470,"current_range_meters":31200,"station_id":"","pricing_plan_id":"cebpf4jnsgd1na2vs0mg"},{"bike_id":"525c40cf-ce5d-40cc-a112-46953ad38731","system_id":"levelo_inurba_marseille","lat":43.31169,"lon":5.38715,"is_reserved":false,"is_disabled":false,"rental_uris":{"android":"levelo://app?vid=525c40cf-ce5d-40cc-a112-46953ad38731","ios":"levelo://app?vid=525c40cf-ce5d-40cc-a112-46953ad38731"},"vehicle_type_id":"4","last_reported":1730754470,"current_range_meters":39200,"station_id":"ce4bgv12rcd13ifvqcp0","pricing_plan_id":"cebpf4jnsgd1na2vs0mg"},{"bike_id":"ef762b0a-886e-4da9-adfe-1739a57163ed","system_id":"levelo_inurba_marseille","lat":43.32338,"lon":5.40628,"is_reserved":false,"is_disabled":false,"rental_uris":{"android":"levelo://app?vid=ef762b0a-886e-4da9-adfe-1739a57163ed","ios":"levelo://app?vid=ef762b0a-886e-4da9-adfe-1739a57163ed"},"vehicle_type_id":"4","last_reported":1730754470,"current_range_meters":12000,"station_id":"ce4bhq92rcd13ifvqhjg","pricing_plan_id":"cebpf4jnsgd1na2vs0mg"},{"bike_id":"9d66f4fc-f188-4117-93ce-695f9d5a4186","system_id":"levelo_inurba_marseille","lat":43.28677,"lon":5.38677,"is_reserved":false,"is_disabled":false,"rental_uris":{"android":"levelo://app?vid=9d66f4fc-f188-4117-93ce-695f9d5a4186","ios":"levelo://app?vid=9d66f4fc-f188-4117-93ce-695f9d5a4186"},"vehicle_type_id":"4","last_reported":1730754470,"current_range_meters":38800,"station_id":"ce4bh492rcd13ifvqdug","pricing_plan_id":"cebpf4jnsgd1na2vs0mg"},{"bike_id":"2af6be3f-eaed-4be8-a196-a65251f911e8","system_id":"levelo_inurba_marseille","lat":43.30311,"lon":5.36917,"is_reserved":false,"is_disabled":false,"rental_uris":{"android":"levelo://app?vid=2af6be3f-eaed-4be8-a196-a65251f911e8","ios":"levelo://app?vid=2af6be3f-eaed-4be8-a196-a65251f911e8"},"vehicle_type_id":"4","last_reported":1730754470,"current_range_meters":38800,"station_id":"ce4bgqh2rcd13ifvqc5g","pricing_plan_id":"cebpf4jnsgd1na2vs0mg"},{"bike_id":"f7b02530-438b-4535-927c-07793d571ea5","system_id":"levelo_inurba_marseille","lat":43.29626,"lon":5.40597,"is_reserved":false,"is_disabled":false,"rental_uris":{"android":"levelo://app?vid=f7b02530-438b-4535-927c-07793d571ea5","ios":"levelo://app?vid=f7b02530-438b-4535-927c-07793d571ea5"},"vehicle_type_id":"4","last_reported":1730754470,"current_range_meters":38800,"station_id":"ce4bh0h2rcd13ifvqd60","pricing_plan_id":"cebpf4jnsgd1na2vs0mg"},{"bike_id":"2378f453-72a7-4eb2-ab3b-946285d406fd","system_id":"levelo_inurba_marseille","lat":43.29222,"lon":5.37719,"is_reserved":false,"is_disabled":false,"rental_uris":{"android":"levelo://app?vid=2378f453-72a7-4eb2-ab3b-946285d406fd","ios":"levelo://app?vid=2378f453-72a7-4eb2-ab3b-946285d406fd"},"vehicle_type_id":"4","last_reported":1730754470,"current_range_meters":6800,"station_id":"","pricing_plan_id":"cebpf4jnsgd1na2vs0mg"},{"bike_id":"014e77a6-0034-465e-8a5b-a5686eadcc57","system_id":"levelo_inurba_marseille","lat":43.32656,"lon":5.40995,"is_reserved":false,"is_disabled":false,"rental_uris":{"android":"levelo://app?vid=014e77a6-0034-465e-8a5b-a5686eadcc57","ios":"levelo://app?vid=014e77a6-0034-465e-8a5b-a5686eadcc57"},"vehicle_type_id":"4","last_reported":1730754470,"current_range_meters":38800,"station_id":"ce4bhpp2rcd13ifvqhgg","pricing_plan_id":"cebpf4jnsgd1na2vs0mg"},{"bike_id":"82e8bb4a-8783-4050-aed1-8379ac8ccdd8","system_id":"levelo_inurba_marseille","lat":43.30423,"lon":5.38892,"is_reserved":false,"is_disabled":false,"rental_uris":{"android":"levelo://app?vid=82e8bb4a-8783-4050-aed1-8379ac8ccdd8","ios":"levelo://app?vid=82e8bb4a-8783-4050-aed1-8379ac8ccdd8"},"vehicle_type_id":"4","last_reported":1730754470,"current_range_meters":22400,"station_id":"ce4bgk12rcd13ifvqbi0","pricing_plan_id":"cebpf4jnsgd1na2vs0mg"},{"bike_id":"6cbb89c4-c2da-42de-93f0-9dcdf0e0bf06","system_id":"levelo_inurba_marseille","lat":43.29276,"lon":5.40129,"is_reserved":false,"is_disabled":false,"rental_uris":{"android":"levelo://app?vid=6cbb89c4-c2da-42de-93f0-9dcdf0e0bf06","ios":"levelo://app?vid=6cbb89c4-c2da-42de-93f0-9dcdf0e0bf06"},"vehicle_type_id":"4","last_reported":1730754470,"current_range_meters":2000,"station_id":"ce4bh312rcd13ifvqdk0","pricing_plan_id":"cebpf4jnsgd1na2vs0mg"},{"bike_id":"2602b645-c58e-4030-8510-c723643c7d20","system_id":"levelo_inurba_marseille","lat":43.2857,"lon":5.39506,"is_reserved":false,"is_disabled":false,"rental_uris":{"android":"levelo://app?vid=2602b645-c58e-4030-8510-c723643c7d20","ios":"levelo://app?vid=2602b645-c58e-4030-8510-c723643c7d20"},"vehicle_type_id":"4","last_reported":1730754470,"current_range_meters":6400,"station_id":"ce4bh292rcd13ifvqdg0","pricing_plan_id":"cebpf4jnsgd1na2vs0mg"},{"bike_id":"1dcc4078-31e5-4cab-8516-eb6896bc0e11","system_id":"levelo_inurba_marseille","lat":43.30884,"lon":5.372,"is_reserved":false,"is_disabled":false,"rental_uris":{"android":"levelo://app?vid=1dcc4078-31e5-4cab-8516-eb6896bc0e11","ios":"levelo://app?vid=1dcc4078-31e5-4cab-8516-eb6896bc0e11"},"vehicle_type_id":"4","last_reported":1730754470,"current_range_meters":38800,"station_id":"ce4bguh2rcd13ifvqckg","pricing_plan_id":"cebpf4jnsgd1na2vs0mg"},{"bike_id":"57648f51-6893-4ff8-8f45-2fb3884d8355","system_id":"levelo_inurba_marseille","lat":43.27613,"lon":5.36113,"is_reserved":false,"is_disabled":false,"rental_uris":{"android":"levelo://app?vid=57648f51-6893-4ff8-8f45-2fb3884d8355","ios":"levelo://app?vid=57648f51-6893-4ff8-8f45-2fb3884d8355"},"vehicle_type_id":"4","last_reported":1730754470,"current_range_meters":5600,"station_id":"ce4bgj92rcd13ifvqbe0","pricing_plan_id":"cebpf4jnsgd1na2vs0mg"},{"bike_id":"fc2c3f9b-061b-4b88-8d47-8a6d27bb94ba","system_id":"levelo_inurba_marseille","lat":43.25119,"lon":5.40317,"is_reserved":false,"is_disabled":false,"rental_uris":{"android":"levelo://app?vid=fc2c3f9b-061b-4b88-8d47-8a6d27bb94ba","ios":"levelo://app?vid=fc2c3f9b-061b-4b88-8d47-8a6d27bb94ba"},"vehicle_type_id":"4","last_reported":1730754470,"current_range_meters":9200,"station_id":"ce4bhlh2rcd13ifvqgig","pricing_plan_id":"cebpf4jnsgd1na2vs0mg"},{"bike_id":"be569dbd-7574-4aea-9eb3-dd7998ac8895","system_id":"levelo_inurba_marseille","lat":43.27077,"lon":5.42275,"is_reserved":false,"is_disabled":false,"rental_uris":{"android":"levelo://app?vid=be569dbd-7574-4aea-9eb3-dd7998ac8895","ios":"levelo://app?vid=be569dbd-7574-4aea-9eb3-dd7998ac8895"},"vehicle_type_id":"4","last_reported":1730754470,"current_range_meters":14800,"station_id":"ce4bhk92rcd13ifvqgb0","pricing_plan_id":"cebpf4jnsgd1na2vs0mg"},{"bike_id":"14b65ae9-05a0-4b59-874c-23a507139553","system_id":"levelo_inurba_marseille","lat":43.29256,"lon":5.38436,"is_reserved":false,"is_disabled":false,"rental_uris":{"android":"levelo://app?vid=14b65ae9-05a0-4b59-874c-23a507139553","ios":"levelo://app?vid=14b65ae9-05a0-4b59-874c-23a507139553"},"vehicle_type_id":"4","last_reported":1730754470,"current_range_meters":8400,"station_id":"ce4bh692rcd13ifvqea0","pricing_plan_id":"cebpf4jnsgd1na2vs0mg"},{"bike_id":"c02cb689-cac5-4dfa-bde0-e095a992c4d0","system_id":"levelo_inurba_marseille","lat":43.29789,"lon":5.39342,"is_reserved":false,"is_disabled":false,"rental_uris":{"android":"levelo://app?vid=c02cb689-cac5-4dfa-bde0-e095a992c4d0","ios":"levelo://app?vid=c02cb689-cac5-4dfa-bde0-e095a992c4d0"},"vehicle_type_id":"4","last_reported":1730754470,"current_range_meters":38800,"station_id":"chh1huq6cuj3fo74tm60","pricing_plan_id":"cebpf4jnsgd1na2vs0mg"},{"bike_id":"e12d7650-f1b2-4c4b-8eb8-23651f70543b","system_id":"levelo_inurba_marseille","lat":43.32362,"lon":5.38882,"is_reserved":false,"is_disabled":false,"rental_uris":{"android":"levelo://app?vid=e12d7650-f1b2-4c4b-8eb8-23651f70543b","ios":"levelo://app?vid=e12d7650-f1b2-4c4b-8eb8-23651f70543b"},"vehicle_type_id":"4","last_reported":1730754470,"current_range_meters":8800,"station_id":"ce4bhqp2rcd13ifvqhog","pricing_plan_id":"cebpf4jnsgd1na2vs0mg"},{"bike_id":"fbe1344d-a732-4551-86e4-3b4d6dad7b24","system_id":"levelo_inurba_marseille","lat":43.2926,"lon":5.40914,"is_reserved":false,"is_disabled":false,"rental_uris":{"android":"levelo://app?vid=fbe1344d-a732-4551-86e4-3b4d6dad7b24","ios":"levelo://app?vid=fbe1344d-a732-4551-86e4-3b4d6dad7b24"},"vehicle_type_id":"4","last_reported":1730754470,"current_range_meters":10800,"station_id":"ce4bh192rcd13ifvqdc0","pricing_plan_id":"cebpf4jnsgd1na2vs0mg"},{"bike_id":"2f27399c-a924-4473-9d9b-dbf4e2858c4b","system_id":"levelo_inurba_marseille","lat":43.25867,"lon":5.39906,"is_reserved":false,"is_disabled":false,"rental_uris":{"android":"levelo://app?vid=2f27399c-a924-4473-9d9b-dbf4e2858c4b","ios":"levelo://app?vid=2f27399c-a924-4473-9d9b-dbf4e2858c4b"},"vehicle_type_id":"4","last_reported":1730754470,"current_range_meters":38800,"station_id":"ce4bhl92rcd13ifvqghg","pricing_plan_id":"cebpf4jnsgd1na2vs0mg"},{"bike_id":"afb4951c-b08c-4d64-9938-fe2618de5e61","system_id":"levelo_inurba_marseille","lat":43.28848,"lon":5.35855,"is_reserved":false,"is_disabled":false,"rental_uris":{"android":"levelo://app?vid=afb4951c-b08c-4d64-9938-fe2618de5e61","ios":"levelo://app?vid=afb4951c-b08c-4d64-9938-fe2618de5e61"},"vehicle_type_id":"4","last_reported":1730754470,"current_range_meters":32800,"station_id":"ce4bhb12rcd13ifvqem0","pricing_plan_id":"cebpf4jnsgd1na2vs0mg"},{"bike_id":"91f5b76d-bdfe-4048-8a04-c9679d35526a","system_id":"levelo_inurba_marseille","lat":43.33026,"lon":5.39038,"is_reserved":false,"is_disabled":false,"rental_uris":{"android":"levelo://app?vid=91f5b76d-bdfe-4048-8a04-c9679d35526a","ios":"levelo://app?vid=91f5b76d-bdfe-4048-8a04-c9679d35526a"},"vehicle_type_id":"4","last_reported":1730754470,"current_range_meters":38800,"station_id":"ce4bhr92rcd13ifvqhrg","pricing_plan_id":"cebpf4jnsgd1na2vs0mg"},{"bike_id":"003d7fda-4443-4148-aec1-729df37750b9","system_id":"levelo_inurba_marseille","lat":43.28102,"lon":5.37838,"is_reserved":false,"is_disabled":false,"rental_uris":{"android":"levelo://app?vid=003d7fda-4443-4148-aec1-729df37750b9","ios":"levelo://app?vid=003d7fda-4443-4148-aec1-729df37750b9"},"vehicle_type_id":"4","last_reported":1730754470,"current_range_meters":38000,"station_id":"ce4bha12rcd13ifvqee0","pricing_plan_id":"cebpf4jnsgd1na2vs0mg"},{"bike_id":"54a53193-b42f-4e81-af8d-b5da45c2ad7e","system_id":"levelo_inurba_marseille","lat":43.27179,"lon":5.40988,"is_reserved":false,"is_disabled":false,"rental_uris":{"android":"levelo://app?vid=54a53193-b42f-4e81-af8d-b5da45c2ad7e","ios":"levelo://app?vid=54a53193-b42f-4e81-af8d-b5da45c2ad7e"},"vehicle_type_id":"4","last_reported":1730754470,"current_range_meters":38000,"station_id":"ce4bhl12rcd13ifvqgf0","pricing_plan_id":"cebpf4jnsgd1na2vs0mg"},{"bike_id":"99d78f6e-5bfc-4e99-baa1-b9137a41c134","system_id":"levelo_inurba_marseille","lat":43.28152,"lon":5.42646,"is_reserved":false,"is_disabled":false,"rental_uris":{"android":"levelo://app?vid=99d78f6e-5bfc-4e99-baa1-b9137a41c134","ios":"levelo://app?vid=99d78f6e-5bfc-4e99-baa1-b9137a41c134"},"vehicle_type_id":"4","last_reported":1730754470,"current_range_meters":38800,"station_id":"ce4bhnh2rcd13ifvqgug","pricing_plan_id":"cebpf4jnsgd1na2vs0mg"},{"bike_id":"49c79ef5-c849-4494-b74b-fecdde94ee8b","system_id":"levelo_inurba_marseille","lat":43.27687,"lon":5.389,"is_reserved":false,"is_disabled":false,"rental_uris":{"android":"levelo://app?vid=49c79ef5-c849-4494-b74b-fecdde94ee8b","ios":"levelo://app?vid=49c79ef5-c849-4494-b74b-fecdde94ee8b"},"vehicle_type_id":"4","last_reported":1730754470,"current_range_meters":31200,"station_id":"ce4bhi12rcd13ifvqfo0","pricing_plan_id":"cebpf4jnsgd1na2vs0mg"},{"bike_id":"e122c03a-bdc0-46d4-afc9-625ada9184ae","system_id":"levelo_inurba_marseille","lat":43.30311,"lon":5.36885,"is_reserved":false,"is_disabled":false,"rental_uris":{"android":"levelo://app?vid=e122c03a-bdc0-46d4-afc9-625ada9184ae","ios":"levelo://app?vid=e122c03a-bdc0-46d4-afc9-625ada9184ae"},"vehicle_type_id":"4","last_reported":1730754470,"current_range_meters":25600,"station_id":"ce4bgqh2rcd13ifvqc5g","pricing_plan_id":"cebpf4jnsgd1na2vs0mg"},{"bike_id":"372b79ea-d145-403a-86aa-4421629e3558","system_id":"levelo_inurba_marseille","lat":43.31273,"lon":5.40171,"is_reserved":false,"is_disabled":false,"rental_uris":{"android":"levelo://app?vid=372b79ea-d145-403a-86aa-4421629e3558","ios":"levelo://app?vid=372b79ea-d145-403a-86aa-4421629e3558"},"vehicle_type_id":"4","last_reported":1730754470,"current_range_meters":18800,"station_id":"ce4bh092rcd13ifvqd30","pricing_plan_id":"cebpf4jnsgd1na2vs0mg"},{"bike_id":"0688e1f9-1bf1-4863-9a6f-f01b30b1aed3","system_id":"levelo_inurba_marseille","lat":43.284628,"lon":5.358861,"is_reserved":false,"is_disabled":false,"rental_uris":{"android":"levelo://app?vid=0688e1f9-1bf1-4863-9a6f-f01b30b1aed3","ios":"levelo://app?vid=0688e1f9-1bf1-4863-9a6f-f01b30b1aed3"},"vehicle_type_id":"4","last_reported":1730754470,"current_range_meters":38800,"station_id":"ce4bhah2rcd13ifvqei0","pricing_plan_id":"cebpf4jnsgd1na2vs0mg"},{"bike_id":"4ea0507a-3008-47a9-a8e4-08fc8842bae4","system_id":"levelo_inurba_marseille","lat":43.27171,"lon":5.40994,"is_reserved":false,"is_disabled":false,"rental_uris":{"android":"levelo://app?vid=4ea0507a-3008-47a9-a8e4-08fc8842bae4","ios":"levelo://app?vid=4ea0507a-3008-47a9-a8e4-08fc8842bae4"},"vehicle_type_id":"4","last_reported":1730754470,"current_range_meters":38400,"station_id":"ce4bhl12rcd13ifvqgf0","pricing_plan_id":"cebpf4jnsgd1na2vs0mg"},{"bike_id":"5f7bea16-ee2b-4b3b-8d0f-0102e87cabea","system_id":"levelo_inurba_marseille","lat":43.30799,"lon":5.43524,"is_reserved":false,"is_disabled":false,"rental_uris":{"android":"levelo://app?vid=5f7bea16-ee2b-4b3b-8d0f-0102e87cabea","ios":"levelo://app?vid=5f7bea16-ee2b-4b3b-8d0f-0102e87cabea"},"vehicle_type_id":"4","last_reported":1730754470,"current_range_meters":8000,"station_id":"ce4bhph2rcd13ifvqheg","pricing_plan_id":"cebpf4jnsgd1na2vs0mg"},{"bike_id":"a5143deb-1a03-43e9-a62f-9793e1d2990f","system_id":"levelo_inurba_marseille","lat":43.29875,"lon":5.38918,"is_reserved":false,"is_disabled":false,"rental_uris":{"android":"levelo://app?vid=a5143deb-1a03-43e9-a62f-9793e1d2990f","ios":"levelo://app?vid=a5143deb-1a03-43e9-a62f-9793e1d2990f"},"vehicle_type_id":"4","last_reported":1730754470,"current_range_meters":5600,"station_id":"ce4bh392rcd13ifvqdl0","pricing_plan_id":"cebpf4jnsgd1na2vs0mg"},{"bike_id":"dcf1adbd-bff2-4f3e-9fa2-385d5eea5c02","system_id":"levelo_inurba_marseille","lat":43.2511,"lon":5.40329,"is_reserved":false,"is_disabled":false,"rental_uris":{"android":"levelo://app?vid=dcf1adbd-bff2-4f3e-9fa2-385d5eea5c02","ios":"levelo://app?vid=dcf1adbd-bff2-4f3e-9fa2-385d5eea5c02"},"vehicle_type_id":"4","last_reported":1730754470,"current_range_meters":38800,"station_id":"ce4bhlh2rcd13ifvqgig","pricing_plan_id":"cebpf4jnsgd1na2vs0mg"},{"bike_id":"a034fd9f-6722-43e9-b566-c9a9b717b473","system_id":"levelo_inurba_marseille","lat":43.30606,"lon":5.37224,"is_reserved":false,"is_disabled":false,"rental_uris":{"android":"levelo://app?vid=a034fd9f-6722-43e9-b566-c9a9b717b473","ios":"levelo://app?vid=a034fd9f-6722-43e9-b566-c9a9b717b473"},"vehicle_type_id":"4","last_reported":1730754470,"current_range_meters":8400,"station_id":"ce4bgqh2rcd13ifvqc4g","pricing_plan_id":"cebpf4jnsgd1na2vs0mg"},{"bike_id":"190ab154-8298-4b3b-94c9-6d2abf0f4f50","system_id":"levelo_inurba_marseille","lat":43.286865,"lon":5.400314,"is_reserved":false,"is_disabled":false,"rental_uris":{"android":"levelo://app?vid=190ab154-8298-4b3b-94c9-6d2abf0f4f50","ios":"levelo://app?vid=190ab154-8298-4b3b-94c9-6d2abf0f4f50"},"vehicle_type_id":"4","last_reported":1730754470,"current_range_meters":17200,"station_id":"ce4bho92rcd13ifvqh3g","pricing_plan_id":"cebpf4jnsgd1na2vs0mg"},{"bike_id":"41c0771f-c62c-477c-b7d2-d876a83f3ce1","system_id":"levelo_inurba_marseille","lat":43.27563,"lon":5.38425,"is_reserved":false,"is_disabled":false,"rental_uris":{"android":"levelo://app?vid=41c0771f-c62c-477c-b7d2-d876a83f3ce1","ios":"levelo://app?vid=41c0771f-c62c-477c-b7d2-d876a83f3ce1"},"vehicle_type_id":"4","last_reported":1730754470,"current_range_meters":33200,"station_id":"ce4bhh92rcd13ifvqfi0","pricing_plan_id":"cebpf4jnsgd1na2vs0mg"},{"bike_id":"8a6108fb-39e5-44c9-bb0e-c92b1fbe0362","system_id":"levelo_inurba_marseille","lat":43.28005,"lon":5.40006,"is_reserved":false,"is_disabled":false,"rental_uris":{"android":"levelo://app?vid=8a6108fb-39e5-44c9-bb0e-c92b1fbe0362","ios":"levelo://app?vid=8a6108fb-39e5-44c9-bb0e-c92b1fbe0362"},"vehicle_type_id":"4","last_reported":1730754470,"current_range_meters":38800,"station_id":"ce4bho92rcd13ifvqh4g","pricing_plan_id":"cebpf4jnsgd1na2vs0mg"},{"bike_id":"d58881d1-fb71-4bd6-84f4-42463659a515","system_id":"levelo_inurba_marseille","lat":43.29514,"lon":5.39406,"is_reserved":false,"is_disabled":false,"rental_uris":{"android":"levelo://app?vid=d58881d1-fb71-4bd6-84f4-42463659a515","ios":"levelo://app?vid=d58881d1-fb71-4bd6-84f4-42463659a515"},"vehicle_type_id":"4","last_reported":1730754470,"current_range_meters":38800,"station_id":"ce4bh292rcd13ifvqdf0","pricing_plan_id":"cebpf4jnsgd1na2vs0mg"},{"bike_id":"8d5faf28-e526-4d5b-93d3-399bd2cb1046","system_id":"levelo_inurba_marseille","lat":43.3176,"lon":5.39016,"is_reserved":false,"is_disabled":false,"rental_uris":{"android":"levelo://app?vid=8d5faf28-e526-4d5b-93d3-399bd2cb1046","ios":"levelo://app?vid=8d5faf28-e526-4d5b-93d3-399bd2cb1046"},"vehicle_type_id":"4","last_reported":1730754470,"current_range_meters":12800,"station_id":"ce4bhqp2rcd13ifvqhng","pricing_plan_id":"cebpf4jnsgd1na2vs0mg"},{"bike_id":"23877bfd-ec13-4a32-a5e9-0c77b2e0e648","system_id":"levelo_inurba_marseille","lat":43.29879,"lon":5.38911,"is_reserved":false,"is_disabled":false,"rental_uris":{"android":"levelo://app?vid=23877bfd-ec13-4a32-a5e9-0c77b2e0e648","ios":"levelo://app?vid=23877bfd-ec13-4a32-a5e9-0c77b2e0e648"},"vehicle_type_id":"4","last_reported":1730754470,"current_range_meters":23200,"station_id":"ce4bh392rcd13ifvqdl0","pricing_plan_id":"cebpf4jnsgd1na2vs0mg"},{"bike_id":"09829a24-f639-4891-80cb-ed9f598d5fde","system_id":"levelo_inurba_marseille","lat":43.29203,"lon":5.39325,"is_reserved":false,"is_disabled":false,"rental_uris":{"android":"levelo://app?vid=09829a24-f639-4891-80cb-ed9f598d5fde","ios":"levelo://app?vid=09829a24-f639-4891-80cb-ed9f598d5fde"},"vehicle_type_id":"4","last_reported":1730754470,"current_range_meters":9200,"station_id":"ce4bh192rcd13ifvqdd0","pricing_plan_id":"cebpf4jnsgd1na2vs0mg"},{"bike_id":"4d39a779-31fa-49e8-8dd7-1884b4a4ae25","system_id":"levelo_inurba_marseille","lat":43.26194,"lon":5.3745,"is_reserved":false,"is_disabled":false,"rental_uris":{"android":"levelo://app?vid=4d39a779-31fa-49e8-8dd7-1884b4a4ae25","ios":"levelo://app?vid=4d39a779-31fa-49e8-8dd7-1884b4a4ae25"},"vehicle_type_id":"4","last_reported":1730754470,"current_range_meters":6800,"station_id":"ce4bhgp2rcd13ifvqfc0","pricing_plan_id":"cebpf4jnsgd1na2vs0mg"},{"bike_id":"8c90d0b3-f1b0-424d-a4c3-3b5f9d847e56","system_id":"levelo_inurba_marseille","lat":43.306007,"lon":5.372178,"is_reserved":false,"is_disabled":false,"rental_uris":{"android":"levelo://app?vid=8c90d0b3-f1b0-424d-a4c3-3b5f9d847e56","ios":"levelo://app?vid=8c90d0b3-f1b0-424d-a4c3-3b5f9d847e56"},"vehicle_type_id":"4","last_reported":1730754470,"current_range_meters":39200,"station_id":"ce4bgqh2rcd13ifvqc4g","pricing_plan_id":"cebpf4jnsgd1na2vs0mg"},{"bike_id":"488a81d4-ac37-4f27-9692-3a640bcfce1a","system_id":"levelo_inurba_marseille","lat":43.28401,"lon":5.37532,"is_reserved":false,"is_disabled":false,"rental_uris":{"android":"levelo://app?vid=488a81d4-ac37-4f27-9692-3a640bcfce1a","ios":"levelo://app?vid=488a81d4-ac37-4f27-9692-3a640bcfce1a"},"vehicle_type_id":"4","last_reported":1730754470,"current_range_meters":11200,"station_id":"ce4bh412rcd13ifvqds0","pricing_plan_id":"cebpf4jnsgd1na2vs0mg"},{"bike_id":"37deeb23-ece9-4f69-9fee-a33b9b0b9f3f","system_id":"levelo_inurba_marseille","lat":43.29519,"lon":5.39032,"is_reserved":false,"is_disabled":false,"rental_uris":{"android":"levelo://app?vid=37deeb23-ece9-4f69-9fee-a33b9b0b9f3f","ios":"levelo://app?vid=37deeb23-ece9-4f69-9fee-a33b9b0b9f3f"},"vehicle_type_id":"4","last_reported":1730754470,"current_range_meters":34000,"station_id":"ce4bh3p2rcd13ifvqdp0","pricing_plan_id":"cebpf4jnsgd1na2vs0mg"},{"bike_id":"dbdee366-3662-45c2-9bc6-de772e759634","system_id":"levelo_inurba_marseille","lat":43.279999,"lon":5.400066,"is_reserved":false,"is_disabled":false,"rental_uris":{"android":"levelo://app?vid=dbdee366-3662-45c2-9bc6-de772e759634","ios":"levelo://app?vid=dbdee366-3662-45c2-9bc6-de772e759634"},"vehicle_type_id":"4","last_reported":1730754470,"current_range_meters":32000,"station_id":"ce4bho92rcd13ifvqh4g","pricing_plan_id":"cebpf4jnsgd1na2vs0mg"},{"bike_id":"3aefeb89-86d7-4b13-b83a-b42cfb812c9d","system_id":"levelo_inurba_marseille","lat":43.250906,"lon":5.395081,"is_reserved":false,"is_disabled":false,"rental_uris":{"android":"levelo://app?vid=3aefeb89-86d7-4b13-b83a-b42cfb812c9d","ios":"levelo://app?vid=3aefeb89-86d7-4b13-b83a-b42cfb812c9d"},"vehicle_type_id":"4","last_reported":1730754470,"current_range_meters":38800,"station_id":"ce4bhm12rcd13ifvqgkg","pricing_plan_id":"cebpf4jnsgd1na2vs0mg"},{"bike_id":"eb39e603-ad9f-4225-9a3b-12ae2097763c","system_id":"levelo_inurba_marseille","lat":43.25084,"lon":5.39506,"is_reserved":false,"is_disabled":false,"rental_uris":{"android":"levelo://app?vid=eb39e603-ad9f-4225-9a3b-12ae2097763c","ios":"levelo://app?vid=eb39e603-ad9f-4225-9a3b-12ae2097763c"},"vehicle_type_id":"4","last_reported":1730754470,"current_range_meters":32800,"station_id":"ce4bhm12rcd13ifvqgkg","pricing_plan_id":"cebpf4jnsgd1na2vs0mg"},{"bike_id":"dfdbab8c-1f1d-443d-b108-183c4b7fb7c3","system_id":"levelo_inurba_marseille","lat":43.28075,"lon":5.39652,"is_reserved":false,"is_disabled":false,"rental_uris":{"android":"levelo://app?vid=dfdbab8c-1f1d-443d-b108-183c4b7fb7c3","ios":"levelo://app?vid=dfdbab8c-1f1d-443d-b108-183c4b7fb7c3"},"vehicle_type_id":"4","last_reported":1730754470,"current_range_meters":28000,"station_id":"ce4bho12rcd13ifvqh2g","pricing_plan_id":"cebpf4jnsgd1na2vs0mg"},{"bike_id":"ef035a9e-e33e-4137-b881-272584da15b9","system_id":"levelo_inurba_marseille","lat":43.27832,"lon":5.39208,"is_reserved":false,"is_disabled":false,"rental_uris":{"android":"levelo://app?vid=ef035a9e-e33e-4137-b881-272584da15b9","ios":"levelo://app?vid=ef035a9e-e33e-4137-b881-272584da15b9"},"vehicle_type_id":"4","last_reported":1730754470,"current_range_meters":11600,"station_id":"ce4bhjp2rcd13ifvqga0","pricing_plan_id":"cebpf4jnsgd1na2vs0mg"},{"bike_id":"fcd940e2-65fa-4f78-a4e0-815885e694e9","system_id":"levelo_inurba_marseille","lat":43.29962,"lon":5.38501,"is_reserved":false,"is_disabled":false,"rental_uris":{"android":"levelo://app?vid=fcd940e2-65fa-4f78-a4e0-815885e694e9","ios":"levelo://app?vid=fcd940e2-65fa-4f78-a4e0-815885e694e9"},"vehicle_type_id":"4","last_reported":1730754470,"current_range_meters":12000,"station_id":"ce4bgj92rcd13ifvqbd0","pricing_plan_id":"cebpf4jnsgd1na2vs0mg"},{"bike_id":"3ab4030e-66fe-403c-8479-fde3f9e0f5d6","system_id":"levelo_inurba_marseille","lat":43.29865,"lon":5.39728,"is_reserved":false,"is_disabled":false,"rental_uris":{"android":"levelo://app?vid=3ab4030e-66fe-403c-8479-fde3f9e0f5d6","ios":"levelo://app?vid=3ab4030e-66fe-403c-8479-fde3f9e0f5d6"},"vehicle_type_id":"4","last_reported":1730754470,"current_range_meters":39200,"station_id":"ce4bh0h2rcd13ifvqd50","pricing_plan_id":"cebpf4jnsgd1na2vs0mg"},{"bike_id":"bc09bd59-7629-4bf2-921b-6600d712b8de","system_id":"levelo_inurba_marseille","lat":43.28459,"lon":5.35894,"is_reserved":false,"is_disabled":false,"rental_uris":{"android":"levelo://app?vid=bc09bd59-7629-4bf2-921b-6600d712b8de","ios":"levelo://app?vid=bc09bd59-7629-4bf2-921b-6600d712b8de"},"vehicle_type_id":"4","last_reported":1730754470,"current_range_meters":24000,"station_id":"ce4bhah2rcd13ifvqei0","pricing_plan_id":"cebpf4jnsgd1na2vs0mg"},{"bike_id":"6f0e086f-92e0-479c-95e8-68da05094099","system_id":"levelo_inurba_marseille","lat":43.29728,"lon":5.37689,"is_reserved":false,"is_disabled":false,"rental_uris":{"android":"levelo://app?vid=6f0e086f-92e0-479c-95e8-68da05094099","ios":"levelo://app?vid=6f0e086f-92e0-479c-95e8-68da05094099"},"vehicle_type_id":"4","last_reported":1730754470,"current_range_meters":27200,"station_id":"ce4bgkh2rcd13ifvqbl0","pricing_plan_id":"cebpf4jnsgd1na2vs0mg"},{"bike_id":"0aded8fa-6c73-4a38-83ef-5eb881973e8f","system_id":"levelo_inurba_marseille","lat":43.28842,"lon":5.39304,"is_reserved":false,"is_disabled":false,"rental_uris":{"android":"levelo://app?vid=0aded8fa-6c73-4a38-83ef-5eb881973e8f","ios":"levelo://app?vid=0aded8fa-6c73-4a38-83ef-5eb881973e8f"},"vehicle_type_id":"4","last_reported":1730754470,"current_range_meters":32000,"station_id":"ce4bh2p2rcd13ifvqdi0","pricing_plan_id":"cebpf4jnsgd1na2vs0mg"},{"bike_id":"efd52e43-c6c4-4283-8f94-e8c17d086d54","system_id":"levelo_inurba_marseille","lat":43.28658,"lon":5.36354,"is_reserved":false,"is_disabled":false,"rental_uris":{"android":"levelo://app?vid=efd52e43-c6c4-4283-8f94-e8c17d086d54","ios":"levelo://app?vid=efd52e43-c6c4-4283-8f94-e8c17d086d54"},"vehicle_type_id":"4","last_reported":1730754470,"current_range_meters":23200,"station_id":"ce4bhah2rcd13ifvqej0","pricing_plan_id":"cebpf4jnsgd1na2vs0mg"},{"bike_id":"fca3bb47-36da-49b2-bc78-db89b0b21aec","system_id":"levelo_inurba_marseille","lat":43.29875,"lon":5.38914,"is_reserved":false,"is_disabled":false,"rental_uris":{"android":"levelo://app?vid=fca3bb47-36da-49b2-bc78-db89b0b21aec","ios":"levelo://app?vid=fca3bb47-36da-49b2-bc78-db89b0b21aec"},"vehicle_type_id":"4","last_reported":1730754470,"current_range_meters":29600,"station_id":"ce4bh392rcd13ifvqdl0","pricing_plan_id":"cebpf4jnsgd1na2vs0mg"},{"bike_id":"87231ffe-0ac7-469b-8716-78c258e514db","system_id":"levelo_inurba_marseille","lat":43.24663,"lon":5.38163,"is_reserved":false,"is_disabled":false,"rental_uris":{"android":"levelo://app?vid=87231ffe-0ac7-469b-8716-78c258e514db","ios":"levelo://app?vid=87231ffe-0ac7-469b-8716-78c258e514db"},"vehicle_type_id":"4","last_reported":1730754470,"current_range_meters":34000,"station_id":"ce4bhih2rcd13ifvqfr0","pricing_plan_id":"cebpf4jnsgd1na2vs0mg"},{"bike_id":"1a262795-7407-49d2-b8b5-844e6a51667f","system_id":"levelo_inurba_marseille","lat":43.29228,"lon":5.36108,"is_reserved":false,"is_disabled":false,"rental_uris":{"android":"levelo://app?vid=1a262795-7407-49d2-b8b5-844e6a51667f","ios":"levelo://app?vid=1a262795-7407-49d2-b8b5-844e6a51667f"},"vehicle_type_id":"4","last_reported":1730754470,"current_range_meters":26000,"station_id":"ce4bhbh2rcd13ifvqeqg","pricing_plan_id":"cebpf4jnsgd1na2vs0mg"},{"bike_id":"d4472d20-9c4b-4c70-ad00-3a005519a429","system_id":"levelo_inurba_marseille","lat":43.3536,"lon":5.35726,"is_reserved":false,"is_disabled":false,"rental_uris":{"android":"levelo://app?vid=d4472d20-9c4b-4c70-ad00-3a005519a429","ios":"levelo://app?vid=d4472d20-9c4b-4c70-ad00-3a005519a429"},"vehicle_type_id":"4","last_reported":1730754470,"current_range_meters":8000,"station_id":"","pricing_plan_id":"cebpf4jnsgd1na2vs0mg"},{"bike_id":"43adcfa9-0be6-4a65-a62e-2f063a179ca9","system_id":"levelo_inurba_marseille","lat":43.30387,"lon":5.41288,"is_reserved":false,"is_disabled":false,"rental_uris":{"android":"levelo://app?vid=43adcfa9-0be6-4a65-a62e-2f063a179ca9","ios":"levelo://app?vid=43adcfa9-0be6-4a65-a62e-2f063a179ca9"},"vehicle_type_id":"4","last_reported":1730754470,"current_range_meters":38800,"station_id":"ce4bhop2rcd13ifvqh8g","pricing_plan_id":"cebpf4jnsgd1na2vs0mg"},{"bike_id":"93e1a5ab-3065-4d73-b07a-8664739a1737","system_id":"levelo_inurba_marseille","lat":43.26946,"lon":5.40242,"is_reserved":false,"is_disabled":false,"rental_uris":{"android":"levelo://app?vid=93e1a5ab-3065-4d73-b07a-8664739a1737","ios":"levelo://app?vid=93e1a5ab-3065-4d73-b07a-8664739a1737"},"vehicle_type_id":"4","last_reported":1730754470,"current_range_meters":39200,"station_id":"cjm6bp8fraef2m0cb0m0","pricing_plan_id":"cebpf4jnsgd1na2vs0mg"},{"bike_id":"c84b0bfc-34a9-475b-9f04-6a326b51d4f9","system_id":"levelo_inurba_marseille","lat":43.29525,"lon":5.39053,"is_reserved":false,"is_disabled":false,"rental_uris":{"android":"levelo://app?vid=c84b0bfc-34a9-475b-9f04-6a326b51d4f9","ios":"levelo://app?vid=c84b0bfc-34a9-475b-9f04-6a326b51d4f9"},"vehicle_type_id":"4","last_reported":1730754470,"current_range_meters":32400,"station_id":"ce4bh3p2rcd13ifvqdp0","pricing_plan_id":"cebpf4jnsgd1na2vs0mg"},{"bike_id":"28ed30cb-39f7-403c-b763-8ee5add25ea0","system_id":"levelo_inurba_marseille","lat":43.32486,"lon":5.36569,"is_reserved":false,"is_disabled":false,"rental_uris":{"android":"levelo://app?vid=28ed30cb-39f7-403c-b763-8ee5add25ea0","ios":"levelo://app?vid=28ed30cb-39f7-403c-b763-8ee5add25ea0"},"vehicle_type_id":"4","last_reported":1730754470,"current_range_meters":38000,"station_id":"ce4bhs12rcd13ifvqhvg","pricing_plan_id":"cebpf4jnsgd1na2vs0mg"},{"bike_id":"b934b83b-a0ef-45c5-becd-ac014a76a723","system_id":"levelo_inurba_marseille","lat":43.292265,"lon":5.393364,"is_reserved":false,"is_disabled":false,"rental_uris":{"android":"levelo://app?vid=b934b83b-a0ef-45c5-becd-ac014a76a723","ios":"levelo://app?vid=b934b83b-a0ef-45c5-becd-ac014a76a723"},"vehicle_type_id":"4","last_reported":1730754470,"current_range_meters":6400,"station_id":"ce4bh192rcd13ifvqdd0","pricing_plan_id":"cebpf4jnsgd1na2vs0mg"},{"bike_id":"ed8908e8-3043-4187-a7bd-b9080da9eb38","system_id":"levelo_inurba_marseille","lat":43.30935,"lon":5.40141,"is_reserved":false,"is_disabled":false,"rental_uris":{"android":"levelo://app?vid=ed8908e8-3043-4187-a7bd-b9080da9eb38","ios":"levelo://app?vid=ed8908e8-3043-4187-a7bd-b9080da9eb38"},"vehicle_type_id":"4","last_reported":1730754470,"current_range_meters":38800,"station_id":"ce4bgvp2rcd13ifvqct0","pricing_plan_id":"cebpf4jnsgd1na2vs0mg"},{"bike_id":"0cd2180d-56f3-45e6-b3f5-978b59b12b28","system_id":"levelo_inurba_marseille","lat":43.32364,"lon":5.38884,"is_reserved":false,"is_disabled":false,"rental_uris":{"android":"levelo://app?vid=0cd2180d-56f3-45e6-b3f5-978b59b12b28","ios":"levelo://app?vid=0cd2180d-56f3-45e6-b3f5-978b59b12b28"},"vehicle_type_id":"4","last_reported":1730754470,"current_range_meters":25600,"station_id":"ce4bhqp2rcd13ifvqhog","pricing_plan_id":"cebpf4jnsgd1na2vs0mg"},{"bike_id":"0a1a40db-b474-4571-b7c4-fd7400638eb1","system_id":"levelo_inurba_marseille","lat":43.31713,"lon":5.4371,"is_reserved":false,"is_disabled":false,"rental_uris":{"android":"levelo://app?vid=0a1a40db-b474-4571-b7c4-fd7400638eb1","ios":"levelo://app?vid=0a1a40db-b474-4571-b7c4-fd7400638eb1"},"vehicle_type_id":"4","last_reported":1730754470,"current_range_meters":7200,"station_id":"ce4bhp92rcd13ifvqhcg","pricing_plan_id":"cebpf4jnsgd1na2vs0mg"},{"bike_id":"be5bb167-8e9d-4764-9cac-04dc5e3697e1","system_id":"levelo_inurba_marseille","lat":43.28455,"lon":5.35899,"is_reserved":false,"is_disabled":false,"rental_uris":{"android":"levelo://app?vid=be5bb167-8e9d-4764-9cac-04dc5e3697e1","ios":"levelo://app?vid=be5bb167-8e9d-4764-9cac-04dc5e3697e1"},"vehicle_type_id":"4","last_reported":1730754470,"current_range_meters":25600,"station_id":"ce4bhah2rcd13ifvqei0","pricing_plan_id":"cebpf4jnsgd1na2vs0mg"},{"bike_id":"fc4ff40e-36f2-4ff7-b01d-91d5f35360be","system_id":"levelo_inurba_marseille","lat":43.28664,"lon":5.36349,"is_reserved":false,"is_disabled":false,"rental_uris":{"android":"levelo://app?vid=fc4ff40e-36f2-4ff7-b01d-91d5f35360be","ios":"levelo://app?vid=fc4ff40e-36f2-4ff7-b01d-91d5f35360be"},"vehicle_type_id":"4","last_reported":1730754470,"current_range_meters":27200,"station_id":"ce4bhah2rcd13ifvqej0","pricing_plan_id":"cebpf4jnsgd1na2vs0mg"},{"bike_id":"2a620781-b8da-499d-9d4e-854e7a1d11af","system_id":"levelo_inurba_marseille","lat":43.27171,"lon":5.40993,"is_reserved":false,"is_disabled":false,"rental_uris":{"android":"levelo://app?vid=2a620781-b8da-499d-9d4e-854e7a1d11af","ios":"levelo://app?vid=2a620781-b8da-499d-9d4e-854e7a1d11af"},"vehicle_type_id":"4","last_reported":1730754470,"current_range_meters":35600,"station_id":"ce4bhl12rcd13ifvqgf0","pricing_plan_id":"cebpf4jnsgd1na2vs0mg"},{"bike_id":"ac8e8dbf-951e-4b21-b505-e77177b36fd2","system_id":"levelo_inurba_marseille","lat":43.292511,"lon":5.398429,"is_reserved":false,"is_disabled":false,"rental_uris":{"android":"levelo://app?vid=ac8e8dbf-951e-4b21-b505-e77177b36fd2","ios":"levelo://app?vid=ac8e8dbf-951e-4b21-b505-e77177b36fd2"},"vehicle_type_id":"4","last_reported":1730754470,"current_range_meters":2000,"station_id":"ce4bho12rcd13ifvqh1g","pricing_plan_id":"cebpf4jnsgd1na2vs0mg"},{"bike_id":"2dd40e8a-347a-4069-9f04-901c41b0a3c7","system_id":"levelo_inurba_marseille","lat":43.321,"lon":5.36776,"is_reserved":false,"is_disabled":false,"rental_uris":{"android":"levelo://app?vid=2dd40e8a-347a-4069-9f04-901c41b0a3c7","ios":"levelo://app?vid=2dd40e8a-347a-4069-9f04-901c41b0a3c7"},"vehicle_type_id":"4","last_reported":1730754470,"current_range_meters":38800,"station_id":"ce4bhrh2rcd13ifvqhug","pricing_plan_id":"cebpf4jnsgd1na2vs0mg"},{"bike_id":"55997e55-a382-466e-8f77-ed9e8d468b84","system_id":"levelo_inurba_marseille","lat":43.30415,"lon":5.41286,"is_reserved":false,"is_disabled":false,"rental_uris":{"android":"levelo://app?vid=55997e55-a382-466e-8f77-ed9e8d468b84","ios":"levelo://app?vid=55997e55-a382-466e-8f77-ed9e8d468b84"},"vehicle_type_id":"4","last_reported":1730754470,"current_range_meters":21600,"station_id":"ce4bhop2rcd13ifvqh8g","pricing_plan_id":"cebpf4jnsgd1na2vs0mg"},{"bike_id":"facc375a-9bca-4627-9f6c-1eafc880fea2","system_id":"levelo_inurba_marseille","lat":43.30251,"lon":5.40073,"is_reserved":false,"is_disabled":false,"rental_uris":{"android":"levelo://app?vid=facc375a-9bca-4627-9f6c-1eafc880fea2","ios":"levelo://app?vid=facc375a-9bca-4627-9f6c-1eafc880fea2"},"vehicle_type_id":"4","last_reported":1730754470,"current_range_meters":38800,"station_id":"ce4bgvh2rcd13ifvqcs0","pricing_plan_id":"cebpf4jnsgd1na2vs0mg"},{"bike_id":"6fc2326c-4cde-4ad0-9f66-cc0b4811ab5d","system_id":"levelo_inurba_marseille","lat":43.31992,"lon":5.38144,"is_reserved":false,"is_disabled":false,"rental_uris":{"android":"levelo://app?vid=6fc2326c-4cde-4ad0-9f66-cc0b4811ab5d","ios":"levelo://app?vid=6fc2326c-4cde-4ad0-9f66-cc0b4811ab5d"},"vehicle_type_id":"4","last_reported":1730754470,"current_range_meters":38800,"station_id":"ce4bhr12rcd13ifvqhpg","pricing_plan_id":"cebpf4jnsgd1na2vs0mg"},{"bike_id":"d22fb1b1-2550-4a1c-9826-b88923c7be78","system_id":"levelo_inurba_marseille","lat":43.30887,"lon":5.39646,"is_reserved":false,"is_disabled":false,"rental_uris":{"android":"levelo://app?vid=d22fb1b1-2550-4a1c-9826-b88923c7be78","ios":"levelo://app?vid=d22fb1b1-2550-4a1c-9826-b88923c7be78"},"vehicle_type_id":"4","last_reported":1730754470,"current_range_meters":22000,"station_id":"ce4bh012rcd13ifvqcv0","pricing_plan_id":"cebpf4jnsgd1na2vs0mg"},{"bike_id":"148ef324-e0ba-4f3f-a972-788a9d2d9cf2","system_id":"levelo_inurba_marseille","lat":43.28726,"lon":5.36095,"is_reserved":false,"is_disabled":false,"rental_uris":{"android":"levelo://app?vid=148ef324-e0ba-4f3f-a972-788a9d2d9cf2","ios":"levelo://app?vid=148ef324-e0ba-4f3f-a972-788a9d2d9cf2"},"vehicle_type_id":"4","last_reported":1730754470,"current_range_meters":38800,"station_id":"cki0cbj6b192h4jlfktg","pricing_plan_id":"cebpf4jnsgd1na2vs0mg"},{"bike_id":"476b1032-3456-4e75-9225-7aec38b7121d","system_id":"levelo_inurba_marseille","lat":43.27811,"lon":5.4071,"is_reserved":false,"is_disabled":false,"rental_uris":{"android":"levelo://app?vid=476b1032-3456-4e75-9225-7aec38b7121d","ios":"levelo://app?vid=476b1032-3456-4e75-9225-7aec38b7121d"},"vehicle_type_id":"4","last_reported":1730754470,"current_range_meters":26000,"station_id":"ce4bhnh2rcd13ifvqgtg","pricing_plan_id":"cebpf4jnsgd1na2vs0mg"},{"bike_id":"9d764d20-b2dd-4da1-acae-03a5ed91a76d","system_id":"levelo_inurba_marseille","lat":43.28444,"lon":5.3919,"is_reserved":false,"is_disabled":false,"rental_uris":{"android":"levelo://app?vid=9d764d20-b2dd-4da1-acae-03a5ed91a76d","ios":"levelo://app?vid=9d764d20-b2dd-4da1-acae-03a5ed91a76d"},"vehicle_type_id":"4","last_reported":1730754470,"current_range_meters":36800,"station_id":"ce4bhoh2rcd13ifvqh5g","pricing_plan_id":"cebpf4jnsgd1na2vs0mg"},{"bike_id":"0e784e4c-aa57-41b7-b79a-6c7302e7069e","system_id":"levelo_inurba_marseille","lat":43.30305,"lon":5.36885,"is_reserved":false,"is_disabled":false,"rental_uris":{"android":"levelo://app?vid=0e784e4c-aa57-41b7-b79a-6c7302e7069e","ios":"levelo://app?vid=0e784e4c-aa57-41b7-b79a-6c7302e7069e"},"vehicle_type_id":"4","last_reported":1730754470,"current_range_meters":38000,"station_id":"ce4bgqh2rcd13ifvqc5g","pricing_plan_id":"cebpf4jnsgd1na2vs0mg"},{"bike_id":"8b751894-1161-4d7b-a0e2-88850f36a102","system_id":"levelo_inurba_marseille","lat":43.31761,"lon":5.39012,"is_reserved":false,"is_disabled":false,"rental_uris":{"android":"levelo://app?vid=8b751894-1161-4d7b-a0e2-88850f36a102","ios":"levelo://app?vid=8b751894-1161-4d7b-a0e2-88850f36a102"},"vehicle_type_id":"4","last_reported":1730754470,"current_range_meters":39200,"station_id":"ce4bhqp2rcd13ifvqhng","pricing_plan_id":"cebpf4jnsgd1na2vs0mg"},{"bike_id":"3ef99431-3adb-46de-97da-821b1b9d3028","system_id":"levelo_inurba_marseille","lat":43.26945,"lon":5.40241,"is_reserved":false,"is_disabled":false,"rental_uris":{"android":"levelo://app?vid=3ef99431-3adb-46de-97da-821b1b9d3028","ios":"levelo://app?vid=3ef99431-3adb-46de-97da-821b1b9d3028"},"vehicle_type_id":"4","last_reported":1730754470,"current_range_meters":39200,"station_id":"cjm6bp8fraef2m0cb0m0","pricing_plan_id":"cebpf4jnsgd1na2vs0mg"},{"bike_id":"284a58f0-ac34-4623-8869-59696274e7c5","system_id":"levelo_inurba_marseille","lat":43.31073,"lon":5.38344,"is_reserved":false,"is_disabled":false,"rental_uris":{"android":"levelo://app?vid=284a58f0-ac34-4623-8869-59696274e7c5","ios":"levelo://app?vid=284a58f0-ac34-4623-8869-59696274e7c5"},"vehicle_type_id":"4","last_reported":1730754470,"current_range_meters":21600,"station_id":"ce4bgv92rcd13ifvqcr0","pricing_plan_id":"cebpf4jnsgd1na2vs0mg"},{"bike_id":"a1e9a334-a473-4351-aa60-c0bec8d3a41f","system_id":"levelo_inurba_marseille","lat":43.29518,"lon":5.39042,"is_reserved":false,"is_disabled":false,"rental_uris":{"android":"levelo://app?vid=a1e9a334-a473-4351-aa60-c0bec8d3a41f","ios":"levelo://app?vid=a1e9a334-a473-4351-aa60-c0bec8d3a41f"},"vehicle_type_id":"4","last_reported":1730754470,"current_range_meters":10800,"station_id":"ce4bh3p2rcd13ifvqdp0","pricing_plan_id":"cebpf4jnsgd1na2vs0mg"},{"bike_id":"ee0f6b67-b360-47d4-b992-6d950adba1c0","system_id":"levelo_inurba_marseille","lat":43.30186,"lon":5.36613,"is_reserved":false,"is_disabled":false,"rental_uris":{"android":"levelo://app?vid=ee0f6b67-b360-47d4-b992-6d950adba1c0","ios":"levelo://app?vid=ee0f6b67-b360-47d4-b992-6d950adba1c0"},"vehicle_type_id":"4","last_reported":1730754470,"current_range_meters":37600,"station_id":"ce4bgrh2rcd13ifvqc8g","pricing_plan_id":"cebpf4jnsgd1na2vs0mg"},{"bike_id":"9c269b39-08b3-4bc3-a549-71a71e294410","system_id":"levelo_inurba_marseille","lat":43.29519,"lon":5.39404,"is_reserved":false,"is_disabled":false,"rental_uris":{"android":"levelo://app?vid=9c269b39-08b3-4bc3-a549-71a71e294410","ios":"levelo://app?vid=9c269b39-08b3-4bc3-a549-71a71e294410"},"vehicle_type_id":"4","last_reported":1730754470,"current_range_meters":38800,"station_id":"ce4bh292rcd13ifvqdf0","pricing_plan_id":"cebpf4jnsgd1na2vs0mg"},{"bike_id":"ba8f5d9a-4861-4465-b828-23e2245ef053","system_id":"levelo_inurba_marseille","lat":43.2318,"lon":5.39976,"is_reserved":false,"is_disabled":false,"rental_uris":{"android":"levelo://app?vid=ba8f5d9a-4861-4465-b828-23e2245ef053","ios":"levelo://app?vid=ba8f5d9a-4861-4465-b828-23e2245ef053"},"vehicle_type_id":"4","last_reported":1730754470,"current_range_meters":39200,"station_id":"ce4bhn12rcd13ifvqgqg","pricing_plan_id":"cebpf4jnsgd1na2vs0mg"},{"bike_id":"9f83e42b-2ec6-4a10-85d2-da5f4868ca5b","system_id":"levelo_inurba_marseille","lat":43.26949,"lon":5.38635,"is_reserved":false,"is_disabled":false,"rental_uris":{"android":"levelo://app?vid=9f83e42b-2ec6-4a10-85d2-da5f4868ca5b","ios":"levelo://app?vid=9f83e42b-2ec6-4a10-85d2-da5f4868ca5b"},"vehicle_type_id":"4","last_reported":1730754470,"current_range_meters":32400,"station_id":"ce4bhh92rcd13ifvqfh0","pricing_plan_id":"cebpf4jnsgd1na2vs0mg"},{"bike_id":"6c78a033-e104-48bc-bb54-3615bf76d1ad","system_id":"levelo_inurba_marseille","lat":43.25865,"lon":5.39904,"is_reserved":false,"is_disabled":false,"rental_uris":{"android":"levelo://app?vid=6c78a033-e104-48bc-bb54-3615bf76d1ad","ios":"levelo://app?vid=6c78a033-e104-48bc-bb54-3615bf76d1ad"},"vehicle_type_id":"4","last_reported":1730754470,"current_range_meters":38800,"station_id":"ce4bhl92rcd13ifvqghg","pricing_plan_id":"cebpf4jnsgd1na2vs0mg"},{"bike_id":"772f5a1a-0240-4436-8273-7fb69704d5fd","system_id":"levelo_inurba_marseille","lat":43.25083,"lon":5.39515,"is_reserved":false,"is_disabled":false,"rental_uris":{"android":"levelo://app?vid=772f5a1a-0240-4436-8273-7fb69704d5fd","ios":"levelo://app?vid=772f5a1a-0240-4436-8273-7fb69704d5fd"},"vehicle_type_id":"4","last_reported":1730754470,"current_range_meters":30800,"station_id":"ce4bhm12rcd13ifvqgkg","pricing_plan_id":"cebpf4jnsgd1na2vs0mg"},{"bike_id":"9377e808-6d3b-4fd4-9e1e-26ed2099fc9c","system_id":"levelo_inurba_marseille","lat":43.33023,"lon":5.39043,"is_reserved":false,"is_disabled":false,"rental_uris":{"android":"levelo://app?vid=9377e808-6d3b-4fd4-9e1e-26ed2099fc9c","ios":"levelo://app?vid=9377e808-6d3b-4fd4-9e1e-26ed2099fc9c"},"vehicle_type_id":"4","last_reported":1730754470,"current_range_meters":36800,"station_id":"ce4bhr92rcd13ifvqhrg","pricing_plan_id":"cebpf4jnsgd1na2vs0mg"},{"bike_id":"7b4fe856-4dc7-41f6-b07c-6194ffb9d50b","system_id":"levelo_inurba_marseille","lat":43.250799,"lon":5.395297,"is_reserved":false,"is_disabled":false,"rental_uris":{"android":"levelo://app?vid=7b4fe856-4dc7-41f6-b07c-6194ffb9d50b","ios":"levelo://app?vid=7b4fe856-4dc7-41f6-b07c-6194ffb9d50b"},"vehicle_type_id":"4","last_reported":1730754470,"current_range_meters":39200,"station_id":"ce4bhm12rcd13ifvqgkg","pricing_plan_id":"cebpf4jnsgd1na2vs0mg"},{"bike_id":"4314c959-0960-488f-8a5e-47a2dcd21d56","system_id":"levelo_inurba_marseille","lat":43.31888,"lon":5.4073,"is_reserved":false,"is_disabled":false,"rental_uris":{"android":"levelo://app?vid=4314c959-0960-488f-8a5e-47a2dcd21d56","ios":"levelo://app?vid=4314c959-0960-488f-8a5e-47a2dcd21d56"},"vehicle_type_id":"4","last_reported":1730754470,"current_range_meters":19200,"station_id":"ce4bhq12rcd13ifvqhig","pricing_plan_id":"cebpf4jnsgd1na2vs0mg"},{"bike_id":"5d1708ee-ea56-470e-a759-d68052530c0f","system_id":"levelo_inurba_marseille","lat":43.30641,"lon":5.40092,"is_reserved":false,"is_disabled":false,"rental_uris":{"android":"levelo://app?vid=5d1708ee-ea56-470e-a759-d68052530c0f","ios":"levelo://app?vid=5d1708ee-ea56-470e-a759-d68052530c0f"},"vehicle_type_id":"4","last_reported":1730754470,"current_range_meters":38800,"station_id":"ce4bh112rcd13ifvqda0","pricing_plan_id":"cebpf4jnsgd1na2vs0mg"},{"bike_id":"beeef4e4-0d45-4dfa-9ccc-aedb2ce31115","system_id":"levelo_inurba_marseille","lat":43.32109,"lon":5.36779,"is_reserved":false,"is_disabled":false,"rental_uris":{"android":"levelo://app?vid=beeef4e4-0d45-4dfa-9ccc-aedb2ce31115","ios":"levelo://app?vid=beeef4e4-0d45-4dfa-9ccc-aedb2ce31115"},"vehicle_type_id":"4","last_reported":1730754470,"current_range_meters":28800,"station_id":"ce4bhrh2rcd13ifvqhug","pricing_plan_id":"cebpf4jnsgd1na2vs0mg"},{"bike_id":"23cc3cfb-0b9c-4c08-a9a6-8468a4a173ce","system_id":"levelo_inurba_marseille","lat":43.31168,"lon":5.38725,"is_reserved":false,"is_disabled":false,"rental_uris":{"android":"levelo://app?vid=23cc3cfb-0b9c-4c08-a9a6-8468a4a173ce","ios":"levelo://app?vid=23cc3cfb-0b9c-4c08-a9a6-8468a4a173ce"},"vehicle_type_id":"4","last_reported":1730754470,"current_range_meters":2800,"station_id":"ce4bgv12rcd13ifvqcp0","pricing_plan_id":"cebpf4jnsgd1na2vs0mg"},{"bike_id":"1ea4c3c0-dbf4-4dab-b6f1-22e20d00b9a5","system_id":"levelo_inurba_marseille","lat":43.31164,"lon":5.38729,"is_reserved":false,"is_disabled":false,"rental_uris":{"android":"levelo://app?vid=1ea4c3c0-dbf4-4dab-b6f1-22e20d00b9a5","ios":"levelo://app?vid=1ea4c3c0-dbf4-4dab-b6f1-22e20d00b9a5"},"vehicle_type_id":"4","last_reported":1730754470,"current_range_meters":37600,"station_id":"ce4bgv12rcd13ifvqcp0","pricing_plan_id":"cebpf4jnsgd1na2vs0mg"},{"bike_id":"ff79eb82-e5d1-4036-b08a-6743cabbacce","system_id":"levelo_inurba_marseille","lat":43.32283,"lon":5.38276,"is_reserved":false,"is_disabled":false,"rental_uris":{"android":"levelo://app?vid=ff79eb82-e5d1-4036-b08a-6743cabbacce","ios":"levelo://app?vid=ff79eb82-e5d1-4036-b08a-6743cabbacce"},"vehicle_type_id":"4","last_reported":1730754470,"current_range_meters":14400,"station_id":"ce4bhr12rcd13ifvqhqg","pricing_plan_id":"cebpf4jnsgd1na2vs0mg"},{"bike_id":"176ff4e6-f708-4c06-812b-5b1de7ea63cb","system_id":"levelo_inurba_marseille","lat":43.29246,"lon":5.40912,"is_reserved":false,"is_disabled":false,"rental_uris":{"android":"levelo://app?vid=176ff4e6-f708-4c06-812b-5b1de7ea63cb","ios":"levelo://app?vid=176ff4e6-f708-4c06-812b-5b1de7ea63cb"},"vehicle_type_id":"4","last_reported":1730754470,"current_range_meters":38800,"station_id":"ce4bh192rcd13ifvqdc0","pricing_plan_id":"cebpf4jnsgd1na2vs0mg"},{"bike_id":"71721fe2-35d7-41f2-9225-983e1943836f","system_id":"levelo_inurba_marseille","lat":43.33751,"lon":5.37463,"is_reserved":false,"is_disabled":false,"rental_uris":{"android":"levelo://app?vid=71721fe2-35d7-41f2-9225-983e1943836f","ios":"levelo://app?vid=71721fe2-35d7-41f2-9225-983e1943836f"},"vehicle_type_id":"4","last_reported":1730754470,"current_range_meters":38000,"station_id":"","pricing_plan_id":"cebpf4jnsgd1na2vs0mg"},{"bike_id":"d06ed31c-b191-45c9-a38a-7275e00ccf1e","system_id":"levelo_inurba_marseille","lat":43.29521,"lon":5.39026,"is_reserved":false,"is_disabled":false,"rental_uris":{"android":"levelo://app?vid=d06ed31c-b191-45c9-a38a-7275e00ccf1e","ios":"levelo://app?vid=d06ed31c-b191-45c9-a38a-7275e00ccf1e"},"vehicle_type_id":"4","last_reported":1730754470,"current_range_meters":13600,"station_id":"ce4bh3p2rcd13ifvqdp0","pricing_plan_id":"cebpf4jnsgd1na2vs0mg"},{"bike_id":"a115f023-c00d-49e2-9a51-3708c5e2b141","system_id":"levelo_inurba_marseille","lat":43.27774,"lon":5.389925,"is_reserved":false,"is_disabled":false,"rental_uris":{"android":"levelo://app?vid=a115f023-c00d-49e2-9a51-3708c5e2b141","ios":"levelo://app?vid=a115f023-c00d-49e2-9a51-3708c5e2b141"},"vehicle_type_id":"4","last_reported":1730754470,"current_range_meters":15200,"station_id":"ce4bgt12rcd13ifvqce0","pricing_plan_id":"cebpf4jnsgd1na2vs0mg"},{"bike_id":"6c895aa1-f856-4bb1-a39a-0580e4bdd6fe","system_id":"levelo_inurba_marseille","lat":43.31751,"lon":5.3902,"is_reserved":false,"is_disabled":false,"rental_uris":{"android":"levelo://app?vid=6c895aa1-f856-4bb1-a39a-0580e4bdd6fe","ios":"levelo://app?vid=6c895aa1-f856-4bb1-a39a-0580e4bdd6fe"},"vehicle_type_id":"4","last_reported":1730754470,"current_range_meters":2800,"station_id":"ce4bhqp2rcd13ifvqhng","pricing_plan_id":"cebpf4jnsgd1na2vs0mg"},{"bike_id":"69899661-f85a-405b-8953-62dc1d1cd62e","system_id":"levelo_inurba_marseille","lat":43.29512,"lon":5.3904,"is_reserved":false,"is_disabled":false,"rental_uris":{"android":"levelo://app?vid=69899661-f85a-405b-8953-62dc1d1cd62e","ios":"levelo://app?vid=69899661-f85a-405b-8953-62dc1d1cd62e"},"vehicle_type_id":"4","last_reported":1730754470,"current_range_meters":8800,"station_id":"ce4bh3p2rcd13ifvqdp0","pricing_plan_id":"cebpf4jnsgd1na2vs0mg"},{"bike_id":"697dd118-268c-406e-bad8-371dfe74ed47","system_id":"levelo_inurba_marseille","lat":43.31763,"lon":5.39008,"is_reserved":false,"is_disabled":false,"rental_uris":{"android":"levelo://app?vid=697dd118-268c-406e-bad8-371dfe74ed47","ios":"levelo://app?vid=697dd118-268c-406e-bad8-371dfe74ed47"},"vehicle_type_id":"4","last_reported":1730754470,"current_range_meters":36800,"station_id":"ce4bhqp2rcd13ifvqhng","pricing_plan_id":"cebpf4jnsgd1na2vs0mg"},{"bike_id":"cc6dacd3-4d41-4ba3-9ae7-c10a17bcccc1","system_id":"levelo_inurba_marseille","lat":43.27173,"lon":5.40995,"is_reserved":false,"is_disabled":false,"rental_uris":{"android":"levelo://app?vid=cc6dacd3-4d41-4ba3-9ae7-c10a17bcccc1","ios":"levelo://app?vid=cc6dacd3-4d41-4ba3-9ae7-c10a17bcccc1"},"vehicle_type_id":"4","last_reported":1730754470,"current_range_meters":21600,"station_id":"ce4bhl12rcd13ifvqgf0","pricing_plan_id":"cebpf4jnsgd1na2vs0mg"},{"bike_id":"cd6beada-9f09-4aef-8902-9ca2dfbf130c","system_id":"levelo_inurba_marseille","lat":43.32657,"lon":5.40994,"is_reserved":false,"is_disabled":false,"rental_uris":{"android":"levelo://app?vid=cd6beada-9f09-4aef-8902-9ca2dfbf130c","ios":"levelo://app?vid=cd6beada-9f09-4aef-8902-9ca2dfbf130c"},"vehicle_type_id":"4","last_reported":1730754470,"current_range_meters":30800,"station_id":"ce4bhpp2rcd13ifvqhgg","pricing_plan_id":"cebpf4jnsgd1na2vs0mg"},{"bike_id":"f767ae21-70a9-41f5-b210-a44435a86b24","system_id":"levelo_inurba_marseille","lat":43.29883,"lon":5.3891,"is_reserved":false,"is_disabled":false,"rental_uris":{"android":"levelo://app?vid=f767ae21-70a9-41f5-b210-a44435a86b24","ios":"levelo://app?vid=f767ae21-70a9-41f5-b210-a44435a86b24"},"vehicle_type_id":"4","last_reported":1730754470,"current_range_meters":32800,"station_id":"ce4bh392rcd13ifvqdl0","pricing_plan_id":"cebpf4jnsgd1na2vs0mg"},{"bike_id":"85983996-c8a9-49bd-a5f5-5c12a57ec781","system_id":"levelo_inurba_marseille","lat":43.30324,"lon":5.4044,"is_reserved":false,"is_disabled":false,"rental_uris":{"android":"levelo://app?vid=85983996-c8a9-49bd-a5f5-5c12a57ec781","ios":"levelo://app?vid=85983996-c8a9-49bd-a5f5-5c12a57ec781"},"vehicle_type_id":"4","last_reported":1730754470,"current_range_meters":38000,"station_id":"ce4bh012rcd13ifvqd10","pricing_plan_id":"cebpf4jnsgd1na2vs0mg"},{"bike_id":"35db7418-caea-44fa-9677-10c75926c990","system_id":"levelo_inurba_marseille","lat":43.2781,"lon":5.40717,"is_reserved":false,"is_disabled":false,"rental_uris":{"android":"levelo://app?vid=35db7418-caea-44fa-9677-10c75926c990","ios":"levelo://app?vid=35db7418-caea-44fa-9677-10c75926c990"},"vehicle_type_id":"4","last_reported":1730754470,"current_range_meters":14800,"station_id":"ce4bhnh2rcd13ifvqgtg","pricing_plan_id":"cebpf4jnsgd1na2vs0mg"},{"bike_id":"0a6f70dd-f6f7-4892-9e1a-2b50284be9d4","system_id":"levelo_inurba_marseille","lat":43.29877,"lon":5.38904,"is_reserved":false,"is_disabled":false,"rental_uris":{"android":"levelo://app?vid=0a6f70dd-f6f7-4892-9e1a-2b50284be9d4","ios":"levelo://app?vid=0a6f70dd-f6f7-4892-9e1a-2b50284be9d4"},"vehicle_type_id":"4","last_reported":1730754470,"current_range_meters":38000,"station_id":"ce4bh392rcd13ifvqdl0","pricing_plan_id":"cebpf4jnsgd1na2vs0mg"},{"bike_id":"01f66810-1655-408b-9d69-c62fab5a7cc8","system_id":"levelo_inurba_marseille","lat":43.29789,"lon":5.39337,"is_reserved":false,"is_disabled":false,"rental_uris":{"android":"levelo://app?vid=01f66810-1655-408b-9d69-c62fab5a7cc8","ios":"levelo://app?vid=01f66810-1655-408b-9d69-c62fab5a7cc8"},"vehicle_type_id":"4","last_reported":1730754470,"current_range_meters":30000,"station_id":"chh1huq6cuj3fo74tm60","pricing_plan_id":"cebpf4jnsgd1na2vs0mg"},{"bike_id":"28a40904-e0e3-4fea-8180-6720f4eceda9","system_id":"levelo_inurba_marseille","lat":43.31489,"lon":5.37314,"is_reserved":false,"is_disabled":false,"rental_uris":{"android":"levelo://app?vid=28a40904-e0e3-4fea-8180-6720f4eceda9","ios":"levelo://app?vid=28a40904-e0e3-4fea-8180-6720f4eceda9"},"vehicle_type_id":"4","last_reported":1730754470,"current_range_meters":28000,"station_id":"ce4bgt12rcd13ifvqcd0","pricing_plan_id":"cebpf4jnsgd1na2vs0mg"},{"bike_id":"dc11fb10-7966-4c34-a425-c94a472bc4a8","system_id":"levelo_inurba_marseille","lat":43.28001,"lon":5.40023,"is_reserved":false,"is_disabled":false,"rental_uris":{"android":"levelo://app?vid=dc11fb10-7966-4c34-a425-c94a472bc4a8","ios":"levelo://app?vid=dc11fb10-7966-4c34-a425-c94a472bc4a8"},"vehicle_type_id":"4","last_reported":1730754470,"current_range_meters":38400,"station_id":"ce4bho92rcd13ifvqh4g","pricing_plan_id":"cebpf4jnsgd1na2vs0mg"},{"bike_id":"fe703dd0-26ae-4591-9c34-1638d3b39556","system_id":"levelo_inurba_marseille","lat":43.29191,"lon":5.39321,"is_reserved":false,"is_disabled":false,"rental_uris":{"android":"levelo://app?vid=fe703dd0-26ae-4591-9c34-1638d3b39556","ios":"levelo://app?vid=fe703dd0-26ae-4591-9c34-1638d3b39556"},"vehicle_type_id":"4","last_reported":1730754470,"current_range_meters":38800,"station_id":"ce4bh192rcd13ifvqdd0","pricing_plan_id":"cebpf4jnsgd1na2vs0mg"},{"bike_id":"ba04515b-2530-4f99-bfe4-78243134c10b","system_id":"levelo_inurba_marseille","lat":43.280579,"lon":5.409851,"is_reserved":false,"is_disabled":false,"rental_uris":{"android":"levelo://app?vid=ba04515b-2530-4f99-bfe4-78243134c10b","ios":"levelo://app?vid=ba04515b-2530-4f99-bfe4-78243134c10b"},"vehicle_type_id":"4","last_reported":1730754470,"current_range_meters":35200,"station_id":"","pricing_plan_id":"cebpf4jnsgd1na2vs0mg"},{"bike_id":"5bfadea6-7d89-4a6d-bc5b-ce4b0131d5c6","system_id":"levelo_inurba_marseille","lat":43.28571,"lon":5.39504,"is_reserved":false,"is_disabled":false,"rental_uris":{"android":"levelo://app?vid=5bfadea6-7d89-4a6d-bc5b-ce4b0131d5c6","ios":"levelo://app?vid=5bfadea6-7d89-4a6d-bc5b-ce4b0131d5c6"},"vehicle_type_id":"4","last_reported":1730754470,"current_range_meters":28800,"station_id":"ce4bh292rcd13ifvqdg0","pricing_plan_id":"cebpf4jnsgd1na2vs0mg"},{"bike_id":"de93a5ad-f4b7-43a9-a384-d70f5a94dc07","system_id":"levelo_inurba_marseille","lat":43.29521,"lon":5.39405,"is_reserved":false,"is_disabled":false,"rental_uris":{"android":"levelo://app?vid=de93a5ad-f4b7-43a9-a384-d70f5a94dc07","ios":"levelo://app?vid=de93a5ad-f4b7-43a9-a384-d70f5a94dc07"},"vehicle_type_id":"4","last_reported":1730754470,"current_range_meters":29600,"station_id":"ce4bh292rcd13ifvqdf0","pricing_plan_id":"cebpf4jnsgd1na2vs0mg"},{"bike_id":"17555494-7fb0-4bfc-8660-f04c76cf8dbb","system_id":"levelo_inurba_marseille","lat":43.28719,"lon":5.36101,"is_reserved":false,"is_disabled":false,"rental_uris":{"android":"levelo://app?vid=17555494-7fb0-4bfc-8660-f04c76cf8dbb","ios":"levelo://app?vid=17555494-7fb0-4bfc-8660-f04c76cf8dbb"},"vehicle_type_id":"4","last_reported":1730754470,"current_range_meters":7200,"station_id":"cki0cbj6b192h4jlfktg","pricing_plan_id":"cebpf4jnsgd1na2vs0mg"},{"bike_id":"819340a6-562b-46a4-9301-df7b52968f6c","system_id":"levelo_inurba_marseille","lat":43.25121,"lon":5.40322,"is_reserved":false,"is_disabled":false,"rental_uris":{"android":"levelo://app?vid=819340a6-562b-46a4-9301-df7b52968f6c","ios":"levelo://app?vid=819340a6-562b-46a4-9301-df7b52968f6c"},"vehicle_type_id":"4","last_reported":1730754470,"current_range_meters":8800,"station_id":"ce4bhlh2rcd13ifvqgig","pricing_plan_id":"cebpf4jnsgd1na2vs0mg"},{"bike_id":"660f9ab5-0ee6-45bd-9ba0-20f4579b8e99","system_id":"levelo_inurba_marseille","lat":43.33599,"lon":5.41022,"is_reserved":false,"is_disabled":false,"rental_uris":{"android":"levelo://app?vid=660f9ab5-0ee6-45bd-9ba0-20f4579b8e99","ios":"levelo://app?vid=660f9ab5-0ee6-45bd-9ba0-20f4579b8e99"},"vehicle_type_id":"4","last_reported":1730754470,"current_range_meters":38800,"station_id":"ce4bhqh2rcd13ifvqhmg","pricing_plan_id":"cebpf4jnsgd1na2vs0mg"},{"bike_id":"194a0437-24f4-46dc-b1b1-f7378512a499","system_id":"levelo_inurba_marseille","lat":43.29245,"lon":5.39819,"is_reserved":false,"is_disabled":false,"rental_uris":{"android":"levelo://app?vid=194a0437-24f4-46dc-b1b1-f7378512a499","ios":"levelo://app?vid=194a0437-24f4-46dc-b1b1-f7378512a499"},"vehicle_type_id":"4","last_reported":1730754470,"current_range_meters":3600,"station_id":"","pricing_plan_id":"cebpf4jnsgd1na2vs0mg"},{"bike_id":"061ef25d-4a75-45e6-8f0d-443c96029c69","system_id":"levelo_inurba_marseille","lat":43.26571,"lon":5.39018,"is_reserved":false,"is_disabled":false,"rental_uris":{"android":"levelo://app?vid=061ef25d-4a75-45e6-8f0d-443c96029c69","ios":"levelo://app?vid=061ef25d-4a75-45e6-8f0d-443c96029c69"},"vehicle_type_id":"4","last_reported":1730754470,"current_range_meters":30400,"station_id":"ce4bhe12rcd13ifvqf30","pricing_plan_id":"cebpf4jnsgd1na2vs0mg"},{"bike_id":"d844a569-2803-4908-ac9c-866a60aea8c4","system_id":"levelo_inurba_marseille","lat":43.29857,"lon":5.39745,"is_reserved":false,"is_disabled":false,"rental_uris":{"android":"levelo://app?vid=d844a569-2803-4908-ac9c-866a60aea8c4","ios":"levelo://app?vid=d844a569-2803-4908-ac9c-866a60aea8c4"},"vehicle_type_id":"4","last_reported":1730754470,"current_range_meters":40000,"station_id":"ce4bh0h2rcd13ifvqd50","pricing_plan_id":"cebpf4jnsgd1na2vs0mg"},{"bike_id":"32226b21-dbcc-474c-9004-398b3fdc8208","system_id":"levelo_inurba_marseille","lat":43.28448,"lon":5.35876,"is_reserved":false,"is_disabled":false,"rental_uris":{"android":"levelo://app?vid=32226b21-dbcc-474c-9004-398b3fdc8208","ios":"levelo://app?vid=32226b21-dbcc-474c-9004-398b3fdc8208"},"vehicle_type_id":"4","last_reported":1730754470,"current_range_meters":38800,"station_id":"ce4bhah2rcd13ifvqei0","pricing_plan_id":"cebpf4jnsgd1na2vs0mg"},{"bike_id":"41e0f506-093b-4fd4-aa64-948fe05224df","system_id":"levelo_inurba_marseille","lat":43.31125,"lon":5.37756,"is_reserved":false,"is_disabled":false,"rental_uris":{"android":"levelo://app?vid=41e0f506-093b-4fd4-aa64-948fe05224df","ios":"levelo://app?vid=41e0f506-093b-4fd4-aa64-948fe05224df"},"vehicle_type_id":"4","last_reported":1730754470,"current_range_meters":27200,"station_id":"ce4bgt92rcd13ifvqcg0","pricing_plan_id":"cebpf4jnsgd1na2vs0mg"},{"bike_id":"f4fa9d62-276a-49e8-9b94-c4b301a33eee","system_id":"levelo_inurba_marseille","lat":43.29524,"lon":5.39043,"is_reserved":false,"is_disabled":false,"rental_uris":{"android":"levelo://app?vid=f4fa9d62-276a-49e8-9b94-c4b301a33eee","ios":"levelo://app?vid=f4fa9d62-276a-49e8-9b94-c4b301a33eee"},"vehicle_type_id":"4","last_reported":1730754470,"current_range_meters":16800,"station_id":"ce4bh3p2rcd13ifvqdp0","pricing_plan_id":"cebpf4jnsgd1na2vs0mg"},{"bike_id":"cb3e0f7a-2749-41ab-b789-484e25d26bc7","system_id":"levelo_inurba_marseille","lat":43.29787,"lon":5.37096,"is_reserved":false,"is_disabled":false,"rental_uris":{"android":"levelo://app?vid=cb3e0f7a-2749-41ab-b789-484e25d26bc7","ios":"levelo://app?vid=cb3e0f7a-2749-41ab-b789-484e25d26bc7"},"vehicle_type_id":"4","last_reported":1730754470,"current_range_meters":16000,"station_id":"ce4bgop2rcd13ifvqc1g","pricing_plan_id":"cebpf4jnsgd1na2vs0mg"},{"bike_id":"823967de-5ba0-4689-8bf8-641b466fd8b1","system_id":"levelo_inurba_marseille","lat":43.23193,"lon":5.35562,"is_reserved":false,"is_disabled":false,"rental_uris":{"android":"levelo://app?vid=823967de-5ba0-4689-8bf8-641b466fd8b1","ios":"levelo://app?vid=823967de-5ba0-4689-8bf8-641b466fd8b1"},"vehicle_type_id":"4","last_reported":1730754470,"current_range_meters":38800,"station_id":"ce4bhu92rcd13ifvqi70","pricing_plan_id":"cebpf4jnsgd1na2vs0mg"},{"bike_id":"4bc64790-c609-4c70-b002-0790c5df4a72","system_id":"levelo_inurba_marseille","lat":43.29855,"lon":5.36291,"is_reserved":false,"is_disabled":false,"rental_uris":{"android":"levelo://app?vid=4bc64790-c609-4c70-b002-0790c5df4a72","ios":"levelo://app?vid=4bc64790-c609-4c70-b002-0790c5df4a72"},"vehicle_type_id":"4","last_reported":1730754470,"current_range_meters":38400,"station_id":"ce4bgpp2rcd13ifvqc3g","pricing_plan_id":"cebpf4jnsgd1na2vs0mg"},{"bike_id":"65557df6-2816-42b1-b18c-f4f90151d698","system_id":"levelo_inurba_marseille","lat":43.31365,"lon":5.38483,"is_reserved":false,"is_disabled":false,"rental_uris":{"android":"levelo://app?vid=65557df6-2816-42b1-b18c-f4f90151d698","ios":"levelo://app?vid=65557df6-2816-42b1-b18c-f4f90151d698"},"vehicle_type_id":"4","last_reported":1730754470,"current_range_meters":31200,"station_id":"ce4bgt92rcd13ifvqcf0","pricing_plan_id":"cebpf4jnsgd1na2vs0mg"},{"bike_id":"484e26c0-df19-4702-80bc-1033455ece33","system_id":"levelo_inurba_marseille","lat":43.26675,"lon":5.38264,"is_reserved":false,"is_disabled":false,"rental_uris":{"android":"levelo://app?vid=484e26c0-df19-4702-80bc-1033455ece33","ios":"levelo://app?vid=484e26c0-df19-4702-80bc-1033455ece33"},"vehicle_type_id":"4","last_reported":1730754470,"current_range_meters":19200,"station_id":"ce4bhg92rcd13ifvqf90","pricing_plan_id":"cebpf4jnsgd1na2vs0mg"},{"bike_id":"a3b40d4e-524d-45cd-9ca6-0383e0002711","system_id":"levelo_inurba_marseille","lat":43.28446,"lon":5.39175,"is_reserved":false,"is_disabled":false,"rental_uris":{"android":"levelo://app?vid=a3b40d4e-524d-45cd-9ca6-0383e0002711","ios":"levelo://app?vid=a3b40d4e-524d-45cd-9ca6-0383e0002711"},"vehicle_type_id":"4","last_reported":1730754470,"current_range_meters":38800,"station_id":"ce4bhoh2rcd13ifvqh5g","pricing_plan_id":"cebpf4jnsgd1na2vs0mg"},{"bike_id":"371ed9b9-117f-4304-a294-be3251d3642c","system_id":"levelo_inurba_marseille","lat":43.31759,"lon":5.39019,"is_reserved":false,"is_disabled":false,"rental_uris":{"android":"levelo://app?vid=371ed9b9-117f-4304-a294-be3251d3642c","ios":"levelo://app?vid=371ed9b9-117f-4304-a294-be3251d3642c"},"vehicle_type_id":"4","last_reported":1730754470,"current_range_meters":29600,"station_id":"ce4bhqp2rcd13ifvqhng","pricing_plan_id":"cebpf4jnsgd1na2vs0mg"},{"bike_id":"ed60d63c-528d-4e39-b086-310497c9f769","system_id":"levelo_inurba_marseille","lat":43.279963,"lon":5.399898,"is_reserved":false,"is_disabled":false,"rental_uris":{"android":"levelo://app?vid=ed60d63c-528d-4e39-b086-310497c9f769","ios":"levelo://app?vid=ed60d63c-528d-4e39-b086-310497c9f769"},"vehicle_type_id":"4","last_reported":1730754470,"current_range_meters":3200,"station_id":"ce4bho92rcd13ifvqh4g","pricing_plan_id":"cebpf4jnsgd1na2vs0mg"},{"bike_id":"99e882d5-29de-49d7-b824-19e3a26af3e8","system_id":"levelo_inurba_marseille","lat":43.28975,"lon":5.38564,"is_reserved":false,"is_disabled":false,"rental_uris":{"android":"levelo://app?vid=99e882d5-29de-49d7-b824-19e3a26af3e8","ios":"levelo://app?vid=99e882d5-29de-49d7-b824-19e3a26af3e8"},"vehicle_type_id":"4","last_reported":1730754470,"current_range_meters":26000,"station_id":"ce4bh4p2rcd13ifvqe0g","pricing_plan_id":"cebpf4jnsgd1na2vs0mg"},{"bike_id":"b97d231f-b06d-444f-93ba-90193ccee906","system_id":"levelo_inurba_marseille","lat":43.25084,"lon":5.39513,"is_reserved":false,"is_disabled":false,"rental_uris":{"android":"levelo://app?vid=b97d231f-b06d-444f-93ba-90193ccee906","ios":"levelo://app?vid=b97d231f-b06d-444f-93ba-90193ccee906"},"vehicle_type_id":"4","last_reported":1730754470,"current_range_meters":38000,"station_id":"ce4bhm12rcd13ifvqgkg","pricing_plan_id":"cebpf4jnsgd1na2vs0mg"},{"bike_id":"ed3cc475-9352-4500-9e2a-f8144dc4b6f1","system_id":"levelo_inurba_marseille","lat":43.33018,"lon":5.39047,"is_reserved":false,"is_disabled":false,"rental_uris":{"android":"levelo://app?vid=ed3cc475-9352-4500-9e2a-f8144dc4b6f1","ios":"levelo://app?vid=ed3cc475-9352-4500-9e2a-f8144dc4b6f1"},"vehicle_type_id":"4","last_reported":1730754470,"current_range_meters":38800,"station_id":"ce4bhr92rcd13ifvqhrg","pricing_plan_id":"cebpf4jnsgd1na2vs0mg"},{"bike_id":"70564515-7b78-4a47-885c-ce95b9b32f7b","system_id":"levelo_inurba_marseille","lat":43.2307,"lon":5.35491,"is_reserved":false,"is_disabled":false,"rental_uris":{"android":"levelo://app?vid=70564515-7b78-4a47-885c-ce95b9b32f7b","ios":"levelo://app?vid=70564515-7b78-4a47-885c-ce95b9b32f7b"},"vehicle_type_id":"4","last_reported":1730754470,"current_range_meters":34800,"station_id":"cpo3342slgdg3j2ifvpg","pricing_plan_id":"cebpf4jnsgd1na2vs0mg"},{"bike_id":"8a0c325f-e634-413a-83b4-b9280d66307d","system_id":"levelo_inurba_marseille","lat":43.30258,"lon":5.40067,"is_reserved":false,"is_disabled":false,"rental_uris":{"android":"levelo://app?vid=8a0c325f-e634-413a-83b4-b9280d66307d","ios":"levelo://app?vid=8a0c325f-e634-413a-83b4-b9280d66307d"},"vehicle_type_id":"4","last_reported":1730754470,"current_range_meters":28400,"station_id":"ce4bgvh2rcd13ifvqcs0","pricing_plan_id":"cebpf4jnsgd1na2vs0mg"},{"bike_id":"1c55a4f2-6ebe-43bd-9c45-f82841ee873e","system_id":"levelo_inurba_marseille","lat":43.290318,"lon":5.386252,"is_reserved":false,"is_disabled":false,"rental_uris":{"android":"levelo://app?vid=1c55a4f2-6ebe-43bd-9c45-f82841ee873e","ios":"levelo://app?vid=1c55a4f2-6ebe-43bd-9c45-f82841ee873e"},"vehicle_type_id":"4","last_reported":1730754470,"current_range_meters":38800,"station_id":"ce4bh4p2rcd13ifvqe0g","pricing_plan_id":"cebpf4jnsgd1na2vs0mg"},{"bike_id":"7a58136c-3165-4313-8fac-2c364b399752","system_id":"levelo_inurba_marseille","lat":43.33716,"lon":5.39193,"is_reserved":false,"is_disabled":false,"rental_uris":{"android":"levelo://app?vid=7a58136c-3165-4313-8fac-2c364b399752","ios":"levelo://app?vid=7a58136c-3165-4313-8fac-2c364b399752"},"vehicle_type_id":"4","last_reported":1730754470,"current_range_meters":26800,"station_id":"ce4bhr92rcd13ifvqhsg","pricing_plan_id":"cebpf4jnsgd1na2vs0mg"},{"bike_id":"2205bd4b-202f-4149-b7c7-6bfedff4840e","system_id":"levelo_inurba_marseille","lat":43.29708,"lon":5.36616,"is_reserved":false,"is_disabled":false,"rental_uris":{"android":"levelo://app?vid=2205bd4b-202f-4149-b7c7-6bfedff4840e","ios":"levelo://app?vid=2205bd4b-202f-4149-b7c7-6bfedff4840e"},"vehicle_type_id":"4","last_reported":1730754470,"current_range_meters":38000,"station_id":"ce4bgn12rcd13ifvqbt0","pricing_plan_id":"cebpf4jnsgd1na2vs0mg"},{"bike_id":"777d3623-ec04-4224-a967-8b9f9fe6e4a5","system_id":"levelo_inurba_marseille","lat":43.29548,"lon":5.42281,"is_reserved":false,"is_disabled":false,"rental_uris":{"android":"levelo://app?vid=777d3623-ec04-4224-a967-8b9f9fe6e4a5","ios":"levelo://app?vid=777d3623-ec04-4224-a967-8b9f9fe6e4a5"},"vehicle_type_id":"4","last_reported":1730754470,"current_range_meters":9200,"station_id":"ce4bhph2rcd13ifvqhdg","pricing_plan_id":"cebpf4jnsgd1na2vs0mg"},{"bike_id":"d53b57e5-6868-433d-b990-24fcbe41bcf1","system_id":"levelo_inurba_marseille","lat":43.27572,"lon":5.38433,"is_reserved":false,"is_disabled":false,"rental_uris":{"android":"levelo://app?vid=d53b57e5-6868-433d-b990-24fcbe41bcf1","ios":"levelo://app?vid=d53b57e5-6868-433d-b990-24fcbe41bcf1"},"vehicle_type_id":"4","last_reported":1730754470,"current_range_meters":25200,"station_id":"ce4bhh92rcd13ifvqfi0","pricing_plan_id":"cebpf4jnsgd1na2vs0mg"},{"bike_id":"9de46212-f0ef-4a49-8dde-f425459dc141","system_id":"levelo_inurba_marseille","lat":43.30135,"lon":5.38791,"is_reserved":false,"is_disabled":false,"rental_uris":{"android":"levelo://app?vid=9de46212-f0ef-4a49-8dde-f425459dc141","ios":"levelo://app?vid=9de46212-f0ef-4a49-8dde-f425459dc141"},"vehicle_type_id":"4","last_reported":1730754470,"current_range_meters":37600,"station_id":"ce4bghh2rcd13ifvqb60","pricing_plan_id":"cebpf4jnsgd1na2vs0mg"},{"bike_id":"a8758df9-3f5a-492e-a2ad-bc762183546e","system_id":"levelo_inurba_marseille","lat":43.28411,"lon":5.37511,"is_reserved":false,"is_disabled":false,"rental_uris":{"android":"levelo://app?vid=a8758df9-3f5a-492e-a2ad-bc762183546e","ios":"levelo://app?vid=a8758df9-3f5a-492e-a2ad-bc762183546e"},"vehicle_type_id":"4","last_reported":1730754470,"current_range_meters":10000,"station_id":"ce4bh412rcd13ifvqds0","pricing_plan_id":"cebpf4jnsgd1na2vs0mg"},{"bike_id":"eab47ed5-f83a-4939-80d1-ff052743bdd1","system_id":"levelo_inurba_marseille","lat":43.32111,"lon":5.36779,"is_reserved":false,"is_disabled":false,"rental_uris":{"android":"levelo://app?vid=eab47ed5-f83a-4939-80d1-ff052743bdd1","ios":"levelo://app?vid=eab47ed5-f83a-4939-80d1-ff052743bdd1"},"vehicle_type_id":"4","last_reported":1730754470,"current_range_meters":34800,"station_id":"ce4bhrh2rcd13ifvqhug","pricing_plan_id":"cebpf4jnsgd1na2vs0mg"},{"bike_id":"447ee1df-dbc3-4675-bef3-9e2af97da320","system_id":"levelo_inurba_marseille","lat":43.32479,"lon":5.36569,"is_reserved":false,"is_disabled":false,"rental_uris":{"android":"levelo://app?vid=447ee1df-dbc3-4675-bef3-9e2af97da320","ios":"levelo://app?vid=447ee1df-dbc3-4675-bef3-9e2af97da320"},"vehicle_type_id":"4","last_reported":1730754470,"current_range_meters":38800,"station_id":"ce4bhs12rcd13ifvqhvg","pricing_plan_id":"cebpf4jnsgd1na2vs0mg"},{"bike_id":"a0be6000-a8f5-4b39-a1ab-df18f1dd4304","system_id":"levelo_inurba_marseille","lat":43.28356,"lon":5.38109,"is_reserved":false,"is_disabled":false,"rental_uris":{"android":"levelo://app?vid=a0be6000-a8f5-4b39-a1ab-df18f1dd4304","ios":"levelo://app?vid=a0be6000-a8f5-4b39-a1ab-df18f1dd4304"},"vehicle_type_id":"4","last_reported":1730754470,"current_range_meters":6800,"station_id":"ce4bh412rcd13ifvqdr0","pricing_plan_id":"cebpf4jnsgd1na2vs0mg"},{"bike_id":"34bc5c95-a993-4cae-b69a-425d5fd0ac9b","system_id":"levelo_inurba_marseille","lat":43.30418,"lon":5.39754,"is_reserved":false,"is_disabled":false,"rental_uris":{"android":"levelo://app?vid=34bc5c95-a993-4cae-b69a-425d5fd0ac9b","ios":"levelo://app?vid=34bc5c95-a993-4cae-b69a-425d5fd0ac9b"},"vehicle_type_id":"4","last_reported":1730754470,"current_range_meters":38800,"station_id":"ce4bh092rcd13ifvqd20","pricing_plan_id":"cebpf4jnsgd1na2vs0mg"},{"bike_id":"5b041e65-a357-4f5f-8060-dee3ef26553f","system_id":"levelo_inurba_marseille","lat":43.26203,"lon":5.3793,"is_reserved":false,"is_disabled":false,"rental_uris":{"android":"levelo://app?vid=5b041e65-a357-4f5f-8060-dee3ef26553f","ios":"levelo://app?vid=5b041e65-a357-4f5f-8060-dee3ef26553f"},"vehicle_type_id":"4","last_reported":1730754470,"current_range_meters":28400,"station_id":"ce4bhjp2rcd13ifvqg90","pricing_plan_id":"cebpf4jnsgd1na2vs0mg"},{"bike_id":"02dbcd6c-8390-4265-bdef-38c0c6b3b526","system_id":"levelo_inurba_marseille","lat":43.26057,"lon":5.39394,"is_reserved":false,"is_disabled":false,"rental_uris":{"android":"levelo://app?vid=02dbcd6c-8390-4265-bdef-38c0c6b3b526","ios":"levelo://app?vid=02dbcd6c-8390-4265-bdef-38c0c6b3b526"},"vehicle_type_id":"4","last_reported":1730754470,"current_range_meters":4800,"station_id":"ce4bhh92rcd13ifvqfj0","pricing_plan_id":"cebpf4jnsgd1na2vs0mg"},{"bike_id":"d7a411fb-32c0-4524-bcdb-bc40bfeaca08","system_id":"levelo_inurba_marseille","lat":43.26939,"lon":5.40248,"is_reserved":false,"is_disabled":false,"rental_uris":{"android":"levelo://app?vid=d7a411fb-32c0-4524-bcdb-bc40bfeaca08","ios":"levelo://app?vid=d7a411fb-32c0-4524-bcdb-bc40bfeaca08"},"vehicle_type_id":"4","last_reported":1730754470,"current_range_meters":38800,"station_id":"cjm6bp8fraef2m0cb0m0","pricing_plan_id":"cebpf4jnsgd1na2vs0mg"},{"bike_id":"eeb6fa2a-003b-4e78-b5b2-99abb33a724d","system_id":"levelo_inurba_marseille","lat":43.29568,"lon":5.39974,"is_reserved":false,"is_disabled":false,"rental_uris":{"android":"levelo://app?vid=eeb6fa2a-003b-4e78-b5b2-99abb33a724d","ios":"levelo://app?vid=eeb6fa2a-003b-4e78-b5b2-99abb33a724d"},"vehicle_type_id":"4","last_reported":1730754470,"current_range_meters":38800,"station_id":"ce4bh312rcd13ifvqdj0","pricing_plan_id":"cebpf4jnsgd1na2vs0mg"},{"bike_id":"ce8e5906-0d4f-4085-a6e2-c7f244080cc6","system_id":"levelo_inurba_marseille","lat":43.32293,"lon":5.3827,"is_reserved":false,"is_disabled":false,"rental_uris":{"android":"levelo://app?vid=ce8e5906-0d4f-4085-a6e2-c7f244080cc6","ios":"levelo://app?vid=ce8e5906-0d4f-4085-a6e2-c7f244080cc6"},"vehicle_type_id":"4","last_reported":1730754470,"current_range_meters":40000,"station_id":"ce4bhr12rcd13ifvqhqg","pricing_plan_id":"cebpf4jnsgd1na2vs0mg"},{"bike_id":"c1a3850b-58a8-40e1-822b-5a6aa55801a2","system_id":"levelo_inurba_marseille","lat":43.30139,"lon":5.39858,"is_reserved":false,"is_disabled":false,"rental_uris":{"android":"levelo://app?vid=c1a3850b-58a8-40e1-822b-5a6aa55801a2","ios":"levelo://app?vid=c1a3850b-58a8-40e1-822b-5a6aa55801a2"},"vehicle_type_id":"4","last_reported":1730754470,"current_range_meters":28400,"station_id":"ce4bh0h2rcd13ifvqd40","pricing_plan_id":"cebpf4jnsgd1na2vs0mg"},{"bike_id":"6c6f793a-b4ae-48da-ab03-1e7093a0eced","system_id":"levelo_inurba_marseille","lat":43.28563,"lon":5.39508,"is_reserved":false,"is_disabled":false,"rental_uris":{"android":"levelo://app?vid=6c6f793a-b4ae-48da-ab03-1e7093a0eced","ios":"levelo://app?vid=6c6f793a-b4ae-48da-ab03-1e7093a0eced"},"vehicle_type_id":"4","last_reported":1730754470,"current_range_meters":39200,"station_id":"ce4bh292rcd13ifvqdg0","pricing_plan_id":"cebpf4jnsgd1na2vs0mg"},{"bike_id":"34afd728-8e1f-4ebf-9794-25343087a984","system_id":"levelo_inurba_marseille","lat":43.31527,"lon":5.38041,"is_reserved":false,"is_disabled":false,"rental_uris":{"android":"levelo://app?vid=34afd728-8e1f-4ebf-9794-25343087a984","ios":"levelo://app?vid=34afd728-8e1f-4ebf-9794-25343087a984"},"vehicle_type_id":"4","last_reported":1730754470,"current_range_meters":31200,"station_id":"ce4bhsp2rcd13ifvqi50","pricing_plan_id":"cebpf4jnsgd1na2vs0mg"},{"bike_id":"061af2b2-d26c-4fd5-bc63-3604d8d8b438","system_id":"levelo_inurba_marseille","lat":43.26802,"lon":5.40266,"is_reserved":false,"is_disabled":false,"rental_uris":{"android":"levelo://app?vid=061af2b2-d26c-4fd5-bc63-3604d8d8b438","ios":"levelo://app?vid=061af2b2-d26c-4fd5-bc63-3604d8d8b438"},"vehicle_type_id":"4","last_reported":1730754470,"current_range_meters":25200,"station_id":"ce501612rcd8frsf0b60","pricing_plan_id":"cebpf4jnsgd1na2vs0mg"},{"bike_id":"17b21d05-68c9-4983-a221-7a75089ec945","system_id":"levelo_inurba_marseille","lat":43.27809,"lon":5.40706,"is_reserved":false,"is_disabled":false,"rental_uris":{"android":"levelo://app?vid=17b21d05-68c9-4983-a221-7a75089ec945","ios":"levelo://app?vid=17b21d05-68c9-4983-a221-7a75089ec945"},"vehicle_type_id":"4","last_reported":1730754470,"current_range_meters":37600,"station_id":"ce4bhnh2rcd13ifvqgtg","pricing_plan_id":"cebpf4jnsgd1na2vs0mg"},{"bike_id":"260fa75a-01a4-4465-ba93-2899bc76795b","system_id":"levelo_inurba_marseille","lat":43.27072,"lon":5.42274,"is_reserved":false,"is_disabled":false,"rental_uris":{"android":"levelo://app?vid=260fa75a-01a4-4465-ba93-2899bc76795b","ios":"levelo://app?vid=260fa75a-01a4-4465-ba93-2899bc76795b"},"vehicle_type_id":"4","last_reported":1730754470,"current_range_meters":20400,"station_id":"ce4bhk92rcd13ifvqgb0","pricing_plan_id":"cebpf4jnsgd1na2vs0mg"},{"bike_id":"c2ab1373-b2da-4300-9c5b-f62a7f827980","system_id":"levelo_inurba_marseille","lat":43.27559,"lon":5.3843,"is_reserved":false,"is_disabled":false,"rental_uris":{"android":"levelo://app?vid=c2ab1373-b2da-4300-9c5b-f62a7f827980","ios":"levelo://app?vid=c2ab1373-b2da-4300-9c5b-f62a7f827980"},"vehicle_type_id":"4","last_reported":1730754470,"current_range_meters":20800,"station_id":"ce4bhh92rcd13ifvqfi0","pricing_plan_id":"cebpf4jnsgd1na2vs0mg"},{"bike_id":"4045aee7-8160-400e-b3b0-5deaa0bf98f8","system_id":"levelo_inurba_marseille","lat":43.2987,"lon":5.39731,"is_reserved":false,"is_disabled":false,"rental_uris":{"android":"levelo://app?vid=4045aee7-8160-400e-b3b0-5deaa0bf98f8","ios":"levelo://app?vid=4045aee7-8160-400e-b3b0-5deaa0bf98f8"},"vehicle_type_id":"4","last_reported":1730754470,"current_range_meters":19200,"station_id":"ce4bh0h2rcd13ifvqd50","pricing_plan_id":"cebpf4jnsgd1na2vs0mg"},{"bike_id":"09f99cca-22e2-4332-b75b-cb79ad09f5f0","system_id":"levelo_inurba_marseille","lat":43.29045,"lon":5.37742,"is_reserved":false,"is_disabled":false,"rental_uris":{"android":"levelo://app?vid=09f99cca-22e2-4332-b75b-cb79ad09f5f0","ios":"levelo://app?vid=09f99cca-22e2-4332-b75b-cb79ad09f5f0"},"vehicle_type_id":"4","last_reported":1730754470,"current_range_meters":38800,"station_id":"ce4bh2h2rcd13ifvqdh0","pricing_plan_id":"cebpf4jnsgd1na2vs0mg"},{"bike_id":"c62c7e8e-47b8-4485-bde4-0f8f4a381c37","system_id":"levelo_inurba_marseille","lat":43.29191,"lon":5.3933,"is_reserved":false,"is_disabled":false,"rental_uris":{"android":"levelo://app?vid=c62c7e8e-47b8-4485-bde4-0f8f4a381c37","ios":"levelo://app?vid=c62c7e8e-47b8-4485-bde4-0f8f4a381c37"},"vehicle_type_id":"4","last_reported":1730754470,"current_range_meters":38800,"station_id":"ce4bh192rcd13ifvqdd0","pricing_plan_id":"cebpf4jnsgd1na2vs0mg"},{"bike_id":"69d728d9-309b-4a8b-a56b-95b3944c9f36","system_id":"levelo_inurba_marseille","lat":43.31166,"lon":5.38716,"is_reserved":false,"is_disabled":false,"rental_uris":{"android":"levelo://app?vid=69d728d9-309b-4a8b-a56b-95b3944c9f36","ios":"levelo://app?vid=69d728d9-309b-4a8b-a56b-95b3944c9f36"},"vehicle_type_id":"4","last_reported":1730754470,"current_range_meters":11200,"station_id":"ce4bgv12rcd13ifvqcp0","pricing_plan_id":"cebpf4jnsgd1na2vs0mg"},{"bike_id":"3b3d4d61-3b31-4a29-96a1-1451b29f8d4d","system_id":"levelo_inurba_marseille","lat":43.25723,"lon":5.41099,"is_reserved":false,"is_disabled":false,"rental_uris":{"android":"levelo://app?vid=3b3d4d61-3b31-4a29-96a1-1451b29f8d4d","ios":"levelo://app?vid=3b3d4d61-3b31-4a29-96a1-1451b29f8d4d"},"vehicle_type_id":"4","last_reported":1730754470,"current_range_meters":38800,"station_id":"ce4bhkp2rcd13ifvqgd0","pricing_plan_id":"cebpf4jnsgd1na2vs0mg"},{"bike_id":"6b203e94-dbf2-4a85-aba6-861192269bba","system_id":"levelo_inurba_marseille","lat":43.23956,"lon":5.36626,"is_reserved":false,"is_disabled":false,"rental_uris":{"android":"levelo://app?vid=6b203e94-dbf2-4a85-aba6-861192269bba","ios":"levelo://app?vid=6b203e94-dbf2-4a85-aba6-861192269bba"},"vehicle_type_id":"4","last_reported":1730754470,"current_range_meters":13600,"station_id":"ce4bhi12rcd13ifvqfp0","pricing_plan_id":"cebpf4jnsgd1na2vs0mg"},{"bike_id":"b6ea5055-c288-4fe9-b754-7b7dc142e381","system_id":"levelo_inurba_marseille","lat":43.30133,"lon":5.38779,"is_reserved":false,"is_disabled":false,"rental_uris":{"android":"levelo://app?vid=b6ea5055-c288-4fe9-b754-7b7dc142e381","ios":"levelo://app?vid=b6ea5055-c288-4fe9-b754-7b7dc142e381"},"vehicle_type_id":"4","last_reported":1730754470,"current_range_meters":38800,"station_id":"ce4bghh2rcd13ifvqb60","pricing_plan_id":"cebpf4jnsgd1na2vs0mg"},{"bike_id":"cb67bb56-cc54-409f-bfb4-1716c4daf1af","system_id":"levelo_inurba_marseille","lat":43.3107,"lon":5.38345,"is_reserved":false,"is_disabled":false,"rental_uris":{"android":"levelo://app?vid=cb67bb56-cc54-409f-bfb4-1716c4daf1af","ios":"levelo://app?vid=cb67bb56-cc54-409f-bfb4-1716c4daf1af"},"vehicle_type_id":"4","last_reported":1730754470,"current_range_meters":38800,"station_id":"ce4bgv92rcd13ifvqcr0","pricing_plan_id":"cebpf4jnsgd1na2vs0mg"},{"bike_id":"db31db70-cc20-4b5f-acb8-538f14a09b27","system_id":"levelo_inurba_marseille","lat":43.2318,"lon":5.3998,"is_reserved":false,"is_disabled":false,"rental_uris":{"android":"levelo://app?vid=db31db70-cc20-4b5f-acb8-538f14a09b27","ios":"levelo://app?vid=db31db70-cc20-4b5f-acb8-538f14a09b27"},"vehicle_type_id":"4","last_reported":1730754470,"current_range_meters":38000,"station_id":"ce4bhn12rcd13ifvqgqg","pricing_plan_id":"cebpf4jnsgd1na2vs0mg"},{"bike_id":"c4c0de2f-a87e-415a-bc12-145e90238b59","system_id":"levelo_inurba_marseille","lat":43.27945,"lon":5.41041,"is_reserved":false,"is_disabled":false,"rental_uris":{"android":"levelo://app?vid=c4c0de2f-a87e-415a-bc12-145e90238b59","ios":"levelo://app?vid=c4c0de2f-a87e-415a-bc12-145e90238b59"},"vehicle_type_id":"4","last_reported":1730754470,"current_range_meters":9600,"station_id":"ce4bhnp2rcd13ifvqh0g","pricing_plan_id":"cebpf4jnsgd1na2vs0mg"},{"bike_id":"37ef2ca3-2c43-4d66-9992-5cf3dddabb46","system_id":"levelo_inurba_marseille","lat":43.3107,"lon":5.38353,"is_reserved":false,"is_disabled":false,"rental_uris":{"android":"levelo://app?vid=37ef2ca3-2c43-4d66-9992-5cf3dddabb46","ios":"levelo://app?vid=37ef2ca3-2c43-4d66-9992-5cf3dddabb46"},"vehicle_type_id":"4","last_reported":1730754470,"current_range_meters":13600,"station_id":"ce4bgv92rcd13ifvqcr0","pricing_plan_id":"cebpf4jnsgd1na2vs0mg"},{"bike_id":"265b86ae-0f4b-48c7-a394-df073cd8c82f","system_id":"levelo_inurba_marseille","lat":43.26059,"lon":5.39394,"is_reserved":false,"is_disabled":false,"rental_uris":{"android":"levelo://app?vid=265b86ae-0f4b-48c7-a394-df073cd8c82f","ios":"levelo://app?vid=265b86ae-0f4b-48c7-a394-df073cd8c82f"},"vehicle_type_id":"4","last_reported":1730754470,"current_range_meters":38800,"station_id":"ce4bhh92rcd13ifvqfj0","pricing_plan_id":"cebpf4jnsgd1na2vs0mg"},{"bike_id":"29f681b5-c5da-48c5-9970-08b3f9bca177","system_id":"levelo_inurba_marseille","lat":43.32336,"lon":5.40622,"is_reserved":false,"is_disabled":false,"rental_uris":{"android":"levelo://app?vid=29f681b5-c5da-48c5-9970-08b3f9bca177","ios":"levelo://app?vid=29f681b5-c5da-48c5-9970-08b3f9bca177"},"vehicle_type_id":"4","last_reported":1730754470,"current_range_meters":11200,"station_id":"ce4bhq92rcd13ifvqhjg","pricing_plan_id":"cebpf4jnsgd1na2vs0mg"},{"bike_id":"62ab7a04-3f30-4419-9f21-aa956d86fd7f","system_id":"levelo_inurba_marseille","lat":43.29191,"lon":5.39339,"is_reserved":false,"is_disabled":false,"rental_uris":{"android":"levelo://app?vid=62ab7a04-3f30-4419-9f21-aa956d86fd7f","ios":"levelo://app?vid=62ab7a04-3f30-4419-9f21-aa956d86fd7f"},"vehicle_type_id":"4","last_reported":1730754470,"current_range_meters":6800,"station_id":"ce4bh192rcd13ifvqdd0","pricing_plan_id":"cebpf4jnsgd1na2vs0mg"},{"bike_id":"e75124be-974f-48d7-92f9-0cbf3d69795d","system_id":"levelo_inurba_marseille","lat":43.28473,"lon":5.3856,"is_reserved":false,"is_disabled":false,"rental_uris":{"android":"levelo://app?vid=e75124be-974f-48d7-92f9-0cbf3d69795d","ios":"levelo://app?vid=e75124be-974f-48d7-92f9-0cbf3d69795d"},"vehicle_type_id":"4","last_reported":1730754470,"current_range_meters":38800,"station_id":"ce4bh8p2rcd13ifvqeb0","pricing_plan_id":"cebpf4jnsgd1na2vs0mg"},{"bike_id":"756c1efa-f2cb-4ba2-928c-22e9fea9145d","system_id":"levelo_inurba_marseille","lat":43.29258,"lon":5.40917,"is_reserved":false,"is_disabled":false,"rental_uris":{"android":"levelo://app?vid=756c1efa-f2cb-4ba2-928c-22e9fea9145d","ios":"levelo://app?vid=756c1efa-f2cb-4ba2-928c-22e9fea9145d"},"vehicle_type_id":"4","last_reported":1730754470,"current_range_meters":38800,"station_id":"ce4bh192rcd13ifvqdc0","pricing_plan_id":"cebpf4jnsgd1na2vs0mg"},{"bike_id":"8f6ae032-9bce-4fab-b9c5-8174447ce3ce","system_id":"levelo_inurba_marseille","lat":43.29518,"lon":5.39039,"is_reserved":false,"is_disabled":false,"rental_uris":{"android":"levelo://app?vid=8f6ae032-9bce-4fab-b9c5-8174447ce3ce","ios":"levelo://app?vid=8f6ae032-9bce-4fab-b9c5-8174447ce3ce"},"vehicle_type_id":"4","last_reported":1730754470,"current_range_meters":31200,"station_id":"ce4bh3p2rcd13ifvqdp0","pricing_plan_id":"cebpf4jnsgd1na2vs0mg"},{"bike_id":"144bcf26-0ebe-4b6b-903c-e7f3d422be35","system_id":"levelo_inurba_marseille","lat":43.23182,"lon":5.39983,"is_reserved":false,"is_disabled":false,"rental_uris":{"android":"levelo://app?vid=144bcf26-0ebe-4b6b-903c-e7f3d422be35","ios":"levelo://app?vid=144bcf26-0ebe-4b6b-903c-e7f3d422be35"},"vehicle_type_id":"4","last_reported":1730754470,"current_range_meters":38800,"station_id":"ce4bhn12rcd13ifvqgqg","pricing_plan_id":"cebpf4jnsgd1na2vs0mg"},{"bike_id":"9ec276ae-d80d-415a-bf60-0358ad54dffc","system_id":"levelo_inurba_marseille","lat":43.29894,"lon":5.43673,"is_reserved":false,"is_disabled":false,"rental_uris":{"android":"levelo://app?vid=9ec276ae-d80d-415a-bf60-0358ad54dffc","ios":"levelo://app?vid=9ec276ae-d80d-415a-bf60-0358ad54dffc"},"vehicle_type_id":"4","last_reported":1730754470,"current_range_meters":11200,"station_id":"ce4bhpp2rcd13ifvqhfg","pricing_plan_id":"cebpf4jnsgd1na2vs0mg"},{"bike_id":"b51fe813-fb3e-4f83-bf96-96b46bf75c3f","system_id":"levelo_inurba_marseille","lat":43.2587,"lon":5.39897,"is_reserved":false,"is_disabled":false,"rental_uris":{"android":"levelo://app?vid=b51fe813-fb3e-4f83-bf96-96b46bf75c3f","ios":"levelo://app?vid=b51fe813-fb3e-4f83-bf96-96b46bf75c3f"},"vehicle_type_id":"4","last_reported":1730754470,"current_range_meters":36800,"station_id":"ce4bhl92rcd13ifvqghg","pricing_plan_id":"cebpf4jnsgd1na2vs0mg"},{"bike_id":"e2ae0a33-a095-45fe-95b7-de965502a13c","system_id":"levelo_inurba_marseille","lat":43.26943,"lon":5.38625,"is_reserved":false,"is_disabled":false,"rental_uris":{"android":"levelo://app?vid=e2ae0a33-a095-45fe-95b7-de965502a13c","ios":"levelo://app?vid=e2ae0a33-a095-45fe-95b7-de965502a13c"},"vehicle_type_id":"4","last_reported":1730754470,"current_range_meters":38800,"station_id":"ce4bhh92rcd13ifvqfh0","pricing_plan_id":"cebpf4jnsgd1na2vs0mg"},{"bike_id":"aaad4a4a-fed7-4d7a-b630-08942078be3e","system_id":"levelo_inurba_marseille","lat":43.2658,"lon":5.390048,"is_reserved":false,"is_disabled":false,"rental_uris":{"android":"levelo://app?vid=aaad4a4a-fed7-4d7a-b630-08942078be3e","ios":"levelo://app?vid=aaad4a4a-fed7-4d7a-b630-08942078be3e"},"vehicle_type_id":"4","last_reported":1730754470,"current_range_meters":38800,"station_id":"ce4bhe12rcd13ifvqf30","pricing_plan_id":"cebpf4jnsgd1na2vs0mg"},{"bike_id":"d0f753f7-f40a-4e7e-859f-26b83fa97cde","system_id":"levelo_inurba_marseille","lat":43.2757,"lon":5.38434,"is_reserved":false,"is_disabled":false,"rental_uris":{"android":"levelo://app?vid=d0f753f7-f40a-4e7e-859f-26b83fa97cde","ios":"levelo://app?vid=d0f753f7-f40a-4e7e-859f-26b83fa97cde"},"vehicle_type_id":"4","last_reported":1730754470,"current_range_meters":16400,"station_id":"ce4bhh92rcd13ifvqfi0","pricing_plan_id":"cebpf4jnsgd1na2vs0mg"},{"bike_id":"cc164c79-47b7-41a2-8ddf-f6e1442291cb","system_id":"levelo_inurba_marseille","lat":43.27817,"lon":5.40713,"is_reserved":false,"is_disabled":false,"rental_uris":{"android":"levelo://app?vid=cc164c79-47b7-41a2-8ddf-f6e1442291cb","ios":"levelo://app?vid=cc164c79-47b7-41a2-8ddf-f6e1442291cb"},"vehicle_type_id":"4","last_reported":1730754470,"current_range_meters":26800,"station_id":"ce4bhnh2rcd13ifvqgtg","pricing_plan_id":"cebpf4jnsgd1na2vs0mg"},{"bike_id":"5e4789c0-dda2-4013-80f2-5c2d8da893a6","system_id":"levelo_inurba_marseille","lat":43.28454,"lon":5.35893,"is_reserved":false,"is_disabled":false,"rental_uris":{"android":"levelo://app?vid=5e4789c0-dda2-4013-80f2-5c2d8da893a6","ios":"levelo://app?vid=5e4789c0-dda2-4013-80f2-5c2d8da893a6"},"vehicle_type_id":"4","last_reported":1730754470,"current_range_meters":24800,"station_id":"ce4bhah2rcd13ifvqei0","pricing_plan_id":"cebpf4jnsgd1na2vs0mg"},{"bike_id":"ec3882b1-43a8-4750-8c25-518186950533","system_id":"levelo_inurba_marseille","lat":43.28419,"lon":5.37522,"is_reserved":false,"is_disabled":false,"rental_uris":{"android":"levelo://app?vid=ec3882b1-43a8-4750-8c25-518186950533","ios":"levelo://app?vid=ec3882b1-43a8-4750-8c25-518186950533"},"vehicle_type_id":"4","last_reported":1730754470,"current_range_meters":30000,"station_id":"ce4bh412rcd13ifvqds0","pricing_plan_id":"cebpf4jnsgd1na2vs0mg"},{"bike_id":"a7adc7ea-055f-47bb-b719-ed2702addb6b","system_id":"levelo_inurba_marseille","lat":43.2846,"lon":5.35897,"is_reserved":false,"is_disabled":false,"rental_uris":{"android":"levelo://app?vid=a7adc7ea-055f-47bb-b719-ed2702addb6b","ios":"levelo://app?vid=a7adc7ea-055f-47bb-b719-ed2702addb6b"},"vehicle_type_id":"4","last_reported":1730754470,"current_range_meters":35600,"station_id":"ce4bhah2rcd13ifvqei0","pricing_plan_id":"cebpf4jnsgd1na2vs0mg"},{"bike_id":"1a4eceb0-446f-4b65-af01-dcb2d9429145","system_id":"levelo_inurba_marseille","lat":43.27561,"lon":5.38437,"is_reserved":false,"is_disabled":false,"rental_uris":{"android":"levelo://app?vid=1a4eceb0-446f-4b65-af01-dcb2d9429145","ios":"levelo://app?vid=1a4eceb0-446f-4b65-af01-dcb2d9429145"},"vehicle_type_id":"4","last_reported":1730754470,"current_range_meters":19600,"station_id":"ce4bhh92rcd13ifvqfi0","pricing_plan_id":"cebpf4jnsgd1na2vs0mg"},{"bike_id":"2e5b4eda-1e00-4de7-bf32-df40f4d56ed2","system_id":"levelo_inurba_marseille","lat":43.32483,"lon":5.36556,"is_reserved":false,"is_disabled":false,"rental_uris":{"android":"levelo://app?vid=2e5b4eda-1e00-4de7-bf32-df40f4d56ed2","ios":"levelo://app?vid=2e5b4eda-1e00-4de7-bf32-df40f4d56ed2"},"vehicle_type_id":"4","last_reported":1730754470,"current_range_meters":13600,"station_id":"ce4bhs12rcd13ifvqhvg","pricing_plan_id":"cebpf4jnsgd1na2vs0mg"},{"bike_id":"df1ada01-a8d6-41d4-8bf9-bf7e6b6c0397","system_id":"levelo_inurba_marseille","lat":43.3093,"lon":5.40141,"is_reserved":false,"is_disabled":false,"rental_uris":{"android":"levelo://app?vid=df1ada01-a8d6-41d4-8bf9-bf7e6b6c0397","ios":"levelo://app?vid=df1ada01-a8d6-41d4-8bf9-bf7e6b6c0397"},"vehicle_type_id":"4","last_reported":1730754470,"current_range_meters":14400,"station_id":"ce4bgvp2rcd13ifvqct0","pricing_plan_id":"cebpf4jnsgd1na2vs0mg"},{"bike_id":"0dd14287-b5b8-4dc8-8992-61886bc0ae6f","system_id":"levelo_inurba_marseille","lat":43.290649,"lon":5.378027,"is_reserved":false,"is_disabled":false,"rental_uris":{"android":"levelo://app?vid=0dd14287-b5b8-4dc8-8992-61886bc0ae6f","ios":"levelo://app?vid=0dd14287-b5b8-4dc8-8992-61886bc0ae6f"},"vehicle_type_id":"4","last_reported":1730754470,"current_range_meters":38800,"station_id":"ce4bh9p2rcd13ifvqed0","pricing_plan_id":"cebpf4jnsgd1na2vs0mg"},