{"last_updated":1733418498,"ttl":60,"version":"2.2","data":{"bikes":[{"bike_id":"74a4b6a1-017d-4a01-8cdd-aee472be231c","system_id":"levelo_inurba_marseille","lat":43.29295,"lon":5.37729,"is_reserved":false,"is_disabled":false,"rental_uris":{"android":"levelo://app?vid=74a4b6a1-017d-4a01-8cdd-aee472be231c","ios":"levelo://app?vid=74a4b6a1-017d-4a01-8cdd-aee472be231c"},"vehicle_type_id":"4","last_reported":1733418498,"current_range_meters":32000,"station_id":"ce4bhc92rcd13ifvqetg","pricing_plan_id":"cebpf4jnsgd1na2vs0mg"},{"bike_id":"6454bec9-cacb-4113-971b-3d4670d5c1a7","system_id":"levelo_inurba_marseille","lat":43.29625,"lon":5.37726,"is_reserved":false,"is_disabled":false,"rental_uris":{"android":"levelo://app?vid=6454bec9-cacb-4113-971b-3d4670d5c1a7","ios":"levelo://app?vid=6454bec9-cacb-4113-971b-3d4670d5c1a7"},"vehicle_type_id":"4","last_reported":1733418498,"current_range_meters":19600,"station_id":"ce4bgi92rcd13ifvqb90","pricing_plan_id":"cebpf4jnsgd1na2vs0mg"},{"bike_id":"df479c2c-35ac-44ad-b9d6-81c89ed769ce","system_id":"levelo_inurba_marseille","lat":43.29699,"lon":5.37054,"is_reserved":false,"is_disabled":true,"rental_uris":{"android":"levelo://app?vid=df479c2c-35ac-44ad-b9d6-81c89ed769ce","ios":"levelo://app?vid=df479c2c-35ac-44ad-b9d6-81c89ed769ce"},"vehicle_type_id":"4","last_reported":1733418498,"current_range_meters":0,"station_id":"","pricing_plan_id":"cebpf4jnsgd1na2vs0mg"},{"bike_id":"8e029eaf-e104-4c5d-858d-6cd39de73d09","system_id":"levelo_inurba_marseille","lat":43.24164,"lon":5.36403,"is_reserved":false,"is_disabled":false,"rental_uris":{"android":"levelo://app?vid=8e029eaf-e104-4c5d-858d-6cd39de73d09","ios":"levelo://app?vid=8e029eaf-e104-4c5d-858d-6cd39de73d09"},"vehicle_type_id":"4","last_reported":1733418498,"current_range_meters":6000,"station_id":"cpo36qri1sfpv3e86is0","pricing_plan_id":"cebpf4jnsgd1na2vs0mg"},{"bike_id":"bc6d1df1-c307-4d6f-9ccf-49fb0c32794a","system_id":"levelo_inurba_marseille","lat":43.25867,"lon":5.39904,"is_reserved":false,"is_disabled":false,"rental_uris":{"android":"levelo://app?vid=bc6d1df1-c307-4d6f-9ccf-49fb0c32794a","ios":"levelo://app?vid=bc6d1df1-c307-4d6f-9ccf-49fb0c32794a"},"vehicle_type_id":"4","last_reported":1733418498,"current_range_meters":38800,"station_id":"ce4bhl92rcd13ifvqghg","pricing_plan_id":"cebpf4jnsgd1na2vs0mg"},{"bike_id":"efaac46c-d946-4360-8674-93c30250c734","system_id":"levelo_inurba_marseille","lat":43.29868,"lon":5.39741,"is_reserved":false,"is_disabled":false,"rental_uris":{"android":"levelo://app?vid=efaac46c-d946-4360-8674-93c30250c734","ios":"levelo://app?vid=efaac46c-d946-4360-8674-93c30250c734"},"vehicle_type_id":"4","last_reported":1733418498,"current_range_meters":38800,"station_id":"ce4bh0h2rcd13ifvqd50","pricing_plan_id":"cebpf4jnsgd1na2vs0mg"},{"bike_id":"9e08f281-c0e3-4a9d-ba4a-3c95e0797110","system_id":"levelo_inurba_marseille","lat":43.28079,"lon":5.39659,"is_reserved":false,"is_disabled":false,"rental_uris":{"android":"levelo://app?vid=9e08f281-c0e3-4a9d-ba4a-3c95e0797110","ios":"levelo://app?vid=9e08f281-c0e3-4a9d-ba4a-3c95e0797110"},"vehicle_type_id":"4","last_reported":1733418498,"current_range_meters":38400,"station_id":"ce4bho12rcd13ifvqh2g","pricing_plan_id":"cebpf4jnsgd1na2vs0mg"},{"bike_id":"f7f1177a-9fa2-4c01-9bd7-56528650247f","system_id":"levelo_inurba_marseille","lat":43.26552,"lon":5.37286,"is_reserved":false,"is_disabled":false,"rental_uris":{"android":"levelo://app?vid=f7f1177a-9fa2-4c01-9bd7-56528650247f","ios":"levelo://app?vid=f7f1177a-9fa2-4c01-9bd7-56528650247f"},"vehicle_type_id":"4","last_reported":1733418498,"current_range_meters":10000,"station_id":"ce4bhg12rcd13ifvqf70","pricing_plan_id":"cebpf4jnsgd1na2vs0mg"},{"bike_id":"be407bbe-d1ce-48de-8db2-09114af9efd7","system_id":"levelo_inurba_marseille","lat":43.32368,"lon":5.36755,"is_reserved":false,"is_disabled":false,"rental_uris":{"android":"levelo://app?vid=be407bbe-d1ce-48de-8db2-09114af9efd7","ios":"levelo://app?vid=be407bbe-d1ce-48de-8db2-09114af9efd7"},"vehicle_type_id":"4","last_reported":1733418498,"current_range_meters":28400,"station_id":"ce4bhsh2rcd13ifvqi2g","pricing_plan_id":"cebpf4jnsgd1na2vs0mg"},{"bike_id":"8c0b0fc8-734e-4ca6-b676-eb93f9346fac","system_id":"levelo_inurba_marseille","lat":43.27816,"lon":5.40718,"is_reserved":false,"is_disabled":false,"rental_uris":{"android":"levelo://app?vid=8c0b0fc8-734e-4ca6-b676-eb93f9346fac","ios":"levelo://app?vid=8c0b0fc8-734e-4ca6-b676-eb93f9346fac"},"vehicle_type_id":"4","last_reported":1733418498,"current_range_meters":10800,"station_id":"ce4bhnh2rcd13ifvqgtg","pricing_plan_id":"cebpf4jnsgd1na2vs0mg"},{"bike_id":"e5420dbc-acc1-4e94-9737-ea23ba84f80f","system_id":"levelo_inurba_marseille","lat":43.27614,"lon":5.36114,"is_reserved":false,"is_disabled":false,"rental_uris":{"android":"levelo://app?vid=e5420dbc-acc1-4e94-9737-ea23ba84f80f","ios":"levelo://app?vid=e5420dbc-acc1-4e94-9737-ea23ba84f80f"},"vehicle_type_id":"4","last_reported":1733418498,"current_range_meters":32400,"station_id":"ce4bgj92rcd13ifvqbe0","pricing_plan_id":"cebpf4jnsgd1na2vs0mg"},{"bike_id":"8bd642b2-0279-44c7-9ee2-fc3b57332c83","system_id":"levelo_inurba_marseille","lat":43.27455,"lon":5.40073,"is_reserved":false,"is_disabled":true,"rental_uris":{"android":"levelo://app?vid=8bd642b2-0279-44c7-9ee2-fc3b57332c83","ios":"levelo://app?vid=8bd642b2-0279-44c7-9ee2-fc3b57332c83"},"vehicle_type_id":"4","last_reported":1733418498,"current_range_meters":0,"station_id":"","pricing_plan_id":"cebpf4jnsgd1na2vs0mg"},{"bike_id":"48eeab0e-b9b7-49b2-a55e-4d2733fa9c65","system_id":"levelo_inurba_marseille","lat":43.23967,"lon":5.36633,"is_reserved":false,"is_disabled":false,"rental_uris":{"android":"levelo://app?vid=48eeab0e-b9b7-49b2-a55e-4d2733fa9c65","ios":"levelo://app?vid=48eeab0e-b9b7-49b2-a55e-4d2733fa9c65"},"vehicle_type_id":"4","last_reported":1733418498,"current_range_meters":27200,"station_id":"ce4bhi12rcd13ifvqfp0","pricing_plan_id":"cebpf4jnsgd1na2vs0mg"},{"bike_id":"c1567c9e-357e-4653-afe5-c0cf80536e2d","system_id":"levelo_inurba_marseille","lat":43.2903,"lon":5.38608,"is_reserved":false,"is_disabled":false,"rental_uris":{"android":"levelo://app?vid=c1567c9e-357e-4653-afe5-c0cf80536e2d","ios":"levelo://app?vid=c1567c9e-357e-4653-afe5-c0cf80536e2d"},"vehicle_type_id":"4","last_reported":1733418498,"current_range_meters":28800,"station_id":"ce4bh4p2rcd13ifvqe0g","pricing_plan_id":"cebpf4jnsgd1na2vs0mg"},{"bike_id":"2d30f57c-61ff-4552-bdfc-3c825b67086e","system_id":"levelo_inurba_marseille","lat":43.25587,"lon":5.3824,"is_reserved":false,"is_disabled":true,"rental_uris":{"android":"levelo://app?vid=2d30f57c-61ff-4552-bdfc-3c825b67086e","ios":"levelo://app?vid=2d30f57c-61ff-4552-bdfc-3c825b67086e"},"vehicle_type_id":"4","last_reported":1733418498,"current_range_meters":1600,"station_id":"ce4bhih2rcd13ifvqfs0","pricing_plan_id":"cebpf4jnsgd1na2vs0mg"},{"bike_id":"f67dfab3-abcc-4688-bfd7-4284bf8c7187","system_id":"levelo_inurba_marseille","lat":43.33027,"lon":5.39053,"is_reserved":false,"is_disabled":false,"rental_uris":{"android":"levelo://app?vid=f67dfab3-abcc-4688-bfd7-4284bf8c7187","ios":"levelo://app?vid=f67dfab3-abcc-4688-bfd7-4284bf8c7187"},"vehicle_type_id":"4","last_reported":1733418498,"current_range_meters":9600,"station_id":"ce4bhr92rcd13ifvqhrg","pricing_plan_id":"cebpf4jnsgd1na2vs0mg"},{"bike_id":"cbbb98d7-4a70-41ea-94bd-e4d75a6ca0e7","system_id":"levelo_inurba_marseille","lat":43.28677,"lon":5.36349,"is_reserved":false,"is_disabled":false,"rental_uris":{"android":"levelo://app?vid=cbbb98d7-4a70-41ea-94bd-e4d75a6ca0e7","ios":"levelo://app?vid=cbbb98d7-4a70-41ea-94bd-e4d75a6ca0e7"},"vehicle_type_id":"4","last_reported":1733418498,"current_range_meters":3600,"station_id":"ce4bhah2rcd13ifvqej0","pricing_plan_id":"cebpf4jnsgd1na2vs0mg"},{"bike_id":"28b52837-d828-49e4-b4be-cfbac010c328","system_id":"levelo_inurba_marseille","lat":43.33734,"lon":5.39186,"is_reserved":false,"is_disabled":false,"rental_uris":{"android":"levelo://app?vid=28b52837-d828-49e4-b4be-cfbac010c328","ios":"levelo://app?vid=28b52837-d828-49e4-b4be-cfbac010c328"},"vehicle_type_id":"4","last_reported":1733418498,"current_range_meters":28800,"station_id":"ce4bhr92rcd13ifvqhsg","pricing_plan_id":"cebpf4jnsgd1na2vs0mg"},{"bike_id":"b3f478ac-3b05-4edf-bdbf-76399090f8e9","system_id":"levelo_inurba_marseille","lat":43.29994,"lon":5.37639,"is_reserved":false,"is_disabled":true,"rental_uris":{"android":"levelo://app?vid=b3f478ac-3b05-4edf-bdbf-76399090f8e9","ios":"levelo://app?vid=b3f478ac-3b05-4edf-bdbf-76399090f8e9"},"vehicle_type_id":"4","last_reported":1733418498,"current_range_meters":0,"station_id":"","pricing_plan_id":"cebpf4jnsgd1na2vs0mg"},{"bike_id":"db1713f4-d24d-4ea8-893e-73a81c6b2d1d","system_id":"levelo_inurba_marseille","lat":43.3054,"lon":5.38422,"is_reserved":false,"is_disabled":true,"rental_uris":{"android":"levelo://app?vid=db1713f4-d24d-4ea8-893e-73a81c6b2d1d","ios":"levelo://app?vid=db1713f4-d24d-4ea8-893e-73a81c6b2d1d"},"vehicle_type_id":"4","last_reported":1733418498,"current_range_meters":2000,"station_id":"ce4bgg92rcd13ifvqb30","pricing_plan_id":"cebpf4jnsgd1na2vs0mg"},{"bike_id":"6a41e9d8-035a-4bf8-8d68-41af3a48766c","system_id":"levelo_inurba_marseille","lat":43.2841,"lon":5.34989,"is_reserved":false,"is_disabled":false,"rental_uris":{"android":"levelo://app?vid=6a41e9d8-035a-4bf8-8d68-41af3a48766c","ios":"levelo://app?vid=6a41e9d8-035a-4bf8-8d68-41af3a48766c"},"vehicle_type_id":"4","last_reported":1733418498,"current_range_meters":6000,"station_id":"ce4bhbh2rcd13ifvqepg","pricing_plan_id":"cebpf4jnsgd1na2vs0mg"},{"bike_id":"890e1560-a904-4d0a-b4e0-c3993151a990","system_id":"levelo_inurba_marseille","lat":43.317117,"lon":5.437068,"is_reserved":false,"is_disabled":false,"rental_uris":{"android":"levelo://app?vid=890e1560-a904-4d0a-b4e0-c3993151a990","ios":"levelo://app?vid=890e1560-a904-4d0a-b4e0-c3993151a990"},"vehicle_type_id":"4","last_reported":1733418498,"current_range_meters":20400,"station_id":"ce4bhp92rcd13ifvqhcg","pricing_plan_id":"cebpf4jnsgd1na2vs0mg"},{"bike_id":"3004cac1-49a6-4a11-b749-47d195685b77","system_id":"levelo_inurba_marseille","lat":43.29303,"lon":5.37455,"is_reserved":false,"is_disabled":true,"rental_uris":{"android":"levelo://app?vid=3004cac1-49a6-4a11-b749-47d195685b77","ios":"levelo://app?vid=3004cac1-49a6-4a11-b749-47d195685b77"},"vehicle_type_id":"4","last_reported":1733418498,"current_range_meters":0,"station_id":"ce4bgi12rcd13ifvqb70","pricing_plan_id":"cebpf4jnsgd1na2vs0mg"},{"bike_id":"c15a8f0f-8fb6-4988-b137-35b100e4d7ac","system_id":"levelo_inurba_marseille","lat":43.27824,"lon":5.39202,"is_reserved":false,"is_disabled":false,"rental_uris":{"android":"levelo://app?vid=c15a8f0f-8fb6-4988-b137-35b100e4d7ac","ios":"levelo://app?vid=c15a8f0f-8fb6-4988-b137-35b100e4d7ac"},"vehicle_type_id":"4","last_reported":1733418498,"current_range_meters":20000,"station_id":"ce4bhjp2rcd13ifvqga0","pricing_plan_id":"cebpf4jnsgd1na2vs0mg"},{"bike_id":"92cc9f09-00d3-45cf-99f8-4b1213e9b197","system_id":"levelo_inurba_marseille","lat":43.29706,"lon":5.36608,"is_reserved":false,"is_disabled":false,"rental_uris":{"android":"levelo://app?vid=92cc9f09-00d3-45cf-99f8-4b1213e9b197","ios":"levelo://app?vid=92cc9f09-00d3-45cf-99f8-4b1213e9b197"},"vehicle_type_id":"4","last_reported":1733418498,"current_range_meters":19200,"station_id":"ce4bgn12rcd13ifvqbt0","pricing_plan_id":"cebpf4jnsgd1na2vs0mg"},{"bike_id":"2f3968e7-9336-4ee4-ba78-8e92c0a818cc","system_id":"levelo_inurba_marseille","lat":43.31322,"lon":5.36647,"is_reserved":false,"is_disabled":true,"rental_uris":{"android":"levelo://app?vid=2f3968e7-9336-4ee4-ba78-8e92c0a818cc","ios":"levelo://app?vid=2f3968e7-9336-4ee4-ba78-8e92c0a818cc"},"vehicle_type_id":"4","last_reported":1733418498,"current_range_meters":0,"station_id":"","pricing_plan_id":"cebpf4jnsgd1na2vs0mg"},{"bike_id":"9aded1fd-28b2-485b-aa1d-02cd137f431b","system_id":"levelo_inurba_marseille","lat":43.26504,"lon":5.39541,"is_reserved":false,"is_disabled":true,"rental_uris":{"android":"levelo://app?vid=9aded1fd-28b2-485b-aa1d-02cd137f431b","ios":"levelo://app?vid=9aded1fd-28b2-485b-aa1d-02cd137f431b"},"vehicle_type_id":"4","last_reported":1733418498,"current_range_meters":0,"station_id":"ce4bhi12rcd13ifvqfq0","pricing_plan_id":"cebpf4jnsgd1na2vs0mg"},{"bike_id":"d514caa1-7d49-4aa0-b0f7-6c267dec5593","system_id":"levelo_inurba_marseille","lat":43.2603,"lon":5.37549,"is_reserved":false,"is_disabled":false,"rental_uris":{"android":"levelo://app?vid=d514caa1-7d49-4aa0-b0f7-6c267dec5593","ios":"levelo://app?vid=d514caa1-7d49-4aa0-b0f7-6c267dec5593"},"vehicle_type_id":"4","last_reported":1733418498,"current_range_meters":20800,"station_id":"ce4bhgh2rcd13ifvqfa0","pricing_plan_id":"cebpf4jnsgd1na2vs0mg"},{"bike_id":"588d48c6-4b33-451e-9751-36dee1e96e41","system_id":"levelo_inurba_marseille","lat":43.26804,"lon":5.40257,"is_reserved":false,"is_disabled":false,"rental_uris":{"android":"levelo://app?vid=588d48c6-4b33-451e-9751-36dee1e96e41","ios":"levelo://app?vid=588d48c6-4b33-451e-9751-36dee1e96e41"},"vehicle_type_id":"4","last_reported":1733418498,"current_range_meters":16400,"station_id":"ce501612rcd8frsf0b60","pricing_plan_id":"cebpf4jnsgd1na2vs0mg"},{"bike_id":"511ea694-6616-4621-be74-420ea7a7adc6","system_id":"levelo_inurba_marseille","lat":43.25117,"lon":5.40317,"is_reserved":false,"is_disabled":false,"rental_uris":{"android":"levelo://app?vid=511ea694-6616-4621-be74-420ea7a7adc6","ios":"levelo://app?vid=511ea694-6616-4621-be74-420ea7a7adc6"},"vehicle_type_id":"4","last_reported":1733418498,"current_range_meters":30400,"station_id":"ce4bhlh2rcd13ifvqgig","pricing_plan_id":"cebpf4jnsgd1na2vs0mg"},{"bike_id":"18c465ad-16a0-4d72-a337-11a15929aab8","system_id":"levelo_inurba_marseille","lat":43.23961,"lon":5.36623,"is_reserved":false,"is_disabled":false,"rental_uris":{"android":"levelo://app?vid=18c465ad-16a0-4d72-a337-11a15929aab8","ios":"levelo://app?vid=18c465ad-16a0-4d72-a337-11a15929aab8"},"vehicle_type_id":"4","last_reported":1733418498,"current_range_meters":11600,"station_id":"ce4bhi12rcd13ifvqfp0","pricing_plan_id":"cebpf4jnsgd1na2vs0mg"},{"bike_id":"2f7b887c-1623-4de2-8868-e6f453f327e4","system_id":"levelo_inurba_marseille","lat":43.30348,"lon":5.41879,"is_reserved":false,"is_disabled":true,"rental_uris":{"android":"levelo://app?vid=2f7b887c-1623-4de2-8868-e6f453f327e4","ios":"levelo://app?vid=2f7b887c-1623-4de2-8868-e6f453f327e4"},"vehicle_type_id":"4","last_reported":1733418498,"current_range_meters":1200,"station_id":"ce4bhop2rcd13ifvqh7g","pricing_plan_id":"cebpf4jnsgd1na2vs0mg"},{"bike_id":"da9cfd76-5796-4c48-8486-043fb1d4045d","system_id":"levelo_inurba_marseille","lat":43.27062,"lon":5.40271,"is_reserved":false,"is_disabled":false,"rental_uris":{"android":"levelo://app?vid=da9cfd76-5796-4c48-8486-043fb1d4045d","ios":"levelo://app?vid=da9cfd76-5796-4c48-8486-043fb1d4045d"},"vehicle_type_id":"4","last_reported":1733418498,"current_range_meters":38800,"station_id":"ce4bhk92rcd13ifvqgc0","pricing_plan_id":"cebpf4jnsgd1na2vs0mg"},{"bike_id":"b0025f03-f4b7-4e1f-b2ae-d738bfb01f75","system_id":"levelo_inurba_marseille","lat":43.31039,"lon":5.37919,"is_reserved":false,"is_disabled":true,"rental_uris":{"android":"levelo://app?vid=b0025f03-f4b7-4e1f-b2ae-d738bfb01f75","ios":"levelo://app?vid=b0025f03-f4b7-4e1f-b2ae-d738bfb01f75"},"vehicle_type_id":"4","last_reported":1733418498,"current_range_meters":36800,"station_id":"","pricing_plan_id":"cebpf4jnsgd1na2vs0mg"},{"bike_id":"89b903f4-e1a9-4fe4-961b-46dfba704bf7","system_id":"levelo_inurba_marseille","lat":43.29037,"lon":5.38126,"is_reserved":false,"is_disabled":true,"rental_uris":{"android":"levelo://app?vid=89b903f4-e1a9-4fe4-961b-46dfba704bf7","ios":"levelo://app?vid=89b903f4-e1a9-4fe4-961b-46dfba704bf7"},"vehicle_type_id":"4","last_reported":1733418498,"current_range_meters":1600,"station_id":"ce4bh4p2rcd13ifvqe1g","pricing_plan_id":"cebpf4jnsgd1na2vs0mg"},{"bike_id":"b85bb37f-2197-498e-b358-747241fe43e5","system_id":"levelo_inurba_marseille","lat":43.28444,"lon":5.39218,"is_reserved":false,"is_disabled":false,"rental_uris":{"android":"levelo://app?vid=b85bb37f-2197-498e-b358-747241fe43e5","ios":"levelo://app?vid=b85bb37f-2197-498e-b358-747241fe43e5"},"vehicle_type_id":"4","last_reported":1733418498,"current_range_meters":39200,"station_id":"ce4bhoh2rcd13ifvqh5g","pricing_plan_id":"cebpf4jnsgd1na2vs0mg"},{"bike_id":"79af46d0-eeb1-4eca-ad92-c1fbb564c7af","system_id":"levelo_inurba_marseille","lat":43.26938,"lon":5.40251,"is_reserved":false,"is_disabled":false,"rental_uris":{"android":"levelo://app?vid=79af46d0-eeb1-4eca-ad92-c1fbb564c7af","ios":"levelo://app?vid=79af46d0-eeb1-4eca-ad92-c1fbb564c7af"},"vehicle_type_id":"4","last_reported":1733418498,"current_range_meters":26000,"station_id":"cjm6bp8fraef2m0cb0m0","pricing_plan_id":"cebpf4jnsgd1na2vs0mg"},{"bike_id":"d8d649c3-0610-443e-90bc-12270257974e","system_id":"levelo_inurba_marseille","lat":43.29874,"lon":5.38907,"is_reserved":false,"is_disabled":true,"rental_uris":{"android":"levelo://app?vid=d8d649c3-0610-443e-90bc-12270257974e","ios":"levelo://app?vid=d8d649c3-0610-443e-90bc-12270257974e"},"vehicle_type_id":"4","last_reported":1733418498,"current_range_meters":2000,"station_id":"ce4bh392rcd13ifvqdl0","pricing_plan_id":"cebpf4jnsgd1na2vs0mg"},{"bike_id":"7c8fd5b8-5699-4876-81ee-62dd33bf5049","system_id":"levelo_inurba_marseille","lat":43.28099,"lon":5.37829,"is_reserved":false,"is_disabled":false,"rental_uris":{"android":"levelo://app?vid=7c8fd5b8-5699-4876-81ee-62dd33bf5049","ios":"levelo://app?vid=7c8fd5b8-5699-4876-81ee-62dd33bf5049"},"vehicle_type_id":"4","last_reported":1733418498,"current_range_meters":16800,"station_id":"ce4bha12rcd13ifvqee0","pricing_plan_id":"cebpf4jnsgd1na2vs0mg"},{"bike_id":"f10c5e90-601b-4bd4-87e7-4cbb6a13a4fb","system_id":"levelo_inurba_marseille","lat":43.26128,"lon":5.39273,"is_reserved":false,"is_disabled":false,"rental_uris":{"android":"levelo://app?vid=f10c5e90-601b-4bd4-87e7-4cbb6a13a4fb","ios":"levelo://app?vid=f10c5e90-601b-4bd4-87e7-4cbb6a13a4fb"},"vehicle_type_id":"4","last_reported":1733418498,"current_range_meters":4800,"station_id":"","pricing_plan_id":"cebpf4jnsgd1na2vs0mg"},{"bike_id":"aabf42ef-f078-4731-9e34-22ac58da41f9","system_id":"levelo_inurba_marseille","lat":43.2904,"lon":5.35895,"is_reserved":false,"is_disabled":false,"rental_uris":{"android":"levelo://app?vid=aabf42ef-f078-4731-9e34-22ac58da41f9","ios":"levelo://app?vid=aabf42ef-f078-4731-9e34-22ac58da41f9"},"vehicle_type_id":"4","last_reported":1733418498,"current_range_meters":38400,"station_id":"ce4bha92rcd13ifvqeg0","pricing_plan_id":"cebpf4jnsgd1na2vs0mg"},{"bike_id":"d1f8c815-16d1-4fc3-ad0e-ed7a579adc20","system_id":"levelo_inurba_marseille","lat":43.29472,"lon":5.38138,"is_reserved":false,"is_disabled":false,"rental_uris":{"android":"levelo://app?vid=d1f8c815-16d1-4fc3-ad0e-ed7a579adc20","ios":"levelo://app?vid=d1f8c815-16d1-4fc3-ad0e-ed7a579adc20"},"vehicle_type_id":"4","last_reported":1733418498,"current_range_meters":9200,"station_id":"","pricing_plan_id":"cebpf4jnsgd1na2vs0mg"},{"bike_id":"583d6dbb-85a2-4a2d-b7da-ec5565d4aa44","system_id":"levelo_inurba_marseille","lat":43.29308,"lon":5.3745,"is_reserved":false,"is_disabled":false,"rental_uris":{"android":"levelo://app?vid=583d6dbb-85a2-4a2d-b7da-ec5565d4aa44","ios":"levelo://app?vid=583d6dbb-85a2-4a2d-b7da-ec5565d4aa44"},"vehicle_type_id":"4","last_reported":1733418498,"current_range_meters":25600,"station_id":"ce4bgi12rcd13ifvqb70","pricing_plan_id":"cebpf4jnsgd1na2vs0mg"},{"bike_id":"5eb513d4-92c5-48c6-9402-c8b8cbe5af7a","system_id":"levelo_inurba_marseille","lat":43.24085,"lon":5.37749,"is_reserved":false,"is_disabled":true,"rental_uris":{"android":"levelo://app?vid=5eb513d4-92c5-48c6-9402-c8b8cbe5af7a","ios":"levelo://app?vid=5eb513d4-92c5-48c6-9402-c8b8cbe5af7a"},"vehicle_type_id":"4","last_reported":1733418498,"current_range_meters":2000,"station_id":"ce4bhnp2rcd13ifvqgvg","pricing_plan_id":"cebpf4jnsgd1na2vs0mg"},{"bike_id":"d26cf62e-81ff-4f76-91a9-17776277feac","system_id":"levelo_inurba_marseille","lat":43.31179,"lon":5.38714,"is_reserved":false,"is_disabled":true,"rental_uris":{"android":"levelo://app?vid=d26cf62e-81ff-4f76-91a9-17776277feac","ios":"levelo://app?vid=d26cf62e-81ff-4f76-91a9-17776277feac"},"vehicle_type_id":"4","last_reported":1733418498,"current_range_meters":0,"station_id":"ce4bgv12rcd13ifvqcp0","pricing_plan_id":"cebpf4jnsgd1na2vs0mg"},{"bike_id":"25df6fa5-0e99-4ca3-b962-45e4d327f4cd","system_id":"levelo_inurba_marseille","lat":43.28616,"lon":5.35106,"is_reserved":false,"is_disabled":false,"rental_uris":{"android":"levelo://app?vid=25df6fa5-0e99-4ca3-b962-45e4d327f4cd","ios":"levelo://app?vid=25df6fa5-0e99-4ca3-b962-45e4d327f4cd"},"vehicle_type_id":"4","last_reported":1733418498,"current_range_meters":24400,"station_id":"ce4bhch2rcd13ifvqeug","pricing_plan_id":"cebpf4jnsgd1na2vs0mg"},{"bike_id":"c0ecc308-ccc4-492f-bcda-d659d2cd5777","system_id":"levelo_inurba_marseille","lat":43.25108,"lon":5.40324,"is_reserved":false,"is_disabled":true,"rental_uris":{"android":"levelo://app?vid=c0ecc308-ccc4-492f-bcda-d659d2cd5777","ios":"levelo://app?vid=c0ecc308-ccc4-492f-bcda-d659d2cd5777"},"vehicle_type_id":"4","last_reported":1733418498,"current_range_meters":0,"station_id":"ce4bhlh2rcd13ifvqgig","pricing_plan_id":"cebpf4jnsgd1na2vs0mg"},{"bike_id":"f5bd5773-3df4-400a-9c89-e449e0b42a96","system_id":"levelo_inurba_marseille","lat":43.2481,"lon":5.3746,"is_reserved":false,"is_disabled":true,"rental_uris":{"android":"levelo://app?vid=f5bd5773-3df4-400a-9c89-e449e0b42a96","ios":"levelo://app?vid=f5bd5773-3df4-400a-9c89-e449e0b42a96"},"vehicle_type_id":"4","last_reported":1733418498,"current_range_meters":4800,"station_id":"ce4bhgh2rcd13ifvqfb0","pricing_plan_id":"cebpf4jnsgd1na2vs0mg"},{"bike_id":"cee1a977-f386-4ca7-b7f4-ecb23b8538de","system_id":"levelo_inurba_marseille","lat":43.28492,"lon":5.38413,"is_reserved":false,"is_disabled":true,"rental_uris":{"android":"levelo://app?vid=cee1a977-f386-4ca7-b7f4-ecb23b8538de","ios":"levelo://app?vid=cee1a977-f386-4ca7-b7f4-ecb23b8538de"},"vehicle_type_id":"4","last_reported":1733418498,"current_range_meters":37600,"station_id":"ce4bh512rcd13ifvqe3g","pricing_plan_id":"cebpf4jnsgd1na2vs0mg"},{"bike_id":"f9c47b10-b579-4a84-8a2a-24899cac3269","system_id":"levelo_inurba_marseille","lat":43.3171,"lon":5.37741,"is_reserved":false,"is_disabled":false,"rental_uris":{"android":"levelo://app?vid=f9c47b10-b579-4a84-8a2a-24899cac3269","ios":"levelo://app?vid=f9c47b10-b579-4a84-8a2a-24899cac3269"},"vehicle_type_id":"4","last_reported":1733418498,"current_range_meters":6000,"station_id":"ce4bgth2rcd13ifvqch0","pricing_plan_id":"cebpf4jnsgd1na2vs0mg"},{"bike_id":"cdfe6590-4984-4014-86c8-6dd70747c27a","system_id":"levelo_inurba_marseille","lat":43.29737,"lon":5.37434,"is_reserved":false,"is_disabled":true,"rental_uris":{"android":"levelo://app?vid=cdfe6590-4984-4014-86c8-6dd70747c27a","ios":"levelo://app?vid=cdfe6590-4984-4014-86c8-6dd70747c27a"},"vehicle_type_id":"4","last_reported":1733418498,"current_range_meters":0,"station_id":"","pricing_plan_id":"cebpf4jnsgd1na2vs0mg"},{"bike_id":"4e04831b-e6db-4ee0-9778-911063b342c0","system_id":"levelo_inurba_marseille","lat":43.30625,"lon":5.39357,"is_reserved":false,"is_disabled":false,"rental_uris":{"android":"levelo://app?vid=4e04831b-e6db-4ee0-9778-911063b342c0","ios":"levelo://app?vid=4e04831b-e6db-4ee0-9778-911063b342c0"},"vehicle_type_id":"4","last_reported":1733418498,"current_range_meters":6800,"station_id":"ce4bh0p2rcd13ifvqd80","pricing_plan_id":"cebpf4jnsgd1na2vs0mg"},{"bike_id":"a0181206-4402-4eee-b282-307bc5035baf","system_id":"levelo_inurba_marseille","lat":43.27998,"lon":5.40014,"is_reserved":false,"is_disabled":true,"rental_uris":{"android":"levelo://app?vid=a0181206-4402-4eee-b282-307bc5035baf","ios":"levelo://app?vid=a0181206-4402-4eee-b282-307bc5035baf"},"vehicle_type_id":"4","last_reported":1733418498,"current_range_meters":400,"station_id":"ce4bho92rcd13ifvqh4g","pricing_plan_id":"cebpf4jnsgd1na2vs0mg"},{"bike_id":"6fb00969-21f8-4503-a74e-e887bd6407a1","system_id":"levelo_inurba_marseille","lat":43.27491,"lon":5.42458,"is_reserved":false,"is_disabled":true,"rental_uris":{"android":"levelo://app?vid=6fb00969-21f8-4503-a74e-e887bd6407a1","ios":"levelo://app?vid=6fb00969-21f8-4503-a74e-e887bd6407a1"},"vehicle_type_id":"4","last_reported":1733418498,"current_range_meters":0,"station_id":"ce4bhn92rcd13ifvqgrg","pricing_plan_id":"cebpf4jnsgd1na2vs0mg"},{"bike_id":"987a5ab4-d60c-480c-94b6-7cab38975402","system_id":"levelo_inurba_marseille","lat":43.29748,"lon":5.37971,"is_reserved":false,"is_disabled":true,"rental_uris":{"android":"levelo://app?vid=987a5ab4-d60c-480c-94b6-7cab38975402","ios":"levelo://app?vid=987a5ab4-d60c-480c-94b6-7cab38975402"},"vehicle_type_id":"4","last_reported":1733418498,"current_range_meters":0,"station_id":"","pricing_plan_id":"cebpf4jnsgd1na2vs0mg"},{"bike_id":"2c4596ad-0ad9-4016-b92b-0093349de2b4","system_id":"levelo_inurba_marseille","lat":43.30755,"lon":5.38187,"is_reserved":false,"is_disabled":true,"rental_uris":{"android":"levelo://app?vid=2c4596ad-0ad9-4016-b92b-0093349de2b4","ios":"levelo://app?vid=2c4596ad-0ad9-4016-b92b-0093349de2b4"},"vehicle_type_id":"4","last_reported":1733418498,"current_range_meters":0,"station_id":"","pricing_plan_id":"cebpf4jnsgd1na2vs0mg"},{"bike_id":"7187ba07-cd3e-474d-8c67-64a6ff087626","system_id":"levelo_inurba_marseille","lat":43.29939,"lon":5.36553,"is_reserved":false,"is_disabled":false,"rental_uris":{"android":"levelo://app?vid=7187ba07-cd3e-474d-8c67-64a6ff087626","ios":"levelo://app?vid=7187ba07-cd3e-474d-8c67-64a6ff087626"},"vehicle_type_id":"4","last_reported":1733418498,"current_range_meters":36400,"station_id":"ce4bgm92rcd13ifvqbr0","pricing_plan_id":"cebpf4jnsgd1na2vs0mg"},{"bike_id":"b7ab8c01-033f-4395-8276-23c850ad3d02","system_id":"levelo_inurba_marseille","lat":43.30348,"lon":5.36626,"is_reserved":false,"is_disabled":true,"rental_uris":{"android":"levelo://app?vid=b7ab8c01-033f-4395-8276-23c850ad3d02","ios":"levelo://app?vid=b7ab8c01-033f-4395-8276-23c850ad3d02"},"vehicle_type_id":"4","last_reported":1733418498,"current_range_meters":0,"station_id":"","pricing_plan_id":"cebpf4jnsgd1na2vs0mg"},{"bike_id":"37fdcc87-7eac-4030-8ece-c96056f3c20c","system_id":"levelo_inurba_marseille","lat":43.25869,"lon":5.39894,"is_reserved":false,"is_disabled":false,"rental_uris":{"android":"levelo://app?vid=37fdcc87-7eac-4030-8ece-c96056f3c20c","ios":"levelo://app?vid=37fdcc87-7eac-4030-8ece-c96056f3c20c"},"vehicle_type_id":"4","last_reported":1733418498,"current_range_meters":13600,"station_id":"ce4bhl92rcd13ifvqghg","pricing_plan_id":"cebpf4jnsgd1na2vs0mg"},{"bike_id":"4cd988be-ed40-4c79-b842-59c6727ee8b4","system_id":"levelo_inurba_marseille","lat":43.30956,"lon":5.39038,"is_reserved":false,"is_disabled":true,"rental_uris":{"android":"levelo://app?vid=4cd988be-ed40-4c79-b842-59c6727ee8b4","ios":"levelo://app?vid=4cd988be-ed40-4c79-b842-59c6727ee8b4"},"vehicle_type_id":"4","last_reported":1733418498,"current_range_meters":0,"station_id":"ce4bgup2rcd13ifvqco0","pricing_plan_id":"cebpf4jnsgd1na2vs0mg"},{"bike_id":"01fc086f-11d0-4126-a5a7-f83f36005f81","system_id":"levelo_inurba_marseille","lat":43.31685,"lon":5.37761,"is_reserved":false,"is_disabled":false,"rental_uris":{"android":"levelo://app?vid=01fc086f-11d0-4126-a5a7-f83f36005f81","ios":"levelo://app?vid=01fc086f-11d0-4126-a5a7-f83f36005f81"},"vehicle_type_id":"4","last_reported":1733418498,"current_range_meters":38800,"station_id":"ce4bgth2rcd13ifvqch0","pricing_plan_id":"cebpf4jnsgd1na2vs0mg"},{"bike_id":"eaca397e-bf13-4245-a040-d39779804355","system_id":"levelo_inurba_marseille","lat":43.254972,"lon":5.376478,"is_reserved":false,"is_disabled":false,"rental_uris":{"android":"levelo://app?vid=eaca397e-bf13-4245-a040-d39779804355","ios":"levelo://app?vid=eaca397e-bf13-4245-a040-d39779804355"},"vehicle_type_id":"4","last_reported":1733418498,"current_range_meters":20800,"station_id":"ce4bhh12rcd13ifvqff0","pricing_plan_id":"cebpf4jnsgd1na2vs0mg"},{"bike_id":"d0fd18c1-3898-46e2-812b-d16b1dad312a","system_id":"levelo_inurba_marseille","lat":43.27881,"lon":5.38828,"is_reserved":false,"is_disabled":false,"rental_uris":{"android":"levelo://app?vid=d0fd18c1-3898-46e2-812b-d16b1dad312a","ios":"levelo://app?vid=d0fd18c1-3898-46e2-812b-d16b1dad312a"},"vehicle_type_id":"4","last_reported":1733418498,"current_range_meters":9200,"station_id":"","pricing_plan_id":"cebpf4jnsgd1na2vs0mg"},{"bike_id":"6cc6805f-c0ca-4585-bdf1-b5a0339762b0","system_id":"levelo_inurba_marseille","lat":43.2902,"lon":5.42796,"is_reserved":false,"is_disabled":true,"rental_uris":{"android":"levelo://app?vid=6cc6805f-c0ca-4585-bdf1-b5a0339762b0","ios":"levelo://app?vid=6cc6805f-c0ca-4585-bdf1-b5a0339762b0"},"vehicle_type_id":"4","last_reported":1733418498,"current_range_meters":0,"station_id":"","pricing_plan_id":"cebpf4jnsgd1na2vs0mg"},{"bike_id":"47aae0d1-9d8d-4209-8ddb-a63ad33560f0","system_id":"levelo_inurba_marseille","lat":43.30613,"lon":5.39366,"is_reserved":false,"is_disabled":false,"rental_uris":{"android":"levelo://app?vid=47aae0d1-9d8d-4209-8ddb-a63ad33560f0","ios":"levelo://app?vid=47aae0d1-9d8d-4209-8ddb-a63ad33560f0"},"vehicle_type_id":"4","last_reported":1733418498,"current_range_meters":15200,"station_id":"ce4bh0p2rcd13ifvqd80","pricing_plan_id":"cebpf4jnsgd1na2vs0mg"},{"bike_id":"0bfb3d4e-359d-4927-881b-5e84aa873cc8","system_id":"levelo_inurba_marseille","lat":43.32367,"lon":5.36748,"is_reserved":false,"is_disabled":false,"rental_uris":{"android":"levelo://app?vid=0bfb3d4e-359d-4927-881b-5e84aa873cc8","ios":"levelo://app?vid=0bfb3d4e-359d-4927-881b-5e84aa873cc8"},"vehicle_type_id":"4","last_reported":1733418498,"current_range_meters":13600,"station_id":"ce4bhsh2rcd13ifvqi2g","pricing_plan_id":"cebpf4jnsgd1na2vs0mg"},{"bike_id":"8d1c8b92-79bb-4181-b0d2-5e94db1a14d0","system_id":"levelo_inurba_marseille","lat":43.29972,"lon":5.3826,"is_reserved":false,"is_disabled":true,"rental_uris":{"android":"levelo://app?vid=8d1c8b92-79bb-4181-b0d2-5e94db1a14d0","ios":"levelo://app?vid=8d1c8b92-79bb-4181-b0d2-5e94db1a14d0"},"vehicle_type_id":"4","last_reported":1733418498,"current_range_meters":0,"station_id":"","pricing_plan_id":"cebpf4jnsgd1na2vs0mg"},{"bike_id":"66988d75-a9f0-423c-89be-11e06668ead3","system_id":"levelo_inurba_marseille","lat":43.26557,"lon":5.37287,"is_reserved":false,"is_disabled":true,"rental_uris":{"android":"levelo://app?vid=66988d75-a9f0-423c-89be-11e06668ead3","ios":"levelo://app?vid=66988d75-a9f0-423c-89be-11e06668ead3"},"vehicle_type_id":"4","last_reported":1733418498,"current_range_meters":0,"station_id":"ce4bhg12rcd13ifvqf70","pricing_plan_id":"cebpf4jnsgd1na2vs0mg"},{"bike_id":"2371e20f-9c66-4012-83e9-87fddbe9ff86","system_id":"levelo_inurba_marseille","lat":43.26944,"lon":5.40247,"is_reserved":false,"is_disabled":false,"rental_uris":{"android":"levelo://app?vid=2371e20f-9c66-4012-83e9-87fddbe9ff86","ios":"levelo://app?vid=2371e20f-9c66-4012-83e9-87fddbe9ff86"},"vehicle_type_id":"4","last_reported":1733418498,"current_range_meters":32400,"station_id":"cjm6bp8fraef2m0cb0m0","pricing_plan_id":"cebpf4jnsgd1na2vs0mg"},{"bike_id":"57ab2492-a9c4-4690-8815-138b94a1124c","system_id":"levelo_inurba_marseille","lat":43.29632,"lon":5.40593,"is_reserved":false,"is_disabled":false,"rental_uris":{"android":"levelo://app?vid=57ab2492-a9c4-4690-8815-138b94a1124c","ios":"levelo://app?vid=57ab2492-a9c4-4690-8815-138b94a1124c"},"vehicle_type_id":"4","last_reported":1733418498,"current_range_meters":38800,"station_id":"ce4bh0h2rcd13ifvqd60","pricing_plan_id":"cebpf4jnsgd1na2vs0mg"},{"bike_id":"0db345be-7fb7-4922-9aa0-b9c2dd7d673e","system_id":"levelo_inurba_marseille","lat":43.24547,"lon":5.39519,"is_reserved":false,"is_disabled":false,"rental_uris":{"android":"levelo://app?vid=0db345be-7fb7-4922-9aa0-b9c2dd7d673e","ios":"levelo://app?vid=0db345be-7fb7-4922-9aa0-b9c2dd7d673e"},"vehicle_type_id":"4","last_reported":1733418498,"current_range_meters":4800,"station_id":"ce4bhlp2rcd13ifvqgjg","pricing_plan_id":"cebpf4jnsgd1na2vs0mg"},{"bike_id":"7401184e-dcdc-4f69-89e9-1615045c1f8c","system_id":"levelo_inurba_marseille","lat":43.30033,"lon":5.38916,"is_reserved":false,"is_disabled":true,"rental_uris":{"android":"levelo://app?vid=7401184e-dcdc-4f69-89e9-1615045c1f8c","ios":"levelo://app?vid=7401184e-dcdc-4f69-89e9-1615045c1f8c"},"vehicle_type_id":"4","last_reported":1733418498,"current_range_meters":0,"station_id":"","pricing_plan_id":"cebpf4jnsgd1na2vs0mg"},{"bike_id":"5d03df38-3101-4d76-8e20-2650cd24cb89","system_id":"levelo_inurba_marseille","lat":43.2957,"lon":5.3998,"is_reserved":false,"is_disabled":false,"rental_uris":{"android":"levelo://app?vid=5d03df38-3101-4d76-8e20-2650cd24cb89","ios":"levelo://app?vid=5d03df38-3101-4d76-8e20-2650cd24cb89"},"vehicle_type_id":"4","last_reported":1733418498,"current_range_meters":36400,"station_id":"ce4bh312rcd13ifvqdj0","pricing_plan_id":"cebpf4jnsgd1na2vs0mg"},{"bike_id":"c689fa87-c723-41ff-982b-eb25d9978ae5","system_id":"levelo_inurba_marseille","lat":43.31686,"lon":5.40476,"is_reserved":false,"is_disabled":false,"rental_uris":{"android":"levelo://app?vid=c689fa87-c723-41ff-982b-eb25d9978ae5","ios":"levelo://app?vid=c689fa87-c723-41ff-982b-eb25d9978ae5"},"vehicle_type_id":"4","last_reported":1733418498,"current_range_meters":24400,"station_id":"ce4bh012rcd13ifvqd00","pricing_plan_id":"cebpf4jnsgd1na2vs0mg"},{"bike_id":"8cbf4b8c-9daa-40fd-ba18-1f52e550442d","system_id":"levelo_inurba_marseille","lat":43.27617,"lon":5.3611,"is_reserved":false,"is_disabled":true,"rental_uris":{"android":"levelo://app?vid=8cbf4b8c-9daa-40fd-ba18-1f52e550442d","ios":"levelo://app?vid=8cbf4b8c-9daa-40fd-ba18-1f52e550442d"},"vehicle_type_id":"4","last_reported":1733418498,"current_range_meters":1200,"station_id":"ce4bgj92rcd13ifvqbe0","pricing_plan_id":"cebpf4jnsgd1na2vs0mg"},{"bike_id":"dc08eabf-1b59-4004-8055-34faeb95ec28","system_id":"levelo_inurba_marseille","lat":43.25827,"lon":5.39427,"is_reserved":false,"is_disabled":true,"rental_uris":{"android":"levelo://app?vid=dc08eabf-1b59-4004-8055-34faeb95ec28","ios":"levelo://app?vid=dc08eabf-1b59-4004-8055-34faeb95ec28"},"vehicle_type_id":"4","last_reported":1733418498,"current_range_meters":0,"station_id":"ce4bhip2rcd13ifvqft0","pricing_plan_id":"cebpf4jnsgd1na2vs0mg"},{"bike_id":"7c65069b-dc3f-48d2-bc8a-00f5d50846e2","system_id":"levelo_inurba_marseille","lat":43.26216,"lon":5.3744,"is_reserved":false,"is_disabled":false,"rental_uris":{"android":"levelo://app?vid=7c65069b-dc3f-48d2-bc8a-00f5d50846e2","ios":"levelo://app?vid=7c65069b-dc3f-48d2-bc8a-00f5d50846e2"},"vehicle_type_id":"4","last_reported":1733418498,"current_range_meters":30400,"station_id":"ce4bhgp2rcd13ifvqfc0","pricing_plan_id":"cebpf4jnsgd1na2vs0mg"},{"bike_id":"7e138b6d-da12-4dd1-aa5c-731ba9e5976b","system_id":"levelo_inurba_marseille","lat":43.31675,"lon":5.37344,"is_reserved":false,"is_disabled":true,"rental_uris":{"android":"levelo://app?vid=7e138b6d-da12-4dd1-aa5c-731ba9e5976b","ios":"levelo://app?vid=7e138b6d-da12-4dd1-aa5c-731ba9e5976b"},"vehicle_type_id":"4","last_reported":1733418498,"current_range_meters":0,"station_id":"","pricing_plan_id":"cebpf4jnsgd1na2vs0mg"},{"bike_id":"67380a47-2570-4203-b7a7-09fa0beb0db2","system_id":"levelo_inurba_marseille","lat":43.29574,"lon":5.39965,"is_reserved":false,"is_disabled":false,"rental_uris":{"android":"levelo://app?vid=67380a47-2570-4203-b7a7-09fa0beb0db2","ios":"levelo://app?vid=67380a47-2570-4203-b7a7-09fa0beb0db2"},"vehicle_type_id":"4","last_reported":1733418498,"current_range_meters":6400,"station_id":"ce4bh312rcd13ifvqdj0","pricing_plan_id":"cebpf4jnsgd1na2vs0mg"},{"bike_id":"97caf237-85e4-434f-9ad0-53e6794457f3","system_id":"levelo_inurba_marseille","lat":43.23203,"lon":5.39987,"is_reserved":false,"is_disabled":true,"rental_uris":{"android":"levelo://app?vid=97caf237-85e4-434f-9ad0-53e6794457f3","ios":"levelo://app?vid=97caf237-85e4-434f-9ad0-53e6794457f3"},"vehicle_type_id":"4","last_reported":1733418498,"current_range_meters":0,"station_id":"ce4bhn12rcd13ifvqgqg","pricing_plan_id":"cebpf4jnsgd1na2vs0mg"},{"bike_id":"d59a407a-9ea4-4470-aab2-8435eec23b51","system_id":"levelo_inurba_marseille","lat":43.25821,"lon":5.39431,"is_reserved":false,"is_disabled":true,"rental_uris":{"android":"levelo://app?vid=d59a407a-9ea4-4470-aab2-8435eec23b51","ios":"levelo://app?vid=d59a407a-9ea4-4470-aab2-8435eec23b51"},"vehicle_type_id":"4","last_reported":1733418498,"current_range_meters":0,"station_id":"ce4bhip2rcd13ifvqft0","pricing_plan_id":"cebpf4jnsgd1na2vs0mg"},{"bike_id":"8ac37659-bb1f-4555-8f42-209b484aeaa7","system_id":"levelo_inurba_marseille","lat":43.29526,"lon":5.39041,"is_reserved":false,"is_disabled":false,"rental_uris":{"android":"levelo://app?vid=8ac37659-bb1f-4555-8f42-209b484aeaa7","ios":"levelo://app?vid=8ac37659-bb1f-4555-8f42-209b484aeaa7"},"vehicle_type_id":"4","last_reported":1733418498,"current_range_meters":38800,"station_id":"ce4bh3p2rcd13ifvqdp0","pricing_plan_id":"cebpf4jnsgd1na2vs0mg"},{"bike_id":"9c77a68d-2e99-44e9-b903-950fb6644d35","system_id":"levelo_inurba_marseille","lat":43.25265,"lon":5.39465,"is_reserved":false,"is_disabled":true,"rental_uris":{"android":"levelo://app?vid=9c77a68d-2e99-44e9-b903-950fb6644d35","ios":"levelo://app?vid=9c77a68d-2e99-44e9-b903-950fb6644d35"},"vehicle_type_id":"4","last_reported":1733418498,"current_range_meters":0,"station_id":"","pricing_plan_id":"cebpf4jnsgd1na2vs0mg"},{"bike_id":"6fa1a97e-263f-418e-a07e-170565680188","system_id":"levelo_inurba_marseille","lat":43.314912,"lon":5.373068,"is_reserved":false,"is_disabled":false,"rental_uris":{"android":"levelo://app?vid=6fa1a97e-263f-418e-a07e-170565680188","ios":"levelo://app?vid=6fa1a97e-263f-418e-a07e-170565680188"},"vehicle_type_id":"4","last_reported":1733418498,"current_range_meters":31200,"station_id":"ce4bgt12rcd13ifvqcd0","pricing_plan_id":"cebpf4jnsgd1na2vs0mg"},{"bike_id":"5fd3a644-a652-49dc-a34f-3c7582247439","system_id":"levelo_inurba_marseille","lat":43.31714,"lon":5.43707,"is_reserved":false,"is_disabled":false,"rental_uris":{"android":"levelo://app?vid=5fd3a644-a652-49dc-a34f-3c7582247439","ios":"levelo://app?vid=5fd3a644-a652-49dc-a34f-3c7582247439"},"vehicle_type_id":"4","last_reported":1733418498,"current_range_meters":7200,"station_id":"ce4bhp92rcd13ifvqhcg","pricing_plan_id":"cebpf4jnsgd1na2vs0mg"},{"bike_id":"c48c4aa1-d2cd-4216-bf12-843d87bbb5f6","system_id":"levelo_inurba_marseille","lat":43.28409,"lon":5.37504,"is_reserved":false,"is_disabled":false,"rental_uris":{"android":"levelo://app?vid=c48c4aa1-d2cd-4216-bf12-843d87bbb5f6","ios":"levelo://app?vid=c48c4aa1-d2cd-4216-bf12-843d87bbb5f6"},"vehicle_type_id":"4","last_reported":1733418498,"current_range_meters":14400,"station_id":"ce4bh412rcd13ifvqds0","pricing_plan_id":"cebpf4jnsgd1na2vs0mg"},{"bike_id":"83985555-c848-4b28-808f-8a7e7cf8519e","system_id":"levelo_inurba_marseille","lat":43.28115,"lon":5.43955,"is_reserved":false,"is_disabled":true,"rental_uris":{"android":"levelo://app?vid=83985555-c848-4b28-808f-8a7e7cf8519e","ios":"levelo://app?vid=83985555-c848-4b28-808f-8a7e7cf8519e"},"vehicle_type_id":"4","last_reported":1733418498,"current_range_meters":0,"station_id":"","pricing_plan_id":"cebpf4jnsgd1na2vs0mg"},{"bike_id":"76f22b2b-4267-4978-afb4-a70105660a0f","system_id":"levelo_inurba_marseille","lat":43.31233,"lon":5.36856,"is_reserved":false,"is_disabled":true,"rental_uris":{"android":"levelo://app?vid=76f22b2b-4267-4978-afb4-a70105660a0f","ios":"levelo://app?vid=76f22b2b-4267-4978-afb4-a70105660a0f"},"vehicle_type_id":"4","last_reported":1733418498,"current_range_meters":0,"station_id":"ce4bgl92rcd13ifvqbq0","pricing_plan_id":"cebpf4jnsgd1na2vs0mg"},{"bike_id":"903ec8f1-f4c3-441f-a117-ff7454fcb959","system_id":"levelo_inurba_marseille","lat":43.29478,"lon":5.39404,"is_reserved":false,"is_disabled":true,"rental_uris":{"android":"levelo://app?vid=903ec8f1-f4c3-441f-a117-ff7454fcb959","ios":"levelo://app?vid=903ec8f1-f4c3-441f-a117-ff7454fcb959"},"vehicle_type_id":"4","last_reported":1733418498,"current_range_meters":0,"station_id":"ce4bh292rcd13ifvqdf0","pricing_plan_id":"cebpf4jnsgd1na2vs0mg"},{"bike_id":"4a8e21e6-ec65-4655-92a4-dfff45da23c1","system_id":"levelo_inurba_marseille","lat":43.25501,"lon":5.37652,"is_reserved":false,"is_disabled":true,"rental_uris":{"android":"levelo://app?vid=4a8e21e6-ec65-4655-92a4-dfff45da23c1","ios":"levelo://app?vid=4a8e21e6-ec65-4655-92a4-dfff45da23c1"},"vehicle_type_id":"4","last_reported":1733418498,"current_range_meters":2000,"station_id":"ce4bhh12rcd13ifvqff0","pricing_plan_id":"cebpf4jnsgd1na2vs0mg"},{"bike_id":"d067b8d3-67a5-442a-bad7-be2a8ecf253f","system_id":"levelo_inurba_marseille","lat":43.28478,"lon":5.3842,"is_reserved":false,"is_disabled":false,"rental_uris":{"android":"levelo://app?vid=d067b8d3-67a5-442a-bad7-be2a8ecf253f","ios":"levelo://app?vid=d067b8d3-67a5-442a-bad7-be2a8ecf253f"},"vehicle_type_id":"4","last_reported":1733418498,"current_range_meters":38800,"station_id":"ce4bh512rcd13ifvqe3g","pricing_plan_id":"cebpf4jnsgd1na2vs0mg"},{"bike_id":"76efc336-bc70-4d41-9907-c57c084d6c0c","system_id":"levelo_inurba_marseille","lat":43.2987,"lon":5.39734,"is_reserved":false,"is_disabled":false,"rental_uris":{"android":"levelo://app?vid=76efc336-bc70-4d41-9907-c57c084d6c0c","ios":"levelo://app?vid=76efc336-bc70-4d41-9907-c57c084d6c0c"},"vehicle_type_id":"4","last_reported":1733418498,"current_range_meters":30400,"station_id":"ce4bh0h2rcd13ifvqd50","pricing_plan_id":"cebpf4jnsgd1na2vs0mg"},{"bike_id":"020719d4-c29b-4e35-be4b-81ca932ddaa9","system_id":"levelo_inurba_marseille","lat":43.30244,"lon":5.40069,"is_reserved":false,"is_disabled":true,"rental_uris":{"android":"levelo://app?vid=020719d4-c29b-4e35-be4b-81ca932ddaa9","ios":"levelo://app?vid=020719d4-c29b-4e35-be4b-81ca932ddaa9"},"vehicle_type_id":"4","last_reported":1733418498,"current_range_meters":30400,"station_id":"ce4bgvh2rcd13ifvqcs0","pricing_plan_id":"cebpf4jnsgd1na2vs0mg"},{"bike_id":"74f2c6ad-da2b-41d7-a969-54c1c27f59b8","system_id":"levelo_inurba_marseille","lat":43.26213,"lon":5.37924,"is_reserved":false,"is_disabled":false,"rental_uris":{"android":"levelo://app?vid=74f2c6ad-da2b-41d7-a969-54c1c27f59b8","ios":"levelo://app?vid=74f2c6ad-da2b-41d7-a969-54c1c27f59b8"},"vehicle_type_id":"4","last_reported":1733418498,"current_range_meters":38800,"station_id":"ce4bhjp2rcd13ifvqg90","pricing_plan_id":"cebpf4jnsgd1na2vs0mg"},{"bike_id":"a8264fb2-dad4-4c52-9230-cf80b47302d6","system_id":"levelo_inurba_marseille","lat":43.31998,"lon":5.38159,"is_reserved":false,"is_disabled":true,"rental_uris":{"android":"levelo://app?vid=a8264fb2-dad4-4c52-9230-cf80b47302d6","ios":"levelo://app?vid=a8264fb2-dad4-4c52-9230-cf80b47302d6"},"vehicle_type_id":"4","last_reported":1733418498,"current_range_meters":17200,"station_id":"ce4bhr12rcd13ifvqhpg","pricing_plan_id":"cebpf4jnsgd1na2vs0mg"},{"bike_id":"5edf82fa-e9d0-4d1f-98f1-37c98092771a","system_id":"levelo_inurba_marseille","lat":43.23198,"lon":5.35544,"is_reserved":false,"is_disabled":false,"rental_uris":{"android":"levelo://app?vid=5edf82fa-e9d0-4d1f-98f1-37c98092771a","ios":"levelo://app?vid=5edf82fa-e9d0-4d1f-98f1-37c98092771a"},"vehicle_type_id":"4","last_reported":1733418498,"current_range_meters":39200,"station_id":"ce4bhu92rcd13ifvqi70","pricing_plan_id":"cebpf4jnsgd1na2vs0mg"},{"bike_id":"32165bf8-aff9-4115-81c8-7e11d16bbbe5","system_id":"levelo_inurba_marseille","lat":43.23962,"lon":5.36635,"is_reserved":false,"is_disabled":false,"rental_uris":{"android":"levelo://app?vid=32165bf8-aff9-4115-81c8-7e11d16bbbe5","ios":"levelo://app?vid=32165bf8-aff9-4115-81c8-7e11d16bbbe5"},"vehicle_type_id":"4","last_reported":1733418498,"current_range_meters":16800,"station_id":"ce4bhi12rcd13ifvqfp0","pricing_plan_id":"cebpf4jnsgd1na2vs0mg"},{"bike_id":"48f0f46a-d93c-4d8d-9d4e-bacc7cb94894","system_id":"levelo_inurba_marseille","lat":43.33032,"lon":5.39049,"is_reserved":false,"is_disabled":false,"rental_uris":{"android":"levelo://app?vid=48f0f46a-d93c-4d8d-9d4e-bacc7cb94894","ios":"levelo://app?vid=48f0f46a-d93c-4d8d-9d4e-bacc7cb94894"},"vehicle_type_id":"4","last_reported":1733418498,"current_range_meters":38800,"station_id":"ce4bhr92rcd13ifvqhrg","pricing_plan_id":"cebpf4jnsgd1na2vs0mg"},{"bike_id":"8f753f0a-2f10-4092-a331-86096a8eda7e","system_id":"levelo_inurba_marseille","lat":43.25123,"lon":5.40318,"is_reserved":false,"is_disabled":true,"rental_uris":{"android":"levelo://app?vid=8f753f0a-2f10-4092-a331-86096a8eda7e","ios":"levelo://app?vid=8f753f0a-2f10-4092-a331-86096a8eda7e"},"vehicle_type_id":"4","last_reported":1733418498,"current_range_meters":0,"station_id":"ce4bhlh2rcd13ifvqgig","pricing_plan_id":"cebpf4jnsgd1na2vs0mg"},{"bike_id":"c5f30862-933d-4a8f-a9da-fcd206619b8c","system_id":"levelo_inurba_marseille","lat":43.26552,"lon":5.37287,"is_reserved":false,"is_disabled":false,"rental_uris":{"android":"levelo://app?vid=c5f30862-933d-4a8f-a9da-fcd206619b8c","ios":"levelo://app?vid=c5f30862-933d-4a8f-a9da-fcd206619b8c"},"vehicle_type_id":"4","last_reported":1733418498,"current_range_meters":21600,"station_id":"ce4bhg12rcd13ifvqf70","pricing_plan_id":"cebpf4jnsgd1na2vs0mg"},{"bike_id":"506c09f4-6c9b-4fb3-996c-4c7f86dd75a8","system_id":"levelo_inurba_marseille","lat":43.25492,"lon":5.37652,"is_reserved":false,"is_disabled":true,"rental_uris":{"android":"levelo://app?vid=506c09f4-6c9b-4fb3-996c-4c7f86dd75a8","ios":"levelo://app?vid=506c09f4-6c9b-4fb3-996c-4c7f86dd75a8"},"vehicle_type_id":"4","last_reported":1733418498,"current_range_meters":0,"station_id":"","pricing_plan_id":"cebpf4jnsgd1na2vs0mg"},{"bike_id":"018b0ffb-7f43-4c32-8fb7-fda363c97d07","system_id":"levelo_inurba_marseille","lat":43.2844,"lon":5.39188,"is_reserved":false,"is_disabled":false,"rental_uris":{"android":"levelo://app?vid=018b0ffb-7f43-4c32-8fb7-fda363c97d07","ios":"levelo://app?vid=018b0ffb-7f43-4c32-8fb7-fda363c97d07"},"vehicle_type_id":"4","last_reported":1733418498,"current_range_meters":38800,"station_id":"ce4bhoh2rcd13ifvqh5g","pricing_plan_id":"cebpf4jnsgd1na2vs0mg"},{"bike_id":"9202c63e-372c-4469-a5c1-8e35757d1940","system_id":"levelo_inurba_marseille","lat":43.30053,"lon":5.38832,"is_reserved":false,"is_disabled":true,"rental_uris":{"android":"levelo://app?vid=9202c63e-372c-4469-a5c1-8e35757d1940","ios":"levelo://app?vid=9202c63e-372c-4469-a5c1-8e35757d1940"},"vehicle_type_id":"4","last_reported":1733418498,"current_range_meters":0,"station_id":"","pricing_plan_id":"cebpf4jnsgd1na2vs0mg"},{"bike_id":"a300b075-421c-4f94-98bb-61bd869bc11d","system_id":"levelo_inurba_marseille","lat":43.30805,"lon":5.43515,"is_reserved":false,"is_disabled":false,"rental_uris":{"android":"levelo://app?vid=a300b075-421c-4f94-98bb-61bd869bc11d","ios":"levelo://app?vid=a300b075-421c-4f94-98bb-61bd869bc11d"},"vehicle_type_id":"4","last_reported":1733418498,"current_range_meters":26800,"station_id":"ce4bhph2rcd13ifvqheg","pricing_plan_id":"cebpf4jnsgd1na2vs0mg"},{"bike_id":"6782431b-0292-4763-a03d-8cce09312015","system_id":"levelo_inurba_marseille","lat":43.29874,"lon":5.39736,"is_reserved":false,"is_disabled":false,"rental_uris":{"android":"levelo://app?vid=6782431b-0292-4763-a03d-8cce09312015","ios":"levelo://app?vid=6782431b-0292-4763-a03d-8cce09312015"},"vehicle_type_id":"4","last_reported":1733418498,"current_range_meters":7200,"station_id":"ce4bh0h2rcd13ifvqd50","pricing_plan_id":"cebpf4jnsgd1na2vs0mg"},{"bike_id":"1d1e223d-f3f8-4945-8923-f4bdebc5ab9c","system_id":"levelo_inurba_marseille","lat":43.32053,"lon":5.41545,"is_reserved":false,"is_disabled":true,"rental_uris":{"android":"levelo://app?vid=1d1e223d-f3f8-4945-8923-f4bdebc5ab9c","ios":"levelo://app?vid=1d1e223d-f3f8-4945-8923-f4bdebc5ab9c"},"vehicle_type_id":"4","last_reported":1733418498,"current_range_meters":38800,"station_id":"ce4bhq92rcd13ifvqhkg","pricing_plan_id":"cebpf4jnsgd1na2vs0mg"},{"bike_id":"489a671c-578c-4db4-8057-054da74d5b50","system_id":"levelo_inurba_marseille","lat":43.32334,"lon":5.40624,"is_reserved":false,"is_disabled":false,"rental_uris":{"android":"levelo://app?vid=489a671c-578c-4db4-8057-054da74d5b50","ios":"levelo://app?vid=489a671c-578c-4db4-8057-054da74d5b50"},"vehicle_type_id":"4","last_reported":1733418498,"current_range_meters":38800,"station_id":"ce4bhq92rcd13ifvqhjg","pricing_plan_id":"cebpf4jnsgd1na2vs0mg"},{"bike_id":"f4baaaf3-5729-45c6-81a9-b069f42d75d5","system_id":"levelo_inurba_marseille","lat":43.2893,"lon":5.39625,"is_reserved":false,"is_disabled":true,"rental_uris":{"android":"levelo://app?vid=f4baaaf3-5729-45c6-81a9-b069f42d75d5","ios":"levelo://app?vid=f4baaaf3-5729-45c6-81a9-b069f42d75d5"},"vehicle_type_id":"4","last_reported":1733418498,"current_range_meters":33600,"station_id":"ce4bh3h2rcd13ifvqdn0","pricing_plan_id":"cebpf4jnsgd1na2vs0mg"},{"bike_id":"cf3e6ea0-09ff-406c-b357-28a6a6117f94","system_id":"levelo_inurba_marseille","lat":43.22935,"lon":5.35381,"is_reserved":false,"is_disabled":false,"rental_uris":{"android":"levelo://app?vid=cf3e6ea0-09ff-406c-b357-28a6a6117f94","ios":"levelo://app?vid=cf3e6ea0-09ff-406c-b357-28a6a6117f94"},"vehicle_type_id":"4","last_reported":1733418498,"current_range_meters":38800,"station_id":"cpo3532slgdg3j2ikp40","pricing_plan_id":"cebpf4jnsgd1na2vs0mg"},{"bike_id":"0c5d683f-5f24-41fa-ac1a-175093a9b438","system_id":"levelo_inurba_marseille","lat":43.29802,"lon":5.39343,"is_reserved":false,"is_disabled":false,"rental_uris":{"android":"levelo://app?vid=0c5d683f-5f24-41fa-ac1a-175093a9b438","ios":"levelo://app?vid=0c5d683f-5f24-41fa-ac1a-175093a9b438"},"vehicle_type_id":"4","last_reported":1733418498,"current_range_meters":24400,"station_id":"chh1huq6cuj3fo74tm60","pricing_plan_id":"cebpf4jnsgd1na2vs0mg"},{"bike_id":"6871027a-a4a1-453b-9a54-f23e57dc9cd7","system_id":"levelo_inurba_marseille","lat":43.25501,"lon":5.37647,"is_reserved":false,"is_disabled":false,"rental_uris":{"android":"levelo://app?vid=6871027a-a4a1-453b-9a54-f23e57dc9cd7","ios":"levelo://app?vid=6871027a-a4a1-453b-9a54-f23e57dc9cd7"},"vehicle_type_id":"4","last_reported":1733418498,"current_range_meters":17600,"station_id":"ce4bhh12rcd13ifvqff0","pricing_plan_id":"cebpf4jnsgd1na2vs0mg"},{"bike_id":"719e509a-25e4-4b1b-9830-f708d85d7593","system_id":"levelo_inurba_marseille","lat":43.29404,"lon":5.37451,"is_reserved":false,"is_disabled":true,"rental_uris":{"android":"levelo://app?vid=719e509a-25e4-4b1b-9830-f708d85d7593","ios":"levelo://app?vid=719e509a-25e4-4b1b-9830-f708d85d7593"},"vehicle_type_id":"4","last_reported":1733418498,"current_range_meters":0,"station_id":"","pricing_plan_id":"cebpf4jnsgd1na2vs0mg"},{"bike_id":"18d6f0b0-ec84-4f56-8429-3d92fe58544f","system_id":"levelo_inurba_marseille","lat":43.29515,"lon":5.39041,"is_reserved":false,"is_disabled":false,"rental_uris":{"android":"levelo://app?vid=18d6f0b0-ec84-4f56-8429-3d92fe58544f","ios":"levelo://app?vid=18d6f0b0-ec84-4f56-8429-3d92fe58544f"},"vehicle_type_id":"4","last_reported":1733418498,"current_range_meters":30000,"station_id":"ce4bh3p2rcd13ifvqdp0","pricing_plan_id":"cebpf4jnsgd1na2vs0mg"},{"bike_id":"3b7f1dea-9078-4777-bf50-e0c6af366fb2","system_id":"levelo_inurba_marseille","lat":43.30927,"lon":5.40153,"is_reserved":false,"is_disabled":false,"rental_uris":{"android":"levelo://app?vid=3b7f1dea-9078-4777-bf50-e0c6af366fb2","ios":"levelo://app?vid=3b7f1dea-9078-4777-bf50-e0c6af366fb2"},"vehicle_type_id":"4","last_reported":1733418498,"current_range_meters":12400,"station_id":"ce4bgvp2rcd13ifvqct0","pricing_plan_id":"cebpf4jnsgd1na2vs0mg"},{"bike_id":"5dcf808c-6709-434c-991e-442ddb976190","system_id":"levelo_inurba_marseille","lat":43.2621,"lon":5.37441,"is_reserved":false,"is_disabled":false,"rental_uris":{"android":"levelo://app?vid=5dcf808c-6709-434c-991e-442ddb976190","ios":"levelo://app?vid=5dcf808c-6709-434c-991e-442ddb976190"},"vehicle_type_id":"4","last_reported":1733418498,"current_range_meters":26000,"station_id":"ce4bhgp2rcd13ifvqfc0","pricing_plan_id":"cebpf4jnsgd1na2vs0mg"},{"bike_id":"3eac95d3-b5a4-4bbd-8508-0debbfb4ff6c","system_id":"levelo_inurba_marseille","lat":43.28616,"lon":5.35102,"is_reserved":false,"is_disabled":true,"rental_uris":{"android":"levelo://app?vid=3eac95d3-b5a4-4bbd-8508-0debbfb4ff6c","ios":"levelo://app?vid=3eac95d3-b5a4-4bbd-8508-0debbfb4ff6c"},"vehicle_type_id":"4","last_reported":1733418498,"current_range_meters":0,"station_id":"ce4bhch2rcd13ifvqeug","pricing_plan_id":"cebpf4jnsgd1na2vs0mg"},{"bike_id":"b01ba929-1580-401b-973d-e4a15d746d4a","system_id":"levelo_inurba_marseille","lat":43.22929,"lon":5.35379,"is_reserved":false,"is_disabled":false,"rental_uris":{"android":"levelo://app?vid=b01ba929-1580-401b-973d-e4a15d746d4a","ios":"levelo://app?vid=b01ba929-1580-401b-973d-e4a15d746d4a"},"vehicle_type_id":"4","last_reported":1733418498,"current_range_meters":14400,"station_id":"cpo3532slgdg3j2ikp40","pricing_plan_id":"cebpf4jnsgd1na2vs0mg"},{"bike_id":"8c1e28b4-904f-48d7-ba6d-d3b5b5d05922","system_id":"levelo_inurba_marseille","lat":43.29269,"lon":5.40135,"is_reserved":false,"is_disabled":true,"rental_uris":{"android":"levelo://app?vid=8c1e28b4-904f-48d7-ba6d-d3b5b5d05922","ios":"levelo://app?vid=8c1e28b4-904f-48d7-ba6d-d3b5b5d05922"},"vehicle_type_id":"4","last_reported":1733418498,"current_range_meters":34000,"station_id":"ce4bh312rcd13ifvqdk0","pricing_plan_id":"cebpf4jnsgd1na2vs0mg"},{"bike_id":"81f92531-73d5-4340-a6e7-083d174c4cab","system_id":"levelo_inurba_marseille","lat":43.29613,"lon":5.37723,"is_reserved":false,"is_disabled":false,"rental_uris":{"android":"levelo://app?vid=81f92531-73d5-4340-a6e7-083d174c4cab","ios":"levelo://app?vid=81f92531-73d5-4340-a6e7-083d174c4cab"},"vehicle_type_id":"4","last_reported":1733418498,"current_range_meters":12000,"station_id":"ce4bgi92rcd13ifvqb90","pricing_plan_id":"cebpf4jnsgd1na2vs0mg"},{"bike_id":"07aad2ab-1536-42e8-a950-614a57646ec7","system_id":"levelo_inurba_marseille","lat":43.2582,"lon":5.39435,"is_reserved":false,"is_disabled":false,"rental_uris":{"android":"levelo://app?vid=07aad2ab-1536-42e8-a950-614a57646ec7","ios":"levelo://app?vid=07aad2ab-1536-42e8-a950-614a57646ec7"},"vehicle_type_id":"4","last_reported":1733418498,"current_range_meters":13600,"station_id":"ce4bhip2rcd13ifvqft0","pricing_plan_id":"cebpf4jnsgd1na2vs0mg"},{"bike_id":"1d9a4b4c-056a-4257-82be-cdf0089ad0fc","system_id":"levelo_inurba_marseille","lat":43.26943,"lon":5.40254,"is_reserved":false,"is_disabled":false,"rental_uris":{"android":"levelo://app?vid=1d9a4b4c-056a-4257-82be-cdf0089ad0fc","ios":"levelo://app?vid=1d9a4b4c-056a-4257-82be-cdf0089ad0fc"},"vehicle_type_id":"4","last_reported":1733418498,"current_range_meters":39200,"station_id":"cjm6bp8fraef2m0cb0m0","pricing_plan_id":"cebpf4jnsgd1na2vs0mg"},{"bike_id":"010f1ddc-a5dd-4595-9905-ebf82317a65f","system_id":"levelo_inurba_marseille","lat":43.33032,"lon":5.39045,"is_reserved":false,"is_disabled":false,"rental_uris":{"android":"levelo://app?vid=010f1ddc-a5dd-4595-9905-ebf82317a65f","ios":"levelo://app?vid=010f1ddc-a5dd-4595-9905-ebf82317a65f"},"vehicle_type_id":"4","last_reported":1733418498,"current_range_meters":38800,"station_id":"ce4bhr92rcd13ifvqhrg","pricing_plan_id":"cebpf4jnsgd1na2vs0mg"},{"bike_id":"71991769-7b79-468e-aa16-533cfe544033","system_id":"levelo_inurba_marseille","lat":43.29256,"lon":5.38434,"is_reserved":false,"is_disabled":true,"rental_uris":{"android":"levelo://app?vid=71991769-7b79-468e-aa16-533cfe544033","ios":"levelo://app?vid=71991769-7b79-468e-aa16-533cfe544033"},"vehicle_type_id":"4","last_reported":1733418498,"current_range_meters":400,"station_id":"ce4bh692rcd13ifvqea0","pricing_plan_id":"cebpf4jnsgd1na2vs0mg"},{"bike_id":"27c28732-8864-42aa-ad2a-eb132bf8af3c","system_id":"levelo_inurba_marseille","lat":43.2512,"lon":5.40321,"is_reserved":false,"is_disabled":false,"rental_uris":{"android":"levelo://app?vid=27c28732-8864-42aa-ad2a-eb132bf8af3c","ios":"levelo://app?vid=27c28732-8864-42aa-ad2a-eb132bf8af3c"},"vehicle_type_id":"4","last_reported":1733418498,"current_range_meters":28000,"station_id":"ce4bhlh2rcd13ifvqgig","pricing_plan_id":"cebpf4jnsgd1na2vs0mg"},{"bike_id":"f17962ff-be39-4578-b1b4-f6e9eb53cf3b","system_id":"levelo_inurba_marseille","lat":43.30184,"lon":5.36596,"is_reserved":false,"is_disabled":false,"rental_uris":{"android":"levelo://app?vid=f17962ff-be39-4578-b1b4-f6e9eb53cf3b","ios":"levelo://app?vid=f17962ff-be39-4578-b1b4-f6e9eb53cf3b"},"vehicle_type_id":"4","last_reported":1733418498,"current_range_meters":22800,"station_id":"ce4bgrh2rcd13ifvqc8g","pricing_plan_id":"cebpf4jnsgd1na2vs0mg"},{"bike_id":"14757c55-869a-4b0b-afac-0faeea29372b","system_id":"levelo_inurba_marseille","lat":43.330292,"lon":5.390349,"is_reserved":false,"is_disabled":false,"rental_uris":{"android":"levelo://app?vid=14757c55-869a-4b0b-afac-0faeea29372b","ios":"levelo://app?vid=14757c55-869a-4b0b-afac-0faeea29372b"},"vehicle_type_id":"4","last_reported":1733418498,"current_range_meters":38800,"station_id":"ce4bhr92rcd13ifvqhrg","pricing_plan_id":"cebpf4jnsgd1na2vs0mg"},{"bike_id":"c3b86122-2009-4b5a-a146-25ee1c7368aa","system_id":"levelo_inurba_marseille","lat":43.29425,"lon":5.3862,"is_reserved":false,"is_disabled":false,"rental_uris":{"android":"levelo://app?vid=c3b86122-2009-4b5a-a146-25ee1c7368aa","ios":"levelo://app?vid=c3b86122-2009-4b5a-a146-25ee1c7368aa"},"vehicle_type_id":"4","last_reported":1733418498,"current_range_meters":34000,"station_id":"ce4bh2h2rcd13ifvqdh0","pricing_plan_id":"cebpf4jnsgd1na2vs0mg"},{"bike_id":"3e592e74-64b6-427b-a9f3-9c85b0d07de7","system_id":"levelo_inurba_marseille","lat":43.23195,"lon":5.39982,"is_reserved":false,"is_disabled":false,"rental_uris":{"android":"levelo://app?vid=3e592e74-64b6-427b-a9f3-9c85b0d07de7","ios":"levelo://app?vid=3e592e74-64b6-427b-a9f3-9c85b0d07de7"},"vehicle_type_id":"4","last_reported":1733418498,"current_range_meters":28400,"station_id":"ce4bhn12rcd13ifvqgqg","pricing_plan_id":"cebpf4jnsgd1na2vs0mg"},{"bike_id":"119d2e23-c5b4-4811-91e0-e6cb9d809965","system_id":"levelo_inurba_marseille","lat":43.31168,"lon":5.38711,"is_reserved":false,"is_disabled":false,"rental_uris":{"android":"levelo://app?vid=119d2e23-c5b4-4811-91e0-e6cb9d809965","ios":"levelo://app?vid=119d2e23-c5b4-4811-91e0-e6cb9d809965"},"vehicle_type_id":"4","last_reported":1733418498,"current_range_meters":16400,"station_id":"ce4bgv12rcd13ifvqcp0","pricing_plan_id":"cebpf4jnsgd1na2vs0mg"},{"bike_id":"710c9d13-8a64-4ca7-ba64-fd3194714b19","system_id":"levelo_inurba_marseille","lat":43.30799,"lon":5.37316,"is_reserved":false,"is_disabled":false,"rental_uris":{"android":"levelo://app?vid=710c9d13-8a64-4ca7-ba64-fd3194714b19","ios":"levelo://app?vid=710c9d13-8a64-4ca7-ba64-fd3194714b19"},"vehicle_type_id":"4","last_reported":1733418498,"current_range_meters":20800,"station_id":"","pricing_plan_id":"cebpf4jnsgd1na2vs0mg"},{"bike_id":"a4b9e425-64b8-4ce2-a5ab-5fcc5d1230a4","system_id":"levelo_inurba_marseille","lat":43.32113,"lon":5.36775,"is_reserved":false,"is_disabled":false,"rental_uris":{"android":"levelo://app?vid=a4b9e425-64b8-4ce2-a5ab-5fcc5d1230a4","ios":"levelo://app?vid=a4b9e425-64b8-4ce2-a5ab-5fcc5d1230a4"},"vehicle_type_id":"4","last_reported":1733418498,"current_range_meters":35600,"station_id":"ce4bhrh2rcd13ifvqhug","pricing_plan_id":"cebpf4jnsgd1na2vs0mg"},{"bike_id":"fd98eaa9-4d55-4e7b-aa90-0d14707466d9","system_id":"levelo_inurba_marseille","lat":43.337444,"lon":5.374475,"is_reserved":false,"is_disabled":true,"rental_uris":{"android":"levelo://app?vid=fd98eaa9-4d55-4e7b-aa90-0d14707466d9","ios":"levelo://app?vid=fd98eaa9-4d55-4e7b-aa90-0d14707466d9"},"vehicle_type_id":"4","last_reported":1733418498,"current_range_meters":0,"station_id":"","pricing_plan_id":"cebpf4jnsgd1na2vs0mg"},{"bike_id":"4c459098-6efd-42ef-88b2-766ab725ce24","system_id":"levelo_inurba_marseille","lat":43.29033,"lon":5.38634,"is_reserved":false,"is_disabled":false,"rental_uris":{"android":"levelo://app?vid=4c459098-6efd-42ef-88b2-766ab725ce24","ios":"levelo://app?vid=4c459098-6efd-42ef-88b2-766ab725ce24"},"vehicle_type_id":"4","last_reported":1733418498,"current_range_meters":38800,"station_id":"ce4bh4p2rcd13ifvqe0g","pricing_plan_id":"cebpf4jnsgd1na2vs0mg"},{"bike_id":"7739e7e5-bcce-43a6-9d41-f90a9ba836ed","system_id":"levelo_inurba_marseille","lat":43.29592,"lon":5.380983,"is_reserved":false,"is_disabled":true,"rental_uris":{"android":"levelo://app?vid=7739e7e5-bcce-43a6-9d41-f90a9ba836ed","ios":"levelo://app?vid=7739e7e5-bcce-43a6-9d41-f90a9ba836ed"},"vehicle_type_id":"4","last_reported":1733418498,"current_range_meters":400,"station_id":"ce4bgl12rcd13ifvqbo0","pricing_plan_id":"cebpf4jnsgd1na2vs0mg"},{"bike_id":"e25dc6e3-1f83-4e32-ad60-7f8ea4cb5b47","system_id":"levelo_inurba_marseille","lat":43.29794,"lon":5.39351,"is_reserved":false,"is_disabled":true,"rental_uris":{"android":"levelo://app?vid=e25dc6e3-1f83-4e32-ad60-7f8ea4cb5b47","ios":"levelo://app?vid=e25dc6e3-1f83-4e32-ad60-7f8ea4cb5b47"},"vehicle_type_id":"4","last_reported":1733418498,"current_range_meters":0,"station_id":"chh1huq6cuj3fo74tm60","pricing_plan_id":"cebpf4jnsgd1na2vs0mg"},{"bike_id":"9f166179-3cc0-42ca-860b-06242525cca2","system_id":"levelo_inurba_marseille","lat":43.31985,"lon":5.4157,"is_reserved":false,"is_disabled":false,"rental_uris":{"android":"levelo://app?vid=9f166179-3cc0-42ca-860b-06242525cca2","ios":"levelo://app?vid=9f166179-3cc0-42ca-860b-06242525cca2"},"vehicle_type_id":"4","last_reported":1733418498,"current_range_meters":33200,"station_id":"","pricing_plan_id":"cebpf4jnsgd1na2vs0mg"},{"bike_id":"cbf578cc-cc2f-4189-9de2-b212a0c21f11","system_id":"levelo_inurba_marseille","lat":43.2952,"lon":5.39032,"is_reserved":false,"is_disabled":false,"rental_uris":{"android":"levelo://app?vid=cbf578cc-cc2f-4189-9de2-b212a0c21f11","ios":"levelo://app?vid=cbf578cc-cc2f-4189-9de2-b212a0c21f11"},"vehicle_type_id":"4","last_reported":1733418498,"current_range_meters":24000,"station_id":"ce4bh3p2rcd13ifvqdp0","pricing_plan_id":"cebpf4jnsgd1na2vs0mg"},{"bike_id":"c2d8a1c2-d166-4a36-b32f-beec95c93bd5","system_id":"levelo_inurba_marseille","lat":43.33756,"lon":5.37459,"is_reserved":false,"is_disabled":false,"rental_uris":{"android":"levelo://app?vid=c2d8a1c2-d166-4a36-b32f-beec95c93bd5","ios":"levelo://app?vid=c2d8a1c2-d166-4a36-b32f-beec95c93bd5"},"vehicle_type_id":"4","last_reported":1733418498,"current_range_meters":8400,"station_id":"","pricing_plan_id":"cebpf4jnsgd1na2vs0mg"},{"bike_id":"7960fb22-8752-4c19-ada8-3caea28dda13","system_id":"levelo_inurba_marseille","lat":43.28583,"lon":5.39485,"is_reserved":false,"is_disabled":false,"rental_uris":{"android":"levelo://app?vid=7960fb22-8752-4c19-ada8-3caea28dda13","ios":"levelo://app?vid=7960fb22-8752-4c19-ada8-3caea28dda13"},"vehicle_type_id":"4","last_reported":1733418498,"current_range_meters":38800,"station_id":"ce4bh292rcd13ifvqdg0","pricing_plan_id":"cebpf4jnsgd1na2vs0mg"},{"bike_id":"ca2ec074-de60-4930-9130-00bcd269391b","system_id":"levelo_inurba_marseille","lat":43.28456,"lon":5.35887,"is_reserved":false,"is_disabled":false,"rental_uris":{"android":"levelo://app?vid=ca2ec074-de60-4930-9130-00bcd269391b","ios":"levelo://app?vid=ca2ec074-de60-4930-9130-00bcd269391b"},"vehicle_type_id":"4","last_reported":1733418498,"current_range_meters":22000,"station_id":"ce4bhah2rcd13ifvqei0","pricing_plan_id":"cebpf4jnsgd1na2vs0mg"},{"bike_id":"e8d25b9b-2f6f-4f7f-8bc4-2102c4e24b79","system_id":"levelo_inurba_marseille","lat":43.28435,"lon":5.39182,"is_reserved":false,"is_disabled":false,"rental_uris":{"android":"levelo://app?vid=e8d25b9b-2f6f-4f7f-8bc4-2102c4e24b79","ios":"levelo://app?vid=e8d25b9b-2f6f-4f7f-8bc4-2102c4e24b79"},"vehicle_type_id":"4","last_reported":1733418498,"current_range_meters":38000,"station_id":"ce4bhoh2rcd13ifvqh5g","pricing_plan_id":"cebpf4jnsgd1na2vs0mg"},{"bike_id":"dce35d6a-08b0-4b4c-b89b-7b5e69e85874","system_id":"levelo_inurba_marseille","lat":43.32442,"lon":5.36379,"is_reserved":false,"is_disabled":false,"rental_uris":{"android":"levelo://app?vid=dce35d6a-08b0-4b4c-b89b-7b5e69e85874","ios":"levelo://app?vid=dce35d6a-08b0-4b4c-b89b-7b5e69e85874"},"vehicle_type_id":"4","last_reported":1733418498,"current_range_meters":8800,"station_id":"","pricing_plan_id":"cebpf4jnsgd1na2vs0mg"},{"bike_id":"37727576-2d28-4525-b065-40affdaee0f8","system_id":"levelo_inurba_marseille","lat":43.32298,"lon":5.38935,"is_reserved":false,"is_disabled":false,"rental_uris":{"android":"levelo://app?vid=37727576-2d28-4525-b065-40affdaee0f8","ios":"levelo://app?vid=37727576-2d28-4525-b065-40affdaee0f8"},"vehicle_type_id":"4","last_reported":1733418498,"current_range_meters":38400,"station_id":"","pricing_plan_id":"cebpf4jnsgd1na2vs0mg"},{"bike_id":"5a60455d-b44e-4505-a94d-cbb96b074429","system_id":"levelo_inurba_marseille","lat":43.25584,"lon":5.38232,"is_reserved":false,"is_disabled":true,"rental_uris":{"android":"levelo://app?vid=5a60455d-b44e-4505-a94d-cbb96b074429","ios":"levelo://app?vid=5a60455d-b44e-4505-a94d-cbb96b074429"},"vehicle_type_id":"4","last_reported":1733418498,"current_range_meters":2000,"station_id":"ce4bhih2rcd13ifvqfs0","pricing_plan_id":"cebpf4jnsgd1na2vs0mg"},{"bike_id":"737bdef3-e4f9-4d42-9b3b-45164c8dc58f","system_id":"levelo_inurba_marseille","lat":43.24081,"lon":5.37733,"is_reserved":false,"is_disabled":true,"rental_uris":{"android":"levelo://app?vid=737bdef3-e4f9-4d42-9b3b-45164c8dc58f","ios":"levelo://app?vid=737bdef3-e4f9-4d42-9b3b-45164c8dc58f"},"vehicle_type_id":"4","last_reported":1733418498,"current_range_meters":11600,"station_id":"ce4bhnp2rcd13ifvqgvg","pricing_plan_id":"cebpf4jnsgd1na2vs0mg"},{"bike_id":"643811b1-5a60-4b89-8a11-8083a78459b7","system_id":"levelo_inurba_marseille","lat":43.30605,"lon":5.37228,"is_reserved":false,"is_disabled":true,"rental_uris":{"android":"levelo://app?vid=643811b1-5a60-4b89-8a11-8083a78459b7","ios":"levelo://app?vid=643811b1-5a60-4b89-8a11-8083a78459b7"},"vehicle_type_id":"4","last_reported":1733418498,"current_range_meters":1600,"station_id":"ce4bgqh2rcd13ifvqc4g","pricing_plan_id":"cebpf4jnsgd1na2vs0mg"},{"bike_id":"bd019733-b285-43d6-9d13-b5c534a12ecb","system_id":"levelo_inurba_marseille","lat":43.31055,"lon":5.38767,"is_reserved":false,"is_disabled":true,"rental_uris":{"android":"levelo://app?vid=bd019733-b285-43d6-9d13-b5c534a12ecb","ios":"levelo://app?vid=bd019733-b285-43d6-9d13-b5c534a12ecb"},"vehicle_type_id":"4","last_reported":1733418498,"current_range_meters":0,"station_id":"","pricing_plan_id":"cebpf4jnsgd1na2vs0mg"},{"bike_id":"b0531c8f-218c-46f7-8d83-ec21abbb5777","system_id":"levelo_inurba_marseille","lat":43.31699,"lon":5.37751,"is_reserved":false,"is_disabled":false,"rental_uris":{"android":"levelo://app?vid=b0531c8f-218c-46f7-8d83-ec21abbb5777","ios":"levelo://app?vid=b0531c8f-218c-46f7-8d83-ec21abbb5777"},"vehicle_type_id":"4","last_reported":1733418498,"current_range_meters":24800,"station_id":"ce4bgth2rcd13ifvqch0","pricing_plan_id":"cebpf4jnsgd1na2vs0mg"},{"bike_id":"6c32b505-eee5-4379-8cea-340152f349d5","system_id":"levelo_inurba_marseille","lat":43.29416,"lon":5.38622,"is_reserved":false,"is_disabled":false,"rental_uris":{"android":"levelo://app?vid=6c32b505-eee5-4379-8cea-340152f349d5","ios":"levelo://app?vid=6c32b505-eee5-4379-8cea-340152f349d5"},"vehicle_type_id":"4","last_reported":1733418498,"current_range_meters":11600,"station_id":"ce4bh2h2rcd13ifvqdh0","pricing_plan_id":"cebpf4jnsgd1na2vs0mg"},{"bike_id":"e53f851f-4fe2-4f42-8246-21beb518723a","system_id":"levelo_inurba_marseille","lat":43.27054,"lon":5.40258,"is_reserved":false,"is_disabled":false,"rental_uris":{"android":"levelo://app?vid=e53f851f-4fe2-4f42-8246-21beb518723a","ios":"levelo://app?vid=e53f851f-4fe2-4f42-8246-21beb518723a"},"vehicle_type_id":"4","last_reported":1733418498,"current_range_meters":7200,"station_id":"ce4bhk92rcd13ifvqgc0","pricing_plan_id":"cebpf4jnsgd1na2vs0mg"},{"bike_id":"14d3a197-6f06-43bd-9e95-51ad7f989054","system_id":"levelo_inurba_marseille","lat":43.29371,"lon":5.37836,"is_reserved":false,"is_disabled":true,"rental_uris":{"android":"levelo://app?vid=14d3a197-6f06-43bd-9e95-51ad7f989054","ios":"levelo://app?vid=14d3a197-6f06-43bd-9e95-51ad7f989054"},"vehicle_type_id":"4","last_reported":1733418498,"current_range_meters":0,"station_id":"ce4bgjh2rcd13ifvqbf0","pricing_plan_id":"cebpf4jnsgd1na2vs0mg"},{"bike_id":"55993fce-6a3c-4944-b365-61e19c6fe4f5","system_id":"levelo_inurba_marseille","lat":43.25502,"lon":5.3765,"is_reserved":false,"is_disabled":false,"rental_uris":{"android":"levelo://app?vid=55993fce-6a3c-4944-b365-61e19c6fe4f5","ios":"levelo://app?vid=55993fce-6a3c-4944-b365-61e19c6fe4f5"},"vehicle_type_id":"4","last_reported":1733418498,"current_range_meters":9600,"station_id":"ce4bhh12rcd13ifvqff0","pricing_plan_id":"cebpf4jnsgd1na2vs0mg"},{"bike_id":"21c61b3f-2ae1-41ed-96e8-21fc1b01a387","system_id":"levelo_inurba_marseille","lat":43.30079,"lon":5.37242,"is_reserved":false,"is_disabled":false,"rental_uris":{"android":"levelo://app?vid=21c61b3f-2ae1-41ed-96e8-21fc1b01a387","ios":"levelo://app?vid=21c61b3f-2ae1-41ed-96e8-21fc1b01a387"},"vehicle_type_id":"4","last_reported":1733418498,"current_range_meters":15200,"station_id":"","pricing_plan_id":"cebpf4jnsgd1na2vs0mg"},{"bike_id":"f51684b7-fd29-4622-9efb-7a87c0a48d7b","system_id":"levelo_inurba_marseille","lat":43.24391,"lon":5.37059,"is_reserved":false,"is_disabled":true,"rental_uris":{"android":"levelo://app?vid=f51684b7-fd29-4622-9efb-7a87c0a48d7b","ios":"levelo://app?vid=f51684b7-fd29-4622-9efb-7a87c0a48d7b"},"vehicle_type_id":"4","last_reported":1733418498,"current_range_meters":28400,"station_id":"ce4bhhh2rcd13ifvqfk0","pricing_plan_id":"cebpf4jnsgd1na2vs0mg"},{"bike_id":"4d90e0ba-c6c1-423d-bf82-7dea9286bc10","system_id":"levelo_inurba_marseille","lat":43.29971,"lon":5.38493,"is_reserved":false,"is_disabled":true,"rental_uris":{"android":"levelo://app?vid=4d90e0ba-c6c1-423d-bf82-7dea9286bc10","ios":"levelo://app?vid=4d90e0ba-c6c1-423d-bf82-7dea9286bc10"},"vehicle_type_id":"4","last_reported":1733418498,"current_range_meters":0,"station_id":"ce4bgj92rcd13ifvqbd0","pricing_plan_id":"cebpf4jnsgd1na2vs0mg"},{"bike_id":"3a9149f3-357c-4d0a-859b-18382ef024a5","system_id":"levelo_inurba_marseille","lat":43.32112,"lon":5.36769,"is_reserved":false,"is_disabled":false,"rental_uris":{"android":"levelo://app?vid=3a9149f3-357c-4d0a-859b-18382ef024a5","ios":"levelo://app?vid=3a9149f3-357c-4d0a-859b-18382ef024a5"},"vehicle_type_id":"4","last_reported":1733418498,"current_range_meters":23200,"station_id":"ce4bhrh2rcd13ifvqhug","pricing_plan_id":"cebpf4jnsgd1na2vs0mg"},{"bike_id":"bbcbfa71-d8f5-4b8e-9040-d67356b9ece4","system_id":"levelo_inurba_marseille","lat":43.31381,"lon":5.38515,"is_reserved":false,"is_disabled":true,"rental_uris":{"android":"levelo://app?vid=bbcbfa71-d8f5-4b8e-9040-d67356b9ece4","ios":"levelo://app?vid=bbcbfa71-d8f5-4b8e-9040-d67356b9ece4"},"vehicle_type_id":"4","last_reported":1733418498,"current_range_meters":10000,"station_id":"ce4bgt92rcd13ifvqcf0","pricing_plan_id":"cebpf4jnsgd1na2vs0mg"},{"bike_id":"0033c9da-6e52-4037-a046-604d37b38d68","system_id":"levelo_inurba_marseille","lat":43.30418,"lon":5.39736,"is_reserved":false,"is_disabled":false,"rental_uris":{"android":"levelo://app?vid=0033c9da-6e52-4037-a046-604d37b38d68","ios":"levelo://app?vid=0033c9da-6e52-4037-a046-604d37b38d68"},"vehicle_type_id":"4","last_reported":1733418498,"current_range_meters":27600,"station_id":"ce4bh092rcd13ifvqd20","pricing_plan_id":"cebpf4jnsgd1na2vs0mg"},{"bike_id":"721f5feb-b378-4dac-af39-7801c98d73b6","system_id":"levelo_inurba_marseille","lat":43.30151,"lon":5.38102,"is_reserved":false,"is_disabled":true,"rental_uris":{"android":"levelo://app?vid=721f5feb-b378-4dac-af39-7801c98d73b6","ios":"levelo://app?vid=721f5feb-b378-4dac-af39-7801c98d73b6"},"vehicle_type_id":"4","last_reported":1733418498,"current_range_meters":0,"station_id":"ce4bgjp2rcd13ifvqbh0","pricing_plan_id":"cebpf4jnsgd1na2vs0mg"},{"bike_id":"da6a7a1d-e653-4950-af8c-8137b06f7d40","system_id":"levelo_inurba_marseille","lat":43.3004,"lon":5.37551,"is_reserved":false,"is_disabled":true,"rental_uris":{"android":"levelo://app?vid=da6a7a1d-e653-4950-af8c-8137b06f7d40","ios":"levelo://app?vid=da6a7a1d-e653-4950-af8c-8137b06f7d40"},"vehicle_type_id":"4","last_reported":1733418498,"current_range_meters":0,"station_id":"","pricing_plan_id":"cebpf4jnsgd1na2vs0mg"},{"bike_id":"b1ce4e53-59d1-4dc6-bd81-38e823b0b8a9","system_id":"levelo_inurba_marseille","lat":43.29422,"lon":5.38617,"is_reserved":false,"is_disabled":true,"rental_uris":{"android":"levelo://app?vid=b1ce4e53-59d1-4dc6-bd81-38e823b0b8a9","ios":"levelo://app?vid=b1ce4e53-59d1-4dc6-bd81-38e823b0b8a9"},"vehicle_type_id":"4","last_reported":1733418498,"current_range_meters":0,"station_id":"ce4bh2h2rcd13ifvqdh0","pricing_plan_id":"cebpf4jnsgd1na2vs0mg"},{"bike_id":"055f094c-d378-4f0a-bb86-072811811d59","system_id":"levelo_inurba_marseille","lat":43.2598,"lon":5.40881,"is_reserved":false,"is_disabled":false,"rental_uris":{"android":"levelo://app?vid=055f094c-d378-4f0a-bb86-072811811d59","ios":"levelo://app?vid=055f094c-d378-4f0a-bb86-072811811d59"},"vehicle_type_id":"4","last_reported":1733418498,"current_range_meters":36400,"station_id":"","pricing_plan_id":"cebpf4jnsgd1na2vs0mg"},{"bike_id":"b15b6b5e-bf26-4345-8946-14181dc7ac5b","system_id":"levelo_inurba_marseille","lat":43.25117,"lon":5.40321,"is_reserved":false,"is_disabled":false,"rental_uris":{"android":"levelo://app?vid=b15b6b5e-bf26-4345-8946-14181dc7ac5b","ios":"levelo://app?vid=b15b6b5e-bf26-4345-8946-14181dc7ac5b"},"vehicle_type_id":"4","last_reported":1733418498,"current_range_meters":5600,"station_id":"ce4bhlh2rcd13ifvqgig","pricing_plan_id":"cebpf4jnsgd1na2vs0mg"},{"bike_id":"5995b7eb-9ce2-4d44-9856-d7288f9aabac","system_id":"levelo_inurba_marseille","lat":43.2944,"lon":5.3975,"is_reserved":false,"is_disabled":false,"rental_uris":{"android":"levelo://app?vid=5995b7eb-9ce2-4d44-9856-d7288f9aabac","ios":"levelo://app?vid=5995b7eb-9ce2-4d44-9856-d7288f9aabac"},"vehicle_type_id":"4","last_reported":1733418498,"current_range_meters":30800,"station_id":"ce4bh3h2rcd13ifvqdo0","pricing_plan_id":"cebpf4jnsgd1na2vs0mg"},{"bike_id":"92ed939d-9f8c-4236-9279-7942f7a4f374","system_id":"levelo_inurba_marseille","lat":43.28611,"lon":5.35099,"is_reserved":false,"is_disabled":false,"rental_uris":{"android":"levelo://app?vid=92ed939d-9f8c-4236-9279-7942f7a4f374","ios":"levelo://app?vid=92ed939d-9f8c-4236-9279-7942f7a4f374"},"vehicle_type_id":"4","last_reported":1733418498,"current_range_meters":3200,"station_id":"ce4bhch2rcd13ifvqeug","pricing_plan_id":"cebpf4jnsgd1na2vs0mg"},{"bike_id":"6fe4db7d-3743-476d-8b88-f6d5793618b2","system_id":"levelo_inurba_marseille","lat":43.28933,"lon":5.36401,"is_reserved":false,"is_disabled":false,"rental_uris":{"android":"levelo://app?vid=6fe4db7d-3743-476d-8b88-f6d5793618b2","ios":"levelo://app?vid=6fe4db7d-3743-476d-8b88-f6d5793618b2"},"vehicle_type_id":"4","last_reported":1733418498,"current_range_meters":18000,"station_id":"ce4bhc92rcd13ifvqetg","pricing_plan_id":"cebpf4jnsgd1na2vs0mg"},{"bike_id":"53fd0abe-c31d-4aa7-a8e5-f86ede39f6ab","system_id":"levelo_inurba_marseille","lat":43.29934,"lon":5.36541,"is_reserved":false,"is_disabled":false,"rental_uris":{"android":"levelo://app?vid=53fd0abe-c31d-4aa7-a8e5-f86ede39f6ab","ios":"levelo://app?vid=53fd0abe-c31d-4aa7-a8e5-f86ede39f6ab"},"vehicle_type_id":"4","last_reported":1733418498,"current_range_meters":23200,"station_id":"ce4bgm92rcd13ifvqbr0","pricing_plan_id":"cebpf4jnsgd1na2vs0mg"},{"bike_id":"2db7f5fd-afd5-494c-99fe-e965dfdef234","system_id":"levelo_inurba_marseille","lat":43.32483,"lon":5.365748,"is_reserved":false,"is_disabled":false,"rental_uris":{"android":"levelo://app?vid=2db7f5fd-afd5-494c-99fe-e965dfdef234","ios":"levelo://app?vid=2db7f5fd-afd5-494c-99fe-e965dfdef234"},"vehicle_type_id":"4","last_reported":1733418498,"current_range_meters":36800,"station_id":"ce4bhs12rcd13ifvqhvg","pricing_plan_id":"cebpf4jnsgd1na2vs0mg"},{"bike_id":"b983f700-39e1-418f-84a3-1c3c95a84b96","system_id":"levelo_inurba_marseille","lat":43.33768,"lon":5.37496,"is_reserved":false,"is_disabled":false,"rental_uris":{"android":"levelo://app?vid=b983f700-39e1-418f-84a3-1c3c95a84b96","ios":"levelo://app?vid=b983f700-39e1-418f-84a3-1c3c95a84b96"},"vehicle_type_id":"4","last_reported":1733418498,"current_range_meters":37600,"station_id":"","pricing_plan_id":"cebpf4jnsgd1na2vs0mg"},{"bike_id":"30de221a-4ae9-44c8-af60-f5843b67f535","system_id":"levelo_inurba_marseille","lat":43.337444,"lon":5.374475,"is_reserved":false,"is_disabled":false,"rental_uris":{"android":"levelo://app?vid=30de221a-4ae9-44c8-af60-f5843b67f535","ios":"levelo://app?vid=30de221a-4ae9-44c8-af60-f5843b67f535"},"vehicle_type_id":"4","last_reported":1733418498,"current_range_meters":37600,"station_id":"","pricing_plan_id":"cebpf4jnsgd1na2vs0mg"},{"bike_id":"c99bf94b-9719-40fe-aadd-c65d3ddffbae","system_id":"levelo_inurba_marseille","lat":43.28431,"lon":5.39217,"is_reserved":false,"is_disabled":false,"rental_uris":{"android":"levelo://app?vid=c99bf94b-9719-40fe-aadd-c65d3ddffbae","ios":"levelo://app?vid=c99bf94b-9719-40fe-aadd-c65d3ddffbae"},"vehicle_type_id":"4","last_reported":1733418498,"current_range_meters":30800,"station_id":"ce4bhoh2rcd13ifvqh5g","pricing_plan_id":"cebpf4jnsgd1na2vs0mg"},{"bike_id":"57e1d7cb-12a3-41fd-b677-5990b01609b9","system_id":"levelo_inurba_marseille","lat":43.25825,"lon":5.39431,"is_reserved":false,"is_disabled":false,"rental_uris":{"android":"levelo://app?vid=57e1d7cb-12a3-41fd-b677-5990b01609b9","ios":"levelo://app?vid=57e1d7cb-12a3-41fd-b677-5990b01609b9"},"vehicle_type_id":"4","last_reported":1733418498,"current_range_meters":36400,"station_id":"ce4bhip2rcd13ifvqft0","pricing_plan_id":"cebpf4jnsgd1na2vs0mg"},{"bike_id":"fb1dfb48-9c9f-4cba-990b-cb8a433a009c","system_id":"levelo_inurba_marseille","lat":43.3003,"lon":5.40168,"is_reserved":false,"is_disabled":true,"rental_uris":{"android":"levelo://app?vid=fb1dfb48-9c9f-4cba-990b-cb8a433a009c","ios":"levelo://app?vid=fb1dfb48-9c9f-4cba-990b-cb8a433a009c"},"vehicle_type_id":"4","last_reported":1733418498,"current_range_meters":0,"station_id":"ce4bgrp2rcd13ifvqc9g","pricing_plan_id":"cebpf4jnsgd1na2vs0mg"},{"bike_id":"14a7634f-2c63-4372-8288-df8c18aa2742","system_id":"levelo_inurba_marseille","lat":43.29894,"lon":5.43667,"is_reserved":false,"is_disabled":true,"rental_uris":{"android":"levelo://app?vid=14a7634f-2c63-4372-8288-df8c18aa2742","ios":"levelo://app?vid=14a7634f-2c63-4372-8288-df8c18aa2742"},"vehicle_type_id":"4","last_reported":1733418498,"current_range_meters":0,"station_id":"ce4bhpp2rcd13ifvqhfg","pricing_plan_id":"cebpf4jnsgd1na2vs0mg"},{"bike_id":"5ee984fd-ad4a-4905-a134-6c56ecba5028","system_id":"levelo_inurba_marseille","lat":43.32482,"lon":5.36575,"is_reserved":false,"is_disabled":false,"rental_uris":{"android":"levelo://app?vid=5ee984fd-ad4a-4905-a134-6c56ecba5028","ios":"levelo://app?vid=5ee984fd-ad4a-4905-a134-6c56ecba5028"},"vehicle_type_id":"4","last_reported":1733418498,"current_range_meters":20400,"station_id":"ce4bhs12rcd13ifvqhvg","pricing_plan_id":"cebpf4jnsgd1na2vs0mg"},{"bike_id":"bae1c42b-8a08-4a08-aca3-4c99b9020d1a","system_id":"levelo_inurba_marseille","lat":43.30613,"lon":5.37221,"is_reserved":false,"is_disabled":false,"rental_uris":{"android":"levelo://app?vid=bae1c42b-8a08-4a08-aca3-4c99b9020d1a","ios":"levelo://app?vid=bae1c42b-8a08-4a08-aca3-4c99b9020d1a"},"vehicle_type_id":"4","last_reported":1733418498,"current_range_meters":6000,"station_id":"ce4bgqh2rcd13ifvqc4g","pricing_plan_id":"cebpf4jnsgd1na2vs0mg"},{"bike_id":"7714ce30-465c-426d-9621-0f0245a19ff8","system_id":"levelo_inurba_marseille","lat":43.2718,"lon":5.41,"is_reserved":false,"is_disabled":false,"rental_uris":{"android":"levelo://app?vid=7714ce30-465c-426d-9621-0f0245a19ff8","ios":"levelo://app?vid=7714ce30-465c-426d-9621-0f0245a19ff8"},"vehicle_type_id":"4","last_reported":1733418498,"current_range_meters":26000,"station_id":"ce4bhl12rcd13ifvqgf0","pricing_plan_id":"cebpf4jnsgd1na2vs0mg"},{"bike_id":"4a2552fb-fc34-4622-908e-9d7b39eeb28a","system_id":"levelo_inurba_marseille","lat":43.33024,"lon":5.39041,"is_reserved":false,"is_disabled":false,"rental_uris":{"android":"levelo://app?vid=4a2552fb-fc34-4622-908e-9d7b39eeb28a","ios":"levelo://app?vid=4a2552fb-fc34-4622-908e-9d7b39eeb28a"},"vehicle_type_id":"4","last_reported":1733418498,"current_range_meters":11600,"station_id":"ce4bhr92rcd13ifvqhrg","pricing_plan_id":"cebpf4jnsgd1na2vs0mg"},{"bike_id":"d4a30345-f58f-484e-baba-eabe2301125a","system_id":"levelo_inurba_marseille","lat":43.31542,"lon":5.38047,"is_reserved":false,"is_disabled":false,"rental_uris":{"android":"levelo://app?vid=d4a30345-f58f-484e-baba-eabe2301125a","ios":"levelo://app?vid=d4a30345-f58f-484e-baba-eabe2301125a"},"vehicle_type_id":"4","last_reported":1733418498,"current_range_meters":2800,"station_id":"ce4bhsp2rcd13ifvqi50","pricing_plan_id":"cebpf4jnsgd1na2vs0mg"},{"bike_id":"914e2da6-b203-455d-bab7-6e3debbf268a","system_id":"levelo_inurba_marseille","lat":43.26572,"lon":5.37287,"is_reserved":false,"is_disabled":false,"rental_uris":{"android":"levelo://app?vid=914e2da6-b203-455d-bab7-6e3debbf268a","ios":"levelo://app?vid=914e2da6-b203-455d-bab7-6e3debbf268a"},"vehicle_type_id":"4","last_reported":1733418498,"current_range_meters":14800,"station_id":"ce4bhg12rcd13ifvqf70","pricing_plan_id":"cebpf4jnsgd1na2vs0mg"},{"bike_id":"cd830f02-9a1a-4a45-b43d-4f9c4cb35b55","system_id":"levelo_inurba_marseille","lat":43.26064,"lon":5.39393,"is_reserved":false,"is_disabled":true,"rental_uris":{"android":"levelo://app?vid=cd830f02-9a1a-4a45-b43d-4f9c4cb35b55","ios":"levelo://app?vid=cd830f02-9a1a-4a45-b43d-4f9c4cb35b55"},"vehicle_type_id":"4","last_reported":1733418498,"current_range_meters":800,"station_id":"ce4bhh92rcd13ifvqfj0","pricing_plan_id":"cebpf4jnsgd1na2vs0mg"},{"bike_id":"eaba7670-b58d-4da3-98e2-9aa758641e7c","system_id":"levelo_inurba_marseille","lat":43.29575,"lon":5.39963,"is_reserved":false,"is_disabled":true,"rental_uris":{"android":"levelo://app?vid=eaba7670-b58d-4da3-98e2-9aa758641e7c","ios":"levelo://app?vid=eaba7670-b58d-4da3-98e2-9aa758641e7c"},"vehicle_type_id":"4","last_reported":1733418498,"current_range_meters":0,"station_id":"ce4bh312rcd13ifvqdj0","pricing_plan_id":"cebpf4jnsgd1na2vs0mg"},{"bike_id":"4c6263e6-43a9-43c7-a60f-6e2e365642b6","system_id":"levelo_inurba_marseille","lat":43.29027,"lon":5.38637,"is_reserved":false,"is_disabled":false,"rental_uris":{"android":"levelo://app?vid=4c6263e6-43a9-43c7-a60f-6e2e365642b6","ios":"levelo://app?vid=4c6263e6-43a9-43c7-a60f-6e2e365642b6"},"vehicle_type_id":"4","last_reported":1733418498,"current_range_meters":9200,"station_id":"ce4bh4p2rcd13ifvqe0g","pricing_plan_id":"cebpf4jnsgd1na2vs0mg"},{"bike_id":"88bbbd9a-2e57-43a7-8c20-1c3051f744f2","system_id":"levelo_inurba_marseille","lat":43.29297,"lon":5.37454,"is_reserved":false,"is_disabled":false,"rental_uris":{"android":"levelo://app?vid=88bbbd9a-2e57-43a7-8c20-1c3051f744f2","ios":"levelo://app?vid=88bbbd9a-2e57-43a7-8c20-1c3051f744f2"},"vehicle_type_id":"4","last_reported":1733418498,"current_range_meters":8000,"station_id":"ce4bgi12rcd13ifvqb70","pricing_plan_id":"cebpf4jnsgd1na2vs0mg"},{"bike_id":"be8cd377-bf58-414c-876c-45495911bc5b","system_id":"levelo_inurba_marseille","lat":43.2868,"lon":5.41087,"is_reserved":false,"is_disabled":true,"rental_uris":{"android":"levelo://app?vid=be8cd377-bf58-414c-876c-45495911bc5b","ios":"levelo://app?vid=be8cd377-bf58-414c-876c-45495911bc5b"},"vehicle_type_id":"4","last_reported":1733418498,"current_range_meters":4400,"station_id":"","pricing_plan_id":"cebpf4jnsgd1na2vs0mg"},{"bike_id":"f40b62bf-c280-4518-a3f4-b31c36526f6a","system_id":"levelo_inurba_marseille","lat":43.312033,"lon":5.375087,"is_reserved":false,"is_disabled":false,"rental_uris":{"android":"levelo://app?vid=f40b62bf-c280-4518-a3f4-b31c36526f6a","ios":"levelo://app?vid=f40b62bf-c280-4518-a3f4-b31c36526f6a"},"vehicle_type_id":"4","last_reported":1733418498,"current_range_meters":23200,"station_id":"","pricing_plan_id":"cebpf4jnsgd1na2vs0mg"},{"bike_id":"0770995c-964d-42cb-80de-55f4fd5ee79a","system_id":"levelo_inurba_marseille","lat":43.337444,"lon":5.374475,"is_reserved":false,"is_disabled":false,"rental_uris":{"android":"levelo://app?vid=0770995c-964d-42cb-80de-55f4fd5ee79a","ios":"levelo://app?vid=0770995c-964d-42cb-80de-55f4fd5ee79a"},"vehicle_type_id":"4","last_reported":1733418498,"current_range_meters":22400,"station_id":"","pricing_plan_id":"cebpf4jnsgd1na2vs0mg"},{"bike_id":"20e9db8d-d68b-4418-94af-d9d63f8c2b96","system_id":"levelo_inurba_marseille","lat":43.337444,"lon":5.374475,"is_reserved":false,"is_disabled":true,"rental_uris":{"android":"levelo://app?vid=20e9db8d-d68b-4418-94af-d9d63f8c2b96","ios":"levelo://app?vid=20e9db8d-d68b-4418-94af-d9d63f8c2b96"},"vehicle_type_id":"4","last_reported":1733418498,"current_range_meters":0,"station_id":"","pricing_plan_id":"cebpf4jnsgd1na2vs0mg"},{"bike_id":"88bd4630-1684-48a2-b33a-f80d98b6825f","system_id":"levelo_inurba_marseille","lat":43.33756,"lon":5.37433,"is_reserved":false,"is_disabled":false,"rental_uris":{"android":"levelo://app?vid=88bd4630-1684-48a2-b33a-f80d98b6825f","ios":"levelo://app?vid=88bd4630-1684-48a2-b33a-f80d98b6825f"},"vehicle_type_id":"4","last_reported":1733418498,"current_range_meters":34800,"station_id":"","pricing_plan_id":"cebpf4jnsgd1na2vs0mg"},{"bike_id":"ab74d258-8d56-4ed9-9cb7-57ae1639ee73","system_id":"levelo_inurba_marseille","lat":43.26312,"lon":5.40146,"is_reserved":false,"is_disabled":true,"rental_uris":{"android":"levelo://app?vid=ab74d258-8d56-4ed9-9cb7-57ae1639ee73","ios":"levelo://app?vid=ab74d258-8d56-4ed9-9cb7-57ae1639ee73"},"vehicle_type_id":"4","last_reported":1733418498,"current_range_meters":0,"station_id":"","pricing_plan_id":"cebpf4jnsgd1na2vs0mg"},{"bike_id":"0277c2d2-95b6-4983-bfea-df2c7f79aa2f","system_id":"levelo_inurba_marseille","lat":43.26566,"lon":5.38997,"is_reserved":false,"is_disabled":true,"rental_uris":{"android":"levelo://app?vid=0277c2d2-95b6-4983-bfea-df2c7f79aa2f","ios":"levelo://app?vid=0277c2d2-95b6-4983-bfea-df2c7f79aa2f"},"vehicle_type_id":"4","last_reported":1733418498,"current_range_meters":0,"station_id":"ce4bhe12rcd13ifvqf30","pricing_plan_id":"cebpf4jnsgd1na2vs0mg"},{"bike_id":"c343aaef-49c9-4d9f-90f2-6b006117260b","system_id":"levelo_inurba_marseille","lat":43.29806,"lon":5.4041,"is_reserved":false,"is_disabled":false,"rental_uris":{"android":"levelo://app?vid=c343aaef-49c9-4d9f-90f2-6b006117260b","ios":"levelo://app?vid=c343aaef-49c9-4d9f-90f2-6b006117260b"},"vehicle_type_id":"4","last_reported":1733418498,"current_range_meters":38800,"station_id":"ce4bh112rcd13ifvqd90","pricing_plan_id":"cebpf4jnsgd1na2vs0mg"},{"bike_id":"aa4b2dca-368d-488a-900a-14afe22f54ac","system_id":"levelo_inurba_marseille","lat":43.301386,"lon":5.380698,"is_reserved":false,"is_disabled":false,"rental_uris":{"android":"levelo://app?vid=aa4b2dca-368d-488a-900a-14afe22f54ac","ios":"levelo://app?vid=aa4b2dca-368d-488a-900a-14afe22f54ac"},"vehicle_type_id":"4","last_reported":1733418498,"current_range_meters":25600,"station_id":"ce4bgjp2rcd13ifvqbh0","pricing_plan_id":"cebpf4jnsgd1na2vs0mg"},{"bike_id":"f6f6210d-5e07-46dd-93e4-3e102dd7cb0e","system_id":"levelo_inurba_marseille","lat":43.29396,"lon":5.38889,"is_reserved":false,"is_disabled":false,"rental_uris":{"android":"levelo://app?vid=f6f6210d-5e07-46dd-93e4-3e102dd7cb0e","ios":"levelo://app?vid=f6f6210d-5e07-46dd-93e4-3e102dd7cb0e"},"vehicle_type_id":"4","last_reported":1733418498,"current_range_meters":6800,"station_id":"","pricing_plan_id":"cebpf4jnsgd1na2vs0mg"},{"bike_id":"5171da7f-7b69-4fa9-a5ac-912417b93cef","system_id":"levelo_inurba_marseille","lat":43.23065,"lon":5.35493,"is_reserved":false,"is_disabled":false,"rental_uris":{"android":"levelo://app?vid=5171da7f-7b69-4fa9-a5ac-912417b93cef","ios":"levelo://app?vid=5171da7f-7b69-4fa9-a5ac-912417b93cef"},"vehicle_type_id":"4","last_reported":1733418498,"current_range_meters":28800,"station_id":"cpo3342slgdg3j2ifvpg","pricing_plan_id":"cebpf4jnsgd1na2vs0mg"},{"bike_id":"0b174a84-3fa7-4d5b-922f-83f570d65adb","system_id":"levelo_inurba_marseille","lat":43.28115,"lon":5.43914,"is_reserved":false,"is_disabled":false,"rental_uris":{"android":"levelo://app?vid=0b174a84-3fa7-4d5b-922f-83f570d65adb","ios":"levelo://app?vid=0b174a84-3fa7-4d5b-922f-83f570d65adb"},"vehicle_type_id":"4","last_reported":1733418498,"current_range_meters":23200,"station_id":"","pricing_plan_id":"cebpf4jnsgd1na2vs0mg"},{"bike_id":"ffd97830-3797-4308-8806-e928f352dfdd","system_id":"levelo_inurba_marseille","lat":43.3031,"lon":5.36893,"is_reserved":false,"is_disabled":false,"rental_uris":{"android":"levelo://app?vid=ffd97830-3797-4308-8806-e928f352dfdd","ios":"levelo://app?vid=ffd97830-3797-4308-8806-e928f352dfdd"},"vehicle_type_id":"4","last_reported":1733418498,"current_range_meters":19200,"station_id":"ce4bgqh2rcd13ifvqc5g","pricing_plan_id":"cebpf4jnsgd1na2vs0mg"},{"bike_id":"590a9c91-8e3d-4f61-b27c-9fa75cb41e7a","system_id":"levelo_inurba_marseille","lat":43.27931,"lon":5.41043,"is_reserved":false,"is_disabled":false,"rental_uris":{"android":"levelo://app?vid=590a9c91-8e3d-4f61-b27c-9fa75cb41e7a","ios":"levelo://app?vid=590a9c91-8e3d-4f61-b27c-9fa75cb41e7a"},"vehicle_type_id":"4","last_reported":1733418498,"current_range_meters":35200,"station_id":"ce4bhnp2rcd13ifvqh0g","pricing_plan_id":"cebpf4jnsgd1na2vs0mg"},{"bike_id":"21407a39-8646-4c4c-984f-58ccb2eb17f7","system_id":"levelo_inurba_marseille","lat":43.28153,"lon":5.42644,"is_reserved":false,"is_disabled":false,"rental_uris":{"android":"levelo://app?vid=21407a39-8646-4c4c-984f-58ccb2eb17f7","ios":"levelo://app?vid=21407a39-8646-4c4c-984f-58ccb2eb17f7"},"vehicle_type_id":"4","last_reported":1733418498,"current_range_meters":4000,"station_id":"ce4bhnh2rcd13ifvqgug","pricing_plan_id":"cebpf4jnsgd1na2vs0mg"},{"bike_id":"f9d0686c-a73f-4db3-b9b7-7340fbe48511","system_id":"levelo_inurba_marseille","lat":43.28634,"lon":5.383536,"is_reserved":false,"is_disabled":false,"rental_uris":{"android":"levelo://app?vid=f9d0686c-a73f-4db3-b9b7-7340fbe48511","ios":"levelo://app?vid=f9d0686c-a73f-4db3-b9b7-7340fbe48511"},"vehicle_type_id":"4","last_reported":1733418498,"current_range_meters":14800,"station_id":"ce4bh512rcd13ifvqe3g","pricing_plan_id":"cebpf4jnsgd1na2vs0mg"},{"bike_id":"1a880cb0-8771-4dfb-85d1-e92111b369c9","system_id":"levelo_inurba_marseille","lat":43.29439,"lon":5.39757,"is_reserved":false,"is_disabled":false,"rental_uris":{"android":"levelo://app?vid=1a880cb0-8771-4dfb-85d1-e92111b369c9","ios":"levelo://app?vid=1a880cb0-8771-4dfb-85d1-e92111b369c9"},"vehicle_type_id":"4","last_reported":1733418498,"current_range_meters":4800,"station_id":"ce4bh3h2rcd13ifvqdo0","pricing_plan_id":"cebpf4jnsgd1na2vs0mg"},{"bike_id":"ab4c21d4-a275-4527-bec0-e4890ed042ae","system_id":"levelo_inurba_marseille","lat":43.29671,"lon":5.36883,"is_reserved":false,"is_disabled":true,"rental_uris":{"android":"levelo://app?vid=ab4c21d4-a275-4527-bec0-e4890ed042ae","ios":"levelo://app?vid=ab4c21d4-a275-4527-bec0-e4890ed042ae"},"vehicle_type_id":"4","last_reported":1733418498,"current_range_meters":0,"station_id":"","pricing_plan_id":"cebpf4jnsgd1na2vs0mg"},{"bike_id":"d4ed0ca9-19dd-47ae-8fe9-293ff2ae1458","system_id":"levelo_inurba_marseille","lat":43.337444,"lon":5.374475,"is_reserved":false,"is_disabled":false,"rental_uris":{"android":"levelo://app?vid=d4ed0ca9-19dd-47ae-8fe9-293ff2ae1458","ios":"levelo://app?vid=d4ed0ca9-19dd-47ae-8fe9-293ff2ae1458"},"vehicle_type_id":"4","last_reported":1733418498,"current_range_meters":36400,"station_id":"","pricing_plan_id":"cebpf4jnsgd1na2vs0mg"},{"bike_id":"0fc7856d-3865-4209-9c37-bddcf2feee66","system_id":"levelo_inurba_marseille","lat":43.25496,"lon":5.37653,"is_reserved":false,"is_disabled":false,"rental_uris":{"android":"levelo://app?vid=0fc7856d-3865-4209-9c37-bddcf2feee66","ios":"levelo://app?vid=0fc7856d-3865-4209-9c37-bddcf2feee66"},"vehicle_type_id":"4","last_reported":1733418498,"current_range_meters":11600,"station_id":"ce4bhh12rcd13ifvqff0","pricing_plan_id":"cebpf4jnsgd1na2vs0mg"},{"bike_id":"920bba89-8491-4c18-9cb7-fa5f0d8bb282","system_id":"levelo_inurba_marseille","lat":43.29895,"lon":5.38139,"is_reserved":false,"is_disabled":false,"rental_uris":{"android":"levelo://app?vid=920bba89-8491-4c18-9cb7-fa5f0d8bb282","ios":"levelo://app?vid=920bba89-8491-4c18-9cb7-fa5f0d8bb282"},"vehicle_type_id":"4","last_reported":1733418498,"current_range_meters":6400,"station_id":"ce4bgj12rcd13ifvqbc0","pricing_plan_id":"cebpf4jnsgd1na2vs0mg"},{"bike_id":"e74e2d3c-1c09-47f7-a534-974f9dc27165","system_id":"levelo_inurba_marseille","lat":43.26217,"lon":5.3744,"is_reserved":false,"is_disabled":false,"rental_uris":{"android":"levelo://app?vid=e74e2d3c-1c09-47f7-a534-974f9dc27165","ios":"levelo://app?vid=e74e2d3c-1c09-47f7-a534-974f9dc27165"},"vehicle_type_id":"4","last_reported":1733418498,"current_range_meters":38800,"station_id":"ce4bhgp2rcd13ifvqfc0","pricing_plan_id":"cebpf4jnsgd1na2vs0mg"},{"bike_id":"3b9c8bbc-6a8a-4909-b3b4-5a2817261cc5","system_id":"levelo_inurba_marseille","lat":43.24183,"lon":5.39719,"is_reserved":false,"is_disabled":false,"rental_uris":{"android":"levelo://app?vid=3b9c8bbc-6a8a-4909-b3b4-5a2817261cc5","ios":"levelo://app?vid=3b9c8bbc-6a8a-4909-b3b4-5a2817261cc5"},"vehicle_type_id":"4","last_reported":1733418498,"current_range_meters":38400,"station_id":"ce4bhn12rcd13ifvqgpg","pricing_plan_id":"cebpf4jnsgd1na2vs0mg"},{"bike_id":"f7e0f85b-df2d-488b-8e46-1cfe25a71773","system_id":"levelo_inurba_marseille","lat":43.32358,"lon":5.36751,"is_reserved":false,"is_disabled":false,"rental_uris":{"android":"levelo://app?vid=f7e0f85b-df2d-488b-8e46-1cfe25a71773","ios":"levelo://app?vid=f7e0f85b-df2d-488b-8e46-1cfe25a71773"},"vehicle_type_id":"4","last_reported":1733418498,"current_range_meters":27200,"station_id":"ce4bhsh2rcd13ifvqi2g","pricing_plan_id":"cebpf4jnsgd1na2vs0mg"},{"bike_id":"44ba2c54-ba0c-4e71-8a0d-9b508d8b599a","system_id":"levelo_inurba_marseille","lat":43.29605,"lon":5.37726,"is_reserved":false,"is_disabled":false,"rental_uris":{"android":"levelo://app?vid=44ba2c54-ba0c-4e71-8a0d-9b508d8b599a","ios":"levelo://app?vid=44ba2c54-ba0c-4e71-8a0d-9b508d8b599a"},"vehicle_type_id":"4","last_reported":1733418498,"current_range_meters":20400,"station_id":"ce4bgi92rcd13ifvqb90","pricing_plan_id":"cebpf4jnsgd1na2vs0mg"},{"bike_id":"6a339f6e-3497-4100-b71e-3d107603726b","system_id":"levelo_inurba_marseille","lat":43.27185,"lon":5.40996,"is_reserved":false,"is_disabled":false,"rental_uris":{"android":"levelo://app?vid=6a339f6e-3497-4100-b71e-3d107603726b","ios":"levelo://app?vid=6a339f6e-3497-4100-b71e-3d107603726b"},"vehicle_type_id":"4","last_reported":1733418498,"current_range_meters":34000,"station_id":"ce4bhl12rcd13ifvqgf0","pricing_plan_id":"cebpf4jnsgd1na2vs0mg"},{"bike_id":"cfb581f0-3c33-4105-bf85-7b9ce1fe210f","system_id":"levelo_inurba_marseille","lat":43.27839,"lon":5.39205,"is_reserved":false,"is_disabled":false,"rental_uris":{"android":"levelo://app?vid=cfb581f0-3c33-4105-bf85-7b9ce1fe210f","ios":"levelo://app?vid=cfb581f0-3c33-4105-bf85-7b9ce1fe210f"},"vehicle_type_id":"4","last_reported":1733418498,"current_range_meters":3600,"station_id":"ce4bhjp2rcd13ifvqga0","pricing_plan_id":"cebpf4jnsgd1na2vs0mg"},{"bike_id":"c276c730-67c2-465d-b028-810a2f7bce52","system_id":"levelo_inurba_marseille","lat":43.26214,"lon":5.37444,"is_reserved":false,"is_disabled":false,"rental_uris":{"android":"levelo://app?vid=c276c730-67c2-465d-b028-810a2f7bce52","ios":"levelo://app?vid=c276c730-67c2-465d-b028-810a2f7bce52"},"vehicle_type_id":"4","last_reported":1733418498,"current_range_meters":34000,"station_id":"ce4bhgp2rcd13ifvqfc0","pricing_plan_id":"cebpf4jnsgd1na2vs0mg"},{"bike_id":"b8cbc01f-6561-4d43-9a4e-7d90102cf3e2","system_id":"levelo_inurba_marseille","lat":43.25828,"lon":5.39431,"is_reserved":false,"is_disabled":false,"rental_uris":{"android":"levelo://app?vid=b8cbc01f-6561-4d43-9a4e-7d90102cf3e2","ios":"levelo://app?vid=b8cbc01f-6561-4d43-9a4e-7d90102cf3e2"},"vehicle_type_id":"4","last_reported":1733418498,"current_range_meters":11600,"station_id":"ce4bhip2rcd13ifvqft0","pricing_plan_id":"cebpf4jnsgd1na2vs0mg"},{"bike_id":"913127ab-de3a-4e72-a396-f81cca0beeb8","system_id":"levelo_inurba_marseille","lat":43.32339,"lon":5.40624,"is_reserved":false,"is_disabled":false,"rental_uris":{"android":"levelo://app?vid=913127ab-de3a-4e72-a396-f81cca0beeb8","ios":"levelo://app?vid=913127ab-de3a-4e72-a396-f81cca0beeb8"},"vehicle_type_id":"4","last_reported":1733418498,"current_range_meters":3200,"station_id":"ce4bhq92rcd13ifvqhjg","pricing_plan_id":"cebpf4jnsgd1na2vs0mg"},{"bike_id":"e891afe1-f76f-4901-8350-f65392da9760","system_id":"levelo_inurba_marseille","lat":43.2656,"lon":5.37282,"is_reserved":false,"is_disabled":false,"rental_uris":{"android":"levelo://app?vid=e891afe1-f76f-4901-8350-f65392da9760","ios":"levelo://app?vid=e891afe1-f76f-4901-8350-f65392da9760"},"vehicle_type_id":"4","last_reported":1733418498,"current_range_meters":38400,"station_id":"ce4bhg12rcd13ifvqf70","pricing_plan_id":"cebpf4jnsgd1na2vs0mg"},{"bike_id":"1d1bdcec-74e5-401c-b927-5e367eefc9b8","system_id":"levelo_inurba_marseille","lat":43.25002,"lon":5.38923,"is_reserved":false,"is_disabled":false,"rental_uris":{"android":"levelo://app?vid=1d1bdcec-74e5-401c-b927-5e367eefc9b8","ios":"levelo://app?vid=1d1bdcec-74e5-401c-b927-5e367eefc9b8"},"vehicle_type_id":"4","last_reported":1733418498,"current_range_meters":37600,"station_id":"ce4bhgp2rcd13ifvqfd0","pricing_plan_id":"cebpf4jnsgd1na2vs0mg"},{"bike_id":"2dd853f3-975e-41f3-a707-3caab09ca9c3","system_id":"levelo_inurba_marseille","lat":43.337444,"lon":5.374475,"is_reserved":false,"is_disabled":false,"rental_uris":{"android":"levelo://app?vid=2dd853f3-975e-41f3-a707-3caab09ca9c3","ios":"levelo://app?vid=2dd853f3-975e-41f3-a707-3caab09ca9c3"},"vehicle_type_id":"4","last_reported":1733418498,"current_range_meters":26000,"station_id":"","pricing_plan_id":"cebpf4jnsgd1na2vs0mg"},{"bike_id":"b4ff4c3e-f504-48f2-95ba-bebdaf22fd75","system_id":"levelo_inurba_marseille","lat":43.2841,"lon":5.428961,"is_reserved":false,"is_disabled":true,"rental_uris":{"android":"levelo://app?vid=b4ff4c3e-f504-48f2-95ba-bebdaf22fd75","ios":"levelo://app?vid=b4ff4c3e-f504-48f2-95ba-bebdaf22fd75"},"vehicle_type_id":"4","last_reported":1733418498,"current_range_meters":0,"station_id":"","pricing_plan_id":"cebpf4jnsgd1na2vs0mg"},{"bike_id":"7c09f87a-07a2-4931-8ab1-bd2e774ee161","system_id":"levelo_inurba_marseille","lat":43.28476,"lon":5.38414,"is_reserved":false,"is_disabled":true,"rental_uris":{"android":"levelo://app?vid=7c09f87a-07a2-4931-8ab1-bd2e774ee161","ios":"levelo://app?vid=7c09f87a-07a2-4931-8ab1-bd2e774ee161"},"vehicle_type_id":"4","last_reported":1733418498,"current_range_meters":16000,"station_id":"ce4bh512rcd13ifvqe3g","pricing_plan_id":"cebpf4jnsgd1na2vs0mg"},{"bike_id":"a993a65a-5e69-4753-bc80-2275df5621b4","system_id":"levelo_inurba_marseille","lat":43.26206,"lon":5.37922,"is_reserved":false,"is_disabled":false,"rental_uris":{"android":"levelo://app?vid=a993a65a-5e69-4753-bc80-2275df5621b4","ios":"levelo://app?vid=a993a65a-5e69-4753-bc80-2275df5621b4"},"vehicle_type_id":"4","last_reported":1733418498,"current_range_meters":19600,"station_id":"ce4bhjp2rcd13ifvqg90","pricing_plan_id":"cebpf4jnsgd1na2vs0mg"},{"bike_id":"7bea4ae1-1d10-4efb-af6b-c14bc260ab07","system_id":"levelo_inurba_marseille","lat":43.25586,"lon":5.3824,"is_reserved":false,"is_disabled":false,"rental_uris":{"android":"levelo://app?vid=7bea4ae1-1d10-4efb-af6b-c14bc260ab07","ios":"levelo://app?vid=7bea4ae1-1d10-4efb-af6b-c14bc260ab07"},"vehicle_type_id":"4","last_reported":1733418498,"current_range_meters":31200,"station_id":"ce4bhih2rcd13ifvqfs0","pricing_plan_id":"cebpf4jnsgd1na2vs0mg"},