{"last_updated":1700914296,"ttl":30,"version":"2.2","data":{"bikes":[{"bike_id":"82d76360-0d65-4225-9782-1b13de45018f","system_id":"levelo_inurba_marseille","lat":43.312239,"lon":5.368562,"is_reserved":false,"is_disabled":false,"rental_uris":{"android":"levelo://app?vid=82d76360-0d65-4225-9782-1b13de45018f","ios":"levelo://app?vid=82d76360-0d65-4225-9782-1b13de45018f"},"vehicle_type_id":"4","last_reported":1700914296,"current_range_meters":20000,"station_id":"ce4bgl92rcd13ifvqbq0","pricing_plan_id":"free"},{"bike_id":"3dfaedf9-3926-4de5-a33d-aae0fec1aa24","system_id":"levelo_inurba_marseille","lat":43.312239,"lon":5.368562,"is_reserved":false,"is_disabled":false,"rental_uris":{"android":"levelo://app?vid=3dfaedf9-3926-4de5-a33d-aae0fec1aa24","ios":"levelo://app?vid=3dfaedf9-3926-4de5-a33d-aae0fec1aa24"},"vehicle_type_id":"4","last_reported":1700914296,"current_range_meters":8800,"station_id":"ce4bgl92rcd13ifvqbq0","pricing_plan_id":"free"},{"bike_id":"b2b13c1f-a2ba-4e96-89fb-96e57737f2d0","system_id":"levelo_inurba_marseille","lat":43.309039,"lon":5.371797,"is_reserved":false,"is_disabled":false,"rental_uris":{"android":"levelo://app?vid=b2b13c1f-a2ba-4e96-89fb-96e57737f2d0","ios":"levelo://app?vid=b2b13c1f-a2ba-4e96-89fb-96e57737f2d0"},"vehicle_type_id":"4","last_reported":1700914296,"current_range_meters":11200,"station_id":"ce4bguh2rcd13ifvqckg","pricing_plan_id":"free"},{"bike_id":"420bce8a-fbda-49f9-9b49-fbe4695b2bb0","system_id":"levelo_inurba_marseille","lat":43.312239,"lon":5.368562,"is_reserved":false,"is_disabled":false,"rental_uris":{"android":"levelo://app?vid=420bce8a-fbda-49f9-9b49-fbe4695b2bb0","ios":"levelo://app?vid=420bce8a-fbda-49f9-9b49-fbe4695b2bb0"},"vehicle_type_id":"4","last_reported":1700914296,"current_range_meters":22000,"station_id":"ce4bgl92rcd13ifvqbq0","pricing_plan_id":"free"},{"bike_id":"637f8605-bfc9-40a4-93ec-d77ddb085d37","system_id":"levelo_inurba_marseille","lat":43.30541,"lon":5.36693,"is_reserved":false,"is_disabled":false,"rental_uris":{"android":"levelo://app?vid=637f8605-bfc9-40a4-93ec-d77ddb085d37","ios":"levelo://app?vid=637f8605-bfc9-40a4-93ec-d77ddb085d37"},"vehicle_type_id":"4","last_reported":1700914296,"current_range_meters":22400,"station_id":"ce4bgrp2rcd13ifvqc9g","pricing_plan_id":"free"},{"bike_id":"e7f352cb-a592-41d5-a383-6020df60850e","system_id":"levelo_inurba_marseille","lat":43.305396,"lon":5.36704,"is_reserved":false,"is_disabled":false,"rental_uris":{"android":"levelo://app?vid=e7f352cb-a592-41d5-a383-6020df60850e","ios":"levelo://app?vid=e7f352cb-a592-41d5-a383-6020df60850e"},"vehicle_type_id":"4","last_reported":1700914296,"current_range_meters":28000,"station_id":"ce4bgrp2rcd13ifvqc9g","pricing_plan_id":"free"},{"bike_id":"04292301-7fde-4f9a-92f5-9623d9d80b51","system_id":"levelo_inurba_marseille","lat":43.305368,"lon":5.367343,"is_reserved":false,"is_disabled":false,"rental_uris":{"android":"levelo://app?vid=04292301-7fde-4f9a-92f5-9623d9d80b51","ios":"levelo://app?vid=04292301-7fde-4f9a-92f5-9623d9d80b51"},"vehicle_type_id":"4","last_reported":1700914296,"current_range_meters":15600,"station_id":"ce4bgrp2rcd13ifvqc9g","pricing_plan_id":"free"},{"bike_id":"a4ee2296-0ac7-4478-bcd1-0b561fd507c4","system_id":"levelo_inurba_marseille","lat":43.305368,"lon":5.367343,"is_reserved":false,"is_disabled":false,"rental_uris":{"android":"levelo://app?vid=a4ee2296-0ac7-4478-bcd1-0b561fd507c4","ios":"levelo://app?vid=a4ee2296-0ac7-4478-bcd1-0b561fd507c4"},"vehicle_type_id":"4","last_reported":1700914296,"current_range_meters":22000,"station_id":"ce4bgrp2rcd13ifvqc9g","pricing_plan_id":"free"},{"bike_id":"c444348b-b882-41f9-be31-c76d6ffee5b1","system_id":"levelo_inurba_marseille","lat":43.305714,"lon":5.365633,"is_reserved":false,"is_disabled":false,"rental_uris":{"android":"levelo://app?vid=c444348b-b882-41f9-be31-c76d6ffee5b1","ios":"levelo://app?vid=c444348b-b882-41f9-be31-c76d6ffee5b1"},"vehicle_type_id":"4","last_reported":1700914296,"current_range_meters":23600,"station_id":"ce4bgs12rcd13ifvqcag","pricing_plan_id":"free"},{"bike_id":"bcecd54a-f8b9-4f5f-92d9-4e55a142eb88","system_id":"levelo_inurba_marseille","lat":43.305368,"lon":5.367343,"is_reserved":false,"is_disabled":false,"rental_uris":{"android":"levelo://app?vid=bcecd54a-f8b9-4f5f-92d9-4e55a142eb88","ios":"levelo://app?vid=bcecd54a-f8b9-4f5f-92d9-4e55a142eb88"},"vehicle_type_id":"4","last_reported":1700914296,"current_range_meters":15600,"station_id":"ce4bgrp2rcd13ifvqc9g","pricing_plan_id":"free"},{"bike_id":"c5d94666-913b-421a-9fc5-2c86c972000f","system_id":"levelo_inurba_marseille","lat":43.305989,"lon":5.37225,"is_reserved":false,"is_disabled":false,"rental_uris":{"android":"levelo://app?vid=c5d94666-913b-421a-9fc5-2c86c972000f","ios":"levelo://app?vid=c5d94666-913b-421a-9fc5-2c86c972000f"},"vehicle_type_id":"4","last_reported":1700914296,"current_range_meters":13600,"station_id":"ce4bgqh2rcd13ifvqc4g","pricing_plan_id":"free"},{"bike_id":"48d10534-9b40-4dbe-b70f-4a5377e8da28","system_id":"levelo_inurba_marseille","lat":43.305989,"lon":5.37225,"is_reserved":false,"is_disabled":false,"rental_uris":{"android":"levelo://app?vid=48d10534-9b40-4dbe-b70f-4a5377e8da28","ios":"levelo://app?vid=48d10534-9b40-4dbe-b70f-4a5377e8da28"},"vehicle_type_id":"4","last_reported":1700914296,"current_range_meters":19200,"station_id":"ce4bgqh2rcd13ifvqc4g","pricing_plan_id":"free"},{"bike_id":"f0897313-0f1d-4219-81b6-746f53811f15","system_id":"levelo_inurba_marseille","lat":43.304606,"lon":5.379026,"is_reserved":false,"is_disabled":false,"rental_uris":{"android":"levelo://app?vid=f0897313-0f1d-4219-81b6-746f53811f15","ios":"levelo://app?vid=f0897313-0f1d-4219-81b6-746f53811f15"},"vehicle_type_id":"4","last_reported":1700914296,"current_range_meters":11200,"station_id":"ce4bgup2rcd13ifvqcn0","pricing_plan_id":"free"},{"bike_id":"573a870a-b6c4-429d-8587-8103772b84bc","system_id":"levelo_inurba_marseille","lat":43.30824,"lon":5.37657,"is_reserved":false,"is_disabled":false,"rental_uris":{"android":"levelo://app?vid=573a870a-b6c4-429d-8587-8103772b84bc","ios":"levelo://app?vid=573a870a-b6c4-429d-8587-8103772b84bc"},"vehicle_type_id":"4","last_reported":1700914296,"current_range_meters":5200,"station_id":"ce4bgv92rcd13ifvqcq0","pricing_plan_id":"free"},{"bike_id":"f427a2c3-6e4a-446b-ae2f-9be8aa7f4122","system_id":"levelo_inurba_marseille","lat":43.31719,"lon":5.376813,"is_reserved":false,"is_disabled":false,"rental_uris":{"android":"levelo://app?vid=f427a2c3-6e4a-446b-ae2f-9be8aa7f4122","ios":"levelo://app?vid=f427a2c3-6e4a-446b-ae2f-9be8aa7f4122"},"vehicle_type_id":"4","last_reported":1700914296,"current_range_meters":24800,"station_id":"ce4bgth2rcd13ifvqch0","pricing_plan_id":"free"},{"bike_id":"b898b018-f57d-4901-bab2-fdd15d391de9","system_id":"levelo_inurba_marseille","lat":43.317168,"lon":5.376883,"is_reserved":false,"is_disabled":false,"rental_uris":{"android":"levelo://app?vid=b898b018-f57d-4901-bab2-fdd15d391de9","ios":"levelo://app?vid=b898b018-f57d-4901-bab2-fdd15d391de9"},"vehicle_type_id":"4","last_reported":1700914296,"current_range_meters":27200,"station_id":"ce4bgth2rcd13ifvqch0","pricing_plan_id":"free"},{"bike_id":"e7493592-52e0-4962-a5c7-09ba266711e2","system_id":"levelo_inurba_marseille","lat":43.307945,"lon":5.376487,"is_reserved":false,"is_disabled":false,"rental_uris":{"android":"levelo://app?vid=e7493592-52e0-4962-a5c7-09ba266711e2","ios":"levelo://app?vid=e7493592-52e0-4962-a5c7-09ba266711e2"},"vehicle_type_id":"4","last_reported":1700914296,"current_range_meters":20400,"station_id":"ce4bgv92rcd13ifvqcq0","pricing_plan_id":"free"},{"bike_id":"a959278e-801d-4b4c-95ff-ccaddcdfd8b0","system_id":"levelo_inurba_marseille","lat":43.307945,"lon":5.376487,"is_reserved":false,"is_disabled":false,"rental_uris":{"android":"levelo://app?vid=a959278e-801d-4b4c-95ff-ccaddcdfd8b0","ios":"levelo://app?vid=a959278e-801d-4b4c-95ff-ccaddcdfd8b0"},"vehicle_type_id":"4","last_reported":1700914296,"current_range_meters":24800,"station_id":"ce4bgv92rcd13ifvqcq0","pricing_plan_id":"free"},{"bike_id":"63b940f7-19c2-406c-af63-8d2bccc2e4bb","system_id":"levelo_inurba_marseille","lat":43.307945,"lon":5.376487,"is_reserved":false,"is_disabled":false,"rental_uris":{"android":"levelo://app?vid=63b940f7-19c2-406c-af63-8d2bccc2e4bb","ios":"levelo://app?vid=63b940f7-19c2-406c-af63-8d2bccc2e4bb"},"vehicle_type_id":"4","last_reported":1700914296,"current_range_meters":5200,"station_id":"ce4bgv92rcd13ifvqcq0","pricing_plan_id":"free"},{"bike_id":"adbedccf-5cd2-40e8-bde6-9ae2940e92e8","system_id":"levelo_inurba_marseille","lat":43.317075,"lon":5.377367,"is_reserved":false,"is_disabled":false,"rental_uris":{"android":"levelo://app?vid=adbedccf-5cd2-40e8-bde6-9ae2940e92e8","ios":"levelo://app?vid=adbedccf-5cd2-40e8-bde6-9ae2940e92e8"},"vehicle_type_id":"4","last_reported":1700914296,"current_range_meters":24800,"station_id":"ce4bgth2rcd13ifvqch0","pricing_plan_id":"free"},{"bike_id":"d69025b0-8b89-4c4d-be9b-24cc15a18fef","system_id":"levelo_inurba_marseille","lat":43.30272,"lon":5.36906,"is_reserved":false,"is_disabled":false,"rental_uris":{"android":"levelo://app?vid=d69025b0-8b89-4c4d-be9b-24cc15a18fef","ios":"levelo://app?vid=d69025b0-8b89-4c4d-be9b-24cc15a18fef"},"vehicle_type_id":"4","last_reported":1700914296,"current_range_meters":17200,"station_id":"","pricing_plan_id":"free"},{"bike_id":"1611dee5-549d-45c3-b156-2cb059e56e36","system_id":"levelo_inurba_marseille","lat":43.301939,"lon":5.366286,"is_reserved":false,"is_disabled":false,"rental_uris":{"android":"levelo://app?vid=1611dee5-549d-45c3-b156-2cb059e56e36","ios":"levelo://app?vid=1611dee5-549d-45c3-b156-2cb059e56e36"},"vehicle_type_id":"4","last_reported":1700914296,"current_range_meters":23600,"station_id":"ce4bgrh2rcd13ifvqc8g","pricing_plan_id":"free"},{"bike_id":"7017f060-4bbb-4fb2-8128-6246c88fa0e7","system_id":"levelo_inurba_marseille","lat":43.301939,"lon":5.366286,"is_reserved":false,"is_disabled":false,"rental_uris":{"android":"levelo://app?vid=7017f060-4bbb-4fb2-8128-6246c88fa0e7","ios":"levelo://app?vid=7017f060-4bbb-4fb2-8128-6246c88fa0e7"},"vehicle_type_id":"4","last_reported":1700914296,"current_range_meters":26800,"station_id":"ce4bgrh2rcd13ifvqc8g","pricing_plan_id":"free"},{"bike_id":"d4432c19-775c-4c3a-af68-588c98d5f604","system_id":"levelo_inurba_marseille","lat":43.308012,"lon":5.381511,"is_reserved":false,"is_disabled":false,"rental_uris":{"android":"levelo://app?vid=d4432c19-775c-4c3a-af68-588c98d5f604","ios":"levelo://app?vid=d4432c19-775c-4c3a-af68-588c98d5f604"},"vehicle_type_id":"4","last_reported":1700914296,"current_range_meters":22000,"station_id":"ce4bgt12rcd13ifvqce0","pricing_plan_id":"free"},{"bike_id":"3e91d1db-a4db-498d-9364-9191a74bac2c","system_id":"levelo_inurba_marseille","lat":43.30143,"lon":5.37413,"is_reserved":false,"is_disabled":false,"rental_uris":{"android":"levelo://app?vid=3e91d1db-a4db-498d-9364-9191a74bac2c","ios":"levelo://app?vid=3e91d1db-a4db-498d-9364-9191a74bac2c"},"vehicle_type_id":"4","last_reported":1700914296,"current_range_meters":8400,"station_id":"ce4bgs92rcd13ifvqcc0","pricing_plan_id":"free"},{"bike_id":"8df9a0fe-6830-4755-97b2-b3c7ac66ef17","system_id":"levelo_inurba_marseille","lat":43.31994,"lon":5.38141,"is_reserved":false,"is_disabled":false,"rental_uris":{"android":"levelo://app?vid=8df9a0fe-6830-4755-97b2-b3c7ac66ef17","ios":"levelo://app?vid=8df9a0fe-6830-4755-97b2-b3c7ac66ef17"},"vehicle_type_id":"4","last_reported":1700914296,"current_range_meters":24400,"station_id":"ce4bhr12rcd13ifvqhpg","pricing_plan_id":"free"},{"bike_id":"297c48cb-ada2-41fa-a9b3-36f330453cd6","system_id":"levelo_inurba_marseille","lat":43.31993,"lon":5.381445,"is_reserved":false,"is_disabled":false,"rental_uris":{"android":"levelo://app?vid=297c48cb-ada2-41fa-a9b3-36f330453cd6","ios":"levelo://app?vid=297c48cb-ada2-41fa-a9b3-36f330453cd6"},"vehicle_type_id":"4","last_reported":1700914296,"current_range_meters":30400,"station_id":"ce4bhr12rcd13ifvqhpg","pricing_plan_id":"free"},{"bike_id":"9320e50a-994e-4770-8037-e827f3b9356c","system_id":"levelo_inurba_marseille","lat":43.31996,"lon":5.38161,"is_reserved":false,"is_disabled":false,"rental_uris":{"android":"levelo://app?vid=9320e50a-994e-4770-8037-e827f3b9356c","ios":"levelo://app?vid=9320e50a-994e-4770-8037-e827f3b9356c"},"vehicle_type_id":"4","last_reported":1700914296,"current_range_meters":14800,"station_id":"ce4bhr12rcd13ifvqhpg","pricing_plan_id":"free"},{"bike_id":"b3e9254b-8c34-4aaf-9b80-43a21f024ef4","system_id":"levelo_inurba_marseille","lat":43.299222,"lon":5.365554,"is_reserved":false,"is_disabled":false,"rental_uris":{"android":"levelo://app?vid=b3e9254b-8c34-4aaf-9b80-43a21f024ef4","ios":"levelo://app?vid=b3e9254b-8c34-4aaf-9b80-43a21f024ef4"},"vehicle_type_id":"4","last_reported":1700914296,"current_range_meters":4400,"station_id":"ce4bgm92rcd13ifvqbr0","pricing_plan_id":"free"},{"bike_id":"6030044a-7c77-4bbf-90c8-83305800809c","system_id":"levelo_inurba_marseille","lat":43.29978,"lon":5.37168,"is_reserved":false,"is_disabled":false,"rental_uris":{"android":"levelo://app?vid=6030044a-7c77-4bbf-90c8-83305800809c","ios":"levelo://app?vid=6030044a-7c77-4bbf-90c8-83305800809c"},"vehicle_type_id":"4","last_reported":1700914296,"current_range_meters":30400,"station_id":"ce4bgr92rcd13ifvqc7g","pricing_plan_id":"free"},{"bike_id":"45f9371e-196e-4875-93a1-aa5e753ea98f","system_id":"levelo_inurba_marseille","lat":43.29933,"lon":5.36553,"is_reserved":false,"is_disabled":false,"rental_uris":{"android":"levelo://app?vid=45f9371e-196e-4875-93a1-aa5e753ea98f","ios":"levelo://app?vid=45f9371e-196e-4875-93a1-aa5e753ea98f"},"vehicle_type_id":"4","last_reported":1700914296,"current_range_meters":13200,"station_id":"ce4bgm92rcd13ifvqbr0","pricing_plan_id":"free"},{"bike_id":"d0bf2859-4408-47a1-a54f-51d2c77b109b","system_id":"levelo_inurba_marseille","lat":43.299724,"lon":5.371829,"is_reserved":false,"is_disabled":false,"rental_uris":{"android":"levelo://app?vid=d0bf2859-4408-47a1-a54f-51d2c77b109b","ios":"levelo://app?vid=d0bf2859-4408-47a1-a54f-51d2c77b109b"},"vehicle_type_id":"4","last_reported":1700914296,"current_range_meters":30000,"station_id":"ce4bgr92rcd13ifvqc7g","pricing_plan_id":"free"},{"bike_id":"a1da7563-4d9e-4be1-8f62-60c27ff39563","system_id":"levelo_inurba_marseille","lat":43.29929,"lon":5.36549,"is_reserved":false,"is_disabled":false,"rental_uris":{"android":"levelo://app?vid=a1da7563-4d9e-4be1-8f62-60c27ff39563","ios":"levelo://app?vid=a1da7563-4d9e-4be1-8f62-60c27ff39563"},"vehicle_type_id":"4","last_reported":1700914296,"current_range_meters":19200,"station_id":"ce4bgm92rcd13ifvqbr0","pricing_plan_id":"free"},{"bike_id":"80b4b238-9cb7-425f-a795-42b1e665cae2","system_id":"levelo_inurba_marseille","lat":43.298433,"lon":5.362774,"is_reserved":false,"is_disabled":false,"rental_uris":{"android":"levelo://app?vid=80b4b238-9cb7-425f-a795-42b1e665cae2","ios":"levelo://app?vid=80b4b238-9cb7-425f-a795-42b1e665cae2"},"vehicle_type_id":"4","last_reported":1700914296,"current_range_meters":29200,"station_id":"ce4bgpp2rcd13ifvqc3g","pricing_plan_id":"free"},{"bike_id":"7b5091e8-98b2-42b1-9201-4422c3ef7eda","system_id":"levelo_inurba_marseille","lat":43.299243,"lon":5.37481,"is_reserved":false,"is_disabled":false,"rental_uris":{"android":"levelo://app?vid=7b5091e8-98b2-42b1-9201-4422c3ef7eda","ios":"levelo://app?vid=7b5091e8-98b2-42b1-9201-4422c3ef7eda"},"vehicle_type_id":"4","last_reported":1700914296,"current_range_meters":31200,"station_id":"ce4bgjh2rcd13ifvqbg0","pricing_plan_id":"free"},{"bike_id":"a6ad5fd3-7465-44ef-a0c7-1f3261e74a7c","system_id":"levelo_inurba_marseille","lat":43.298433,"lon":5.362774,"is_reserved":false,"is_disabled":false,"rental_uris":{"android":"levelo://app?vid=a6ad5fd3-7465-44ef-a0c7-1f3261e74a7c","ios":"levelo://app?vid=a6ad5fd3-7465-44ef-a0c7-1f3261e74a7c"},"vehicle_type_id":"4","last_reported":1700914296,"current_range_meters":30400,"station_id":"ce4bgpp2rcd13ifvqc3g","pricing_plan_id":"free"},{"bike_id":"2d846990-b973-4a72-8a51-b35e0faf4872","system_id":"levelo_inurba_marseille","lat":43.298433,"lon":5.362774,"is_reserved":false,"is_disabled":false,"rental_uris":{"android":"levelo://app?vid=2d846990-b973-4a72-8a51-b35e0faf4872","ios":"levelo://app?vid=2d846990-b973-4a72-8a51-b35e0faf4872"},"vehicle_type_id":"4","last_reported":1700914296,"current_range_meters":28400,"station_id":"ce4bgpp2rcd13ifvqc3g","pricing_plan_id":"free"},{"bike_id":"304f67ac-dcf7-4748-b009-e283e8aaa80e","system_id":"levelo_inurba_marseille","lat":43.298433,"lon":5.362774,"is_reserved":false,"is_disabled":false,"rental_uris":{"android":"levelo://app?vid=304f67ac-dcf7-4748-b009-e283e8aaa80e","ios":"levelo://app?vid=304f67ac-dcf7-4748-b009-e283e8aaa80e"},"vehicle_type_id":"4","last_reported":1700914296,"current_range_meters":18800,"station_id":"ce4bgpp2rcd13ifvqc3g","pricing_plan_id":"free"},{"bike_id":"00d1f15b-e104-4bc9-8676-18ac62d133b4","system_id":"levelo_inurba_marseille","lat":43.299243,"lon":5.37481,"is_reserved":false,"is_disabled":false,"rental_uris":{"android":"levelo://app?vid=00d1f15b-e104-4bc9-8676-18ac62d133b4","ios":"levelo://app?vid=00d1f15b-e104-4bc9-8676-18ac62d133b4"},"vehicle_type_id":"4","last_reported":1700914296,"current_range_meters":12800,"station_id":"ce4bgjh2rcd13ifvqbg0","pricing_plan_id":"free"},{"bike_id":"09eebb08-1c76-4705-ad5d-21f288103669","system_id":"levelo_inurba_marseille","lat":43.298433,"lon":5.362774,"is_reserved":false,"is_disabled":false,"rental_uris":{"android":"levelo://app?vid=09eebb08-1c76-4705-ad5d-21f288103669","ios":"levelo://app?vid=09eebb08-1c76-4705-ad5d-21f288103669"},"vehicle_type_id":"4","last_reported":1700914296,"current_range_meters":30400,"station_id":"ce4bgpp2rcd13ifvqc3g","pricing_plan_id":"free"},{"bike_id":"ac33c663-bada-4969-b0dd-5de29c260695","system_id":"levelo_inurba_marseille","lat":43.298433,"lon":5.362774,"is_reserved":false,"is_disabled":false,"rental_uris":{"android":"levelo://app?vid=ac33c663-bada-4969-b0dd-5de29c260695","ios":"levelo://app?vid=ac33c663-bada-4969-b0dd-5de29c260695"},"vehicle_type_id":"4","last_reported":1700914296,"current_range_meters":28000,"station_id":"ce4bgpp2rcd13ifvqc3g","pricing_plan_id":"free"},{"bike_id":"e4e47a5f-cd2f-4db8-91bf-fcdf8b51ed43","system_id":"levelo_inurba_marseille","lat":43.298433,"lon":5.362774,"is_reserved":false,"is_disabled":false,"rental_uris":{"android":"levelo://app?vid=e4e47a5f-cd2f-4db8-91bf-fcdf8b51ed43","ios":"levelo://app?vid=e4e47a5f-cd2f-4db8-91bf-fcdf8b51ed43"},"vehicle_type_id":"4","last_reported":1700914296,"current_range_meters":4800,"station_id":"ce4bgpp2rcd13ifvqc3g","pricing_plan_id":"free"},{"bike_id":"a7156c28-1946-468b-9e64-3365962b5f30","system_id":"levelo_inurba_marseille","lat":43.328371,"lon":5.366909,"is_reserved":false,"is_disabled":false,"rental_uris":{"android":"levelo://app?vid=a7156c28-1946-468b-9e64-3365962b5f30","ios":"levelo://app?vid=a7156c28-1946-468b-9e64-3365962b5f30"},"vehicle_type_id":"4","last_reported":1700914296,"current_range_meters":13600,"station_id":"ce4bhs92rcd13ifvqi0g","pricing_plan_id":"free"},{"bike_id":"95825c38-6c59-4753-b43e-2f944bdb26b9","system_id":"levelo_inurba_marseille","lat":43.32828,"lon":5.36688,"is_reserved":false,"is_disabled":false,"rental_uris":{"android":"levelo://app?vid=95825c38-6c59-4753-b43e-2f944bdb26b9","ios":"levelo://app?vid=95825c38-6c59-4753-b43e-2f944bdb26b9"},"vehicle_type_id":"4","last_reported":1700914296,"current_range_meters":16400,"station_id":"ce4bhs92rcd13ifvqi0g","pricing_plan_id":"free"},{"bike_id":"8791a58e-e3a0-43a8-b083-b15b0d3679b4","system_id":"levelo_inurba_marseille","lat":43.328371,"lon":5.366909,"is_reserved":false,"is_disabled":false,"rental_uris":{"android":"levelo://app?vid=8791a58e-e3a0-43a8-b083-b15b0d3679b4","ios":"levelo://app?vid=8791a58e-e3a0-43a8-b083-b15b0d3679b4"},"vehicle_type_id":"4","last_reported":1700914296,"current_range_meters":8800,"station_id":"ce4bhs92rcd13ifvqi0g","pricing_plan_id":"free"},{"bike_id":"07a03e0e-e12b-474e-a940-8baf07c98432","system_id":"levelo_inurba_marseille","lat":43.328371,"lon":5.366909,"is_reserved":false,"is_disabled":false,"rental_uris":{"android":"levelo://app?vid=07a03e0e-e12b-474e-a940-8baf07c98432","ios":"levelo://app?vid=07a03e0e-e12b-474e-a940-8baf07c98432"},"vehicle_type_id":"4","last_reported":1700914296,"current_range_meters":15600,"station_id":"ce4bhs92rcd13ifvqi0g","pricing_plan_id":"free"},{"bike_id":"6823e83e-b956-4974-bcd0-21d31215185e","system_id":"levelo_inurba_marseille","lat":43.297163,"lon":5.365866,"is_reserved":false,"is_disabled":false,"rental_uris":{"android":"levelo://app?vid=6823e83e-b956-4974-bcd0-21d31215185e","ios":"levelo://app?vid=6823e83e-b956-4974-bcd0-21d31215185e"},"vehicle_type_id":"4","last_reported":1700914296,"current_range_meters":11600,"station_id":"ce4bgn12rcd13ifvqbt0","pricing_plan_id":"free"},{"bike_id":"d5a8f000-fe71-457b-a948-f0c1c2e61bd1","system_id":"levelo_inurba_marseille","lat":43.296131,"lon":5.370773,"is_reserved":false,"is_disabled":false,"rental_uris":{"android":"levelo://app?vid=d5a8f000-fe71-457b-a948-f0c1c2e61bd1","ios":"levelo://app?vid=d5a8f000-fe71-457b-a948-f0c1c2e61bd1"},"vehicle_type_id":"4","last_reported":1700914296,"current_range_meters":4000,"station_id":"ce4bgnh2rcd13ifvqc0g","pricing_plan_id":"free"},{"bike_id":"efe46d5c-d828-4ab1-86a4-7f7e7e557a01","system_id":"levelo_inurba_marseille","lat":43.29573,"lon":5.367355,"is_reserved":false,"is_disabled":false,"rental_uris":{"android":"levelo://app?vid=efe46d5c-d828-4ab1-86a4-7f7e7e557a01","ios":"levelo://app?vid=efe46d5c-d828-4ab1-86a4-7f7e7e557a01"},"vehicle_type_id":"4","last_reported":1700914296,"current_range_meters":800,"station_id":"ce4bgph2rcd13ifvqc2g","pricing_plan_id":"free"},{"bike_id":"e04f319c-cfff-486d-807f-158dca1e20c2","system_id":"levelo_inurba_marseille","lat":43.29573,"lon":5.367355,"is_reserved":false,"is_disabled":false,"rental_uris":{"android":"levelo://app?vid=e04f319c-cfff-486d-807f-158dca1e20c2","ios":"levelo://app?vid=e04f319c-cfff-486d-807f-158dca1e20c2"},"vehicle_type_id":"4","last_reported":1700914296,"current_range_meters":29600,"station_id":"ce4bgph2rcd13ifvqc2g","pricing_plan_id":"free"},{"bike_id":"c257969f-624a-4ec3-9ff6-933d5e970979","system_id":"levelo_inurba_marseille","lat":43.29573,"lon":5.367355,"is_reserved":false,"is_disabled":false,"rental_uris":{"android":"levelo://app?vid=c257969f-624a-4ec3-9ff6-933d5e970979","ios":"levelo://app?vid=c257969f-624a-4ec3-9ff6-933d5e970979"},"vehicle_type_id":"4","last_reported":1700914296,"current_range_meters":19600,"station_id":"ce4bgph2rcd13ifvqc2g","pricing_plan_id":"free"},{"bike_id":"e340fcb9-a509-4c90-9915-a655d8fbe803","system_id":"levelo_inurba_marseille","lat":43.296935,"lon":5.376544,"is_reserved":false,"is_disabled":false,"rental_uris":{"android":"levelo://app?vid=e340fcb9-a509-4c90-9915-a655d8fbe803","ios":"levelo://app?vid=e340fcb9-a509-4c90-9915-a655d8fbe803"},"vehicle_type_id":"4","last_reported":1700914296,"current_range_meters":24400,"station_id":"ce4bgkh2rcd13ifvqbl0","pricing_plan_id":"free"},{"bike_id":"79db08d7-c27f-497f-9bae-099123fafc3e","system_id":"levelo_inurba_marseille","lat":43.298433,"lon":5.362774,"is_reserved":false,"is_disabled":false,"rental_uris":{"android":"levelo://app?vid=79db08d7-c27f-497f-9bae-099123fafc3e","ios":"levelo://app?vid=79db08d7-c27f-497f-9bae-099123fafc3e"},"vehicle_type_id":"4","last_reported":1700914296,"current_range_meters":17600,"station_id":"ce4bgpp2rcd13ifvqc3g","pricing_plan_id":"free"},{"bike_id":"566ef56b-69c4-49fd-ad90-64e2aa81a0de","system_id":"levelo_inurba_marseille","lat":43.298037,"lon":5.381066,"is_reserved":false,"is_disabled":false,"rental_uris":{"android":"levelo://app?vid=566ef56b-69c4-49fd-ad90-64e2aa81a0de","ios":"levelo://app?vid=566ef56b-69c4-49fd-ad90-64e2aa81a0de"},"vehicle_type_id":"4","last_reported":1700914296,"current_range_meters":21200,"station_id":"ce4bgip2rcd13ifvqbb0","pricing_plan_id":"free"},{"bike_id":"d41d713b-7074-4180-bb75-8d4d0f5ef115","system_id":"levelo_inurba_marseille","lat":43.298037,"lon":5.381066,"is_reserved":false,"is_disabled":false,"rental_uris":{"android":"levelo://app?vid=d41d713b-7074-4180-bb75-8d4d0f5ef115","ios":"levelo://app?vid=d41d713b-7074-4180-bb75-8d4d0f5ef115"},"vehicle_type_id":"4","last_reported":1700914296,"current_range_meters":24800,"station_id":"ce4bgip2rcd13ifvqbb0","pricing_plan_id":"free"},{"bike_id":"fdb01cff-d0c7-45f7-b733-6570beb479c5","system_id":"levelo_inurba_marseille","lat":43.296263,"lon":5.377094,"is_reserved":false,"is_disabled":false,"rental_uris":{"android":"levelo://app?vid=fdb01cff-d0c7-45f7-b733-6570beb479c5","ios":"levelo://app?vid=fdb01cff-d0c7-45f7-b733-6570beb479c5"},"vehicle_type_id":"4","last_reported":1700914296,"current_range_meters":27600,"station_id":"ce4bgi92rcd13ifvqb90","pricing_plan_id":"free"},{"bike_id":"ed4523a3-f559-414a-9e18-1c2bc787d6d9","system_id":"levelo_inurba_marseille","lat":43.296263,"lon":5.377094,"is_reserved":false,"is_disabled":false,"rental_uris":{"android":"levelo://app?vid=ed4523a3-f559-414a-9e18-1c2bc787d6d9","ios":"levelo://app?vid=ed4523a3-f559-414a-9e18-1c2bc787d6d9"},"vehicle_type_id":"4","last_reported":1700914296,"current_range_meters":18400,"station_id":"ce4bgi92rcd13ifvqb90","pricing_plan_id":"free"},{"bike_id":"1a410e97-67ef-4d07-90b9-a0b6b7a15c79","system_id":"levelo_inurba_marseille","lat":43.296263,"lon":5.377094,"is_reserved":false,"is_disabled":false,"rental_uris":{"android":"levelo://app?vid=1a410e97-67ef-4d07-90b9-a0b6b7a15c79","ios":"levelo://app?vid=1a410e97-67ef-4d07-90b9-a0b6b7a15c79"},"vehicle_type_id":"4","last_reported":1700914296,"current_range_meters":25200,"station_id":"ce4bgi92rcd13ifvqb90","pricing_plan_id":"free"},{"bike_id":"792ae711-5478-46f5-9fa9-e3f2006ee567","system_id":"levelo_inurba_marseille","lat":43.296263,"lon":5.377094,"is_reserved":false,"is_disabled":false,"rental_uris":{"android":"levelo://app?vid=792ae711-5478-46f5-9fa9-e3f2006ee567","ios":"levelo://app?vid=792ae711-5478-46f5-9fa9-e3f2006ee567"},"vehicle_type_id":"4","last_reported":1700914296,"current_range_meters":3600,"station_id":"ce4bgi92rcd13ifvqb90","pricing_plan_id":"free"},{"bike_id":"6b621983-5e9e-42f7-990d-ad5a093820d2","system_id":"levelo_inurba_marseille","lat":43.293801,"lon":5.363066,"is_reserved":false,"is_disabled":false,"rental_uris":{"android":"levelo://app?vid=6b621983-5e9e-42f7-990d-ad5a093820d2","ios":"levelo://app?vid=6b621983-5e9e-42f7-990d-ad5a093820d2"},"vehicle_type_id":"4","last_reported":1700914296,"current_range_meters":800,"station_id":"","pricing_plan_id":"free"},{"bike_id":"c08692de-893b-4842-ac6a-624a77fd78ec","system_id":"levelo_inurba_marseille","lat":43.32373,"lon":5.38937,"is_reserved":false,"is_disabled":false,"rental_uris":{"android":"levelo://app?vid=c08692de-893b-4842-ac6a-624a77fd78ec","ios":"levelo://app?vid=c08692de-893b-4842-ac6a-624a77fd78ec"},"vehicle_type_id":"4","last_reported":1700914296,"current_range_meters":2000,"station_id":"ce4bhqp2rcd13ifvqhog","pricing_plan_id":"free"},{"bike_id":"f9de9d3f-213d-45b7-8f0e-e4fdeb90c128","system_id":"levelo_inurba_marseille","lat":43.293259,"lon":5.371586,"is_reserved":false,"is_disabled":false,"rental_uris":{"android":"levelo://app?vid=f9de9d3f-213d-45b7-8f0e-e4fdeb90c128","ios":"levelo://app?vid=f9de9d3f-213d-45b7-8f0e-e4fdeb90c128"},"vehicle_type_id":"4","last_reported":1700914296,"current_range_meters":22400,"station_id":"ce4bgh92rcd13ifvqb40","pricing_plan_id":"free"},{"bike_id":"d14fb15f-c6d5-4503-a1ae-c6efd39891c2","system_id":"levelo_inurba_marseille","lat":43.303002,"lon":5.392142,"is_reserved":false,"is_disabled":false,"rental_uris":{"android":"levelo://app?vid=d14fb15f-c6d5-4503-a1ae-c6efd39891c2","ios":"levelo://app?vid=d14fb15f-c6d5-4503-a1ae-c6efd39891c2"},"vehicle_type_id":"4","last_reported":1700914296,"current_range_meters":20800,"station_id":"ce4bgkh2rcd13ifvqbk0","pricing_plan_id":"free"},{"bike_id":"c7a0e191-2a73-451a-a7f3-68982deec032","system_id":"levelo_inurba_marseille","lat":43.302992,"lon":5.392136,"is_reserved":false,"is_disabled":false,"rental_uris":{"android":"levelo://app?vid=c7a0e191-2a73-451a-a7f3-68982deec032","ios":"levelo://app?vid=c7a0e191-2a73-451a-a7f3-68982deec032"},"vehicle_type_id":"4","last_reported":1700914296,"current_range_meters":400,"station_id":"ce4bgkh2rcd13ifvqbk0","pricing_plan_id":"free"},{"bike_id":"ddef7929-1854-4b05-b215-f659a4dafa07","system_id":"levelo_inurba_marseille","lat":43.298764,"lon":5.388973,"is_reserved":false,"is_disabled":false,"rental_uris":{"android":"levelo://app?vid=ddef7929-1854-4b05-b215-f659a4dafa07","ios":"levelo://app?vid=ddef7929-1854-4b05-b215-f659a4dafa07"},"vehicle_type_id":"4","last_reported":1700914296,"current_range_meters":21200,"station_id":"ce4bh392rcd13ifvqdl0","pricing_plan_id":"free"},{"bike_id":"80b5e713-bdbd-4719-9661-fda157100789","system_id":"levelo_inurba_marseille","lat":43.31328,"lon":5.396868,"is_reserved":false,"is_disabled":false,"rental_uris":{"android":"levelo://app?vid=80b5e713-bdbd-4719-9661-fda157100789","ios":"levelo://app?vid=80b5e713-bdbd-4719-9661-fda157100789"},"vehicle_type_id":"4","last_reported":1700914296,"current_range_meters":18000,"station_id":"ce4bgvp2rcd13ifvqcu0","pricing_plan_id":"free"},{"bike_id":"1ac63682-cf23-4647-8a62-33a9d1e2eb28","system_id":"levelo_inurba_marseille","lat":43.30883,"lon":5.39639,"is_reserved":false,"is_disabled":false,"rental_uris":{"android":"levelo://app?vid=1ac63682-cf23-4647-8a62-33a9d1e2eb28","ios":"levelo://app?vid=1ac63682-cf23-4647-8a62-33a9d1e2eb28"},"vehicle_type_id":"4","last_reported":1700914296,"current_range_meters":28800,"station_id":"ce4bh012rcd13ifvqcv0","pricing_plan_id":"free"},{"bike_id":"3da81a55-cde9-4f6a-906d-45fb8e5164f2","system_id":"levelo_inurba_marseille","lat":43.313291,"lon":5.396838,"is_reserved":false,"is_disabled":false,"rental_uris":{"android":"levelo://app?vid=3da81a55-cde9-4f6a-906d-45fb8e5164f2","ios":"levelo://app?vid=3da81a55-cde9-4f6a-906d-45fb8e5164f2"},"vehicle_type_id":"4","last_reported":1700914296,"current_range_meters":29200,"station_id":"ce4bgvp2rcd13ifvqcu0","pricing_plan_id":"free"},{"bike_id":"bb1bc18d-397f-4e6f-8d1d-4014cb9df530","system_id":"levelo_inurba_marseille","lat":43.313291,"lon":5.396838,"is_reserved":false,"is_disabled":false,"rental_uris":{"android":"levelo://app?vid=bb1bc18d-397f-4e6f-8d1d-4014cb9df530","ios":"levelo://app?vid=bb1bc18d-397f-4e6f-8d1d-4014cb9df530"},"vehicle_type_id":"4","last_reported":1700914296,"current_range_meters":26400,"station_id":"ce4bgvp2rcd13ifvqcu0","pricing_plan_id":"free"},{"bike_id":"08e318de-e6be-4d92-bb43-f34e2aee1130","system_id":"levelo_inurba_marseille","lat":43.313291,"lon":5.396838,"is_reserved":false,"is_disabled":false,"rental_uris":{"android":"levelo://app?vid=08e318de-e6be-4d92-bb43-f34e2aee1130","ios":"levelo://app?vid=08e318de-e6be-4d92-bb43-f34e2aee1130"},"vehicle_type_id":"4","last_reported":1700914296,"current_range_meters":25600,"station_id":"ce4bgvp2rcd13ifvqcu0","pricing_plan_id":"free"},{"bike_id":"1d10a1b1-d55f-4279-928a-9c6858f32ca9","system_id":"levelo_inurba_marseille","lat":43.33211,"lon":5.38112,"is_reserved":false,"is_disabled":false,"rental_uris":{"android":"levelo://app?vid=1d10a1b1-d55f-4279-928a-9c6858f32ca9","ios":"levelo://app?vid=1d10a1b1-d55f-4279-928a-9c6858f32ca9"},"vehicle_type_id":"4","last_reported":1700914296,"current_range_meters":0,"station_id":"","pricing_plan_id":"free"},{"bike_id":"a1e74cda-21f2-4c9d-bf27-420d80339dca","system_id":"levelo_inurba_marseille","lat":43.290327,"lon":5.375711,"is_reserved":false,"is_disabled":false,"rental_uris":{"android":"levelo://app?vid=a1e74cda-21f2-4c9d-bf27-420d80339dca","ios":"levelo://app?vid=a1e74cda-21f2-4c9d-bf27-420d80339dca"},"vehicle_type_id":"4","last_reported":1700914296,"current_range_meters":26400,"station_id":"ce4bh692rcd13ifvqe90","pricing_plan_id":"free"},{"bike_id":"5af39b8b-062b-4017-a622-a4aa947e4c59","system_id":"levelo_inurba_marseille","lat":43.289574,"lon":5.364457,"is_reserved":false,"is_disabled":false,"rental_uris":{"android":"levelo://app?vid=5af39b8b-062b-4017-a622-a4aa947e4c59","ios":"levelo://app?vid=5af39b8b-062b-4017-a622-a4aa947e4c59"},"vehicle_type_id":"4","last_reported":1700914296,"current_range_meters":18000,"station_id":"ce4bhc92rcd13ifvqetg","pricing_plan_id":"free"},{"bike_id":"3e906ba8-83b1-4530-ba50-e81ca59a5447","system_id":"levelo_inurba_marseille","lat":43.330442,"lon":5.389148,"is_reserved":false,"is_disabled":false,"rental_uris":{"android":"levelo://app?vid=3e906ba8-83b1-4530-ba50-e81ca59a5447","ios":"levelo://app?vid=3e906ba8-83b1-4530-ba50-e81ca59a5447"},"vehicle_type_id":"4","last_reported":1700914296,"current_range_meters":18800,"station_id":"ce4bhr92rcd13ifvqhrg","pricing_plan_id":"free"},{"bike_id":"2b18bbab-5792-4fbb-b79d-3aa130c86e48","system_id":"levelo_inurba_marseille","lat":43.290995,"lon":5.381361,"is_reserved":false,"is_disabled":false,"rental_uris":{"android":"levelo://app?vid=2b18bbab-5792-4fbb-b79d-3aa130c86e48","ios":"levelo://app?vid=2b18bbab-5792-4fbb-b79d-3aa130c86e48"},"vehicle_type_id":"4","last_reported":1700914296,"current_range_meters":28000,"station_id":"ce4bh512rcd13ifvqe2g","pricing_plan_id":"free"},{"bike_id":"d15ff46a-df18-49b1-9307-e983b1589a7d","system_id":"levelo_inurba_marseille","lat":43.29528,"lon":5.39034,"is_reserved":false,"is_disabled":false,"rental_uris":{"android":"levelo://app?vid=d15ff46a-df18-49b1-9307-e983b1589a7d","ios":"levelo://app?vid=d15ff46a-df18-49b1-9307-e983b1589a7d"},"vehicle_type_id":"4","last_reported":1700914296,"current_range_meters":4400,"station_id":"ce4bh3p2rcd13ifvqdp0","pricing_plan_id":"free"},{"bike_id":"2427c4d1-4628-46a5-8ab6-c032b5ff8624","system_id":"levelo_inurba_marseille","lat":43.295169,"lon":5.390426,"is_reserved":false,"is_disabled":false,"rental_uris":{"android":"levelo://app?vid=2427c4d1-4628-46a5-8ab6-c032b5ff8624","ios":"levelo://app?vid=2427c4d1-4628-46a5-8ab6-c032b5ff8624"},"vehicle_type_id":"4","last_reported":1700914296,"current_range_meters":24800,"station_id":"ce4bh3p2rcd13ifvqdp0","pricing_plan_id":"free"},{"bike_id":"4551c114-b7de-426f-b091-72955b294362","system_id":"levelo_inurba_marseille","lat":43.295169,"lon":5.390426,"is_reserved":false,"is_disabled":false,"rental_uris":{"android":"levelo://app?vid=4551c114-b7de-426f-b091-72955b294362","ios":"levelo://app?vid=4551c114-b7de-426f-b091-72955b294362"},"vehicle_type_id":"4","last_reported":1700914296,"current_range_meters":8000,"station_id":"ce4bh3p2rcd13ifvqdp0","pricing_plan_id":"free"},{"bike_id":"be496a00-c09e-4002-90b7-7ae56f5e334a","system_id":"levelo_inurba_marseille","lat":43.2901,"lon":5.381269,"is_reserved":false,"is_disabled":false,"rental_uris":{"android":"levelo://app?vid=be496a00-c09e-4002-90b7-7ae56f5e334a","ios":"levelo://app?vid=be496a00-c09e-4002-90b7-7ae56f5e334a"},"vehicle_type_id":"4","last_reported":1700914296,"current_range_meters":12800,"station_id":"ce4bh4p2rcd13ifvqe1g","pricing_plan_id":"free"},{"bike_id":"69e94f85-b4a5-4af1-bba2-2cad75c59c85","system_id":"levelo_inurba_marseille","lat":43.29022,"lon":5.38125,"is_reserved":false,"is_disabled":false,"rental_uris":{"android":"levelo://app?vid=69e94f85-b4a5-4af1-bba2-2cad75c59c85","ios":"levelo://app?vid=69e94f85-b4a5-4af1-bba2-2cad75c59c85"},"vehicle_type_id":"4","last_reported":1700914296,"current_range_meters":21600,"station_id":"ce4bh4p2rcd13ifvqe1g","pricing_plan_id":"free"},{"bike_id":"109d26ff-dc87-4064-b9f5-0ea3f2cf9747","system_id":"levelo_inurba_marseille","lat":43.290094,"lon":5.381264,"is_reserved":false,"is_disabled":false,"rental_uris":{"android":"levelo://app?vid=109d26ff-dc87-4064-b9f5-0ea3f2cf9747","ios":"levelo://app?vid=109d26ff-dc87-4064-b9f5-0ea3f2cf9747"},"vehicle_type_id":"4","last_reported":1700914296,"current_range_meters":15600,"station_id":"ce4bh4p2rcd13ifvqe1g","pricing_plan_id":"free"},{"bike_id":"68c1c838-124c-4420-afb4-ed4036c78823","system_id":"levelo_inurba_marseille","lat":43.2901,"lon":5.381269,"is_reserved":false,"is_disabled":false,"rental_uris":{"android":"levelo://app?vid=68c1c838-124c-4420-afb4-ed4036c78823","ios":"levelo://app?vid=68c1c838-124c-4420-afb4-ed4036c78823"},"vehicle_type_id":"4","last_reported":1700914296,"current_range_meters":25600,"station_id":"ce4bh4p2rcd13ifvqe1g","pricing_plan_id":"free"},{"bike_id":"4017793a-90ff-40c2-98aa-41f8c604b8fa","system_id":"levelo_inurba_marseille","lat":43.28856,"lon":5.358371,"is_reserved":false,"is_disabled":false,"rental_uris":{"android":"levelo://app?vid=4017793a-90ff-40c2-98aa-41f8c604b8fa","ios":"levelo://app?vid=4017793a-90ff-40c2-98aa-41f8c604b8fa"},"vehicle_type_id":"4","last_reported":1700914296,"current_range_meters":26800,"station_id":"ce4bhb12rcd13ifvqem0","pricing_plan_id":"free"},{"bike_id":"352b4d97-184f-4e5d-813f-fab51c90407d","system_id":"levelo_inurba_marseille","lat":43.28856,"lon":5.358371,"is_reserved":false,"is_disabled":false,"rental_uris":{"android":"levelo://app?vid=352b4d97-184f-4e5d-813f-fab51c90407d","ios":"levelo://app?vid=352b4d97-184f-4e5d-813f-fab51c90407d"},"vehicle_type_id":"4","last_reported":1700914296,"current_range_meters":19200,"station_id":"ce4bhb12rcd13ifvqem0","pricing_plan_id":"free"},{"bike_id":"6d3380cd-34a6-405f-9e14-9dfad01eb06b","system_id":"levelo_inurba_marseille","lat":43.31277,"lon":5.4017,"is_reserved":false,"is_disabled":false,"rental_uris":{"android":"levelo://app?vid=6d3380cd-34a6-405f-9e14-9dfad01eb06b","ios":"levelo://app?vid=6d3380cd-34a6-405f-9e14-9dfad01eb06b"},"vehicle_type_id":"4","last_reported":1700914296,"current_range_meters":25600,"station_id":"ce4bh092rcd13ifvqd30","pricing_plan_id":"free"},{"bike_id":"2b23f38a-1831-49fe-a943-86c9ec15f136","system_id":"levelo_inurba_marseille","lat":43.33748,"lon":5.37458,"is_reserved":false,"is_disabled":false,"rental_uris":{"android":"levelo://app?vid=2b23f38a-1831-49fe-a943-86c9ec15f136","ios":"levelo://app?vid=2b23f38a-1831-49fe-a943-86c9ec15f136"},"vehicle_type_id":"4","last_reported":1700914296,"current_range_meters":3200,"station_id":"","pricing_plan_id":"free"},{"bike_id":"1c09b94d-504f-494d-ba94-e17dc6237bfe","system_id":"levelo_inurba_marseille","lat":43.298681,"lon":5.397225,"is_reserved":false,"is_disabled":false,"rental_uris":{"android":"levelo://app?vid=1c09b94d-504f-494d-ba94-e17dc6237bfe","ios":"levelo://app?vid=1c09b94d-504f-494d-ba94-e17dc6237bfe"},"vehicle_type_id":"4","last_reported":1700914296,"current_range_meters":17600,"station_id":"ce4bh0h2rcd13ifvqd50","pricing_plan_id":"free"},{"bike_id":"fb795198-f6d2-44a4-a994-6a2dd39ed069","system_id":"levelo_inurba_marseille","lat":43.286591,"lon":5.363346,"is_reserved":false,"is_disabled":false,"rental_uris":{"android":"levelo://app?vid=fb795198-f6d2-44a4-a994-6a2dd39ed069","ios":"levelo://app?vid=fb795198-f6d2-44a4-a994-6a2dd39ed069"},"vehicle_type_id":"4","last_reported":1700914296,"current_range_meters":30000,"station_id":"ce4bhah2rcd13ifvqej0","pricing_plan_id":"free"},{"bike_id":"dadeb198-7b22-42ca-a510-6c78e275141b","system_id":"levelo_inurba_marseille","lat":43.289307,"lon":5.38406,"is_reserved":false,"is_disabled":false,"rental_uris":{"android":"levelo://app?vid=dadeb198-7b22-42ca-a510-6c78e275141b","ios":"levelo://app?vid=dadeb198-7b22-42ca-a510-6c78e275141b"},"vehicle_type_id":"4","last_reported":1700914296,"current_range_meters":15600,"station_id":"ce4bh612rcd13ifvqe6g","pricing_plan_id":"free"},{"bike_id":"0bdba9d9-d0bb-4fca-8f63-9a9cf684d57c","system_id":"levelo_inurba_marseille","lat":43.286039,"lon":5.370679,"is_reserved":false,"is_disabled":false,"rental_uris":{"android":"levelo://app?vid=0bdba9d9-d0bb-4fca-8f63-9a9cf684d57c","ios":"levelo://app?vid=0bdba9d9-d0bb-4fca-8f63-9a9cf684d57c"},"vehicle_type_id":"4","last_reported":1700914296,"current_range_meters":24400,"station_id":"ce4bht12rcd13ifvqi60","pricing_plan_id":"free"},{"bike_id":"a114aae6-8ceb-4886-b20a-6780de28c969","system_id":"levelo_inurba_marseille","lat":43.286039,"lon":5.370679,"is_reserved":false,"is_disabled":false,"rental_uris":{"android":"levelo://app?vid=a114aae6-8ceb-4886-b20a-6780de28c969","ios":"levelo://app?vid=a114aae6-8ceb-4886-b20a-6780de28c969"},"vehicle_type_id":"4","last_reported":1700914296,"current_range_meters":31200,"station_id":"ce4bht12rcd13ifvqi60","pricing_plan_id":"free"},{"bike_id":"c7405175-a7bf-4736-84f1-15fd1a6a9766","system_id":"levelo_inurba_marseille","lat":43.286039,"lon":5.370679,"is_reserved":false,"is_disabled":false,"rental_uris":{"android":"levelo://app?vid=c7405175-a7bf-4736-84f1-15fd1a6a9766","ios":"levelo://app?vid=c7405175-a7bf-4736-84f1-15fd1a6a9766"},"vehicle_type_id":"4","last_reported":1700914296,"current_range_meters":22000,"station_id":"ce4bht12rcd13ifvqi60","pricing_plan_id":"free"},{"bike_id":"4d71b5a6-09ea-4eed-a0f1-c45d0457208a","system_id":"levelo_inurba_marseille","lat":43.286039,"lon":5.370679,"is_reserved":false,"is_disabled":false,"rental_uris":{"android":"levelo://app?vid=4d71b5a6-09ea-4eed-a0f1-c45d0457208a","ios":"levelo://app?vid=4d71b5a6-09ea-4eed-a0f1-c45d0457208a"},"vehicle_type_id":"4","last_reported":1700914296,"current_range_meters":20400,"station_id":"ce4bht12rcd13ifvqi60","pricing_plan_id":"free"},{"bike_id":"ab50f4cd-7e60-44a8-8cd8-97ccdbd86595","system_id":"levelo_inurba_marseille","lat":43.291994,"lon":5.392907,"is_reserved":false,"is_disabled":false,"rental_uris":{"android":"levelo://app?vid=ab50f4cd-7e60-44a8-8cd8-97ccdbd86595","ios":"levelo://app?vid=ab50f4cd-7e60-44a8-8cd8-97ccdbd86595"},"vehicle_type_id":"4","last_reported":1700914296,"current_range_meters":12800,"station_id":"ce4bh192rcd13ifvqdd0","pricing_plan_id":"free"},{"bike_id":"5c26564b-c07c-4643-948e-d9eaf1f9b2c4","system_id":"levelo_inurba_marseille","lat":43.284538,"lon":5.358657,"is_reserved":false,"is_disabled":false,"rental_uris":{"android":"levelo://app?vid=5c26564b-c07c-4643-948e-d9eaf1f9b2c4","ios":"levelo://app?vid=5c26564b-c07c-4643-948e-d9eaf1f9b2c4"},"vehicle_type_id":"4","last_reported":1700914296,"current_range_meters":20000,"station_id":"ce4bhah2rcd13ifvqei0","pricing_plan_id":"free"},{"bike_id":"82095414-e29b-4a37-8248-e1ac02884397","system_id":"levelo_inurba_marseille","lat":43.284538,"lon":5.358657,"is_reserved":false,"is_disabled":false,"rental_uris":{"android":"levelo://app?vid=82095414-e29b-4a37-8248-e1ac02884397","ios":"levelo://app?vid=82095414-e29b-4a37-8248-e1ac02884397"},"vehicle_type_id":"4","last_reported":1700914296,"current_range_meters":9200,"station_id":"ce4bhah2rcd13ifvqei0","pricing_plan_id":"free"},{"bike_id":"29f02d63-abd7-4e3d-955a-ba0367ce5681","system_id":"levelo_inurba_marseille","lat":43.284538,"lon":5.358657,"is_reserved":false,"is_disabled":false,"rental_uris":{"android":"levelo://app?vid=29f02d63-abd7-4e3d-955a-ba0367ce5681","ios":"levelo://app?vid=29f02d63-abd7-4e3d-955a-ba0367ce5681"},"vehicle_type_id":"4","last_reported":1700914296,"current_range_meters":400,"station_id":"ce4bhah2rcd13ifvqei0","pricing_plan_id":"free"},{"bike_id":"8e61a4ec-b78b-4bfc-9664-cb681f0ccdb3","system_id":"levelo_inurba_marseille","lat":43.284534,"lon":5.358662,"is_reserved":false,"is_disabled":false,"rental_uris":{"android":"levelo://app?vid=8e61a4ec-b78b-4bfc-9664-cb681f0ccdb3","ios":"levelo://app?vid=8e61a4ec-b78b-4bfc-9664-cb681f0ccdb3"},"vehicle_type_id":"4","last_reported":1700914296,"current_range_meters":0,"station_id":"ce4bhah2rcd13ifvqei0","pricing_plan_id":"free"},{"bike_id":"94e5ee5d-5193-44e7-8d9c-4d182cf630de","system_id":"levelo_inurba_marseille","lat":43.284538,"lon":5.358657,"is_reserved":false,"is_disabled":false,"rental_uris":{"android":"levelo://app?vid=94e5ee5d-5193-44e7-8d9c-4d182cf630de","ios":"levelo://app?vid=94e5ee5d-5193-44e7-8d9c-4d182cf630de"},"vehicle_type_id":"4","last_reported":1700914296,"current_range_meters":6000,"station_id":"ce4bhah2rcd13ifvqei0","pricing_plan_id":"free"},{"bike_id":"ee991a99-054e-4bc4-981e-c0af4cdbb979","system_id":"levelo_inurba_marseille","lat":43.284538,"lon":5.358657,"is_reserved":false,"is_disabled":false,"rental_uris":{"android":"levelo://app?vid=ee991a99-054e-4bc4-981e-c0af4cdbb979","ios":"levelo://app?vid=ee991a99-054e-4bc4-981e-c0af4cdbb979"},"vehicle_type_id":"4","last_reported":1700914296,"current_range_meters":17600,"station_id":"ce4bhah2rcd13ifvqei0","pricing_plan_id":"free"},{"bike_id":"3f6574a2-6f47-42bb-bac6-e92151348fe2","system_id":"levelo_inurba_marseille","lat":43.285848,"lon":5.350787,"is_reserved":false,"is_disabled":false,"rental_uris":{"android":"levelo://app?vid=3f6574a2-6f47-42bb-bac6-e92151348fe2","ios":"levelo://app?vid=3f6574a2-6f47-42bb-bac6-e92151348fe2"},"vehicle_type_id":"4","last_reported":1700914296,"current_range_meters":25200,"station_id":"ce4bhch2rcd13ifvqeug","pricing_plan_id":"free"},{"bike_id":"71d2762a-8000-4105-923e-fc1062c96d5e","system_id":"levelo_inurba_marseille","lat":43.285848,"lon":5.350787,"is_reserved":false,"is_disabled":false,"rental_uris":{"android":"levelo://app?vid=71d2762a-8000-4105-923e-fc1062c96d5e","ios":"levelo://app?vid=71d2762a-8000-4105-923e-fc1062c96d5e"},"vehicle_type_id":"4","last_reported":1700914296,"current_range_meters":23600,"station_id":"ce4bhch2rcd13ifvqeug","pricing_plan_id":"free"},{"bike_id":"8272e127-39b8-49aa-bc14-840629d910e7","system_id":"levelo_inurba_marseille","lat":43.28613,"lon":5.35102,"is_reserved":false,"is_disabled":false,"rental_uris":{"android":"levelo://app?vid=8272e127-39b8-49aa-bc14-840629d910e7","ios":"levelo://app?vid=8272e127-39b8-49aa-bc14-840629d910e7"},"vehicle_type_id":"4","last_reported":1700914296,"current_range_meters":18400,"station_id":"ce4bhch2rcd13ifvqeug","pricing_plan_id":"free"},{"bike_id":"e01eb6f8-9910-43f6-abce-8a2c7ea922f3","system_id":"levelo_inurba_marseille","lat":43.283998,"lon":5.375062,"is_reserved":false,"is_disabled":false,"rental_uris":{"android":"levelo://app?vid=e01eb6f8-9910-43f6-abce-8a2c7ea922f3","ios":"levelo://app?vid=e01eb6f8-9910-43f6-abce-8a2c7ea922f3"},"vehicle_type_id":"4","last_reported":1700914296,"current_range_meters":18400,"station_id":"ce4bh412rcd13ifvqds0","pricing_plan_id":"free"},{"bike_id":"48f8f86b-b968-443a-bb50-4c0e538a7814","system_id":"levelo_inurba_marseille","lat":43.283998,"lon":5.375062,"is_reserved":false,"is_disabled":false,"rental_uris":{"android":"levelo://app?vid=48f8f86b-b968-443a-bb50-4c0e538a7814","ios":"levelo://app?vid=48f8f86b-b968-443a-bb50-4c0e538a7814"},"vehicle_type_id":"4","last_reported":1700914296,"current_range_meters":27600,"station_id":"ce4bh412rcd13ifvqds0","pricing_plan_id":"free"},{"bike_id":"ecefd9ca-d72f-424b-8d77-bbb87b9ea76d","system_id":"levelo_inurba_marseille","lat":43.28679,"lon":5.3866,"is_reserved":false,"is_disabled":false,"rental_uris":{"android":"levelo://app?vid=ecefd9ca-d72f-424b-8d77-bbb87b9ea76d","ios":"levelo://app?vid=ecefd9ca-d72f-424b-8d77-bbb87b9ea76d"},"vehicle_type_id":"4","last_reported":1700914296,"current_range_meters":0,"station_id":"ce4bh492rcd13ifvqdug","pricing_plan_id":"free"},{"bike_id":"a0c3009b-0f2f-46e9-ac09-cbd5c3ee9c18","system_id":"levelo_inurba_marseille","lat":43.284787,"lon":5.384116,"is_reserved":false,"is_disabled":false,"rental_uris":{"android":"levelo://app?vid=a0c3009b-0f2f-46e9-ac09-cbd5c3ee9c18","ios":"levelo://app?vid=a0c3009b-0f2f-46e9-ac09-cbd5c3ee9c18"},"vehicle_type_id":"4","last_reported":1700914296,"current_range_meters":8000,"station_id":"ce4bh512rcd13ifvqe3g","pricing_plan_id":"free"},{"bike_id":"2f5ad77e-8883-43e8-8b82-85e232a0b505","system_id":"levelo_inurba_marseille","lat":43.29795,"lon":5.404086,"is_reserved":false,"is_disabled":false,"rental_uris":{"android":"levelo://app?vid=2f5ad77e-8883-43e8-8b82-85e232a0b505","ios":"levelo://app?vid=2f5ad77e-8883-43e8-8b82-85e232a0b505"},"vehicle_type_id":"4","last_reported":1700914296,"current_range_meters":28400,"station_id":"ce4bh112rcd13ifvqd90","pricing_plan_id":"free"},{"bike_id":"eae13b21-374f-4d7a-8b0a-4d675709a7c9","system_id":"levelo_inurba_marseille","lat":43.28467,"lon":5.38425,"is_reserved":false,"is_disabled":false,"rental_uris":{"android":"levelo://app?vid=eae13b21-374f-4d7a-8b0a-4d675709a7c9","ios":"levelo://app?vid=eae13b21-374f-4d7a-8b0a-4d675709a7c9"},"vehicle_type_id":"4","last_reported":1700914296,"current_range_meters":27600,"station_id":"ce4bh512rcd13ifvqe3g","pricing_plan_id":"free"},{"bike_id":"6e180e16-37c9-4dff-9781-a5e77dce6f8c","system_id":"levelo_inurba_marseille","lat":43.284217,"lon":5.349697,"is_reserved":false,"is_disabled":false,"rental_uris":{"android":"levelo://app?vid=6e180e16-37c9-4dff-9781-a5e77dce6f8c","ios":"levelo://app?vid=6e180e16-37c9-4dff-9781-a5e77dce6f8c"},"vehicle_type_id":"4","last_reported":1700914296,"current_range_meters":26400,"station_id":"ce4bhbh2rcd13ifvqepg","pricing_plan_id":"free"},{"bike_id":"e2284003-4e46-4e0a-93e7-73d05c3666d9","system_id":"levelo_inurba_marseille","lat":43.33508,"lon":5.397755,"is_reserved":false,"is_disabled":false,"rental_uris":{"android":"levelo://app?vid=e2284003-4e46-4e0a-93e7-73d05c3666d9","ios":"levelo://app?vid=e2284003-4e46-4e0a-93e7-73d05c3666d9"},"vehicle_type_id":"4","last_reported":1700914296,"current_range_meters":22800,"station_id":"","pricing_plan_id":"free"},{"bike_id":"451712c6-31c1-487e-9369-0081fd4f4644","system_id":"levelo_inurba_marseille","lat":43.292724,"lon":5.401131,"is_reserved":false,"is_disabled":false,"rental_uris":{"android":"levelo://app?vid=451712c6-31c1-487e-9369-0081fd4f4644","ios":"levelo://app?vid=451712c6-31c1-487e-9369-0081fd4f4644"},"vehicle_type_id":"4","last_reported":1700914296,"current_range_meters":30400,"station_id":"ce4bh312rcd13ifvqdk0","pricing_plan_id":"free"},{"bike_id":"ead5c61a-d91b-45a8-977b-bc749d3f4b41","system_id":"levelo_inurba_marseille","lat":43.292724,"lon":5.401131,"is_reserved":false,"is_disabled":false,"rental_uris":{"android":"levelo://app?vid=ead5c61a-d91b-45a8-977b-bc749d3f4b41","ios":"levelo://app?vid=ead5c61a-d91b-45a8-977b-bc749d3f4b41"},"vehicle_type_id":"4","last_reported":1700914296,"current_range_meters":30400,"station_id":"ce4bh312rcd13ifvqdk0","pricing_plan_id":"free"},{"bike_id":"3c4d2152-afbe-418b-8f57-3da58acdcaf9","system_id":"levelo_inurba_marseille","lat":43.296263,"lon":5.40601,"is_reserved":false,"is_disabled":false,"rental_uris":{"android":"levelo://app?vid=3c4d2152-afbe-418b-8f57-3da58acdcaf9","ios":"levelo://app?vid=3c4d2152-afbe-418b-8f57-3da58acdcaf9"},"vehicle_type_id":"4","last_reported":1700914296,"current_range_meters":8400,"station_id":"ce4bh0h2rcd13ifvqd60","pricing_plan_id":"free"},{"bike_id":"53818692-0854-436a-8369-50c7f7557c55","system_id":"levelo_inurba_marseille","lat":43.282744,"lon":5.350533,"is_reserved":false,"is_disabled":false,"rental_uris":{"android":"levelo://app?vid=53818692-0854-436a-8369-50c7f7557c55","ios":"levelo://app?vid=53818692-0854-436a-8369-50c7f7557c55"},"vehicle_type_id":"4","last_reported":1700914296,"current_range_meters":28000,"station_id":"ce4bhbp2rcd13ifvqerg","pricing_plan_id":"free"},{"bike_id":"6c124473-587f-41f5-b201-fb33060c2f82","system_id":"levelo_inurba_marseille","lat":43.28039,"lon":5.369297,"is_reserved":false,"is_disabled":false,"rental_uris":{"android":"levelo://app?vid=6c124473-587f-41f5-b201-fb33060c2f82","ios":"levelo://app?vid=6c124473-587f-41f5-b201-fb33060c2f82"},"vehicle_type_id":"4","last_reported":1700914296,"current_range_meters":2000,"station_id":"ce4bha12rcd13ifvqef0","pricing_plan_id":"free"},{"bike_id":"4bb5c0e5-9aac-42c4-be6a-2ee6665a4c95","system_id":"levelo_inurba_marseille","lat":43.282754,"lon":5.350519,"is_reserved":false,"is_disabled":false,"rental_uris":{"android":"levelo://app?vid=4bb5c0e5-9aac-42c4-be6a-2ee6665a4c95","ios":"levelo://app?vid=4bb5c0e5-9aac-42c4-be6a-2ee6665a4c95"},"vehicle_type_id":"4","last_reported":1700914296,"current_range_meters":17200,"station_id":"ce4bhbp2rcd13ifvqerg","pricing_plan_id":"free"},{"bike_id":"8d26ebb1-4696-4523-943d-d1120dc0e7a2","system_id":"levelo_inurba_marseille","lat":43.28039,"lon":5.369297,"is_reserved":false,"is_disabled":false,"rental_uris":{"android":"levelo://app?vid=8d26ebb1-4696-4523-943d-d1120dc0e7a2","ios":"levelo://app?vid=8d26ebb1-4696-4523-943d-d1120dc0e7a2"},"vehicle_type_id":"4","last_reported":1700914296,"current_range_meters":14000,"station_id":"ce4bha12rcd13ifvqef0","pricing_plan_id":"free"},{"bike_id":"509b8f74-53b7-4776-8f70-b15efa089d8e","system_id":"levelo_inurba_marseille","lat":43.28039,"lon":5.369297,"is_reserved":false,"is_disabled":false,"rental_uris":{"android":"levelo://app?vid=509b8f74-53b7-4776-8f70-b15efa089d8e","ios":"levelo://app?vid=509b8f74-53b7-4776-8f70-b15efa089d8e"},"vehicle_type_id":"4","last_reported":1700914296,"current_range_meters":24400,"station_id":"ce4bha12rcd13ifvqef0","pricing_plan_id":"free"},{"bike_id":"20280146-b5bc-40b6-bea2-92f85bab31b6","system_id":"levelo_inurba_marseille","lat":43.284462,"lon":5.392121,"is_reserved":false,"is_disabled":false,"rental_uris":{"android":"levelo://app?vid=20280146-b5bc-40b6-bea2-92f85bab31b6","ios":"levelo://app?vid=20280146-b5bc-40b6-bea2-92f85bab31b6"},"vehicle_type_id":"4","last_reported":1700914296,"current_range_meters":14000,"station_id":"ce4bhoh2rcd13ifvqh5g","pricing_plan_id":"free"},{"bike_id":"80d23d25-f03e-430c-965c-580b33145f30","system_id":"levelo_inurba_marseille","lat":43.284462,"lon":5.392121,"is_reserved":false,"is_disabled":false,"rental_uris":{"android":"levelo://app?vid=80d23d25-f03e-430c-965c-580b33145f30","ios":"levelo://app?vid=80d23d25-f03e-430c-965c-580b33145f30"},"vehicle_type_id":"4","last_reported":1700914296,"current_range_meters":26000,"station_id":"ce4bhoh2rcd13ifvqh5g","pricing_plan_id":"free"},{"bike_id":"71a4e9aa-26e1-4118-8063-2c225c0d697f","system_id":"levelo_inurba_marseille","lat":43.28573,"lon":5.394992,"is_reserved":false,"is_disabled":false,"rental_uris":{"android":"levelo://app?vid=71a4e9aa-26e1-4118-8063-2c225c0d697f","ios":"levelo://app?vid=71a4e9aa-26e1-4118-8063-2c225c0d697f"},"vehicle_type_id":"4","last_reported":1700914296,"current_range_meters":29200,"station_id":"ce4bh292rcd13ifvqdg0","pricing_plan_id":"free"},{"bike_id":"026fdd0a-f873-40cb-a96b-63afcdeff60b","system_id":"levelo_inurba_marseille","lat":43.28573,"lon":5.394992,"is_reserved":false,"is_disabled":false,"rental_uris":{"android":"levelo://app?vid=026fdd0a-f873-40cb-a96b-63afcdeff60b","ios":"levelo://app?vid=026fdd0a-f873-40cb-a96b-63afcdeff60b"},"vehicle_type_id":"4","last_reported":1700914296,"current_range_meters":14400,"station_id":"ce4bh292rcd13ifvqdg0","pricing_plan_id":"free"},{"bike_id":"039a5025-9c1c-4a20-9f65-6a03f20c6996","system_id":"levelo_inurba_marseille","lat":43.28573,"lon":5.394992,"is_reserved":false,"is_disabled":false,"rental_uris":{"android":"levelo://app?vid=039a5025-9c1c-4a20-9f65-6a03f20c6996","ios":"levelo://app?vid=039a5025-9c1c-4a20-9f65-6a03f20c6996"},"vehicle_type_id":"4","last_reported":1700914296,"current_range_meters":14000,"station_id":"ce4bh292rcd13ifvqdg0","pricing_plan_id":"free"},{"bike_id":"bec2f640-9796-4862-9347-7d0441d55947","system_id":"levelo_inurba_marseille","lat":43.304188,"lon":5.412904,"is_reserved":false,"is_disabled":false,"rental_uris":{"android":"levelo://app?vid=bec2f640-9796-4862-9347-7d0441d55947","ios":"levelo://app?vid=bec2f640-9796-4862-9347-7d0441d55947"},"vehicle_type_id":"4","last_reported":1700914296,"current_range_meters":30000,"station_id":"ce4bhop2rcd13ifvqh8g","pricing_plan_id":"free"},{"bike_id":"72ef4936-c628-48b8-9309-08da208d4f21","system_id":"levelo_inurba_marseille","lat":43.279087,"lon":5.380114,"is_reserved":false,"is_disabled":false,"rental_uris":{"android":"levelo://app?vid=72ef4936-c628-48b8-9309-08da208d4f21","ios":"levelo://app?vid=72ef4936-c628-48b8-9309-08da208d4f21"},"vehicle_type_id":"4","last_reported":1700914296,"current_range_meters":18400,"station_id":"ce4bhf92rcd13ifvqf50","pricing_plan_id":"free"},{"bike_id":"9fedd3dd-4e80-4824-ac2c-7d42bc0d2622","system_id":"levelo_inurba_marseille","lat":43.279087,"lon":5.380114,"is_reserved":false,"is_disabled":false,"rental_uris":{"android":"levelo://app?vid=9fedd3dd-4e80-4824-ac2c-7d42bc0d2622","ios":"levelo://app?vid=9fedd3dd-4e80-4824-ac2c-7d42bc0d2622"},"vehicle_type_id":"4","last_reported":1700914296,"current_range_meters":31200,"station_id":"ce4bhf92rcd13ifvqf50","pricing_plan_id":"free"},{"bike_id":"0a8cdda7-f607-489b-872f-b5d317046e5a","system_id":"levelo_inurba_marseille","lat":43.28706,"lon":5.39987,"is_reserved":false,"is_disabled":false,"rental_uris":{"android":"levelo://app?vid=0a8cdda7-f607-489b-872f-b5d317046e5a","ios":"levelo://app?vid=0a8cdda7-f607-489b-872f-b5d317046e5a"},"vehicle_type_id":"4","last_reported":1700914296,"current_range_meters":14800,"station_id":"ce4bho92rcd13ifvqh3g","pricing_plan_id":"free"},{"bike_id":"e1d1ef9b-55b8-4cd8-aa2a-cb3e417cd833","system_id":"levelo_inurba_marseille","lat":43.287026,"lon":5.39984,"is_reserved":false,"is_disabled":false,"rental_uris":{"android":"levelo://app?vid=e1d1ef9b-55b8-4cd8-aa2a-cb3e417cd833","ios":"levelo://app?vid=e1d1ef9b-55b8-4cd8-aa2a-cb3e417cd833"},"vehicle_type_id":"4","last_reported":1700914296,"current_range_meters":25200,"station_id":"ce4bho92rcd13ifvqh3g","pricing_plan_id":"free"},{"bike_id":"643cf4c0-7041-4088-8af7-a657f2b8c3d3","system_id":"levelo_inurba_marseille","lat":43.28699,"lon":5.39985,"is_reserved":false,"is_disabled":false,"rental_uris":{"android":"levelo://app?vid=643cf4c0-7041-4088-8af7-a657f2b8c3d3","ios":"levelo://app?vid=643cf4c0-7041-4088-8af7-a657f2b8c3d3"},"vehicle_type_id":"4","last_reported":1700914296,"current_range_meters":23600,"station_id":"ce4bho92rcd13ifvqh3g","pricing_plan_id":"free"},{"bike_id":"2e2793c0-dd35-4091-98fc-3958f5c5353b","system_id":"levelo_inurba_marseille","lat":43.292571,"lon":5.409107,"is_reserved":false,"is_disabled":false,"rental_uris":{"android":"levelo://app?vid=2e2793c0-dd35-4091-98fc-3958f5c5353b","ios":"levelo://app?vid=2e2793c0-dd35-4091-98fc-3958f5c5353b"},"vehicle_type_id":"4","last_reported":1700914296,"current_range_meters":21600,"station_id":"ce4bh192rcd13ifvqdc0","pricing_plan_id":"free"},{"bike_id":"1d416622-4bec-45ab-9c6d-2909e57af139","system_id":"levelo_inurba_marseille","lat":43.2925,"lon":5.40916,"is_reserved":false,"is_disabled":false,"rental_uris":{"android":"levelo://app?vid=1d416622-4bec-45ab-9c6d-2909e57af139","ios":"levelo://app?vid=1d416622-4bec-45ab-9c6d-2909e57af139"},"vehicle_type_id":"4","last_reported":1700914296,"current_range_meters":24400,"station_id":"ce4bh192rcd13ifvqdc0","pricing_plan_id":"free"},{"bike_id":"954f1dd7-5512-4d8d-a1aa-c9b74f7669a8","system_id":"levelo_inurba_marseille","lat":43.29398,"lon":5.41243,"is_reserved":false,"is_disabled":false,"rental_uris":{"android":"levelo://app?vid=954f1dd7-5512-4d8d-a1aa-c9b74f7669a8","ios":"levelo://app?vid=954f1dd7-5512-4d8d-a1aa-c9b74f7669a8"},"vehicle_type_id":"4","last_reported":1700914296,"current_range_meters":25200,"station_id":"","pricing_plan_id":"free"},{"bike_id":"c25ea147-e804-4786-9d25-91f61a8ed59a","system_id":"levelo_inurba_marseille","lat":43.293651,"lon":5.41268,"is_reserved":false,"is_disabled":false,"rental_uris":{"android":"levelo://app?vid=c25ea147-e804-4786-9d25-91f61a8ed59a","ios":"levelo://app?vid=c25ea147-e804-4786-9d25-91f61a8ed59a"},"vehicle_type_id":"4","last_reported":1700914296,"current_range_meters":0,"station_id":"","pricing_plan_id":"free"},{"bike_id":"5d5ac311-b9ba-4673-ba04-8c2b02d7b37a","system_id":"levelo_inurba_marseille","lat":43.280784,"lon":5.396622,"is_reserved":false,"is_disabled":false,"rental_uris":{"android":"levelo://app?vid=5d5ac311-b9ba-4673-ba04-8c2b02d7b37a","ios":"levelo://app?vid=5d5ac311-b9ba-4673-ba04-8c2b02d7b37a"},"vehicle_type_id":"4","last_reported":1700914296,"current_range_meters":27600,"station_id":"ce4bho12rcd13ifvqh2g","pricing_plan_id":"free"},{"bike_id":"848302c1-7e46-4e1a-b20a-fac23f69ef1b","system_id":"levelo_inurba_marseille","lat":43.280784,"lon":5.396622,"is_reserved":false,"is_disabled":false,"rental_uris":{"android":"levelo://app?vid=848302c1-7e46-4e1a-b20a-fac23f69ef1b","ios":"levelo://app?vid=848302c1-7e46-4e1a-b20a-fac23f69ef1b"},"vehicle_type_id":"4","last_reported":1700914296,"current_range_meters":29200,"station_id":"ce4bho12rcd13ifvqh2g","pricing_plan_id":"free"},{"bike_id":"0849bea2-f1f1-40e6-9a7b-5a25e795bef0","system_id":"levelo_inurba_marseille","lat":43.278399,"lon":5.392139,"is_reserved":false,"is_disabled":false,"rental_uris":{"android":"levelo://app?vid=0849bea2-f1f1-40e6-9a7b-5a25e795bef0","ios":"levelo://app?vid=0849bea2-f1f1-40e6-9a7b-5a25e795bef0"},"vehicle_type_id":"4","last_reported":1700914296,"current_range_meters":11600,"station_id":"ce4bhjp2rcd13ifvqga0","pricing_plan_id":"free"},{"bike_id":"dfe8d0a2-b335-4dac-8701-3cc04ff74909","system_id":"levelo_inurba_marseille","lat":43.275625,"lon":5.384392,"is_reserved":false,"is_disabled":false,"rental_uris":{"android":"levelo://app?vid=dfe8d0a2-b335-4dac-8701-3cc04ff74909","ios":"levelo://app?vid=dfe8d0a2-b335-4dac-8701-3cc04ff74909"},"vehicle_type_id":"4","last_reported":1700914296,"current_range_meters":20000,"station_id":"ce4bhh92rcd13ifvqfi0","pricing_plan_id":"free"},{"bike_id":"01da612a-be08-4fd8-8ee4-35a1e02f0ba4","system_id":"levelo_inurba_marseille","lat":43.273613,"lon":5.362705,"is_reserved":false,"is_disabled":false,"rental_uris":{"android":"levelo://app?vid=01da612a-be08-4fd8-8ee4-35a1e02f0ba4","ios":"levelo://app?vid=01da612a-be08-4fd8-8ee4-35a1e02f0ba4"},"vehicle_type_id":"4","last_reported":1700914296,"current_range_meters":20800,"station_id":"ce4bhbh2rcd13ifvqeo0","pricing_plan_id":"free"},{"bike_id":"9e9e0bd1-3cb7-41ff-b89c-8f90877338bd","system_id":"levelo_inurba_marseille","lat":43.275625,"lon":5.384392,"is_reserved":false,"is_disabled":false,"rental_uris":{"android":"levelo://app?vid=9e9e0bd1-3cb7-41ff-b89c-8f90877338bd","ios":"levelo://app?vid=9e9e0bd1-3cb7-41ff-b89c-8f90877338bd"},"vehicle_type_id":"4","last_reported":1700914296,"current_range_meters":18800,"station_id":"ce4bhh92rcd13ifvqfi0","pricing_plan_id":"free"},{"bike_id":"5ee6803c-9539-45ab-9549-b6d005451ffd","system_id":"levelo_inurba_marseille","lat":43.276771,"lon":5.388799,"is_reserved":false,"is_disabled":false,"rental_uris":{"android":"levelo://app?vid=5ee6803c-9539-45ab-9549-b6d005451ffd","ios":"levelo://app?vid=5ee6803c-9539-45ab-9549-b6d005451ffd"},"vehicle_type_id":"4","last_reported":1700914296,"current_range_meters":28000,"station_id":"ce4bhi12rcd13ifvqfo0","pricing_plan_id":"free"},{"bike_id":"bf01a5e2-1f68-422e-9973-018f64f48ed4","system_id":"levelo_inurba_marseille","lat":43.279952,"lon":5.400085,"is_reserved":false,"is_disabled":false,"rental_uris":{"android":"levelo://app?vid=bf01a5e2-1f68-422e-9973-018f64f48ed4","ios":"levelo://app?vid=bf01a5e2-1f68-422e-9973-018f64f48ed4"},"vehicle_type_id":"4","last_reported":1700914296,"current_range_meters":26800,"station_id":"ce4bho92rcd13ifvqh4g","pricing_plan_id":"free"},{"bike_id":"561d56c0-616a-4955-bd15-b0e0ddd3d6ba","system_id":"levelo_inurba_marseille","lat":43.279952,"lon":5.400085,"is_reserved":false,"is_disabled":false,"rental_uris":{"android":"levelo://app?vid=561d56c0-616a-4955-bd15-b0e0ddd3d6ba","ios":"levelo://app?vid=561d56c0-616a-4955-bd15-b0e0ddd3d6ba"},"vehicle_type_id":"4","last_reported":1700914296,"current_range_meters":30800,"station_id":"ce4bho92rcd13ifvqh4g","pricing_plan_id":"free"},{"bike_id":"2aba52bf-9cdb-4dd3-a1ea-4c8b2bed0e7d","system_id":"levelo_inurba_marseille","lat":43.279952,"lon":5.400085,"is_reserved":false,"is_disabled":false,"rental_uris":{"android":"levelo://app?vid=2aba52bf-9cdb-4dd3-a1ea-4c8b2bed0e7d","ios":"levelo://app?vid=2aba52bf-9cdb-4dd3-a1ea-4c8b2bed0e7d"},"vehicle_type_id":"4","last_reported":1700914296,"current_range_meters":7200,"station_id":"ce4bho92rcd13ifvqh4g","pricing_plan_id":"free"},{"bike_id":"b13ed452-b20e-41ad-9c4a-25ac5c96fef3","system_id":"levelo_inurba_marseille","lat":43.27999,"lon":5.40019,"is_reserved":false,"is_disabled":false,"rental_uris":{"android":"levelo://app?vid=b13ed452-b20e-41ad-9c4a-25ac5c96fef3","ios":"levelo://app?vid=b13ed452-b20e-41ad-9c4a-25ac5c96fef3"},"vehicle_type_id":"4","last_reported":1700914296,"current_range_meters":6400,"station_id":"ce4bho92rcd13ifvqh4g","pricing_plan_id":"free"},{"bike_id":"249b954e-668d-41dc-91ac-6fd8484f66fb","system_id":"levelo_inurba_marseille","lat":43.310785,"lon":5.424305,"is_reserved":false,"is_disabled":false,"rental_uris":{"android":"levelo://app?vid=249b954e-668d-41dc-91ac-6fd8484f66fb","ios":"levelo://app?vid=249b954e-668d-41dc-91ac-6fd8484f66fb"},"vehicle_type_id":"4","last_reported":1700914296,"current_range_meters":22400,"station_id":"ce4bhp92rcd13ifvqhag","pricing_plan_id":"free"},{"bike_id":"5457855a-c845-4420-bce5-83a4d3ea2875","system_id":"levelo_inurba_marseille","lat":43.274099,"lon":5.394019,"is_reserved":false,"is_disabled":false,"rental_uris":{"android":"levelo://app?vid=5457855a-c845-4420-bce5-83a4d3ea2875","ios":"levelo://app?vid=5457855a-c845-4420-bce5-83a4d3ea2875"},"vehicle_type_id":"4","last_reported":1700914296,"current_range_meters":27600,"station_id":"ce4bhdp2rcd13ifvqf20","pricing_plan_id":"free"},{"bike_id":"03f6f11a-265b-4d50-a644-106570a22914","system_id":"levelo_inurba_marseille","lat":43.304096,"lon":5.425385,"is_reserved":false,"is_disabled":false,"rental_uris":{"android":"levelo://app?vid=03f6f11a-265b-4d50-a644-106570a22914","ios":"levelo://app?vid=03f6f11a-265b-4d50-a644-106570a22914"},"vehicle_type_id":"4","last_reported":1700914296,"current_range_meters":25200,"station_id":"ce4bhoh2rcd13ifvqh6g","pricing_plan_id":"free"},{"bike_id":"c0e7c921-2f34-4325-9644-1440c95e11ac","system_id":"levelo_inurba_marseille","lat":43.295523,"lon":5.422926,"is_reserved":false,"is_disabled":false,"rental_uris":{"android":"levelo://app?vid=c0e7c921-2f34-4325-9644-1440c95e11ac","ios":"levelo://app?vid=c0e7c921-2f34-4325-9644-1440c95e11ac"},"vehicle_type_id":"4","last_reported":1700914296,"current_range_meters":27200,"station_id":"ce4bhph2rcd13ifvqhdg","pricing_plan_id":"free"},{"bike_id":"39ba2a28-4e45-47ae-b54e-2e865e84aa2a","system_id":"levelo_inurba_marseille","lat":43.295523,"lon":5.422926,"is_reserved":false,"is_disabled":false,"rental_uris":{"android":"levelo://app?vid=39ba2a28-4e45-47ae-b54e-2e865e84aa2a","ios":"levelo://app?vid=39ba2a28-4e45-47ae-b54e-2e865e84aa2a"},"vehicle_type_id":"4","last_reported":1700914296,"current_range_meters":26000,"station_id":"ce4bhph2rcd13ifvqhdg","pricing_plan_id":"free"},{"bike_id":"9830637b-caf5-476f-85b7-c02033487ff2","system_id":"levelo_inurba_marseille","lat":43.29555,"lon":5.42287,"is_reserved":false,"is_disabled":false,"rental_uris":{"android":"levelo://app?vid=9830637b-caf5-476f-85b7-c02033487ff2","ios":"levelo://app?vid=9830637b-caf5-476f-85b7-c02033487ff2"},"vehicle_type_id":"4","last_reported":1700914296,"current_range_meters":31200,"station_id":"ce4bhph2rcd13ifvqhdg","pricing_plan_id":"free"},{"bike_id":"1052d100-bfed-4f3e-a202-ed9b2825b805","system_id":"levelo_inurba_marseille","lat":43.29561,"lon":5.42292,"is_reserved":false,"is_disabled":false,"rental_uris":{"android":"levelo://app?vid=1052d100-bfed-4f3e-a202-ed9b2825b805","ios":"levelo://app?vid=1052d100-bfed-4f3e-a202-ed9b2825b805"},"vehicle_type_id":"4","last_reported":1700914296,"current_range_meters":22000,"station_id":"ce4bhph2rcd13ifvqhdg","pricing_plan_id":"free"},{"bike_id":"5c2d3803-5301-4383-8f33-d03bcc26775b","system_id":"levelo_inurba_marseille","lat":43.278128,"lon":5.407195,"is_reserved":false,"is_disabled":false,"rental_uris":{"android":"levelo://app?vid=5c2d3803-5301-4383-8f33-d03bcc26775b","ios":"levelo://app?vid=5c2d3803-5301-4383-8f33-d03bcc26775b"},"vehicle_type_id":"4","last_reported":1700914296,"current_range_meters":17200,"station_id":"ce4bhnh2rcd13ifvqgtg","pricing_plan_id":"free"},{"bike_id":"a18071c5-8d15-40f5-bca5-597b6d20b01e","system_id":"levelo_inurba_marseille","lat":43.278128,"lon":5.407195,"is_reserved":false,"is_disabled":false,"rental_uris":{"android":"levelo://app?vid=a18071c5-8d15-40f5-bca5-597b6d20b01e","ios":"levelo://app?vid=a18071c5-8d15-40f5-bca5-597b6d20b01e"},"vehicle_type_id":"4","last_reported":1700914296,"current_range_meters":25600,"station_id":"ce4bhnh2rcd13ifvqgtg","pricing_plan_id":"free"},{"bike_id":"49046dcd-a03d-49f3-bc05-77df9871f101","system_id":"levelo_inurba_marseille","lat":43.27811,"lon":5.4072,"is_reserved":false,"is_disabled":false,"rental_uris":{"android":"levelo://app?vid=49046dcd-a03d-49f3-bc05-77df9871f101","ios":"levelo://app?vid=49046dcd-a03d-49f3-bc05-77df9871f101"},"vehicle_type_id":"4","last_reported":1700914296,"current_range_meters":0,"station_id":"ce4bhnh2rcd13ifvqgtg","pricing_plan_id":"free"},{"bike_id":"765e706f-68e6-4b58-8a26-eaf2140a98f6","system_id":"levelo_inurba_marseille","lat":43.269319,"lon":5.389397,"is_reserved":false,"is_disabled":false,"rental_uris":{"android":"levelo://app?vid=765e706f-68e6-4b58-8a26-eaf2140a98f6","ios":"levelo://app?vid=765e706f-68e6-4b58-8a26-eaf2140a98f6"},"vehicle_type_id":"4","last_reported":1700914296,"current_range_meters":20400,"station_id":"ce4bhhh2rcd13ifvqfl0","pricing_plan_id":"free"},{"bike_id":"7d69171a-9496-49a4-8e19-b9db9763b692","system_id":"levelo_inurba_marseille","lat":43.26681,"lon":5.382694,"is_reserved":false,"is_disabled":false,"rental_uris":{"android":"levelo://app?vid=7d69171a-9496-49a4-8e19-b9db9763b692","ios":"levelo://app?vid=7d69171a-9496-49a4-8e19-b9db9763b692"},"vehicle_type_id":"4","last_reported":1700914296,"current_range_meters":20800,"station_id":"ce4bhg92rcd13ifvqf90","pricing_plan_id":"free"},{"bike_id":"6a294583-8a22-4f3d-b383-fd77450a83a0","system_id":"levelo_inurba_marseille","lat":43.265714,"lon":5.372891,"is_reserved":false,"is_disabled":false,"rental_uris":{"android":"levelo://app?vid=6a294583-8a22-4f3d-b383-fd77450a83a0","ios":"levelo://app?vid=6a294583-8a22-4f3d-b383-fd77450a83a0"},"vehicle_type_id":"4","last_reported":1700914296,"current_range_meters":16000,"station_id":"ce4bhg12rcd13ifvqf70","pricing_plan_id":"free"},{"bike_id":"5d8dd0a6-d6ce-472c-8605-b1618cbc6442","system_id":"levelo_inurba_marseille","lat":43.26554,"lon":5.37286,"is_reserved":false,"is_disabled":false,"rental_uris":{"android":"levelo://app?vid=5d8dd0a6-d6ce-472c-8605-b1618cbc6442","ios":"levelo://app?vid=5d8dd0a6-d6ce-472c-8605-b1618cbc6442"},"vehicle_type_id":"4","last_reported":1700914296,"current_range_meters":24400,"station_id":"ce4bhg12rcd13ifvqf70","pricing_plan_id":"free"},{"bike_id":"2b75536e-7cfc-42c6-9550-b8ce9ff86c4f","system_id":"levelo_inurba_marseille","lat":43.265714,"lon":5.372891,"is_reserved":false,"is_disabled":false,"rental_uris":{"android":"levelo://app?vid=2b75536e-7cfc-42c6-9550-b8ce9ff86c4f","ios":"levelo://app?vid=2b75536e-7cfc-42c6-9550-b8ce9ff86c4f"},"vehicle_type_id":"4","last_reported":1700914296,"current_range_meters":13200,"station_id":"ce4bhg12rcd13ifvqf70","pricing_plan_id":"free"},{"bike_id":"f23d8119-b478-4639-98c5-6883279f9f84","system_id":"levelo_inurba_marseille","lat":43.32592,"lon":5.43067,"is_reserved":false,"is_disabled":false,"rental_uris":{"android":"levelo://app?vid=f23d8119-b478-4639-98c5-6883279f9f84","ios":"levelo://app?vid=f23d8119-b478-4639-98c5-6883279f9f84"},"vehicle_type_id":"4","last_reported":1700914296,"current_range_meters":26800,"station_id":"","pricing_plan_id":"free"},{"bike_id":"e7b368e8-9edf-4ac8-acef-7e9558d427aa","system_id":"levelo_inurba_marseille","lat":43.32591,"lon":5.430713,"is_reserved":false,"is_disabled":false,"rental_uris":{"android":"levelo://app?vid=e7b368e8-9edf-4ac8-acef-7e9558d427aa","ios":"levelo://app?vid=e7b368e8-9edf-4ac8-acef-7e9558d427aa"},"vehicle_type_id":"4","last_reported":1700914296,"current_range_meters":0,"station_id":"","pricing_plan_id":"free"},{"bike_id":"ed30d6a1-b23a-49e5-9c83-5546be72a734","system_id":"levelo_inurba_marseille","lat":43.3259,"lon":5.43075,"is_reserved":false,"is_disabled":false,"rental_uris":{"android":"levelo://app?vid=ed30d6a1-b23a-49e5-9c83-5546be72a734","ios":"levelo://app?vid=ed30d6a1-b23a-49e5-9c83-5546be72a734"},"vehicle_type_id":"4","last_reported":1700914296,"current_range_meters":21600,"station_id":"","pricing_plan_id":"free"},{"bike_id":"d67469ee-5362-4610-a163-fe05ae3cf4f7","system_id":"levelo_inurba_marseille","lat":43.32604,"lon":5.430817,"is_reserved":false,"is_disabled":false,"rental_uris":{"android":"levelo://app?vid=d67469ee-5362-4610-a163-fe05ae3cf4f7","ios":"levelo://app?vid=d67469ee-5362-4610-a163-fe05ae3cf4f7"},"vehicle_type_id":"4","last_reported":1700914296,"current_range_meters":10000,"station_id":"","pricing_plan_id":"free"},{"bike_id":"2b5f0b27-ae58-4e9e-bd76-c585f78e8a73","system_id":"levelo_inurba_marseille","lat":43.26386,"lon":5.37454,"is_reserved":false,"is_disabled":false,"rental_uris":{"android":"levelo://app?vid=2b5f0b27-ae58-4e9e-bd76-c585f78e8a73","ios":"levelo://app?vid=2b5f0b27-ae58-4e9e-bd76-c585f78e8a73"},"vehicle_type_id":"4","last_reported":1700914296,"current_range_meters":10800,"station_id":"","pricing_plan_id":"free"},{"bike_id":"580f9306-3cf6-4c95-b825-d5fcb6ed24b5","system_id":"levelo_inurba_marseille","lat":43.267966,"lon":5.393976,"is_reserved":false,"is_disabled":false,"rental_uris":{"android":"levelo://app?vid=580f9306-3cf6-4c95-b825-d5fcb6ed24b5","ios":"levelo://app?vid=580f9306-3cf6-4c95-b825-d5fcb6ed24b5"},"vehicle_type_id":"4","last_reported":1700914296,"current_range_meters":2400,"station_id":"ce4bhh12rcd13ifvqfg0","pricing_plan_id":"free"},{"bike_id":"7e069ca0-1860-42fd-a0ca-8e88d4c665ec","system_id":"levelo_inurba_marseille","lat":43.26949,"lon":5.40262,"is_reserved":false,"is_disabled":false,"rental_uris":{"android":"levelo://app?vid=7e069ca0-1860-42fd-a0ca-8e88d4c665ec","ios":"levelo://app?vid=7e069ca0-1860-42fd-a0ca-8e88d4c665ec"},"vehicle_type_id":"4","last_reported":1700914296,"current_range_meters":22000,"station_id":"cjm6bp8fraef2m0cb0m0","pricing_plan_id":"free"},{"bike_id":"beab9f18-b444-44c0-b52a-692dbddd84c6","system_id":"levelo_inurba_marseille","lat":43.26949,"lon":5.40262,"is_reserved":false,"is_disabled":false,"rental_uris":{"android":"levelo://app?vid=beab9f18-b444-44c0-b52a-692dbddd84c6","ios":"levelo://app?vid=beab9f18-b444-44c0-b52a-692dbddd84c6"},"vehicle_type_id":"4","last_reported":1700914296,"current_range_meters":9600,"station_id":"cjm6bp8fraef2m0cb0m0","pricing_plan_id":"free"},{"bike_id":"f809b2bb-3716-4d7b-8de4-7c32b60e559d","system_id":"levelo_inurba_marseille","lat":43.317104,"lon":5.436818,"is_reserved":false,"is_disabled":false,"rental_uris":{"android":"levelo://app?vid=f809b2bb-3716-4d7b-8de4-7c32b60e559d","ios":"levelo://app?vid=f809b2bb-3716-4d7b-8de4-7c32b60e559d"},"vehicle_type_id":"4","last_reported":1700914296,"current_range_meters":16800,"station_id":"ce4bhp92rcd13ifvqhcg","pricing_plan_id":"free"},{"bike_id":"1b98b7d3-c287-45d9-80ab-ed0171f3329e","system_id":"levelo_inurba_marseille","lat":43.317104,"lon":5.436818,"is_reserved":false,"is_disabled":false,"rental_uris":{"android":"levelo://app?vid=1b98b7d3-c287-45d9-80ab-ed0171f3329e","ios":"levelo://app?vid=1b98b7d3-c287-45d9-80ab-ed0171f3329e"},"vehicle_type_id":"4","last_reported":1700914296,"current_range_meters":31200,"station_id":"ce4bhp92rcd13ifvqhcg","pricing_plan_id":"free"},{"bike_id":"f958d9ff-681e-4195-ae88-8b03f0d9019a","system_id":"levelo_inurba_marseille","lat":43.317104,"lon":5.436818,"is_reserved":false,"is_disabled":false,"rental_uris":{"android":"levelo://app?vid=f958d9ff-681e-4195-ae88-8b03f0d9019a","ios":"levelo://app?vid=f958d9ff-681e-4195-ae88-8b03f0d9019a"},"vehicle_type_id":"4","last_reported":1700914296,"current_range_meters":11600,"station_id":"ce4bhp92rcd13ifvqhcg","pricing_plan_id":"free"},{"bike_id":"46163101-d36f-4b9d-b2d0-b570d3e9c51c","system_id":"levelo_inurba_marseille","lat":43.317104,"lon":5.436818,"is_reserved":false,"is_disabled":false,"rental_uris":{"android":"levelo://app?vid=46163101-d36f-4b9d-b2d0-b570d3e9c51c","ios":"levelo://app?vid=46163101-d36f-4b9d-b2d0-b570d3e9c51c"},"vehicle_type_id":"4","last_reported":1700914296,"current_range_meters":30000,"station_id":"ce4bhp92rcd13ifvqhcg","pricing_plan_id":"free"},{"bike_id":"a6cf9b04-855d-4dc5-9c72-ce4a8e5bbb9c","system_id":"levelo_inurba_marseille","lat":43.317104,"lon":5.436818,"is_reserved":false,"is_disabled":false,"rental_uris":{"android":"levelo://app?vid=a6cf9b04-855d-4dc5-9c72-ce4a8e5bbb9c","ios":"levelo://app?vid=a6cf9b04-855d-4dc5-9c72-ce4a8e5bbb9c"},"vehicle_type_id":"4","last_reported":1700914296,"current_range_meters":25200,"station_id":"ce4bhp92rcd13ifvqhcg","pricing_plan_id":"free"},{"bike_id":"731477c7-3eda-47fa-a9be-55a54d5ff8fe","system_id":"levelo_inurba_marseille","lat":43.271368,"lon":5.40928,"is_reserved":false,"is_disabled":false,"rental_uris":{"android":"levelo://app?vid=731477c7-3eda-47fa-a9be-55a54d5ff8fe","ios":"levelo://app?vid=731477c7-3eda-47fa-a9be-55a54d5ff8fe"},"vehicle_type_id":"4","last_reported":1700914296,"current_range_meters":27600,"station_id":"ce4bhl12rcd13ifvqgf0","pricing_plan_id":"free"},{"bike_id":"dbf62bfb-d43b-46dc-b301-0e9e00d707fe","system_id":"levelo_inurba_marseille","lat":43.26202,"lon":5.379299,"is_reserved":false,"is_disabled":false,"rental_uris":{"android":"levelo://app?vid=dbf62bfb-d43b-46dc-b301-0e9e00d707fe","ios":"levelo://app?vid=dbf62bfb-d43b-46dc-b301-0e9e00d707fe"},"vehicle_type_id":"4","last_reported":1700914296,"current_range_meters":28400,"station_id":"ce4bhjp2rcd13ifvqg90","pricing_plan_id":"free"},{"bike_id":"4572da7b-b339-4c7f-80aa-57f54e950769","system_id":"levelo_inurba_marseille","lat":43.271388,"lon":5.409269,"is_reserved":false,"is_disabled":false,"rental_uris":{"android":"levelo://app?vid=4572da7b-b339-4c7f-80aa-57f54e950769","ios":"levelo://app?vid=4572da7b-b339-4c7f-80aa-57f54e950769"},"vehicle_type_id":"4","last_reported":1700914296,"current_range_meters":26400,"station_id":"ce4bhl12rcd13ifvqgf0","pricing_plan_id":"free"},{"bike_id":"3feec791-ffcf-49b4-a3ec-8839e018235b","system_id":"levelo_inurba_marseille","lat":43.271388,"lon":5.409269,"is_reserved":false,"is_disabled":false,"rental_uris":{"android":"levelo://app?vid=3feec791-ffcf-49b4-a3ec-8839e018235b","ios":"levelo://app?vid=3feec791-ffcf-49b4-a3ec-8839e018235b"},"vehicle_type_id":"4","last_reported":1700914296,"current_range_meters":30000,"station_id":"ce4bhl12rcd13ifvqgf0","pricing_plan_id":"free"},{"bike_id":"2c4d5ebd-20a5-4930-b6d4-59de038f9215","system_id":"levelo_inurba_marseille","lat":43.26197,"lon":5.37935,"is_reserved":false,"is_disabled":false,"rental_uris":{"android":"levelo://app?vid=2c4d5ebd-20a5-4930-b6d4-59de038f9215","ios":"levelo://app?vid=2c4d5ebd-20a5-4930-b6d4-59de038f9215"},"vehicle_type_id":"4","last_reported":1700914296,"current_range_meters":22800,"station_id":"ce4bhjp2rcd13ifvqg90","pricing_plan_id":"free"},{"bike_id":"5cb02a10-c500-431a-9c2a-a407bc9b0746","system_id":"levelo_inurba_marseille","lat":43.26194,"lon":5.37934,"is_reserved":false,"is_disabled":false,"rental_uris":{"android":"levelo://app?vid=5cb02a10-c500-431a-9c2a-a407bc9b0746","ios":"levelo://app?vid=5cb02a10-c500-431a-9c2a-a407bc9b0746"},"vehicle_type_id":"4","last_reported":1700914296,"current_range_meters":15600,"station_id":"ce4bhjp2rcd13ifvqg90","pricing_plan_id":"free"},{"bike_id":"7c5a83ac-336c-4b91-a5ea-82b3c6d6127d","system_id":"levelo_inurba_marseille","lat":43.298768,"lon":5.43643,"is_reserved":false,"is_disabled":false,"rental_uris":{"android":"levelo://app?vid=7c5a83ac-336c-4b91-a5ea-82b3c6d6127d","ios":"levelo://app?vid=7c5a83ac-336c-4b91-a5ea-82b3c6d6127d"},"vehicle_type_id":"4","last_reported":1700914296,"current_range_meters":31600,"station_id":"ce4bhpp2rcd13ifvqhfg","pricing_plan_id":"free"},{"bike_id":"91794d0e-e2e6-4dd9-a1b6-ff7501e49342","system_id":"levelo_inurba_marseille","lat":43.29899,"lon":5.43671,"is_reserved":false,"is_disabled":false,"rental_uris":{"android":"levelo://app?vid=91794d0e-e2e6-4dd9-a1b6-ff7501e49342","ios":"levelo://app?vid=91794d0e-e2e6-4dd9-a1b6-ff7501e49342"},"vehicle_type_id":"4","last_reported":1700914296,"current_range_meters":31200,"station_id":"ce4bhpp2rcd13ifvqhfg","pricing_plan_id":"free"},{"bike_id":"8af0d2ed-93d1-485d-9803-40c71e52d0d9","system_id":"levelo_inurba_marseille","lat":43.29901,"lon":5.43672,"is_reserved":false,"is_disabled":false,"rental_uris":{"android":"levelo://app?vid=8af0d2ed-93d1-485d-9803-40c71e52d0d9","ios":"levelo://app?vid=8af0d2ed-93d1-485d-9803-40c71e52d0d9"},"vehicle_type_id":"4","last_reported":1700914296,"current_range_meters":14000,"station_id":"ce4bhpp2rcd13ifvqhfg","pricing_plan_id":"free"},{"bike_id":"f0185995-5ea5-4188-8b2e-cb34dfece5eb","system_id":"levelo_inurba_marseille","lat":43.298768,"lon":5.43643,"is_reserved":false,"is_disabled":false,"rental_uris":{"android":"levelo://app?vid=f0185995-5ea5-4188-8b2e-cb34dfece5eb","ios":"levelo://app?vid=f0185995-5ea5-4188-8b2e-cb34dfece5eb"},"vehicle_type_id":"4","last_reported":1700914296,"current_range_meters":17200,"station_id":"ce4bhpp2rcd13ifvqhfg","pricing_plan_id":"free"},{"bike_id":"a86dad0e-ed90-45d8-b404-9db5c47a466c","system_id":"levelo_inurba_marseille","lat":43.260225,"lon":5.375455,"is_reserved":false,"is_disabled":false,"rental_uris":{"android":"levelo://app?vid=a86dad0e-ed90-45d8-b404-9db5c47a466c","ios":"levelo://app?vid=a86dad0e-ed90-45d8-b404-9db5c47a466c"},"vehicle_type_id":"4","last_reported":1700914296,"current_range_meters":20800,"station_id":"ce4bhgh2rcd13ifvqfa0","pricing_plan_id":"free"},{"bike_id":"5ac38179-4d98-4b89-80f2-dc6cd474e479","system_id":"levelo_inurba_marseille","lat":43.28153,"lon":5.42638,"is_reserved":false,"is_disabled":false,"rental_uris":{"android":"levelo://app?vid=5ac38179-4d98-4b89-80f2-dc6cd474e479","ios":"levelo://app?vid=5ac38179-4d98-4b89-80f2-dc6cd474e479"},"vehicle_type_id":"4","last_reported":1700914296,"current_range_meters":16800,"station_id":"ce4bhnh2rcd13ifvqgug","pricing_plan_id":"free"},{"bike_id":"5cc76595-4035-4213-b74e-41dabe622aaf","system_id":"levelo_inurba_marseille","lat":43.281524,"lon":5.426383,"is_reserved":false,"is_disabled":false,"rental_uris":{"android":"levelo://app?vid=5cc76595-4035-4213-b74e-41dabe622aaf","ios":"levelo://app?vid=5cc76595-4035-4213-b74e-41dabe622aaf"},"vehicle_type_id":"4","last_reported":1700914296,"current_range_meters":4400,"station_id":"ce4bhnh2rcd13ifvqgug","pricing_plan_id":"free"},{"bike_id":"d768e2fe-6b25-4802-a387-61ef3c8aab5f","system_id":"levelo_inurba_marseille","lat":43.281548,"lon":5.42643,"is_reserved":false,"is_disabled":false,"rental_uris":{"android":"levelo://app?vid=d768e2fe-6b25-4802-a387-61ef3c8aab5f","ios":"levelo://app?vid=d768e2fe-6b25-4802-a387-61ef3c8aab5f"},"vehicle_type_id":"4","last_reported":1700914296,"current_range_meters":26000,"station_id":"ce4bhnh2rcd13ifvqgug","pricing_plan_id":"free"},{"bike_id":"6181795c-d57f-4dce-a524-f46690bf06cb","system_id":"levelo_inurba_marseille","lat":43.28151,"lon":5.42649,"is_reserved":false,"is_disabled":false,"rental_uris":{"android":"levelo://app?vid=6181795c-d57f-4dce-a524-f46690bf06cb","ios":"levelo://app?vid=6181795c-d57f-4dce-a524-f46690bf06cb"},"vehicle_type_id":"4","last_reported":1700914296,"current_range_meters":25600,"station_id":"ce4bhnh2rcd13ifvqgug","pricing_plan_id":"free"},{"bike_id":"a0dc61a7-e45c-4872-8a53-721d6b13accf","system_id":"levelo_inurba_marseille","lat":43.2607,"lon":5.393983,"is_reserved":false,"is_disabled":false,"rental_uris":{"android":"levelo://app?vid=a0dc61a7-e45c-4872-8a53-721d6b13accf","ios":"levelo://app?vid=a0dc61a7-e45c-4872-8a53-721d6b13accf"},"vehicle_type_id":"4","last_reported":1700914296,"current_range_meters":24400,"station_id":"ce4bhh92rcd13ifvqfj0","pricing_plan_id":"free"},{"bike_id":"80e5f941-d269-46ca-b966-e9646f789e40","system_id":"levelo_inurba_marseille","lat":43.2607,"lon":5.393983,"is_reserved":false,"is_disabled":false,"rental_uris":{"android":"levelo://app?vid=80e5f941-d269-46ca-b966-e9646f789e40","ios":"levelo://app?vid=80e5f941-d269-46ca-b966-e9646f789e40"},"vehicle_type_id":"4","last_reported":1700914296,"current_range_meters":14400,"station_id":"ce4bhh92rcd13ifvqfj0","pricing_plan_id":"free"},{"bike_id":"4a0ccbba-de4c-4f27-b7e0-4c2581f4bfe3","system_id":"levelo_inurba_marseille","lat":43.2607,"lon":5.393983,"is_reserved":false,"is_disabled":false,"rental_uris":{"android":"levelo://app?vid=4a0ccbba-de4c-4f27-b7e0-4c2581f4bfe3","ios":"levelo://app?vid=4a0ccbba-de4c-4f27-b7e0-4c2581f4bfe3"},"vehicle_type_id":"4","last_reported":1700914296,"current_range_meters":27600,"station_id":"ce4bhh92rcd13ifvqfj0","pricing_plan_id":"free"},{"bike_id":"ff385c11-2b7e-45df-b8ce-aac89ab149ad","system_id":"levelo_inurba_marseille","lat":43.275028,"lon":5.424534,"is_reserved":false,"is_disabled":false,"rental_uris":{"android":"levelo://app?vid=ff385c11-2b7e-45df-b8ce-aac89ab149ad","ios":"levelo://app?vid=ff385c11-2b7e-45df-b8ce-aac89ab149ad"},"vehicle_type_id":"4","last_reported":1700914296,"current_range_meters":31200,"station_id":"ce4bhn92rcd13ifvqgrg","pricing_plan_id":"free"},{"bike_id":"db5dd59c-d9aa-4b61-8d3e-4e2f779af44d","system_id":"levelo_inurba_marseille","lat":43.260909,"lon":5.397591,"is_reserved":false,"is_disabled":false,"rental_uris":{"android":"levelo://app?vid=db5dd59c-d9aa-4b61-8d3e-4e2f779af44d","ios":"levelo://app?vid=db5dd59c-d9aa-4b61-8d3e-4e2f779af44d"},"vehicle_type_id":"4","last_reported":1700914296,"current_range_meters":16800,"station_id":"ce4bhi12rcd13ifvqfq0","pricing_plan_id":"free"},{"bike_id":"24f1bf1f-5268-45e6-a816-869a92bcc51d","system_id":"levelo_inurba_marseille","lat":43.275028,"lon":5.424534,"is_reserved":false,"is_disabled":false,"rental_uris":{"android":"levelo://app?vid=24f1bf1f-5268-45e6-a816-869a92bcc51d","ios":"levelo://app?vid=24f1bf1f-5268-45e6-a816-869a92bcc51d"},"vehicle_type_id":"4","last_reported":1700914296,"current_range_meters":31200,"station_id":"ce4bhn92rcd13ifvqgrg","pricing_plan_id":"free"},{"bike_id":"c85f7616-3a9e-47a4-ae16-28a03e51ab4f","system_id":"levelo_inurba_marseille","lat":43.289323,"lon":5.438652,"is_reserved":false,"is_disabled":false,"rental_uris":{"android":"levelo://app?vid=c85f7616-3a9e-47a4-ae16-28a03e51ab4f","ios":"levelo://app?vid=c85f7616-3a9e-47a4-ae16-28a03e51ab4f"},"vehicle_type_id":"4","last_reported":1700914296,"current_range_meters":7600,"station_id":"","pricing_plan_id":"free"},{"bike_id":"1695a488-f0c3-456a-a470-abb31d95c518","system_id":"levelo_inurba_marseille","lat":43.258224,"lon":5.394369,"is_reserved":false,"is_disabled":false,"rental_uris":{"android":"levelo://app?vid=1695a488-f0c3-456a-a470-abb31d95c518","ios":"levelo://app?vid=1695a488-f0c3-456a-a470-abb31d95c518"},"vehicle_type_id":"4","last_reported":1700914296,"current_range_meters":18000,"station_id":"ce4bhip2rcd13ifvqft0","pricing_plan_id":"free"},{"bike_id":"5bdfde27-fb79-4721-be17-0993cd0778b6","system_id":"levelo_inurba_marseille","lat":43.254947,"lon":5.376454,"is_reserved":false,"is_disabled":false,"rental_uris":{"android":"levelo://app?vid=5bdfde27-fb79-4721-be17-0993cd0778b6","ios":"levelo://app?vid=5bdfde27-fb79-4721-be17-0993cd0778b6"},"vehicle_type_id":"4","last_reported":1700914296,"current_range_meters":17200,"station_id":"ce4bhh12rcd13ifvqff0","pricing_plan_id":"free"},{"bike_id":"7596707c-49c3-4eae-95e1-008467641ac2","system_id":"levelo_inurba_marseille","lat":43.270721,"lon":5.422764,"is_reserved":false,"is_disabled":false,"rental_uris":{"android":"levelo://app?vid=7596707c-49c3-4eae-95e1-008467641ac2","ios":"levelo://app?vid=7596707c-49c3-4eae-95e1-008467641ac2"},"vehicle_type_id":"4","last_reported":1700914296,"current_range_meters":31200,"station_id":"ce4bhk92rcd13ifvqgb0","pricing_plan_id":"free"},{"bike_id":"cfd2dccf-2ef8-4b4a-8469-7caa00dd869f","system_id":"levelo_inurba_marseille","lat":43.270721,"lon":5.422764,"is_reserved":false,"is_disabled":false,"rental_uris":{"android":"levelo://app?vid=cfd2dccf-2ef8-4b4a-8469-7caa00dd869f","ios":"levelo://app?vid=cfd2dccf-2ef8-4b4a-8469-7caa00dd869f"},"vehicle_type_id":"4","last_reported":1700914296,"current_range_meters":25600,"station_id":"ce4bhk92rcd13ifvqgb0","pricing_plan_id":"free"},{"bike_id":"4efeab10-fc64-4315-b907-003206a4c0c2","system_id":"levelo_inurba_marseille","lat":43.270721,"lon":5.422764,"is_reserved":false,"is_disabled":false,"rental_uris":{"android":"levelo://app?vid=4efeab10-fc64-4315-b907-003206a4c0c2","ios":"levelo://app?vid=4efeab10-fc64-4315-b907-003206a4c0c2"},"vehicle_type_id":"4","last_reported":1700914296,"current_range_meters":20800,"station_id":"ce4bhk92rcd13ifvqgb0","pricing_plan_id":"free"},{"bike_id":"ad657e31-d5a7-459b-a7ef-89532e280c6c","system_id":"levelo_inurba_marseille","lat":43.270721,"lon":5.422764,"is_reserved":false,"is_disabled":false,"rental_uris":{"android":"levelo://app?vid=ad657e31-d5a7-459b-a7ef-89532e280c6c","ios":"levelo://app?vid=ad657e31-d5a7-459b-a7ef-89532e280c6c"},"vehicle_type_id":"4","last_reported":1700914296,"current_range_meters":26000,"station_id":"ce4bhk92rcd13ifvqgb0","pricing_plan_id":"free"},{"bike_id":"3f44d4de-851f-49f3-804f-50c0b0659c7c","system_id":"levelo_inurba_marseille","lat":43.259013,"lon":5.409301,"is_reserved":false,"is_disabled":false,"rental_uris":{"android":"levelo://app?vid=3f44d4de-851f-49f3-804f-50c0b0659c7c","ios":"levelo://app?vid=3f44d4de-851f-49f3-804f-50c0b0659c7c"},"vehicle_type_id":"4","last_reported":1700914296,"current_range_meters":15600,"station_id":"ce4bhm92rcd13ifvqglg","pricing_plan_id":"free"},{"bike_id":"34b8976c-6036-4b67-9ec8-e013a6ceb002","system_id":"levelo_inurba_marseille","lat":43.259294,"lon":5.409086,"is_reserved":false,"is_disabled":false,"rental_uris":{"android":"levelo://app?vid=34b8976c-6036-4b67-9ec8-e013a6ceb002","ios":"levelo://app?vid=34b8976c-6036-4b67-9ec8-e013a6ceb002"},"vehicle_type_id":"4","last_reported":1700914296,"current_range_meters":29200,"station_id":"ce4bhm92rcd13ifvqglg","pricing_plan_id":"free"},{"bike_id":"48773712-1a80-47ff-ab7b-51cdd2fa4075","system_id":"levelo_inurba_marseille","lat":43.25932,"lon":5.40918,"is_reserved":false,"is_disabled":false,"rental_uris":{"android":"levelo://app?vid=48773712-1a80-47ff-ab7b-51cdd2fa4075","ios":"levelo://app?vid=48773712-1a80-47ff-ab7b-51cdd2fa4075"},"vehicle_type_id":"4","last_reported":1700914296,"current_range_meters":30800,"station_id":"ce4bhm92rcd13ifvqglg","pricing_plan_id":"free"},{"bike_id":"2655ffac-19b4-4157-a21d-897b7faad022","system_id":"levelo_inurba_marseille","lat":43.257079,"lon":5.411051,"is_reserved":false,"is_disabled":false,"rental_uris":{"android":"levelo://app?vid=2655ffac-19b4-4157-a21d-897b7faad022","ios":"levelo://app?vid=2655ffac-19b4-4157-a21d-897b7faad022"},"vehicle_type_id":"4","last_reported":1700914296,"current_range_meters":27200,"station_id":"ce4bhkp2rcd13ifvqgd0","pricing_plan_id":"free"},{"bike_id":"3bd036e1-6a14-432e-b284-c184c3be48c8","system_id":"levelo_inurba_marseille","lat":43.2479,"lon":5.374457,"is_reserved":false,"is_disabled":false,"rental_uris":{"android":"levelo://app?vid=3bd036e1-6a14-432e-b284-c184c3be48c8","ios":"levelo://app?vid=3bd036e1-6a14-432e-b284-c184c3be48c8"},"vehicle_type_id":"4","last_reported":1700914296,"current_range_meters":7200,"station_id":"ce4bhgh2rcd13ifvqfb0","pricing_plan_id":"free"},{"bike_id":"e9e84a4d-5458-4748-858f-bf801ec6967b","system_id":"levelo_inurba_marseille","lat":43.2479,"lon":5.374457,"is_reserved":false,"is_disabled":false,"rental_uris":{"android":"levelo://app?vid=e9e84a4d-5458-4748-858f-bf801ec6967b","ios":"levelo://app?vid=e9e84a4d-5458-4748-858f-bf801ec6967b"},"vehicle_type_id":"4","last_reported":1700914296,"current_range_meters":7600,"station_id":"ce4bhgh2rcd13ifvqfb0","pricing_plan_id":"free"},{"bike_id":"6a04ec88-d00f-43be-8686-e7ca49066b70","system_id":"levelo_inurba_marseille","lat":43.2479,"lon":5.374457,"is_reserved":false,"is_disabled":false,"rental_uris":{"android":"levelo://app?vid=6a04ec88-d00f-43be-8686-e7ca49066b70","ios":"levelo://app?vid=6a04ec88-d00f-43be-8686-e7ca49066b70"},"vehicle_type_id":"4","last_reported":1700914296,"current_range_meters":12800,"station_id":"ce4bhgh2rcd13ifvqfb0","pricing_plan_id":"free"},{"bike_id":"3f20f57c-8543-4c4a-ac72-1f52e9edd47d","system_id":"levelo_inurba_marseille","lat":43.25093,"lon":5.39519,"is_reserved":false,"is_disabled":false,"rental_uris":{"android":"levelo://app?vid=3f20f57c-8543-4c4a-ac72-1f52e9edd47d","ios":"levelo://app?vid=3f20f57c-8543-4c4a-ac72-1f52e9edd47d"},"vehicle_type_id":"4","last_reported":1700914296,"current_range_meters":18000,"station_id":"ce4bhm12rcd13ifvqgkg","pricing_plan_id":"free"},{"bike_id":"9dd1764f-05de-4839-b10a-1f5e6454740a","system_id":"levelo_inurba_marseille","lat":43.250897,"lon":5.395161,"is_reserved":false,"is_disabled":false,"rental_uris":{"android":"levelo://app?vid=9dd1764f-05de-4839-b10a-1f5e6454740a","ios":"levelo://app?vid=9dd1764f-05de-4839-b10a-1f5e6454740a"},"vehicle_type_id":"4","last_reported":1700914296,"current_range_meters":28000,"station_id":"ce4bhm12rcd13ifvqgkg","pricing_plan_id":"free"},{"bike_id":"7f09f9cd-a541-4c22-93b0-54660f481f18","system_id":"levelo_inurba_marseille","lat":43.25087,"lon":5.39523,"is_reserved":false,"is_disabled":false,"rental_uris":{"android":"levelo://app?vid=7f09f9cd-a541-4c22-93b0-54660f481f18","ios":"levelo://app?vid=7f09f9cd-a541-4c22-93b0-54660f481f18"},"vehicle_type_id":"4","last_reported":1700914296,"current_range_meters":10400,"station_id":"ce4bhm12rcd13ifvqgkg","pricing_plan_id":"free"},{"bike_id":"4e22f755-9fb8-454a-aed8-0ce31691dc80","system_id":"levelo_inurba_marseille","lat":43.2473,"lon":5.37395,"is_reserved":false,"is_disabled":false,"rental_uris":{"android":"levelo://app?vid=4e22f755-9fb8-454a-aed8-0ce31691dc80","ios":"levelo://app?vid=4e22f755-9fb8-454a-aed8-0ce31691dc80"},"vehicle_type_id":"4","last_reported":1700914296,"current_range_meters":19200,"station_id":"","pricing_plan_id":"free"},{"bike_id":"5004ef9f-85f8-4cc2-b0fc-8b2c28abe97c","system_id":"levelo_inurba_marseille","lat":43.25102,"lon":5.403214,"is_reserved":false,"is_disabled":false,"rental_uris":{"android":"levelo://app?vid=5004ef9f-85f8-4cc2-b0fc-8b2c28abe97c","ios":"levelo://app?vid=5004ef9f-85f8-4cc2-b0fc-8b2c28abe97c"},"vehicle_type_id":"4","last_reported":1700914296,"current_range_meters":29200,"station_id":"ce4bhlh2rcd13ifvqgig","pricing_plan_id":"free"},{"bike_id":"9f3ea2e9-6451-47c6-a33b-7778f251ffad","system_id":"levelo_inurba_marseille","lat":43.251086,"lon":5.403224,"is_reserved":false,"is_disabled":false,"rental_uris":{"android":"levelo://app?vid=9f3ea2e9-6451-47c6-a33b-7778f251ffad","ios":"levelo://app?vid=9f3ea2e9-6451-47c6-a33b-7778f251ffad"},"vehicle_type_id":"4","last_reported":1700914296,"current_range_meters":2800,"station_id":"ce4bhlh2rcd13ifvqgig","pricing_plan_id":"free"},{"bike_id":"32768eb1-3843-4a6e-84d1-c15ad1443c34","system_id":"levelo_inurba_marseille","lat":43.251089,"lon":5.403263,"is_reserved":false,"is_disabled":false,"rental_uris":{"android":"levelo://app?vid=32768eb1-3843-4a6e-84d1-c15ad1443c34","ios":"levelo://app?vid=32768eb1-3843-4a6e-84d1-c15ad1443c34"},"vehicle_type_id":"4","last_reported":1700914296,"current_range_meters":17200,"station_id":"ce4bhlh2rcd13ifvqgig","pricing_plan_id":"free"},{"bike_id":"90604205-3676-4845-9812-e9f9728828ed","system_id":"levelo_inurba_marseille","lat":43.243884,"lon":5.370737,"is_reserved":false,"is_disabled":false,"rental_uris":{"android":"levelo://app?vid=90604205-3676-4845-9812-e9f9728828ed","ios":"levelo://app?vid=90604205-3676-4845-9812-e9f9728828ed"},"vehicle_type_id":"4","last_reported":1700914296,"current_range_meters":30400,"station_id":"ce4bhhh2rcd13ifvqfk0","pricing_plan_id":"free"},{"bike_id":"96424d46-9504-4976-b733-408b7f10c853","system_id":"levelo_inurba_marseille","lat":43.245581,"lon":5.395069,"is_reserved":false,"is_disabled":false,"rental_uris":{"android":"levelo://app?vid=96424d46-9504-4976-b733-408b7f10c853","ios":"levelo://app?vid=96424d46-9504-4976-b733-408b7f10c853"},"vehicle_type_id":"4","last_reported":1700914296,"current_range_meters":30400,"station_id":"ce4bhlp2rcd13ifvqgjg","pricing_plan_id":"free"},{"bike_id":"aacee138-95eb-4dc4-8c3b-28f2bee62089","system_id":"levelo_inurba_marseille","lat":43.24074,"lon":5.37758,"is_reserved":false,"is_disabled":false,"rental_uris":{"android":"levelo://app?vid=aacee138-95eb-4dc4-8c3b-28f2bee62089","ios":"levelo://app?vid=aacee138-95eb-4dc4-8c3b-28f2bee62089"},"vehicle_type_id":"4","last_reported":1700914296,"current_range_meters":17600,"station_id":"ce4bhnp2rcd13ifvqgvg","pricing_plan_id":"free"},{"bike_id":"1cb96f04-f422-460b-925f-998463caffcc","system_id":"levelo_inurba_marseille","lat":43.24071,"lon":5.37754,"is_reserved":false,"is_disabled":false,"rental_uris":{"android":"levelo://app?vid=1cb96f04-f422-460b-925f-998463caffcc","ios":"levelo://app?vid=1cb96f04-f422-460b-925f-998463caffcc"},"vehicle_type_id":"4","last_reported":1700914296,"current_range_meters":11600,"station_id":"ce4bhnp2rcd13ifvqgvg","pricing_plan_id":"free"},{"bike_id":"bed15832-4559-4b29-8eb1-6a2b5c17528a","system_id":"levelo_inurba_marseille","lat":43.240708,"lon":5.377554,"is_reserved":false,"is_disabled":false,"rental_uris":{"android":"levelo://app?vid=bed15832-4559-4b29-8eb1-6a2b5c17528a","ios":"levelo://app?vid=bed15832-4559-4b29-8eb1-6a2b5c17528a"},"vehicle_type_id":"4","last_reported":1700914296,"current_range_meters":21200,"station_id":"ce4bhnp2rcd13ifvqgvg","pricing_plan_id":"free"},{"bike_id":"44753933-251e-471e-8435-27aad442d759","system_id":"levelo_inurba_marseille","lat":43.24071,"lon":5.3776,"is_reserved":false,"is_disabled":false,"rental_uris":{"android":"levelo://app?vid=44753933-251e-471e-8435-27aad442d759","ios":"levelo://app?vid=44753933-251e-471e-8435-27aad442d759"},"vehicle_type_id":"4","last_reported":1700914296,"current_range_meters":31200,"station_id":"ce4bhnp2rcd13ifvqgvg","pricing_plan_id":"free"},{"bike_id":"034cdb61-d747-4bb4-87d3-ed49b55b9556","system_id":"levelo_inurba_marseille","lat":43.240623,"lon":5.377642,"is_reserved":false,"is_disabled":false,"rental_uris":{"android":"levelo://app?vid=034cdb61-d747-4bb4-87d3-ed49b55b9556","ios":"levelo://app?vid=034cdb61-d747-4bb4-87d3-ed49b55b9556"},"vehicle_type_id":"4","last_reported":1700914296,"current_range_meters":29600,"station_id":"ce4bhnp2rcd13ifvqgvg","pricing_plan_id":"free"},{"bike_id":"99d4dd88-7ee5-45bd-9c7f-ce77aca5b5a4","system_id":"levelo_inurba_marseille","lat":43.24068,"lon":5.377553,"is_reserved":false,"is_disabled":false,"rental_uris":{"android":"levelo://app?vid=99d4dd88-7ee5-45bd-9c7f-ce77aca5b5a4","ios":"levelo://app?vid=99d4dd88-7ee5-45bd-9c7f-ce77aca5b5a4"},"vehicle_type_id":"4","last_reported":1700914296,"current_range_meters":23200,"station_id":"ce4bhnp2rcd13ifvqgvg","pricing_plan_id":"free"},{"bike_id":"56c7f400-414b-4a88-83d6-f063b9f27bea","system_id":"levelo_inurba_marseille","lat":43.24068,"lon":5.37759,"is_reserved":false,"is_disabled":false,"rental_uris":{"android":"levelo://app?vid=56c7f400-414b-4a88-83d6-f063b9f27bea","ios":"levelo://app?vid=56c7f400-414b-4a88-83d6-f063b9f27bea"},"vehicle_type_id":"4","last_reported":1700914296,"current_range_meters":27200,"station_id":"ce4bhnp2rcd13ifvqgvg","pricing_plan_id":"free"},{"bike_id":"b0ec7a80-57f1-405e-ac6b-52241687b4d5","system_id":"levelo_inurba_marseille","lat":43.24067,"lon":5.37759,"is_reserved":false,"is_disabled":false,"rental_uris":{"android":"levelo://app?vid=b0ec7a80-57f1-405e-ac6b-52241687b4d5","ios":"levelo://app?vid=b0ec7a80-57f1-405e-ac6b-52241687b4d5"},"vehicle_type_id":"4","last_reported":1700914296,"current_range_meters":22000,"station_id":"ce4bhnp2rcd13ifvqgvg","pricing_plan_id":"free"},{"bike_id":"ff01dbe1-223f-43a9-b0c6-51a5a8d2ed05","system_id":"levelo_inurba_marseille","lat":43.239588,"lon":5.366238,"is_reserved":false,"is_disabled":false,"rental_uris":{"android":"levelo://app?vid=ff01dbe1-223f-43a9-b0c6-51a5a8d2ed05","ios":"levelo://app?vid=ff01dbe1-223f-43a9-b0c6-51a5a8d2ed05"},"vehicle_type_id":"4","last_reported":1700914296,"current_range_meters":31600,"station_id":"ce4bhi12rcd13ifvqfp0","pricing_plan_id":"free"},{"bike_id":"340ba89e-beb6-4edd-9f37-a6ad2b2c6a9c","system_id":"levelo_inurba_marseille","lat":43.239588,"lon":5.366238,"is_reserved":false,"is_disabled":false,"rental_uris":{"android":"levelo://app?vid=340ba89e-beb6-4edd-9f37-a6ad2b2c6a9c","ios":"levelo://app?vid=340ba89e-beb6-4edd-9f37-a6ad2b2c6a9c"},