{"last_updated":1713557271,"ttl":30,"version":"2.2","data":{"bikes":[{"bike_id":"4aa2146c-7dc2-43f7-be68-453ebc3aa0e7","system_id":"levelo_inurba_marseille","lat":43.313391,"lon":5.36706,"is_reserved":false,"is_disabled":false,"rental_uris":{"android":"levelo://app?vid=4aa2146c-7dc2-43f7-be68-453ebc3aa0e7","ios":"levelo://app?vid=4aa2146c-7dc2-43f7-be68-453ebc3aa0e7"},"vehicle_type_id":"4","last_reported":1713557271,"current_range_meters":20000,"station_id":"ce4bgr92rcd13ifvqc6g","pricing_plan_id":"cebpf4jnsgd1na2vs0mg"},{"bike_id":"1ae64ffa-e84f-4f13-b049-776344c5a086","system_id":"levelo_inurba_marseille","lat":43.312239,"lon":5.368562,"is_reserved":false,"is_disabled":false,"rental_uris":{"android":"levelo://app?vid=1ae64ffa-e84f-4f13-b049-776344c5a086","ios":"levelo://app?vid=1ae64ffa-e84f-4f13-b049-776344c5a086"},"vehicle_type_id":"4","last_reported":1713557271,"current_range_meters":0,"station_id":"ce4bgl92rcd13ifvqbq0","pricing_plan_id":"cebpf4jnsgd1na2vs0mg"},{"bike_id":"3444f22b-75ef-4f0b-8f15-560f4d062e0f","system_id":"levelo_inurba_marseille","lat":43.303046,"lon":5.368981,"is_reserved":false,"is_disabled":false,"rental_uris":{"android":"levelo://app?vid=3444f22b-75ef-4f0b-8f15-560f4d062e0f","ios":"levelo://app?vid=3444f22b-75ef-4f0b-8f15-560f4d062e0f"},"vehicle_type_id":"4","last_reported":1713557271,"current_range_meters":5200,"station_id":"ce4bgqh2rcd13ifvqc5g","pricing_plan_id":"cebpf4jnsgd1na2vs0mg"},{"bike_id":"7e8ca0d6-a858-4015-bc60-87c4a909e45c","system_id":"levelo_inurba_marseille","lat":43.309039,"lon":5.371797,"is_reserved":false,"is_disabled":false,"rental_uris":{"android":"levelo://app?vid=7e8ca0d6-a858-4015-bc60-87c4a909e45c","ios":"levelo://app?vid=7e8ca0d6-a858-4015-bc60-87c4a909e45c"},"vehicle_type_id":"4","last_reported":1713557271,"current_range_meters":6000,"station_id":"ce4bguh2rcd13ifvqckg","pricing_plan_id":"cebpf4jnsgd1na2vs0mg"},{"bike_id":"9edc924b-24c0-4914-8bdd-a3a6928aa9eb","system_id":"levelo_inurba_marseille","lat":43.309039,"lon":5.371797,"is_reserved":false,"is_disabled":false,"rental_uris":{"android":"levelo://app?vid=9edc924b-24c0-4914-8bdd-a3a6928aa9eb","ios":"levelo://app?vid=9edc924b-24c0-4914-8bdd-a3a6928aa9eb"},"vehicle_type_id":"4","last_reported":1713557271,"current_range_meters":4800,"station_id":"ce4bguh2rcd13ifvqckg","pricing_plan_id":"cebpf4jnsgd1na2vs0mg"},{"bike_id":"ae69d03e-0a1e-484a-a5e9-b2db0c9b8c96","system_id":"levelo_inurba_marseille","lat":43.30537,"lon":5.367345,"is_reserved":false,"is_disabled":false,"rental_uris":{"android":"levelo://app?vid=ae69d03e-0a1e-484a-a5e9-b2db0c9b8c96","ios":"levelo://app?vid=ae69d03e-0a1e-484a-a5e9-b2db0c9b8c96"},"vehicle_type_id":"4","last_reported":1713557271,"current_range_meters":0,"station_id":"ce4bgrp2rcd13ifvqc9g","pricing_plan_id":"cebpf4jnsgd1na2vs0mg"},{"bike_id":"52f22b5a-486d-4c62-a4ac-137bfb2f235e","system_id":"levelo_inurba_marseille","lat":43.30554,"lon":5.36534,"is_reserved":false,"is_disabled":false,"rental_uris":{"android":"levelo://app?vid=52f22b5a-486d-4c62-a4ac-137bfb2f235e","ios":"levelo://app?vid=52f22b5a-486d-4c62-a4ac-137bfb2f235e"},"vehicle_type_id":"4","last_reported":1713557271,"current_range_meters":24400,"station_id":"","pricing_plan_id":"cebpf4jnsgd1na2vs0mg"},{"bike_id":"72b8ae2e-297b-4f64-a493-99869da16c33","system_id":"levelo_inurba_marseille","lat":43.289184,"lon":5.366408,"is_reserved":false,"is_disabled":false,"rental_uris":{"android":"levelo://app?vid=72b8ae2e-297b-4f64-a493-99869da16c33","ios":"levelo://app?vid=72b8ae2e-297b-4f64-a493-99869da16c33"},"vehicle_type_id":"4","last_reported":1713557271,"current_range_meters":1600,"station_id":"ce4bhap2rcd13ifvqek0","pricing_plan_id":"cebpf4jnsgd1na2vs0mg"},{"bike_id":"cfdfcd80-169f-42b7-b2b0-4e18a93b95a6","system_id":"levelo_inurba_marseille","lat":43.305368,"lon":5.367343,"is_reserved":false,"is_disabled":false,"rental_uris":{"android":"levelo://app?vid=cfdfcd80-169f-42b7-b2b0-4e18a93b95a6","ios":"levelo://app?vid=cfdfcd80-169f-42b7-b2b0-4e18a93b95a6"},"vehicle_type_id":"4","last_reported":1713557271,"current_range_meters":16400,"station_id":"ce4bgrp2rcd13ifvqc9g","pricing_plan_id":"cebpf4jnsgd1na2vs0mg"},{"bike_id":"bccd5668-0e4a-4613-bacc-22826ef0b67f","system_id":"levelo_inurba_marseille","lat":43.30537,"lon":5.367345,"is_reserved":false,"is_disabled":false,"rental_uris":{"android":"levelo://app?vid=bccd5668-0e4a-4613-bacc-22826ef0b67f","ios":"levelo://app?vid=bccd5668-0e4a-4613-bacc-22826ef0b67f"},"vehicle_type_id":"4","last_reported":1713557271,"current_range_meters":5200,"station_id":"ce4bgrp2rcd13ifvqc9g","pricing_plan_id":"cebpf4jnsgd1na2vs0mg"},{"bike_id":"77805b03-086b-4a45-9365-29d871a6494e","system_id":"levelo_inurba_marseille","lat":43.305366,"lon":5.365474,"is_reserved":false,"is_disabled":false,"rental_uris":{"android":"levelo://app?vid=77805b03-086b-4a45-9365-29d871a6494e","ios":"levelo://app?vid=77805b03-086b-4a45-9365-29d871a6494e"},"vehicle_type_id":"4","last_reported":1713557271,"current_range_meters":26800,"station_id":"ce4bhap2rcd13ifvqek0","pricing_plan_id":"cebpf4jnsgd1na2vs0mg"},{"bike_id":"878e9736-357d-4f38-825d-f8183b4d886e","system_id":"levelo_inurba_marseille","lat":43.30589,"lon":5.37206,"is_reserved":false,"is_disabled":false,"rental_uris":{"android":"levelo://app?vid=878e9736-357d-4f38-825d-f8183b4d886e","ios":"levelo://app?vid=878e9736-357d-4f38-825d-f8183b4d886e"},"vehicle_type_id":"4","last_reported":1713557271,"current_range_meters":0,"station_id":"ce4bgqh2rcd13ifvqc4g","pricing_plan_id":"cebpf4jnsgd1na2vs0mg"},{"bike_id":"a3631e01-27b8-4327-9d65-b96e48bed941","system_id":"levelo_inurba_marseille","lat":43.305989,"lon":5.37225,"is_reserved":false,"is_disabled":false,"rental_uris":{"android":"levelo://app?vid=a3631e01-27b8-4327-9d65-b96e48bed941","ios":"levelo://app?vid=a3631e01-27b8-4327-9d65-b96e48bed941"},"vehicle_type_id":"4","last_reported":1713557271,"current_range_meters":16800,"station_id":"ce4bgqh2rcd13ifvqc4g","pricing_plan_id":"cebpf4jnsgd1na2vs0mg"},{"bike_id":"884d0406-a0b8-4dd2-a963-a955d4c6ece2","system_id":"levelo_inurba_marseille","lat":43.305989,"lon":5.37225,"is_reserved":false,"is_disabled":false,"rental_uris":{"android":"levelo://app?vid=884d0406-a0b8-4dd2-a963-a955d4c6ece2","ios":"levelo://app?vid=884d0406-a0b8-4dd2-a963-a955d4c6ece2"},"vehicle_type_id":"4","last_reported":1713557271,"current_range_meters":6800,"station_id":"ce4bgqh2rcd13ifvqc4g","pricing_plan_id":"cebpf4jnsgd1na2vs0mg"},{"bike_id":"5d81b397-c16d-40b8-8271-3527dec1c7fa","system_id":"levelo_inurba_marseille","lat":43.3109,"lon":5.37791,"is_reserved":false,"is_disabled":false,"rental_uris":{"android":"levelo://app?vid=5d81b397-c16d-40b8-8271-3527dec1c7fa","ios":"levelo://app?vid=5d81b397-c16d-40b8-8271-3527dec1c7fa"},"vehicle_type_id":"4","last_reported":1713557271,"current_range_meters":0,"station_id":"","pricing_plan_id":"cebpf4jnsgd1na2vs0mg"},{"bike_id":"0ecfcc50-b646-49f8-a3a3-304fa54914d4","system_id":"levelo_inurba_marseille","lat":43.307945,"lon":5.376487,"is_reserved":false,"is_disabled":false,"rental_uris":{"android":"levelo://app?vid=0ecfcc50-b646-49f8-a3a3-304fa54914d4","ios":"levelo://app?vid=0ecfcc50-b646-49f8-a3a3-304fa54914d4"},"vehicle_type_id":"4","last_reported":1713557271,"current_range_meters":6000,"station_id":"ce4bgv92rcd13ifvqcq0","pricing_plan_id":"cebpf4jnsgd1na2vs0mg"},{"bike_id":"519052a5-a5e3-45a6-9c12-16a0292de942","system_id":"levelo_inurba_marseille","lat":43.307945,"lon":5.376487,"is_reserved":false,"is_disabled":false,"rental_uris":{"android":"levelo://app?vid=519052a5-a5e3-45a6-9c12-16a0292de942","ios":"levelo://app?vid=519052a5-a5e3-45a6-9c12-16a0292de942"},"vehicle_type_id":"4","last_reported":1713557271,"current_range_meters":8400,"station_id":"ce4bgv92rcd13ifvqcq0","pricing_plan_id":"cebpf4jnsgd1na2vs0mg"},{"bike_id":"b036bf2f-e4a4-4585-b622-666ace8ed571","system_id":"levelo_inurba_marseille","lat":43.317075,"lon":5.377367,"is_reserved":false,"is_disabled":false,"rental_uris":{"android":"levelo://app?vid=b036bf2f-e4a4-4585-b622-666ace8ed571","ios":"levelo://app?vid=b036bf2f-e4a4-4585-b622-666ace8ed571"},"vehicle_type_id":"4","last_reported":1713557271,"current_range_meters":8800,"station_id":"ce4bgth2rcd13ifvqch0","pricing_plan_id":"cebpf4jnsgd1na2vs0mg"},{"bike_id":"fe39d8dc-4a97-40b3-9513-b1c2164a590d","system_id":"levelo_inurba_marseille","lat":43.303046,"lon":5.368981,"is_reserved":false,"is_disabled":false,"rental_uris":{"android":"levelo://app?vid=fe39d8dc-4a97-40b3-9513-b1c2164a590d","ios":"levelo://app?vid=fe39d8dc-4a97-40b3-9513-b1c2164a590d"},"vehicle_type_id":"4","last_reported":1713557271,"current_range_meters":4000,"station_id":"ce4bgqh2rcd13ifvqc5g","pricing_plan_id":"cebpf4jnsgd1na2vs0mg"},{"bike_id":"21147f80-dbeb-4218-b6b2-d78f4174c664","system_id":"levelo_inurba_marseille","lat":43.303046,"lon":5.368981,"is_reserved":false,"is_disabled":false,"rental_uris":{"android":"levelo://app?vid=21147f80-dbeb-4218-b6b2-d78f4174c664","ios":"levelo://app?vid=21147f80-dbeb-4218-b6b2-d78f4174c664"},"vehicle_type_id":"4","last_reported":1713557271,"current_range_meters":8400,"station_id":"ce4bgqh2rcd13ifvqc5g","pricing_plan_id":"cebpf4jnsgd1na2vs0mg"},{"bike_id":"cf6011ca-40e0-4dcb-abaf-9861b0dc6017","system_id":"levelo_inurba_marseille","lat":43.303046,"lon":5.368981,"is_reserved":false,"is_disabled":false,"rental_uris":{"android":"levelo://app?vid=cf6011ca-40e0-4dcb-abaf-9861b0dc6017","ios":"levelo://app?vid=cf6011ca-40e0-4dcb-abaf-9861b0dc6017"},"vehicle_type_id":"4","last_reported":1713557271,"current_range_meters":23600,"station_id":"ce4bgqh2rcd13ifvqc5g","pricing_plan_id":"cebpf4jnsgd1na2vs0mg"},{"bike_id":"1afb1407-37ff-4c3e-a5b4-498e2d1ed6e8","system_id":"levelo_inurba_marseille","lat":43.303046,"lon":5.368981,"is_reserved":false,"is_disabled":false,"rental_uris":{"android":"levelo://app?vid=1afb1407-37ff-4c3e-a5b4-498e2d1ed6e8","ios":"levelo://app?vid=1afb1407-37ff-4c3e-a5b4-498e2d1ed6e8"},"vehicle_type_id":"4","last_reported":1713557271,"current_range_meters":20400,"station_id":"ce4bgqh2rcd13ifvqc5g","pricing_plan_id":"cebpf4jnsgd1na2vs0mg"},{"bike_id":"cff20540-180a-4dda-be91-42a95d76e87d","system_id":"levelo_inurba_marseille","lat":43.303046,"lon":5.368981,"is_reserved":false,"is_disabled":false,"rental_uris":{"android":"levelo://app?vid=cff20540-180a-4dda-be91-42a95d76e87d","ios":"levelo://app?vid=cff20540-180a-4dda-be91-42a95d76e87d"},"vehicle_type_id":"4","last_reported":1713557271,"current_range_meters":10800,"station_id":"ce4bgqh2rcd13ifvqc5g","pricing_plan_id":"cebpf4jnsgd1na2vs0mg"},{"bike_id":"c4dcd410-0cb6-458f-be8e-3ec93d878642","system_id":"levelo_inurba_marseille","lat":43.30304,"lon":5.368987,"is_reserved":false,"is_disabled":false,"rental_uris":{"android":"levelo://app?vid=c4dcd410-0cb6-458f-be8e-3ec93d878642","ios":"levelo://app?vid=c4dcd410-0cb6-458f-be8e-3ec93d878642"},"vehicle_type_id":"4","last_reported":1713557271,"current_range_meters":0,"station_id":"ce4bgqh2rcd13ifvqc5g","pricing_plan_id":"cebpf4jnsgd1na2vs0mg"},{"bike_id":"a361c869-d73f-4ca7-84eb-f37bc480418d","system_id":"levelo_inurba_marseille","lat":43.315293,"lon":5.380349,"is_reserved":false,"is_disabled":false,"rental_uris":{"android":"levelo://app?vid=a361c869-d73f-4ca7-84eb-f37bc480418d","ios":"levelo://app?vid=a361c869-d73f-4ca7-84eb-f37bc480418d"},"vehicle_type_id":"4","last_reported":1713557271,"current_range_meters":20000,"station_id":"ce4bhsp2rcd13ifvqi50","pricing_plan_id":"cebpf4jnsgd1na2vs0mg"},{"bike_id":"a3614f37-ba6a-45d6-8266-1d7a42cd8df0","system_id":"levelo_inurba_marseille","lat":43.303046,"lon":5.368981,"is_reserved":false,"is_disabled":false,"rental_uris":{"android":"levelo://app?vid=a3614f37-ba6a-45d6-8266-1d7a42cd8df0","ios":"levelo://app?vid=a3614f37-ba6a-45d6-8266-1d7a42cd8df0"},"vehicle_type_id":"4","last_reported":1713557271,"current_range_meters":8800,"station_id":"ce4bgqh2rcd13ifvqc5g","pricing_plan_id":"cebpf4jnsgd1na2vs0mg"},{"bike_id":"01838930-c69a-4d2a-b8b2-58ba97d9c16b","system_id":"levelo_inurba_marseille","lat":43.301913,"lon":5.36614,"is_reserved":false,"is_disabled":false,"rental_uris":{"android":"levelo://app?vid=01838930-c69a-4d2a-b8b2-58ba97d9c16b","ios":"levelo://app?vid=01838930-c69a-4d2a-b8b2-58ba97d9c16b"},"vehicle_type_id":"4","last_reported":1713557271,"current_range_meters":0,"station_id":"ce4bgrh2rcd13ifvqc8g","pricing_plan_id":"cebpf4jnsgd1na2vs0mg"},{"bike_id":"9ed05d28-5ff6-4248-b9a2-795c9c16adce","system_id":"levelo_inurba_marseille","lat":43.30179,"lon":5.36622,"is_reserved":false,"is_disabled":false,"rental_uris":{"android":"levelo://app?vid=9ed05d28-5ff6-4248-b9a2-795c9c16adce","ios":"levelo://app?vid=9ed05d28-5ff6-4248-b9a2-795c9c16adce"},"vehicle_type_id":"4","last_reported":1713557271,"current_range_meters":0,"station_id":"ce4bgrh2rcd13ifvqc8g","pricing_plan_id":"cebpf4jnsgd1na2vs0mg"},{"bike_id":"b40b91d4-203a-4dec-8882-67ce1e3a7413","system_id":"levelo_inurba_marseille","lat":43.308012,"lon":5.381511,"is_reserved":false,"is_disabled":false,"rental_uris":{"android":"levelo://app?vid=b40b91d4-203a-4dec-8882-67ce1e3a7413","ios":"levelo://app?vid=b40b91d4-203a-4dec-8882-67ce1e3a7413"},"vehicle_type_id":"4","last_reported":1713557271,"current_range_meters":4400,"station_id":"ce4bgt12rcd13ifvqce0","pricing_plan_id":"cebpf4jnsgd1na2vs0mg"},{"bike_id":"f555a3a6-3d19-4f41-a0d6-4f86169dc797","system_id":"levelo_inurba_marseille","lat":43.308012,"lon":5.381511,"is_reserved":false,"is_disabled":false,"rental_uris":{"android":"levelo://app?vid=f555a3a6-3d19-4f41-a0d6-4f86169dc797","ios":"levelo://app?vid=f555a3a6-3d19-4f41-a0d6-4f86169dc797"},"vehicle_type_id":"4","last_reported":1713557271,"current_range_meters":4800,"station_id":"ce4bgt12rcd13ifvqce0","pricing_plan_id":"cebpf4jnsgd1na2vs0mg"},{"bike_id":"8b0599cb-bd04-431a-ae74-c34fc64d58f9","system_id":"levelo_inurba_marseille","lat":43.30794,"lon":5.38159,"is_reserved":false,"is_disabled":false,"rental_uris":{"android":"levelo://app?vid=8b0599cb-bd04-431a-ae74-c34fc64d58f9","ios":"levelo://app?vid=8b0599cb-bd04-431a-ae74-c34fc64d58f9"},"vehicle_type_id":"4","last_reported":1713557271,"current_range_meters":24800,"station_id":"ce4bgt12rcd13ifvqce0","pricing_plan_id":"cebpf4jnsgd1na2vs0mg"},{"bike_id":"07d679de-4c8b-4a5c-b6f2-edf7cdb34f2a","system_id":"levelo_inurba_marseille","lat":43.304606,"lon":5.379026,"is_reserved":false,"is_disabled":false,"rental_uris":{"android":"levelo://app?vid=07d679de-4c8b-4a5c-b6f2-edf7cdb34f2a","ios":"levelo://app?vid=07d679de-4c8b-4a5c-b6f2-edf7cdb34f2a"},"vehicle_type_id":"4","last_reported":1713557271,"current_range_meters":0,"station_id":"ce4bgup2rcd13ifvqcn0","pricing_plan_id":"cebpf4jnsgd1na2vs0mg"},{"bike_id":"c4e44c67-6fae-44e8-93af-942e151ffe5d","system_id":"levelo_inurba_marseille","lat":43.308012,"lon":5.381511,"is_reserved":false,"is_disabled":false,"rental_uris":{"android":"levelo://app?vid=c4e44c67-6fae-44e8-93af-942e151ffe5d","ios":"levelo://app?vid=c4e44c67-6fae-44e8-93af-942e151ffe5d"},"vehicle_type_id":"4","last_reported":1713557271,"current_range_meters":0,"station_id":"ce4bgt12rcd13ifvqce0","pricing_plan_id":"cebpf4jnsgd1na2vs0mg"},{"bike_id":"30993a85-5578-4aa2-8518-bb101417392d","system_id":"levelo_inurba_marseille","lat":43.324771,"lon":5.36557,"is_reserved":false,"is_disabled":false,"rental_uris":{"android":"levelo://app?vid=30993a85-5578-4aa2-8518-bb101417392d","ios":"levelo://app?vid=30993a85-5578-4aa2-8518-bb101417392d"},"vehicle_type_id":"4","last_reported":1713557271,"current_range_meters":7200,"station_id":"ce4bhs12rcd13ifvqhvg","pricing_plan_id":"cebpf4jnsgd1na2vs0mg"},{"bike_id":"04634867-318b-477c-8acf-bcd449a63572","system_id":"levelo_inurba_marseille","lat":43.32479,"lon":5.36568,"is_reserved":false,"is_disabled":false,"rental_uris":{"android":"levelo://app?vid=04634867-318b-477c-8acf-bcd449a63572","ios":"levelo://app?vid=04634867-318b-477c-8acf-bcd449a63572"},"vehicle_type_id":"4","last_reported":1713557271,"current_range_meters":1200,"station_id":"ce4bhs12rcd13ifvqhvg","pricing_plan_id":"cebpf4jnsgd1na2vs0mg"},{"bike_id":"c17751bf-4b1e-4ed5-8ec6-1aa8f0f5ee16","system_id":"levelo_inurba_marseille","lat":43.324771,"lon":5.36557,"is_reserved":false,"is_disabled":false,"rental_uris":{"android":"levelo://app?vid=c17751bf-4b1e-4ed5-8ec6-1aa8f0f5ee16","ios":"levelo://app?vid=c17751bf-4b1e-4ed5-8ec6-1aa8f0f5ee16"},"vehicle_type_id":"4","last_reported":1713557271,"current_range_meters":9600,"station_id":"ce4bhs12rcd13ifvqhvg","pricing_plan_id":"cebpf4jnsgd1na2vs0mg"},{"bike_id":"87f9e4f2-9a1c-45e9-9d5f-df5c314d8ba1","system_id":"levelo_inurba_marseille","lat":43.32481,"lon":5.365667,"is_reserved":false,"is_disabled":false,"rental_uris":{"android":"levelo://app?vid=87f9e4f2-9a1c-45e9-9d5f-df5c314d8ba1","ios":"levelo://app?vid=87f9e4f2-9a1c-45e9-9d5f-df5c314d8ba1"},"vehicle_type_id":"4","last_reported":1713557271,"current_range_meters":11600,"station_id":"ce4bhs12rcd13ifvqhvg","pricing_plan_id":"cebpf4jnsgd1na2vs0mg"},{"bike_id":"bb5d202f-d6f9-438e-9bd1-bfcb7fe49994","system_id":"levelo_inurba_marseille","lat":43.324771,"lon":5.36557,"is_reserved":false,"is_disabled":false,"rental_uris":{"android":"levelo://app?vid=bb5d202f-d6f9-438e-9bd1-bfcb7fe49994","ios":"levelo://app?vid=bb5d202f-d6f9-438e-9bd1-bfcb7fe49994"},"vehicle_type_id":"4","last_reported":1713557271,"current_range_meters":12400,"station_id":"ce4bhs12rcd13ifvqhvg","pricing_plan_id":"cebpf4jnsgd1na2vs0mg"},{"bike_id":"e4e0753e-4b94-4857-9924-ddedf1c13729","system_id":"levelo_inurba_marseille","lat":43.324771,"lon":5.36557,"is_reserved":false,"is_disabled":false,"rental_uris":{"android":"levelo://app?vid=e4e0753e-4b94-4857-9924-ddedf1c13729","ios":"levelo://app?vid=e4e0753e-4b94-4857-9924-ddedf1c13729"},"vehicle_type_id":"4","last_reported":1713557271,"current_range_meters":0,"station_id":"ce4bhs12rcd13ifvqhvg","pricing_plan_id":"cebpf4jnsgd1na2vs0mg"},{"bike_id":"60472d8d-e78e-4549-83a0-17a53b3c0f7c","system_id":"levelo_inurba_marseille","lat":43.310804,"lon":5.38359,"is_reserved":false,"is_disabled":false,"rental_uris":{"android":"levelo://app?vid=60472d8d-e78e-4549-83a0-17a53b3c0f7c","ios":"levelo://app?vid=60472d8d-e78e-4549-83a0-17a53b3c0f7c"},"vehicle_type_id":"4","last_reported":1713557271,"current_range_meters":19200,"station_id":"ce4bgv92rcd13ifvqcr0","pricing_plan_id":"cebpf4jnsgd1na2vs0mg"},{"bike_id":"edf7cec4-cdf7-4979-8df8-da5fe8d8f1f9","system_id":"levelo_inurba_marseille","lat":43.310804,"lon":5.38359,"is_reserved":false,"is_disabled":false,"rental_uris":{"android":"levelo://app?vid=edf7cec4-cdf7-4979-8df8-da5fe8d8f1f9","ios":"levelo://app?vid=edf7cec4-cdf7-4979-8df8-da5fe8d8f1f9"},"vehicle_type_id":"4","last_reported":1713557271,"current_range_meters":8400,"station_id":"ce4bgv92rcd13ifvqcr0","pricing_plan_id":"cebpf4jnsgd1na2vs0mg"},{"bike_id":"2cdcf3b8-78c2-46a0-8fe0-8f3317b9e92a","system_id":"levelo_inurba_marseille","lat":43.310804,"lon":5.38359,"is_reserved":false,"is_disabled":false,"rental_uris":{"android":"levelo://app?vid=2cdcf3b8-78c2-46a0-8fe0-8f3317b9e92a","ios":"levelo://app?vid=2cdcf3b8-78c2-46a0-8fe0-8f3317b9e92a"},"vehicle_type_id":"4","last_reported":1713557271,"current_range_meters":25600,"station_id":"ce4bgv92rcd13ifvqcr0","pricing_plan_id":"cebpf4jnsgd1na2vs0mg"},{"bike_id":"65e7fd42-7a51-40fe-be30-ef17cf3ac268","system_id":"levelo_inurba_marseille","lat":43.310804,"lon":5.38359,"is_reserved":false,"is_disabled":false,"rental_uris":{"android":"levelo://app?vid=65e7fd42-7a51-40fe-be30-ef17cf3ac268","ios":"levelo://app?vid=65e7fd42-7a51-40fe-be30-ef17cf3ac268"},"vehicle_type_id":"4","last_reported":1713557271,"current_range_meters":400,"station_id":"ce4bgv92rcd13ifvqcr0","pricing_plan_id":"cebpf4jnsgd1na2vs0mg"},{"bike_id":"d5dea653-5c96-4068-bcee-0b1d41f37337","system_id":"levelo_inurba_marseille","lat":43.310804,"lon":5.38359,"is_reserved":false,"is_disabled":false,"rental_uris":{"android":"levelo://app?vid=d5dea653-5c96-4068-bcee-0b1d41f37337","ios":"levelo://app?vid=d5dea653-5c96-4068-bcee-0b1d41f37337"},"vehicle_type_id":"4","last_reported":1713557271,"current_range_meters":5600,"station_id":"ce4bgv92rcd13ifvqcr0","pricing_plan_id":"cebpf4jnsgd1na2vs0mg"},{"bike_id":"0c2eb703-449f-4000-a4a0-2c354f5137b9","system_id":"levelo_inurba_marseille","lat":43.310804,"lon":5.38359,"is_reserved":false,"is_disabled":false,"rental_uris":{"android":"levelo://app?vid=0c2eb703-449f-4000-a4a0-2c354f5137b9","ios":"levelo://app?vid=0c2eb703-449f-4000-a4a0-2c354f5137b9"},"vehicle_type_id":"4","last_reported":1713557271,"current_range_meters":0,"station_id":"ce4bgv92rcd13ifvqcr0","pricing_plan_id":"cebpf4jnsgd1na2vs0mg"},{"bike_id":"71cf26d6-2800-48dd-ae6e-8eda1eae26de","system_id":"levelo_inurba_marseille","lat":43.305395,"lon":5.380968,"is_reserved":false,"is_disabled":false,"rental_uris":{"android":"levelo://app?vid=71cf26d6-2800-48dd-ae6e-8eda1eae26de","ios":"levelo://app?vid=71cf26d6-2800-48dd-ae6e-8eda1eae26de"},"vehicle_type_id":"4","last_reported":1713557271,"current_range_meters":20000,"station_id":"","pricing_plan_id":"cebpf4jnsgd1na2vs0mg"},{"bike_id":"d212c281-3522-420a-b06f-b80966290c73","system_id":"levelo_inurba_marseille","lat":43.319935,"lon":5.381699,"is_reserved":false,"is_disabled":false,"rental_uris":{"android":"levelo://app?vid=d212c281-3522-420a-b06f-b80966290c73","ios":"levelo://app?vid=d212c281-3522-420a-b06f-b80966290c73"},"vehicle_type_id":"4","last_reported":1713557271,"current_range_meters":14800,"station_id":"ce4bhr12rcd13ifvqhpg","pricing_plan_id":"cebpf4jnsgd1na2vs0mg"},{"bike_id":"334e3407-4f9b-4b57-a5ef-39033f25d948","system_id":"levelo_inurba_marseille","lat":43.319935,"lon":5.381699,"is_reserved":false,"is_disabled":false,"rental_uris":{"android":"levelo://app?vid=334e3407-4f9b-4b57-a5ef-39033f25d948","ios":"levelo://app?vid=334e3407-4f9b-4b57-a5ef-39033f25d948"},"vehicle_type_id":"4","last_reported":1713557271,"current_range_meters":10800,"station_id":"ce4bhr12rcd13ifvqhpg","pricing_plan_id":"cebpf4jnsgd1na2vs0mg"},{"bike_id":"30d617ff-4f74-4992-b3e5-455e6c9e9129","system_id":"levelo_inurba_marseille","lat":43.319935,"lon":5.381699,"is_reserved":false,"is_disabled":false,"rental_uris":{"android":"levelo://app?vid=30d617ff-4f74-4992-b3e5-455e6c9e9129","ios":"levelo://app?vid=30d617ff-4f74-4992-b3e5-455e6c9e9129"},"vehicle_type_id":"4","last_reported":1713557271,"current_range_meters":24800,"station_id":"ce4bhr12rcd13ifvqhpg","pricing_plan_id":"cebpf4jnsgd1na2vs0mg"},{"bike_id":"ac8a896b-4c67-4f80-a4c4-51554c975d85","system_id":"levelo_inurba_marseille","lat":43.319935,"lon":5.381699,"is_reserved":false,"is_disabled":false,"rental_uris":{"android":"levelo://app?vid=ac8a896b-4c67-4f80-a4c4-51554c975d85","ios":"levelo://app?vid=ac8a896b-4c67-4f80-a4c4-51554c975d85"},"vehicle_type_id":"4","last_reported":1713557271,"current_range_meters":22000,"station_id":"ce4bhr12rcd13ifvqhpg","pricing_plan_id":"cebpf4jnsgd1na2vs0mg"},{"bike_id":"a9de452f-79ec-4ac5-bd00-9180263cf581","system_id":"levelo_inurba_marseille","lat":43.313571,"lon":5.384829,"is_reserved":false,"is_disabled":false,"rental_uris":{"android":"levelo://app?vid=a9de452f-79ec-4ac5-bd00-9180263cf581","ios":"levelo://app?vid=a9de452f-79ec-4ac5-bd00-9180263cf581"},"vehicle_type_id":"4","last_reported":1713557271,"current_range_meters":5200,"station_id":"ce4bgt92rcd13ifvqcf0","pricing_plan_id":"cebpf4jnsgd1na2vs0mg"},{"bike_id":"6030953b-fb42-4eca-9292-f79d2f17567c","system_id":"levelo_inurba_marseille","lat":43.313571,"lon":5.384829,"is_reserved":false,"is_disabled":false,"rental_uris":{"android":"levelo://app?vid=6030953b-fb42-4eca-9292-f79d2f17567c","ios":"levelo://app?vid=6030953b-fb42-4eca-9292-f79d2f17567c"},"vehicle_type_id":"4","last_reported":1713557271,"current_range_meters":6800,"station_id":"ce4bgt92rcd13ifvqcf0","pricing_plan_id":"cebpf4jnsgd1na2vs0mg"},{"bike_id":"856346db-4409-47d4-b9b0-7b0eeae58540","system_id":"levelo_inurba_marseille","lat":43.313571,"lon":5.384829,"is_reserved":false,"is_disabled":false,"rental_uris":{"android":"levelo://app?vid=856346db-4409-47d4-b9b0-7b0eeae58540","ios":"levelo://app?vid=856346db-4409-47d4-b9b0-7b0eeae58540"},"vehicle_type_id":"4","last_reported":1713557271,"current_range_meters":0,"station_id":"ce4bgt92rcd13ifvqcf0","pricing_plan_id":"cebpf4jnsgd1na2vs0mg"},{"bike_id":"f021c851-4e51-4b95-9cd3-8ce5df61ca2e","system_id":"levelo_inurba_marseille","lat":43.299222,"lon":5.365554,"is_reserved":false,"is_disabled":false,"rental_uris":{"android":"levelo://app?vid=f021c851-4e51-4b95-9cd3-8ce5df61ca2e","ios":"levelo://app?vid=f021c851-4e51-4b95-9cd3-8ce5df61ca2e"},"vehicle_type_id":"4","last_reported":1713557271,"current_range_meters":0,"station_id":"ce4bgm92rcd13ifvqbr0","pricing_plan_id":"cebpf4jnsgd1na2vs0mg"},{"bike_id":"e91a43f2-fd5b-4c11-aea8-faeea8359a23","system_id":"levelo_inurba_marseille","lat":43.299222,"lon":5.365554,"is_reserved":false,"is_disabled":false,"rental_uris":{"android":"levelo://app?vid=e91a43f2-fd5b-4c11-aea8-faeea8359a23","ios":"levelo://app?vid=e91a43f2-fd5b-4c11-aea8-faeea8359a23"},"vehicle_type_id":"4","last_reported":1713557271,"current_range_meters":0,"station_id":"ce4bgm92rcd13ifvqbr0","pricing_plan_id":"cebpf4jnsgd1na2vs0mg"},{"bike_id":"f09b8feb-d3c5-42f3-904d-b9265a503a6b","system_id":"levelo_inurba_marseille","lat":43.299724,"lon":5.371829,"is_reserved":false,"is_disabled":false,"rental_uris":{"android":"levelo://app?vid=f09b8feb-d3c5-42f3-904d-b9265a503a6b","ios":"levelo://app?vid=f09b8feb-d3c5-42f3-904d-b9265a503a6b"},"vehicle_type_id":"4","last_reported":1713557271,"current_range_meters":0,"station_id":"ce4bgr92rcd13ifvqc7g","pricing_plan_id":"cebpf4jnsgd1na2vs0mg"},{"bike_id":"0a9ed85a-6c0a-45c2-bfa2-d3e37dece2af","system_id":"levelo_inurba_marseille","lat":43.299353,"lon":5.365313,"is_reserved":false,"is_disabled":false,"rental_uris":{"android":"levelo://app?vid=0a9ed85a-6c0a-45c2-bfa2-d3e37dece2af","ios":"levelo://app?vid=0a9ed85a-6c0a-45c2-bfa2-d3e37dece2af"},"vehicle_type_id":"4","last_reported":1713557271,"current_range_meters":0,"station_id":"ce4bgm92rcd13ifvqbr0","pricing_plan_id":"cebpf4jnsgd1na2vs0mg"},{"bike_id":"b77ad503-2df2-42bb-85ac-560b2fa5b240","system_id":"levelo_inurba_marseille","lat":43.29977,"lon":5.37176,"is_reserved":false,"is_disabled":false,"rental_uris":{"android":"levelo://app?vid=b77ad503-2df2-42bb-85ac-560b2fa5b240","ios":"levelo://app?vid=b77ad503-2df2-42bb-85ac-560b2fa5b240"},"vehicle_type_id":"4","last_reported":1713557271,"current_range_meters":0,"station_id":"ce4bgr92rcd13ifvqc7g","pricing_plan_id":"cebpf4jnsgd1na2vs0mg"},{"bike_id":"9d08ce27-23ec-4eae-bdf7-11003433a10e","system_id":"levelo_inurba_marseille","lat":43.299724,"lon":5.371829,"is_reserved":false,"is_disabled":false,"rental_uris":{"android":"levelo://app?vid=9d08ce27-23ec-4eae-bdf7-11003433a10e","ios":"levelo://app?vid=9d08ce27-23ec-4eae-bdf7-11003433a10e"},"vehicle_type_id":"4","last_reported":1713557271,"current_range_meters":16800,"station_id":"ce4bgr92rcd13ifvqc7g","pricing_plan_id":"cebpf4jnsgd1na2vs0mg"},{"bike_id":"66b1d201-0132-4bbd-926d-3e7b41da9a8e","system_id":"levelo_inurba_marseille","lat":43.299222,"lon":5.365554,"is_reserved":false,"is_disabled":false,"rental_uris":{"android":"levelo://app?vid=66b1d201-0132-4bbd-926d-3e7b41da9a8e","ios":"levelo://app?vid=66b1d201-0132-4bbd-926d-3e7b41da9a8e"},"vehicle_type_id":"4","last_reported":1713557271,"current_range_meters":0,"station_id":"ce4bgm92rcd13ifvqbr0","pricing_plan_id":"cebpf4jnsgd1na2vs0mg"},{"bike_id":"ce8ed7f2-ee7e-4ae5-876f-99154cc47fe7","system_id":"levelo_inurba_marseille","lat":43.29968,"lon":5.37184,"is_reserved":false,"is_disabled":false,"rental_uris":{"android":"levelo://app?vid=ce8ed7f2-ee7e-4ae5-876f-99154cc47fe7","ios":"levelo://app?vid=ce8ed7f2-ee7e-4ae5-876f-99154cc47fe7"},"vehicle_type_id":"4","last_reported":1713557271,"current_range_meters":0,"station_id":"ce4bgr92rcd13ifvqc7g","pricing_plan_id":"cebpf4jnsgd1na2vs0mg"},{"bike_id":"f0ddca42-afa0-4971-a360-d0ba0dc9d6b0","system_id":"levelo_inurba_marseille","lat":43.305364,"lon":5.384119,"is_reserved":false,"is_disabled":false,"rental_uris":{"android":"levelo://app?vid=f0ddca42-afa0-4971-a360-d0ba0dc9d6b0","ios":"levelo://app?vid=f0ddca42-afa0-4971-a360-d0ba0dc9d6b0"},"vehicle_type_id":"4","last_reported":1713557271,"current_range_meters":12000,"station_id":"ce4bgg92rcd13ifvqb30","pricing_plan_id":"cebpf4jnsgd1na2vs0mg"},{"bike_id":"d7d49040-72ee-4b72-8355-3e9e81222396","system_id":"levelo_inurba_marseille","lat":43.29923,"lon":5.37468,"is_reserved":false,"is_disabled":false,"rental_uris":{"android":"levelo://app?vid=d7d49040-72ee-4b72-8355-3e9e81222396","ios":"levelo://app?vid=d7d49040-72ee-4b72-8355-3e9e81222396"},"vehicle_type_id":"4","last_reported":1713557271,"current_range_meters":0,"station_id":"","pricing_plan_id":"cebpf4jnsgd1na2vs0mg"},{"bike_id":"000bd0c8-a659-4235-b705-ef90b958b49c","system_id":"levelo_inurba_marseille","lat":43.311722,"lon":5.387247,"is_reserved":false,"is_disabled":false,"rental_uris":{"android":"levelo://app?vid=000bd0c8-a659-4235-b705-ef90b958b49c","ios":"levelo://app?vid=000bd0c8-a659-4235-b705-ef90b958b49c"},"vehicle_type_id":"4","last_reported":1713557271,"current_range_meters":0,"station_id":"ce4bgv12rcd13ifvqcp0","pricing_plan_id":"cebpf4jnsgd1na2vs0mg"},{"bike_id":"9e16165a-dc37-4249-9223-fe8684d17edb","system_id":"levelo_inurba_marseille","lat":43.311722,"lon":5.387247,"is_reserved":false,"is_disabled":false,"rental_uris":{"android":"levelo://app?vid=9e16165a-dc37-4249-9223-fe8684d17edb","ios":"levelo://app?vid=9e16165a-dc37-4249-9223-fe8684d17edb"},"vehicle_type_id":"4","last_reported":1713557271,"current_range_meters":27200,"station_id":"ce4bgv12rcd13ifvqcp0","pricing_plan_id":"cebpf4jnsgd1na2vs0mg"},{"bike_id":"fe9766b5-7d26-4a11-afc7-b88841dc854f","system_id":"levelo_inurba_marseille","lat":43.31177,"lon":5.38716,"is_reserved":false,"is_disabled":false,"rental_uris":{"android":"levelo://app?vid=fe9766b5-7d26-4a11-afc7-b88841dc854f","ios":"levelo://app?vid=fe9766b5-7d26-4a11-afc7-b88841dc854f"},"vehicle_type_id":"4","last_reported":1713557271,"current_range_meters":0,"station_id":"ce4bgv12rcd13ifvqcp0","pricing_plan_id":"cebpf4jnsgd1na2vs0mg"},{"bike_id":"aabdd72a-c23a-4661-9d93-d09f635fe8f4","system_id":"levelo_inurba_marseille","lat":43.311722,"lon":5.387247,"is_reserved":false,"is_disabled":false,"rental_uris":{"android":"levelo://app?vid=aabdd72a-c23a-4661-9d93-d09f635fe8f4","ios":"levelo://app?vid=aabdd72a-c23a-4661-9d93-d09f635fe8f4"},"vehicle_type_id":"4","last_reported":1713557271,"current_range_meters":6000,"station_id":"ce4bgv12rcd13ifvqcp0","pricing_plan_id":"cebpf4jnsgd1na2vs0mg"},{"bike_id":"98257b0a-8cb0-40b3-a01c-2592e4340694","system_id":"levelo_inurba_marseille","lat":43.311722,"lon":5.387247,"is_reserved":false,"is_disabled":false,"rental_uris":{"android":"levelo://app?vid=98257b0a-8cb0-40b3-a01c-2592e4340694","ios":"levelo://app?vid=98257b0a-8cb0-40b3-a01c-2592e4340694"},"vehicle_type_id":"4","last_reported":1713557271,"current_range_meters":16400,"station_id":"ce4bgv12rcd13ifvqcp0","pricing_plan_id":"cebpf4jnsgd1na2vs0mg"},{"bike_id":"fe757425-f7fc-47cd-a383-8759f854cc74","system_id":"levelo_inurba_marseille","lat":43.299243,"lon":5.37481,"is_reserved":false,"is_disabled":false,"rental_uris":{"android":"levelo://app?vid=fe757425-f7fc-47cd-a383-8759f854cc74","ios":"levelo://app?vid=fe757425-f7fc-47cd-a383-8759f854cc74"},"vehicle_type_id":"4","last_reported":1713557271,"current_range_meters":10400,"station_id":"ce4bgjh2rcd13ifvqbg0","pricing_plan_id":"cebpf4jnsgd1na2vs0mg"},{"bike_id":"59c296c1-c1af-4a71-9e20-fa9c7f8757f9","system_id":"levelo_inurba_marseille","lat":43.322872,"lon":5.382756,"is_reserved":false,"is_disabled":false,"rental_uris":{"android":"levelo://app?vid=59c296c1-c1af-4a71-9e20-fa9c7f8757f9","ios":"levelo://app?vid=59c296c1-c1af-4a71-9e20-fa9c7f8757f9"},"vehicle_type_id":"4","last_reported":1713557271,"current_range_meters":31600,"station_id":"ce4bhr12rcd13ifvqhqg","pricing_plan_id":"cebpf4jnsgd1na2vs0mg"},{"bike_id":"ac2c8c14-ef50-4ec2-b899-e078148bb8b0","system_id":"levelo_inurba_marseille","lat":43.322872,"lon":5.382756,"is_reserved":false,"is_disabled":false,"rental_uris":{"android":"levelo://app?vid=ac2c8c14-ef50-4ec2-b899-e078148bb8b0","ios":"levelo://app?vid=ac2c8c14-ef50-4ec2-b899-e078148bb8b0"},"vehicle_type_id":"4","last_reported":1713557271,"current_range_meters":19200,"station_id":"ce4bhr12rcd13ifvqhqg","pricing_plan_id":"cebpf4jnsgd1na2vs0mg"},{"bike_id":"d37c1300-16b8-430c-97e7-be7153b1d766","system_id":"levelo_inurba_marseille","lat":43.322872,"lon":5.382756,"is_reserved":false,"is_disabled":false,"rental_uris":{"android":"levelo://app?vid=d37c1300-16b8-430c-97e7-be7153b1d766","ios":"levelo://app?vid=d37c1300-16b8-430c-97e7-be7153b1d766"},"vehicle_type_id":"4","last_reported":1713557271,"current_range_meters":0,"station_id":"ce4bhr12rcd13ifvqhqg","pricing_plan_id":"cebpf4jnsgd1na2vs0mg"},{"bike_id":"b1c9170a-6a31-47d1-8e62-5b624c342910","system_id":"levelo_inurba_marseille","lat":43.322872,"lon":5.382756,"is_reserved":false,"is_disabled":false,"rental_uris":{"android":"levelo://app?vid=b1c9170a-6a31-47d1-8e62-5b624c342910","ios":"levelo://app?vid=b1c9170a-6a31-47d1-8e62-5b624c342910"},"vehicle_type_id":"4","last_reported":1713557271,"current_range_meters":12800,"station_id":"ce4bhr12rcd13ifvqhqg","pricing_plan_id":"cebpf4jnsgd1na2vs0mg"},{"bike_id":"f02710d2-1fee-4866-a021-12fd915ee40b","system_id":"levelo_inurba_marseille","lat":43.322872,"lon":5.382756,"is_reserved":false,"is_disabled":false,"rental_uris":{"android":"levelo://app?vid=f02710d2-1fee-4866-a021-12fd915ee40b","ios":"levelo://app?vid=f02710d2-1fee-4866-a021-12fd915ee40b"},"vehicle_type_id":"4","last_reported":1713557271,"current_range_meters":12000,"station_id":"ce4bhr12rcd13ifvqhqg","pricing_plan_id":"cebpf4jnsgd1na2vs0mg"},{"bike_id":"aa38acc2-91cb-407c-ac8c-05b08cc96e3e","system_id":"levelo_inurba_marseille","lat":43.322872,"lon":5.382756,"is_reserved":false,"is_disabled":false,"rental_uris":{"android":"levelo://app?vid=aa38acc2-91cb-407c-ac8c-05b08cc96e3e","ios":"levelo://app?vid=aa38acc2-91cb-407c-ac8c-05b08cc96e3e"},"vehicle_type_id":"4","last_reported":1713557271,"current_range_meters":31600,"station_id":"ce4bhr12rcd13ifvqhqg","pricing_plan_id":"cebpf4jnsgd1na2vs0mg"},{"bike_id":"76931112-13b2-4ce1-aed6-6fa548f70599","system_id":"levelo_inurba_marseille","lat":43.322872,"lon":5.382756,"is_reserved":false,"is_disabled":false,"rental_uris":{"android":"levelo://app?vid=76931112-13b2-4ce1-aed6-6fa548f70599","ios":"levelo://app?vid=76931112-13b2-4ce1-aed6-6fa548f70599"},"vehicle_type_id":"4","last_reported":1713557271,"current_range_meters":30000,"station_id":"ce4bhr12rcd13ifvqhqg","pricing_plan_id":"cebpf4jnsgd1na2vs0mg"},{"bike_id":"6a9bcf40-c5f9-44a4-a58e-664576d7b299","system_id":"levelo_inurba_marseille","lat":43.322872,"lon":5.382756,"is_reserved":false,"is_disabled":false,"rental_uris":{"android":"levelo://app?vid=6a9bcf40-c5f9-44a4-a58e-664576d7b299","ios":"levelo://app?vid=6a9bcf40-c5f9-44a4-a58e-664576d7b299"},"vehicle_type_id":"4","last_reported":1713557271,"current_range_meters":20000,"station_id":"ce4bhr12rcd13ifvqhqg","pricing_plan_id":"cebpf4jnsgd1na2vs0mg"},{"bike_id":"e5df68f6-b1ff-4d0a-b7e9-c02ca9b8210e","system_id":"levelo_inurba_marseille","lat":43.322847,"lon":5.382801,"is_reserved":false,"is_disabled":false,"rental_uris":{"android":"levelo://app?vid=e5df68f6-b1ff-4d0a-b7e9-c02ca9b8210e","ios":"levelo://app?vid=e5df68f6-b1ff-4d0a-b7e9-c02ca9b8210e"},"vehicle_type_id":"4","last_reported":1713557271,"current_range_meters":31200,"station_id":"ce4bhr12rcd13ifvqhqg","pricing_plan_id":"cebpf4jnsgd1na2vs0mg"},{"bike_id":"3a777aae-0d2a-4638-8c09-6f1de81534e0","system_id":"levelo_inurba_marseille","lat":43.322901,"lon":5.382751,"is_reserved":false,"is_disabled":false,"rental_uris":{"android":"levelo://app?vid=3a777aae-0d2a-4638-8c09-6f1de81534e0","ios":"levelo://app?vid=3a777aae-0d2a-4638-8c09-6f1de81534e0"},"vehicle_type_id":"4","last_reported":1713557271,"current_range_meters":28400,"station_id":"ce4bhr12rcd13ifvqhqg","pricing_plan_id":"cebpf4jnsgd1na2vs0mg"},{"bike_id":"f9d52962-cee5-4081-bd9c-7cd3243991fc","system_id":"levelo_inurba_marseille","lat":43.32287,"lon":5.38282,"is_reserved":false,"is_disabled":false,"rental_uris":{"android":"levelo://app?vid=f9d52962-cee5-4081-bd9c-7cd3243991fc","ios":"levelo://app?vid=f9d52962-cee5-4081-bd9c-7cd3243991fc"},"vehicle_type_id":"4","last_reported":1713557271,"current_range_meters":0,"station_id":"ce4bhr12rcd13ifvqhqg","pricing_plan_id":"cebpf4jnsgd1na2vs0mg"},{"bike_id":"a4e08546-6278-4fec-a3f5-ea17e1bddef5","system_id":"levelo_inurba_marseille","lat":43.322892,"lon":5.382799,"is_reserved":false,"is_disabled":false,"rental_uris":{"android":"levelo://app?vid=a4e08546-6278-4fec-a3f5-ea17e1bddef5","ios":"levelo://app?vid=a4e08546-6278-4fec-a3f5-ea17e1bddef5"},"vehicle_type_id":"4","last_reported":1713557271,"current_range_meters":12000,"station_id":"ce4bhr12rcd13ifvqhqg","pricing_plan_id":"cebpf4jnsgd1na2vs0mg"},{"bike_id":"c1c913df-b844-406e-83f7-dff5f43f7dc5","system_id":"levelo_inurba_marseille","lat":43.322922,"lon":5.382783,"is_reserved":false,"is_disabled":false,"rental_uris":{"android":"levelo://app?vid=c1c913df-b844-406e-83f7-dff5f43f7dc5","ios":"levelo://app?vid=c1c913df-b844-406e-83f7-dff5f43f7dc5"},"vehicle_type_id":"4","last_reported":1713557271,"current_range_meters":31200,"station_id":"ce4bhr12rcd13ifvqhqg","pricing_plan_id":"cebpf4jnsgd1na2vs0mg"},{"bike_id":"f79997f7-1cd5-4509-b938-74d02c67f759","system_id":"levelo_inurba_marseille","lat":43.289184,"lon":5.366408,"is_reserved":false,"is_disabled":false,"rental_uris":{"android":"levelo://app?vid=f79997f7-1cd5-4509-b938-74d02c67f759","ios":"levelo://app?vid=f79997f7-1cd5-4509-b938-74d02c67f759"},"vehicle_type_id":"4","last_reported":1713557271,"current_range_meters":0,"station_id":"ce4bhap2rcd13ifvqek0","pricing_plan_id":"cebpf4jnsgd1na2vs0mg"},{"bike_id":"e7b62b77-fb3e-45f8-8431-778ad0e133ec","system_id":"levelo_inurba_marseille","lat":43.296803,"lon":5.368328,"is_reserved":false,"is_disabled":false,"rental_uris":{"android":"levelo://app?vid=e7b62b77-fb3e-45f8-8431-778ad0e133ec","ios":"levelo://app?vid=e7b62b77-fb3e-45f8-8431-778ad0e133ec"},"vehicle_type_id":"4","last_reported":1713557271,"current_range_meters":2400,"station_id":"","pricing_plan_id":"cebpf4jnsgd1na2vs0mg"},{"bike_id":"fc0a4964-2b09-49b9-9dba-fdbe43fe31e8","system_id":"levelo_inurba_marseille","lat":43.321373,"lon":5.385717,"is_reserved":false,"is_disabled":false,"rental_uris":{"android":"levelo://app?vid=fc0a4964-2b09-49b9-9dba-fdbe43fe31e8","ios":"levelo://app?vid=fc0a4964-2b09-49b9-9dba-fdbe43fe31e8"},"vehicle_type_id":"4","last_reported":1713557271,"current_range_meters":31200,"station_id":"","pricing_plan_id":"cebpf4jnsgd1na2vs0mg"},{"bike_id":"35b47149-410f-4c23-b596-4e1758b7b422","system_id":"levelo_inurba_marseille","lat":43.32367,"lon":5.388836,"is_reserved":false,"is_disabled":false,"rental_uris":{"android":"levelo://app?vid=35b47149-410f-4c23-b596-4e1758b7b422","ios":"levelo://app?vid=35b47149-410f-4c23-b596-4e1758b7b422"},"vehicle_type_id":"4","last_reported":1713557271,"current_range_meters":0,"station_id":"ce4bhqp2rcd13ifvqhog","pricing_plan_id":"cebpf4jnsgd1na2vs0mg"},{"bike_id":"f0959acc-09e6-4545-90d1-bfb8345f0c65","system_id":"levelo_inurba_marseille","lat":43.296129,"lon":5.370777,"is_reserved":false,"is_disabled":false,"rental_uris":{"android":"levelo://app?vid=f0959acc-09e6-4545-90d1-bfb8345f0c65","ios":"levelo://app?vid=f0959acc-09e6-4545-90d1-bfb8345f0c65"},"vehicle_type_id":"4","last_reported":1713557271,"current_range_meters":0,"station_id":"ce4bgnh2rcd13ifvqc0g","pricing_plan_id":"cebpf4jnsgd1na2vs0mg"},{"bike_id":"698463f8-a0fe-4c0a-b943-1817d0ac1429","system_id":"levelo_inurba_marseille","lat":43.29573,"lon":5.367355,"is_reserved":false,"is_disabled":false,"rental_uris":{"android":"levelo://app?vid=698463f8-a0fe-4c0a-b943-1817d0ac1429","ios":"levelo://app?vid=698463f8-a0fe-4c0a-b943-1817d0ac1429"},"vehicle_type_id":"4","last_reported":1713557271,"current_range_meters":31200,"station_id":"ce4bgph2rcd13ifvqc2g","pricing_plan_id":"cebpf4jnsgd1na2vs0mg"},{"bike_id":"46c04ad1-7f72-4c97-a99b-9f525a7becfe","system_id":"levelo_inurba_marseille","lat":43.29573,"lon":5.367355,"is_reserved":false,"is_disabled":false,"rental_uris":{"android":"levelo://app?vid=46c04ad1-7f72-4c97-a99b-9f525a7becfe","ios":"levelo://app?vid=46c04ad1-7f72-4c97-a99b-9f525a7becfe"},"vehicle_type_id":"4","last_reported":1713557271,"current_range_meters":12400,"station_id":"ce4bgph2rcd13ifvqc2g","pricing_plan_id":"cebpf4jnsgd1na2vs0mg"},{"bike_id":"15df7ee8-5cb1-47b6-b495-f0501a0d616c","system_id":"levelo_inurba_marseille","lat":43.283998,"lon":5.375062,"is_reserved":false,"is_disabled":false,"rental_uris":{"android":"levelo://app?vid=15df7ee8-5cb1-47b6-b495-f0501a0d616c","ios":"levelo://app?vid=15df7ee8-5cb1-47b6-b495-f0501a0d616c"},"vehicle_type_id":"4","last_reported":1713557271,"current_range_meters":18400,"station_id":"ce4bh412rcd13ifvqds0","pricing_plan_id":"cebpf4jnsgd1na2vs0mg"},{"bike_id":"ec81e8a3-c993-4fec-83e3-b4d8ae98651b","system_id":"levelo_inurba_marseille","lat":43.297163,"lon":5.377087,"is_reserved":false,"is_disabled":false,"rental_uris":{"android":"levelo://app?vid=ec81e8a3-c993-4fec-83e3-b4d8ae98651b","ios":"levelo://app?vid=ec81e8a3-c993-4fec-83e3-b4d8ae98651b"},"vehicle_type_id":"4","last_reported":1713557271,"current_range_meters":0,"station_id":"ce4bgkh2rcd13ifvqbl0","pricing_plan_id":"cebpf4jnsgd1na2vs0mg"},{"bike_id":"e0b60d4b-6251-4d1b-94c5-ae2f99b15a77","system_id":"levelo_inurba_marseille","lat":43.309589,"lon":5.390258,"is_reserved":false,"is_disabled":false,"rental_uris":{"android":"levelo://app?vid=e0b60d4b-6251-4d1b-94c5-ae2f99b15a77","ios":"levelo://app?vid=e0b60d4b-6251-4d1b-94c5-ae2f99b15a77"},"vehicle_type_id":"4","last_reported":1713557271,"current_range_meters":6000,"station_id":"ce4bgup2rcd13ifvqco0","pricing_plan_id":"cebpf4jnsgd1na2vs0mg"},{"bike_id":"4c7e1cac-9f40-4304-b5f7-a28308ddce6e","system_id":"levelo_inurba_marseille","lat":43.309574,"lon":5.390332,"is_reserved":false,"is_disabled":false,"rental_uris":{"android":"levelo://app?vid=4c7e1cac-9f40-4304-b5f7-a28308ddce6e","ios":"levelo://app?vid=4c7e1cac-9f40-4304-b5f7-a28308ddce6e"},"vehicle_type_id":"4","last_reported":1713557271,"current_range_meters":0,"station_id":"ce4bgup2rcd13ifvqco0","pricing_plan_id":"cebpf4jnsgd1na2vs0mg"},{"bike_id":"fcdf7a26-0797-4d7b-b7fc-cdf7bc66a632","system_id":"levelo_inurba_marseille","lat":43.309589,"lon":5.390258,"is_reserved":false,"is_disabled":false,"rental_uris":{"android":"levelo://app?vid=fcdf7a26-0797-4d7b-b7fc-cdf7bc66a632","ios":"levelo://app?vid=fcdf7a26-0797-4d7b-b7fc-cdf7bc66a632"},"vehicle_type_id":"4","last_reported":1713557271,"current_range_meters":10000,"station_id":"ce4bgup2rcd13ifvqco0","pricing_plan_id":"cebpf4jnsgd1na2vs0mg"},{"bike_id":"530c74cc-8fd7-4d19-ba18-099a6ad1f4db","system_id":"levelo_inurba_marseille","lat":43.30951,"lon":5.39041,"is_reserved":false,"is_disabled":false,"rental_uris":{"android":"levelo://app?vid=530c74cc-8fd7-4d19-ba18-099a6ad1f4db","ios":"levelo://app?vid=530c74cc-8fd7-4d19-ba18-099a6ad1f4db"},"vehicle_type_id":"4","last_reported":1713557271,"current_range_meters":0,"station_id":"ce4bgup2rcd13ifvqco0","pricing_plan_id":"cebpf4jnsgd1na2vs0mg"},{"bike_id":"c7c5a12e-41eb-46b7-a4b8-6c0446f76230","system_id":"levelo_inurba_marseille","lat":43.299028,"lon":5.381509,"is_reserved":false,"is_disabled":false,"rental_uris":{"android":"levelo://app?vid=c7c5a12e-41eb-46b7-a4b8-6c0446f76230","ios":"levelo://app?vid=c7c5a12e-41eb-46b7-a4b8-6c0446f76230"},"vehicle_type_id":"4","last_reported":1713557271,"current_range_meters":25600,"station_id":"ce4bgj12rcd13ifvqbc0","pricing_plan_id":"cebpf4jnsgd1na2vs0mg"},{"bike_id":"c1737f14-581c-4dde-8fe3-87a16483ad77","system_id":"levelo_inurba_marseille","lat":43.317557,"lon":5.390173,"is_reserved":false,"is_disabled":false,"rental_uris":{"android":"levelo://app?vid=c1737f14-581c-4dde-8fe3-87a16483ad77","ios":"levelo://app?vid=c1737f14-581c-4dde-8fe3-87a16483ad77"},"vehicle_type_id":"4","last_reported":1713557271,"current_range_meters":18800,"station_id":"ce4bhqp2rcd13ifvqhng","pricing_plan_id":"cebpf4jnsgd1na2vs0mg"},{"bike_id":"2ab48669-e241-4b6d-9fb3-2db434ab2118","system_id":"levelo_inurba_marseille","lat":43.317557,"lon":5.390173,"is_reserved":false,"is_disabled":false,"rental_uris":{"android":"levelo://app?vid=2ab48669-e241-4b6d-9fb3-2db434ab2118","ios":"levelo://app?vid=2ab48669-e241-4b6d-9fb3-2db434ab2118"},"vehicle_type_id":"4","last_reported":1713557271,"current_range_meters":1600,"station_id":"ce4bhqp2rcd13ifvqhng","pricing_plan_id":"cebpf4jnsgd1na2vs0mg"},{"bike_id":"7e2c24b3-2300-4592-8529-a46db9a1bbdd","system_id":"levelo_inurba_marseille","lat":43.317557,"lon":5.390173,"is_reserved":false,"is_disabled":false,"rental_uris":{"android":"levelo://app?vid=7e2c24b3-2300-4592-8529-a46db9a1bbdd","ios":"levelo://app?vid=7e2c24b3-2300-4592-8529-a46db9a1bbdd"},"vehicle_type_id":"4","last_reported":1713557271,"current_range_meters":21200,"station_id":"ce4bhqp2rcd13ifvqhng","pricing_plan_id":"cebpf4jnsgd1na2vs0mg"},{"bike_id":"a31ceebe-807b-48f7-b0c6-1ea887dd6ce8","system_id":"levelo_inurba_marseille","lat":43.317557,"lon":5.390173,"is_reserved":false,"is_disabled":false,"rental_uris":{"android":"levelo://app?vid=a31ceebe-807b-48f7-b0c6-1ea887dd6ce8","ios":"levelo://app?vid=a31ceebe-807b-48f7-b0c6-1ea887dd6ce8"},"vehicle_type_id":"4","last_reported":1713557271,"current_range_meters":12400,"station_id":"ce4bhqp2rcd13ifvqhng","pricing_plan_id":"cebpf4jnsgd1na2vs0mg"},{"bike_id":"3541dea0-ff01-4868-a866-d8ccf42bf6e6","system_id":"levelo_inurba_marseille","lat":43.317557,"lon":5.390173,"is_reserved":false,"is_disabled":false,"rental_uris":{"android":"levelo://app?vid=3541dea0-ff01-4868-a866-d8ccf42bf6e6","ios":"levelo://app?vid=3541dea0-ff01-4868-a866-d8ccf42bf6e6"},"vehicle_type_id":"4","last_reported":1713557271,"current_range_meters":4800,"station_id":"ce4bhqp2rcd13ifvqhng","pricing_plan_id":"cebpf4jnsgd1na2vs0mg"},{"bike_id":"0c7aa32f-0217-40ec-8971-b91bb8bc79f9","system_id":"levelo_inurba_marseille","lat":43.317845,"lon":5.390205,"is_reserved":false,"is_disabled":false,"rental_uris":{"android":"levelo://app?vid=0c7aa32f-0217-40ec-8971-b91bb8bc79f9","ios":"levelo://app?vid=0c7aa32f-0217-40ec-8971-b91bb8bc79f9"},"vehicle_type_id":"4","last_reported":1713557271,"current_range_meters":1200,"station_id":"ce4bhqp2rcd13ifvqhng","pricing_plan_id":"cebpf4jnsgd1na2vs0mg"},{"bike_id":"3049929b-f63d-4610-b205-8a1d00486e13","system_id":"levelo_inurba_marseille","lat":43.2958,"lon":5.37469,"is_reserved":false,"is_disabled":false,"rental_uris":{"android":"levelo://app?vid=3049929b-f63d-4610-b205-8a1d00486e13","ios":"levelo://app?vid=3049929b-f63d-4610-b205-8a1d00486e13"},"vehicle_type_id":"4","last_reported":1713557271,"current_range_meters":0,"station_id":"ce4bgh92rcd13ifvqb50","pricing_plan_id":"cebpf4jnsgd1na2vs0mg"},{"bike_id":"78c5f987-7485-4774-be75-5e9b8a2d0aca","system_id":"levelo_inurba_marseille","lat":43.29582,"lon":5.37526,"is_reserved":false,"is_disabled":false,"rental_uris":{"android":"levelo://app?vid=78c5f987-7485-4774-be75-5e9b8a2d0aca","ios":"levelo://app?vid=78c5f987-7485-4774-be75-5e9b8a2d0aca"},"vehicle_type_id":"4","last_reported":1713557271,"current_range_meters":0,"station_id":"ce4bgh92rcd13ifvqb50","pricing_plan_id":"cebpf4jnsgd1na2vs0mg"},{"bike_id":"c65a8251-1f93-46ca-a36d-90e48e387015","system_id":"levelo_inurba_marseille","lat":43.30427,"lon":5.38886,"is_reserved":false,"is_disabled":false,"rental_uris":{"android":"levelo://app?vid=c65a8251-1f93-46ca-a36d-90e48e387015","ios":"levelo://app?vid=c65a8251-1f93-46ca-a36d-90e48e387015"},"vehicle_type_id":"4","last_reported":1713557271,"current_range_meters":0,"station_id":"ce4bgk12rcd13ifvqbi0","pricing_plan_id":"cebpf4jnsgd1na2vs0mg"},{"bike_id":"9e17938f-ee1a-4b1c-9205-43486542d769","system_id":"levelo_inurba_marseille","lat":43.295748,"lon":5.37522,"is_reserved":false,"is_disabled":false,"rental_uris":{"android":"levelo://app?vid=9e17938f-ee1a-4b1c-9205-43486542d769","ios":"levelo://app?vid=9e17938f-ee1a-4b1c-9205-43486542d769"},"vehicle_type_id":"4","last_reported":1713557271,"current_range_meters":4400,"station_id":"ce4bgh92rcd13ifvqb50","pricing_plan_id":"cebpf4jnsgd1na2vs0mg"},{"bike_id":"46ccb083-2e8c-4658-adf3-86949a7fa964","system_id":"levelo_inurba_marseille","lat":43.304274,"lon":5.388873,"is_reserved":false,"is_disabled":false,"rental_uris":{"android":"levelo://app?vid=46ccb083-2e8c-4658-adf3-86949a7fa964","ios":"levelo://app?vid=46ccb083-2e8c-4658-adf3-86949a7fa964"},"vehicle_type_id":"4","last_reported":1713557271,"current_range_meters":28000,"station_id":"ce4bgk12rcd13ifvqbi0","pricing_plan_id":"cebpf4jnsgd1na2vs0mg"},{"bike_id":"bb646b2e-2eaf-4938-9abe-ebbc06753bd4","system_id":"levelo_inurba_marseille","lat":43.297767,"lon":5.38119,"is_reserved":false,"is_disabled":false,"rental_uris":{"android":"levelo://app?vid=bb646b2e-2eaf-4938-9abe-ebbc06753bd4","ios":"levelo://app?vid=bb646b2e-2eaf-4938-9abe-ebbc06753bd4"},"vehicle_type_id":"4","last_reported":1713557271,"current_range_meters":12000,"station_id":"ce4bgip2rcd13ifvqbb0","pricing_plan_id":"cebpf4jnsgd1na2vs0mg"},{"bike_id":"108281e6-7654-488b-8cc2-a9f8078d89b1","system_id":"levelo_inurba_marseille","lat":43.30925,"lon":5.39164,"is_reserved":false,"is_disabled":false,"rental_uris":{"android":"levelo://app?vid=108281e6-7654-488b-8cc2-a9f8078d89b1","ios":"levelo://app?vid=108281e6-7654-488b-8cc2-a9f8078d89b1"},"vehicle_type_id":"4","last_reported":1713557271,"current_range_meters":5200,"station_id":"ce4bh2h2rcd13ifvqdh0","pricing_plan_id":"cebpf4jnsgd1na2vs0mg"},{"bike_id":"2619fb74-625e-47e8-880d-a575036de7f7","system_id":"levelo_inurba_marseille","lat":43.295279,"lon":5.375048,"is_reserved":false,"is_disabled":false,"rental_uris":{"android":"levelo://app?vid=2619fb74-625e-47e8-880d-a575036de7f7","ios":"levelo://app?vid=2619fb74-625e-47e8-880d-a575036de7f7"},"vehicle_type_id":"4","last_reported":1713557271,"current_range_meters":0,"station_id":"ce4bgkp2rcd13ifvqbmg","pricing_plan_id":"cebpf4jnsgd1na2vs0mg"},{"bike_id":"d1d85d55-30e5-49a6-8776-c18bd4a3929b","system_id":"levelo_inurba_marseille","lat":43.299707,"lon":5.384859,"is_reserved":false,"is_disabled":false,"rental_uris":{"android":"levelo://app?vid=d1d85d55-30e5-49a6-8776-c18bd4a3929b","ios":"levelo://app?vid=d1d85d55-30e5-49a6-8776-c18bd4a3929b"},"vehicle_type_id":"4","last_reported":1713557271,"current_range_meters":11200,"station_id":"ce4bgj92rcd13ifvqbd0","pricing_plan_id":"cebpf4jnsgd1na2vs0mg"},{"bike_id":"77da494d-b04a-46ec-9d94-e1d8c087b144","system_id":"levelo_inurba_marseille","lat":43.295279,"lon":5.375048,"is_reserved":false,"is_disabled":false,"rental_uris":{"android":"levelo://app?vid=77da494d-b04a-46ec-9d94-e1d8c087b144","ios":"levelo://app?vid=77da494d-b04a-46ec-9d94-e1d8c087b144"},"vehicle_type_id":"4","last_reported":1713557271,"current_range_meters":1200,"station_id":"ce4bgkp2rcd13ifvqbmg","pricing_plan_id":"cebpf4jnsgd1na2vs0mg"},{"bike_id":"1e1fe1a2-9110-44d1-8fdd-40c661b0963b","system_id":"levelo_inurba_marseille","lat":43.295279,"lon":5.375048,"is_reserved":false,"is_disabled":false,"rental_uris":{"android":"levelo://app?vid=1e1fe1a2-9110-44d1-8fdd-40c661b0963b","ios":"levelo://app?vid=1e1fe1a2-9110-44d1-8fdd-40c661b0963b"},"vehicle_type_id":"4","last_reported":1713557271,"current_range_meters":22000,"station_id":"ce4bgkp2rcd13ifvqbmg","pricing_plan_id":"cebpf4jnsgd1na2vs0mg"},{"bike_id":"12f10f39-a237-41e4-b134-d175f56612fc","system_id":"levelo_inurba_marseille","lat":43.29602,"lon":5.381084,"is_reserved":false,"is_disabled":false,"rental_uris":{"android":"levelo://app?vid=12f10f39-a237-41e4-b134-d175f56612fc","ios":"levelo://app?vid=12f10f39-a237-41e4-b134-d175f56612fc"},"vehicle_type_id":"4","last_reported":1713557271,"current_range_meters":0,"station_id":"ce4bgl12rcd13ifvqbo0","pricing_plan_id":"cebpf4jnsgd1na2vs0mg"},{"bike_id":"3896c664-50fa-42db-9a2c-2d55be44e9c6","system_id":"levelo_inurba_marseille","lat":43.32363,"lon":5.3888,"is_reserved":false,"is_disabled":false,"rental_uris":{"android":"levelo://app?vid=3896c664-50fa-42db-9a2c-2d55be44e9c6","ios":"levelo://app?vid=3896c664-50fa-42db-9a2c-2d55be44e9c6"},"vehicle_type_id":"4","last_reported":1713557271,"current_range_meters":14000,"station_id":"ce4bhqp2rcd13ifvqhog","pricing_plan_id":"cebpf4jnsgd1na2vs0mg"},{"bike_id":"9250474f-8dc2-4068-98be-1996c9986e22","system_id":"levelo_inurba_marseille","lat":43.32364,"lon":5.38884,"is_reserved":false,"is_disabled":false,"rental_uris":{"android":"levelo://app?vid=9250474f-8dc2-4068-98be-1996c9986e22","ios":"levelo://app?vid=9250474f-8dc2-4068-98be-1996c9986e22"},"vehicle_type_id":"4","last_reported":1713557271,"current_range_meters":26000,"station_id":"","pricing_plan_id":"cebpf4jnsgd1na2vs0mg"},{"bike_id":"d446543f-d197-49bc-8c9f-a1475d7c5b58","system_id":"levelo_inurba_marseille","lat":43.32367,"lon":5.388836,"is_reserved":false,"is_disabled":false,"rental_uris":{"android":"levelo://app?vid=d446543f-d197-49bc-8c9f-a1475d7c5b58","ios":"levelo://app?vid=d446543f-d197-49bc-8c9f-a1475d7c5b58"},"vehicle_type_id":"4","last_reported":1713557271,"current_range_meters":12000,"station_id":"ce4bhqp2rcd13ifvqhog","pricing_plan_id":"cebpf4jnsgd1na2vs0mg"},{"bike_id":"b80d2e23-7f42-4e42-a45f-1d255d7daacb","system_id":"levelo_inurba_marseille","lat":43.32367,"lon":5.388836,"is_reserved":false,"is_disabled":false,"rental_uris":{"android":"levelo://app?vid=b80d2e23-7f42-4e42-a45f-1d255d7daacb","ios":"levelo://app?vid=b80d2e23-7f42-4e42-a45f-1d255d7daacb"},"vehicle_type_id":"4","last_reported":1713557271,"current_range_meters":6400,"station_id":"ce4bhqp2rcd13ifvqhog","pricing_plan_id":"cebpf4jnsgd1na2vs0mg"},{"bike_id":"b709ef4c-e43b-4a37-b730-414a4c029166","system_id":"levelo_inurba_marseille","lat":43.32367,"lon":5.388836,"is_reserved":false,"is_disabled":false,"rental_uris":{"android":"levelo://app?vid=b709ef4c-e43b-4a37-b730-414a4c029166","ios":"levelo://app?vid=b709ef4c-e43b-4a37-b730-414a4c029166"},"vehicle_type_id":"4","last_reported":1713557271,"current_range_meters":16000,"station_id":"ce4bhqp2rcd13ifvqhog","pricing_plan_id":"cebpf4jnsgd1na2vs0mg"},{"bike_id":"9221273c-cb04-4701-8749-d23ab7a1662c","system_id":"levelo_inurba_marseille","lat":43.32367,"lon":5.388836,"is_reserved":false,"is_disabled":false,"rental_uris":{"android":"levelo://app?vid=9221273c-cb04-4701-8749-d23ab7a1662c","ios":"levelo://app?vid=9221273c-cb04-4701-8749-d23ab7a1662c"},"vehicle_type_id":"4","last_reported":1713557271,"current_range_meters":26400,"station_id":"ce4bhqp2rcd13ifvqhog","pricing_plan_id":"cebpf4jnsgd1na2vs0mg"},{"bike_id":"10bd876b-372c-48b6-9eea-48946bb81dd8","system_id":"levelo_inurba_marseille","lat":43.32368,"lon":5.38888,"is_reserved":false,"is_disabled":false,"rental_uris":{"android":"levelo://app?vid=10bd876b-372c-48b6-9eea-48946bb81dd8","ios":"levelo://app?vid=10bd876b-372c-48b6-9eea-48946bb81dd8"},"vehicle_type_id":"4","last_reported":1713557271,"current_range_meters":11200,"station_id":"ce4bhqp2rcd13ifvqhog","pricing_plan_id":"cebpf4jnsgd1na2vs0mg"},{"bike_id":"a730cd16-45c9-4eac-9f20-d9ef2d8cd53f","system_id":"levelo_inurba_marseille","lat":43.323626,"lon":5.38895,"is_reserved":false,"is_disabled":false,"rental_uris":{"android":"levelo://app?vid=a730cd16-45c9-4eac-9f20-d9ef2d8cd53f","ios":"levelo://app?vid=a730cd16-45c9-4eac-9f20-d9ef2d8cd53f"},"vehicle_type_id":"4","last_reported":1713557271,"current_range_meters":30000,"station_id":"ce4bhqp2rcd13ifvqhog","pricing_plan_id":"cebpf4jnsgd1na2vs0mg"},{"bike_id":"da34b79f-defa-47f0-9672-afd4dc222eef","system_id":"levelo_inurba_marseille","lat":43.32367,"lon":5.388836,"is_reserved":false,"is_disabled":false,"rental_uris":{"android":"levelo://app?vid=da34b79f-defa-47f0-9672-afd4dc222eef","ios":"levelo://app?vid=da34b79f-defa-47f0-9672-afd4dc222eef"},"vehicle_type_id":"4","last_reported":1713557271,"current_range_meters":0,"station_id":"ce4bhqp2rcd13ifvqhog","pricing_plan_id":"cebpf4jnsgd1na2vs0mg"},{"bike_id":"5caceea8-af1f-42a5-9f54-fbd64a91ce84","system_id":"levelo_inurba_marseille","lat":43.32367,"lon":5.388836,"is_reserved":false,"is_disabled":false,"rental_uris":{"android":"levelo://app?vid=5caceea8-af1f-42a5-9f54-fbd64a91ce84","ios":"levelo://app?vid=5caceea8-af1f-42a5-9f54-fbd64a91ce84"},"vehicle_type_id":"4","last_reported":1713557271,"current_range_meters":4800,"station_id":"ce4bhqp2rcd13ifvqhog","pricing_plan_id":"cebpf4jnsgd1na2vs0mg"},{"bike_id":"37e96580-760e-49b5-8a19-780f90f32189","system_id":"levelo_inurba_marseille","lat":43.29602,"lon":5.381084,"is_reserved":false,"is_disabled":false,"rental_uris":{"android":"levelo://app?vid=37e96580-760e-49b5-8a19-780f90f32189","ios":"levelo://app?vid=37e96580-760e-49b5-8a19-780f90f32189"},"vehicle_type_id":"4","last_reported":1713557271,"current_range_meters":2000,"station_id":"ce4bgl12rcd13ifvqbo0","pricing_plan_id":"cebpf4jnsgd1na2vs0mg"},{"bike_id":"9438daaf-8ed1-4bf5-87ee-420c2e4f405a","system_id":"levelo_inurba_marseille","lat":43.29602,"lon":5.381084,"is_reserved":false,"is_disabled":false,"rental_uris":{"android":"levelo://app?vid=9438daaf-8ed1-4bf5-87ee-420c2e4f405a","ios":"levelo://app?vid=9438daaf-8ed1-4bf5-87ee-420c2e4f405a"},"vehicle_type_id":"4","last_reported":1713557271,"current_range_meters":12400,"station_id":"ce4bgl12rcd13ifvqbo0","pricing_plan_id":"cebpf4jnsgd1na2vs0mg"},{"bike_id":"49ada138-e00f-4061-b88b-64a552a33ea6","system_id":"levelo_inurba_marseille","lat":43.293099,"lon":5.37071,"is_reserved":false,"is_disabled":false,"rental_uris":{"android":"levelo://app?vid=49ada138-e00f-4061-b88b-64a552a33ea6","ios":"levelo://app?vid=49ada138-e00f-4061-b88b-64a552a33ea6"},"vehicle_type_id":"4","last_reported":1713557271,"current_range_meters":20800,"station_id":"ce4bgh92rcd13ifvqb40","pricing_plan_id":"cebpf4jnsgd1na2vs0mg"},{"bike_id":"874f3d15-f95b-404e-af0e-0899f01318c8","system_id":"levelo_inurba_marseille","lat":43.292749,"lon":5.368402,"is_reserved":false,"is_disabled":false,"rental_uris":{"android":"levelo://app?vid=874f3d15-f95b-404e-af0e-0899f01318c8","ios":"levelo://app?vid=874f3d15-f95b-404e-af0e-0899f01318c8"},"vehicle_type_id":"4","last_reported":1713557271,"current_range_meters":26400,"station_id":"ce4bhbp2rcd13ifvqesg","pricing_plan_id":"cebpf4jnsgd1na2vs0mg"},{"bike_id":"8ee736eb-3818-4036-9943-170435b40fea","system_id":"levelo_inurba_marseille","lat":43.293259,"lon":5.371586,"is_reserved":false,"is_disabled":false,"rental_uris":{"android":"levelo://app?vid=8ee736eb-3818-4036-9943-170435b40fea","ios":"levelo://app?vid=8ee736eb-3818-4036-9943-170435b40fea"},"vehicle_type_id":"4","last_reported":1713557271,"current_range_meters":16000,"station_id":"ce4bgh92rcd13ifvqb40","pricing_plan_id":"cebpf4jnsgd1na2vs0mg"},{"bike_id":"7ca1addd-7215-419c-80ec-dc0b5bf8b507","system_id":"levelo_inurba_marseille","lat":43.298681,"lon":5.397225,"is_reserved":false,"is_disabled":false,"rental_uris":{"android":"levelo://app?vid=7ca1addd-7215-419c-80ec-dc0b5bf8b507","ios":"levelo://app?vid=7ca1addd-7215-419c-80ec-dc0b5bf8b507"},"vehicle_type_id":"4","last_reported":1713557271,"current_range_meters":13600,"station_id":"ce4bh0h2rcd13ifvqd50","pricing_plan_id":"cebpf4jnsgd1na2vs0mg"},{"bike_id":"e9342ff2-5f40-46dd-8f2d-9c5afd95f063","system_id":"levelo_inurba_marseille","lat":43.293259,"lon":5.371586,"is_reserved":false,"is_disabled":false,"rental_uris":{"android":"levelo://app?vid=e9342ff2-5f40-46dd-8f2d-9c5afd95f063","ios":"levelo://app?vid=e9342ff2-5f40-46dd-8f2d-9c5afd95f063"},"vehicle_type_id":"4","last_reported":1713557271,"current_range_meters":18800,"station_id":"ce4bgh92rcd13ifvqb40","pricing_plan_id":"cebpf4jnsgd1na2vs0mg"},{"bike_id":"c0c3cc0d-fbba-472a-b362-ccab6dbbb7e4","system_id":"levelo_inurba_marseille","lat":43.29281,"lon":5.36849,"is_reserved":false,"is_disabled":false,"rental_uris":{"android":"levelo://app?vid=c0c3cc0d-fbba-472a-b362-ccab6dbbb7e4","ios":"levelo://app?vid=c0c3cc0d-fbba-472a-b362-ccab6dbbb7e4"},"vehicle_type_id":"4","last_reported":1713557271,"current_range_meters":3200,"station_id":"ce4bhbp2rcd13ifvqesg","pricing_plan_id":"cebpf4jnsgd1na2vs0mg"},{"bike_id":"6ac42f00-1bef-473e-a504-659f38dbcd65","system_id":"levelo_inurba_marseille","lat":43.293259,"lon":5.371586,"is_reserved":false,"is_disabled":false,"rental_uris":{"android":"levelo://app?vid=6ac42f00-1bef-473e-a504-659f38dbcd65","ios":"levelo://app?vid=6ac42f00-1bef-473e-a504-659f38dbcd65"},"vehicle_type_id":"4","last_reported":1713557271,"current_range_meters":26400,"station_id":"ce4bgh92rcd13ifvqb40","pricing_plan_id":"cebpf4jnsgd1na2vs0mg"},{"bike_id":"f6245fff-9f01-4dd5-9258-42f5262982fe","system_id":"levelo_inurba_marseille","lat":43.29275,"lon":5.36858,"is_reserved":false,"is_disabled":false,"rental_uris":{"android":"levelo://app?vid=f6245fff-9f01-4dd5-9258-42f5262982fe","ios":"levelo://app?vid=f6245fff-9f01-4dd5-9258-42f5262982fe"},"vehicle_type_id":"4","last_reported":1713557271,"current_range_meters":21600,"station_id":"ce4bhbp2rcd13ifvqesg","pricing_plan_id":"cebpf4jnsgd1na2vs0mg"},{"bike_id":"1c1893eb-ca58-46d0-a72e-6d5f1de36498","system_id":"levelo_inurba_marseille","lat":43.292742,"lon":5.368468,"is_reserved":false,"is_disabled":false,"rental_uris":{"android":"levelo://app?vid=1c1893eb-ca58-46d0-a72e-6d5f1de36498","ios":"levelo://app?vid=1c1893eb-ca58-46d0-a72e-6d5f1de36498"},"vehicle_type_id":"4","last_reported":1713557271,"current_range_meters":0,"station_id":"ce4bhbp2rcd13ifvqesg","pricing_plan_id":"cebpf4jnsgd1na2vs0mg"},{"bike_id":"21bccb87-170c-452e-adae-f673c544786b","system_id":"levelo_inurba_marseille","lat":43.29261,"lon":5.36854,"is_reserved":false,"is_disabled":false,"rental_uris":{"android":"levelo://app?vid=21bccb87-170c-452e-adae-f673c544786b","ios":"levelo://app?vid=21bccb87-170c-452e-adae-f673c544786b"},"vehicle_type_id":"4","last_reported":1713557271,"current_range_meters":0,"station_id":"ce4bhbp2rcd13ifvqesg","pricing_plan_id":"cebpf4jnsgd1na2vs0mg"},{"bike_id":"39695a6b-7a1f-4ca2-ae27-4000bfd31304","system_id":"levelo_inurba_marseille","lat":43.292749,"lon":5.368402,"is_reserved":false,"is_disabled":false,"rental_uris":{"android":"levelo://app?vid=39695a6b-7a1f-4ca2-ae27-4000bfd31304","ios":"levelo://app?vid=39695a6b-7a1f-4ca2-ae27-4000bfd31304"},"vehicle_type_id":"4","last_reported":1713557271,"current_range_meters":5600,"station_id":"ce4bhbp2rcd13ifvqesg","pricing_plan_id":"cebpf4jnsgd1na2vs0mg"},{"bike_id":"98b8fb34-7cf4-4387-b3f9-6d2b6aee8b1b","system_id":"levelo_inurba_marseille","lat":43.293009,"lon":5.374584,"is_reserved":false,"is_disabled":false,"rental_uris":{"android":"levelo://app?vid=98b8fb34-7cf4-4387-b3f9-6d2b6aee8b1b","ios":"levelo://app?vid=98b8fb34-7cf4-4387-b3f9-6d2b6aee8b1b"},"vehicle_type_id":"4","last_reported":1713557271,"current_range_meters":17600,"station_id":"ce4bgi12rcd13ifvqb70","pricing_plan_id":"cebpf4jnsgd1na2vs0mg"},{"bike_id":"e90f5181-c7df-4eb1-bd13-08ed95c18290","system_id":"levelo_inurba_marseille","lat":43.29301,"lon":5.37453,"is_reserved":false,"is_disabled":false,"rental_uris":{"android":"levelo://app?vid=e90f5181-c7df-4eb1-bd13-08ed95c18290","ios":"levelo://app?vid=e90f5181-c7df-4eb1-bd13-08ed95c18290"},"vehicle_type_id":"4","last_reported":1713557271,"current_range_meters":0,"station_id":"ce4bgi12rcd13ifvqb70","pricing_plan_id":"cebpf4jnsgd1na2vs0mg"},{"bike_id":"f5191947-81db-4c3c-8ea5-bdf557c5c5e1","system_id":"levelo_inurba_marseille","lat":43.300852,"lon":5.390859,"is_reserved":false,"is_disabled":false,"rental_uris":{"android":"levelo://app?vid=f5191947-81db-4c3c-8ea5-bdf557c5c5e1","ios":"levelo://app?vid=f5191947-81db-4c3c-8ea5-bdf557c5c5e1"},"vehicle_type_id":"4","last_reported":1713557271,"current_range_meters":15200,"station_id":"ce4bh192rcd13ifvqdb0","pricing_plan_id":"cebpf4jnsgd1na2vs0mg"},{"bike_id":"822a6075-89a5-45e2-aa48-a2f93570fd92","system_id":"levelo_inurba_marseille","lat":43.302953,"lon":5.392093,"is_reserved":false,"is_disabled":false,"rental_uris":{"android":"levelo://app?vid=822a6075-89a5-45e2-aa48-a2f93570fd92","ios":"levelo://app?vid=822a6075-89a5-45e2-aa48-a2f93570fd92"},"vehicle_type_id":"4","last_reported":1713557271,"current_range_meters":18400,"station_id":"ce4bgkh2rcd13ifvqbk0","pricing_plan_id":"cebpf4jnsgd1na2vs0mg"},{"bike_id":"6f1a7895-e54b-406b-9851-ab0449bd5fbb","system_id":"levelo_inurba_marseille","lat":43.302992,"lon":5.392136,"is_reserved":false,"is_disabled":false,"rental_uris":{"android":"levelo://app?vid=6f1a7895-e54b-406b-9851-ab0449bd5fbb","ios":"levelo://app?vid=6f1a7895-e54b-406b-9851-ab0449bd5fbb"},"vehicle_type_id":"4","last_reported":1713557271,"current_range_meters":21200,"station_id":"ce4bgkh2rcd13ifvqbk0","pricing_plan_id":"cebpf4jnsgd1na2vs0mg"},{"bike_id":"26a1e038-ab9e-4809-a089-086f63a8c9b2","system_id":"levelo_inurba_marseille","lat":43.312609,"lon":5.401662,"is_reserved":false,"is_disabled":false,"rental_uris":{"android":"levelo://app?vid=26a1e038-ab9e-4809-a089-086f63a8c9b2","ios":"levelo://app?vid=26a1e038-ab9e-4809-a089-086f63a8c9b2"},"vehicle_type_id":"4","last_reported":1713557271,"current_range_meters":19200,"station_id":"ce4bh092rcd13ifvqd30","pricing_plan_id":"cebpf4jnsgd1na2vs0mg"},{"bike_id":"04063bff-4110-47dd-8e02-4b10adff92a6","system_id":"levelo_inurba_marseille","lat":43.302992,"lon":5.392136,"is_reserved":false,"is_disabled":false,"rental_uris":{"android":"levelo://app?vid=04063bff-4110-47dd-8e02-4b10adff92a6","ios":"levelo://app?vid=04063bff-4110-47dd-8e02-4b10adff92a6"},"vehicle_type_id":"4","last_reported":1713557271,"current_range_meters":0,"station_id":"ce4bgkh2rcd13ifvqbk0","pricing_plan_id":"cebpf4jnsgd1na2vs0mg"},{"bike_id":"15fb85f6-8b39-4825-a5d3-7299480abbd9","system_id":"levelo_inurba_marseille","lat":43.302908,"lon":5.392298,"is_reserved":false,"is_disabled":false,"rental_uris":{"android":"levelo://app?vid=15fb85f6-8b39-4825-a5d3-7299480abbd9","ios":"levelo://app?vid=15fb85f6-8b39-4825-a5d3-7299480abbd9"},"vehicle_type_id":"4","last_reported":1713557271,"current_range_meters":6000,"station_id":"ce4bgkh2rcd13ifvqbk0","pricing_plan_id":"cebpf4jnsgd1na2vs0mg"},{"bike_id":"4570d589-9d20-45bb-a808-edbf0781bb54","system_id":"levelo_inurba_marseille","lat":43.29366,"lon":5.37882,"is_reserved":false,"is_disabled":false,"rental_uris":{"android":"levelo://app?vid=4570d589-9d20-45bb-a808-edbf0781bb54","ios":"levelo://app?vid=4570d589-9d20-45bb-a808-edbf0781bb54"},"vehicle_type_id":"4","last_reported":1713557271,"current_range_meters":0,"station_id":"ce4bgjh2rcd13ifvqbf0","pricing_plan_id":"cebpf4jnsgd1na2vs0mg"},{"bike_id":"ab9129ad-32d9-4639-9893-466f39e75f4b","system_id":"levelo_inurba_marseille","lat":43.300852,"lon":5.390859,"is_reserved":false,"is_disabled":false,"rental_uris":{"android":"levelo://app?vid=ab9129ad-32d9-4639-9893-466f39e75f4b","ios":"levelo://app?vid=ab9129ad-32d9-4639-9893-466f39e75f4b"},"vehicle_type_id":"4","last_reported":1713557271,"current_range_meters":26000,"station_id":"ce4bh192rcd13ifvqdb0","pricing_plan_id":"cebpf4jnsgd1na2vs0mg"},{"bike_id":"c6424d44-aa74-448c-82ce-65a88a5e9573","system_id":"levelo_inurba_marseille","lat":43.29214,"lon":5.36056,"is_reserved":false,"is_disabled":false,"rental_uris":{"android":"levelo://app?vid=c6424d44-aa74-448c-82ce-65a88a5e9573","ios":"levelo://app?vid=c6424d44-aa74-448c-82ce-65a88a5e9573"},"vehicle_type_id":"4","last_reported":1713557271,"current_range_meters":10400,"station_id":"ce4bhbh2rcd13ifvqeqg","pricing_plan_id":"cebpf4jnsgd1na2vs0mg"},{"bike_id":"86eef55d-7036-4186-9adf-d29f6c536dbc","system_id":"levelo_inurba_marseille","lat":43.292419,"lon":5.374814,"is_reserved":false,"is_disabled":false,"rental_uris":{"android":"levelo://app?vid=86eef55d-7036-4186-9adf-d29f6c536dbc","ios":"levelo://app?vid=86eef55d-7036-4186-9adf-d29f6c536dbc"},"vehicle_type_id":"4","last_reported":1713557271,"current_range_meters":0,"station_id":"ce4bgi12rcd13ifvqb70","pricing_plan_id":"cebpf4jnsgd1na2vs0mg"},{"bike_id":"0fdf1872-66af-4a08-92fe-23830cb76d44","system_id":"levelo_inurba_marseille","lat":43.29881,"lon":5.38907,"is_reserved":false,"is_disabled":false,"rental_uris":{"android":"levelo://app?vid=0fdf1872-66af-4a08-92fe-23830cb76d44","ios":"levelo://app?vid=0fdf1872-66af-4a08-92fe-23830cb76d44"},"vehicle_type_id":"4","last_reported":1713557271,"current_range_meters":0,"station_id":"ce4bh392rcd13ifvqdl0","pricing_plan_id":"cebpf4jnsgd1na2vs0mg"},{"bike_id":"41e148c2-b1b9-49ff-9b0c-d81676218904","system_id":"levelo_inurba_marseille","lat":43.291675,"lon":5.371583,"is_reserved":false,"is_disabled":false,"rental_uris":{"android":"levelo://app?vid=41e148c2-b1b9-49ff-9b0c-d81676218904","ios":"levelo://app?vid=41e148c2-b1b9-49ff-9b0c-d81676218904"},"vehicle_type_id":"4","last_reported":1713557271,"current_range_meters":4000,"station_id":"ce4bha92rcd13ifvqeh0","pricing_plan_id":"cebpf4jnsgd1na2vs0mg"},{"bike_id":"63b1d54e-267d-462e-98df-26b7bcbacada","system_id":"levelo_inurba_marseille","lat":43.29873,"lon":5.3892,"is_reserved":false,"is_disabled":false,"rental_uris":{"android":"levelo://app?vid=63b1d54e-267d-462e-98df-26b7bcbacada","ios":"levelo://app?vid=63b1d54e-267d-462e-98df-26b7bcbacada"},"vehicle_type_id":"4","last_reported":1713557271,"current_range_meters":0,"station_id":"ce4bh392rcd13ifvqdl0","pricing_plan_id":"cebpf4jnsgd1na2vs0mg"},{"bike_id":"eb6197f6-36f1-450a-8b78-09bac0352f8a","system_id":"levelo_inurba_marseille","lat":43.309047,"lon":5.396551,"is_reserved":false,"is_disabled":false,"rental_uris":{"android":"levelo://app?vid=eb6197f6-36f1-450a-8b78-09bac0352f8a","ios":"levelo://app?vid=eb6197f6-36f1-450a-8b78-09bac0352f8a"},"vehicle_type_id":"4","last_reported":1713557271,"current_range_meters":21200,"station_id":"ce4bh012rcd13ifvqcv0","pricing_plan_id":"cebpf4jnsgd1na2vs0mg"},{"bike_id":"60ae4f7d-be5f-496e-ae64-779128551c81","system_id":"levelo_inurba_marseille","lat":43.313291,"lon":5.396838,"is_reserved":false,"is_disabled":false,"rental_uris":{"android":"levelo://app?vid=60ae4f7d-be5f-496e-ae64-779128551c81","ios":"levelo://app?vid=60ae4f7d-be5f-496e-ae64-779128551c81"},"vehicle_type_id":"4","last_reported":1713557271,"current_range_meters":4000,"station_id":"ce4bgvp2rcd13ifvqcu0","pricing_plan_id":"cebpf4jnsgd1na2vs0mg"},{"bike_id":"c76bbdf3-6740-4c27-a5ed-e4d826d05d83","system_id":"levelo_inurba_marseille","lat":43.313291,"lon":5.396838,"is_reserved":false,"is_disabled":false,"rental_uris":{"android":"levelo://app?vid=c76bbdf3-6740-4c27-a5ed-e4d826d05d83","ios":"levelo://app?vid=c76bbdf3-6740-4c27-a5ed-e4d826d05d83"},"vehicle_type_id":"4","last_reported":1713557271,"current_range_meters":0,"station_id":"ce4bgvp2rcd13ifvqcu0","pricing_plan_id":"cebpf4jnsgd1na2vs0mg"},{"bike_id":"287c8b40-b9be-45bd-bd51-4c0954fb9ac7","system_id":"levelo_inurba_marseille","lat":43.29529,"lon":5.385581,"is_reserved":false,"is_disabled":false,"rental_uris":{"android":"levelo://app?vid=287c8b40-b9be-45bd-bd51-4c0954fb9ac7","ios":"levelo://app?vid=287c8b40-b9be-45bd-bd51-4c0954fb9ac7"},"vehicle_type_id":"4","last_reported":1713557271,"current_range_meters":31200,"station_id":"ce4bgih2rcd13ifvqba0","pricing_plan_id":"cebpf4jnsgd1na2vs0mg"},{"bike_id":"000ce342-9c44-4040-8581-f098f40db77c","system_id":"levelo_inurba_marseille","lat":43.29529,"lon":5.385581,"is_reserved":false,"is_disabled":false,"rental_uris":{"android":"levelo://app?vid=000ce342-9c44-4040-8581-f098f40db77c","ios":"levelo://app?vid=000ce342-9c44-4040-8581-f098f40db77c"},"vehicle_type_id":"4","last_reported":1713557271,"current_range_meters":19200,"station_id":"ce4bgih2rcd13ifvqba0","pricing_plan_id":"cebpf4jnsgd1na2vs0mg"},{"bike_id":"0cd760fc-a750-4ec6-8947-36730810792d","system_id":"levelo_inurba_marseille","lat":43.295408,"lon":5.385498,"is_reserved":false,"is_disabled":false,"rental_uris":{"android":"levelo://app?vid=0cd760fc-a750-4ec6-8947-36730810792d","ios":"levelo://app?vid=0cd760fc-a750-4ec6-8947-36730810792d"},"vehicle_type_id":"4","last_reported":1713557271,"current_range_meters":28800,"station_id":"ce4bgih2rcd13ifvqba0","pricing_plan_id":"cebpf4jnsgd1na2vs0mg"},{"bike_id":"eeef0ab7-c99e-484f-b6be-fd98e1825154","system_id":"levelo_inurba_marseille","lat":43.29532,"lon":5.38538,"is_reserved":false,"is_disabled":false,"rental_uris":{"android":"levelo://app?vid=eeef0ab7-c99e-484f-b6be-fd98e1825154","ios":"levelo://app?vid=eeef0ab7-c99e-484f-b6be-fd98e1825154"},"vehicle_type_id":"4","last_reported":1713557271,"current_range_meters":20800,"station_id":"ce4bgih2rcd13ifvqba0","pricing_plan_id":"cebpf4jnsgd1na2vs0mg"},{"bike_id":"5fb4ed37-bfce-448c-ab57-83a632aa074e","system_id":"levelo_inurba_marseille","lat":43.29533,"lon":5.3854,"is_reserved":false,"is_disabled":false,"rental_uris":{"android":"levelo://app?vid=5fb4ed37-bfce-448c-ab57-83a632aa074e","ios":"levelo://app?vid=5fb4ed37-bfce-448c-ab57-83a632aa074e"},"vehicle_type_id":"4","last_reported":1713557271,"current_range_meters":25600,"station_id":"ce4bgih2rcd13ifvqba0","pricing_plan_id":"cebpf4jnsgd1na2vs0mg"},{"bike_id":"0d1849b9-0b13-400e-a4bd-f17f2cfb2ffe","system_id":"levelo_inurba_marseille","lat":43.29534,"lon":5.38542,"is_reserved":false,"is_disabled":false,"rental_uris":{"android":"levelo://app?vid=0d1849b9-0b13-400e-a4bd-f17f2cfb2ffe","ios":"levelo://app?vid=0d1849b9-0b13-400e-a4bd-f17f2cfb2ffe"},"vehicle_type_id":"4","last_reported":1713557271,"current_range_meters":23600,"station_id":"ce4bgih2rcd13ifvqba0","pricing_plan_id":"cebpf4jnsgd1na2vs0mg"},{"bike_id":"ce55e034-c9f4-4406-bc55-effa9e31a007","system_id":"levelo_inurba_marseille","lat":43.29529,"lon":5.385581,"is_reserved":false,"is_disabled":false,"rental_uris":{"android":"levelo://app?vid=ce55e034-c9f4-4406-bc55-effa9e31a007","ios":"levelo://app?vid=ce55e034-c9f4-4406-bc55-effa9e31a007"},"vehicle_type_id":"4","last_reported":1713557271,"current_range_meters":7200,"station_id":"ce4bgih2rcd13ifvqba0","pricing_plan_id":"cebpf4jnsgd1na2vs0mg"},{"bike_id":"5c452f15-a732-482a-a44c-65494872436a","system_id":"levelo_inurba_marseille","lat":43.29529,"lon":5.385581,"is_reserved":false,"is_disabled":false,"rental_uris":{"android":"levelo://app?vid=5c452f15-a732-482a-a44c-65494872436a","ios":"levelo://app?vid=5c452f15-a732-482a-a44c-65494872436a"},"vehicle_type_id":"4","last_reported":1713557271,"current_range_meters":31200,"station_id":"ce4bgih2rcd13ifvqba0","pricing_plan_id":"cebpf4jnsgd1na2vs0mg"},{"bike_id":"674cb579-d63e-487a-9056-1f22d0b1bcbd","system_id":"levelo_inurba_marseille","lat":43.29529,"lon":5.385581,"is_reserved":false,"is_disabled":false,"rental_uris":{"android":"levelo://app?vid=674cb579-d63e-487a-9056-1f22d0b1bcbd","ios":"levelo://app?vid=674cb579-d63e-487a-9056-1f22d0b1bcbd"},"vehicle_type_id":"4","last_reported":1713557271,"current_range_meters":14400,"station_id":"ce4bgih2rcd13ifvqba0","pricing_plan_id":"cebpf4jnsgd1na2vs0mg"},{"bike_id":"59ab09fa-b28f-4a6f-94d2-2c5d95f2ec60","system_id":"levelo_inurba_marseille","lat":43.2953,"lon":5.38536,"is_reserved":false,"is_disabled":false,"rental_uris":{"android":"levelo://app?vid=59ab09fa-b28f-4a6f-94d2-2c5d95f2ec60","ios":"levelo://app?vid=59ab09fa-b28f-4a6f-94d2-2c5d95f2ec60"},"vehicle_type_id":"4","last_reported":1713557271,"current_range_meters":7600,"station_id":"ce4bgih2rcd13ifvqba0","pricing_plan_id":"cebpf4jnsgd1na2vs0mg"},{"bike_id":"e677fc3f-4dab-4e40-bd6a-447fecc63e14","system_id":"levelo_inurba_marseille","lat":43.29535,"lon":5.38546,"is_reserved":false,"is_disabled":false,"rental_uris":{"android":"levelo://app?vid=e677fc3f-4dab-4e40-bd6a-447fecc63e14","ios":"levelo://app?vid=e677fc3f-4dab-4e40-bd6a-447fecc63e14"},"vehicle_type_id":"4","last_reported":1713557271,"current_range_meters":19600,"station_id":"ce4bgih2rcd13ifvqba0","pricing_plan_id":"cebpf4jnsgd1na2vs0mg"},{"bike_id":"b4294b77-7560-4491-8462-29aeb3c16cc5","system_id":"levelo_inurba_marseille","lat":43.295328,"lon":5.385428,"is_reserved":false,"is_disabled":false,"rental_uris":{"android":"levelo://app?vid=b4294b77-7560-4491-8462-29aeb3c16cc5","ios":"levelo://app?vid=b4294b77-7560-4491-8462-29aeb3c16cc5"},"vehicle_type_id":"4","last_reported":1713557271,"current_range_meters":2400,"station_id":"ce4bgih2rcd13ifvqba0","pricing_plan_id":"cebpf4jnsgd1na2vs0mg"},{"bike_id":"08ab46a2-8a79-40d1-b270-f1d538f6a8e3","system_id":"levelo_inurba_marseille","lat":43.29529,"lon":5.385581,"is_reserved":false,"is_disabled":false,"rental_uris":{"android":"levelo://app?vid=08ab46a2-8a79-40d1-b270-f1d538f6a8e3","ios":"levelo://app?vid=08ab46a2-8a79-40d1-b270-f1d538f6a8e3"},"vehicle_type_id":"4","last_reported":1713557271,"current_range_meters":30000,"station_id":"ce4bgih2rcd13ifvqba0","pricing_plan_id":"cebpf4jnsgd1na2vs0mg"},{"bike_id":"f87a93fe-d966-4a0d-907c-8709ccb6bfcf","system_id":"levelo_inurba_marseille","lat":43.29529,"lon":5.385581,"is_reserved":false,"is_disabled":false,"rental_uris":{"android":"levelo://app?vid=f87a93fe-d966-4a0d-907c-8709ccb6bfcf","ios":"levelo://app?vid=f87a93fe-d966-4a0d-907c-8709ccb6bfcf"},"vehicle_type_id":"4","last_reported":1713557271,"current_range_meters":23600,"station_id":"ce4bgih2rcd13ifvqba0","pricing_plan_id":"cebpf4jnsgd1na2vs0mg"},{"bike_id":"d65babfe-ba42-4bc6-aabd-09c607517a73","system_id":"levelo_inurba_marseille","lat":43.29529,"lon":5.385581,"is_reserved":false,"is_disabled":false,"rental_uris":{"android":"levelo://app?vid=d65babfe-ba42-4bc6-aabd-09c607517a73","ios":"levelo://app?vid=d65babfe-ba42-4bc6-aabd-09c607517a73"},"vehicle_type_id":"4","last_reported":1713557271,"current_range_meters":13600,"station_id":"ce4bgih2rcd13ifvqba0","pricing_plan_id":"cebpf4jnsgd1na2vs0mg"},{"bike_id":"d5f1dd4b-f66e-43e9-949f-2d0545019678","system_id":"levelo_inurba_marseille","lat":43.29536,"lon":5.38551,"is_reserved":false,"is_disabled":false,"rental_uris":{"android":"levelo://app?vid=d5f1dd4b-f66e-43e9-949f-2d0545019678","ios":"levelo://app?vid=d5f1dd4b-f66e-43e9-949f-2d0545019678"},"vehicle_type_id":"4","last_reported":1713557271,"current_range_meters":28000,"station_id":"ce4bgih2rcd13ifvqba0","pricing_plan_id":"cebpf4jnsgd1na2vs0mg"},{"bike_id":"4af3ec86-d58c-486c-b030-f72ac49fa81c","system_id":"levelo_inurba_marseille","lat":43.29537,"lon":5.38554,"is_reserved":false,"is_disabled":false,"rental_uris":{"android":"levelo://app?vid=4af3ec86-d58c-486c-b030-f72ac49fa81c","ios":"levelo://app?vid=4af3ec86-d58c-486c-b030-f72ac49fa81c"},"vehicle_type_id":"4","last_reported":1713557271,"current_range_meters":27600,"station_id":"ce4bgih2rcd13ifvqba0","pricing_plan_id":"cebpf4jnsgd1na2vs0mg"},{"bike_id":"8705f553-95b7-4759-ab8f-5adedb8cc9c0","system_id":"levelo_inurba_marseille","lat":43.29529,"lon":5.385581,"is_reserved":false,"is_disabled":false,"rental_uris":{"android":"levelo://app?vid=8705f553-95b7-4759-ab8f-5adedb8cc9c0","ios":"levelo://app?vid=8705f553-95b7-4759-ab8f-5adedb8cc9c0"},"vehicle_type_id":"4","last_reported":1713557271,"current_range_meters":10400,"station_id":"ce4bgih2rcd13ifvqba0","pricing_plan_id":"cebpf4jnsgd1na2vs0mg"},{"bike_id":"7f976212-b8f2-4472-b682-736be72ac77d","system_id":"levelo_inurba_marseille","lat":43.29527,"lon":5.38537,"is_reserved":false,"is_disabled":false,"rental_uris":{"android":"levelo://app?vid=7f976212-b8f2-4472-b682-736be72ac77d","ios":"levelo://app?vid=7f976212-b8f2-4472-b682-736be72ac77d"},"vehicle_type_id":"4","last_reported":1713557271,"current_range_meters":6800,"station_id":"ce4bgih2rcd13ifvqba0","pricing_plan_id":"cebpf4jnsgd1na2vs0mg"},{"bike_id":"48f2c496-1a3f-4d91-a438-258512b7fbfa","system_id":"levelo_inurba_marseille","lat":43.29529,"lon":5.385581,"is_reserved":false,"is_disabled":false,"rental_uris":{"android":"levelo://app?vid=48f2c496-1a3f-4d91-a438-258512b7fbfa","ios":"levelo://app?vid=48f2c496-1a3f-4d91-a438-258512b7fbfa"},"vehicle_type_id":"4","last_reported":1713557271,"current_range_meters":27600,"station_id":"ce4bgih2rcd13ifvqba0","pricing_plan_id":"cebpf4jnsgd1na2vs0mg"},{"bike_id":"334cf322-4e4b-45c4-b72b-675eecab1514","system_id":"levelo_inurba_marseille","lat":43.29528,"lon":5.38539,"is_reserved":false,"is_disabled":false,"rental_uris":{"android":"levelo://app?vid=334cf322-4e4b-45c4-b72b-675eecab1514","ios":"levelo://app?vid=334cf322-4e4b-45c4-b72b-675eecab1514"},"vehicle_type_id":"4","last_reported":1713557271,"current_range_meters":16400,"station_id":"ce4bgih2rcd13ifvqba0","pricing_plan_id":"cebpf4jnsgd1na2vs0mg"},{"bike_id":"3960fc4a-1e82-40fe-9daf-7513307feae4","system_id":"levelo_inurba_marseille","lat":43.29536,"lon":5.385533,"is_reserved":false,"is_disabled":false,"rental_uris":{"android":"levelo://app?vid=3960fc4a-1e82-40fe-9daf-7513307feae4","ios":"levelo://app?vid=3960fc4a-1e82-40fe-9daf-7513307feae4"},"vehicle_type_id":"4","last_reported":1713557271,"current_range_meters":5200,"station_id":"ce4bgih2rcd13ifvqba0","pricing_plan_id":"cebpf4jnsgd1na2vs0mg"},{"bike_id":"c2d6149e-3c9b-43fa-a192-49e93915998f","system_id":"levelo_inurba_marseille","lat":43.295334,"lon":5.385498,"is_reserved":false,"is_disabled":false,"rental_uris":{"android":"levelo://app?vid=c2d6149e-3c9b-43fa-a192-49e93915998f","ios":"levelo://app?vid=c2d6149e-3c9b-43fa-a192-49e93915998f"},"vehicle_type_id":"4","last_reported":1713557271,"current_range_meters":16800,"station_id":"ce4bgih2rcd13ifvqba0","pricing_plan_id":"cebpf4jnsgd1na2vs0mg"},{"bike_id":"f79d9366-ef65-49c1-9913-dbccf4200dc3","system_id":"levelo_inurba_marseille","lat":43.295294,"lon":5.385429,"is_reserved":false,"is_disabled":false,"rental_uris":{"android":"levelo://app?vid=f79d9366-ef65-49c1-9913-dbccf4200dc3","ios":"levelo://app?vid=f79d9366-ef65-49c1-9913-dbccf4200dc3"},"vehicle_type_id":"4","last_reported":1713557271,"current_range_meters":0,"station_id":"ce4bgih2rcd13ifvqba0","pricing_plan_id":"cebpf4jnsgd1na2vs0mg"},{"bike_id":"71049cf3-9115-4745-af79-b28f7762c7de","system_id":"levelo_inurba_marseille","lat":43.29529,"lon":5.385581,"is_reserved":false,"is_disabled":false,"rental_uris":{"android":"levelo://app?vid=71049cf3-9115-4745-af79-b28f7762c7de","ios":"levelo://app?vid=71049cf3-9115-4745-af79-b28f7762c7de"},"vehicle_type_id":"4","last_reported":1713557271,"current_range_meters":28400,"station_id":"ce4bgih2rcd13ifvqba0","pricing_plan_id":"cebpf4jnsgd1na2vs0mg"},{"bike_id":"88580fdc-59ee-4f34-816e-f8f6fc51ffd4","system_id":"levelo_inurba_marseille","lat":43.29529,"lon":5.38543,"is_reserved":false,"is_disabled":false,"rental_uris":{"android":"levelo://app?vid=88580fdc-59ee-4f34-816e-f8f6fc51ffd4","ios":"levelo://app?vid=88580fdc-59ee-4f34-816e-f8f6fc51ffd4"},"vehicle_type_id":"4","last_reported":1713557271,"current_range_meters":0,"station_id":"ce4bgih2rcd13ifvqba0","pricing_plan_id":"cebpf4jnsgd1na2vs0mg"},{"bike_id":"39c299e6-b895-4ccc-bbe0-6d790afef5c5","system_id":"levelo_inurba_marseille","lat":43.29529,"lon":5.385581,"is_reserved":false,"is_disabled":false,"rental_uris":{"android":"levelo://app?vid=39c299e6-b895-4ccc-bbe0-6d790afef5c5","ios":"levelo://app?vid=39c299e6-b895-4ccc-bbe0-6d790afef5c5"},"vehicle_type_id":"4","last_reported":1713557271,"current_range_meters":11600,"station_id":"ce4bgih2rcd13ifvqba0","pricing_plan_id":"cebpf4jnsgd1na2vs0mg"},{"bike_id":"4410aef0-71b5-46e0-8a90-7e99ec3a61e4","system_id":"levelo_inurba_marseille","lat":43.29529,"lon":5.385581,"is_reserved":false,"is_disabled":false,"rental_uris":{"android":"levelo://app?vid=4410aef0-71b5-46e0-8a90-7e99ec3a61e4","ios":"levelo://app?vid=4410aef0-71b5-46e0-8a90-7e99ec3a61e4"},"vehicle_type_id":"4","last_reported":1713557271,"current_range_meters":2400,"station_id":"ce4bgih2rcd13ifvqba0","pricing_plan_id":"cebpf4jnsgd1na2vs0mg"},{"bike_id":"15ca6bc1-5fea-4697-bd2a-f8a1e377f6ee","system_id":"levelo_inurba_marseille","lat":43.29529,"lon":5.385581,"is_reserved":false,"is_disabled":false,"rental_uris":{"android":"levelo://app?vid=15ca6bc1-5fea-4697-bd2a-f8a1e377f6ee","ios":"levelo://app?vid=15ca6bc1-5fea-4697-bd2a-f8a1e377f6ee"},"vehicle_type_id":"4","last_reported":1713557271,"current_range_meters":9200,"station_id":"ce4bgih2rcd13ifvqba0","pricing_plan_id":"cebpf4jnsgd1na2vs0mg"},{"bike_id":"4e242037-bcca-4e5c-a01d-b3943bf7cca8","system_id":"levelo_inurba_marseille","lat":43.29529,"lon":5.385581,"is_reserved":false,"is_disabled":false,"rental_uris":{"android":"levelo://app?vid=4e242037-bcca-4e5c-a01d-b3943bf7cca8","ios":"levelo://app?vid=4e242037-bcca-4e5c-a01d-b3943bf7cca8"},"vehicle_type_id":"4","last_reported":1713557271,"current_range_meters":10000,"station_id":"ce4bgih2rcd13ifvqba0","pricing_plan_id":"cebpf4jnsgd1na2vs0mg"},{"bike_id":"b1a3847c-3e9b-4239-881d-29297147680e","system_id":"levelo_inurba_marseille","lat":43.295304,"lon":5.385567,"is_reserved":false,"is_disabled":false,"rental_uris":{"android":"levelo://app?vid=b1a3847c-3e9b-4239-881d-29297147680e","ios":"levelo://app?vid=b1a3847c-3e9b-4239-881d-29297147680e"},"vehicle_type_id":"4","last_reported":1713557271,"current_range_meters":4400,"station_id":"ce4bgih2rcd13ifvqba0","pricing_plan_id":"cebpf4jnsgd1na2vs0mg"},{"bike_id":"ec966409-9c87-4faf-b7b6-39a81810ef85","system_id":"levelo_inurba_marseille","lat":43.305364,"lon":5.384119,"is_reserved":false,"is_disabled":false,"rental_uris":{"android":"levelo://app?vid=ec966409-9c87-4faf-b7b6-39a81810ef85","ios":"levelo://app?vid=ec966409-9c87-4faf-b7b6-39a81810ef85"},"vehicle_type_id":"4","last_reported":1713557271,"current_range_meters":12000,"station_id":"ce4bgg92rcd13ifvqb30","pricing_plan_id":"cebpf4jnsgd1na2vs0mg"},{"bike_id":"60adf1b4-949c-4494-8411-458dbb4755f3","system_id":"levelo_inurba_marseille","lat":43.29528,"lon":5.38558,"is_reserved":false,"is_disabled":false,"rental_uris":{"android":"levelo://app?vid=60adf1b4-949c-4494-8411-458dbb4755f3","ios":"levelo://app?vid=60adf1b4-949c-4494-8411-458dbb4755f3"},"vehicle_type_id":"4","last_reported":1713557271,"current_range_meters":22000,"station_id":"ce4bgih2rcd13ifvqba0","pricing_plan_id":"cebpf4jnsgd1na2vs0mg"},{"bike_id":"469a3964-e414-4bf9-9e45-a3b2df5e64e9","system_id":"levelo_inurba_marseille","lat":43.295261,"lon":5.385563,"is_reserved":false,"is_disabled":false,"rental_uris":{"android":"levelo://app?vid=469a3964-e414-4bf9-9e45-a3b2df5e64e9","ios":"levelo://app?vid=469a3964-e414-4bf9-9e45-a3b2df5e64e9"},"vehicle_type_id":"4","last_reported":1713557271,"current_range_meters":6800,"station_id":"ce4bgih2rcd13ifvqba0","pricing_plan_id":"cebpf4jnsgd1na2vs0mg"},{"bike_id":"19a045b0-a58d-420e-980e-79aa373ce378","system_id":"levelo_inurba_marseille","lat":43.29529,"lon":5.385581,"is_reserved":false,"is_disabled":false,"rental_uris":{"android":"levelo://app?vid=19a045b0-a58d-420e-980e-79aa373ce378","ios":"levelo://app?vid=19a045b0-a58d-420e-980e-79aa373ce378"},"vehicle_type_id":"4","last_reported":1713557271,"current_range_meters":13200,"station_id":"ce4bgih2rcd13ifvqba0","pricing_plan_id":"cebpf4jnsgd1na2vs0mg"},{"bike_id":"b82d9417-0354-47a8-8078-1521a532914b","system_id":"levelo_inurba_marseille","lat":43.29525,"lon":5.38556,"is_reserved":false,"is_disabled":false,"rental_uris":{"android":"levelo://app?vid=b82d9417-0354-47a8-8078-1521a532914b","ios":"levelo://app?vid=b82d9417-0354-47a8-8078-1521a532914b"},"vehicle_type_id":"4","last_reported":1713557271,"current_range_meters":8800,"station_id":"ce4bgih2rcd13ifvqba0","pricing_plan_id":"cebpf4jnsgd1na2vs0mg"},{"bike_id":"2cfe357c-491e-44e5-9c94-9e89171df426","system_id":"levelo_inurba_marseille","lat":43.290779,"lon":5.371482,"is_reserved":false,"is_disabled":false,"rental_uris":{"android":"levelo://app?vid=2cfe357c-491e-44e5-9c94-9e89171df426","ios":"levelo://app?vid=2cfe357c-491e-44e5-9c94-9e89171df426"},"vehicle_type_id":"4","last_reported":1713557271,"current_range_meters":23600,"station_id":"ce4bh5p2rcd13ifvqe4g","pricing_plan_id":"cebpf4jnsgd1na2vs0mg"},{"bike_id":"31d13a64-31e5-419f-bd83-af8d14d2d309","system_id":"levelo_inurba_marseille","lat":43.290779,"lon":5.371482,"is_reserved":false,"is_disabled":false,"rental_uris":{"android":"levelo://app?vid=31d13a64-31e5-419f-bd83-af8d14d2d309","ios":"levelo://app?vid=31d13a64-31e5-419f-bd83-af8d14d2d309"},"vehicle_type_id":"4","last_reported":1713557271,"current_range_meters":24800,"station_id":"ce4bh5p2rcd13ifvqe4g","pricing_plan_id":"cebpf4jnsgd1na2vs0mg"},{"bike_id":"3db846d7-1839-4ef1-9c2d-a3601b9f0f6f","system_id":"levelo_inurba_marseille","lat":43.290779,"lon":5.371482,"is_reserved":false,"is_disabled":false,"rental_uris":{"android":"levelo://app?vid=3db846d7-1839-4ef1-9c2d-a3601b9f0f6f","ios":"levelo://app?vid=3db846d7-1839-4ef1-9c2d-a3601b9f0f6f"},"vehicle_type_id":"4","last_reported":1713557271,"current_range_meters":1600,"station_id":"ce4bh5p2rcd13ifvqe4g","pricing_plan_id":"cebpf4jnsgd1na2vs0mg"},{"bike_id":"95a32629-61bc-4899-b11a-475dd5e299fb","system_id":"levelo_inurba_marseille","lat":43.290678,"lon":5.371817,"is_reserved":false,"is_disabled":false,"rental_uris":{"android":"levelo://app?vid=95a32629-61bc-4899-b11a-475dd5e299fb","ios":"levelo://app?vid=95a32629-61bc-4899-b11a-475dd5e299fb"},"vehicle_type_id":"4","last_reported":1713557271,"current_range_meters":2000,"station_id":"ce4bh5p2rcd13ifvqe4g","pricing_plan_id":"cebpf4jnsgd1na2vs0mg"},{"bike_id":"5c6f7ba7-bc6f-45f4-9e20-af36ff8485d0","system_id":"levelo_inurba_marseille","lat":43.295748,"lon":5.37522,"is_reserved":false,"is_disabled":false,"rental_uris":{"android":"levelo://app?vid=5c6f7ba7-bc6f-45f4-9e20-af36ff8485d0","ios":"levelo://app?vid=5c6f7ba7-bc6f-45f4-9e20-af36ff8485d0"},"vehicle_type_id":"4","last_reported":1713557271,"current_range_meters":3200,"station_id":"ce4bgh92rcd13ifvqb50","pricing_plan_id":"cebpf4jnsgd1na2vs0mg"},{"bike_id":"a072a9aa-b92e-4508-b67f-ecf1ed2e5e03","system_id":"levelo_inurba_marseille","lat":43.290468,"lon":5.369846,"is_reserved":false,"is_disabled":false,"rental_uris":{"android":"levelo://app?vid=a072a9aa-b92e-4508-b67f-ecf1ed2e5e03","ios":"levelo://app?vid=a072a9aa-b92e-4508-b67f-ecf1ed2e5e03"},"vehicle_type_id":"4","last_reported":1713557271,"current_range_meters":0,"station_id":"ce4bhap2rcd13ifvqek0","pricing_plan_id":"cebpf4jnsgd1na2vs0mg"},{"bike_id":"b37a2c12-b412-4a17-8831-97b77edbd0a3","system_id":"levelo_inurba_marseille","lat":43.290779,"lon":5.371482,"is_reserved":false,"is_disabled":false,"rental_uris":{"android":"levelo://app?vid=b37a2c12-b412-4a17-8831-97b77edbd0a3","ios":"levelo://app?vid=b37a2c12-b412-4a17-8831-97b77edbd0a3"},"vehicle_type_id":"4","last_reported":1713557271,"current_range_meters":25600,"station_id":"ce4bh5p2rcd13ifvqe4g","pricing_plan_id":"cebpf4jnsgd1na2vs0mg"},{"bike_id":"5e996f53-9fe1-479b-9621-094201b4dc3f","system_id":"levelo_inurba_marseille","lat":43.289184,"lon":5.366408,"is_reserved":false,"is_disabled":false,"rental_uris":{"android":"levelo://app?vid=5e996f53-9fe1-479b-9621-094201b4dc3f","ios":"levelo://app?vid=5e996f53-9fe1-479b-9621-094201b4dc3f"},"vehicle_type_id":"4","last_reported":1713557271,"current_range_meters":800,"station_id":"ce4bhap2rcd13ifvqek0","pricing_plan_id":"cebpf4jnsgd1na2vs0mg"},{"bike_id":"302a8638-112b-4ee8-b408-94327f6d5a87","system_id":"levelo_inurba_marseille","lat":43.294453,"lon":5.386447,"is_reserved":false,"is_disabled":false,"rental_uris":{"android":"levelo://app?vid=302a8638-112b-4ee8-b408-94327f6d5a87","ios":"levelo://app?vid=302a8638-112b-4ee8-b408-94327f6d5a87"},"vehicle_type_id":"4","last_reported":1713557271,"current_range_meters":18800,"station_id":"ce4bh2h2rcd13ifvqdh0","pricing_plan_id":"cebpf4jnsgd1na2vs0mg"},{"bike_id":"1e09151d-5e79-4026-bd7f-19f12bf4c7f5","system_id":"levelo_inurba_marseille","lat":43.29452,"lon":5.386625,"is_reserved":false,"is_disabled":false,"rental_uris":{"android":"levelo://app?vid=1e09151d-5e79-4026-bd7f-19f12bf4c7f5","ios":"levelo://app?vid=1e09151d-5e79-4026-bd7f-19f12bf4c7f5"},"vehicle_type_id":"4","last_reported":1713557271,"current_range_meters":18800,"station_id":"ce4bh2h2rcd13ifvqdh0","pricing_plan_id":"cebpf4jnsgd1na2vs0mg"},{"bike_id":"3c072437-5278-413e-903b-d11f716d7264","system_id":"levelo_inurba_marseille","lat":43.294256,"lon":5.386194,"is_reserved":false,"is_disabled":false,"rental_uris":{"android":"levelo://app?vid=3c072437-5278-413e-903b-d11f716d7264","ios":"levelo://app?vid=3c072437-5278-413e-903b-d11f716d7264"},"vehicle_type_id":"4","last_reported":1713557271,"current_range_meters":1600,"station_id":"ce4bh2h2rcd13ifvqdh0","pricing_plan_id":"cebpf4jnsgd1na2vs0mg"},{"bike_id":"75a4f49b-a8df-4353-82ef-cd6c6e4fc671","system_id":"levelo_inurba_marseille","lat":43.29426,"lon":5.38623,"is_reserved":false,"is_disabled":false,"rental_uris":{"android":"levelo://app?vid=75a4f49b-a8df-4353-82ef-cd6c6e4fc671","ios":"levelo://app?vid=75a4f49b-a8df-4353-82ef-cd6c6e4fc671"},"vehicle_type_id":"4","last_reported":1713557271,"current_range_meters":0,"station_id":"ce4bh2h2rcd13ifvqdh0","pricing_plan_id":"cebpf4jnsgd1na2vs0mg"},{"bike_id":"a283c22b-0c91-4e7a-aba2-8dafda92d6e5","system_id":"levelo_inurba_marseille","lat":43.29422,"lon":5.38616,"is_reserved":false,"is_disabled":false,"rental_uris":{"android":"levelo://app?vid=a283c22b-0c91-4e7a-aba2-8dafda92d6e5","ios":"levelo://app?vid=a283c22b-0c91-4e7a-aba2-8dafda92d6e5"},"vehicle_type_id":"4","last_reported":1713557271,"current_range_meters":28400,"station_id":"ce4bh2h2rcd13ifvqdh0","pricing_plan_id":"cebpf4jnsgd1na2vs0mg"},{"bike_id":"5464b359-d67f-410e-a111-127d519116f7","system_id":"levelo_inurba_marseille","lat":43.294162,"lon":5.386292,"is_reserved":false,"is_disabled":false,"rental_uris":{"android":"levelo://app?vid=5464b359-d67f-410e-a111-127d519116f7","ios":"levelo://app?vid=5464b359-d67f-410e-a111-127d519116f7"},"vehicle_type_id":"4","last_reported":1713557271,"current_range_meters":15200,"station_id":"ce4bh2h2rcd13ifvqdh0","pricing_plan_id":"cebpf4jnsgd1na2vs0mg"},{"bike_id":"abf1dd8c-bdc1-4dd9-83a3-36f326d3d838","system_id":"levelo_inurba_marseille","lat":43.294162,"lon":5.386292,"is_reserved":false,"is_disabled":false,"rental_uris":{"android":"levelo://app?vid=abf1dd8c-bdc1-4dd9-83a3-36f326d3d838","ios":"levelo://app?vid=abf1dd8c-bdc1-4dd9-83a3-36f326d3d838"},"vehicle_type_id":"4","last_reported":1713557271,"current_range_meters":29200,"station_id":"ce4bh2h2rcd13ifvqdh0","pricing_plan_id":"cebpf4jnsgd1na2vs0mg"},{"bike_id":"25e8fab4-d26c-4e21-89e5-3e50cec831d2","system_id":"levelo_inurba_marseille","lat":43.29419,"lon":5.38625,"is_reserved":false,"is_disabled":false,"rental_uris":{"android":"levelo://app?vid=25e8fab4-d26c-4e21-89e5-3e50cec831d2","ios":"levelo://app?vid=25e8fab4-d26c-4e21-89e5-3e50cec831d2"},"vehicle_type_id":"4","last_reported":1713557271,"current_range_meters":1600,"station_id":"ce4bh2h2rcd13ifvqdh0","pricing_plan_id":"cebpf4jnsgd1na2vs0mg"},{"bike_id":"de74859c-d6a7-4dee-be45-d6f401eeff90","system_id":"levelo_inurba_marseille","lat":43.294162,"lon":5.386292,"is_reserved":false,"is_disabled":false,"rental_uris":{"android":"levelo://app?vid=de74859c-d6a7-4dee-be45-d6f401eeff90","ios":"levelo://app?vid=de74859c-d6a7-4dee-be45-d6f401eeff90"},"vehicle_type_id":"4","last_reported":1713557271,"current_range_meters":800,"station_id":"ce4bh2h2rcd13ifvqdh0","pricing_plan_id":"cebpf4jnsgd1na2vs0mg"},{"bike_id":"95711ad7-8a4a-4623-a3ef-cbef51b0842f","system_id":"levelo_inurba_marseille","lat":43.29424,"lon":5.38636,"is_reserved":false,"is_disabled":false,"rental_uris":{"android":"levelo://app?vid=95711ad7-8a4a-4623-a3ef-cbef51b0842f","ios":"levelo://app?vid=95711ad7-8a4a-4623-a3ef-cbef51b0842f"},"vehicle_type_id":"4","last_reported":1713557271,"current_range_meters":25200,"station_id":"ce4bh2h2rcd13ifvqdh0","pricing_plan_id":"cebpf4jnsgd1na2vs0mg"},{"bike_id":"49d76dc6-612e-4361-8c29-354065030c3b","system_id":"levelo_inurba_marseille","lat":43.29418,"lon":5.38626,"is_reserved":false,"is_disabled":false,"rental_uris":{"android":"levelo://app?vid=49d76dc6-612e-4361-8c29-354065030c3b","ios":"levelo://app?vid=49d76dc6-612e-4361-8c29-354065030c3b"},"vehicle_type_id":"4","last_reported":1713557271,"current_range_meters":7200,"station_id":"ce4bh2h2rcd13ifvqdh0","pricing_plan_id":"cebpf4jnsgd1na2vs0mg"},{"bike_id":"ab0484b4-b957-4112-8aba-21fb6166b630","system_id":"levelo_inurba_marseille","lat":43.290319,"lon":5.375732,"is_reserved":false,"is_disabled":false,"rental_uris":{"android":"levelo://app?vid=ab0484b4-b957-4112-8aba-21fb6166b630","ios":"levelo://app?vid=ab0484b4-b957-4112-8aba-21fb6166b630"},"vehicle_type_id":"4","last_reported":1713557271,"current_range_meters":12800,"station_id":"ce4bh692rcd13ifvqe90","pricing_plan_id":"cebpf4jnsgd1na2vs0mg"},{"bike_id":"0dcb72fd-3452-4cfd-958d-32ca67e1e193","system_id":"levelo_inurba_marseille","lat":43.29419,"lon":5.38628,"is_reserved":false,"is_disabled":false,"rental_uris":{"android":"levelo://app?vid=0dcb72fd-3452-4cfd-958d-32ca67e1e193","ios":"levelo://app?vid=0dcb72fd-3452-4cfd-958d-32ca67e1e193"},"vehicle_type_id":"4","last_reported":1713557271,"current_range_meters":15200,"station_id":"ce4bh2h2rcd13ifvqdh0","pricing_plan_id":"cebpf4jnsgd1na2vs0mg"},{"bike_id":"2877650a-2f3c-45ac-92b4-70aa32d986ff","system_id":"levelo_inurba_marseille","lat":43.294162,"lon":5.386292,"is_reserved":false,"is_disabled":false,"rental_uris":{"android":"levelo://app?vid=2877650a-2f3c-45ac-92b4-70aa32d986ff","ios":"levelo://app?vid=2877650a-2f3c-45ac-92b4-70aa32d986ff"},"vehicle_type_id":"4","last_reported":1713557271,"current_range_meters":5200,"station_id":"ce4bh2h2rcd13ifvqdh0","pricing_plan_id":"cebpf4jnsgd1na2vs0mg"},{"bike_id":"9ff90951-c46a-4751-a033-f61d8ce94801","system_id":"levelo_inurba_marseille","lat":43.29413,"lon":5.38618,"is_reserved":false,"is_disabled":false,"rental_uris":{"android":"levelo://app?vid=9ff90951-c46a-4751-a033-f61d8ce94801","ios":"levelo://app?vid=9ff90951-c46a-4751-a033-f61d8ce94801"},"vehicle_type_id":"4","last_reported":1713557271,"current_range_meters":0,"station_id":"ce4bh2h2rcd13ifvqdh0","pricing_plan_id":"cebpf4jnsgd1na2vs0mg"},{"bike_id":"60696613-93f6-4b60-914f-1b4e094594e5","system_id":"levelo_inurba_marseille","lat":43.2941,"lon":5.38613,"is_reserved":false,"is_disabled":false,"rental_uris":{"android":"levelo://app?vid=60696613-93f6-4b60-914f-1b4e094594e5","ios":"levelo://app?vid=60696613-93f6-4b60-914f-1b4e094594e5"},"vehicle_type_id":"4","last_reported":1713557271,"current_range_meters":7200,"station_id":"ce4bh2h2rcd13ifvqdh0","pricing_plan_id":"cebpf4jnsgd1na2vs0mg"},{"bike_id":"6105e743-4bef-41c7-8804-5f21919b982c","system_id":"levelo_inurba_marseille","lat":43.29417,"lon":5.38626,"is_reserved":false,"is_disabled":false,"rental_uris":{"android":"levelo://app?vid=6105e743-4bef-41c7-8804-5f21919b982c","ios":"levelo://app?vid=6105e743-4bef-41c7-8804-5f21919b982c"},"vehicle_type_id":"4","last_reported":1713557271,"current_range_meters":26000,"station_id":"ce4bh2h2rcd13ifvqdh0","pricing_plan_id":"cebpf4jnsgd1na2vs0mg"},{"bike_id":"8fd82c7e-530f-4e7a-bfcb-9014829fbe1a","system_id":"levelo_inurba_marseille","lat":43.2941,"lon":5.38615,"is_reserved":false,"is_disabled":false,"rental_uris":{"android":"levelo://app?vid=8fd82c7e-530f-4e7a-bfcb-9014829fbe1a","ios":"levelo://app?vid=8fd82c7e-530f-4e7a-bfcb-9014829fbe1a"},"vehicle_type_id":"4","last_reported":1713557271,"current_range_meters":27600,"station_id":"ce4bh2h2rcd13ifvqdh0","pricing_plan_id":"cebpf4jnsgd1na2vs0mg"},{"bike_id":"298e866d-ee07-47fe-bd8d-334d9352c00c","system_id":"levelo_inurba_marseille","lat":43.29416,"lon":5.38626,"is_reserved":false,"is_disabled":false,"rental_uris":{"android":"levelo://app?vid=298e866d-ee07-47fe-bd8d-334d9352c00c","ios":"levelo://app?vid=298e866d-ee07-47fe-bd8d-334d9352c00c"},"vehicle_type_id":"4","last_reported":1713557271,"current_range_meters":15200,"station_id":"ce4bh2h2rcd13ifvqdh0","pricing_plan_id":"cebpf4jnsgd1na2vs0mg"},{"bike_id":"26f91d33-67c6-4fe2-99ac-8272b58cdf5b","system_id":"levelo_inurba_marseille","lat":43.294162,"lon":5.386292,"is_reserved":false,"is_disabled":false,"rental_uris":{"android":"levelo://app?vid=26f91d33-67c6-4fe2-99ac-8272b58cdf5b","ios":"levelo://app?vid=26f91d33-67c6-4fe2-99ac-8272b58cdf5b"},