{"last_updated":1731136055,"ttl":60,"version":"2.2","data":{"bikes":[{"bike_id":"83d79eb4-b2c8-4660-ab26-9cd7ca20ead1","system_id":"levelo_inurba_marseille","lat":43.30465,"lon":5.37901,"is_reserved":false,"is_disabled":false,"rental_uris":{"android":"levelo://app?vid=83d79eb4-b2c8-4660-ab26-9cd7ca20ead1","ios":"levelo://app?vid=83d79eb4-b2c8-4660-ab26-9cd7ca20ead1"},"vehicle_type_id":"4","last_reported":1731136055,"current_range_meters":37600,"station_id":"ce4bgup2rcd13ifvqcn0","pricing_plan_id":"cebpf4jnsgd1na2vs0mg"},{"bike_id":"e94e2327-9eaf-4d26-bd7f-903afa708be6","system_id":"levelo_inurba_marseille","lat":43.3372,"lon":5.39195,"is_reserved":false,"is_disabled":false,"rental_uris":{"android":"levelo://app?vid=e94e2327-9eaf-4d26-bd7f-903afa708be6","ios":"levelo://app?vid=e94e2327-9eaf-4d26-bd7f-903afa708be6"},"vehicle_type_id":"4","last_reported":1731136055,"current_range_meters":20800,"station_id":"ce4bhr92rcd13ifvqhsg","pricing_plan_id":"cebpf4jnsgd1na2vs0mg"},{"bike_id":"37b18ebd-4aa0-4ca2-bfbb-ac9479701cc7","system_id":"levelo_inurba_marseille","lat":43.28068,"lon":5.39653,"is_reserved":false,"is_disabled":false,"rental_uris":{"android":"levelo://app?vid=37b18ebd-4aa0-4ca2-bfbb-ac9479701cc7","ios":"levelo://app?vid=37b18ebd-4aa0-4ca2-bfbb-ac9479701cc7"},"vehicle_type_id":"4","last_reported":1731136055,"current_range_meters":39200,"station_id":"ce4bho12rcd13ifvqh2g","pricing_plan_id":"cebpf4jnsgd1na2vs0mg"},{"bike_id":"6e9bc842-52b3-4518-a547-c69960136416","system_id":"levelo_inurba_marseille","lat":43.28433,"lon":5.39197,"is_reserved":false,"is_disabled":false,"rental_uris":{"android":"levelo://app?vid=6e9bc842-52b3-4518-a547-c69960136416","ios":"levelo://app?vid=6e9bc842-52b3-4518-a547-c69960136416"},"vehicle_type_id":"4","last_reported":1731136055,"current_range_meters":20800,"station_id":"ce4bhoh2rcd13ifvqh5g","pricing_plan_id":"cebpf4jnsgd1na2vs0mg"},{"bike_id":"89b8a685-fac9-450e-a70e-342515d21cbe","system_id":"levelo_inurba_marseille","lat":43.27625,"lon":5.42644,"is_reserved":false,"is_disabled":false,"rental_uris":{"android":"levelo://app?vid=89b8a685-fac9-450e-a70e-342515d21cbe","ios":"levelo://app?vid=89b8a685-fac9-450e-a70e-342515d21cbe"},"vehicle_type_id":"4","last_reported":1731136055,"current_range_meters":9200,"station_id":"","pricing_plan_id":"cebpf4jnsgd1na2vs0mg"},{"bike_id":"06bb3e06-6dfc-4c7a-bbfb-aaacb082969f","system_id":"levelo_inurba_marseille","lat":43.25096,"lon":5.40332,"is_reserved":false,"is_disabled":false,"rental_uris":{"android":"levelo://app?vid=06bb3e06-6dfc-4c7a-bbfb-aaacb082969f","ios":"levelo://app?vid=06bb3e06-6dfc-4c7a-bbfb-aaacb082969f"},"vehicle_type_id":"4","last_reported":1731136055,"current_range_meters":35200,"station_id":"ce4bhlh2rcd13ifvqgig","pricing_plan_id":"cebpf4jnsgd1na2vs0mg"},{"bike_id":"68bb9078-c705-4e4c-81de-7ae7c7d86c43","system_id":"levelo_inurba_marseille","lat":43.31693,"lon":5.37798,"is_reserved":false,"is_disabled":false,"rental_uris":{"android":"levelo://app?vid=68bb9078-c705-4e4c-81de-7ae7c7d86c43","ios":"levelo://app?vid=68bb9078-c705-4e4c-81de-7ae7c7d86c43"},"vehicle_type_id":"4","last_reported":1731136055,"current_range_meters":30000,"station_id":"ce4bgth2rcd13ifvqch0","pricing_plan_id":"cebpf4jnsgd1na2vs0mg"},{"bike_id":"483b8c02-479e-49cc-9cf2-1cbcefdf0321","system_id":"levelo_inurba_marseille","lat":43.28936,"lon":5.39635,"is_reserved":false,"is_disabled":false,"rental_uris":{"android":"levelo://app?vid=483b8c02-479e-49cc-9cf2-1cbcefdf0321","ios":"levelo://app?vid=483b8c02-479e-49cc-9cf2-1cbcefdf0321"},"vehicle_type_id":"4","last_reported":1731136055,"current_range_meters":39200,"station_id":"ce4bh3h2rcd13ifvqdn0","pricing_plan_id":"cebpf4jnsgd1na2vs0mg"},{"bike_id":"0ff4e3e5-5144-4fdb-9afd-d988e88ae58e","system_id":"levelo_inurba_marseille","lat":43.337444,"lon":5.374475,"is_reserved":false,"is_disabled":false,"rental_uris":{"android":"levelo://app?vid=0ff4e3e5-5144-4fdb-9afd-d988e88ae58e","ios":"levelo://app?vid=0ff4e3e5-5144-4fdb-9afd-d988e88ae58e"},"vehicle_type_id":"4","last_reported":1731136055,"current_range_meters":18000,"station_id":"","pricing_plan_id":"cebpf4jnsgd1na2vs0mg"},{"bike_id":"38455bb7-0065-4041-a9c3-aa272a5e026d","system_id":"levelo_inurba_marseille","lat":43.26783,"lon":5.39415,"is_reserved":false,"is_disabled":false,"rental_uris":{"android":"levelo://app?vid=38455bb7-0065-4041-a9c3-aa272a5e026d","ios":"levelo://app?vid=38455bb7-0065-4041-a9c3-aa272a5e026d"},"vehicle_type_id":"4","last_reported":1731136055,"current_range_meters":38000,"station_id":"ce4bhh12rcd13ifvqfg0","pricing_plan_id":"cebpf4jnsgd1na2vs0mg"},{"bike_id":"b5ebdb16-bb62-4216-95a5-9133d9c41403","system_id":"levelo_inurba_marseille","lat":43.29815,"lon":5.40398,"is_reserved":false,"is_disabled":false,"rental_uris":{"android":"levelo://app?vid=b5ebdb16-bb62-4216-95a5-9133d9c41403","ios":"levelo://app?vid=b5ebdb16-bb62-4216-95a5-9133d9c41403"},"vehicle_type_id":"4","last_reported":1731136055,"current_range_meters":20400,"station_id":"ce4bh112rcd13ifvqd90","pricing_plan_id":"cebpf4jnsgd1na2vs0mg"},{"bike_id":"7a636c65-a00f-4211-8190-f94784703ffa","system_id":"levelo_inurba_marseille","lat":43.30596,"lon":5.3936,"is_reserved":false,"is_disabled":false,"rental_uris":{"android":"levelo://app?vid=7a636c65-a00f-4211-8190-f94784703ffa","ios":"levelo://app?vid=7a636c65-a00f-4211-8190-f94784703ffa"},"vehicle_type_id":"4","last_reported":1731136055,"current_range_meters":26000,"station_id":"ce4bh0p2rcd13ifvqd80","pricing_plan_id":"cebpf4jnsgd1na2vs0mg"},{"bike_id":"e899eac6-4691-43b6-92e8-21ecece2b174","system_id":"levelo_inurba_marseille","lat":43.31067,"lon":5.38344,"is_reserved":false,"is_disabled":false,"rental_uris":{"android":"levelo://app?vid=e899eac6-4691-43b6-92e8-21ecece2b174","ios":"levelo://app?vid=e899eac6-4691-43b6-92e8-21ecece2b174"},"vehicle_type_id":"4","last_reported":1731136055,"current_range_meters":24800,"station_id":"ce4bgv92rcd13ifvqcr0","pricing_plan_id":"cebpf4jnsgd1na2vs0mg"},{"bike_id":"f7ccd857-2b8d-4e2b-9365-ccd4a4a85e73","system_id":"levelo_inurba_marseille","lat":43.33609,"lon":5.41024,"is_reserved":false,"is_disabled":false,"rental_uris":{"android":"levelo://app?vid=f7ccd857-2b8d-4e2b-9365-ccd4a4a85e73","ios":"levelo://app?vid=f7ccd857-2b8d-4e2b-9365-ccd4a4a85e73"},"vehicle_type_id":"4","last_reported":1731136055,"current_range_meters":35600,"station_id":"ce4bhqh2rcd13ifvqhmg","pricing_plan_id":"cebpf4jnsgd1na2vs0mg"},{"bike_id":"c06d1949-aba5-4f23-959b-3c05a40c3614","system_id":"levelo_inurba_marseille","lat":43.23187,"lon":5.39981,"is_reserved":false,"is_disabled":false,"rental_uris":{"android":"levelo://app?vid=c06d1949-aba5-4f23-959b-3c05a40c3614","ios":"levelo://app?vid=c06d1949-aba5-4f23-959b-3c05a40c3614"},"vehicle_type_id":"4","last_reported":1731136055,"current_range_meters":28400,"station_id":"ce4bhn12rcd13ifvqgqg","pricing_plan_id":"cebpf4jnsgd1na2vs0mg"},{"bike_id":"7a61aa54-4124-4dcd-858b-db846d80c8c4","system_id":"levelo_inurba_marseille","lat":43.27615,"lon":5.36111,"is_reserved":false,"is_disabled":false,"rental_uris":{"android":"levelo://app?vid=7a61aa54-4124-4dcd-858b-db846d80c8c4","ios":"levelo://app?vid=7a61aa54-4124-4dcd-858b-db846d80c8c4"},"vehicle_type_id":"4","last_reported":1731136055,"current_range_meters":37600,"station_id":"ce4bgj92rcd13ifvqbe0","pricing_plan_id":"cebpf4jnsgd1na2vs0mg"},{"bike_id":"47f73f59-92bf-4d0a-bbe1-cd40ee33ef90","system_id":"levelo_inurba_marseille","lat":43.30613,"lon":5.372383,"is_reserved":false,"is_disabled":false,"rental_uris":{"android":"levelo://app?vid=47f73f59-92bf-4d0a-bbe1-cd40ee33ef90","ios":"levelo://app?vid=47f73f59-92bf-4d0a-bbe1-cd40ee33ef90"},"vehicle_type_id":"4","last_reported":1731136055,"current_range_meters":19600,"station_id":"ce4bgqh2rcd13ifvqc4g","pricing_plan_id":"cebpf4jnsgd1na2vs0mg"},{"bike_id":"ba1c9f38-f669-486e-a9b0-c17e8b452755","system_id":"levelo_inurba_marseille","lat":43.32286,"lon":5.3828,"is_reserved":false,"is_disabled":false,"rental_uris":{"android":"levelo://app?vid=ba1c9f38-f669-486e-a9b0-c17e8b452755","ios":"levelo://app?vid=ba1c9f38-f669-486e-a9b0-c17e8b452755"},"vehicle_type_id":"4","last_reported":1731136055,"current_range_meters":37600,"station_id":"ce4bhr12rcd13ifvqhqg","pricing_plan_id":"cebpf4jnsgd1na2vs0mg"},{"bike_id":"13783064-970f-4fb3-9f59-ffdcb33ff29e","system_id":"levelo_inurba_marseille","lat":43.31123,"lon":5.3777,"is_reserved":false,"is_disabled":false,"rental_uris":{"android":"levelo://app?vid=13783064-970f-4fb3-9f59-ffdcb33ff29e","ios":"levelo://app?vid=13783064-970f-4fb3-9f59-ffdcb33ff29e"},"vehicle_type_id":"4","last_reported":1731136055,"current_range_meters":36000,"station_id":"ce4bgt92rcd13ifvqcg0","pricing_plan_id":"cebpf4jnsgd1na2vs0mg"},{"bike_id":"8633134c-958c-4f7d-b9db-bd51e61b5e12","system_id":"levelo_inurba_marseille","lat":43.30944,"lon":5.3905,"is_reserved":false,"is_disabled":false,"rental_uris":{"android":"levelo://app?vid=8633134c-958c-4f7d-b9db-bd51e61b5e12","ios":"levelo://app?vid=8633134c-958c-4f7d-b9db-bd51e61b5e12"},"vehicle_type_id":"4","last_reported":1731136055,"current_range_meters":38800,"station_id":"ce4bgup2rcd13ifvqco0","pricing_plan_id":"cebpf4jnsgd1na2vs0mg"},{"bike_id":"7f3a366c-b86b-4ce3-8143-15bed1d2333e","system_id":"levelo_inurba_marseille","lat":43.29781,"lon":5.37113,"is_reserved":false,"is_disabled":false,"rental_uris":{"android":"levelo://app?vid=7f3a366c-b86b-4ce3-8143-15bed1d2333e","ios":"levelo://app?vid=7f3a366c-b86b-4ce3-8143-15bed1d2333e"},"vehicle_type_id":"4","last_reported":1731136055,"current_range_meters":38400,"station_id":"ce4bgop2rcd13ifvqc1g","pricing_plan_id":"cebpf4jnsgd1na2vs0mg"},{"bike_id":"2fd6dc22-dc4f-436f-8f09-ea747d8c2aa2","system_id":"levelo_inurba_marseille","lat":43.23959,"lon":5.36637,"is_reserved":false,"is_disabled":false,"rental_uris":{"android":"levelo://app?vid=2fd6dc22-dc4f-436f-8f09-ea747d8c2aa2","ios":"levelo://app?vid=2fd6dc22-dc4f-436f-8f09-ea747d8c2aa2"},"vehicle_type_id":"4","last_reported":1731136055,"current_range_meters":39200,"station_id":"ce4bhi12rcd13ifvqfp0","pricing_plan_id":"cebpf4jnsgd1na2vs0mg"},{"bike_id":"6594c98a-8fd8-4336-b010-d0234bc80e12","system_id":"levelo_inurba_marseille","lat":43.30945,"lon":5.39049,"is_reserved":false,"is_disabled":false,"rental_uris":{"android":"levelo://app?vid=6594c98a-8fd8-4336-b010-d0234bc80e12","ios":"levelo://app?vid=6594c98a-8fd8-4336-b010-d0234bc80e12"},"vehicle_type_id":"4","last_reported":1731136055,"current_range_meters":37600,"station_id":"ce4bgup2rcd13ifvqco0","pricing_plan_id":"cebpf4jnsgd1na2vs0mg"},{"bike_id":"a910c771-4dc4-40f5-82c0-74c71fe80f29","system_id":"levelo_inurba_marseille","lat":43.31069,"lon":5.38352,"is_reserved":false,"is_disabled":false,"rental_uris":{"android":"levelo://app?vid=a910c771-4dc4-40f5-82c0-74c71fe80f29","ios":"levelo://app?vid=a910c771-4dc4-40f5-82c0-74c71fe80f29"},"vehicle_type_id":"4","last_reported":1731136055,"current_range_meters":38400,"station_id":"ce4bgv92rcd13ifvqcr0","pricing_plan_id":"cebpf4jnsgd1na2vs0mg"},{"bike_id":"c42a69fe-20ee-45a7-9f50-2554fa199afb","system_id":"levelo_inurba_marseille","lat":43.29251,"lon":5.40896,"is_reserved":false,"is_disabled":false,"rental_uris":{"android":"levelo://app?vid=c42a69fe-20ee-45a7-9f50-2554fa199afb","ios":"levelo://app?vid=c42a69fe-20ee-45a7-9f50-2554fa199afb"},"vehicle_type_id":"4","last_reported":1731136055,"current_range_meters":38400,"station_id":"ce4bh192rcd13ifvqdc0","pricing_plan_id":"cebpf4jnsgd1na2vs0mg"},{"bike_id":"41a3c5f1-221a-4b57-8e6a-888d541e1a20","system_id":"levelo_inurba_marseille","lat":43.24072,"lon":5.3776,"is_reserved":false,"is_disabled":false,"rental_uris":{"android":"levelo://app?vid=41a3c5f1-221a-4b57-8e6a-888d541e1a20","ios":"levelo://app?vid=41a3c5f1-221a-4b57-8e6a-888d541e1a20"},"vehicle_type_id":"4","last_reported":1731136055,"current_range_meters":11600,"station_id":"ce4bhnp2rcd13ifvqgvg","pricing_plan_id":"cebpf4jnsgd1na2vs0mg"},{"bike_id":"b9059161-bc2a-4853-8231-de961bd5f1e7","system_id":"levelo_inurba_marseille","lat":43.337233,"lon":5.391764,"is_reserved":false,"is_disabled":false,"rental_uris":{"android":"levelo://app?vid=b9059161-bc2a-4853-8231-de961bd5f1e7","ios":"levelo://app?vid=b9059161-bc2a-4853-8231-de961bd5f1e7"},"vehicle_type_id":"4","last_reported":1731136055,"current_range_meters":24400,"station_id":"ce4bhr92rcd13ifvqhsg","pricing_plan_id":"cebpf4jnsgd1na2vs0mg"},{"bike_id":"d2763854-cb26-443b-a45b-c72ed6e5657c","system_id":"levelo_inurba_marseille","lat":43.28402,"lon":5.37519,"is_reserved":false,"is_disabled":false,"rental_uris":{"android":"levelo://app?vid=d2763854-cb26-443b-a45b-c72ed6e5657c","ios":"levelo://app?vid=d2763854-cb26-443b-a45b-c72ed6e5657c"},"vehicle_type_id":"4","last_reported":1731136055,"current_range_meters":38800,"station_id":"ce4bh412rcd13ifvqds0","pricing_plan_id":"cebpf4jnsgd1na2vs0mg"},{"bike_id":"b79e420f-d087-498b-acb3-27027e015c5f","system_id":"levelo_inurba_marseille","lat":43.24165,"lon":5.36393,"is_reserved":false,"is_disabled":false,"rental_uris":{"android":"levelo://app?vid=b79e420f-d087-498b-acb3-27027e015c5f","ios":"levelo://app?vid=b79e420f-d087-498b-acb3-27027e015c5f"},"vehicle_type_id":"4","last_reported":1731136055,"current_range_meters":24000,"station_id":"cpo36qri1sfpv3e86is0","pricing_plan_id":"cebpf4jnsgd1na2vs0mg"},{"bike_id":"cbe956e6-5b5d-458e-b470-328e8d9419e6","system_id":"levelo_inurba_marseille","lat":43.28444,"lon":5.3921,"is_reserved":false,"is_disabled":false,"rental_uris":{"android":"levelo://app?vid=cbe956e6-5b5d-458e-b470-328e8d9419e6","ios":"levelo://app?vid=cbe956e6-5b5d-458e-b470-328e8d9419e6"},"vehicle_type_id":"4","last_reported":1731136055,"current_range_meters":14800,"station_id":"ce4bhoh2rcd13ifvqh5g","pricing_plan_id":"cebpf4jnsgd1na2vs0mg"},{"bike_id":"3702cf73-3983-4d19-ad47-06b4ccda60b7","system_id":"levelo_inurba_marseille","lat":43.29864,"lon":5.39728,"is_reserved":false,"is_disabled":false,"rental_uris":{"android":"levelo://app?vid=3702cf73-3983-4d19-ad47-06b4ccda60b7","ios":"levelo://app?vid=3702cf73-3983-4d19-ad47-06b4ccda60b7"},"vehicle_type_id":"4","last_reported":1731136055,"current_range_meters":38800,"station_id":"ce4bh0h2rcd13ifvqd50","pricing_plan_id":"cebpf4jnsgd1na2vs0mg"},{"bike_id":"ad97f328-01a3-4ebf-95e7-0cbaf2811fa2","system_id":"levelo_inurba_marseille","lat":43.28803,"lon":5.37341,"is_reserved":false,"is_disabled":false,"rental_uris":{"android":"levelo://app?vid=ad97f328-01a3-4ebf-95e7-0cbaf2811fa2","ios":"levelo://app?vid=ad97f328-01a3-4ebf-95e7-0cbaf2811fa2"},"vehicle_type_id":"4","last_reported":1731136055,"current_range_meters":8400,"station_id":"","pricing_plan_id":"cebpf4jnsgd1na2vs0mg"},{"bike_id":"57fe26b5-ad7a-49c6-92b5-a51d7d925e90","system_id":"levelo_inurba_marseille","lat":43.30534,"lon":5.36539,"is_reserved":false,"is_disabled":false,"rental_uris":{"android":"levelo://app?vid=57fe26b5-ad7a-49c6-92b5-a51d7d925e90","ios":"levelo://app?vid=57fe26b5-ad7a-49c6-92b5-a51d7d925e90"},"vehicle_type_id":"4","last_reported":1731136055,"current_range_meters":39200,"station_id":"ce4bgs12rcd13ifvqcag","pricing_plan_id":"cebpf4jnsgd1na2vs0mg"},{"bike_id":"a5c481b8-423c-49c6-a341-0a8b63eb71ed","system_id":"levelo_inurba_marseille","lat":43.25937,"lon":5.40896,"is_reserved":false,"is_disabled":false,"rental_uris":{"android":"levelo://app?vid=a5c481b8-423c-49c6-a341-0a8b63eb71ed","ios":"levelo://app?vid=a5c481b8-423c-49c6-a341-0a8b63eb71ed"},"vehicle_type_id":"4","last_reported":1731136055,"current_range_meters":22800,"station_id":"ce4bhm92rcd13ifvqglg","pricing_plan_id":"cebpf4jnsgd1na2vs0mg"},{"bike_id":"d0548986-c389-4527-9d88-0be922484fbf","system_id":"levelo_inurba_marseille","lat":43.30646,"lon":5.4009,"is_reserved":false,"is_disabled":false,"rental_uris":{"android":"levelo://app?vid=d0548986-c389-4527-9d88-0be922484fbf","ios":"levelo://app?vid=d0548986-c389-4527-9d88-0be922484fbf"},"vehicle_type_id":"4","last_reported":1731136055,"current_range_meters":12800,"station_id":"ce4bh112rcd13ifvqda0","pricing_plan_id":"cebpf4jnsgd1na2vs0mg"},{"bike_id":"91628a43-65ab-40f6-86ee-9ed6104d49d8","system_id":"levelo_inurba_marseille","lat":43.25107,"lon":5.40321,"is_reserved":false,"is_disabled":false,"rental_uris":{"android":"levelo://app?vid=91628a43-65ab-40f6-86ee-9ed6104d49d8","ios":"levelo://app?vid=91628a43-65ab-40f6-86ee-9ed6104d49d8"},"vehicle_type_id":"4","last_reported":1731136055,"current_range_meters":25200,"station_id":"ce4bhlh2rcd13ifvqgig","pricing_plan_id":"cebpf4jnsgd1na2vs0mg"},{"bike_id":"57b2c5ea-aefb-4caa-81dd-58a201e82514","system_id":"levelo_inurba_marseille","lat":43.24667,"lon":5.38158,"is_reserved":false,"is_disabled":false,"rental_uris":{"android":"levelo://app?vid=57b2c5ea-aefb-4caa-81dd-58a201e82514","ios":"levelo://app?vid=57b2c5ea-aefb-4caa-81dd-58a201e82514"},"vehicle_type_id":"4","last_reported":1731136055,"current_range_meters":8000,"station_id":"ce4bhih2rcd13ifvqfr0","pricing_plan_id":"cebpf4jnsgd1na2vs0mg"},{"bike_id":"846e8e3e-afde-43fe-b51d-5e0e0db57b83","system_id":"levelo_inurba_marseille","lat":43.265282,"lon":5.395009,"is_reserved":false,"is_disabled":false,"rental_uris":{"android":"levelo://app?vid=846e8e3e-afde-43fe-b51d-5e0e0db57b83","ios":"levelo://app?vid=846e8e3e-afde-43fe-b51d-5e0e0db57b83"},"vehicle_type_id":"4","last_reported":1731136055,"current_range_meters":28400,"station_id":"","pricing_plan_id":"cebpf4jnsgd1na2vs0mg"},{"bike_id":"f4ef053d-e709-4411-bdd9-de1d0f41e46f","system_id":"levelo_inurba_marseille","lat":43.2293,"lon":5.35375,"is_reserved":false,"is_disabled":false,"rental_uris":{"android":"levelo://app?vid=f4ef053d-e709-4411-bdd9-de1d0f41e46f","ios":"levelo://app?vid=f4ef053d-e709-4411-bdd9-de1d0f41e46f"},"vehicle_type_id":"4","last_reported":1731136055,"current_range_meters":39200,"station_id":"cpo3532slgdg3j2ikp40","pricing_plan_id":"cebpf4jnsgd1na2vs0mg"},{"bike_id":"de81964b-2e50-4eac-8982-a36260f5274c","system_id":"levelo_inurba_marseille","lat":43.29675,"lon":5.36639,"is_reserved":false,"is_disabled":false,"rental_uris":{"android":"levelo://app?vid=de81964b-2e50-4eac-8982-a36260f5274c","ios":"levelo://app?vid=de81964b-2e50-4eac-8982-a36260f5274c"},"vehicle_type_id":"4","last_reported":1731136055,"current_range_meters":38800,"station_id":"ce4bgn12rcd13ifvqbt0","pricing_plan_id":"cebpf4jnsgd1na2vs0mg"},{"bike_id":"eed69f0e-a00f-4de6-99b5-1abe390500d1","system_id":"levelo_inurba_marseille","lat":43.28856,"lon":5.39313,"is_reserved":false,"is_disabled":false,"rental_uris":{"android":"levelo://app?vid=eed69f0e-a00f-4de6-99b5-1abe390500d1","ios":"levelo://app?vid=eed69f0e-a00f-4de6-99b5-1abe390500d1"},"vehicle_type_id":"4","last_reported":1731136055,"current_range_meters":34000,"station_id":"ce4bh2p2rcd13ifvqdi0","pricing_plan_id":"cebpf4jnsgd1na2vs0mg"},{"bike_id":"4e0bce32-7432-4c5e-b651-7a4c54f77f75","system_id":"levelo_inurba_marseille","lat":43.31322,"lon":5.39703,"is_reserved":false,"is_disabled":false,"rental_uris":{"android":"levelo://app?vid=4e0bce32-7432-4c5e-b651-7a4c54f77f75","ios":"levelo://app?vid=4e0bce32-7432-4c5e-b651-7a4c54f77f75"},"vehicle_type_id":"4","last_reported":1731136055,"current_range_meters":38400,"station_id":"ce4bgvp2rcd13ifvqcu0","pricing_plan_id":"cebpf4jnsgd1na2vs0mg"},{"bike_id":"87400346-7dad-4540-98eb-d38a31c15ad0","system_id":"levelo_inurba_marseille","lat":43.25866,"lon":5.399,"is_reserved":false,"is_disabled":false,"rental_uris":{"android":"levelo://app?vid=87400346-7dad-4540-98eb-d38a31c15ad0","ios":"levelo://app?vid=87400346-7dad-4540-98eb-d38a31c15ad0"},"vehicle_type_id":"4","last_reported":1731136055,"current_range_meters":39200,"station_id":"ce4bhl92rcd13ifvqghg","pricing_plan_id":"cebpf4jnsgd1na2vs0mg"},{"bike_id":"82f750ef-4c11-46df-bf3f-eb1ee954f51e","system_id":"levelo_inurba_marseille","lat":43.30895,"lon":5.3965,"is_reserved":false,"is_disabled":false,"rental_uris":{"android":"levelo://app?vid=82f750ef-4c11-46df-bf3f-eb1ee954f51e","ios":"levelo://app?vid=82f750ef-4c11-46df-bf3f-eb1ee954f51e"},"vehicle_type_id":"4","last_reported":1731136055,"current_range_meters":26800,"station_id":"ce4bh012rcd13ifvqcv0","pricing_plan_id":"cebpf4jnsgd1na2vs0mg"},{"bike_id":"8197cb3a-8b68-4ccc-91e3-57c5e2f7415b","system_id":"levelo_inurba_marseille","lat":43.28859,"lon":5.35836,"is_reserved":false,"is_disabled":false,"rental_uris":{"android":"levelo://app?vid=8197cb3a-8b68-4ccc-91e3-57c5e2f7415b","ios":"levelo://app?vid=8197cb3a-8b68-4ccc-91e3-57c5e2f7415b"},"vehicle_type_id":"4","last_reported":1731136055,"current_range_meters":4800,"station_id":"ce4bhb12rcd13ifvqem0","pricing_plan_id":"cebpf4jnsgd1na2vs0mg"},{"bike_id":"ac59b398-a03f-4409-8d13-c4e12f526cfa","system_id":"levelo_inurba_marseille","lat":43.2847,"lon":5.3587,"is_reserved":false,"is_disabled":false,"rental_uris":{"android":"levelo://app?vid=ac59b398-a03f-4409-8d13-c4e12f526cfa","ios":"levelo://app?vid=ac59b398-a03f-4409-8d13-c4e12f526cfa"},"vehicle_type_id":"4","last_reported":1731136055,"current_range_meters":19600,"station_id":"ce4bhah2rcd13ifvqei0","pricing_plan_id":"cebpf4jnsgd1na2vs0mg"},{"bike_id":"7243fcc8-e91d-49aa-a78b-3d82c9cf3c65","system_id":"levelo_inurba_marseille","lat":43.28583,"lon":5.35067,"is_reserved":false,"is_disabled":false,"rental_uris":{"android":"levelo://app?vid=7243fcc8-e91d-49aa-a78b-3d82c9cf3c65","ios":"levelo://app?vid=7243fcc8-e91d-49aa-a78b-3d82c9cf3c65"},"vehicle_type_id":"4","last_reported":1731136055,"current_range_meters":36400,"station_id":"","pricing_plan_id":"cebpf4jnsgd1na2vs0mg"},{"bike_id":"fe968521-02e8-4a58-8cea-ea8883a148ca","system_id":"levelo_inurba_marseille","lat":43.27978,"lon":5.3875,"is_reserved":false,"is_disabled":false,"rental_uris":{"android":"levelo://app?vid=fe968521-02e8-4a58-8cea-ea8883a148ca","ios":"levelo://app?vid=fe968521-02e8-4a58-8cea-ea8883a148ca"},"vehicle_type_id":"4","last_reported":1731136055,"current_range_meters":16800,"station_id":"ce4bhg12rcd13ifvqf80","pricing_plan_id":"cebpf4jnsgd1na2vs0mg"},{"bike_id":"b4d6962c-48f0-4bf0-8d16-4194c14b4356","system_id":"levelo_inurba_marseille","lat":43.26208,"lon":5.37437,"is_reserved":false,"is_disabled":false,"rental_uris":{"android":"levelo://app?vid=b4d6962c-48f0-4bf0-8d16-4194c14b4356","ios":"levelo://app?vid=b4d6962c-48f0-4bf0-8d16-4194c14b4356"},"vehicle_type_id":"4","last_reported":1731136055,"current_range_meters":18800,"station_id":"ce4bhgp2rcd13ifvqfc0","pricing_plan_id":"cebpf4jnsgd1na2vs0mg"},{"bike_id":"71bb50a1-6cdb-4a6f-b24c-1cbd7c603ad3","system_id":"levelo_inurba_marseille","lat":43.31428,"lon":5.37406,"is_reserved":false,"is_disabled":false,"rental_uris":{"android":"levelo://app?vid=71bb50a1-6cdb-4a6f-b24c-1cbd7c603ad3","ios":"levelo://app?vid=71bb50a1-6cdb-4a6f-b24c-1cbd7c603ad3"},"vehicle_type_id":"4","last_reported":1731136055,"current_range_meters":28800,"station_id":"","pricing_plan_id":"cebpf4jnsgd1na2vs0mg"},{"bike_id":"895c1bd2-e384-4f22-a95e-ca5003f9b176","system_id":"levelo_inurba_marseille","lat":43.29252,"lon":5.40903,"is_reserved":false,"is_disabled":false,"rental_uris":{"android":"levelo://app?vid=895c1bd2-e384-4f22-a95e-ca5003f9b176","ios":"levelo://app?vid=895c1bd2-e384-4f22-a95e-ca5003f9b176"},"vehicle_type_id":"4","last_reported":1731136055,"current_range_meters":32000,"station_id":"ce4bh192rcd13ifvqdc0","pricing_plan_id":"cebpf4jnsgd1na2vs0mg"},{"bike_id":"c50d863f-ac88-48d7-aaf9-ac94fab87630","system_id":"levelo_inurba_marseille","lat":43.24666,"lon":5.38165,"is_reserved":false,"is_disabled":false,"rental_uris":{"android":"levelo://app?vid=c50d863f-ac88-48d7-aaf9-ac94fab87630","ios":"levelo://app?vid=c50d863f-ac88-48d7-aaf9-ac94fab87630"},"vehicle_type_id":"4","last_reported":1731136055,"current_range_meters":25200,"station_id":"ce4bhih2rcd13ifvqfr0","pricing_plan_id":"cebpf4jnsgd1na2vs0mg"},{"bike_id":"b8fdd341-0697-41ca-82c9-e4253415f4e6","system_id":"levelo_inurba_marseille","lat":43.23058,"lon":5.35491,"is_reserved":false,"is_disabled":false,"rental_uris":{"android":"levelo://app?vid=b8fdd341-0697-41ca-82c9-e4253415f4e6","ios":"levelo://app?vid=b8fdd341-0697-41ca-82c9-e4253415f4e6"},"vehicle_type_id":"4","last_reported":1731136055,"current_range_meters":33600,"station_id":"cpo3342slgdg3j2ifvpg","pricing_plan_id":"cebpf4jnsgd1na2vs0mg"},{"bike_id":"60092e74-a1ea-46a7-b7e1-86aaa530653e","system_id":"levelo_inurba_marseille","lat":43.30932,"lon":5.40144,"is_reserved":false,"is_disabled":false,"rental_uris":{"android":"levelo://app?vid=60092e74-a1ea-46a7-b7e1-86aaa530653e","ios":"levelo://app?vid=60092e74-a1ea-46a7-b7e1-86aaa530653e"},"vehicle_type_id":"4","last_reported":1731136055,"current_range_meters":36800,"station_id":"ce4bgvp2rcd13ifvqct0","pricing_plan_id":"cebpf4jnsgd1na2vs0mg"},{"bike_id":"32de3e3d-abee-4e70-b60a-941560de9b93","system_id":"levelo_inurba_marseille","lat":43.28268,"lon":5.35067,"is_reserved":false,"is_disabled":false,"rental_uris":{"android":"levelo://app?vid=32de3e3d-abee-4e70-b60a-941560de9b93","ios":"levelo://app?vid=32de3e3d-abee-4e70-b60a-941560de9b93"},"vehicle_type_id":"4","last_reported":1731136055,"current_range_meters":39200,"station_id":"ce4bhbp2rcd13ifvqerg","pricing_plan_id":"cebpf4jnsgd1na2vs0mg"},{"bike_id":"6e2d14fd-eb01-49b5-bd29-aaa82bfcdea8","system_id":"levelo_inurba_marseille","lat":43.30351,"lon":5.41876,"is_reserved":false,"is_disabled":false,"rental_uris":{"android":"levelo://app?vid=6e2d14fd-eb01-49b5-bd29-aaa82bfcdea8","ios":"levelo://app?vid=6e2d14fd-eb01-49b5-bd29-aaa82bfcdea8"},"vehicle_type_id":"4","last_reported":1731136055,"current_range_meters":25200,"station_id":"ce4bhop2rcd13ifvqh7g","pricing_plan_id":"cebpf4jnsgd1na2vs0mg"},{"bike_id":"f5d2b441-54fd-4ea8-9ee3-1ca1bc0387aa","system_id":"levelo_inurba_marseille","lat":43.30469,"lon":5.37897,"is_reserved":false,"is_disabled":false,"rental_uris":{"android":"levelo://app?vid=f5d2b441-54fd-4ea8-9ee3-1ca1bc0387aa","ios":"levelo://app?vid=f5d2b441-54fd-4ea8-9ee3-1ca1bc0387aa"},"vehicle_type_id":"4","last_reported":1731136055,"current_range_meters":39200,"station_id":"ce4bgup2rcd13ifvqcn0","pricing_plan_id":"cebpf4jnsgd1na2vs0mg"},{"bike_id":"8761264a-d7b8-4bc7-beb7-b1e02dda9ed9","system_id":"levelo_inurba_marseille","lat":43.29039,"lon":5.39948,"is_reserved":false,"is_disabled":false,"rental_uris":{"android":"levelo://app?vid=8761264a-d7b8-4bc7-beb7-b1e02dda9ed9","ios":"levelo://app?vid=8761264a-d7b8-4bc7-beb7-b1e02dda9ed9"},"vehicle_type_id":"4","last_reported":1731136055,"current_range_meters":39200,"station_id":"ce4bh392rcd13ifvqdm0","pricing_plan_id":"cebpf4jnsgd1na2vs0mg"},{"bike_id":"e2a5e296-45f3-49c6-8566-635a21ef7917","system_id":"levelo_inurba_marseille","lat":43.31171,"lon":5.38717,"is_reserved":false,"is_disabled":false,"rental_uris":{"android":"levelo://app?vid=e2a5e296-45f3-49c6-8566-635a21ef7917","ios":"levelo://app?vid=e2a5e296-45f3-49c6-8566-635a21ef7917"},"vehicle_type_id":"4","last_reported":1731136055,"current_range_meters":36800,"station_id":"ce4bgv12rcd13ifvqcp0","pricing_plan_id":"cebpf4jnsgd1na2vs0mg"},{"bike_id":"b9d0bc02-8b8d-46ee-bb6e-da3b365f1431","system_id":"levelo_inurba_marseille","lat":43.30148,"lon":5.38091,"is_reserved":false,"is_disabled":false,"rental_uris":{"android":"levelo://app?vid=b9d0bc02-8b8d-46ee-bb6e-da3b365f1431","ios":"levelo://app?vid=b9d0bc02-8b8d-46ee-bb6e-da3b365f1431"},"vehicle_type_id":"4","last_reported":1731136055,"current_range_meters":14400,"station_id":"ce4bgjp2rcd13ifvqbh0","pricing_plan_id":"cebpf4jnsgd1na2vs0mg"},{"bike_id":"588ae2e7-ceb1-4b50-897b-b0e068e930a7","system_id":"levelo_inurba_marseille","lat":43.24668,"lon":5.38164,"is_reserved":false,"is_disabled":false,"rental_uris":{"android":"levelo://app?vid=588ae2e7-ceb1-4b50-897b-b0e068e930a7","ios":"levelo://app?vid=588ae2e7-ceb1-4b50-897b-b0e068e930a7"},"vehicle_type_id":"4","last_reported":1731136055,"current_range_meters":17200,"station_id":"ce4bhih2rcd13ifvqfr0","pricing_plan_id":"cebpf4jnsgd1na2vs0mg"},{"bike_id":"8137f581-2393-41d8-a932-f12bb5e1d13d","system_id":"levelo_inurba_marseille","lat":43.29229,"lon":5.36062,"is_reserved":false,"is_disabled":false,"rental_uris":{"android":"levelo://app?vid=8137f581-2393-41d8-a932-f12bb5e1d13d","ios":"levelo://app?vid=8137f581-2393-41d8-a932-f12bb5e1d13d"},"vehicle_type_id":"4","last_reported":1731136055,"current_range_meters":35600,"station_id":"ce4bhbh2rcd13ifvqeqg","pricing_plan_id":"cebpf4jnsgd1na2vs0mg"},{"bike_id":"258b1ef2-2261-4d93-a63b-66c6248265d1","system_id":"levelo_inurba_marseille","lat":43.27207,"lon":5.39193,"is_reserved":false,"is_disabled":false,"rental_uris":{"android":"levelo://app?vid=258b1ef2-2261-4d93-a63b-66c6248265d1","ios":"levelo://app?vid=258b1ef2-2261-4d93-a63b-66c6248265d1"},"vehicle_type_id":"4","last_reported":1731136055,"current_range_meters":33200,"station_id":"ce4bhhp2rcd13ifvqfm0","pricing_plan_id":"cebpf4jnsgd1na2vs0mg"},{"bike_id":"bc9e5d4d-ed87-459e-9d6b-75e21cc6343f","system_id":"levelo_inurba_marseille","lat":43.30418,"lon":5.41281,"is_reserved":false,"is_disabled":false,"rental_uris":{"android":"levelo://app?vid=bc9e5d4d-ed87-459e-9d6b-75e21cc6343f","ios":"levelo://app?vid=bc9e5d4d-ed87-459e-9d6b-75e21cc6343f"},"vehicle_type_id":"4","last_reported":1731136055,"current_range_meters":40000,"station_id":"ce4bhop2rcd13ifvqh8g","pricing_plan_id":"cebpf4jnsgd1na2vs0mg"},{"bike_id":"b04191d0-e2a4-4786-b5cc-65c0b412e928","system_id":"levelo_inurba_marseille","lat":43.30538,"lon":5.36552,"is_reserved":false,"is_disabled":false,"rental_uris":{"android":"levelo://app?vid=b04191d0-e2a4-4786-b5cc-65c0b412e928","ios":"levelo://app?vid=b04191d0-e2a4-4786-b5cc-65c0b412e928"},"vehicle_type_id":"4","last_reported":1731136055,"current_range_meters":20400,"station_id":"ce4bgs12rcd13ifvqcag","pricing_plan_id":"cebpf4jnsgd1na2vs0mg"},{"bike_id":"818293fa-7bab-4548-8e6d-ceefdd2acfe4","system_id":"levelo_inurba_marseille","lat":43.30636,"lon":5.40083,"is_reserved":false,"is_disabled":false,"rental_uris":{"android":"levelo://app?vid=818293fa-7bab-4548-8e6d-ceefdd2acfe4","ios":"levelo://app?vid=818293fa-7bab-4548-8e6d-ceefdd2acfe4"},"vehicle_type_id":"4","last_reported":1731136055,"current_range_meters":18800,"station_id":"ce4bh112rcd13ifvqda0","pricing_plan_id":"cebpf4jnsgd1na2vs0mg"},{"bike_id":"83e58c9a-13a0-474f-9072-9b7376165a15","system_id":"levelo_inurba_marseille","lat":43.30418,"lon":5.41281,"is_reserved":false,"is_disabled":false,"rental_uris":{"android":"levelo://app?vid=83e58c9a-13a0-474f-9072-9b7376165a15","ios":"levelo://app?vid=83e58c9a-13a0-474f-9072-9b7376165a15"},"vehicle_type_id":"4","last_reported":1731136055,"current_range_meters":28000,"station_id":"ce4bhop2rcd13ifvqh8g","pricing_plan_id":"cebpf4jnsgd1na2vs0mg"},{"bike_id":"eefd3079-a7f1-4dd3-8f9c-4fda75ec2a2e","system_id":"levelo_inurba_marseille","lat":43.30142,"lon":5.38078,"is_reserved":false,"is_disabled":false,"rental_uris":{"android":"levelo://app?vid=eefd3079-a7f1-4dd3-8f9c-4fda75ec2a2e","ios":"levelo://app?vid=eefd3079-a7f1-4dd3-8f9c-4fda75ec2a2e"},"vehicle_type_id":"4","last_reported":1731136055,"current_range_meters":25200,"station_id":"ce4bgjp2rcd13ifvqbh0","pricing_plan_id":"cebpf4jnsgd1na2vs0mg"},{"bike_id":"bd917059-dc71-4ade-bd5a-40f56dfbb8db","system_id":"levelo_inurba_marseille","lat":43.28662,"lon":5.36353,"is_reserved":false,"is_disabled":false,"rental_uris":{"android":"levelo://app?vid=bd917059-dc71-4ade-bd5a-40f56dfbb8db","ios":"levelo://app?vid=bd917059-dc71-4ade-bd5a-40f56dfbb8db"},"vehicle_type_id":"4","last_reported":1731136055,"current_range_meters":22400,"station_id":"ce4bhah2rcd13ifvqej0","pricing_plan_id":"cebpf4jnsgd1na2vs0mg"},{"bike_id":"98d30041-2fb8-418c-8ec9-535a413eb322","system_id":"levelo_inurba_marseille","lat":43.27489,"lon":5.42458,"is_reserved":false,"is_disabled":false,"rental_uris":{"android":"levelo://app?vid=98d30041-2fb8-418c-8ec9-535a413eb322","ios":"levelo://app?vid=98d30041-2fb8-418c-8ec9-535a413eb322"},"vehicle_type_id":"4","last_reported":1731136055,"current_range_meters":18800,"station_id":"ce4bhn92rcd13ifvqgrg","pricing_plan_id":"cebpf4jnsgd1na2vs0mg"},{"bike_id":"33e8e856-7f81-40f7-a392-a9fedce07fce","system_id":"levelo_inurba_marseille","lat":43.30888,"lon":5.39661,"is_reserved":false,"is_disabled":false,"rental_uris":{"android":"levelo://app?vid=33e8e856-7f81-40f7-a392-a9fedce07fce","ios":"levelo://app?vid=33e8e856-7f81-40f7-a392-a9fedce07fce"},"vehicle_type_id":"4","last_reported":1731136055,"current_range_meters":38800,"station_id":"ce4bh012rcd13ifvqcv0","pricing_plan_id":"cebpf4jnsgd1na2vs0mg"},{"bike_id":"7f11ba46-2bea-4ad5-9bd6-5a8d133d1bb2","system_id":"levelo_inurba_marseille","lat":43.30883,"lon":5.39649,"is_reserved":false,"is_disabled":false,"rental_uris":{"android":"levelo://app?vid=7f11ba46-2bea-4ad5-9bd6-5a8d133d1bb2","ios":"levelo://app?vid=7f11ba46-2bea-4ad5-9bd6-5a8d133d1bb2"},"vehicle_type_id":"4","last_reported":1731136055,"current_range_meters":25600,"station_id":"ce4bh012rcd13ifvqcv0","pricing_plan_id":"cebpf4jnsgd1na2vs0mg"},{"bike_id":"cb3e8083-1a52-4c3a-8ce1-d539167291a9","system_id":"levelo_inurba_marseille","lat":43.25116,"lon":5.40324,"is_reserved":false,"is_disabled":false,"rental_uris":{"android":"levelo://app?vid=cb3e8083-1a52-4c3a-8ce1-d539167291a9","ios":"levelo://app?vid=cb3e8083-1a52-4c3a-8ce1-d539167291a9"},"vehicle_type_id":"4","last_reported":1731136055,"current_range_meters":20800,"station_id":"ce4bhlh2rcd13ifvqgig","pricing_plan_id":"cebpf4jnsgd1na2vs0mg"},{"bike_id":"5dbb37bb-4723-4842-8c76-989d5392f416","system_id":"levelo_inurba_marseille","lat":43.292584,"lon":5.384346,"is_reserved":false,"is_disabled":false,"rental_uris":{"android":"levelo://app?vid=5dbb37bb-4723-4842-8c76-989d5392f416","ios":"levelo://app?vid=5dbb37bb-4723-4842-8c76-989d5392f416"},"vehicle_type_id":"4","last_reported":1731136055,"current_range_meters":30400,"station_id":"ce4bh692rcd13ifvqea0","pricing_plan_id":"cebpf4jnsgd1na2vs0mg"},{"bike_id":"1f1becf7-322b-43ac-89ad-1780eea48740","system_id":"levelo_inurba_marseille","lat":43.25822,"lon":5.3943,"is_reserved":false,"is_disabled":false,"rental_uris":{"android":"levelo://app?vid=1f1becf7-322b-43ac-89ad-1780eea48740","ios":"levelo://app?vid=1f1becf7-322b-43ac-89ad-1780eea48740"},"vehicle_type_id":"4","last_reported":1731136055,"current_range_meters":6400,"station_id":"ce4bhip2rcd13ifvqft0","pricing_plan_id":"cebpf4jnsgd1na2vs0mg"},{"bike_id":"a43a2873-0eab-4410-a7ec-10187ae188cc","system_id":"levelo_inurba_marseille","lat":43.28457,"lon":5.358909,"is_reserved":false,"is_disabled":false,"rental_uris":{"android":"levelo://app?vid=a43a2873-0eab-4410-a7ec-10187ae188cc","ios":"levelo://app?vid=a43a2873-0eab-4410-a7ec-10187ae188cc"},"vehicle_type_id":"4","last_reported":1731136055,"current_range_meters":28400,"station_id":"ce4bhah2rcd13ifvqei0","pricing_plan_id":"cebpf4jnsgd1na2vs0mg"},{"bike_id":"d39c8278-f1e4-41c6-b2c6-0323b764da94","system_id":"levelo_inurba_marseille","lat":43.29803,"lon":5.40406,"is_reserved":false,"is_disabled":false,"rental_uris":{"android":"levelo://app?vid=d39c8278-f1e4-41c6-b2c6-0323b764da94","ios":"levelo://app?vid=d39c8278-f1e4-41c6-b2c6-0323b764da94"},"vehicle_type_id":"4","last_reported":1731136055,"current_range_meters":39200,"station_id":"ce4bh112rcd13ifvqd90","pricing_plan_id":"cebpf4jnsgd1na2vs0mg"},{"bike_id":"7b17c7e2-e1a6-4a1c-8685-fec4587aebcd","system_id":"levelo_inurba_marseille","lat":43.30889,"lon":5.37211,"is_reserved":false,"is_disabled":false,"rental_uris":{"android":"levelo://app?vid=7b17c7e2-e1a6-4a1c-8685-fec4587aebcd","ios":"levelo://app?vid=7b17c7e2-e1a6-4a1c-8685-fec4587aebcd"},"vehicle_type_id":"4","last_reported":1731136055,"current_range_meters":39200,"station_id":"ce4bguh2rcd13ifvqckg","pricing_plan_id":"cebpf4jnsgd1na2vs0mg"},{"bike_id":"2015a957-ead6-4c85-93f3-8e74dc7d21da","system_id":"levelo_inurba_marseille","lat":43.32057,"lon":5.41541,"is_reserved":false,"is_disabled":false,"rental_uris":{"android":"levelo://app?vid=2015a957-ead6-4c85-93f3-8e74dc7d21da","ios":"levelo://app?vid=2015a957-ead6-4c85-93f3-8e74dc7d21da"},"vehicle_type_id":"4","last_reported":1731136055,"current_range_meters":38400,"station_id":"ce4bhq92rcd13ifvqhkg","pricing_plan_id":"cebpf4jnsgd1na2vs0mg"},{"bike_id":"8b56af1e-2c94-4e8a-92db-2d274c76da40","system_id":"levelo_inurba_marseille","lat":43.286714,"lon":5.386774,"is_reserved":false,"is_disabled":false,"rental_uris":{"android":"levelo://app?vid=8b56af1e-2c94-4e8a-92db-2d274c76da40","ios":"levelo://app?vid=8b56af1e-2c94-4e8a-92db-2d274c76da40"},"vehicle_type_id":"4","last_reported":1731136055,"current_range_meters":12800,"station_id":"ce4bh492rcd13ifvqdug","pricing_plan_id":"cebpf4jnsgd1na2vs0mg"},{"bike_id":"0f263d54-092a-4721-b68e-bffe8b305afb","system_id":"levelo_inurba_marseille","lat":43.30807,"lon":5.38155,"is_reserved":false,"is_disabled":false,"rental_uris":{"android":"levelo://app?vid=0f263d54-092a-4721-b68e-bffe8b305afb","ios":"levelo://app?vid=0f263d54-092a-4721-b68e-bffe8b305afb"},"vehicle_type_id":"4","last_reported":1731136055,"current_range_meters":37600,"station_id":"ce4bgt12rcd13ifvqce0","pricing_plan_id":"cebpf4jnsgd1na2vs0mg"},{"bike_id":"f2b88fdd-2e0b-4b5e-888c-35155555732c","system_id":"levelo_inurba_marseille","lat":43.319974,"lon":5.381459,"is_reserved":false,"is_disabled":false,"rental_uris":{"android":"levelo://app?vid=f2b88fdd-2e0b-4b5e-888c-35155555732c","ios":"levelo://app?vid=f2b88fdd-2e0b-4b5e-888c-35155555732c"},"vehicle_type_id":"4","last_reported":1731136055,"current_range_meters":39200,"station_id":"ce4bhr12rcd13ifvqhpg","pricing_plan_id":"cebpf4jnsgd1na2vs0mg"},{"bike_id":"b9478b1d-79e3-44c9-ae60-496dd5151f62","system_id":"levelo_inurba_marseille","lat":43.29166,"lon":5.37142,"is_reserved":false,"is_disabled":false,"rental_uris":{"android":"levelo://app?vid=b9478b1d-79e3-44c9-ae60-496dd5151f62","ios":"levelo://app?vid=b9478b1d-79e3-44c9-ae60-496dd5151f62"},"vehicle_type_id":"4","last_reported":1731136055,"current_range_meters":38000,"station_id":"ce4bha92rcd13ifvqeh0","pricing_plan_id":"cebpf4jnsgd1na2vs0mg"},{"bike_id":"adb13a41-e996-4b47-a2f6-e5e80d27b4e6","system_id":"levelo_inurba_marseille","lat":43.32339,"lon":5.40623,"is_reserved":false,"is_disabled":false,"rental_uris":{"android":"levelo://app?vid=adb13a41-e996-4b47-a2f6-e5e80d27b4e6","ios":"levelo://app?vid=adb13a41-e996-4b47-a2f6-e5e80d27b4e6"},"vehicle_type_id":"4","last_reported":1731136055,"current_range_meters":38800,"station_id":"ce4bhq92rcd13ifvqhjg","pricing_plan_id":"cebpf4jnsgd1na2vs0mg"},{"bike_id":"1e25f627-e559-4c90-8e40-cc02cc85ba7e","system_id":"levelo_inurba_marseille","lat":43.30545,"lon":5.36713,"is_reserved":false,"is_disabled":false,"rental_uris":{"android":"levelo://app?vid=1e25f627-e559-4c90-8e40-cc02cc85ba7e","ios":"levelo://app?vid=1e25f627-e559-4c90-8e40-cc02cc85ba7e"},"vehicle_type_id":"4","last_reported":1731136055,"current_range_meters":38400,"station_id":"ce4bgrp2rcd13ifvqc9g","pricing_plan_id":"cebpf4jnsgd1na2vs0mg"},{"bike_id":"de15f00a-25b1-4b9b-a102-3b4e4c3a83ba","system_id":"levelo_inurba_marseille","lat":43.30142,"lon":5.38085,"is_reserved":false,"is_disabled":false,"rental_uris":{"android":"levelo://app?vid=de15f00a-25b1-4b9b-a102-3b4e4c3a83ba","ios":"levelo://app?vid=de15f00a-25b1-4b9b-a102-3b4e4c3a83ba"},"vehicle_type_id":"4","last_reported":1731136055,"current_range_meters":32000,"station_id":"ce4bgjp2rcd13ifvqbh0","pricing_plan_id":"cebpf4jnsgd1na2vs0mg"},{"bike_id":"2d57f628-619f-420a-b65c-8f44a7ace640","system_id":"levelo_inurba_marseille","lat":43.284,"lon":5.37525,"is_reserved":false,"is_disabled":false,"rental_uris":{"android":"levelo://app?vid=2d57f628-619f-420a-b65c-8f44a7ace640","ios":"levelo://app?vid=2d57f628-619f-420a-b65c-8f44a7ace640"},"vehicle_type_id":"4","last_reported":1731136055,"current_range_meters":32000,"station_id":"ce4bh412rcd13ifvqds0","pricing_plan_id":"cebpf4jnsgd1na2vs0mg"},{"bike_id":"4cd24ee8-666e-4ce7-8f48-946488c6487e","system_id":"levelo_inurba_marseille","lat":43.231823,"lon":5.399806,"is_reserved":false,"is_disabled":false,"rental_uris":{"android":"levelo://app?vid=4cd24ee8-666e-4ce7-8f48-946488c6487e","ios":"levelo://app?vid=4cd24ee8-666e-4ce7-8f48-946488c6487e"},"vehicle_type_id":"4","last_reported":1731136055,"current_range_meters":38800,"station_id":"ce4bhn12rcd13ifvqgqg","pricing_plan_id":"cebpf4jnsgd1na2vs0mg"},{"bike_id":"1f7ea6ab-6e3d-4109-9c83-36eadc7f2aeb","system_id":"levelo_inurba_marseille","lat":43.313291,"lon":5.39699,"is_reserved":false,"is_disabled":false,"rental_uris":{"android":"levelo://app?vid=1f7ea6ab-6e3d-4109-9c83-36eadc7f2aeb","ios":"levelo://app?vid=1f7ea6ab-6e3d-4109-9c83-36eadc7f2aeb"},"vehicle_type_id":"4","last_reported":1731136055,"current_range_meters":39200,"station_id":"ce4bgvp2rcd13ifvqcu0","pricing_plan_id":"cebpf4jnsgd1na2vs0mg"},{"bike_id":"d070148f-8ecc-4c75-8cb1-c8bc85f50390","system_id":"levelo_inurba_marseille","lat":43.33025,"lon":5.39044,"is_reserved":false,"is_disabled":false,"rental_uris":{"android":"levelo://app?vid=d070148f-8ecc-4c75-8cb1-c8bc85f50390","ios":"levelo://app?vid=d070148f-8ecc-4c75-8cb1-c8bc85f50390"},"vehicle_type_id":"4","last_reported":1731136055,"current_range_meters":10800,"station_id":"ce4bhr92rcd13ifvqhrg","pricing_plan_id":"cebpf4jnsgd1na2vs0mg"},{"bike_id":"a4eee59f-9bf1-40ed-8e3e-20b83677114a","system_id":"levelo_inurba_marseille","lat":43.28409,"lon":5.37511,"is_reserved":false,"is_disabled":false,"rental_uris":{"android":"levelo://app?vid=a4eee59f-9bf1-40ed-8e3e-20b83677114a","ios":"levelo://app?vid=a4eee59f-9bf1-40ed-8e3e-20b83677114a"},"vehicle_type_id":"4","last_reported":1731136055,"current_range_meters":11600,"station_id":"ce4bh412rcd13ifvqds0","pricing_plan_id":"cebpf4jnsgd1na2vs0mg"},{"bike_id":"29824cde-4cdc-4355-9b22-a5922a403deb","system_id":"levelo_inurba_marseille","lat":43.337444,"lon":5.374475,"is_reserved":false,"is_disabled":false,"rental_uris":{"android":"levelo://app?vid=29824cde-4cdc-4355-9b22-a5922a403deb","ios":"levelo://app?vid=29824cde-4cdc-4355-9b22-a5922a403deb"},"vehicle_type_id":"4","last_reported":1731136055,"current_range_meters":34800,"station_id":"","pricing_plan_id":"cebpf4jnsgd1na2vs0mg"},{"bike_id":"d8e526d2-cabd-4260-b3f3-381a19f33459","system_id":"levelo_inurba_marseille","lat":43.308873,"lon":5.396436,"is_reserved":false,"is_disabled":false,"rental_uris":{"android":"levelo://app?vid=d8e526d2-cabd-4260-b3f3-381a19f33459","ios":"levelo://app?vid=d8e526d2-cabd-4260-b3f3-381a19f33459"},"vehicle_type_id":"4","last_reported":1731136055,"current_range_meters":8400,"station_id":"ce4bh012rcd13ifvqcv0","pricing_plan_id":"cebpf4jnsgd1na2vs0mg"},{"bike_id":"b4de7b9a-6515-49e3-b4f0-3d8149400129","system_id":"levelo_inurba_marseille","lat":43.30145,"lon":5.38072,"is_reserved":false,"is_disabled":false,"rental_uris":{"android":"levelo://app?vid=b4de7b9a-6515-49e3-b4f0-3d8149400129","ios":"levelo://app?vid=b4de7b9a-6515-49e3-b4f0-3d8149400129"},"vehicle_type_id":"4","last_reported":1731136055,"current_range_meters":36400,"station_id":"ce4bgjp2rcd13ifvqbh0","pricing_plan_id":"cebpf4jnsgd1na2vs0mg"},{"bike_id":"67e17654-368e-4b56-a0c7-552a55a43533","system_id":"levelo_inurba_marseille","lat":43.27564,"lon":5.38425,"is_reserved":false,"is_disabled":false,"rental_uris":{"android":"levelo://app?vid=67e17654-368e-4b56-a0c7-552a55a43533","ios":"levelo://app?vid=67e17654-368e-4b56-a0c7-552a55a43533"},"vehicle_type_id":"4","last_reported":1731136055,"current_range_meters":28400,"station_id":"ce4bhh92rcd13ifvqfi0","pricing_plan_id":"cebpf4jnsgd1na2vs0mg"},{"bike_id":"eccb9bf1-4a0c-4df5-8229-bf46f21c4329","system_id":"levelo_inurba_marseille","lat":43.31714,"lon":5.42409,"is_reserved":false,"is_disabled":false,"rental_uris":{"android":"levelo://app?vid=eccb9bf1-4a0c-4df5-8229-bf46f21c4329","ios":"levelo://app?vid=eccb9bf1-4a0c-4df5-8229-bf46f21c4329"},"vehicle_type_id":"4","last_reported":1731136055,"current_range_meters":34800,"station_id":"ce4bhp92rcd13ifvqhbg","pricing_plan_id":"cebpf4jnsgd1na2vs0mg"},{"bike_id":"ef288286-229d-4b9a-a189-8d61840dcffb","system_id":"levelo_inurba_marseille","lat":43.23192,"lon":5.35557,"is_reserved":false,"is_disabled":false,"rental_uris":{"android":"levelo://app?vid=ef288286-229d-4b9a-a189-8d61840dcffb","ios":"levelo://app?vid=ef288286-229d-4b9a-a189-8d61840dcffb"},"vehicle_type_id":"4","last_reported":1731136055,"current_range_meters":35600,"station_id":"ce4bhu92rcd13ifvqi70","pricing_plan_id":"cebpf4jnsgd1na2vs0mg"},{"bike_id":"aba30376-3325-4424-8e51-cfe3da497d72","system_id":"levelo_inurba_marseille","lat":43.30947,"lon":5.39053,"is_reserved":false,"is_disabled":false,"rental_uris":{"android":"levelo://app?vid=aba30376-3325-4424-8e51-cfe3da497d72","ios":"levelo://app?vid=aba30376-3325-4424-8e51-cfe3da497d72"},"vehicle_type_id":"4","last_reported":1731136055,"current_range_meters":37600,"station_id":"ce4bgup2rcd13ifvqco0","pricing_plan_id":"cebpf4jnsgd1na2vs0mg"},{"bike_id":"c6c18437-3d27-488b-bfaf-aa32f328b483","system_id":"levelo_inurba_marseille","lat":43.33612,"lon":5.41025,"is_reserved":false,"is_disabled":false,"rental_uris":{"android":"levelo://app?vid=c6c18437-3d27-488b-bfaf-aa32f328b483","ios":"levelo://app?vid=c6c18437-3d27-488b-bfaf-aa32f328b483"},"vehicle_type_id":"4","last_reported":1731136055,"current_range_meters":11600,"station_id":"ce4bhqh2rcd13ifvqhmg","pricing_plan_id":"cebpf4jnsgd1na2vs0mg"},{"bike_id":"9ff3a2bc-2d09-4f82-92c7-15589532de81","system_id":"levelo_inurba_marseille","lat":43.33603,"lon":5.41034,"is_reserved":false,"is_disabled":false,"rental_uris":{"android":"levelo://app?vid=9ff3a2bc-2d09-4f82-92c7-15589532de81","ios":"levelo://app?vid=9ff3a2bc-2d09-4f82-92c7-15589532de81"},"vehicle_type_id":"4","last_reported":1731136055,"current_range_meters":17200,"station_id":"ce4bhqh2rcd13ifvqhmg","pricing_plan_id":"cebpf4jnsgd1na2vs0mg"},{"bike_id":"43dbcf2e-3b20-4e0f-ac09-64b0f1ef49b7","system_id":"levelo_inurba_marseille","lat":43.25725,"lon":5.41107,"is_reserved":false,"is_disabled":false,"rental_uris":{"android":"levelo://app?vid=43dbcf2e-3b20-4e0f-ac09-64b0f1ef49b7","ios":"levelo://app?vid=43dbcf2e-3b20-4e0f-ac09-64b0f1ef49b7"},"vehicle_type_id":"4","last_reported":1731136055,"current_range_meters":39200,"station_id":"ce4bhkp2rcd13ifvqgd0","pricing_plan_id":"cebpf4jnsgd1na2vs0mg"},{"bike_id":"10ee6f64-d75c-4e2f-8ed0-6ee62c2a4643","system_id":"levelo_inurba_marseille","lat":43.24647,"lon":5.38894,"is_reserved":false,"is_disabled":false,"rental_uris":{"android":"levelo://app?vid=10ee6f64-d75c-4e2f-8ed0-6ee62c2a4643","ios":"levelo://app?vid=10ee6f64-d75c-4e2f-8ed0-6ee62c2a4643"},"vehicle_type_id":"4","last_reported":1731136055,"current_range_meters":17200,"station_id":"ce4bhg12rcd13ifvqf60","pricing_plan_id":"cebpf4jnsgd1na2vs0mg"},{"bike_id":"c4ceb15a-5c5b-4500-b281-24d33897ea9b","system_id":"levelo_inurba_marseille","lat":43.29806,"lon":5.4041,"is_reserved":false,"is_disabled":false,"rental_uris":{"android":"levelo://app?vid=c4ceb15a-5c5b-4500-b281-24d33897ea9b","ios":"levelo://app?vid=c4ceb15a-5c5b-4500-b281-24d33897ea9b"},"vehicle_type_id":"4","last_reported":1731136055,"current_range_meters":33600,"station_id":"ce4bh112rcd13ifvqd90","pricing_plan_id":"cebpf4jnsgd1na2vs0mg"},{"bike_id":"17af4bea-b3de-4c83-bdca-1950a356db9a","system_id":"levelo_inurba_marseille","lat":43.312771,"lon":5.401648,"is_reserved":false,"is_disabled":false,"rental_uris":{"android":"levelo://app?vid=17af4bea-b3de-4c83-bdca-1950a356db9a","ios":"levelo://app?vid=17af4bea-b3de-4c83-bdca-1950a356db9a"},"vehicle_type_id":"4","last_reported":1731136055,"current_range_meters":38000,"station_id":"ce4bh092rcd13ifvqd30","pricing_plan_id":"cebpf4jnsgd1na2vs0mg"},{"bike_id":"27647bcf-c132-4bcf-a5f5-82ad5aeb2175","system_id":"levelo_inurba_marseille","lat":43.311177,"lon":5.377661,"is_reserved":false,"is_disabled":false,"rental_uris":{"android":"levelo://app?vid=27647bcf-c132-4bcf-a5f5-82ad5aeb2175","ios":"levelo://app?vid=27647bcf-c132-4bcf-a5f5-82ad5aeb2175"},"vehicle_type_id":"4","last_reported":1731136055,"current_range_meters":39200,"station_id":"ce4bgt92rcd13ifvqcg0","pricing_plan_id":"cebpf4jnsgd1na2vs0mg"},{"bike_id":"ac963c09-022d-4dbd-82ec-d4fdab6c93b8","system_id":"levelo_inurba_marseille","lat":43.30927,"lon":5.40151,"is_reserved":false,"is_disabled":false,"rental_uris":{"android":"levelo://app?vid=ac963c09-022d-4dbd-82ec-d4fdab6c93b8","ios":"levelo://app?vid=ac963c09-022d-4dbd-82ec-d4fdab6c93b8"},"vehicle_type_id":"4","last_reported":1731136055,"current_range_meters":38800,"station_id":"ce4bgvp2rcd13ifvqct0","pricing_plan_id":"cebpf4jnsgd1na2vs0mg"},{"bike_id":"9b944a41-2364-420b-b3ec-4e92ede26325","system_id":"levelo_inurba_marseille","lat":43.30771,"lon":5.42858,"is_reserved":false,"is_disabled":false,"rental_uris":{"android":"levelo://app?vid=9b944a41-2364-420b-b3ec-4e92ede26325","ios":"levelo://app?vid=9b944a41-2364-420b-b3ec-4e92ede26325"},"vehicle_type_id":"4","last_reported":1731136055,"current_range_meters":9600,"station_id":"ce4bhph2rcd13ifvqheg","pricing_plan_id":"cebpf4jnsgd1na2vs0mg"},{"bike_id":"8faa22dc-5f3c-4af6-b84b-f554e09d6313","system_id":"levelo_inurba_marseille","lat":43.337444,"lon":5.374475,"is_reserved":false,"is_disabled":false,"rental_uris":{"android":"levelo://app?vid=8faa22dc-5f3c-4af6-b84b-f554e09d6313","ios":"levelo://app?vid=8faa22dc-5f3c-4af6-b84b-f554e09d6313"},"vehicle_type_id":"4","last_reported":1731136055,"current_range_meters":34800,"station_id":"","pricing_plan_id":"cebpf4jnsgd1na2vs0mg"},{"bike_id":"e08ac53e-9755-45cd-87e7-911eb4600467","system_id":"levelo_inurba_marseille","lat":43.28401,"lon":5.37524,"is_reserved":false,"is_disabled":false,"rental_uris":{"android":"levelo://app?vid=e08ac53e-9755-45cd-87e7-911eb4600467","ios":"levelo://app?vid=e08ac53e-9755-45cd-87e7-911eb4600467"},"vehicle_type_id":"4","last_reported":1731136055,"current_range_meters":35600,"station_id":"ce4bh412rcd13ifvqds0","pricing_plan_id":"cebpf4jnsgd1na2vs0mg"},{"bike_id":"8a3bb193-e44a-4dda-9ac1-86b1ecd75412","system_id":"levelo_inurba_marseille","lat":43.31886,"lon":5.40739,"is_reserved":false,"is_disabled":false,"rental_uris":{"android":"levelo://app?vid=8a3bb193-e44a-4dda-9ac1-86b1ecd75412","ios":"levelo://app?vid=8a3bb193-e44a-4dda-9ac1-86b1ecd75412"},"vehicle_type_id":"4","last_reported":1731136055,"current_range_meters":38000,"station_id":"ce4bhq12rcd13ifvqhig","pricing_plan_id":"cebpf4jnsgd1na2vs0mg"},{"bike_id":"da56df38-eab2-459f-8f90-922696119db1","system_id":"levelo_inurba_marseille","lat":43.30322,"lon":5.40443,"is_reserved":false,"is_disabled":false,"rental_uris":{"android":"levelo://app?vid=da56df38-eab2-459f-8f90-922696119db1","ios":"levelo://app?vid=da56df38-eab2-459f-8f90-922696119db1"},"vehicle_type_id":"4","last_reported":1731136055,"current_range_meters":38800,"station_id":"ce4bh012rcd13ifvqd10","pricing_plan_id":"cebpf4jnsgd1na2vs0mg"},{"bike_id":"0e0b5a7a-cdca-4e25-ae6a-cb9a8aba80a9","system_id":"levelo_inurba_marseille","lat":43.303253,"lon":5.404306,"is_reserved":false,"is_disabled":false,"rental_uris":{"android":"levelo://app?vid=0e0b5a7a-cdca-4e25-ae6a-cb9a8aba80a9","ios":"levelo://app?vid=0e0b5a7a-cdca-4e25-ae6a-cb9a8aba80a9"},"vehicle_type_id":"4","last_reported":1731136055,"current_range_meters":20400,"station_id":"ce4bhbp2rcd13ifvqerg","pricing_plan_id":"cebpf4jnsgd1na2vs0mg"},{"bike_id":"c7a601e3-837f-43df-885f-82aca8c8aba7","system_id":"levelo_inurba_marseille","lat":43.29469,"lon":5.38484,"is_reserved":false,"is_disabled":false,"rental_uris":{"android":"levelo://app?vid=c7a601e3-837f-43df-885f-82aca8c8aba7","ios":"levelo://app?vid=c7a601e3-837f-43df-885f-82aca8c8aba7"},"vehicle_type_id":"4","last_reported":1731136055,"current_range_meters":15200,"station_id":"","pricing_plan_id":"cebpf4jnsgd1na2vs0mg"},{"bike_id":"34e88b95-8ebf-45cd-ba93-72e13ad50ff3","system_id":"levelo_inurba_marseille","lat":43.29708,"lon":5.36611,"is_reserved":false,"is_disabled":false,"rental_uris":{"android":"levelo://app?vid=34e88b95-8ebf-45cd-ba93-72e13ad50ff3","ios":"levelo://app?vid=34e88b95-8ebf-45cd-ba93-72e13ad50ff3"},"vehicle_type_id":"4","last_reported":1731136055,"current_range_meters":38800,"station_id":"ce4bgn12rcd13ifvqbt0","pricing_plan_id":"cebpf4jnsgd1na2vs0mg"},{"bike_id":"53e176ca-3a96-45e2-b9c1-f258ec8a7a25","system_id":"levelo_inurba_marseille","lat":43.2315,"lon":5.4372,"is_reserved":false,"is_disabled":false,"rental_uris":{"android":"levelo://app?vid=53e176ca-3a96-45e2-b9c1-f258ec8a7a25","ios":"levelo://app?vid=53e176ca-3a96-45e2-b9c1-f258ec8a7a25"},"vehicle_type_id":"4","last_reported":1731136055,"current_range_meters":15200,"station_id":"ce4bhmp2rcd13ifvqgog","pricing_plan_id":"cebpf4jnsgd1na2vs0mg"},{"bike_id":"8ee7b9d5-9f1d-49f2-870d-69c8b74d6a1f","system_id":"levelo_inurba_marseille","lat":43.24661,"lon":5.38168,"is_reserved":false,"is_disabled":false,"rental_uris":{"android":"levelo://app?vid=8ee7b9d5-9f1d-49f2-870d-69c8b74d6a1f","ios":"levelo://app?vid=8ee7b9d5-9f1d-49f2-870d-69c8b74d6a1f"},"vehicle_type_id":"4","last_reported":1731136055,"current_range_meters":11600,"station_id":"ce4bhih2rcd13ifvqfr0","pricing_plan_id":"cebpf4jnsgd1na2vs0mg"},{"bike_id":"5fcac8d1-3460-4de9-8166-83a29fe1bc75","system_id":"levelo_inurba_marseille","lat":43.30931,"lon":5.40147,"is_reserved":false,"is_disabled":false,"rental_uris":{"android":"levelo://app?vid=5fcac8d1-3460-4de9-8166-83a29fe1bc75","ios":"levelo://app?vid=5fcac8d1-3460-4de9-8166-83a29fe1bc75"},"vehicle_type_id":"4","last_reported":1731136055,"current_range_meters":25200,"station_id":"ce4bgvp2rcd13ifvqct0","pricing_plan_id":"cebpf4jnsgd1na2vs0mg"},{"bike_id":"365abe33-264d-4cb8-ac08-66997505249a","system_id":"levelo_inurba_marseille","lat":43.320453,"lon":5.41548,"is_reserved":false,"is_disabled":false,"rental_uris":{"android":"levelo://app?vid=365abe33-264d-4cb8-ac08-66997505249a","ios":"levelo://app?vid=365abe33-264d-4cb8-ac08-66997505249a"},"vehicle_type_id":"4","last_reported":1731136055,"current_range_meters":9600,"station_id":"ce4bhq92rcd13ifvqhkg","pricing_plan_id":"cebpf4jnsgd1na2vs0mg"},{"bike_id":"219f0ebc-ae04-44b4-9f81-81fcff2c0f34","system_id":"levelo_inurba_marseille","lat":43.31122,"lon":5.37755,"is_reserved":false,"is_disabled":false,"rental_uris":{"android":"levelo://app?vid=219f0ebc-ae04-44b4-9f81-81fcff2c0f34","ios":"levelo://app?vid=219f0ebc-ae04-44b4-9f81-81fcff2c0f34"},"vehicle_type_id":"4","last_reported":1731136055,"current_range_meters":34000,"station_id":"ce4bgt92rcd13ifvqcg0","pricing_plan_id":"cebpf4jnsgd1na2vs0mg"},{"bike_id":"4de16669-81af-4d13-ab5a-fb82eb47fa93","system_id":"levelo_inurba_marseille","lat":43.30805,"lon":5.38154,"is_reserved":false,"is_disabled":false,"rental_uris":{"android":"levelo://app?vid=4de16669-81af-4d13-ab5a-fb82eb47fa93","ios":"levelo://app?vid=4de16669-81af-4d13-ab5a-fb82eb47fa93"},"vehicle_type_id":"4","last_reported":1731136055,"current_range_meters":30000,"station_id":"ce4bgt12rcd13ifvqce0","pricing_plan_id":"cebpf4jnsgd1na2vs0mg"},{"bike_id":"6463664d-8d71-4282-8618-f2c0c195f781","system_id":"levelo_inurba_marseille","lat":43.30185,"lon":5.38038,"is_reserved":false,"is_disabled":false,"rental_uris":{"android":"levelo://app?vid=6463664d-8d71-4282-8618-f2c0c195f781","ios":"levelo://app?vid=6463664d-8d71-4282-8618-f2c0c195f781"},"vehicle_type_id":"4","last_reported":1731136055,"current_range_meters":28800,"station_id":"ce4bgjp2rcd13ifvqbh0","pricing_plan_id":"cebpf4jnsgd1na2vs0mg"},{"bike_id":"96216fca-520a-43f8-97bd-ea3488829150","system_id":"levelo_inurba_marseille","lat":43.2857,"lon":5.39487,"is_reserved":false,"is_disabled":false,"rental_uris":{"android":"levelo://app?vid=96216fca-520a-43f8-97bd-ea3488829150","ios":"levelo://app?vid=96216fca-520a-43f8-97bd-ea3488829150"},"vehicle_type_id":"4","last_reported":1731136055,"current_range_meters":32800,"station_id":"ce4bh292rcd13ifvqdg0","pricing_plan_id":"cebpf4jnsgd1na2vs0mg"},{"bike_id":"b2cf47e7-e7b3-4554-bd94-55ed8ee90da9","system_id":"levelo_inurba_marseille","lat":43.30928,"lon":5.40146,"is_reserved":false,"is_disabled":false,"rental_uris":{"android":"levelo://app?vid=b2cf47e7-e7b3-4554-bd94-55ed8ee90da9","ios":"levelo://app?vid=b2cf47e7-e7b3-4554-bd94-55ed8ee90da9"},"vehicle_type_id":"4","last_reported":1731136055,"current_range_meters":36000,"station_id":"ce4bgvp2rcd13ifvqct0","pricing_plan_id":"cebpf4jnsgd1na2vs0mg"},{"bike_id":"3424df2c-a0ae-4e23-b518-86ea552de7c2","system_id":"levelo_inurba_marseille","lat":43.29222,"lon":5.3606,"is_reserved":false,"is_disabled":false,"rental_uris":{"android":"levelo://app?vid=3424df2c-a0ae-4e23-b518-86ea552de7c2","ios":"levelo://app?vid=3424df2c-a0ae-4e23-b518-86ea552de7c2"},"vehicle_type_id":"4","last_reported":1731136055,"current_range_meters":36400,"station_id":"ce4bhbh2rcd13ifvqeqg","pricing_plan_id":"cebpf4jnsgd1na2vs0mg"},{"bike_id":"ba4e9b3f-2a8e-4431-b57f-f6a1ee8edd37","system_id":"levelo_inurba_marseille","lat":43.30143,"lon":5.38072,"is_reserved":false,"is_disabled":false,"rental_uris":{"android":"levelo://app?vid=ba4e9b3f-2a8e-4431-b57f-f6a1ee8edd37","ios":"levelo://app?vid=ba4e9b3f-2a8e-4431-b57f-f6a1ee8edd37"},"vehicle_type_id":"4","last_reported":1731136055,"current_range_meters":24000,"station_id":"ce4bgjp2rcd13ifvqbh0","pricing_plan_id":"cebpf4jnsgd1na2vs0mg"},{"bike_id":"eb8ae82e-b5af-4e43-8b69-b135e11d1ed6","system_id":"levelo_inurba_marseille","lat":43.29895,"lon":5.43662,"is_reserved":false,"is_disabled":false,"rental_uris":{"android":"levelo://app?vid=eb8ae82e-b5af-4e43-8b69-b135e11d1ed6","ios":"levelo://app?vid=eb8ae82e-b5af-4e43-8b69-b135e11d1ed6"},"vehicle_type_id":"4","last_reported":1731136055,"current_range_meters":8800,"station_id":"ce4bhpp2rcd13ifvqhfg","pricing_plan_id":"cebpf4jnsgd1na2vs0mg"},{"bike_id":"3f128c3b-8e53-44e3-a2af-a867d896e4ae","system_id":"levelo_inurba_marseille","lat":43.290353,"lon":5.39998,"is_reserved":false,"is_disabled":false,"rental_uris":{"android":"levelo://app?vid=3f128c3b-8e53-44e3-a2af-a867d896e4ae","ios":"levelo://app?vid=3f128c3b-8e53-44e3-a2af-a867d896e4ae"},"vehicle_type_id":"4","last_reported":1731136055,"current_range_meters":24800,"station_id":"ce4bh392rcd13ifvqdm0","pricing_plan_id":"cebpf4jnsgd1na2vs0mg"},{"bike_id":"52d6d289-9187-49f9-b03f-fe7b1d12d91a","system_id":"levelo_inurba_marseille","lat":43.24801,"lon":5.37456,"is_reserved":false,"is_disabled":false,"rental_uris":{"android":"levelo://app?vid=52d6d289-9187-49f9-b03f-fe7b1d12d91a","ios":"levelo://app?vid=52d6d289-9187-49f9-b03f-fe7b1d12d91a"},"vehicle_type_id":"4","last_reported":1731136055,"current_range_meters":13600,"station_id":"ce4bhgh2rcd13ifvqfb0","pricing_plan_id":"cebpf4jnsgd1na2vs0mg"},{"bike_id":"d6fdae69-642e-4d84-a8fd-edeb75ed0ef4","system_id":"levelo_inurba_marseille","lat":43.22932,"lon":5.35376,"is_reserved":false,"is_disabled":false,"rental_uris":{"android":"levelo://app?vid=d6fdae69-642e-4d84-a8fd-edeb75ed0ef4","ios":"levelo://app?vid=d6fdae69-642e-4d84-a8fd-edeb75ed0ef4"},"vehicle_type_id":"4","last_reported":1731136055,"current_range_meters":39200,"station_id":"cpo3532slgdg3j2ikp40","pricing_plan_id":"cebpf4jnsgd1na2vs0mg"},{"bike_id":"5cc66348-f056-4771-be0a-d998fca017be","system_id":"levelo_inurba_marseille","lat":43.25083,"lon":5.39521,"is_reserved":false,"is_disabled":false,"rental_uris":{"android":"levelo://app?vid=5cc66348-f056-4771-be0a-d998fca017be","ios":"levelo://app?vid=5cc66348-f056-4771-be0a-d998fca017be"},"vehicle_type_id":"4","last_reported":1731136055,"current_range_meters":19600,"station_id":"ce4bhm12rcd13ifvqgkg","pricing_plan_id":"cebpf4jnsgd1na2vs0mg"},{"bike_id":"e1f0feec-c9e1-4322-9a21-d4cfff11939d","system_id":"levelo_inurba_marseille","lat":43.31893,"lon":5.40729,"is_reserved":false,"is_disabled":false,"rental_uris":{"android":"levelo://app?vid=e1f0feec-c9e1-4322-9a21-d4cfff11939d","ios":"levelo://app?vid=e1f0feec-c9e1-4322-9a21-d4cfff11939d"},"vehicle_type_id":"4","last_reported":1731136055,"current_range_meters":39200,"station_id":"ce4bhq12rcd13ifvqhig","pricing_plan_id":"cebpf4jnsgd1na2vs0mg"},{"bike_id":"ae54d96d-70f5-4347-8dd4-86d634a169dd","system_id":"levelo_inurba_marseille","lat":43.25111,"lon":5.40331,"is_reserved":false,"is_disabled":false,"rental_uris":{"android":"levelo://app?vid=ae54d96d-70f5-4347-8dd4-86d634a169dd","ios":"levelo://app?vid=ae54d96d-70f5-4347-8dd4-86d634a169dd"},"vehicle_type_id":"4","last_reported":1731136055,"current_range_meters":35200,"station_id":"ce4bhlh2rcd13ifvqgig","pricing_plan_id":"cebpf4jnsgd1na2vs0mg"},{"bike_id":"86d64521-d332-4842-b4fb-5fa4820d8c81","system_id":"levelo_inurba_marseille","lat":43.337444,"lon":5.374475,"is_reserved":false,"is_disabled":false,"rental_uris":{"android":"levelo://app?vid=86d64521-d332-4842-b4fb-5fa4820d8c81","ios":"levelo://app?vid=86d64521-d332-4842-b4fb-5fa4820d8c81"},"vehicle_type_id":"4","last_reported":1731136055,"current_range_meters":34000,"station_id":"","pricing_plan_id":"cebpf4jnsgd1na2vs0mg"},{"bike_id":"63d1310c-b035-4676-9c77-8b6c7de0cc29","system_id":"levelo_inurba_marseille","lat":43.29799,"lon":5.38091,"is_reserved":false,"is_disabled":false,"rental_uris":{"android":"levelo://app?vid=63d1310c-b035-4676-9c77-8b6c7de0cc29","ios":"levelo://app?vid=63d1310c-b035-4676-9c77-8b6c7de0cc29"},"vehicle_type_id":"4","last_reported":1731136055,"current_range_meters":8800,"station_id":"ce4bgip2rcd13ifvqbb0","pricing_plan_id":"cebpf4jnsgd1na2vs0mg"},{"bike_id":"f8cd690e-418b-4302-a25c-e9231a81bf44","system_id":"levelo_inurba_marseille","lat":43.28259,"lon":5.35072,"is_reserved":false,"is_disabled":false,"rental_uris":{"android":"levelo://app?vid=f8cd690e-418b-4302-a25c-e9231a81bf44","ios":"levelo://app?vid=f8cd690e-418b-4302-a25c-e9231a81bf44"},"vehicle_type_id":"4","last_reported":1731136055,"current_range_meters":16400,"station_id":"ce4bhbp2rcd13ifvqerg","pricing_plan_id":"cebpf4jnsgd1na2vs0mg"},{"bike_id":"e99d247a-1ce0-4c71-944b-d68cc3c2ab92","system_id":"levelo_inurba_marseille","lat":43.306479,"lon":5.40082,"is_reserved":false,"is_disabled":false,"rental_uris":{"android":"levelo://app?vid=e99d247a-1ce0-4c71-944b-d68cc3c2ab92","ios":"levelo://app?vid=e99d247a-1ce0-4c71-944b-d68cc3c2ab92"},"vehicle_type_id":"4","last_reported":1731136055,"current_range_meters":40000,"station_id":"ce4bh112rcd13ifvqda0","pricing_plan_id":"cebpf4jnsgd1na2vs0mg"},{"bike_id":"448d3bf9-78cb-439a-a23b-0e48f1b89013","system_id":"levelo_inurba_marseille","lat":43.32368,"lon":5.38885,"is_reserved":false,"is_disabled":false,"rental_uris":{"android":"levelo://app?vid=448d3bf9-78cb-439a-a23b-0e48f1b89013","ios":"levelo://app?vid=448d3bf9-78cb-439a-a23b-0e48f1b89013"},"vehicle_type_id":"4","last_reported":1731136055,"current_range_meters":12800,"station_id":"ce4bhqp2rcd13ifvqhog","pricing_plan_id":"cebpf4jnsgd1na2vs0mg"},{"bike_id":"08c87c74-8ce5-4912-ab68-fb06a199a47b","system_id":"levelo_inurba_marseille","lat":43.23188,"lon":5.39981,"is_reserved":false,"is_disabled":false,"rental_uris":{"android":"levelo://app?vid=08c87c74-8ce5-4912-ab68-fb06a199a47b","ios":"levelo://app?vid=08c87c74-8ce5-4912-ab68-fb06a199a47b"},"vehicle_type_id":"4","last_reported":1731136055,"current_range_meters":39200,"station_id":"ce4bhn12rcd13ifvqgqg","pricing_plan_id":"cebpf4jnsgd1na2vs0mg"},{"bike_id":"0b53fb54-f6fa-45c1-b912-5bc81e2b4ac7","system_id":"levelo_inurba_marseille","lat":43.30466,"lon":5.37908,"is_reserved":false,"is_disabled":false,"rental_uris":{"android":"levelo://app?vid=0b53fb54-f6fa-45c1-b912-5bc81e2b4ac7","ios":"levelo://app?vid=0b53fb54-f6fa-45c1-b912-5bc81e2b4ac7"},"vehicle_type_id":"4","last_reported":1731136055,"current_range_meters":8400,"station_id":"ce4bgup2rcd13ifvqcn0","pricing_plan_id":"cebpf4jnsgd1na2vs0mg"},{"bike_id":"1dfd26b6-6ae9-4d29-8c2c-fd7385bb843a","system_id":"levelo_inurba_marseille","lat":43.306437,"lon":5.400702,"is_reserved":false,"is_disabled":false,"rental_uris":{"android":"levelo://app?vid=1dfd26b6-6ae9-4d29-8c2c-fd7385bb843a","ios":"levelo://app?vid=1dfd26b6-6ae9-4d29-8c2c-fd7385bb843a"},"vehicle_type_id":"4","last_reported":1731136055,"current_range_meters":36800,"station_id":"ce4bh112rcd13ifvqda0","pricing_plan_id":"cebpf4jnsgd1na2vs0mg"},{"bike_id":"3a1b2dee-3aac-4d59-8987-200b89692033","system_id":"levelo_inurba_marseille","lat":43.28408,"lon":5.37519,"is_reserved":false,"is_disabled":false,"rental_uris":{"android":"levelo://app?vid=3a1b2dee-3aac-4d59-8987-200b89692033","ios":"levelo://app?vid=3a1b2dee-3aac-4d59-8987-200b89692033"},"vehicle_type_id":"4","last_reported":1731136055,"current_range_meters":33600,"station_id":"ce4bh412rcd13ifvqds0","pricing_plan_id":"cebpf4jnsgd1na2vs0mg"},{"bike_id":"d4e2615a-83f7-44f4-94b2-ee4cf6b17fb3","system_id":"levelo_inurba_marseille","lat":43.25093,"lon":5.39521,"is_reserved":false,"is_disabled":false,"rental_uris":{"android":"levelo://app?vid=d4e2615a-83f7-44f4-94b2-ee4cf6b17fb3","ios":"levelo://app?vid=d4e2615a-83f7-44f4-94b2-ee4cf6b17fb3"},"vehicle_type_id":"4","last_reported":1731136055,"current_range_meters":19600,"station_id":"ce4bhm12rcd13ifvqgkg","pricing_plan_id":"cebpf4jnsgd1na2vs0mg"},{"bike_id":"e103be28-a2f8-4a89-8436-b4d164c2df27","system_id":"levelo_inurba_marseille","lat":43.2968,"lon":5.37303,"is_reserved":false,"is_disabled":false,"rental_uris":{"android":"levelo://app?vid=e103be28-a2f8-4a89-8436-b4d164c2df27","ios":"levelo://app?vid=e103be28-a2f8-4a89-8436-b4d164c2df27"},"vehicle_type_id":"4","last_reported":1731136055,"current_range_meters":38800,"station_id":"ce4bgk12rcd13ifvqbj0","pricing_plan_id":"cebpf4jnsgd1na2vs0mg"},{"bike_id":"1e3dea22-7fac-4f4b-b600-c929631fbbdf","system_id":"levelo_inurba_marseille","lat":43.31723,"lon":5.42397,"is_reserved":false,"is_disabled":false,"rental_uris":{"android":"levelo://app?vid=1e3dea22-7fac-4f4b-b600-c929631fbbdf","ios":"levelo://app?vid=1e3dea22-7fac-4f4b-b600-c929631fbbdf"},"vehicle_type_id":"4","last_reported":1731136055,"current_range_meters":38400,"station_id":"ce4bhp92rcd13ifvqhbg","pricing_plan_id":"cebpf4jnsgd1na2vs0mg"},{"bike_id":"625cbd85-512d-46b4-9dc3-b23661771a10","system_id":"levelo_inurba_marseille","lat":43.30462,"lon":5.37905,"is_reserved":false,"is_disabled":false,"rental_uris":{"android":"levelo://app?vid=625cbd85-512d-46b4-9dc3-b23661771a10","ios":"levelo://app?vid=625cbd85-512d-46b4-9dc3-b23661771a10"},"vehicle_type_id":"4","last_reported":1731136055,"current_range_meters":12800,"station_id":"ce4bgup2rcd13ifvqcn0","pricing_plan_id":"cebpf4jnsgd1na2vs0mg"},{"bike_id":"76b6e939-99f3-4209-b832-3137385e9c75","system_id":"levelo_inurba_marseille","lat":43.30183,"lon":5.36615,"is_reserved":false,"is_disabled":false,"rental_uris":{"android":"levelo://app?vid=76b6e939-99f3-4209-b832-3137385e9c75","ios":"levelo://app?vid=76b6e939-99f3-4209-b832-3137385e9c75"},"vehicle_type_id":"4","last_reported":1731136055,"current_range_meters":38400,"station_id":"ce4bgrh2rcd13ifvqc8g","pricing_plan_id":"cebpf4jnsgd1na2vs0mg"},{"bike_id":"8864522f-df38-4b28-8ef8-dd87d89715ec","system_id":"levelo_inurba_marseille","lat":43.30422,"lon":5.39754,"is_reserved":false,"is_disabled":false,"rental_uris":{"android":"levelo://app?vid=8864522f-df38-4b28-8ef8-dd87d89715ec","ios":"levelo://app?vid=8864522f-df38-4b28-8ef8-dd87d89715ec"},"vehicle_type_id":"4","last_reported":1731136055,"current_range_meters":39200,"station_id":"ce4bh092rcd13ifvqd20","pricing_plan_id":"cebpf4jnsgd1na2vs0mg"},{"bike_id":"fa8c3042-e822-41b4-b9f3-f9e75f31f2b7","system_id":"levelo_inurba_marseille","lat":43.29902,"lon":5.38135,"is_reserved":false,"is_disabled":false,"rental_uris":{"android":"levelo://app?vid=fa8c3042-e822-41b4-b9f3-f9e75f31f2b7","ios":"levelo://app?vid=fa8c3042-e822-41b4-b9f3-f9e75f31f2b7"},"vehicle_type_id":"4","last_reported":1731136055,"current_range_meters":38000,"station_id":"ce4bgj12rcd13ifvqbc0","pricing_plan_id":"cebpf4jnsgd1na2vs0mg"},{"bike_id":"bbc4f13b-cc27-45c8-9657-03eb08fa0f07","system_id":"levelo_inurba_marseille","lat":43.25105,"lon":5.40327,"is_reserved":false,"is_disabled":false,"rental_uris":{"android":"levelo://app?vid=bbc4f13b-cc27-45c8-9657-03eb08fa0f07","ios":"levelo://app?vid=bbc4f13b-cc27-45c8-9657-03eb08fa0f07"},"vehicle_type_id":"4","last_reported":1731136055,"current_range_meters":25200,"station_id":"ce4bhlh2rcd13ifvqgig","pricing_plan_id":"cebpf4jnsgd1na2vs0mg"},{"bike_id":"a0d9d5ae-de17-4341-bed9-edfa4e4e8139","system_id":"levelo_inurba_marseille","lat":43.299669,"lon":5.370549,"is_reserved":false,"is_disabled":false,"rental_uris":{"android":"levelo://app?vid=a0d9d5ae-de17-4341-bed9-edfa4e4e8139","ios":"levelo://app?vid=a0d9d5ae-de17-4341-bed9-edfa4e4e8139"},"vehicle_type_id":"4","last_reported":1731136055,"current_range_meters":3200,"station_id":"","pricing_plan_id":"cebpf4jnsgd1na2vs0mg"},{"bike_id":"240fac95-469b-4ec1-a905-bc2e3ab6eab7","system_id":"levelo_inurba_marseille","lat":43.2481,"lon":5.37455,"is_reserved":false,"is_disabled":false,"rental_uris":{"android":"levelo://app?vid=240fac95-469b-4ec1-a905-bc2e3ab6eab7","ios":"levelo://app?vid=240fac95-469b-4ec1-a905-bc2e3ab6eab7"},"vehicle_type_id":"4","last_reported":1731136055,"current_range_meters":38000,"station_id":"ce4bhgh2rcd13ifvqfb0","pricing_plan_id":"cebpf4jnsgd1na2vs0mg"},{"bike_id":"7ee5e9c9-c9de-4184-be15-04dcbb3ea74c","system_id":"levelo_inurba_marseille","lat":43.32291,"lon":5.38281,"is_reserved":false,"is_disabled":false,"rental_uris":{"android":"levelo://app?vid=7ee5e9c9-c9de-4184-be15-04dcbb3ea74c","ios":"levelo://app?vid=7ee5e9c9-c9de-4184-be15-04dcbb3ea74c"},"vehicle_type_id":"4","last_reported":1731136055,"current_range_meters":38400,"station_id":"ce4bhr12rcd13ifvqhqg","pricing_plan_id":"cebpf4jnsgd1na2vs0mg"},{"bike_id":"daa40397-b935-43a1-8b04-4eb5a237eb7f","system_id":"levelo_inurba_marseille","lat":43.30802,"lon":5.38163,"is_reserved":false,"is_disabled":false,"rental_uris":{"android":"levelo://app?vid=daa40397-b935-43a1-8b04-4eb5a237eb7f","ios":"levelo://app?vid=daa40397-b935-43a1-8b04-4eb5a237eb7f"},"vehicle_type_id":"4","last_reported":1731136055,"current_range_meters":39200,"station_id":"ce4bgt12rcd13ifvqce0","pricing_plan_id":"cebpf4jnsgd1na2vs0mg"},{"bike_id":"adb5d0c8-c571-4773-bcf5-c91ec7dfa8ff","system_id":"levelo_inurba_marseille","lat":43.23179,"lon":5.39995,"is_reserved":false,"is_disabled":false,"rental_uris":{"android":"levelo://app?vid=adb5d0c8-c571-4773-bcf5-c91ec7dfa8ff","ios":"levelo://app?vid=adb5d0c8-c571-4773-bcf5-c91ec7dfa8ff"},"vehicle_type_id":"4","last_reported":1731136055,"current_range_meters":16000,"station_id":"ce4bhn12rcd13ifvqgqg","pricing_plan_id":"cebpf4jnsgd1na2vs0mg"},{"bike_id":"c7bbeaf1-9143-4605-9dd2-31eea73940ee","system_id":"levelo_inurba_marseille","lat":43.29891,"lon":5.39738,"is_reserved":false,"is_disabled":false,"rental_uris":{"android":"levelo://app?vid=c7bbeaf1-9143-4605-9dd2-31eea73940ee","ios":"levelo://app?vid=c7bbeaf1-9143-4605-9dd2-31eea73940ee"},"vehicle_type_id":"4","last_reported":1731136055,"current_range_meters":36400,"station_id":"ce4bh0h2rcd13ifvqd50","pricing_plan_id":"cebpf4jnsgd1na2vs0mg"},{"bike_id":"8032304b-a074-494c-9ffe-ae3a36ab4530","system_id":"levelo_inurba_marseille","lat":43.25818,"lon":5.3943,"is_reserved":false,"is_disabled":false,"rental_uris":{"android":"levelo://app?vid=8032304b-a074-494c-9ffe-ae3a36ab4530","ios":"levelo://app?vid=8032304b-a074-494c-9ffe-ae3a36ab4530"},"vehicle_type_id":"4","last_reported":1731136055,"current_range_meters":39200,"station_id":"ce4bhip2rcd13ifvqft0","pricing_plan_id":"cebpf4jnsgd1na2vs0mg"},{"bike_id":"e0352fab-c635-4c7a-87d9-f615c078509d","system_id":"levelo_inurba_marseille","lat":43.32485,"lon":5.36566,"is_reserved":false,"is_disabled":false,"rental_uris":{"android":"levelo://app?vid=e0352fab-c635-4c7a-87d9-f615c078509d","ios":"levelo://app?vid=e0352fab-c635-4c7a-87d9-f615c078509d"},"vehicle_type_id":"4","last_reported":1731136055,"current_range_meters":39200,"station_id":"ce4bhs12rcd13ifvqhvg","pricing_plan_id":"cebpf4jnsgd1na2vs0mg"},{"bike_id":"e927137b-b561-43dc-8682-c3e2f40d1308","system_id":"levelo_inurba_marseille","lat":43.29252,"lon":5.4091,"is_reserved":false,"is_disabled":false,"rental_uris":{"android":"levelo://app?vid=e927137b-b561-43dc-8682-c3e2f40d1308","ios":"levelo://app?vid=e927137b-b561-43dc-8682-c3e2f40d1308"},"vehicle_type_id":"4","last_reported":1731136055,"current_range_meters":9600,"station_id":"ce4bh192rcd13ifvqdc0","pricing_plan_id":"cebpf4jnsgd1na2vs0mg"},{"bike_id":"c07f4fd7-44c8-4ca9-8cdd-edc38807fe9c","system_id":"levelo_inurba_marseille","lat":43.26552,"lon":5.37287,"is_reserved":false,"is_disabled":false,"rental_uris":{"android":"levelo://app?vid=c07f4fd7-44c8-4ca9-8cdd-edc38807fe9c","ios":"levelo://app?vid=c07f4fd7-44c8-4ca9-8cdd-edc38807fe9c"},"vehicle_type_id":"4","last_reported":1731136055,"current_range_meters":20800,"station_id":"ce4bhg12rcd13ifvqf70","pricing_plan_id":"cebpf4jnsgd1na2vs0mg"},{"bike_id":"5899fbcb-a5b0-4e78-8797-c679011e3f0d","system_id":"levelo_inurba_marseille","lat":43.29567,"lon":5.39977,"is_reserved":false,"is_disabled":false,"rental_uris":{"android":"levelo://app?vid=5899fbcb-a5b0-4e78-8797-c679011e3f0d","ios":"levelo://app?vid=5899fbcb-a5b0-4e78-8797-c679011e3f0d"},"vehicle_type_id":"4","last_reported":1731136055,"current_range_meters":27200,"station_id":"ce4bh312rcd13ifvqdj0","pricing_plan_id":"cebpf4jnsgd1na2vs0mg"},{"bike_id":"774649b8-3eb5-4e5a-bdc0-8cf43dfb86a6","system_id":"levelo_inurba_marseille","lat":43.24656,"lon":5.38896,"is_reserved":false,"is_disabled":false,"rental_uris":{"android":"levelo://app?vid=774649b8-3eb5-4e5a-bdc0-8cf43dfb86a6","ios":"levelo://app?vid=774649b8-3eb5-4e5a-bdc0-8cf43dfb86a6"},"vehicle_type_id":"4","last_reported":1731136055,"current_range_meters":29600,"station_id":"ce4bhg12rcd13ifvqf60","pricing_plan_id":"cebpf4jnsgd1na2vs0mg"},{"bike_id":"9d291c5d-07c9-471b-b1f2-df5c113ecdb3","system_id":"levelo_inurba_marseille","lat":43.306458,"lon":5.400894,"is_reserved":false,"is_disabled":false,"rental_uris":{"android":"levelo://app?vid=9d291c5d-07c9-471b-b1f2-df5c113ecdb3","ios":"levelo://app?vid=9d291c5d-07c9-471b-b1f2-df5c113ecdb3"},"vehicle_type_id":"4","last_reported":1731136055,"current_range_meters":39200,"station_id":"ce4bh112rcd13ifvqda0","pricing_plan_id":"cebpf4jnsgd1na2vs0mg"},{"bike_id":"45ae97db-074e-427c-99af-61ce973a25dc","system_id":"levelo_inurba_marseille","lat":43.30464,"lon":5.37903,"is_reserved":false,"is_disabled":false,"rental_uris":{"android":"levelo://app?vid=45ae97db-074e-427c-99af-61ce973a25dc","ios":"levelo://app?vid=45ae97db-074e-427c-99af-61ce973a25dc"},"vehicle_type_id":"4","last_reported":1731136055,"current_range_meters":30800,"station_id":"ce4bgup2rcd13ifvqcn0","pricing_plan_id":"cebpf4jnsgd1na2vs0mg"},{"bike_id":"71729ca1-f787-41f5-bfe3-f732b80dfddc","system_id":"levelo_inurba_marseille","lat":43.23146,"lon":5.43713,"is_reserved":false,"is_disabled":false,"rental_uris":{"android":"levelo://app?vid=71729ca1-f787-41f5-bfe3-f732b80dfddc","ios":"levelo://app?vid=71729ca1-f787-41f5-bfe3-f732b80dfddc"},"vehicle_type_id":"4","last_reported":1731136055,"current_range_meters":38000,"station_id":"ce4bhmp2rcd13ifvqgog","pricing_plan_id":"cebpf4jnsgd1na2vs0mg"},{"bike_id":"b0aea497-88ab-43ef-a893-9e1635af4d71","system_id":"levelo_inurba_marseille","lat":43.23963,"lon":5.36629,"is_reserved":false,"is_disabled":false,"rental_uris":{"android":"levelo://app?vid=b0aea497-88ab-43ef-a893-9e1635af4d71","ios":"levelo://app?vid=b0aea497-88ab-43ef-a893-9e1635af4d71"},"vehicle_type_id":"4","last_reported":1731136055,"current_range_meters":39200,"station_id":"ce4bhi12rcd13ifvqfp0","pricing_plan_id":"cebpf4jnsgd1na2vs0mg"},{"bike_id":"5cb403b7-6bf8-4f37-a57f-47fe40c64a5e","system_id":"levelo_inurba_marseille","lat":43.29803,"lon":5.40409,"is_reserved":false,"is_disabled":false,"rental_uris":{"android":"levelo://app?vid=5cb403b7-6bf8-4f37-a57f-47fe40c64a5e","ios":"levelo://app?vid=5cb403b7-6bf8-4f37-a57f-47fe40c64a5e"},"vehicle_type_id":"4","last_reported":1731136055,"current_range_meters":39200,"station_id":"ce4bh112rcd13ifvqd90","pricing_plan_id":"cebpf4jnsgd1na2vs0mg"},{"bike_id":"8560bbe5-5ef4-4b4f-830f-100947a3e442","system_id":"levelo_inurba_marseille","lat":43.29867,"lon":5.39736,"is_reserved":false,"is_disabled":false,"rental_uris":{"android":"levelo://app?vid=8560bbe5-5ef4-4b4f-830f-100947a3e442","ios":"levelo://app?vid=8560bbe5-5ef4-4b4f-830f-100947a3e442"},"vehicle_type_id":"4","last_reported":1731136055,"current_range_meters":33200,"station_id":"ce4bh0h2rcd13ifvqd50","pricing_plan_id":"cebpf4jnsgd1na2vs0mg"},{"bike_id":"6e78cb08-701e-4a2d-92da-e4e68218e433","system_id":"levelo_inurba_marseille","lat":43.29572,"lon":5.3998,"is_reserved":false,"is_disabled":false,"rental_uris":{"android":"levelo://app?vid=6e78cb08-701e-4a2d-92da-e4e68218e433","ios":"levelo://app?vid=6e78cb08-701e-4a2d-92da-e4e68218e433"},"vehicle_type_id":"4","last_reported":1731136055,"current_range_meters":39200,"station_id":"ce4bh312rcd13ifvqdj0","pricing_plan_id":"cebpf4jnsgd1na2vs0mg"},{"bike_id":"b2cbe124-e9e9-4203-8080-c24b9a55d574","system_id":"levelo_inurba_marseille","lat":43.24076,"lon":5.37759,"is_reserved":false,"is_disabled":false,"rental_uris":{"android":"levelo://app?vid=b2cbe124-e9e9-4203-8080-c24b9a55d574","ios":"levelo://app?vid=b2cbe124-e9e9-4203-8080-c24b9a55d574"},"vehicle_type_id":"4","last_reported":1731136055,"current_range_meters":36400,"station_id":"ce4bhnp2rcd13ifvqgvg","pricing_plan_id":"cebpf4jnsgd1na2vs0mg"},{"bike_id":"4adc051b-cab2-444f-a4c6-933d4708baf0","system_id":"levelo_inurba_marseille","lat":43.31719,"lon":5.424013,"is_reserved":false,"is_disabled":false,"rental_uris":{"android":"levelo://app?vid=4adc051b-cab2-444f-a4c6-933d4708baf0","ios":"levelo://app?vid=4adc051b-cab2-444f-a4c6-933d4708baf0"},"vehicle_type_id":"4","last_reported":1731136055,"current_range_meters":9600,"station_id":"ce4bhp92rcd13ifvqhbg","pricing_plan_id":"cebpf4jnsgd1na2vs0mg"},{"bike_id":"bc14f84f-871d-4faa-a3e8-565342d8fc32","system_id":"levelo_inurba_marseille","lat":43.33608,"lon":5.41028,"is_reserved":false,"is_disabled":false,"rental_uris":{"android":"levelo://app?vid=bc14f84f-871d-4faa-a3e8-565342d8fc32","ios":"levelo://app?vid=bc14f84f-871d-4faa-a3e8-565342d8fc32"},"vehicle_type_id":"4","last_reported":1731136055,"current_range_meters":19200,"station_id":"ce4bhqh2rcd13ifvqhmg","pricing_plan_id":"cebpf4jnsgd1na2vs0mg"},{"bike_id":"a61dfdc8-8032-4e2b-8bea-d0f6a2b05b1f","system_id":"levelo_inurba_marseille","lat":43.23962,"lon":5.36627,"is_reserved":false,"is_disabled":false,"rental_uris":{"android":"levelo://app?vid=a61dfdc8-8032-4e2b-8bea-d0f6a2b05b1f","ios":"levelo://app?vid=a61dfdc8-8032-4e2b-8bea-d0f6a2b05b1f"},"vehicle_type_id":"4","last_reported":1731136055,"current_range_meters":38000,"station_id":"ce4bhi12rcd13ifvqfp0","pricing_plan_id":"cebpf4jnsgd1na2vs0mg"},{"bike_id":"26a444b4-50a5-485a-afd3-f28f60030918","system_id":"levelo_inurba_marseille","lat":43.2846,"lon":5.35879,"is_reserved":false,"is_disabled":false,"rental_uris":{"android":"levelo://app?vid=26a444b4-50a5-485a-afd3-f28f60030918","ios":"levelo://app?vid=26a444b4-50a5-485a-afd3-f28f60030918"},"vehicle_type_id":"4","last_reported":1731136055,"current_range_meters":26800,"station_id":"ce4bhah2rcd13ifvqei0","pricing_plan_id":"cebpf4jnsgd1na2vs0mg"},{"bike_id":"610c2ed4-7ebd-4e84-9e47-c51c9aca3591","system_id":"levelo_inurba_marseille","lat":43.28407,"lon":5.3753,"is_reserved":false,"is_disabled":false,"rental_uris":{"android":"levelo://app?vid=610c2ed4-7ebd-4e84-9e47-c51c9aca3591","ios":"levelo://app?vid=610c2ed4-7ebd-4e84-9e47-c51c9aca3591"},"vehicle_type_id":"4","last_reported":1731136055,"current_range_meters":38000,"station_id":"ce4bh412rcd13ifvqds0","pricing_plan_id":"cebpf4jnsgd1na2vs0mg"},{"bike_id":"6bf91cee-36bc-4259-a139-82597856edff","system_id":"levelo_inurba_marseille","lat":43.31708,"lon":5.37765,"is_reserved":false,"is_disabled":false,"rental_uris":{"android":"levelo://app?vid=6bf91cee-36bc-4259-a139-82597856edff","ios":"levelo://app?vid=6bf91cee-36bc-4259-a139-82597856edff"},"vehicle_type_id":"4","last_reported":1731136055,"current_range_meters":38400,"station_id":"ce4bgth2rcd13ifvqch0","pricing_plan_id":"cebpf4jnsgd1na2vs0mg"},{"bike_id":"ebd313ff-00e1-44f2-b2be-f0d356160fd2","system_id":"levelo_inurba_marseille","lat":43.31358,"lon":5.38504,"is_reserved":false,"is_disabled":false,"rental_uris":{"android":"levelo://app?vid=ebd313ff-00e1-44f2-b2be-f0d356160fd2","ios":"levelo://app?vid=ebd313ff-00e1-44f2-b2be-f0d356160fd2"},"vehicle_type_id":"4","last_reported":1731136055,"current_range_meters":36800,"station_id":"ce4bgt92rcd13ifvqcf0","pricing_plan_id":"cebpf4jnsgd1na2vs0mg"},{"bike_id":"2ac22f94-2156-4d86-9178-897393a16283","system_id":"levelo_inurba_marseille","lat":43.28434,"lon":5.39192,"is_reserved":false,"is_disabled":false,"rental_uris":{"android":"levelo://app?vid=2ac22f94-2156-4d86-9178-897393a16283","ios":"levelo://app?vid=2ac22f94-2156-4d86-9178-897393a16283"},"vehicle_type_id":"4","last_reported":1731136055,"current_range_meters":22400,"station_id":"ce4bhoh2rcd13ifvqh5g","pricing_plan_id":"cebpf4jnsgd1na2vs0mg"},{"bike_id":"19df9529-82c7-4878-a6c9-de4e84322f55","system_id":"levelo_inurba_marseille","lat":43.28075,"lon":5.39662,"is_reserved":false,"is_disabled":false,"rental_uris":{"android":"levelo://app?vid=19df9529-82c7-4878-a6c9-de4e84322f55","ios":"levelo://app?vid=19df9529-82c7-4878-a6c9-de4e84322f55"},"vehicle_type_id":"4","last_reported":1731136055,"current_range_meters":34000,"station_id":"ce4bho12rcd13ifvqh2g","pricing_plan_id":"cebpf4jnsgd1na2vs0mg"},{"bike_id":"0b74ce83-e6b1-4485-8ca6-3897f29a426e","system_id":"levelo_inurba_marseille","lat":43.23958,"lon":5.36625,"is_reserved":false,"is_disabled":false,"rental_uris":{"android":"levelo://app?vid=0b74ce83-e6b1-4485-8ca6-3897f29a426e","ios":"levelo://app?vid=0b74ce83-e6b1-4485-8ca6-3897f29a426e"},"vehicle_type_id":"4","last_reported":1731136055,"current_range_meters":17600,"station_id":"ce4bhi12rcd13ifvqfp0","pricing_plan_id":"cebpf4jnsgd1na2vs0mg"},{"bike_id":"a2a9a46e-b652-452f-95c5-2d0638f3da28","system_id":"levelo_inurba_marseille","lat":43.31328,"lon":5.39702,"is_reserved":false,"is_disabled":false,"rental_uris":{"android":"levelo://app?vid=a2a9a46e-b652-452f-95c5-2d0638f3da28","ios":"levelo://app?vid=a2a9a46e-b652-452f-95c5-2d0638f3da28"},"vehicle_type_id":"4","last_reported":1731136055,"current_range_meters":39200,"station_id":"ce4bgvp2rcd13ifvqcu0","pricing_plan_id":"cebpf4jnsgd1na2vs0mg"},{"bike_id":"9b2d403d-41fb-4096-ad75-f7b830fb6652","system_id":"levelo_inurba_marseille","lat":43.29809,"lon":5.38106,"is_reserved":false,"is_disabled":false,"rental_uris":{"android":"levelo://app?vid=9b2d403d-41fb-4096-ad75-f7b830fb6652","ios":"levelo://app?vid=9b2d403d-41fb-4096-ad75-f7b830fb6652"},"vehicle_type_id":"4","last_reported":1731136055,"current_range_meters":24800,"station_id":"ce4bgip2rcd13ifvqbb0","pricing_plan_id":"cebpf4jnsgd1na2vs0mg"},{"bike_id":"02e7978e-c403-4489-8507-e4b88389ba95","system_id":"levelo_inurba_marseille","lat":43.30181,"lon":5.36614,"is_reserved":false,"is_disabled":false,"rental_uris":{"android":"levelo://app?vid=02e7978e-c403-4489-8507-e4b88389ba95","ios":"levelo://app?vid=02e7978e-c403-4489-8507-e4b88389ba95"},"vehicle_type_id":"4","last_reported":1731136055,"current_range_meters":13600,"station_id":"ce4bgrh2rcd13ifvqc8g","pricing_plan_id":"cebpf4jnsgd1na2vs0mg"},{"bike_id":"bf6835fc-2f44-40d1-aea2-df512b935276","system_id":"levelo_inurba_marseille","lat":43.2621,"lon":5.3744,"is_reserved":false,"is_disabled":false,"rental_uris":{"android":"levelo://app?vid=bf6835fc-2f44-40d1-aea2-df512b935276","ios":"levelo://app?vid=bf6835fc-2f44-40d1-aea2-df512b935276"},"vehicle_type_id":"4","last_reported":1731136055,"current_range_meters":17200,"station_id":"ce4bhgp2rcd13ifvqfc0","pricing_plan_id":"cebpf4jnsgd1na2vs0mg"},{"bike_id":"f94bdcbe-9a46-4c5f-879c-d5fc8c43084c","system_id":"levelo_inurba_marseille","lat":43.330267,"lon":5.39036,"is_reserved":false,"is_disabled":false,"rental_uris":{"android":"levelo://app?vid=f94bdcbe-9a46-4c5f-879c-d5fc8c43084c","ios":"levelo://app?vid=f94bdcbe-9a46-4c5f-879c-d5fc8c43084c"},"vehicle_type_id":"4","last_reported":1731136055,"current_range_meters":37600,"station_id":"ce4bhr92rcd13ifvqhrg","pricing_plan_id":"cebpf4jnsgd1na2vs0mg"},{"bike_id":"e53a6bce-80e4-4761-a3bc-9feee3c8cf84","system_id":"levelo_inurba_marseille","lat":43.29098,"lon":5.38113,"is_reserved":false,"is_disabled":false,"rental_uris":{"android":"levelo://app?vid=e53a6bce-80e4-4761-a3bc-9feee3c8cf84","ios":"levelo://app?vid=e53a6bce-80e4-4761-a3bc-9feee3c8cf84"},"vehicle_type_id":"4","last_reported":1731136055,"current_range_meters":38000,"station_id":"ce4bh512rcd13ifvqe2g","pricing_plan_id":"cebpf4jnsgd1na2vs0mg"},{"bike_id":"ae0c29bf-c7f0-480e-9829-9eff05ac2f9b","system_id":"levelo_inurba_marseille","lat":43.25104,"lon":5.40329,"is_reserved":false,"is_disabled":false,"rental_uris":{"android":"levelo://app?vid=ae0c29bf-c7f0-480e-9829-9eff05ac2f9b","ios":"levelo://app?vid=ae0c29bf-c7f0-480e-9829-9eff05ac2f9b"},"vehicle_type_id":"4","last_reported":1731136055,"current_range_meters":30400,"station_id":"ce4bhlh2rcd13ifvqgig","pricing_plan_id":"cebpf4jnsgd1na2vs0mg"},{"bike_id":"d25711f1-63b8-44c2-b28d-f6b1fc0e37f5","system_id":"levelo_inurba_marseille","lat":43.28611,"lon":5.37066,"is_reserved":false,"is_disabled":false,"rental_uris":{"android":"levelo://app?vid=d25711f1-63b8-44c2-b28d-f6b1fc0e37f5","ios":"levelo://app?vid=d25711f1-63b8-44c2-b28d-f6b1fc0e37f5"},"vehicle_type_id":"4","last_reported":1731136055,"current_range_meters":38400,"station_id":"ce4bht12rcd13ifvqi60","pricing_plan_id":"cebpf4jnsgd1na2vs0mg"},{"bike_id":"340ae725-6f84-48a7-ab25-ad128cac57c2","system_id":"levelo_inurba_marseille","lat":43.31499,"lon":5.37305,"is_reserved":false,"is_disabled":false,"rental_uris":{"android":"levelo://app?vid=340ae725-6f84-48a7-ab25-ad128cac57c2","ios":"levelo://app?vid=340ae725-6f84-48a7-ab25-ad128cac57c2"},"vehicle_type_id":"4","last_reported":1731136055,"current_range_meters":39200,"station_id":"ce4bgt12rcd13ifvqcd0","pricing_plan_id":"cebpf4jnsgd1na2vs0mg"},{"bike_id":"a5281f76-05ba-4514-a0b1-45f67845510f","system_id":"levelo_inurba_marseille","lat":43.313253,"lon":5.397002,"is_reserved":false,"is_disabled":false,"rental_uris":{"android":"levelo://app?vid=a5281f76-05ba-4514-a0b1-45f67845510f","ios":"levelo://app?vid=a5281f76-05ba-4514-a0b1-45f67845510f"},"vehicle_type_id":"4","last_reported":1731136055,"current_range_meters":34800,"station_id":"ce4bgvp2rcd13ifvqcu0","pricing_plan_id":"cebpf4jnsgd1na2vs0mg"},{"bike_id":"71684031-bf95-4fd4-bc38-0f4a696a2564","system_id":"levelo_inurba_marseille","lat":43.28464,"lon":5.35878,"is_reserved":false,"is_disabled":false,"rental_uris":{"android":"levelo://app?vid=71684031-bf95-4fd4-bc38-0f4a696a2564","ios":"levelo://app?vid=71684031-bf95-4fd4-bc38-0f4a696a2564"},"vehicle_type_id":"4","last_reported":1731136055,"current_range_meters":38400,"station_id":"ce4bhah2rcd13ifvqei0","pricing_plan_id":"cebpf4jnsgd1na2vs0mg"},{"bike_id":"2a6caaf6-34f1-4e12-8c9d-153fd774cf91","system_id":"levelo_inurba_marseille","lat":43.24806,"lon":5.37453,"is_reserved":false,"is_disabled":false,"rental_uris":{"android":"levelo://app?vid=2a6caaf6-34f1-4e12-8c9d-153fd774cf91","ios":"levelo://app?vid=2a6caaf6-34f1-4e12-8c9d-153fd774cf91"},"vehicle_type_id":"4","last_reported":1731136055,"current_range_meters":28000,"station_id":"ce4bhgh2rcd13ifvqfb0","pricing_plan_id":"cebpf4jnsgd1na2vs0mg"},{"bike_id":"3275280f-1547-4f01-8f57-070777919301","system_id":"levelo_inurba_marseille","lat":43.29879,"lon":5.39735,"is_reserved":false,"is_disabled":false,"rental_uris":{"android":"levelo://app?vid=3275280f-1547-4f01-8f57-070777919301","ios":"levelo://app?vid=3275280f-1547-4f01-8f57-070777919301"},"vehicle_type_id":"4","last_reported":1731136055,"current_range_meters":32000,"station_id":"ce4bh0h2rcd13ifvqd50","pricing_plan_id":"cebpf4jnsgd1na2vs0mg"},{"bike_id":"ae40b393-ef72-4958-ac90-877944b0eec1","system_id":"levelo_inurba_marseille","lat":43.29307,"lon":5.37182,"is_reserved":false,"is_disabled":false,"rental_uris":{"android":"levelo://app?vid=ae40b393-ef72-4958-ac90-877944b0eec1","ios":"levelo://app?vid=ae40b393-ef72-4958-ac90-877944b0eec1"},"vehicle_type_id":"4","last_reported":1731136055,"current_range_meters":29600,"station_id":"ce4bgh92rcd13ifvqb40","pricing_plan_id":"cebpf4jnsgd1na2vs0mg"},{"bike_id":"212db6b5-0672-4e09-9d3e-5becea0e56c2","system_id":"levelo_inurba_marseille","lat":43.32662,"lon":5.4099,"is_reserved":false,"is_disabled":false,"rental_uris":{"android":"levelo://app?vid=212db6b5-0672-4e09-9d3e-5becea0e56c2","ios":"levelo://app?vid=212db6b5-0672-4e09-9d3e-5becea0e56c2"},"vehicle_type_id":"4","last_reported":1731136055,"current_range_meters":38000,"station_id":"ce4bhpp2rcd13ifvqhgg","pricing_plan_id":"cebpf4jnsgd1na2vs0mg"},{"bike_id":"81d1e180-d523-4ef7-ae98-f9077f858825","system_id":"levelo_inurba_marseille","lat":43.2467,"lon":5.38155,"is_reserved":false,"is_disabled":false,"rental_uris":{"android":"levelo://app?vid=81d1e180-d523-4ef7-ae98-f9077f858825","ios":"levelo://app?vid=81d1e180-d523-4ef7-ae98-f9077f858825"},"vehicle_type_id":"4","last_reported":1731136055,"current_range_meters":7200,"station_id":"ce4bhih2rcd13ifvqfr0","pricing_plan_id":"cebpf4jnsgd1na2vs0mg"},{"bike_id":"69031755-3dc6-4e5b-815f-bde22843852a","system_id":"levelo_inurba_marseille","lat":43.30781,"lon":5.37658,"is_reserved":false,"is_disabled":false,"rental_uris":{"android":"levelo://app?vid=69031755-3dc6-4e5b-815f-bde22843852a","ios":"levelo://app?vid=69031755-3dc6-4e5b-815f-bde22843852a"},"vehicle_type_id":"4","last_reported":1731136055,"current_range_meters":38800,"station_id":"ce4bgv92rcd13ifvqcq0","pricing_plan_id":"cebpf4jnsgd1na2vs0mg"},{"bike_id":"35dde5e6-86e4-4508-8edb-ab7330bb801c","system_id":"levelo_inurba_marseille","lat":43.2508,"lon":5.39523,"is_reserved":false,"is_disabled":false,"rental_uris":{"android":"levelo://app?vid=35dde5e6-86e4-4508-8edb-ab7330bb801c","ios":"levelo://app?vid=35dde5e6-86e4-4508-8edb-ab7330bb801c"},"vehicle_type_id":"4","last_reported":1731136055,"current_range_meters":38800,"station_id":"ce4bhm12rcd13ifvqgkg","pricing_plan_id":"cebpf4jnsgd1na2vs0mg"},{"bike_id":"ff989801-f59b-46d1-867b-7c2b6eab1cca","system_id":"levelo_inurba_marseille","lat":43.337444,"lon":5.374475,"is_reserved":false,"is_disabled":false,"rental_uris":{"android":"levelo://app?vid=ff989801-f59b-46d1-867b-7c2b6eab1cca","ios":"levelo://app?vid=ff989801-f59b-46d1-867b-7c2b6eab1cca"},"vehicle_type_id":"4","last_reported":1731136055,"current_range_meters":34800,"station_id":"","pricing_plan_id":"cebpf4jnsgd1na2vs0mg"},{"bike_id":"09744509-3cc6-40b0-ae0d-dfe064ebadda","system_id":"levelo_inurba_marseille","lat":43.24671,"lon":5.38156,"is_reserved":false,"is_disabled":false,"rental_uris":{"android":"levelo://app?vid=09744509-3cc6-40b0-ae0d-dfe064ebadda","ios":"levelo://app?vid=09744509-3cc6-40b0-ae0d-dfe064ebadda"},"vehicle_type_id":"4","last_reported":1731136055,"current_range_meters":24400,"station_id":"ce4bhih2rcd13ifvqfr0","pricing_plan_id":"cebpf4jnsgd1na2vs0mg"},{"bike_id":"5c19d456-298c-4a20-9f50-0620b9fcbeb9","system_id":"levelo_inurba_marseille","lat":43.31362,"lon":5.38488,"is_reserved":false,"is_disabled":false,"rental_uris":{"android":"levelo://app?vid=5c19d456-298c-4a20-9f50-0620b9fcbeb9","ios":"levelo://app?vid=5c19d456-298c-4a20-9f50-0620b9fcbeb9"},"vehicle_type_id":"4","last_reported":1731136055,"current_range_meters":8800,"station_id":"ce4bgt92rcd13ifvqcf0","pricing_plan_id":"cebpf4jnsgd1na2vs0mg"},{"bike_id":"7a028137-2c10-4b28-a4b7-39b6416508f0","system_id":"levelo_inurba_marseille","lat":43.2315,"lon":5.43719,"is_reserved":false,"is_disabled":false,"rental_uris":{"android":"levelo://app?vid=7a028137-2c10-4b28-a4b7-39b6416508f0","ios":"levelo://app?vid=7a028137-2c10-4b28-a4b7-39b6416508f0"},"vehicle_type_id":"4","last_reported":1731136055,"current_range_meters":39200,"station_id":"ce4bhmp2rcd13ifvqgog","pricing_plan_id":"cebpf4jnsgd1na2vs0mg"},{"bike_id":"885b5824-667c-46f8-a1ab-93e379bbf186","system_id":"levelo_inurba_marseille","lat":43.2737,"lon":5.36259,"is_reserved":false,"is_disabled":false,"rental_uris":{"android":"levelo://app?vid=885b5824-667c-46f8-a1ab-93e379bbf186","ios":"levelo://app?vid=885b5824-667c-46f8-a1ab-93e379bbf186"},"vehicle_type_id":"4","last_reported":1731136055,"current_range_meters":24400,"station_id":"ce4bhbh2rcd13ifvqeo0","pricing_plan_id":"cebpf4jnsgd1na2vs0mg"},{"bike_id":"e26b838c-15be-4b82-8d62-590850e3fe40","system_id":"levelo_inurba_marseille","lat":43.28713,"lon":5.3999,"is_reserved":false,"is_disabled":false,"rental_uris":{"android":"levelo://app?vid=e26b838c-15be-4b82-8d62-590850e3fe40","ios":"levelo://app?vid=e26b838c-15be-4b82-8d62-590850e3fe40"},"vehicle_type_id":"4","last_reported":1731136055,"current_range_meters":34000,"station_id":"ce4bho92rcd13ifvqh3g","pricing_plan_id":"cebpf4jnsgd1na2vs0mg"},{"bike_id":"d02b68f3-b750-4589-b9b1-f3bc7cf6b1d6","system_id":"levelo_inurba_marseille","lat":43.3248,"lon":5.36559,"is_reserved":false,"is_disabled":false,"rental_uris":{"android":"levelo://app?vid=d02b68f3-b750-4589-b9b1-f3bc7cf6b1d6","ios":"levelo://app?vid=d02b68f3-b750-4589-b9b1-f3bc7cf6b1d6"},"vehicle_type_id":"4","last_reported":1731136055,"current_range_meters":39200,"station_id":"ce4bhs12rcd13ifvqhvg","pricing_plan_id":"cebpf4jnsgd1na2vs0mg"},{"bike_id":"69d38419-f915-4ada-a460-f28c05bf4ad2","system_id":"levelo_inurba_marseille","lat":43.27061,"lon":5.42269,"is_reserved":false,"is_disabled":false,"rental_uris":{"android":"levelo://app?vid=69d38419-f915-4ada-a460-f28c05bf4ad2","ios":"levelo://app?vid=69d38419-f915-4ada-a460-f28c05bf4ad2"},"vehicle_type_id":"4","last_reported":1731136055,"current_range_meters":39200,"station_id":"ce4bhk92rcd13ifvqgb0","pricing_plan_id":"cebpf4jnsgd1na2vs0mg"},{"bike_id":"d115c69c-dc61-4019-86ca-8f3ef1285cfb","system_id":"levelo_inurba_marseille","lat":43.22932,"lon":5.35373,"is_reserved":false,"is_disabled":false,"rental_uris":{"android":"levelo://app?vid=d115c69c-dc61-4019-86ca-8f3ef1285cfb","ios":"levelo://app?vid=d115c69c-dc61-4019-86ca-8f3ef1285cfb"},"vehicle_type_id":"4","last_reported":1731136055,"current_range_meters":33600,"station_id":"cpo3532slgdg3j2ikp40","pricing_plan_id":"cebpf4jnsgd1na2vs0mg"},{"bike_id":"1843914f-a536-46a6-bf98-e168143a7c78","system_id":"levelo_inurba_marseille","lat":43.25577,"lon":5.38238,"is_reserved":false,"is_disabled":false,"rental_uris":{"android":"levelo://app?vid=1843914f-a536-46a6-bf98-e168143a7c78","ios":"levelo://app?vid=1843914f-a536-46a6-bf98-e168143a7c78"},"vehicle_type_id":"4","last_reported":1731136055,"current_range_meters":8800,"station_id":"ce4bhih2rcd13ifvqfs0","pricing_plan_id":"cebpf4jnsgd1na2vs0mg"},{"bike_id":"7643d5f6-1000-4e84-ae3f-2ac4dc6b4fcd","system_id":"levelo_inurba_marseille","lat":43.24077,"lon":5.37761,"is_reserved":false,"is_disabled":false,"rental_uris":{"android":"levelo://app?vid=7643d5f6-1000-4e84-ae3f-2ac4dc6b4fcd","ios":"levelo://app?vid=7643d5f6-1000-4e84-ae3f-2ac4dc6b4fcd"},"vehicle_type_id":"4","last_reported":1731136055,"current_range_meters":22400,"station_id":"ce4bhnp2rcd13ifvqgvg","pricing_plan_id":"cebpf4jnsgd1na2vs0mg"},{"bike_id":"be94c940-c56d-4132-af66-fedb762b3e0f","system_id":"levelo_inurba_marseille","lat":43.23189,"lon":5.35562,"is_reserved":false,"is_disabled":false,"rental_uris":{"android":"levelo://app?vid=be94c940-c56d-4132-af66-fedb762b3e0f","ios":"levelo://app?vid=be94c940-c56d-4132-af66-fedb762b3e0f"},"vehicle_type_id":"4","last_reported":1731136055,"current_range_meters":38000,"station_id":"ce4bhu92rcd13ifvqi70","pricing_plan_id":"cebpf4jnsgd1na2vs0mg"},{"bike_id":"6f128ed2-c5a9-48ed-b225-cfecbd485ac3","system_id":"levelo_inurba_marseille","lat":43.29514,"lon":5.37514,"is_reserved":false,"is_disabled":false,"rental_uris":{"android":"levelo://app?vid=6f128ed2-c5a9-48ed-b225-cfecbd485ac3","ios":"levelo://app?vid=6f128ed2-c5a9-48ed-b225-cfecbd485ac3"},"vehicle_type_id":"4","last_reported":1731136055,"current_range_meters":38800,"station_id":"ce4bgkp2rcd13ifvqbmg","pricing_plan_id":"cebpf4jnsgd1na2vs0mg"},{"bike_id":"aaeb4df1-e1ae-4b5c-a43a-de833e8f2be9","system_id":"levelo_inurba_marseille","lat":43.31061,"lon":5.38342,"is_reserved":false,"is_disabled":false,"rental_uris":{"android":"levelo://app?vid=aaeb4df1-e1ae-4b5c-a43a-de833e8f2be9","ios":"levelo://app?vid=aaeb4df1-e1ae-4b5c-a43a-de833e8f2be9"},"vehicle_type_id":"4","last_reported":1731136055,"current_range_meters":38800,"station_id":"ce4bgv92rcd13ifvqcr0","pricing_plan_id":"cebpf4jnsgd1na2vs0mg"},{"bike_id":"db097537-d025-461d-abc5-6132b9522325","system_id":"levelo_inurba_marseille","lat":43.2867,"lon":5.36353,"is_reserved":false,"is_disabled":false,"rental_uris":{"android":"levelo://app?vid=db097537-d025-461d-abc5-6132b9522325","ios":"levelo://app?vid=db097537-d025-461d-abc5-6132b9522325"},"vehicle_type_id":"4","last_reported":1731136055,"current_range_meters":18000,"station_id":"ce4bhah2rcd13ifvqej0","pricing_plan_id":"cebpf4jnsgd1na2vs0mg"},{"bike_id":"498fd80a-f86c-4e40-b868-a3176f971bd4","system_id":"levelo_inurba_marseille","lat":43.29791,"lon":5.38123,"is_reserved":false,"is_disabled":false,"rental_uris":{"android":"levelo://app?vid=498fd80a-f86c-4e40-b868-a3176f971bd4","ios":"levelo://app?vid=498fd80a-f86c-4e40-b868-a3176f971bd4"},"vehicle_type_id":"4","last_reported":1731136055,"current_range_meters":28000,"station_id":"ce4bgip2rcd13ifvqbb0","pricing_plan_id":"cebpf4jnsgd1na2vs0mg"},{"bike_id":"962b1d0f-6e2f-4aa4-b58c-0cd674b50356","system_id":"levelo_inurba_marseille","lat":43.28953,"lon":5.36397,"is_reserved":false,"is_disabled":false,"rental_uris":{"android":"levelo://app?vid=962b1d0f-6e2f-4aa4-b58c-0cd674b50356","ios":"levelo://app?vid=962b1d0f-6e2f-4aa4-b58c-0cd674b50356"},"vehicle_type_id":"4","last_reported":1731136055,"current_range_meters":36400,"station_id":"ce4bhc92rcd13ifvqetg","pricing_plan_id":"cebpf4jnsgd1na2vs0mg"},{"bike_id":"82dba091-c22b-4b8a-af93-f00c295c9217","system_id":"levelo_inurba_marseille","lat":43.265,"lon":5.39546,"is_reserved":false,"is_disabled":false,"rental_uris":{"android":"levelo://app?vid=82dba091-c22b-4b8a-af93-f00c295c9217","ios":"levelo://app?vid=82dba091-c22b-4b8a-af93-f00c295c9217"},"vehicle_type_id":"4","last_reported":1731136055,"current_range_meters":38800,"station_id":"ce4bhi12rcd13ifvqfq0","pricing_plan_id":"cebpf4jnsgd1na2vs0mg"},{"bike_id":"18161476-3e90-402d-9bf3-bdac4fa06550","system_id":"levelo_inurba_marseille","lat":43.29575,"lon":5.39974,"is_reserved":false,"is_disabled":false,"rental_uris":{"android":"levelo://app?vid=18161476-3e90-402d-9bf3-bdac4fa06550","ios":"levelo://app?vid=18161476-3e90-402d-9bf3-bdac4fa06550"},"vehicle_type_id":"4","last_reported":1731136055,"current_range_meters":33600,"station_id":"ce4bh312rcd13ifvqdj0","pricing_plan_id":"cebpf4jnsgd1na2vs0mg"},{"bike_id":"f5c6cd8d-43d2-4824-88ea-c5df80d5e844","system_id":"levelo_inurba_marseille","lat":43.308861,"lon":5.396427,"is_reserved":false,"is_disabled":false,"rental_uris":{"android":"levelo://app?vid=f5c6cd8d-43d2-4824-88ea-c5df80d5e844","ios":"levelo://app?vid=f5c6cd8d-43d2-4824-88ea-c5df80d5e844"},"vehicle_type_id":"4","last_reported":1731136055,"current_range_meters":8400,"station_id":"ce4bh012rcd13ifvqcv0","pricing_plan_id":"cebpf4jnsgd1na2vs0mg"},{"bike_id":"1bcda747-3d21-4894-be77-f48b030c8429","system_id":"levelo_inurba_marseille","lat":43.25719,"lon":5.41111,"is_reserved":false,"is_disabled":false,"rental_uris":{"android":"levelo://app?vid=1bcda747-3d21-4894-be77-f48b030c8429","ios":"levelo://app?vid=1bcda747-3d21-4894-be77-f48b030c8429"},"vehicle_type_id":"4","last_reported":1731136055,"current_range_meters":26800,"station_id":"ce4bhkp2rcd13ifvqgd0","pricing_plan_id":"cebpf4jnsgd1na2vs0mg"},{"bike_id":"a32fbefd-f609-4766-a174-68d036dc44d6","system_id":"levelo_inurba_marseille","lat":43.3133,"lon":5.39698,"is_reserved":false,"is_disabled":false,"rental_uris":{"android":"levelo://app?vid=a32fbefd-f609-4766-a174-68d036dc44d6","ios":"levelo://app?vid=a32fbefd-f609-4766-a174-68d036dc44d6"},"vehicle_type_id":"4","last_reported":1731136055,"current_range_meters":39200,"station_id":"ce4bgvp2rcd13ifvqcu0","pricing_plan_id":"cebpf4jnsgd1na2vs0mg"},