{"last_updated":1745442579,"ttl":60,"version":"2.2","data":{"bikes":[{"bike_id":"3798ef7a-14dc-4c36-b287-33e93ba3f27e","system_id":"levelo_inurba_marseille","lat":43.29425,"lon":5.38611,"is_reserved":false,"is_disabled":true,"rental_uris":{"android":"levelo://app?vid=3798ef7a-14dc-4c36-b287-33e93ba3f27e","ios":"levelo://app?vid=3798ef7a-14dc-4c36-b287-33e93ba3f27e"},"vehicle_type_id":"4","last_reported":1745442579,"current_range_meters":2800,"station_id":"ce4bh2h2rcd13ifvqdh0","pricing_plan_id":"cebpf4jnsgd1na2vs0mg"},{"bike_id":"1a51ffb1-9a79-4bec-9ba5-e3a8a916919c","system_id":"levelo_inurba_marseille","lat":43.283478,"lon":5.381011,"is_reserved":false,"is_disabled":true,"rental_uris":{"android":"levelo://app?vid=1a51ffb1-9a79-4bec-9ba5-e3a8a916919c","ios":"levelo://app?vid=1a51ffb1-9a79-4bec-9ba5-e3a8a916919c"},"vehicle_type_id":"4","last_reported":1745442579,"current_range_meters":2800,"station_id":"ce4bh512rcd13ifvqe3g","pricing_plan_id":"cebpf4jnsgd1na2vs0mg"},{"bike_id":"ae6dd9ab-2e30-4181-993e-6d14ad986f48","system_id":"levelo_inurba_marseille","lat":43.28412,"lon":5.34988,"is_reserved":false,"is_disabled":true,"rental_uris":{"android":"levelo://app?vid=ae6dd9ab-2e30-4181-993e-6d14ad986f48","ios":"levelo://app?vid=ae6dd9ab-2e30-4181-993e-6d14ad986f48"},"vehicle_type_id":"4","last_reported":1745442579,"current_range_meters":2800,"station_id":"ce4bhbh2rcd13ifvqepg","pricing_plan_id":"cebpf4jnsgd1na2vs0mg"},{"bike_id":"a8313e07-fc7d-46da-a852-e2be5019fefd","system_id":"levelo_inurba_marseille","lat":43.289209,"lon":5.384031,"is_reserved":false,"is_disabled":true,"rental_uris":{"android":"levelo://app?vid=a8313e07-fc7d-46da-a852-e2be5019fefd","ios":"levelo://app?vid=a8313e07-fc7d-46da-a852-e2be5019fefd"},"vehicle_type_id":"4","last_reported":1745442579,"current_range_meters":3200,"station_id":"ce4bh612rcd13ifvqe6g","pricing_plan_id":"cebpf4jnsgd1na2vs0mg"},{"bike_id":"a538e75e-ada1-4951-875f-69919feb24a6","system_id":"levelo_inurba_marseille","lat":43.28445,"lon":5.39225,"is_reserved":false,"is_disabled":false,"rental_uris":{"android":"levelo://app?vid=a538e75e-ada1-4951-875f-69919feb24a6","ios":"levelo://app?vid=a538e75e-ada1-4951-875f-69919feb24a6"},"vehicle_type_id":"4","last_reported":1745442579,"current_range_meters":3200,"station_id":"ce4bhoh2rcd13ifvqh5g","pricing_plan_id":"cebpf4jnsgd1na2vs0mg"},{"bike_id":"be8381b3-5347-4f73-ae54-0d265c2e7865","system_id":"levelo_inurba_marseille","lat":43.2953,"lon":5.3854,"is_reserved":false,"is_disabled":false,"rental_uris":{"android":"levelo://app?vid=be8381b3-5347-4f73-ae54-0d265c2e7865","ios":"levelo://app?vid=be8381b3-5347-4f73-ae54-0d265c2e7865"},"vehicle_type_id":"4","last_reported":1745442579,"current_range_meters":3200,"station_id":"ce4bgih2rcd13ifvqba0","pricing_plan_id":"cebpf4jnsgd1na2vs0mg"},{"bike_id":"aa00a492-61d6-4804-a199-fb6575874bd9","system_id":"levelo_inurba_marseille","lat":43.300451,"lon":5.3808,"is_reserved":false,"is_disabled":false,"rental_uris":{"android":"levelo://app?vid=aa00a492-61d6-4804-a199-fb6575874bd9","ios":"levelo://app?vid=aa00a492-61d6-4804-a199-fb6575874bd9"},"vehicle_type_id":"4","last_reported":1745442579,"current_range_meters":3600,"station_id":"ce4bgqh2rcd13ifvqc4g","pricing_plan_id":"cebpf4jnsgd1na2vs0mg"},{"bike_id":"023dc62e-0acd-4e96-932b-01918b80e05f","system_id":"levelo_inurba_marseille","lat":43.30012,"lon":5.38323,"is_reserved":false,"is_disabled":false,"rental_uris":{"android":"levelo://app?vid=023dc62e-0acd-4e96-932b-01918b80e05f","ios":"levelo://app?vid=023dc62e-0acd-4e96-932b-01918b80e05f"},"vehicle_type_id":"4","last_reported":1745442579,"current_range_meters":3600,"station_id":"","pricing_plan_id":"cebpf4jnsgd1na2vs0mg"},{"bike_id":"b5bca6fe-fd14-41a2-bea9-5d149c4ace7f","system_id":"levelo_inurba_marseille","lat":43.29569,"lon":5.39983,"is_reserved":false,"is_disabled":false,"rental_uris":{"android":"levelo://app?vid=b5bca6fe-fd14-41a2-bea9-5d149c4ace7f","ios":"levelo://app?vid=b5bca6fe-fd14-41a2-bea9-5d149c4ace7f"},"vehicle_type_id":"4","last_reported":1745442579,"current_range_meters":4000,"station_id":"ce4bh312rcd13ifvqdj0","pricing_plan_id":"cebpf4jnsgd1na2vs0mg"},{"bike_id":"9c8fc47c-2cc5-44ad-932c-ca2c6a6b92de","system_id":"levelo_inurba_marseille","lat":43.31069,"lon":5.38349,"is_reserved":false,"is_disabled":false,"rental_uris":{"android":"levelo://app?vid=9c8fc47c-2cc5-44ad-932c-ca2c6a6b92de","ios":"levelo://app?vid=9c8fc47c-2cc5-44ad-932c-ca2c6a6b92de"},"vehicle_type_id":"4","last_reported":1745442579,"current_range_meters":4000,"station_id":"ce4bgv92rcd13ifvqcr0","pricing_plan_id":"cebpf4jnsgd1na2vs0mg"},{"bike_id":"cb636101-62f1-4467-a125-1d6c0e1888a1","system_id":"levelo_inurba_marseille","lat":43.27835,"lon":5.40697,"is_reserved":false,"is_disabled":false,"rental_uris":{"android":"levelo://app?vid=cb636101-62f1-4467-a125-1d6c0e1888a1","ios":"levelo://app?vid=cb636101-62f1-4467-a125-1d6c0e1888a1"},"vehicle_type_id":"4","last_reported":1745442579,"current_range_meters":4000,"station_id":"ce4bhnh2rcd13ifvqgtg","pricing_plan_id":"cebpf4jnsgd1na2vs0mg"},{"bike_id":"5a7d4740-b6f4-4c2e-aa32-567fc1362a7c","system_id":"levelo_inurba_marseille","lat":43.30631,"lon":5.40087,"is_reserved":false,"is_disabled":false,"rental_uris":{"android":"levelo://app?vid=5a7d4740-b6f4-4c2e-aa32-567fc1362a7c","ios":"levelo://app?vid=5a7d4740-b6f4-4c2e-aa32-567fc1362a7c"},"vehicle_type_id":"4","last_reported":1745442579,"current_range_meters":4400,"station_id":"ce4bh112rcd13ifvqda0","pricing_plan_id":"cebpf4jnsgd1na2vs0mg"},{"bike_id":"b20d135e-abff-4701-a5ed-ac3e2451c023","system_id":"levelo_inurba_marseille","lat":43.27076,"lon":5.42283,"is_reserved":false,"is_disabled":false,"rental_uris":{"android":"levelo://app?vid=b20d135e-abff-4701-a5ed-ac3e2451c023","ios":"levelo://app?vid=b20d135e-abff-4701-a5ed-ac3e2451c023"},"vehicle_type_id":"4","last_reported":1745442579,"current_range_meters":4400,"station_id":"ce4bhk92rcd13ifvqgb0","pricing_plan_id":"cebpf4jnsgd1na2vs0mg"},{"bike_id":"a660139e-b496-4558-a634-e80ee1695567","system_id":"levelo_inurba_marseille","lat":43.27436,"lon":5.39421,"is_reserved":false,"is_disabled":false,"rental_uris":{"android":"levelo://app?vid=a660139e-b496-4558-a634-e80ee1695567","ios":"levelo://app?vid=a660139e-b496-4558-a634-e80ee1695567"},"vehicle_type_id":"4","last_reported":1745442579,"current_range_meters":4000,"station_id":"ce4bhdp2rcd13ifvqf20","pricing_plan_id":"cebpf4jnsgd1na2vs0mg"},{"bike_id":"53e76e69-542e-498c-be3c-54ee74e28889","system_id":"levelo_inurba_marseille","lat":43.29722,"lon":5.36599,"is_reserved":false,"is_disabled":true,"rental_uris":{"android":"levelo://app?vid=53e76e69-542e-498c-be3c-54ee74e28889","ios":"levelo://app?vid=53e76e69-542e-498c-be3c-54ee74e28889"},"vehicle_type_id":"4","last_reported":1745442579,"current_range_meters":4400,"station_id":"ce4bgn12rcd13ifvqbt0","pricing_plan_id":"cebpf4jnsgd1na2vs0mg"},{"bike_id":"f922ec4d-abe1-48a9-98a3-535fc44e4b0f","system_id":"levelo_inurba_marseille","lat":43.2657,"lon":5.3901,"is_reserved":false,"is_disabled":false,"rental_uris":{"android":"levelo://app?vid=f922ec4d-abe1-48a9-98a3-535fc44e4b0f","ios":"levelo://app?vid=f922ec4d-abe1-48a9-98a3-535fc44e4b0f"},"vehicle_type_id":"4","last_reported":1745442579,"current_range_meters":4800,"station_id":"ce4bhe12rcd13ifvqf30","pricing_plan_id":"cebpf4jnsgd1na2vs0mg"},{"bike_id":"daf7dd61-0a62-4c93-a445-d439705963d4","system_id":"levelo_inurba_marseille","lat":43.29093,"lon":5.38139,"is_reserved":false,"is_disabled":false,"rental_uris":{"android":"levelo://app?vid=daf7dd61-0a62-4c93-a445-d439705963d4","ios":"levelo://app?vid=daf7dd61-0a62-4c93-a445-d439705963d4"},"vehicle_type_id":"4","last_reported":1745442579,"current_range_meters":4800,"station_id":"ce4bh512rcd13ifvqe2g","pricing_plan_id":"cebpf4jnsgd1na2vs0mg"},{"bike_id":"6537e683-497a-4598-8f1d-37287005727b","system_id":"levelo_inurba_marseille","lat":43.291703,"lon":5.371573,"is_reserved":false,"is_disabled":false,"rental_uris":{"android":"levelo://app?vid=6537e683-497a-4598-8f1d-37287005727b","ios":"levelo://app?vid=6537e683-497a-4598-8f1d-37287005727b"},"vehicle_type_id":"4","last_reported":1745442579,"current_range_meters":4400,"station_id":"ce4bhbh2rcd13ifvqeo0","pricing_plan_id":"cebpf4jnsgd1na2vs0mg"},{"bike_id":"a0efe7f5-6c3a-4c1f-8a9a-19fd4fcc277f","system_id":"levelo_inurba_marseille","lat":43.30254,"lon":5.40043,"is_reserved":false,"is_disabled":false,"rental_uris":{"android":"levelo://app?vid=a0efe7f5-6c3a-4c1f-8a9a-19fd4fcc277f","ios":"levelo://app?vid=a0efe7f5-6c3a-4c1f-8a9a-19fd4fcc277f"},"vehicle_type_id":"4","last_reported":1745442579,"current_range_meters":5600,"station_id":"ce4bgvh2rcd13ifvqcs0","pricing_plan_id":"cebpf4jnsgd1na2vs0mg"},{"bike_id":"8d2789be-d356-436f-bee5-111c80e6604e","system_id":"levelo_inurba_marseille","lat":43.24156,"lon":5.36399,"is_reserved":false,"is_disabled":false,"rental_uris":{"android":"levelo://app?vid=8d2789be-d356-436f-bee5-111c80e6604e","ios":"levelo://app?vid=8d2789be-d356-436f-bee5-111c80e6604e"},"vehicle_type_id":"4","last_reported":1745442579,"current_range_meters":5600,"station_id":"cpo36qri1sfpv3e86is0","pricing_plan_id":"cebpf4jnsgd1na2vs0mg"},{"bike_id":"0e956a52-9f1c-4373-9fd9-05b1de4dc5a0","system_id":"levelo_inurba_marseille","lat":43.308828,"lon":5.396492,"is_reserved":false,"is_disabled":true,"rental_uris":{"android":"levelo://app?vid=0e956a52-9f1c-4373-9fd9-05b1de4dc5a0","ios":"levelo://app?vid=0e956a52-9f1c-4373-9fd9-05b1de4dc5a0"},"vehicle_type_id":"4","last_reported":1745442579,"current_range_meters":5600,"station_id":"ce4bh012rcd13ifvqcv0","pricing_plan_id":"cebpf4jnsgd1na2vs0mg"},{"bike_id":"66ad86ce-fc20-4e27-ae09-168f203aa7c0","system_id":"levelo_inurba_marseille","lat":43.29259,"lon":5.40895,"is_reserved":false,"is_disabled":false,"rental_uris":{"android":"levelo://app?vid=66ad86ce-fc20-4e27-ae09-168f203aa7c0","ios":"levelo://app?vid=66ad86ce-fc20-4e27-ae09-168f203aa7c0"},"vehicle_type_id":"4","last_reported":1745442579,"current_range_meters":5600,"station_id":"ce4bh192rcd13ifvqdc0","pricing_plan_id":"cebpf4jnsgd1na2vs0mg"},{"bike_id":"62603431-7ffe-4763-a417-ccc1e93f51e0","system_id":"levelo_inurba_marseille","lat":43.26597,"lon":5.39027,"is_reserved":false,"is_disabled":false,"rental_uris":{"android":"levelo://app?vid=62603431-7ffe-4763-a417-ccc1e93f51e0","ios":"levelo://app?vid=62603431-7ffe-4763-a417-ccc1e93f51e0"},"vehicle_type_id":"4","last_reported":1745442579,"current_range_meters":6000,"station_id":"ce4bhe12rcd13ifvqf30","pricing_plan_id":"cebpf4jnsgd1na2vs0mg"},{"bike_id":"060fab06-8f12-443b-a8f9-435e078daf37","system_id":"levelo_inurba_marseille","lat":43.30794,"lon":5.38153,"is_reserved":false,"is_disabled":false,"rental_uris":{"android":"levelo://app?vid=060fab06-8f12-443b-a8f9-435e078daf37","ios":"levelo://app?vid=060fab06-8f12-443b-a8f9-435e078daf37"},"vehicle_type_id":"4","last_reported":1745442579,"current_range_meters":6000,"station_id":"ce4bgt12rcd13ifvqce0","pricing_plan_id":"cebpf4jnsgd1na2vs0mg"},{"bike_id":"c641fe20-6931-4c71-98db-69c42529360d","system_id":"levelo_inurba_marseille","lat":43.29093,"lon":5.38148,"is_reserved":false,"is_disabled":false,"rental_uris":{"android":"levelo://app?vid=c641fe20-6931-4c71-98db-69c42529360d","ios":"levelo://app?vid=c641fe20-6931-4c71-98db-69c42529360d"},"vehicle_type_id":"4","last_reported":1745442579,"current_range_meters":6000,"station_id":"ce4bh512rcd13ifvqe2g","pricing_plan_id":"cebpf4jnsgd1na2vs0mg"},{"bike_id":"67e80e12-0df0-47a3-a76c-955808049931","system_id":"levelo_inurba_marseille","lat":43.23196,"lon":5.39971,"is_reserved":false,"is_disabled":false,"rental_uris":{"android":"levelo://app?vid=67e80e12-0df0-47a3-a76c-955808049931","ios":"levelo://app?vid=67e80e12-0df0-47a3-a76c-955808049931"},"vehicle_type_id":"4","last_reported":1745442579,"current_range_meters":6400,"station_id":"ce4bhn12rcd13ifvqgqg","pricing_plan_id":"cebpf4jnsgd1na2vs0mg"},{"bike_id":"38fd6ea2-07e0-4e43-8653-d615d91d7350","system_id":"levelo_inurba_marseille","lat":43.29787,"lon":5.39359,"is_reserved":false,"is_disabled":false,"rental_uris":{"android":"levelo://app?vid=38fd6ea2-07e0-4e43-8653-d615d91d7350","ios":"levelo://app?vid=38fd6ea2-07e0-4e43-8653-d615d91d7350"},"vehicle_type_id":"4","last_reported":1745442579,"current_range_meters":6400,"station_id":"chh1huq6cuj3fo74tm60","pricing_plan_id":"cebpf4jnsgd1na2vs0mg"},{"bike_id":"c94e26c1-7575-4802-86ec-0bd6f82482cc","system_id":"levelo_inurba_marseille","lat":43.28629,"lon":5.37016,"is_reserved":false,"is_disabled":false,"rental_uris":{"android":"levelo://app?vid=c94e26c1-7575-4802-86ec-0bd6f82482cc","ios":"levelo://app?vid=c94e26c1-7575-4802-86ec-0bd6f82482cc"},"vehicle_type_id":"4","last_reported":1745442579,"current_range_meters":6400,"station_id":"","pricing_plan_id":"cebpf4jnsgd1na2vs0mg"},{"bike_id":"bbdf6de1-1a4a-4137-864f-aa21238b58db","system_id":"levelo_inurba_marseille","lat":43.267964,"lon":5.402622,"is_reserved":false,"is_disabled":false,"rental_uris":{"android":"levelo://app?vid=bbdf6de1-1a4a-4137-864f-aa21238b58db","ios":"levelo://app?vid=bbdf6de1-1a4a-4137-864f-aa21238b58db"},"vehicle_type_id":"4","last_reported":1745442579,"current_range_meters":6400,"station_id":"ce501612rcd8frsf0b60","pricing_plan_id":"cebpf4jnsgd1na2vs0mg"},{"bike_id":"399d81de-8498-40c8-81df-c145b8d8fb2d","system_id":"levelo_inurba_marseille","lat":43.31055,"lon":5.38345,"is_reserved":false,"is_disabled":false,"rental_uris":{"android":"levelo://app?vid=399d81de-8498-40c8-81df-c145b8d8fb2d","ios":"levelo://app?vid=399d81de-8498-40c8-81df-c145b8d8fb2d"},"vehicle_type_id":"4","last_reported":1745442579,"current_range_meters":6400,"station_id":"ce4bgv92rcd13ifvqcr0","pricing_plan_id":"cebpf4jnsgd1na2vs0mg"},{"bike_id":"e88ac0aa-172e-418f-9134-2e3c247b5863","system_id":"levelo_inurba_marseille","lat":43.23961,"lon":5.36636,"is_reserved":false,"is_disabled":false,"rental_uris":{"android":"levelo://app?vid=e88ac0aa-172e-418f-9134-2e3c247b5863","ios":"levelo://app?vid=e88ac0aa-172e-418f-9134-2e3c247b5863"},"vehicle_type_id":"4","last_reported":1745442579,"current_range_meters":6400,"station_id":"ce4bhi12rcd13ifvqfp0","pricing_plan_id":"cebpf4jnsgd1na2vs0mg"},{"bike_id":"8b1afc83-473d-422a-93b9-a458508b5d78","system_id":"levelo_inurba_marseille","lat":43.296943,"lon":5.376963,"is_reserved":false,"is_disabled":false,"rental_uris":{"android":"levelo://app?vid=8b1afc83-473d-422a-93b9-a458508b5d78","ios":"levelo://app?vid=8b1afc83-473d-422a-93b9-a458508b5d78"},"vehicle_type_id":"4","last_reported":1745442579,"current_range_meters":6400,"station_id":"ce4bgkh2rcd13ifvqbl0","pricing_plan_id":"cebpf4jnsgd1na2vs0mg"},{"bike_id":"8fde8126-0a97-4520-9677-be19291dbce2","system_id":"levelo_inurba_marseille","lat":43.31757,"lon":5.39016,"is_reserved":false,"is_disabled":false,"rental_uris":{"android":"levelo://app?vid=8fde8126-0a97-4520-9677-be19291dbce2","ios":"levelo://app?vid=8fde8126-0a97-4520-9677-be19291dbce2"},"vehicle_type_id":"4","last_reported":1745442579,"current_range_meters":6400,"station_id":"ce4bhqp2rcd13ifvqhng","pricing_plan_id":"cebpf4jnsgd1na2vs0mg"},{"bike_id":"f7889748-d9da-4a0d-a4b5-6ffb90fef077","system_id":"levelo_inurba_marseille","lat":43.31756,"lon":5.39024,"is_reserved":false,"is_disabled":false,"rental_uris":{"android":"levelo://app?vid=f7889748-d9da-4a0d-a4b5-6ffb90fef077","ios":"levelo://app?vid=f7889748-d9da-4a0d-a4b5-6ffb90fef077"},"vehicle_type_id":"4","last_reported":1745442579,"current_range_meters":6800,"station_id":"ce4bhqp2rcd13ifvqhng","pricing_plan_id":"cebpf4jnsgd1na2vs0mg"},{"bike_id":"00b03977-cadd-4a9c-9bd4-37274470a556","system_id":"levelo_inurba_marseille","lat":43.31362,"lon":5.38495,"is_reserved":false,"is_disabled":false,"rental_uris":{"android":"levelo://app?vid=00b03977-cadd-4a9c-9bd4-37274470a556","ios":"levelo://app?vid=00b03977-cadd-4a9c-9bd4-37274470a556"},"vehicle_type_id":"4","last_reported":1745442579,"current_range_meters":6800,"station_id":"ce4bgt92rcd13ifvqcf0","pricing_plan_id":"cebpf4jnsgd1na2vs0mg"},{"bike_id":"e37792a6-f349-4512-8625-113ccd6f5c99","system_id":"levelo_inurba_marseille","lat":43.2799,"lon":5.40027,"is_reserved":false,"is_disabled":true,"rental_uris":{"android":"levelo://app?vid=e37792a6-f349-4512-8625-113ccd6f5c99","ios":"levelo://app?vid=e37792a6-f349-4512-8625-113ccd6f5c99"},"vehicle_type_id":"4","last_reported":1745442579,"current_range_meters":6800,"station_id":"ce4bho92rcd13ifvqh4g","pricing_plan_id":"cebpf4jnsgd1na2vs0mg"},{"bike_id":"76a2d1fc-92f8-43c8-9711-df98ce3080d6","system_id":"levelo_inurba_marseille","lat":43.28698,"lon":5.37401,"is_reserved":false,"is_disabled":false,"rental_uris":{"android":"levelo://app?vid=76a2d1fc-92f8-43c8-9711-df98ce3080d6","ios":"levelo://app?vid=76a2d1fc-92f8-43c8-9711-df98ce3080d6"},"vehicle_type_id":"4","last_reported":1745442579,"current_range_meters":7200,"station_id":"ce4bh3p2rcd13ifvqdq0","pricing_plan_id":"cebpf4jnsgd1na2vs0mg"},{"bike_id":"0e266f08-9679-407a-a623-5dc0454d6058","system_id":"levelo_inurba_marseille","lat":43.30437,"lon":5.38893,"is_reserved":false,"is_disabled":false,"rental_uris":{"android":"levelo://app?vid=0e266f08-9679-407a-a623-5dc0454d6058","ios":"levelo://app?vid=0e266f08-9679-407a-a623-5dc0454d6058"},"vehicle_type_id":"4","last_reported":1745442579,"current_range_meters":7200,"station_id":"ce4bgk12rcd13ifvqbi0","pricing_plan_id":"cebpf4jnsgd1na2vs0mg"},{"bike_id":"0b7a9109-7668-4db4-9724-d01cac3cc1a1","system_id":"levelo_inurba_marseille","lat":43.2919,"lon":5.41,"is_reserved":false,"is_disabled":false,"rental_uris":{"android":"levelo://app?vid=0b7a9109-7668-4db4-9724-d01cac3cc1a1","ios":"levelo://app?vid=0b7a9109-7668-4db4-9724-d01cac3cc1a1"},"vehicle_type_id":"4","last_reported":1745442579,"current_range_meters":7200,"station_id":"","pricing_plan_id":"cebpf4jnsgd1na2vs0mg"},{"bike_id":"c57f642b-1ae5-4a44-94e3-924f21538523","system_id":"levelo_inurba_marseille","lat":43.30892,"lon":5.39645,"is_reserved":false,"is_disabled":false,"rental_uris":{"android":"levelo://app?vid=c57f642b-1ae5-4a44-94e3-924f21538523","ios":"levelo://app?vid=c57f642b-1ae5-4a44-94e3-924f21538523"},"vehicle_type_id":"4","last_reported":1745442579,"current_range_meters":7200,"station_id":"ce4bh012rcd13ifvqcv0","pricing_plan_id":"cebpf4jnsgd1na2vs0mg"},{"bike_id":"0f36c06d-b34a-4b6a-9c76-b87640418fc7","system_id":"levelo_inurba_marseille","lat":43.23098,"lon":5.35476,"is_reserved":false,"is_disabled":false,"rental_uris":{"android":"levelo://app?vid=0f36c06d-b34a-4b6a-9c76-b87640418fc7","ios":"levelo://app?vid=0f36c06d-b34a-4b6a-9c76-b87640418fc7"},"vehicle_type_id":"4","last_reported":1745442579,"current_range_meters":7200,"station_id":"cpo3342slgdg3j2ifvpg","pricing_plan_id":"cebpf4jnsgd1na2vs0mg"},{"bike_id":"3c261630-b1c9-405d-aa5d-2c7d5aaba279","system_id":"levelo_inurba_marseille","lat":43.32342,"lon":5.4061,"is_reserved":false,"is_disabled":false,"rental_uris":{"android":"levelo://app?vid=3c261630-b1c9-405d-aa5d-2c7d5aaba279","ios":"levelo://app?vid=3c261630-b1c9-405d-aa5d-2c7d5aaba279"},"vehicle_type_id":"4","last_reported":1745442579,"current_range_meters":7200,"station_id":"ce4bhq92rcd13ifvqhjg","pricing_plan_id":"cebpf4jnsgd1na2vs0mg"},{"bike_id":"3dd50929-80e8-4861-abf3-0cc06f516279","system_id":"levelo_inurba_marseille","lat":43.24057,"lon":5.37764,"is_reserved":false,"is_disabled":false,"rental_uris":{"android":"levelo://app?vid=3dd50929-80e8-4861-abf3-0cc06f516279","ios":"levelo://app?vid=3dd50929-80e8-4861-abf3-0cc06f516279"},"vehicle_type_id":"4","last_reported":1745442579,"current_range_meters":7200,"station_id":"ce4bhnp2rcd13ifvqgvg","pricing_plan_id":"cebpf4jnsgd1na2vs0mg"},{"bike_id":"2e084519-ee49-419e-abb9-0d7b32653da5","system_id":"levelo_inurba_marseille","lat":43.31318,"lon":5.39698,"is_reserved":false,"is_disabled":false,"rental_uris":{"android":"levelo://app?vid=2e084519-ee49-419e-abb9-0d7b32653da5","ios":"levelo://app?vid=2e084519-ee49-419e-abb9-0d7b32653da5"},"vehicle_type_id":"4","last_reported":1745442579,"current_range_meters":8000,"station_id":"ce4bgvp2rcd13ifvqcu0","pricing_plan_id":"cebpf4jnsgd1na2vs0mg"},{"bike_id":"3413468b-d45b-40a5-b9a9-31b387901996","system_id":"levelo_inurba_marseille","lat":43.28701,"lon":5.39983,"is_reserved":false,"is_disabled":false,"rental_uris":{"android":"levelo://app?vid=3413468b-d45b-40a5-b9a9-31b387901996","ios":"levelo://app?vid=3413468b-d45b-40a5-b9a9-31b387901996"},"vehicle_type_id":"4","last_reported":1745442579,"current_range_meters":8000,"station_id":"ce4bho92rcd13ifvqh3g","pricing_plan_id":"cebpf4jnsgd1na2vs0mg"},{"bike_id":"a6a0354d-3fb8-4f32-b59d-86d948c496d5","system_id":"levelo_inurba_marseille","lat":43.24801,"lon":5.37455,"is_reserved":false,"is_disabled":false,"rental_uris":{"android":"levelo://app?vid=a6a0354d-3fb8-4f32-b59d-86d948c496d5","ios":"levelo://app?vid=a6a0354d-3fb8-4f32-b59d-86d948c496d5"},"vehicle_type_id":"4","last_reported":1745442579,"current_range_meters":8000,"station_id":"ce4bhgh2rcd13ifvqfb0","pricing_plan_id":"cebpf4jnsgd1na2vs0mg"},{"bike_id":"a6396049-e670-46ca-a0d3-e047a856fce6","system_id":"levelo_inurba_marseille","lat":43.32286,"lon":5.38266,"is_reserved":false,"is_disabled":false,"rental_uris":{"android":"levelo://app?vid=a6396049-e670-46ca-a0d3-e047a856fce6","ios":"levelo://app?vid=a6396049-e670-46ca-a0d3-e047a856fce6"},"vehicle_type_id":"4","last_reported":1745442579,"current_range_meters":8000,"station_id":"ce4bgl92rcd13ifvqbq0","pricing_plan_id":"cebpf4jnsgd1na2vs0mg"},{"bike_id":"80066cef-5d64-4a49-9561-7e2ce806f875","system_id":"levelo_inurba_marseille","lat":43.3137,"lon":5.38497,"is_reserved":false,"is_disabled":false,"rental_uris":{"android":"levelo://app?vid=80066cef-5d64-4a49-9561-7e2ce806f875","ios":"levelo://app?vid=80066cef-5d64-4a49-9561-7e2ce806f875"},"vehicle_type_id":"4","last_reported":1745442579,"current_range_meters":8000,"station_id":"ce4bgt92rcd13ifvqcf0","pricing_plan_id":"cebpf4jnsgd1na2vs0mg"},{"bike_id":"49c0f902-eac7-4a79-adf0-d142aff51e11","system_id":"levelo_inurba_marseille","lat":43.24169,"lon":5.36396,"is_reserved":false,"is_disabled":false,"rental_uris":{"android":"levelo://app?vid=49c0f902-eac7-4a79-adf0-d142aff51e11","ios":"levelo://app?vid=49c0f902-eac7-4a79-adf0-d142aff51e11"},"vehicle_type_id":"4","last_reported":1745442579,"current_range_meters":8000,"station_id":"cpo36qri1sfpv3e86is0","pricing_plan_id":"cebpf4jnsgd1na2vs0mg"},{"bike_id":"009ef8fd-65f7-40c3-90d3-7dca1597284b","system_id":"levelo_inurba_marseille","lat":43.31168,"lon":5.38714,"is_reserved":false,"is_disabled":false,"rental_uris":{"android":"levelo://app?vid=009ef8fd-65f7-40c3-90d3-7dca1597284b","ios":"levelo://app?vid=009ef8fd-65f7-40c3-90d3-7dca1597284b"},"vehicle_type_id":"4","last_reported":1745442579,"current_range_meters":8400,"station_id":"ce4bgv12rcd13ifvqcp0","pricing_plan_id":"cebpf4jnsgd1na2vs0mg"},{"bike_id":"93dcb0c2-3d8d-42dd-8355-d01251b8dd6b","system_id":"levelo_inurba_marseille","lat":43.26537,"lon":5.39053,"is_reserved":false,"is_disabled":false,"rental_uris":{"android":"levelo://app?vid=93dcb0c2-3d8d-42dd-8355-d01251b8dd6b","ios":"levelo://app?vid=93dcb0c2-3d8d-42dd-8355-d01251b8dd6b"},"vehicle_type_id":"4","last_reported":1745442579,"current_range_meters":8400,"station_id":"ce4bhe12rcd13ifvqf30","pricing_plan_id":"cebpf4jnsgd1na2vs0mg"},{"bike_id":"e092d2c6-9331-413a-a949-8b39c9d69051","system_id":"levelo_inurba_marseille","lat":43.29516,"lon":5.37507,"is_reserved":false,"is_disabled":false,"rental_uris":{"android":"levelo://app?vid=e092d2c6-9331-413a-a949-8b39c9d69051","ios":"levelo://app?vid=e092d2c6-9331-413a-a949-8b39c9d69051"},"vehicle_type_id":"4","last_reported":1745442579,"current_range_meters":8000,"station_id":"ce4bgkp2rcd13ifvqbmg","pricing_plan_id":"cebpf4jnsgd1na2vs0mg"},{"bike_id":"9e413059-7cf1-4bcb-94d0-d441a1bc78ba","system_id":"levelo_inurba_marseille","lat":43.28697,"lon":5.37398,"is_reserved":false,"is_disabled":false,"rental_uris":{"android":"levelo://app?vid=9e413059-7cf1-4bcb-94d0-d441a1bc78ba","ios":"levelo://app?vid=9e413059-7cf1-4bcb-94d0-d441a1bc78ba"},"vehicle_type_id":"4","last_reported":1745442579,"current_range_meters":8400,"station_id":"ce4bh3p2rcd13ifvqdq0","pricing_plan_id":"cebpf4jnsgd1na2vs0mg"},{"bike_id":"b5937484-6cf8-47d6-aa9f-590a6cb6bc39","system_id":"levelo_inurba_marseille","lat":43.30251,"lon":5.40069,"is_reserved":false,"is_disabled":false,"rental_uris":{"android":"levelo://app?vid=b5937484-6cf8-47d6-aa9f-590a6cb6bc39","ios":"levelo://app?vid=b5937484-6cf8-47d6-aa9f-590a6cb6bc39"},"vehicle_type_id":"4","last_reported":1745442579,"current_range_meters":8400,"station_id":"ce4bgvh2rcd13ifvqcs0","pricing_plan_id":"cebpf4jnsgd1na2vs0mg"},{"bike_id":"c2af1cc3-8c6b-4f7b-a9e5-deaee2e35eee","system_id":"levelo_inurba_marseille","lat":43.31069,"lon":5.38352,"is_reserved":false,"is_disabled":false,"rental_uris":{"android":"levelo://app?vid=c2af1cc3-8c6b-4f7b-a9e5-deaee2e35eee","ios":"levelo://app?vid=c2af1cc3-8c6b-4f7b-a9e5-deaee2e35eee"},"vehicle_type_id":"4","last_reported":1745442579,"current_range_meters":8800,"station_id":"ce4bgv92rcd13ifvqcr0","pricing_plan_id":"cebpf4jnsgd1na2vs0mg"},{"bike_id":"2444db48-73b9-4f67-9dc6-6e8bcceff093","system_id":"levelo_inurba_marseille","lat":43.29815,"lon":5.38131,"is_reserved":false,"is_disabled":true,"rental_uris":{"android":"levelo://app?vid=2444db48-73b9-4f67-9dc6-6e8bcceff093","ios":"levelo://app?vid=2444db48-73b9-4f67-9dc6-6e8bcceff093"},"vehicle_type_id":"4","last_reported":1745442579,"current_range_meters":8800,"station_id":"ce4bgip2rcd13ifvqbb0","pricing_plan_id":"cebpf4jnsgd1na2vs0mg"},{"bike_id":"7affd995-e96b-402e-86ac-a786554a4a0f","system_id":"levelo_inurba_marseille","lat":43.30784,"lon":5.37654,"is_reserved":false,"is_disabled":false,"rental_uris":{"android":"levelo://app?vid=7affd995-e96b-402e-86ac-a786554a4a0f","ios":"levelo://app?vid=7affd995-e96b-402e-86ac-a786554a4a0f"},"vehicle_type_id":"4","last_reported":1745442579,"current_range_meters":8800,"station_id":"ce4bgv92rcd13ifvqcq0","pricing_plan_id":"cebpf4jnsgd1na2vs0mg"},{"bike_id":"c11b8e6c-53f6-4b89-8bb3-db13714c5b10","system_id":"levelo_inurba_marseille","lat":43.28944,"lon":5.3662,"is_reserved":false,"is_disabled":false,"rental_uris":{"android":"levelo://app?vid=c11b8e6c-53f6-4b89-8bb3-db13714c5b10","ios":"levelo://app?vid=c11b8e6c-53f6-4b89-8bb3-db13714c5b10"},"vehicle_type_id":"4","last_reported":1745442579,"current_range_meters":8800,"station_id":"ce4bhap2rcd13ifvqek0","pricing_plan_id":"cebpf4jnsgd1na2vs0mg"},{"bike_id":"df8cbdb4-caf4-4e34-81d6-19e2a033682a","system_id":"levelo_inurba_marseille","lat":43.303128,"lon":5.368936,"is_reserved":false,"is_disabled":false,"rental_uris":{"android":"levelo://app?vid=df8cbdb4-caf4-4e34-81d6-19e2a033682a","ios":"levelo://app?vid=df8cbdb4-caf4-4e34-81d6-19e2a033682a"},"vehicle_type_id":"4","last_reported":1745442579,"current_range_meters":8800,"station_id":"ce4bgqh2rcd13ifvqc5g","pricing_plan_id":"cebpf4jnsgd1na2vs0mg"},{"bike_id":"fbb6be43-75ac-4697-af84-df6581464ee0","system_id":"levelo_inurba_marseille","lat":43.23968,"lon":5.36636,"is_reserved":false,"is_disabled":false,"rental_uris":{"android":"levelo://app?vid=fbb6be43-75ac-4697-af84-df6581464ee0","ios":"levelo://app?vid=fbb6be43-75ac-4697-af84-df6581464ee0"},"vehicle_type_id":"4","last_reported":1745442579,"current_range_meters":8800,"station_id":"ce4bhi12rcd13ifvqfp0","pricing_plan_id":"cebpf4jnsgd1na2vs0mg"},{"bike_id":"c52f77ae-077c-414b-9907-e819fbb6cccb","system_id":"levelo_inurba_marseille","lat":43.28957,"lon":5.36647,"is_reserved":false,"is_disabled":false,"rental_uris":{"android":"levelo://app?vid=c52f77ae-077c-414b-9907-e819fbb6cccb","ios":"levelo://app?vid=c52f77ae-077c-414b-9907-e819fbb6cccb"},"vehicle_type_id":"4","last_reported":1745442579,"current_range_meters":9200,"station_id":"ce4bhap2rcd13ifvqek0","pricing_plan_id":"cebpf4jnsgd1na2vs0mg"},{"bike_id":"235f2bae-0a04-4484-8459-9c3ece0a1b2c","system_id":"levelo_inurba_marseille","lat":43.30735,"lon":5.42443,"is_reserved":false,"is_disabled":false,"rental_uris":{"android":"levelo://app?vid=235f2bae-0a04-4484-8459-9c3ece0a1b2c","ios":"levelo://app?vid=235f2bae-0a04-4484-8459-9c3ece0a1b2c"},"vehicle_type_id":"4","last_reported":1745442579,"current_range_meters":9200,"station_id":"st_cvj6ca6bvosntc0bfgr0","pricing_plan_id":"cebpf4jnsgd1na2vs0mg"},{"bike_id":"fc813fd5-9a50-482f-86e8-5f16596b7138","system_id":"levelo_inurba_marseille","lat":43.3029,"lon":5.39228,"is_reserved":false,"is_disabled":false,"rental_uris":{"android":"levelo://app?vid=fc813fd5-9a50-482f-86e8-5f16596b7138","ios":"levelo://app?vid=fc813fd5-9a50-482f-86e8-5f16596b7138"},"vehicle_type_id":"4","last_reported":1745442579,"current_range_meters":9200,"station_id":"ce4bgkh2rcd13ifvqbk0","pricing_plan_id":"cebpf4jnsgd1na2vs0mg"},{"bike_id":"24db7984-1359-45eb-baef-06faf93e6ff6","system_id":"levelo_inurba_marseille","lat":43.34683,"lon":5.3454,"is_reserved":false,"is_disabled":false,"rental_uris":{"android":"levelo://app?vid=24db7984-1359-45eb-baef-06faf93e6ff6","ios":"levelo://app?vid=24db7984-1359-45eb-baef-06faf93e6ff6"},"vehicle_type_id":"4","last_reported":1745442579,"current_range_meters":9200,"station_id":"","pricing_plan_id":"cebpf4jnsgd1na2vs0mg"},{"bike_id":"4b5ad419-2a9e-4292-b343-3486796c2a93","system_id":"levelo_inurba_marseille","lat":43.28713,"lon":5.37391,"is_reserved":false,"is_disabled":false,"rental_uris":{"android":"levelo://app?vid=4b5ad419-2a9e-4292-b343-3486796c2a93","ios":"levelo://app?vid=4b5ad419-2a9e-4292-b343-3486796c2a93"},"vehicle_type_id":"4","last_reported":1745442579,"current_range_meters":9200,"station_id":"ce4bh3p2rcd13ifvqdq0","pricing_plan_id":"cebpf4jnsgd1na2vs0mg"},{"bike_id":"805ea2d5-ec08-4b13-ba23-87cc0a37bf03","system_id":"levelo_inurba_marseille","lat":43.24063,"lon":5.37747,"is_reserved":false,"is_disabled":false,"rental_uris":{"android":"levelo://app?vid=805ea2d5-ec08-4b13-ba23-87cc0a37bf03","ios":"levelo://app?vid=805ea2d5-ec08-4b13-ba23-87cc0a37bf03"},"vehicle_type_id":"4","last_reported":1745442579,"current_range_meters":9200,"station_id":"ce4bhnp2rcd13ifvqgvg","pricing_plan_id":"cebpf4jnsgd1na2vs0mg"},{"bike_id":"baf16995-e7d6-40d5-afca-58467ccd3dd8","system_id":"levelo_inurba_marseille","lat":43.27997,"lon":5.40027,"is_reserved":false,"is_disabled":false,"rental_uris":{"android":"levelo://app?vid=baf16995-e7d6-40d5-afca-58467ccd3dd8","ios":"levelo://app?vid=baf16995-e7d6-40d5-afca-58467ccd3dd8"},"vehicle_type_id":"4","last_reported":1745442579,"current_range_meters":9200,"station_id":"ce4bho92rcd13ifvqh4g","pricing_plan_id":"cebpf4jnsgd1na2vs0mg"},{"bike_id":"5bfd0e48-878f-4418-8cfc-1cdb33e22723","system_id":"levelo_inurba_marseille","lat":43.28931,"lon":5.36629,"is_reserved":false,"is_disabled":false,"rental_uris":{"android":"levelo://app?vid=5bfd0e48-878f-4418-8cfc-1cdb33e22723","ios":"levelo://app?vid=5bfd0e48-878f-4418-8cfc-1cdb33e22723"},"vehicle_type_id":"4","last_reported":1745442579,"current_range_meters":9200,"station_id":"ce4bhap2rcd13ifvqek0","pricing_plan_id":"cebpf4jnsgd1na2vs0mg"},{"bike_id":"4cd052ba-32ce-49df-a7f0-6ff1ef572466","system_id":"levelo_inurba_marseille","lat":43.284037,"lon":5.37514,"is_reserved":false,"is_disabled":false,"rental_uris":{"android":"levelo://app?vid=4cd052ba-32ce-49df-a7f0-6ff1ef572466","ios":"levelo://app?vid=4cd052ba-32ce-49df-a7f0-6ff1ef572466"},"vehicle_type_id":"4","last_reported":1745442579,"current_range_meters":9200,"station_id":"ce4bh412rcd13ifvqds0","pricing_plan_id":"cebpf4jnsgd1na2vs0mg"},{"bike_id":"ee6fe346-129a-4352-b7c7-aefa1e451c7a","system_id":"levelo_inurba_marseille","lat":43.30651,"lon":5.40098,"is_reserved":false,"is_disabled":true,"rental_uris":{"android":"levelo://app?vid=ee6fe346-129a-4352-b7c7-aefa1e451c7a","ios":"levelo://app?vid=ee6fe346-129a-4352-b7c7-aefa1e451c7a"},"vehicle_type_id":"4","last_reported":1745442579,"current_range_meters":9600,"station_id":"ce4bh112rcd13ifvqda0","pricing_plan_id":"cebpf4jnsgd1na2vs0mg"},{"bike_id":"6d654830-ff88-4894-b299-9d7aebc9aab6","system_id":"levelo_inurba_marseille","lat":43.30138,"lon":5.39872,"is_reserved":false,"is_disabled":false,"rental_uris":{"android":"levelo://app?vid=6d654830-ff88-4894-b299-9d7aebc9aab6","ios":"levelo://app?vid=6d654830-ff88-4894-b299-9d7aebc9aab6"},"vehicle_type_id":"4","last_reported":1745442579,"current_range_meters":9600,"station_id":"ce4bh0h2rcd13ifvqd40","pricing_plan_id":"cebpf4jnsgd1na2vs0mg"},{"bike_id":"cbd0f7e4-e0e7-4c85-bfb0-0f7fd19ee508","system_id":"levelo_inurba_marseille","lat":43.28456,"lon":5.35891,"is_reserved":false,"is_disabled":false,"rental_uris":{"android":"levelo://app?vid=cbd0f7e4-e0e7-4c85-bfb0-0f7fd19ee508","ios":"levelo://app?vid=cbd0f7e4-e0e7-4c85-bfb0-0f7fd19ee508"},"vehicle_type_id":"4","last_reported":1745442579,"current_range_meters":9600,"station_id":"ce4bhah2rcd13ifvqei0","pricing_plan_id":"cebpf4jnsgd1na2vs0mg"},{"bike_id":"4f5ac7c4-fae3-469d-a49f-999fe327ce77","system_id":"levelo_inurba_marseille","lat":43.32003,"lon":5.38156,"is_reserved":false,"is_disabled":false,"rental_uris":{"android":"levelo://app?vid=4f5ac7c4-fae3-469d-a49f-999fe327ce77","ios":"levelo://app?vid=4f5ac7c4-fae3-469d-a49f-999fe327ce77"},"vehicle_type_id":"4","last_reported":1745442579,"current_range_meters":9600,"station_id":"ce4bhr12rcd13ifvqhpg","pricing_plan_id":"cebpf4jnsgd1na2vs0mg"},{"bike_id":"9ac3ef30-659b-4bfa-be03-8c5d23f92efb","system_id":"levelo_inurba_marseille","lat":43.21749,"lon":5.34602,"is_reserved":false,"is_disabled":false,"rental_uris":{"android":"levelo://app?vid=9ac3ef30-659b-4bfa-be03-8c5d23f92efb","ios":"levelo://app?vid=9ac3ef30-659b-4bfa-be03-8c5d23f92efb"},"vehicle_type_id":"4","last_reported":1745442579,"current_range_meters":9600,"station_id":"st_cvj6r9ubvosntc0bgbag","pricing_plan_id":"cebpf4jnsgd1na2vs0mg"},{"bike_id":"ec350b30-9b32-4c5f-aa22-3a10fc683fe2","system_id":"levelo_inurba_marseille","lat":43.29321,"lon":5.43462,"is_reserved":false,"is_disabled":false,"rental_uris":{"android":"levelo://app?vid=ec350b30-9b32-4c5f-aa22-3a10fc683fe2","ios":"levelo://app?vid=ec350b30-9b32-4c5f-aa22-3a10fc683fe2"},"vehicle_type_id":"4","last_reported":1745442579,"current_range_meters":9600,"station_id":"","pricing_plan_id":"cebpf4jnsgd1na2vs0mg"},{"bike_id":"92c3b340-d069-4f1c-b55b-44c52f19597b","system_id":"levelo_inurba_marseille","lat":43.28262,"lon":5.37817,"is_reserved":false,"is_disabled":false,"rental_uris":{"android":"levelo://app?vid=92c3b340-d069-4f1c-b55b-44c52f19597b","ios":"levelo://app?vid=92c3b340-d069-4f1c-b55b-44c52f19597b"},"vehicle_type_id":"4","last_reported":1745442579,"current_range_meters":10000,"station_id":"","pricing_plan_id":"cebpf4jnsgd1na2vs0mg"},{"bike_id":"71764a72-39e8-424b-ab69-4bbb16d82124","system_id":"levelo_inurba_marseille","lat":43.273132,"lon":5.39083,"is_reserved":false,"is_disabled":false,"rental_uris":{"android":"levelo://app?vid=71764a72-39e8-424b-ab69-4bbb16d82124","ios":"levelo://app?vid=71764a72-39e8-424b-ab69-4bbb16d82124"},"vehicle_type_id":"4","last_reported":1745442579,"current_range_meters":10000,"station_id":"ce4bhb12rcd13ifvqem0","pricing_plan_id":"cebpf4jnsgd1na2vs0mg"},{"bike_id":"7e9d26b8-b748-4e10-b3e2-977d9fd05087","system_id":"levelo_inurba_marseille","lat":43.3236,"lon":5.36763,"is_reserved":false,"is_disabled":false,"rental_uris":{"android":"levelo://app?vid=7e9d26b8-b748-4e10-b3e2-977d9fd05087","ios":"levelo://app?vid=7e9d26b8-b748-4e10-b3e2-977d9fd05087"},"vehicle_type_id":"4","last_reported":1745442579,"current_range_meters":10000,"station_id":"ce4bhsh2rcd13ifvqi2g","pricing_plan_id":"cebpf4jnsgd1na2vs0mg"},{"bike_id":"82bf8d6a-9c38-4a12-ada2-1a23fbe6c3ac","system_id":"levelo_inurba_marseille","lat":43.31072,"lon":5.38824,"is_reserved":false,"is_disabled":false,"rental_uris":{"android":"levelo://app?vid=82bf8d6a-9c38-4a12-ada2-1a23fbe6c3ac","ios":"levelo://app?vid=82bf8d6a-9c38-4a12-ada2-1a23fbe6c3ac"},"vehicle_type_id":"4","last_reported":1745442579,"current_range_meters":10000,"station_id":"","pricing_plan_id":"cebpf4jnsgd1na2vs0mg"},{"bike_id":"fa59651e-01eb-4460-8e87-4fb6164c32ec","system_id":"levelo_inurba_marseille","lat":43.32478,"lon":5.36581,"is_reserved":false,"is_disabled":false,"rental_uris":{"android":"levelo://app?vid=fa59651e-01eb-4460-8e87-4fb6164c32ec","ios":"levelo://app?vid=fa59651e-01eb-4460-8e87-4fb6164c32ec"},"vehicle_type_id":"4","last_reported":1745442579,"current_range_meters":9600,"station_id":"ce4bhs12rcd13ifvqhvg","pricing_plan_id":"cebpf4jnsgd1na2vs0mg"},{"bike_id":"9c325fd4-f154-4a48-857e-569f4cc367f9","system_id":"levelo_inurba_marseille","lat":43.22933,"lon":5.35382,"is_reserved":false,"is_disabled":false,"rental_uris":{"android":"levelo://app?vid=9c325fd4-f154-4a48-857e-569f4cc367f9","ios":"levelo://app?vid=9c325fd4-f154-4a48-857e-569f4cc367f9"},"vehicle_type_id":"4","last_reported":1745442579,"current_range_meters":10000,"station_id":"cpo3532slgdg3j2ikp40","pricing_plan_id":"cebpf4jnsgd1na2vs0mg"},{"bike_id":"4f3b88ec-b5b5-4fb3-b564-862a5011e976","system_id":"levelo_inurba_marseille","lat":43.27944,"lon":5.41047,"is_reserved":false,"is_disabled":false,"rental_uris":{"android":"levelo://app?vid=4f3b88ec-b5b5-4fb3-b564-862a5011e976","ios":"levelo://app?vid=4f3b88ec-b5b5-4fb3-b564-862a5011e976"},"vehicle_type_id":"4","last_reported":1745442579,"current_range_meters":10000,"station_id":"ce4bhnp2rcd13ifvqh0g","pricing_plan_id":"cebpf4jnsgd1na2vs0mg"},{"bike_id":"35e9c653-7104-434b-bce9-8cea4e4b3581","system_id":"levelo_inurba_marseille","lat":43.260317,"lon":5.375491,"is_reserved":false,"is_disabled":false,"rental_uris":{"android":"levelo://app?vid=35e9c653-7104-434b-bce9-8cea4e4b3581","ios":"levelo://app?vid=35e9c653-7104-434b-bce9-8cea4e4b3581"},"vehicle_type_id":"4","last_reported":1745442579,"current_range_meters":10000,"station_id":"ce4bhih2rcd13ifvqfr0","pricing_plan_id":"cebpf4jnsgd1na2vs0mg"},{"bike_id":"d934898e-c6d9-4abd-b101-e6cbe0547766","system_id":"levelo_inurba_marseille","lat":43.29965,"lon":5.37177,"is_reserved":false,"is_disabled":false,"rental_uris":{"android":"levelo://app?vid=d934898e-c6d9-4abd-b101-e6cbe0547766","ios":"levelo://app?vid=d934898e-c6d9-4abd-b101-e6cbe0547766"},"vehicle_type_id":"4","last_reported":1745442579,"current_range_meters":9600,"station_id":"ce4bgr92rcd13ifvqc7g","pricing_plan_id":"cebpf4jnsgd1na2vs0mg"},{"bike_id":"8c7cba96-a3d5-439a-9e64-c18b09dd7aa5","system_id":"levelo_inurba_marseille","lat":43.29554,"lon":5.42286,"is_reserved":false,"is_disabled":false,"rental_uris":{"android":"levelo://app?vid=8c7cba96-a3d5-439a-9e64-c18b09dd7aa5","ios":"levelo://app?vid=8c7cba96-a3d5-439a-9e64-c18b09dd7aa5"},"vehicle_type_id":"4","last_reported":1745442579,"current_range_meters":10000,"station_id":"ce4bhph2rcd13ifvqhdg","pricing_plan_id":"cebpf4jnsgd1na2vs0mg"},{"bike_id":"5cec985c-475e-4a47-afd7-2118745a458f","system_id":"levelo_inurba_marseille","lat":43.2298,"lon":5.35362,"is_reserved":false,"is_disabled":false,"rental_uris":{"android":"levelo://app?vid=5cec985c-475e-4a47-afd7-2118745a458f","ios":"levelo://app?vid=5cec985c-475e-4a47-afd7-2118745a458f"},"vehicle_type_id":"4","last_reported":1745442579,"current_range_meters":10000,"station_id":"cpo3532slgdg3j2ikp40","pricing_plan_id":"cebpf4jnsgd1na2vs0mg"},{"bike_id":"b96d48d5-fc65-423b-9a30-5d2c864e8939","system_id":"levelo_inurba_marseille","lat":43.22504,"lon":5.34783,"is_reserved":false,"is_disabled":false,"rental_uris":{"android":"levelo://app?vid=b96d48d5-fc65-423b-9a30-5d2c864e8939","ios":"levelo://app?vid=b96d48d5-fc65-423b-9a30-5d2c864e8939"},"vehicle_type_id":"4","last_reported":1745442579,"current_range_meters":10800,"station_id":"st_cvj5dfep6f1abm77gieg","pricing_plan_id":"cebpf4jnsgd1na2vs0mg"},{"bike_id":"3a3bedf2-0adb-4d0d-9782-0a51518983df","system_id":"levelo_inurba_marseille","lat":43.28923,"lon":5.38362,"is_reserved":false,"is_disabled":true,"rental_uris":{"android":"levelo://app?vid=3a3bedf2-0adb-4d0d-9782-0a51518983df","ios":"levelo://app?vid=3a3bedf2-0adb-4d0d-9782-0a51518983df"},"vehicle_type_id":"4","last_reported":1745442579,"current_range_meters":10800,"station_id":"ce4bh612rcd13ifvqe6g","pricing_plan_id":"cebpf4jnsgd1na2vs0mg"},{"bike_id":"012b9d59-47c7-4faa-ac0c-d91c09e3e027","system_id":"levelo_inurba_marseille","lat":43.28458,"lon":5.35895,"is_reserved":false,"is_disabled":false,"rental_uris":{"android":"levelo://app?vid=012b9d59-47c7-4faa-ac0c-d91c09e3e027","ios":"levelo://app?vid=012b9d59-47c7-4faa-ac0c-d91c09e3e027"},"vehicle_type_id":"4","last_reported":1745442579,"current_range_meters":10800,"station_id":"ce4bhah2rcd13ifvqei0","pricing_plan_id":"cebpf4jnsgd1na2vs0mg"},{"bike_id":"f01515da-fd6d-4981-9589-c552dba802d4","system_id":"levelo_inurba_marseille","lat":43.27309,"lon":5.39083,"is_reserved":false,"is_disabled":false,"rental_uris":{"android":"levelo://app?vid=f01515da-fd6d-4981-9589-c552dba802d4","ios":"levelo://app?vid=f01515da-fd6d-4981-9589-c552dba802d4"},"vehicle_type_id":"4","last_reported":1745442579,"current_range_meters":10800,"station_id":"ce4bhgp2rcd13ifvqfe0","pricing_plan_id":"cebpf4jnsgd1na2vs0mg"},{"bike_id":"d6a00241-8f25-44db-ac6d-8e84872db2a8","system_id":"levelo_inurba_marseille","lat":43.337147,"lon":5.391888,"is_reserved":false,"is_disabled":false,"rental_uris":{"android":"levelo://app?vid=d6a00241-8f25-44db-ac6d-8e84872db2a8","ios":"levelo://app?vid=d6a00241-8f25-44db-ac6d-8e84872db2a8"},"vehicle_type_id":"4","last_reported":1745442579,"current_range_meters":10800,"station_id":"ce4bhr92rcd13ifvqhsg","pricing_plan_id":"cebpf4jnsgd1na2vs0mg"},{"bike_id":"61034bff-863b-4f17-b306-04653b14a109","system_id":"levelo_inurba_marseille","lat":43.30921,"lon":5.4016,"is_reserved":false,"is_disabled":true,"rental_uris":{"android":"levelo://app?vid=61034bff-863b-4f17-b306-04653b14a109","ios":"levelo://app?vid=61034bff-863b-4f17-b306-04653b14a109"},"vehicle_type_id":"4","last_reported":1745442579,"current_range_meters":10800,"station_id":"ce4bgvp2rcd13ifvqct0","pricing_plan_id":"cebpf4jnsgd1na2vs0mg"},{"bike_id":"abd226a8-d003-4133-b9d2-b7c952b7ead1","system_id":"levelo_inurba_marseille","lat":43.23054,"lon":5.35496,"is_reserved":false,"is_disabled":false,"rental_uris":{"android":"levelo://app?vid=abd226a8-d003-4133-b9d2-b7c952b7ead1","ios":"levelo://app?vid=abd226a8-d003-4133-b9d2-b7c952b7ead1"},"vehicle_type_id":"4","last_reported":1745442579,"current_range_meters":10800,"station_id":"cpo3342slgdg3j2ifvpg","pricing_plan_id":"cebpf4jnsgd1na2vs0mg"},{"bike_id":"00319270-c9e2-4bac-98c2-8ef43845637c","system_id":"levelo_inurba_marseille","lat":43.24389,"lon":5.37061,"is_reserved":false,"is_disabled":false,"rental_uris":{"android":"levelo://app?vid=00319270-c9e2-4bac-98c2-8ef43845637c","ios":"levelo://app?vid=00319270-c9e2-4bac-98c2-8ef43845637c"},"vehicle_type_id":"4","last_reported":1745442579,"current_range_meters":10800,"station_id":"ce4bhhh2rcd13ifvqfk0","pricing_plan_id":"cebpf4jnsgd1na2vs0mg"},{"bike_id":"1ed15132-6d7d-4abe-b136-71017b50be10","system_id":"levelo_inurba_marseille","lat":43.23963,"lon":5.36646,"is_reserved":false,"is_disabled":false,"rental_uris":{"android":"levelo://app?vid=1ed15132-6d7d-4abe-b136-71017b50be10","ios":"levelo://app?vid=1ed15132-6d7d-4abe-b136-71017b50be10"},"vehicle_type_id":"4","last_reported":1745442579,"current_range_meters":11200,"station_id":"ce4bhi12rcd13ifvqfp0","pricing_plan_id":"cebpf4jnsgd1na2vs0mg"},{"bike_id":"c4c2f83b-6d8f-4f39-9a47-7fef5d0f741c","system_id":"levelo_inurba_marseille","lat":43.28614,"lon":5.35104,"is_reserved":false,"is_disabled":false,"rental_uris":{"android":"levelo://app?vid=c4c2f83b-6d8f-4f39-9a47-7fef5d0f741c","ios":"levelo://app?vid=c4c2f83b-6d8f-4f39-9a47-7fef5d0f741c"},"vehicle_type_id":"4","last_reported":1745442579,"current_range_meters":11200,"station_id":"ce4bhch2rcd13ifvqeug","pricing_plan_id":"cebpf4jnsgd1na2vs0mg"},{"bike_id":"395e5fa2-6413-4d1d-9a3e-bf7daba12776","system_id":"levelo_inurba_marseille","lat":43.29883,"lon":5.38908,"is_reserved":false,"is_disabled":false,"rental_uris":{"android":"levelo://app?vid=395e5fa2-6413-4d1d-9a3e-bf7daba12776","ios":"levelo://app?vid=395e5fa2-6413-4d1d-9a3e-bf7daba12776"},"vehicle_type_id":"4","last_reported":1745442579,"current_range_meters":11200,"station_id":"ce4bh392rcd13ifvqdl0","pricing_plan_id":"cebpf4jnsgd1na2vs0mg"},{"bike_id":"8fb44261-49c3-4680-b8bd-36f293c27199","system_id":"levelo_inurba_marseille","lat":43.24062,"lon":5.37759,"is_reserved":false,"is_disabled":false,"rental_uris":{"android":"levelo://app?vid=8fb44261-49c3-4680-b8bd-36f293c27199","ios":"levelo://app?vid=8fb44261-49c3-4680-b8bd-36f293c27199"},"vehicle_type_id":"4","last_reported":1745442579,"current_range_meters":11200,"station_id":"ce4bhnp2rcd13ifvqgvg","pricing_plan_id":"cebpf4jnsgd1na2vs0mg"},{"bike_id":"1b8b7145-49a7-4fe1-96a2-72a1d6e84a54","system_id":"levelo_inurba_marseille","lat":43.23056,"lon":5.35489,"is_reserved":false,"is_disabled":false,"rental_uris":{"android":"levelo://app?vid=1b8b7145-49a7-4fe1-96a2-72a1d6e84a54","ios":"levelo://app?vid=1b8b7145-49a7-4fe1-96a2-72a1d6e84a54"},"vehicle_type_id":"4","last_reported":1745442579,"current_range_meters":11200,"station_id":"cpo3342slgdg3j2ifvpg","pricing_plan_id":"cebpf4jnsgd1na2vs0mg"},{"bike_id":"730c7476-95c4-4e18-a1b3-3a935e74be04","system_id":"levelo_inurba_marseille","lat":43.29026,"lon":5.37553,"is_reserved":false,"is_disabled":true,"rental_uris":{"android":"levelo://app?vid=730c7476-95c4-4e18-a1b3-3a935e74be04","ios":"levelo://app?vid=730c7476-95c4-4e18-a1b3-3a935e74be04"},"vehicle_type_id":"4","last_reported":1745442579,"current_range_meters":11600,"station_id":"ce4bh692rcd13ifvqe90","pricing_plan_id":"cebpf4jnsgd1na2vs0mg"},{"bike_id":"903bba84-01af-4932-9b78-f90ff04e539a","system_id":"levelo_inurba_marseille","lat":43.29023,"lon":5.39966,"is_reserved":false,"is_disabled":false,"rental_uris":{"android":"levelo://app?vid=903bba84-01af-4932-9b78-f90ff04e539a","ios":"levelo://app?vid=903bba84-01af-4932-9b78-f90ff04e539a"},"vehicle_type_id":"4","last_reported":1745442579,"current_range_meters":11600,"station_id":"ce4bh392rcd13ifvqdm0","pricing_plan_id":"cebpf4jnsgd1na2vs0mg"},{"bike_id":"66d3f2a2-5910-443a-9c4a-b4c3a7c14e40","system_id":"levelo_inurba_marseille","lat":43.30017,"lon":5.40945,"is_reserved":false,"is_disabled":false,"rental_uris":{"android":"levelo://app?vid=66d3f2a2-5910-443a-9c4a-b4c3a7c14e40","ios":"levelo://app?vid=66d3f2a2-5910-443a-9c4a-b4c3a7c14e40"},"vehicle_type_id":"4","last_reported":1745442579,"current_range_meters":11600,"station_id":"","pricing_plan_id":"cebpf4jnsgd1na2vs0mg"},{"bike_id":"21b26d76-5e9f-43a8-8803-6a58eacb8fe8","system_id":"levelo_inurba_marseille","lat":43.25829,"lon":5.39439,"is_reserved":false,"is_disabled":false,"rental_uris":{"android":"levelo://app?vid=21b26d76-5e9f-43a8-8803-6a58eacb8fe8","ios":"levelo://app?vid=21b26d76-5e9f-43a8-8803-6a58eacb8fe8"},"vehicle_type_id":"4","last_reported":1745442579,"current_range_meters":11600,"station_id":"ce4bhip2rcd13ifvqft0","pricing_plan_id":"cebpf4jnsgd1na2vs0mg"},{"bike_id":"e80d6036-1913-47ec-a939-60ef7b86907e","system_id":"levelo_inurba_marseille","lat":43.32002,"lon":5.3817,"is_reserved":false,"is_disabled":false,"rental_uris":{"android":"levelo://app?vid=e80d6036-1913-47ec-a939-60ef7b86907e","ios":"levelo://app?vid=e80d6036-1913-47ec-a939-60ef7b86907e"},"vehicle_type_id":"4","last_reported":1745442579,"current_range_meters":11600,"station_id":"ce4bhr12rcd13ifvqhpg","pricing_plan_id":"cebpf4jnsgd1na2vs0mg"},{"bike_id":"796034d5-e2b1-43f5-9852-e4dae40ae6dd","system_id":"levelo_inurba_marseille","lat":43.28693,"lon":5.38682,"is_reserved":false,"is_disabled":false,"rental_uris":{"android":"levelo://app?vid=796034d5-e2b1-43f5-9852-e4dae40ae6dd","ios":"levelo://app?vid=796034d5-e2b1-43f5-9852-e4dae40ae6dd"},"vehicle_type_id":"4","last_reported":1745442579,"current_range_meters":12000,"station_id":"ce4bh492rcd13ifvqdug","pricing_plan_id":"cebpf4jnsgd1na2vs0mg"},{"bike_id":"40fd40df-1c6b-48db-8e42-ae18da08a93c","system_id":"levelo_inurba_marseille","lat":43.30426,"lon":5.38893,"is_reserved":false,"is_disabled":false,"rental_uris":{"android":"levelo://app?vid=40fd40df-1c6b-48db-8e42-ae18da08a93c","ios":"levelo://app?vid=40fd40df-1c6b-48db-8e42-ae18da08a93c"},"vehicle_type_id":"4","last_reported":1745442579,"current_range_meters":11600,"station_id":"ce4bgk12rcd13ifvqbi0","pricing_plan_id":"cebpf4jnsgd1na2vs0mg"},{"bike_id":"e6f3e4ad-958f-47a4-8f7f-a8c75c5becc3","system_id":"levelo_inurba_marseille","lat":43.29531,"lon":5.39382,"is_reserved":false,"is_disabled":false,"rental_uris":{"android":"levelo://app?vid=e6f3e4ad-958f-47a4-8f7f-a8c75c5becc3","ios":"levelo://app?vid=e6f3e4ad-958f-47a4-8f7f-a8c75c5becc3"},"vehicle_type_id":"4","last_reported":1745442579,"current_range_meters":12000,"station_id":"ce4bh292rcd13ifvqdf0","pricing_plan_id":"cebpf4jnsgd1na2vs0mg"},{"bike_id":"527ab9af-1602-4e3b-a3d5-77f5acec1ebf","system_id":"levelo_inurba_marseille","lat":43.26193,"lon":5.37434,"is_reserved":false,"is_disabled":true,"rental_uris":{"android":"levelo://app?vid=527ab9af-1602-4e3b-a3d5-77f5acec1ebf","ios":"levelo://app?vid=527ab9af-1602-4e3b-a3d5-77f5acec1ebf"},"vehicle_type_id":"4","last_reported":1745442579,"current_range_meters":12000,"station_id":"ce4bhgp2rcd13ifvqfc0","pricing_plan_id":"cebpf4jnsgd1na2vs0mg"},{"bike_id":"06f70fa2-10e1-40f8-9eaa-31be156efe58","system_id":"levelo_inurba_marseille","lat":43.29242,"lon":5.40916,"is_reserved":false,"is_disabled":false,"rental_uris":{"android":"levelo://app?vid=06f70fa2-10e1-40f8-9eaa-31be156efe58","ios":"levelo://app?vid=06f70fa2-10e1-40f8-9eaa-31be156efe58"},"vehicle_type_id":"4","last_reported":1745442579,"current_range_meters":12000,"station_id":"ce4bh192rcd13ifvqdc0","pricing_plan_id":"cebpf4jnsgd1na2vs0mg"},{"bike_id":"692fe2f0-2686-40eb-9bd6-8dd6ece1b0e0","system_id":"levelo_inurba_marseille","lat":43.27904,"lon":5.38023,"is_reserved":false,"is_disabled":false,"rental_uris":{"android":"levelo://app?vid=692fe2f0-2686-40eb-9bd6-8dd6ece1b0e0","ios":"levelo://app?vid=692fe2f0-2686-40eb-9bd6-8dd6ece1b0e0"},"vehicle_type_id":"4","last_reported":1745442579,"current_range_meters":12000,"station_id":"ce4bhf92rcd13ifvqf50","pricing_plan_id":"cebpf4jnsgd1na2vs0mg"},{"bike_id":"f4240832-be75-486f-be90-a38ce111aeef","system_id":"levelo_inurba_marseille","lat":43.30788,"lon":5.37657,"is_reserved":false,"is_disabled":false,"rental_uris":{"android":"levelo://app?vid=f4240832-be75-486f-be90-a38ce111aeef","ios":"levelo://app?vid=f4240832-be75-486f-be90-a38ce111aeef"},"vehicle_type_id":"4","last_reported":1745442579,"current_range_meters":12400,"station_id":"ce4bgv92rcd13ifvqcq0","pricing_plan_id":"cebpf4jnsgd1na2vs0mg"},{"bike_id":"dad7fce6-c989-477c-a1e2-e0ed34d8f0d9","system_id":"levelo_inurba_marseille","lat":43.288395,"lon":5.39302,"is_reserved":false,"is_disabled":false,"rental_uris":{"android":"levelo://app?vid=dad7fce6-c989-477c-a1e2-e0ed34d8f0d9","ios":"levelo://app?vid=dad7fce6-c989-477c-a1e2-e0ed34d8f0d9"},"vehicle_type_id":"4","last_reported":1745442579,"current_range_meters":12400,"station_id":"ce4bh2p2rcd13ifvqdi0","pricing_plan_id":"cebpf4jnsgd1na2vs0mg"},{"bike_id":"ff348da7-3114-42bb-b713-67403c3b20f3","system_id":"levelo_inurba_marseille","lat":43.29441,"lon":5.39752,"is_reserved":false,"is_disabled":false,"rental_uris":{"android":"levelo://app?vid=ff348da7-3114-42bb-b713-67403c3b20f3","ios":"levelo://app?vid=ff348da7-3114-42bb-b713-67403c3b20f3"},"vehicle_type_id":"4","last_reported":1745442579,"current_range_meters":12400,"station_id":"ce4bh3h2rcd13ifvqdo0","pricing_plan_id":"cebpf4jnsgd1na2vs0mg"},{"bike_id":"c108b5a3-bd6f-4661-9df9-25d78c45e4f6","system_id":"levelo_inurba_marseille","lat":43.29568,"lon":5.39983,"is_reserved":false,"is_disabled":false,"rental_uris":{"android":"levelo://app?vid=c108b5a3-bd6f-4661-9df9-25d78c45e4f6","ios":"levelo://app?vid=c108b5a3-bd6f-4661-9df9-25d78c45e4f6"},"vehicle_type_id":"4","last_reported":1745442579,"current_range_meters":12400,"station_id":"ce4bh312rcd13ifvqdj0","pricing_plan_id":"cebpf4jnsgd1na2vs0mg"},{"bike_id":"d71e5110-a181-4390-b3db-18202b6a9d1c","system_id":"levelo_inurba_marseille","lat":43.2835,"lon":5.38107,"is_reserved":false,"is_disabled":false,"rental_uris":{"android":"levelo://app?vid=d71e5110-a181-4390-b3db-18202b6a9d1c","ios":"levelo://app?vid=d71e5110-a181-4390-b3db-18202b6a9d1c"},"vehicle_type_id":"4","last_reported":1745442579,"current_range_meters":12400,"station_id":"ce4bh412rcd13ifvqdr0","pricing_plan_id":"cebpf4jnsgd1na2vs0mg"},{"bike_id":"2e021c05-1352-4722-99bf-b8e419ece098","system_id":"levelo_inurba_marseille","lat":43.27171,"lon":5.40994,"is_reserved":false,"is_disabled":false,"rental_uris":{"android":"levelo://app?vid=2e021c05-1352-4722-99bf-b8e419ece098","ios":"levelo://app?vid=2e021c05-1352-4722-99bf-b8e419ece098"},"vehicle_type_id":"4","last_reported":1745442579,"current_range_meters":12400,"station_id":"ce4bhl12rcd13ifvqgf0","pricing_plan_id":"cebpf4jnsgd1na2vs0mg"},{"bike_id":"0edda45e-8d71-4ad4-9f38-945471657b7d","system_id":"levelo_inurba_marseille","lat":43.29026,"lon":5.38123,"is_reserved":false,"is_disabled":false,"rental_uris":{"android":"levelo://app?vid=0edda45e-8d71-4ad4-9f38-945471657b7d","ios":"levelo://app?vid=0edda45e-8d71-4ad4-9f38-945471657b7d"},"vehicle_type_id":"4","last_reported":1745442579,"current_range_meters":13600,"station_id":"ce4bh4p2rcd13ifvqe1g","pricing_plan_id":"cebpf4jnsgd1na2vs0mg"},{"bike_id":"0eb5ca15-c18f-4f35-bdf0-30a9023f61bc","system_id":"levelo_inurba_marseille","lat":43.29532,"lon":5.39034,"is_reserved":false,"is_disabled":false,"rental_uris":{"android":"levelo://app?vid=0eb5ca15-c18f-4f35-bdf0-30a9023f61bc","ios":"levelo://app?vid=0eb5ca15-c18f-4f35-bdf0-30a9023f61bc"},"vehicle_type_id":"4","last_reported":1745442579,"current_range_meters":13600,"station_id":"ce4bh3p2rcd13ifvqdp0","pricing_plan_id":"cebpf4jnsgd1na2vs0mg"},{"bike_id":"d065076b-e6ff-4294-afeb-ba7472f39efe","system_id":"levelo_inurba_marseille","lat":43.28936,"lon":5.36638,"is_reserved":false,"is_disabled":false,"rental_uris":{"android":"levelo://app?vid=d065076b-e6ff-4294-afeb-ba7472f39efe","ios":"levelo://app?vid=d065076b-e6ff-4294-afeb-ba7472f39efe"},"vehicle_type_id":"4","last_reported":1745442579,"current_range_meters":13600,"station_id":"","pricing_plan_id":"cebpf4jnsgd1na2vs0mg"},{"bike_id":"004b1d69-e02f-4230-9e37-a438368f2d35","system_id":"levelo_inurba_marseille","lat":43.28456,"lon":5.39188,"is_reserved":false,"is_disabled":false,"rental_uris":{"android":"levelo://app?vid=004b1d69-e02f-4230-9e37-a438368f2d35","ios":"levelo://app?vid=004b1d69-e02f-4230-9e37-a438368f2d35"},"vehicle_type_id":"4","last_reported":1745442579,"current_range_meters":14000,"station_id":"ce4bhoh2rcd13ifvqh5g","pricing_plan_id":"cebpf4jnsgd1na2vs0mg"},{"bike_id":"7e168725-4d64-4302-a96b-dfc8d5097467","system_id":"levelo_inurba_marseille","lat":43.31192,"lon":5.38705,"is_reserved":false,"is_disabled":false,"rental_uris":{"android":"levelo://app?vid=7e168725-4d64-4302-a96b-dfc8d5097467","ios":"levelo://app?vid=7e168725-4d64-4302-a96b-dfc8d5097467"},"vehicle_type_id":"4","last_reported":1745442579,"current_range_meters":14000,"station_id":"ce4bgv12rcd13ifvqcp0","pricing_plan_id":"cebpf4jnsgd1na2vs0mg"},{"bike_id":"6590828e-60a6-4c06-80e1-9a44bd6f3a16","system_id":"levelo_inurba_marseille","lat":43.3136,"lon":5.38498,"is_reserved":false,"is_disabled":false,"rental_uris":{"android":"levelo://app?vid=6590828e-60a6-4c06-80e1-9a44bd6f3a16","ios":"levelo://app?vid=6590828e-60a6-4c06-80e1-9a44bd6f3a16"},"vehicle_type_id":"4","last_reported":1745442579,"current_range_meters":14400,"station_id":"ce4bgt92rcd13ifvqcf0","pricing_plan_id":"cebpf4jnsgd1na2vs0mg"},{"bike_id":"11ce02ec-5de1-4d28-b35b-b9d2498a4135","system_id":"levelo_inurba_marseille","lat":43.230774,"lon":5.354936,"is_reserved":false,"is_disabled":false,"rental_uris":{"android":"levelo://app?vid=11ce02ec-5de1-4d28-b35b-b9d2498a4135","ios":"levelo://app?vid=11ce02ec-5de1-4d28-b35b-b9d2498a4135"},"vehicle_type_id":"4","last_reported":1745442579,"current_range_meters":14400,"station_id":"cpo3342slgdg3j2ifvpg","pricing_plan_id":"cebpf4jnsgd1na2vs0mg"},{"bike_id":"b84b108c-e779-447a-9c49-522f834fb22a","system_id":"levelo_inurba_marseille","lat":43.30136,"lon":5.37406,"is_reserved":false,"is_disabled":false,"rental_uris":{"android":"levelo://app?vid=b84b108c-e779-447a-9c49-522f834fb22a","ios":"levelo://app?vid=b84b108c-e779-447a-9c49-522f834fb22a"},"vehicle_type_id":"4","last_reported":1745442579,"current_range_meters":14400,"station_id":"ce4bgs92rcd13ifvqcc0","pricing_plan_id":"cebpf4jnsgd1na2vs0mg"},{"bike_id":"30e08c8c-a2b6-45d6-9704-9460af4f4d07","system_id":"levelo_inurba_marseille","lat":43.310802,"lon":5.424301,"is_reserved":false,"is_disabled":false,"rental_uris":{"android":"levelo://app?vid=30e08c8c-a2b6-45d6-9704-9460af4f4d07","ios":"levelo://app?vid=30e08c8c-a2b6-45d6-9704-9460af4f4d07"},"vehicle_type_id":"4","last_reported":1745442579,"current_range_meters":14400,"station_id":"ce4bhp92rcd13ifvqhag","pricing_plan_id":"cebpf4jnsgd1na2vs0mg"},{"bike_id":"5668014d-bf7e-490d-83cd-7221a0fa8610","system_id":"levelo_inurba_marseille","lat":43.2606,"lon":5.39397,"is_reserved":false,"is_disabled":false,"rental_uris":{"android":"levelo://app?vid=5668014d-bf7e-490d-83cd-7221a0fa8610","ios":"levelo://app?vid=5668014d-bf7e-490d-83cd-7221a0fa8610"},"vehicle_type_id":"4","last_reported":1745442579,"current_range_meters":14400,"station_id":"ce4bhh92rcd13ifvqfj0","pricing_plan_id":"cebpf4jnsgd1na2vs0mg"},{"bike_id":"716b8428-36de-4a4e-bede-3f01e8feff4d","system_id":"levelo_inurba_marseille","lat":43.27999,"lon":5.40024,"is_reserved":false,"is_disabled":false,"rental_uris":{"android":"levelo://app?vid=716b8428-36de-4a4e-bede-3f01e8feff4d","ios":"levelo://app?vid=716b8428-36de-4a4e-bede-3f01e8feff4d"},"vehicle_type_id":"4","last_reported":1745442579,"current_range_meters":14800,"station_id":"ce4bho92rcd13ifvqh4g","pricing_plan_id":"cebpf4jnsgd1na2vs0mg"},{"bike_id":"46374c49-3adc-4c5a-8966-e00f056c0d57","system_id":"levelo_inurba_marseille","lat":43.27846,"lon":5.35442,"is_reserved":false,"is_disabled":false,"rental_uris":{"android":"levelo://app?vid=46374c49-3adc-4c5a-8966-e00f056c0d57","ios":"levelo://app?vid=46374c49-3adc-4c5a-8966-e00f056c0d57"},"vehicle_type_id":"4","last_reported":1745442579,"current_range_meters":14800,"station_id":"","pricing_plan_id":"cebpf4jnsgd1na2vs0mg"},{"bike_id":"162104c9-c9c3-41e8-9022-0f16a6a968c6","system_id":"levelo_inurba_marseille","lat":43.32999,"lon":5.39046,"is_reserved":false,"is_disabled":false,"rental_uris":{"android":"levelo://app?vid=162104c9-c9c3-41e8-9022-0f16a6a968c6","ios":"levelo://app?vid=162104c9-c9c3-41e8-9022-0f16a6a968c6"},"vehicle_type_id":"4","last_reported":1745442579,"current_range_meters":14800,"station_id":"ce4bhr92rcd13ifvqhrg","pricing_plan_id":"cebpf4jnsgd1na2vs0mg"},{"bike_id":"67e8a199-4dba-49f6-a52e-d56a236fd36c","system_id":"levelo_inurba_marseille","lat":43.24385,"lon":5.37059,"is_reserved":false,"is_disabled":false,"rental_uris":{"android":"levelo://app?vid=67e8a199-4dba-49f6-a52e-d56a236fd36c","ios":"levelo://app?vid=67e8a199-4dba-49f6-a52e-d56a236fd36c"},"vehicle_type_id":"4","last_reported":1745442579,"current_range_meters":14800,"station_id":"ce4bhhh2rcd13ifvqfk0","pricing_plan_id":"cebpf4jnsgd1na2vs0mg"},{"bike_id":"ffde637e-620f-4195-93c1-70406aa54ff5","system_id":"levelo_inurba_marseille","lat":43.27071,"lon":5.42285,"is_reserved":false,"is_disabled":false,"rental_uris":{"android":"levelo://app?vid=ffde637e-620f-4195-93c1-70406aa54ff5","ios":"levelo://app?vid=ffde637e-620f-4195-93c1-70406aa54ff5"},"vehicle_type_id":"4","last_reported":1745442579,"current_range_meters":14800,"station_id":"ce4bhk92rcd13ifvqgb0","pricing_plan_id":"cebpf4jnsgd1na2vs0mg"},{"bike_id":"a6eda08d-7981-48ea-99e2-19432c5e275c","system_id":"levelo_inurba_marseille","lat":43.29027,"lon":5.38652,"is_reserved":false,"is_disabled":false,"rental_uris":{"android":"levelo://app?vid=a6eda08d-7981-48ea-99e2-19432c5e275c","ios":"levelo://app?vid=a6eda08d-7981-48ea-99e2-19432c5e275c"},"vehicle_type_id":"4","last_reported":1745442579,"current_range_meters":14800,"station_id":"ce4bhf92rcd13ifvqf50","pricing_plan_id":"cebpf4jnsgd1na2vs0mg"},{"bike_id":"eaedb804-0e7c-4c63-a1b3-fcbc9ec36df3","system_id":"levelo_inurba_marseille","lat":43.28678,"lon":5.37395,"is_reserved":false,"is_disabled":false,"rental_uris":{"android":"levelo://app?vid=eaedb804-0e7c-4c63-a1b3-fcbc9ec36df3","ios":"levelo://app?vid=eaedb804-0e7c-4c63-a1b3-fcbc9ec36df3"},"vehicle_type_id":"4","last_reported":1745442579,"current_range_meters":15200,"station_id":"ce4bh3p2rcd13ifvqdq0","pricing_plan_id":"cebpf4jnsgd1na2vs0mg"},{"bike_id":"ffba0ba4-4b22-400f-b823-14c1532b754c","system_id":"levelo_inurba_marseille","lat":43.21755,"lon":5.34598,"is_reserved":false,"is_disabled":false,"rental_uris":{"android":"levelo://app?vid=ffba0ba4-4b22-400f-b823-14c1532b754c","ios":"levelo://app?vid=ffba0ba4-4b22-400f-b823-14c1532b754c"},"vehicle_type_id":"4","last_reported":1745442579,"current_range_meters":16000,"station_id":"","pricing_plan_id":"cebpf4jnsgd1na2vs0mg"},{"bike_id":"45fadc72-ff8f-47a7-ae83-22d992dc0910","system_id":"levelo_inurba_marseille","lat":43.30337,"lon":5.4042,"is_reserved":false,"is_disabled":false,"rental_uris":{"android":"levelo://app?vid=45fadc72-ff8f-47a7-ae83-22d992dc0910","ios":"levelo://app?vid=45fadc72-ff8f-47a7-ae83-22d992dc0910"},"vehicle_type_id":"4","last_reported":1745442579,"current_range_meters":16000,"station_id":"ce4bh012rcd13ifvqd10","pricing_plan_id":"cebpf4jnsgd1na2vs0mg"},{"bike_id":"29c27f6c-b172-4d99-add3-c74bdfc6be20","system_id":"levelo_inurba_marseille","lat":43.33032,"lon":5.39058,"is_reserved":false,"is_disabled":false,"rental_uris":{"android":"levelo://app?vid=29c27f6c-b172-4d99-add3-c74bdfc6be20","ios":"levelo://app?vid=29c27f6c-b172-4d99-add3-c74bdfc6be20"},"vehicle_type_id":"4","last_reported":1745442579,"current_range_meters":16000,"station_id":"ce4bhr92rcd13ifvqhrg","pricing_plan_id":"cebpf4jnsgd1na2vs0mg"},{"bike_id":"bd4f0b28-c324-459c-8482-b4d9162923c5","system_id":"levelo_inurba_marseille","lat":43.28083,"lon":5.37853,"is_reserved":false,"is_disabled":false,"rental_uris":{"android":"levelo://app?vid=bd4f0b28-c324-459c-8482-b4d9162923c5","ios":"levelo://app?vid=bd4f0b28-c324-459c-8482-b4d9162923c5"},"vehicle_type_id":"4","last_reported":1745442579,"current_range_meters":16000,"station_id":"ce4bha12rcd13ifvqee0","pricing_plan_id":"cebpf4jnsgd1na2vs0mg"},{"bike_id":"755abc1a-f797-479c-8e88-5f59f436c9d9","system_id":"levelo_inurba_marseille","lat":43.239622,"lon":5.366248,"is_reserved":false,"is_disabled":true,"rental_uris":{"android":"levelo://app?vid=755abc1a-f797-479c-8e88-5f59f436c9d9","ios":"levelo://app?vid=755abc1a-f797-479c-8e88-5f59f436c9d9"},"vehicle_type_id":"4","last_reported":1745442579,"current_range_meters":16000,"station_id":"ce4bhi12rcd13ifvqfp0","pricing_plan_id":"cebpf4jnsgd1na2vs0mg"},{"bike_id":"4c4334fd-83c9-4afe-b055-16cf90ed58e3","system_id":"levelo_inurba_marseille","lat":43.31323,"lon":5.39707,"is_reserved":false,"is_disabled":false,"rental_uris":{"android":"levelo://app?vid=4c4334fd-83c9-4afe-b055-16cf90ed58e3","ios":"levelo://app?vid=4c4334fd-83c9-4afe-b055-16cf90ed58e3"},"vehicle_type_id":"4","last_reported":1745442579,"current_range_meters":16000,"station_id":"ce4bgvp2rcd13ifvqcu0","pricing_plan_id":"cebpf4jnsgd1na2vs0mg"},{"bike_id":"29b27eb8-5b29-494c-b20a-f027c7d38195","system_id":"levelo_inurba_marseille","lat":43.31324,"lon":5.39702,"is_reserved":false,"is_disabled":false,"rental_uris":{"android":"levelo://app?vid=29b27eb8-5b29-494c-b20a-f027c7d38195","ios":"levelo://app?vid=29b27eb8-5b29-494c-b20a-f027c7d38195"},"vehicle_type_id":"4","last_reported":1745442579,"current_range_meters":16000,"station_id":"ce4bgvp2rcd13ifvqcu0","pricing_plan_id":"cebpf4jnsgd1na2vs0mg"},{"bike_id":"9c3f0281-0921-4b75-a287-6453fbb59048","system_id":"levelo_inurba_marseille","lat":43.30258,"lon":5.40056,"is_reserved":false,"is_disabled":false,"rental_uris":{"android":"levelo://app?vid=9c3f0281-0921-4b75-a287-6453fbb59048","ios":"levelo://app?vid=9c3f0281-0921-4b75-a287-6453fbb59048"},"vehicle_type_id":"4","last_reported":1745442579,"current_range_meters":16000,"station_id":"ce4bgvh2rcd13ifvqcs0","pricing_plan_id":"cebpf4jnsgd1na2vs0mg"},{"bike_id":"305a8662-bc62-4326-b66d-c6d8c543cba5","system_id":"levelo_inurba_marseille","lat":43.31189,"lon":5.3873,"is_reserved":false,"is_disabled":false,"rental_uris":{"android":"levelo://app?vid=305a8662-bc62-4326-b66d-c6d8c543cba5","ios":"levelo://app?vid=305a8662-bc62-4326-b66d-c6d8c543cba5"},"vehicle_type_id":"4","last_reported":1745442579,"current_range_meters":16400,"station_id":"ce4bgv12rcd13ifvqcp0","pricing_plan_id":"cebpf4jnsgd1na2vs0mg"},{"bike_id":"e7ceb111-ad1a-4f31-a96a-46e4b911a670","system_id":"levelo_inurba_marseille","lat":43.31483,"lon":5.37305,"is_reserved":false,"is_disabled":false,"rental_uris":{"android":"levelo://app?vid=e7ceb111-ad1a-4f31-a96a-46e4b911a670","ios":"levelo://app?vid=e7ceb111-ad1a-4f31-a96a-46e4b911a670"},"vehicle_type_id":"4","last_reported":1745442579,"current_range_meters":16400,"station_id":"ce4bgt12rcd13ifvqcd0","pricing_plan_id":"cebpf4jnsgd1na2vs0mg"},{"bike_id":"7d2633a5-2cb0-46eb-8c00-357bd5fadfef","system_id":"levelo_inurba_marseille","lat":43.254889,"lon":5.376445,"is_reserved":false,"is_disabled":true,"rental_uris":{"android":"levelo://app?vid=7d2633a5-2cb0-46eb-8c00-357bd5fadfef","ios":"levelo://app?vid=7d2633a5-2cb0-46eb-8c00-357bd5fadfef"},"vehicle_type_id":"4","last_reported":1745442579,"current_range_meters":16400,"station_id":"ce4bhh12rcd13ifvqff0","pricing_plan_id":"cebpf4jnsgd1na2vs0mg"},{"bike_id":"70f58000-b46f-4dea-9403-90f0fe1a02d2","system_id":"levelo_inurba_marseille","lat":43.287003,"lon":5.373918,"is_reserved":false,"is_disabled":false,"rental_uris":{"android":"levelo://app?vid=70f58000-b46f-4dea-9403-90f0fe1a02d2","ios":"levelo://app?vid=70f58000-b46f-4dea-9403-90f0fe1a02d2"},"vehicle_type_id":"4","last_reported":1745442579,"current_range_meters":16400,"station_id":"ce4bgi12rcd13ifvqb80","pricing_plan_id":"cebpf4jnsgd1na2vs0mg"},{"bike_id":"415b2609-c0ae-472a-aa20-d8c246fb2a5e","system_id":"levelo_inurba_marseille","lat":43.31704,"lon":5.37767,"is_reserved":false,"is_disabled":false,"rental_uris":{"android":"levelo://app?vid=415b2609-c0ae-472a-aa20-d8c246fb2a5e","ios":"levelo://app?vid=415b2609-c0ae-472a-aa20-d8c246fb2a5e"},"vehicle_type_id":"4","last_reported":1745442579,"current_range_meters":16400,"station_id":"ce4bgth2rcd13ifvqch0","pricing_plan_id":"cebpf4jnsgd1na2vs0mg"},{"bike_id":"06dd8ac2-a46a-4aa4-ad9c-eafec922adfd","system_id":"levelo_inurba_marseille","lat":43.33,"lon":5.39022,"is_reserved":false,"is_disabled":false,"rental_uris":{"android":"levelo://app?vid=06dd8ac2-a46a-4aa4-ad9c-eafec922adfd","ios":"levelo://app?vid=06dd8ac2-a46a-4aa4-ad9c-eafec922adfd"},"vehicle_type_id":"4","last_reported":1745442579,"current_range_meters":16400,"station_id":"ce4bhr92rcd13ifvqhrg","pricing_plan_id":"cebpf4jnsgd1na2vs0mg"},{"bike_id":"b15e82a3-109e-455a-b15c-70ffeaef2bcc","system_id":"levelo_inurba_marseille","lat":43.25883,"lon":5.39896,"is_reserved":false,"is_disabled":false,"rental_uris":{"android":"levelo://app?vid=b15e82a3-109e-455a-b15c-70ffeaef2bcc","ios":"levelo://app?vid=b15e82a3-109e-455a-b15c-70ffeaef2bcc"},"vehicle_type_id":"4","last_reported":1745442579,"current_range_meters":16400,"station_id":"ce4bhl92rcd13ifvqghg","pricing_plan_id":"cebpf4jnsgd1na2vs0mg"},{"bike_id":"959fae37-a8da-4300-964b-4bc3926153b7","system_id":"levelo_inurba_marseille","lat":43.31323,"lon":5.39688,"is_reserved":false,"is_disabled":false,"rental_uris":{"android":"levelo://app?vid=959fae37-a8da-4300-964b-4bc3926153b7","ios":"levelo://app?vid=959fae37-a8da-4300-964b-4bc3926153b7"},"vehicle_type_id":"4","last_reported":1745442579,"current_range_meters":16000,"station_id":"ce4bgvp2rcd13ifvqcu0","pricing_plan_id":"cebpf4jnsgd1na2vs0mg"},{"bike_id":"f1620f18-a77b-4ec6-8c1e-7aa28aee8444","system_id":"levelo_inurba_marseille","lat":43.294139,"lon":5.386233,"is_reserved":false,"is_disabled":false,"rental_uris":{"android":"levelo://app?vid=f1620f18-a77b-4ec6-8c1e-7aa28aee8444","ios":"levelo://app?vid=f1620f18-a77b-4ec6-8c1e-7aa28aee8444"},"vehicle_type_id":"4","last_reported":1745442579,"current_range_meters":16400,"station_id":"ce4bhi12rcd13ifvqfp0","pricing_plan_id":"cebpf4jnsgd1na2vs0mg"},{"bike_id":"8d45bee7-bfce-433b-98c1-8f404b9b27b1","system_id":"levelo_inurba_marseille","lat":43.29852,"lon":5.39759,"is_reserved":false,"is_disabled":false,"rental_uris":{"android":"levelo://app?vid=8d45bee7-bfce-433b-98c1-8f404b9b27b1","ios":"levelo://app?vid=8d45bee7-bfce-433b-98c1-8f404b9b27b1"},"vehicle_type_id":"4","last_reported":1745442579,"current_range_meters":16400,"station_id":"ce4bh0h2rcd13ifvqd50","pricing_plan_id":"cebpf4jnsgd1na2vs0mg"},{"bike_id":"15c34700-5ef9-401a-b964-ee215c39fb7e","system_id":"levelo_inurba_marseille","lat":43.24392,"lon":5.37048,"is_reserved":false,"is_disabled":false,"rental_uris":{"android":"levelo://app?vid=15c34700-5ef9-401a-b964-ee215c39fb7e","ios":"levelo://app?vid=15c34700-5ef9-401a-b964-ee215c39fb7e"},"vehicle_type_id":"4","last_reported":1745442579,"current_range_meters":16400,"station_id":"ce4bhhh2rcd13ifvqfk0","pricing_plan_id":"cebpf4jnsgd1na2vs0mg"},{"bike_id":"dfd69b24-961c-414b-a74c-3d3f365a3276","system_id":"levelo_inurba_marseille","lat":43.25812,"lon":5.39442,"is_reserved":false,"is_disabled":false,"rental_uris":{"android":"levelo://app?vid=dfd69b24-961c-414b-a74c-3d3f365a3276","ios":"levelo://app?vid=dfd69b24-961c-414b-a74c-3d3f365a3276"},"vehicle_type_id":"4","last_reported":1745442579,"current_range_meters":16800,"station_id":"ce4bhip2rcd13ifvqft0","pricing_plan_id":"cebpf4jnsgd1na2vs0mg"},{"bike_id":"caef2552-e2e3-41e9-a827-ac546470c0d7","system_id":"levelo_inurba_marseille","lat":43.2314,"lon":5.43716,"is_reserved":false,"is_disabled":false,"rental_uris":{"android":"levelo://app?vid=caef2552-e2e3-41e9-a827-ac546470c0d7","ios":"levelo://app?vid=caef2552-e2e3-41e9-a827-ac546470c0d7"},"vehicle_type_id":"4","last_reported":1745442579,"current_range_meters":16800,"station_id":"ce4bhmp2rcd13ifvqgog","pricing_plan_id":"cebpf4jnsgd1na2vs0mg"},{"bike_id":"41d16cb7-c076-4ba9-8d6c-d69e3ec7a0f0","system_id":"levelo_inurba_marseille","lat":43.28848,"lon":5.39332,"is_reserved":false,"is_disabled":false,"rental_uris":{"android":"levelo://app?vid=41d16cb7-c076-4ba9-8d6c-d69e3ec7a0f0","ios":"levelo://app?vid=41d16cb7-c076-4ba9-8d6c-d69e3ec7a0f0"},"vehicle_type_id":"4","last_reported":1745442579,"current_range_meters":16400,"station_id":"ce4bh2p2rcd13ifvqdi0","pricing_plan_id":"cebpf4jnsgd1na2vs0mg"},{"bike_id":"8ab2ed8d-364c-4252-a36f-2dad9a4f2a15","system_id":"levelo_inurba_marseille","lat":43.23956,"lon":5.36644,"is_reserved":false,"is_disabled":false,"rental_uris":{"android":"levelo://app?vid=8ab2ed8d-364c-4252-a36f-2dad9a4f2a15","ios":"levelo://app?vid=8ab2ed8d-364c-4252-a36f-2dad9a4f2a15"},"vehicle_type_id":"4","last_reported":1745442579,"current_range_meters":16800,"station_id":"ce4bhi12rcd13ifvqfp0","pricing_plan_id":"cebpf4jnsgd1na2vs0mg"},{"bike_id":"d2f9ab38-d77b-417d-8e17-1403be698e41","system_id":"levelo_inurba_marseille","lat":43.2406,"lon":5.3773,"is_reserved":false,"is_disabled":false,"rental_uris":{"android":"levelo://app?vid=d2f9ab38-d77b-417d-8e17-1403be698e41","ios":"levelo://app?vid=d2f9ab38-d77b-417d-8e17-1403be698e41"},"vehicle_type_id":"4","last_reported":1745442579,"current_range_meters":16800,"station_id":"ce4bhnp2rcd13ifvqgvg","pricing_plan_id":"cebpf4jnsgd1na2vs0mg"},{"bike_id":"d99abc64-fc5e-4365-b2fd-7591e88627e8","system_id":"levelo_inurba_marseille","lat":43.313686,"lon":5.384878,"is_reserved":false,"is_disabled":false,"rental_uris":{"android":"levelo://app?vid=d99abc64-fc5e-4365-b2fd-7591e88627e8","ios":"levelo://app?vid=d99abc64-fc5e-4365-b2fd-7591e88627e8"},"vehicle_type_id":"4","last_reported":1745442579,"current_range_meters":16800,"station_id":"ce4bgt92rcd13ifvqcf0","pricing_plan_id":"cebpf4jnsgd1na2vs0mg"},{"bike_id":"cfa3005a-e229-4b19-ba9e-16ba83623768","system_id":"levelo_inurba_marseille","lat":43.28035,"lon":5.36941,"is_reserved":false,"is_disabled":false,"rental_uris":{"android":"levelo://app?vid=cfa3005a-e229-4b19-ba9e-16ba83623768","ios":"levelo://app?vid=cfa3005a-e229-4b19-ba9e-16ba83623768"},"vehicle_type_id":"4","last_reported":1745442579,"current_range_meters":16800,"station_id":"ce4bha12rcd13ifvqef0","pricing_plan_id":"cebpf4jnsgd1na2vs0mg"},{"bike_id":"8dff3327-c704-4870-8401-73b9c1029785","system_id":"levelo_inurba_marseille","lat":43.25862,"lon":5.39911,"is_reserved":false,"is_disabled":true,"rental_uris":{"android":"levelo://app?vid=8dff3327-c704-4870-8401-73b9c1029785","ios":"levelo://app?vid=8dff3327-c704-4870-8401-73b9c1029785"},"vehicle_type_id":"4","last_reported":1745442579,"current_range_meters":17200,"station_id":"ce4bhl92rcd13ifvqghg","pricing_plan_id":"cebpf4jnsgd1na2vs0mg"},{"bike_id":"e5d8cf2a-9551-4f01-b365-35558d069dad","system_id":"levelo_inurba_marseille","lat":43.27371,"lon":5.36269,"is_reserved":false,"is_disabled":true,"rental_uris":{"android":"levelo://app?vid=e5d8cf2a-9551-4f01-b365-35558d069dad","ios":"levelo://app?vid=e5d8cf2a-9551-4f01-b365-35558d069dad"},"vehicle_type_id":"4","last_reported":1745442579,"current_range_meters":16800,"station_id":"ce4bhbh2rcd13ifvqeo0","pricing_plan_id":"cebpf4jnsgd1na2vs0mg"},{"bike_id":"c4f8bb0b-fdc6-4e60-817a-688ba93455cd","system_id":"levelo_inurba_marseille","lat":43.30931,"lon":5.4015,"is_reserved":false,"is_disabled":false,"rental_uris":{"android":"levelo://app?vid=c4f8bb0b-fdc6-4e60-817a-688ba93455cd","ios":"levelo://app?vid=c4f8bb0b-fdc6-4e60-817a-688ba93455cd"},"vehicle_type_id":"4","last_reported":1745442579,"current_range_meters":17200,"station_id":"ce4bgvp2rcd13ifvqct0","pricing_plan_id":"cebpf4jnsgd1na2vs0mg"},{"bike_id":"87873093-27f5-49a2-8c34-ddd2205add84","system_id":"levelo_inurba_marseille","lat":43.2847,"lon":5.38422,"is_reserved":false,"is_disabled":true,"rental_uris":{"android":"levelo://app?vid=87873093-27f5-49a2-8c34-ddd2205add84","ios":"levelo://app?vid=87873093-27f5-49a2-8c34-ddd2205add84"},"vehicle_type_id":"4","last_reported":1745442579,"current_range_meters":17200,"station_id":"ce4bh512rcd13ifvqe3g","pricing_plan_id":"cebpf4jnsgd1na2vs0mg"},{"bike_id":"6b11b64e-78f5-4f05-8c63-c592e726ebe8","system_id":"levelo_inurba_marseille","lat":43.25095,"lon":5.40351,"is_reserved":false,"is_disabled":false,"rental_uris":{"android":"levelo://app?vid=6b11b64e-78f5-4f05-8c63-c592e726ebe8","ios":"levelo://app?vid=6b11b64e-78f5-4f05-8c63-c592e726ebe8"},"vehicle_type_id":"4","last_reported":1745442579,"current_range_meters":17200,"station_id":"ce4bhlh2rcd13ifvqgig","pricing_plan_id":"cebpf4jnsgd1na2vs0mg"},{"bike_id":"b217c7a4-92b6-4872-91fa-f2c2827250cc","system_id":"levelo_inurba_marseille","lat":43.288317,"lon":5.392212,"is_reserved":false,"is_disabled":false,"rental_uris":{"android":"levelo://app?vid=b217c7a4-92b6-4872-91fa-f2c2827250cc","ios":"levelo://app?vid=b217c7a4-92b6-4872-91fa-f2c2827250cc"},"vehicle_type_id":"4","last_reported":1745442579,"current_range_meters":17200,"station_id":"","pricing_plan_id":"cebpf4jnsgd1na2vs0mg"},{"bike_id":"fa8a552a-d2d3-4e8d-8d8e-02bdba037836","system_id":"levelo_inurba_marseille","lat":43.23066,"lon":5.35478,"is_reserved":false,"is_disabled":false,"rental_uris":{"android":"levelo://app?vid=fa8a552a-d2d3-4e8d-8d8e-02bdba037836","ios":"levelo://app?vid=fa8a552a-d2d3-4e8d-8d8e-02bdba037836"},"vehicle_type_id":"4","last_reported":1745442579,"current_range_meters":17200,"station_id":"cpo3342slgdg3j2ifvpg","pricing_plan_id":"cebpf4jnsgd1na2vs0mg"},{"bike_id":"0c2fd042-2fdc-4cd4-8346-ab98ee9e618b","system_id":"levelo_inurba_marseille","lat":43.2835,"lon":5.38106,"is_reserved":false,"is_disabled":false,"rental_uris":{"android":"levelo://app?vid=0c2fd042-2fdc-4cd4-8346-ab98ee9e618b","ios":"levelo://app?vid=0c2fd042-2fdc-4cd4-8346-ab98ee9e618b"},"vehicle_type_id":"4","last_reported":1745442579,"current_range_meters":17200,"station_id":"ce4bh412rcd13ifvqdr0","pricing_plan_id":"cebpf4jnsgd1na2vs0mg"},{"bike_id":"9afd477e-5e54-4db4-9b6a-ea6c825d6494","system_id":"levelo_inurba_marseille","lat":43.29936,"lon":5.41347,"is_reserved":false,"is_disabled":false,"rental_uris":{"android":"levelo://app?vid=9afd477e-5e54-4db4-9b6a-ea6c825d6494","ios":"levelo://app?vid=9afd477e-5e54-4db4-9b6a-ea6c825d6494"},"vehicle_type_id":"4","last_reported":1745442579,"current_range_meters":17600,"station_id":"ce4bhp12rcd13ifvqh9g","pricing_plan_id":"cebpf4jnsgd1na2vs0mg"},{"bike_id":"6d4d4cae-c0ce-4d66-94ac-cdce6c4dcd48","system_id":"levelo_inurba_marseille","lat":43.25717,"lon":5.41112,"is_reserved":false,"is_disabled":false,"rental_uris":{"android":"levelo://app?vid=6d4d4cae-c0ce-4d66-94ac-cdce6c4dcd48","ios":"levelo://app?vid=6d4d4cae-c0ce-4d66-94ac-cdce6c4dcd48"},"vehicle_type_id":"4","last_reported":1745442579,"current_range_meters":17600,"station_id":"ce4bhkp2rcd13ifvqgd0","pricing_plan_id":"cebpf4jnsgd1na2vs0mg"},{"bike_id":"83aea04e-81be-48bd-a65d-72ec2ca03b81","system_id":"levelo_inurba_marseille","lat":43.32477,"lon":5.36573,"is_reserved":false,"is_disabled":false,"rental_uris":{"android":"levelo://app?vid=83aea04e-81be-48bd-a65d-72ec2ca03b81","ios":"levelo://app?vid=83aea04e-81be-48bd-a65d-72ec2ca03b81"},"vehicle_type_id":"4","last_reported":1745442579,"current_range_meters":17600,"station_id":"ce4bhs12rcd13ifvqhvg","pricing_plan_id":"cebpf4jnsgd1na2vs0mg"},{"bike_id":"2ce4b7f3-b9d9-4b98-a654-e6d1021c8a35","system_id":"levelo_inurba_marseille","lat":43.29871,"lon":5.39738,"is_reserved":false,"is_disabled":false,"rental_uris":{"android":"levelo://app?vid=2ce4b7f3-b9d9-4b98-a654-e6d1021c8a35","ios":"levelo://app?vid=2ce4b7f3-b9d9-4b98-a654-e6d1021c8a35"},"vehicle_type_id":"4","last_reported":1745442579,"current_range_meters":17600,"station_id":"ce4bh0h2rcd13ifvqd50","pricing_plan_id":"cebpf4jnsgd1na2vs0mg"},{"bike_id":"bd14c086-b21e-4360-b45c-7cb79e1d9f0e","system_id":"levelo_inurba_marseille","lat":43.31076,"lon":5.38349,"is_reserved":false,"is_disabled":false,"rental_uris":{"android":"levelo://app?vid=bd14c086-b21e-4360-b45c-7cb79e1d9f0e","ios":"levelo://app?vid=bd14c086-b21e-4360-b45c-7cb79e1d9f0e"},"vehicle_type_id":"4","last_reported":1745442579,"current_range_meters":17600,"station_id":"ce4bgv92rcd13ifvqcr0","pricing_plan_id":"cebpf4jnsgd1na2vs0mg"},{"bike_id":"4f68919f-000c-4a19-8495-0f5b6db98860","system_id":"levelo_inurba_marseille","lat":43.24647,"lon":5.38164,"is_reserved":false,"is_disabled":false,"rental_uris":{"android":"levelo://app?vid=4f68919f-000c-4a19-8495-0f5b6db98860","ios":"levelo://app?vid=4f68919f-000c-4a19-8495-0f5b6db98860"},"vehicle_type_id":"4","last_reported":1745442579,"current_range_meters":18000,"station_id":"ce4bhih2rcd13ifvqfr0","pricing_plan_id":"cebpf4jnsgd1na2vs0mg"},{"bike_id":"6a1b385f-4c37-4399-89d8-2a1bce2af65b","system_id":"levelo_inurba_marseille","lat":43.33749,"lon":5.39172,"is_reserved":false,"is_disabled":false,"rental_uris":{"android":"levelo://app?vid=6a1b385f-4c37-4399-89d8-2a1bce2af65b","ios":"levelo://app?vid=6a1b385f-4c37-4399-89d8-2a1bce2af65b"},"vehicle_type_id":"4","last_reported":1745442579,"current_range_meters":18000,"station_id":"ce4bhr92rcd13ifvqhsg","pricing_plan_id":"cebpf4jnsgd1na2vs0mg"},{"bike_id":"eebbbf5f-144e-4806-9f91-275ac986d33b","system_id":"levelo_inurba_marseille","lat":43.29963,"lon":5.3718,"is_reserved":false,"is_disabled":false,"rental_uris":{"android":"levelo://app?vid=eebbbf5f-144e-4806-9f91-275ac986d33b","ios":"levelo://app?vid=eebbbf5f-144e-4806-9f91-275ac986d33b"},"vehicle_type_id":"4","last_reported":1745442579,"current_range_meters":18000,"station_id":"ce4bgr92rcd13ifvqc7g","pricing_plan_id":"cebpf4jnsgd1na2vs0mg"},{"bike_id":"f77ff247-dda1-4996-9576-8d16c2dd9342","system_id":"levelo_inurba_marseille","lat":43.28934,"lon":5.36634,"is_reserved":false,"is_disabled":false,"rental_uris":{"android":"levelo://app?vid=f77ff247-dda1-4996-9576-8d16c2dd9342","ios":"levelo://app?vid=f77ff247-dda1-4996-9576-8d16c2dd9342"},"vehicle_type_id":"4","last_reported":1745442579,"current_range_meters":18000,"station_id":"ce4bhap2rcd13ifvqek0","pricing_plan_id":"cebpf4jnsgd1na2vs0mg"},{"bike_id":"890ad4cd-fa56-473a-9b75-9a62637c50dc","system_id":"levelo_inurba_marseille","lat":43.32664,"lon":5.36714,"is_reserved":false,"is_disabled":false,"rental_uris":{"android":"levelo://app?vid=890ad4cd-fa56-473a-9b75-9a62637c50dc","ios":"levelo://app?vid=890ad4cd-fa56-473a-9b75-9a62637c50dc"},"vehicle_type_id":"4","last_reported":1745442579,"current_range_meters":18000,"station_id":"","pricing_plan_id":"cebpf4jnsgd1na2vs0mg"},{"bike_id":"1ce84dc7-458b-4f31-b721-f47513c15013","system_id":"levelo_inurba_marseille","lat":43.29898,"lon":5.39722,"is_reserved":false,"is_disabled":false,"rental_uris":{"android":"levelo://app?vid=1ce84dc7-458b-4f31-b721-f47513c15013","ios":"levelo://app?vid=1ce84dc7-458b-4f31-b721-f47513c15013"},"vehicle_type_id":"4","last_reported":1745442579,"current_range_meters":18000,"station_id":"ce4bh0h2rcd13ifvqd50","pricing_plan_id":"cebpf4jnsgd1na2vs0mg"},{"bike_id":"6fa93a30-9477-472b-911d-f334fbcc0d65","system_id":"levelo_inurba_marseille","lat":43.30131,"lon":5.38779,"is_reserved":false,"is_disabled":true,"rental_uris":{"android":"levelo://app?vid=6fa93a30-9477-472b-911d-f334fbcc0d65","ios":"levelo://app?vid=6fa93a30-9477-472b-911d-f334fbcc0d65"},"vehicle_type_id":"4","last_reported":1745442579,"current_range_meters":18000,"station_id":"ce4bghh2rcd13ifvqb60","pricing_plan_id":"cebpf4jnsgd1na2vs0mg"},{"bike_id":"a27b02de-b285-415b-8f35-d78f05d05fdf","system_id":"levelo_inurba_marseille","lat":43.2894,"lon":5.36632,"is_reserved":false,"is_disabled":false,"rental_uris":{"android":"levelo://app?vid=a27b02de-b285-415b-8f35-d78f05d05fdf","ios":"levelo://app?vid=a27b02de-b285-415b-8f35-d78f05d05fdf"},"vehicle_type_id":"4","last_reported":1745442579,"current_range_meters":18000,"station_id":"ce4bhap2rcd13ifvqek0","pricing_plan_id":"cebpf4jnsgd1na2vs0mg"},{"bike_id":"37c023cf-4438-4a0a-93fa-5c4a100ea29e","system_id":"levelo_inurba_marseille","lat":43.31695,"lon":5.4046,"is_reserved":false,"is_disabled":false,"rental_uris":{"android":"levelo://app?vid=37c023cf-4438-4a0a-93fa-5c4a100ea29e","ios":"levelo://app?vid=37c023cf-4438-4a0a-93fa-5c4a100ea29e"},"vehicle_type_id":"4","last_reported":1745442579,"current_range_meters":18000,"station_id":"ce4bh012rcd13ifvqd00","pricing_plan_id":"cebpf4jnsgd1na2vs0mg"},{"bike_id":"7369f2c7-ebee-4ebd-9536-6bdbca072cf3","system_id":"levelo_inurba_marseille","lat":43.28408,"lon":5.34994,"is_reserved":false,"is_disabled":false,"rental_uris":{"android":"levelo://app?vid=7369f2c7-ebee-4ebd-9536-6bdbca072cf3","ios":"levelo://app?vid=7369f2c7-ebee-4ebd-9536-6bdbca072cf3"},"vehicle_type_id":"4","last_reported":1745442579,"current_range_meters":18800,"station_id":"ce4bhbh2rcd13ifvqepg","pricing_plan_id":"cebpf4jnsgd1na2vs0mg"},{"bike_id":"007b8d99-d89d-47a6-9fef-850944abb7db","system_id":"levelo_inurba_marseille","lat":43.31178,"lon":5.38726,"is_reserved":false,"is_disabled":false,"rental_uris":{"android":"levelo://app?vid=007b8d99-d89d-47a6-9fef-850944abb7db","ios":"levelo://app?vid=007b8d99-d89d-47a6-9fef-850944abb7db"},"vehicle_type_id":"4","last_reported":1745442579,"current_range_meters":18800,"station_id":"ce4bgv12rcd13ifvqcp0","pricing_plan_id":"cebpf4jnsgd1na2vs0mg"},{"bike_id":"5dd12b3b-eef7-4dab-a6de-2ed4ff99da38","system_id":"levelo_inurba_marseille","lat":43.29037,"lon":5.37551,"is_reserved":false,"is_disabled":true,"rental_uris":{"android":"levelo://app?vid=5dd12b3b-eef7-4dab-a6de-2ed4ff99da38","ios":"levelo://app?vid=5dd12b3b-eef7-4dab-a6de-2ed4ff99da38"},"vehicle_type_id":"4","last_reported":1745442579,"current_range_meters":18800,"station_id":"ce4bh692rcd13ifvqe90","pricing_plan_id":"cebpf4jnsgd1na2vs0mg"},{"bike_id":"226ffe90-da23-4800-ae5f-00f65faa00f9","system_id":"levelo_inurba_marseille","lat":43.3137,"lon":5.38484,"is_reserved":false,"is_disabled":false,"rental_uris":{"android":"levelo://app?vid=226ffe90-da23-4800-ae5f-00f65faa00f9","ios":"levelo://app?vid=226ffe90-da23-4800-ae5f-00f65faa00f9"},"vehicle_type_id":"4","last_reported":1745442579,"current_range_meters":18800,"station_id":"ce4bgt92rcd13ifvqcf0","pricing_plan_id":"cebpf4jnsgd1na2vs0mg"},{"bike_id":"ab660249-0742-4ee6-9f3c-cbf7eabd0145","system_id":"levelo_inurba_marseille","lat":43.28626,"lon":5.37064,"is_reserved":false,"is_disabled":false,"rental_uris":{"android":"levelo://app?vid=ab660249-0742-4ee6-9f3c-cbf7eabd0145","ios":"levelo://app?vid=ab660249-0742-4ee6-9f3c-cbf7eabd0145"},"vehicle_type_id":"4","last_reported":1745442579,"current_range_meters":18800,"station_id":"ce4bht12rcd13ifvqi60","pricing_plan_id":"cebpf4jnsgd1na2vs0mg"},{"bike_id":"6d51da42-143e-4c42-8c35-29bec0272d31","system_id":"levelo_inurba_marseille","lat":43.27999,"lon":5.40028,"is_reserved":false,"is_disabled":false,"rental_uris":{"android":"levelo://app?vid=6d51da42-143e-4c42-8c35-29bec0272d31","ios":"levelo://app?vid=6d51da42-143e-4c42-8c35-29bec0272d31"},"vehicle_type_id":"4","last_reported":1745442579,"current_range_meters":19200,"station_id":"ce4bho92rcd13ifvqh4g","pricing_plan_id":"cebpf4jnsgd1na2vs0mg"},{"bike_id":"0316a871-b1d4-45da-877b-fa8b62586bc2","system_id":"levelo_inurba_marseille","lat":43.29787,"lon":5.3933,"is_reserved":false,"is_disabled":false,"rental_uris":{"android":"levelo://app?vid=0316a871-b1d4-45da-877b-fa8b62586bc2","ios":"levelo://app?vid=0316a871-b1d4-45da-877b-fa8b62586bc2"},"vehicle_type_id":"4","last_reported":1745442579,"current_range_meters":18800,"station_id":"chh1huq6cuj3fo74tm60","pricing_plan_id":"cebpf4jnsgd1na2vs0mg"},{"bike_id":"2655adba-5bd9-4da0-8cd3-5bc0123170f2","system_id":"levelo_inurba_marseille","lat":43.31371,"lon":5.385,"is_reserved":false,"is_disabled":false,"rental_uris":{"android":"levelo://app?vid=2655adba-5bd9-4da0-8cd3-5bc0123170f2","ios":"levelo://app?vid=2655adba-5bd9-4da0-8cd3-5bc0123170f2"},"vehicle_type_id":"4","last_reported":1745442579,"current_range_meters":18800,"station_id":"ce4bgt92rcd13ifvqcf0","pricing_plan_id":"cebpf4jnsgd1na2vs0mg"},{"bike_id":"e139658a-7edf-4768-8598-e719cf4aa58a","system_id":"levelo_inurba_marseille","lat":43.29252,"lon":5.40903,"is_reserved":false,"is_disabled":false,"rental_uris":{"android":"levelo://app?vid=e139658a-7edf-4768-8598-e719cf4aa58a","ios":"levelo://app?vid=e139658a-7edf-4768-8598-e719cf4aa58a"},"vehicle_type_id":"4","last_reported":1745442579,"current_range_meters":18800,"station_id":"ce4bh192rcd13ifvqdc0","pricing_plan_id":"cebpf4jnsgd1na2vs0mg"},{"bike_id":"3f2d5b4f-0fec-4cd1-86f2-8f22ae21ea3e","system_id":"levelo_inurba_marseille","lat":43.27818,"lon":5.40704,"is_reserved":false,"is_disabled":false,"rental_uris":{"android":"levelo://app?vid=3f2d5b4f-0fec-4cd1-86f2-8f22ae21ea3e","ios":"levelo://app?vid=3f2d5b4f-0fec-4cd1-86f2-8f22ae21ea3e"},"vehicle_type_id":"4","last_reported":1745442579,"current_range_meters":18800,"station_id":"ce4bhnh2rcd13ifvqgtg","pricing_plan_id":"cebpf4jnsgd1na2vs0mg"},{"bike_id":"05789d63-1a14-4489-aad6-4361ab4352d6","system_id":"levelo_inurba_marseille","lat":43.31327,"lon":5.39696,"is_reserved":false,"is_disabled":false,"rental_uris":{"android":"levelo://app?vid=05789d63-1a14-4489-aad6-4361ab4352d6","ios":"levelo://app?vid=05789d63-1a14-4489-aad6-4361ab4352d6"},"vehicle_type_id":"4","last_reported":1745442579,"current_range_meters":18800,"station_id":"ce4bgvp2rcd13ifvqcu0","pricing_plan_id":"cebpf4jnsgd1na2vs0mg"},{"bike_id":"a5ccf778-40c7-43d1-8d46-99c2c68b3f38","system_id":"levelo_inurba_marseille","lat":43.28465,"lon":5.35869,"is_reserved":false,"is_disabled":false,"rental_uris":{"android":"levelo://app?vid=a5ccf778-40c7-43d1-8d46-99c2c68b3f38","ios":"levelo://app?vid=a5ccf778-40c7-43d1-8d46-99c2c68b3f38"},"vehicle_type_id":"4","last_reported":1745442579,"current_range_meters":19200,"station_id":"ce4bhah2rcd13ifvqei0","pricing_plan_id":"cebpf4jnsgd1na2vs0mg"},{"bike_id":"19b1e669-c0ec-46a9-8c21-4f491a13468c","system_id":"levelo_inurba_marseille","lat":43.29552,"lon":5.38536,"is_reserved":false,"is_disabled":true,"rental_uris":{"android":"levelo://app?vid=19b1e669-c0ec-46a9-8c21-4f491a13468c","ios":"levelo://app?vid=19b1e669-c0ec-46a9-8c21-4f491a13468c"},"vehicle_type_id":"4","last_reported":1745442579,"current_range_meters":19200,"station_id":"ce4bgih2rcd13ifvqba0","pricing_plan_id":"cebpf4jnsgd1na2vs0mg"},{"bike_id":"91e998e5-c194-4bec-8fac-19f1229a85e3","system_id":"levelo_inurba_marseille","lat":43.28034,"lon":5.36949,"is_reserved":false,"is_disabled":false,"rental_uris":{"android":"levelo://app?vid=91e998e5-c194-4bec-8fac-19f1229a85e3","ios":"levelo://app?vid=91e998e5-c194-4bec-8fac-19f1229a85e3"},"vehicle_type_id":"4","last_reported":1745442579,"current_range_meters":19200,"station_id":"ce4bha12rcd13ifvqef0","pricing_plan_id":"cebpf4jnsgd1na2vs0mg"},{"bike_id":"ab8406b2-4f8d-4381-8821-3db52b0a4d4d","system_id":"levelo_inurba_marseille","lat":43.27348,"lon":5.37847,"is_reserved":false,"is_disabled":false,"rental_uris":{"android":"levelo://app?vid=ab8406b2-4f8d-4381-8821-3db52b0a4d4d","ios":"levelo://app?vid=ab8406b2-4f8d-4381-8821-3db52b0a4d4d"},"vehicle_type_id":"4","last_reported":1745442579,"current_range_meters":19200,"station_id":"","pricing_plan_id":"cebpf4jnsgd1na2vs0mg"},{"bike_id":"c8cc5bc6-4aee-4811-8513-2b242b7ce89b","system_id":"levelo_inurba_marseille","lat":43.23187,"lon":5.35568,"is_reserved":false,"is_disabled":false,"rental_uris":{"android":"levelo://app?vid=c8cc5bc6-4aee-4811-8513-2b242b7ce89b","ios":"levelo://app?vid=c8cc5bc6-4aee-4811-8513-2b242b7ce89b"},"vehicle_type_id":"4","last_reported":1745442579,"current_range_meters":19200,"station_id":"ce4bhu92rcd13ifvqi70","pricing_plan_id":"cebpf4jnsgd1na2vs0mg"},{"bike_id":"6dc662e4-2c4b-4f97-a96e-edc2ccb3389f","system_id":"levelo_inurba_marseille","lat":43.30359,"lon":5.41869,"is_reserved":false,"is_disabled":false,"rental_uris":{"android":"levelo://app?vid=6dc662e4-2c4b-4f97-a96e-edc2ccb3389f","ios":"levelo://app?vid=6dc662e4-2c4b-4f97-a96e-edc2ccb3389f"},"vehicle_type_id":"4","last_reported":1745442579,"current_range_meters":19200,"station_id":"ce4bhop2rcd13ifvqh7g","pricing_plan_id":"cebpf4jnsgd1na2vs0mg"},{"bike_id":"d67e280a-f708-44d7-ac1f-37a8ebf5003e","system_id":"levelo_inurba_marseille","lat":43.3021,"lon":5.39389,"is_reserved":false,"is_disabled":false,"rental_uris":{"android":"levelo://app?vid=d67e280a-f708-44d7-ac1f-37a8ebf5003e","ios":"levelo://app?vid=d67e280a-f708-44d7-ac1f-37a8ebf5003e"},"vehicle_type_id":"4","last_reported":1745442579,"current_range_meters":19200,"station_id":"","pricing_plan_id":"cebpf4jnsgd1na2vs0mg"},{"bike_id":"fbae3d13-4305-4309-b90d-8310a9527283","system_id":"levelo_inurba_marseille","lat":43.30804,"lon":5.37642,"is_reserved":false,"is_disabled":false,"rental_uris":{"android":"levelo://app?vid=fbae3d13-4305-4309-b90d-8310a9527283","ios":"levelo://app?vid=fbae3d13-4305-4309-b90d-8310a9527283"},"vehicle_type_id":"4","last_reported":1745442579,"current_range_meters":19600,"station_id":"ce4bgv92rcd13ifvqcq0","pricing_plan_id":"cebpf4jnsgd1na2vs0mg"},{"bike_id":"02b97561-c39e-4af5-935b-8fdb17e46acb","system_id":"levelo_inurba_marseille","lat":43.29198,"lon":5.35807,"is_reserved":false,"is_disabled":false,"rental_uris":{"android":"levelo://app?vid=02b97561-c39e-4af5-935b-8fdb17e46acb","ios":"levelo://app?vid=02b97561-c39e-4af5-935b-8fdb17e46acb"},"vehicle_type_id":"4","last_reported":1745442579,"current_range_meters":18800,"station_id":"ce4bhb12rcd13ifvqel0","pricing_plan_id":"cebpf4jnsgd1na2vs0mg"},{"bike_id":"f91a33e0-c093-4eda-8d2d-0b7850edc5d9","system_id":"levelo_inurba_marseille","lat":43.31168,"lon":5.3871,"is_reserved":false,"is_disabled":false,"rental_uris":{"android":"levelo://app?vid=f91a33e0-c093-4eda-8d2d-0b7850edc5d9","ios":"levelo://app?vid=f91a33e0-c093-4eda-8d2d-0b7850edc5d9"},"vehicle_type_id":"4","last_reported":1745442579,"current_range_meters":19600,"station_id":"ce4bgv12rcd13ifvqcp0","pricing_plan_id":"cebpf4jnsgd1na2vs0mg"},{"bike_id":"83ce8635-e014-4d4b-b4bb-5f7a1fac789e","system_id":"levelo_inurba_marseille","lat":43.26685,"lon":5.38274,"is_reserved":false,"is_disabled":true,"rental_uris":{"android":"levelo://app?vid=83ce8635-e014-4d4b-b4bb-5f7a1fac789e","ios":"levelo://app?vid=83ce8635-e014-4d4b-b4bb-5f7a1fac789e"},"vehicle_type_id":"4","last_reported":1745442579,"current_range_meters":19600,"station_id":"ce4bhg92rcd13ifvqf90","pricing_plan_id":"cebpf4jnsgd1na2vs0mg"},{"bike_id":"57aa1a53-9d72-4dfc-83ff-19fecf18cb65","system_id":"levelo_inurba_marseille","lat":43.30303,"lon":5.3921,"is_reserved":false,"is_disabled":false,"rental_uris":{"android":"levelo://app?vid=57aa1a53-9d72-4dfc-83ff-19fecf18cb65","ios":"levelo://app?vid=57aa1a53-9d72-4dfc-83ff-19fecf18cb65"},"vehicle_type_id":"4","last_reported":1745442579,"current_range_meters":19600,"station_id":"ce4bgkh2rcd13ifvqbk0","pricing_plan_id":"cebpf4jnsgd1na2vs0mg"},{"bike_id":"db9d06d9-348b-46af-94bc-b7367c23e864","system_id":"levelo_inurba_marseille","lat":43.29278,"lon":5.40116,"is_reserved":false,"is_disabled":false,"rental_uris":{"android":"levelo://app?vid=db9d06d9-348b-46af-94bc-b7367c23e864","ios":"levelo://app?vid=db9d06d9-348b-46af-94bc-b7367c23e864"},"vehicle_type_id":"4","last_reported":1745442579,"current_range_meters":19600,"station_id":"ce4bh312rcd13ifvqdk0","pricing_plan_id":"cebpf4jnsgd1na2vs0mg"},{"bike_id":"c5260414-53ea-4c4b-84bd-1a38f855ebd9","system_id":"levelo_inurba_marseille","lat":43.31077,"lon":5.38348,"is_reserved":false,"is_disabled":true,"rental_uris":{"android":"levelo://app?vid=c5260414-53ea-4c4b-84bd-1a38f855ebd9","ios":"levelo://app?vid=c5260414-53ea-4c4b-84bd-1a38f855ebd9"},"vehicle_type_id":"4","last_reported":1745442579,"current_range_meters":19600,"station_id":"ce4bgv92rcd13ifvqcr0","pricing_plan_id":"cebpf4jnsgd1na2vs0mg"},{"bike_id":"0a2f3df2-be5d-47f7-97b1-3871d48b5243","system_id":"levelo_inurba_marseille","lat":43.28438,"lon":5.3588,"is_reserved":false,"is_disabled":false,"rental_uris":{"android":"levelo://app?vid=0a2f3df2-be5d-47f7-97b1-3871d48b5243","ios":"levelo://app?vid=0a2f3df2-be5d-47f7-97b1-3871d48b5243"},"vehicle_type_id":"4","last_reported":1745442579,"current_range_meters":19600,"station_id":"ce4bhah2rcd13ifvqei0","pricing_plan_id":"cebpf4jnsgd1na2vs0mg"},{"bike_id":"cadd2a19-c37c-493d-b003-1c5753f859f2","system_id":"levelo_inurba_marseille","lat":43.30547,"lon":5.3844,"is_reserved":false,"is_disabled":true,"rental_uris":{"android":"levelo://app?vid=cadd2a19-c37c-493d-b003-1c5753f859f2","ios":"levelo://app?vid=cadd2a19-c37c-493d-b003-1c5753f859f2"},"vehicle_type_id":"4","last_reported":1745442579,"current_range_meters":20000,"station_id":"ce4bgg92rcd13ifvqb30","pricing_plan_id":"cebpf4jnsgd1na2vs0mg"},{"bike_id":"47190e3f-b500-4537-a213-0b80afe51449","system_id":"levelo_inurba_marseille","lat":43.24671,"lon":5.38157,"is_reserved":false,"is_disabled":false,"rental_uris":{"android":"levelo://app?vid=47190e3f-b500-4537-a213-0b80afe51449","ios":"levelo://app?vid=47190e3f-b500-4537-a213-0b80afe51449"},"vehicle_type_id":"4","last_reported":1745442579,"current_range_meters":20000,"station_id":"ce4bhih2rcd13ifvqfr0","pricing_plan_id":"cebpf4jnsgd1na2vs0mg"},{"bike_id":"96f95ec8-2ec8-4f85-847e-9992741b9ee1","system_id":"levelo_inurba_marseille","lat":43.31071,"lon":5.38346,"is_reserved":false,"is_disabled":false,"rental_uris":{"android":"levelo://app?vid=96f95ec8-2ec8-4f85-847e-9992741b9ee1","ios":"levelo://app?vid=96f95ec8-2ec8-4f85-847e-9992741b9ee1"},"vehicle_type_id":"4","last_reported":1745442579,"current_range_meters":20000,"station_id":"ce4bgv92rcd13ifvqcr0","pricing_plan_id":"cebpf4jnsgd1na2vs0mg"},{"bike_id":"7a38cd50-7a93-4627-806c-1a69d66aceb3","system_id":"levelo_inurba_marseille","lat":43.307941,"lon":5.435281,"is_reserved":false,"is_disabled":false,"rental_uris":{"android":"levelo://app?vid=7a38cd50-7a93-4627-806c-1a69d66aceb3","ios":"levelo://app?vid=7a38cd50-7a93-4627-806c-1a69d66aceb3"},"vehicle_type_id":"4","last_reported":1745442579,"current_range_meters":20000,"station_id":"ce4bhph2rcd13ifvqheg","pricing_plan_id":"cebpf4jnsgd1na2vs0mg"},{"bike_id":"1898179b-bda2-47d4-9adf-00142f785ccc","system_id":"levelo_inurba_marseille","lat":43.302507,"lon":5.400523,"is_reserved":false,"is_disabled":false,"rental_uris":{"android":"levelo://app?vid=1898179b-bda2-47d4-9adf-00142f785ccc","ios":"levelo://app?vid=1898179b-bda2-47d4-9adf-00142f785ccc"},"vehicle_type_id":"4","last_reported":1745442579,"current_range_meters":20400,"station_id":"ce4bgvh2rcd13ifvqcs0","pricing_plan_id":"cebpf4jnsgd1na2vs0mg"},{"bike_id":"e0475622-ca3c-4cc9-8273-63b58a33d69d","system_id":"levelo_inurba_marseille","lat":43.317,"lon":5.4369,"is_reserved":false,"is_disabled":false,"rental_uris":{"android":"levelo://app?vid=e0475622-ca3c-4cc9-8273-63b58a33d69d","ios":"levelo://app?vid=e0475622-ca3c-4cc9-8273-63b58a33d69d"},"vehicle_type_id":"4","last_reported":1745442579,"current_range_meters":20400,"station_id":"ce4bhp92rcd13ifvqhcg","pricing_plan_id":"cebpf4jnsgd1na2vs0mg"},{"bike_id":"afb47f80-30d4-4ee2-a29e-7947a831a09d","system_id":"levelo_inurba_marseille","lat":43.31171,"lon":5.38721,"is_reserved":false,"is_disabled":false,"rental_uris":{"android":"levelo://app?vid=afb47f80-30d4-4ee2-a29e-7947a831a09d","ios":"levelo://app?vid=afb47f80-30d4-4ee2-a29e-7947a831a09d"},"vehicle_type_id":"4","last_reported":1745442579,"current_range_meters":20400,"station_id":"ce4bgv12rcd13ifvqcp0","pricing_plan_id":"cebpf4jnsgd1na2vs0mg"},{"bike_id":"3338220b-43ff-4e2c-b42b-3d8797eb0155","system_id":"levelo_inurba_marseille","lat":43.24488,"lon":5.42501,"is_reserved":false,"is_disabled":false,"rental_uris":{"android":"levelo://app?vid=3338220b-43ff-4e2c-b42b-3d8797eb0155","ios":"levelo://app?vid=3338220b-43ff-4e2c-b42b-3d8797eb0155"},"vehicle_type_id":"4","last_reported":1745442579,"current_range_meters":20400,"station_id":"","pricing_plan_id":"cebpf4jnsgd1na2vs0mg"},{"bike_id":"669f8bfd-8b75-43f6-a594-660bf9af21ab","system_id":"levelo_inurba_marseille","lat":43.30915,"lon":5.36853,"is_reserved":false,"is_disabled":false,"rental_uris":{"android":"levelo://app?vid=669f8bfd-8b75-43f6-a594-660bf9af21ab","ios":"levelo://app?vid=669f8bfd-8b75-43f6-a594-660bf9af21ab"},"vehicle_type_id":"4","last_reported":1745442579,"current_range_meters":20400,"station_id":"ce4bgn92rcd13ifvqbvg","pricing_plan_id":"cebpf4jnsgd1na2vs0mg"},{"bike_id":"9ce9ed10-eeed-4d45-8f84-41863276a87d","system_id":"levelo_inurba_marseille","lat":43.2885,"lon":5.35861,"is_reserved":false,"is_disabled":false,"rental_uris":{"android":"levelo://app?vid=9ce9ed10-eeed-4d45-8f84-41863276a87d","ios":"levelo://app?vid=9ce9ed10-eeed-4d45-8f84-41863276a87d"},"vehicle_type_id":"4","last_reported":1745442579,"current_range_meters":20400,"station_id":"ce4bhb12rcd13ifvqem0","pricing_plan_id":"cebpf4jnsgd1na2vs0mg"},{"bike_id":"2785af74-0b52-4ea8-9be5-c6a6d6925d8e","system_id":"levelo_inurba_marseille","lat":43.31215,"lon":5.36855,"is_reserved":false,"is_disabled":false,"rental_uris":{"android":"levelo://app?vid=2785af74-0b52-4ea8-9be5-c6a6d6925d8e","ios":"levelo://app?vid=2785af74-0b52-4ea8-9be5-c6a6d6925d8e"},"vehicle_type_id":"4","last_reported":1745442579,"current_range_meters":20400,"station_id":"ce4bgl92rcd13ifvqbq0","pricing_plan_id":"cebpf4jnsgd1na2vs0mg"},{"bike_id":"6f8110d9-0891-4a33-8a98-df34fa3c7719","system_id":"levelo_inurba_marseille","lat":43.29551,"lon":5.42282,"is_reserved":false,"is_disabled":false,"rental_uris":{"android":"levelo://app?vid=6f8110d9-0891-4a33-8a98-df34fa3c7719","ios":"levelo://app?vid=6f8110d9-0891-4a33-8a98-df34fa3c7719"},"vehicle_type_id":"4","last_reported":1745442579,"current_range_meters":20400,"station_id":"ce4bhph2rcd13ifvqhdg","pricing_plan_id":"cebpf4jnsgd1na2vs0mg"},