{"last_updated":1743869424,"ttl":60,"version":"2.2","data":{"bikes":[{"bike_id":"25021ba5-9c1f-42aa-88af-77bf4419ac59","system_id":"levelo_inurba_marseille","lat":43.29094,"lon":5.38144,"is_reserved":false,"is_disabled":false,"rental_uris":{"android":"levelo://app?vid=25021ba5-9c1f-42aa-88af-77bf4419ac59","ios":"levelo://app?vid=25021ba5-9c1f-42aa-88af-77bf4419ac59"},"vehicle_type_id":"4","last_reported":1743869425,"current_range_meters":2800,"station_id":"ce4bh512rcd13ifvqe2g","pricing_plan_id":"cebpf4jnsgd1na2vs0mg"},{"bike_id":"72e2673c-6d6f-47a2-88a7-65a0e4ca2864","system_id":"levelo_inurba_marseille","lat":43.27373,"lon":5.3626,"is_reserved":false,"is_disabled":false,"rental_uris":{"android":"levelo://app?vid=72e2673c-6d6f-47a2-88a7-65a0e4ca2864","ios":"levelo://app?vid=72e2673c-6d6f-47a2-88a7-65a0e4ca2864"},"vehicle_type_id":"4","last_reported":1743869425,"current_range_meters":2800,"station_id":"ce4bhbh2rcd13ifvqeo0","pricing_plan_id":"cebpf4jnsgd1na2vs0mg"},{"bike_id":"00d88f38-88ea-4fc0-8a84-9644eec8e091","system_id":"levelo_inurba_marseille","lat":43.28944,"lon":5.36403,"is_reserved":false,"is_disabled":false,"rental_uris":{"android":"levelo://app?vid=00d88f38-88ea-4fc0-8a84-9644eec8e091","ios":"levelo://app?vid=00d88f38-88ea-4fc0-8a84-9644eec8e091"},"vehicle_type_id":"4","last_reported":1743869425,"current_range_meters":2800,"station_id":"ce4bhc92rcd13ifvqetg","pricing_plan_id":"cebpf4jnsgd1na2vs0mg"},{"bike_id":"3306bd87-bc11-45ba-97e6-4e71b9ad2de1","system_id":"levelo_inurba_marseille","lat":43.29606,"lon":5.38106,"is_reserved":false,"is_disabled":false,"rental_uris":{"android":"levelo://app?vid=3306bd87-bc11-45ba-97e6-4e71b9ad2de1","ios":"levelo://app?vid=3306bd87-bc11-45ba-97e6-4e71b9ad2de1"},"vehicle_type_id":"4","last_reported":1743869425,"current_range_meters":2800,"station_id":"ce4bgl12rcd13ifvqbo0","pricing_plan_id":"cebpf4jnsgd1na2vs0mg"},{"bike_id":"440f46f1-d556-4dc6-815d-1a59fd23b1a8","system_id":"levelo_inurba_marseille","lat":43.24549,"lon":5.39523,"is_reserved":false,"is_disabled":false,"rental_uris":{"android":"levelo://app?vid=440f46f1-d556-4dc6-815d-1a59fd23b1a8","ios":"levelo://app?vid=440f46f1-d556-4dc6-815d-1a59fd23b1a8"},"vehicle_type_id":"4","last_reported":1743869425,"current_range_meters":2800,"station_id":"ce4bhlp2rcd13ifvqgjg","pricing_plan_id":"cebpf4jnsgd1na2vs0mg"},{"bike_id":"e4188069-ff00-442a-b0ee-97cbb204556e","system_id":"levelo_inurba_marseille","lat":43.22932,"lon":5.35386,"is_reserved":false,"is_disabled":false,"rental_uris":{"android":"levelo://app?vid=e4188069-ff00-442a-b0ee-97cbb204556e","ios":"levelo://app?vid=e4188069-ff00-442a-b0ee-97cbb204556e"},"vehicle_type_id":"4","last_reported":1743869425,"current_range_meters":2800,"station_id":"","pricing_plan_id":"cebpf4jnsgd1na2vs0mg"},{"bike_id":"a2500078-3afe-4903-b4fc-733a40e322aa","system_id":"levelo_inurba_marseille","lat":43.31887,"lon":5.40737,"is_reserved":false,"is_disabled":false,"rental_uris":{"android":"levelo://app?vid=a2500078-3afe-4903-b4fc-733a40e322aa","ios":"levelo://app?vid=a2500078-3afe-4903-b4fc-733a40e322aa"},"vehicle_type_id":"4","last_reported":1743869425,"current_range_meters":2800,"station_id":"ce4bhq12rcd13ifvqhig","pricing_plan_id":"cebpf4jnsgd1na2vs0mg"},{"bike_id":"b7a0d818-fa67-4a4e-8190-83c95561ce8b","system_id":"levelo_inurba_marseille","lat":43.23195,"lon":5.39992,"is_reserved":false,"is_disabled":false,"rental_uris":{"android":"levelo://app?vid=b7a0d818-fa67-4a4e-8190-83c95561ce8b","ios":"levelo://app?vid=b7a0d818-fa67-4a4e-8190-83c95561ce8b"},"vehicle_type_id":"4","last_reported":1743869425,"current_range_meters":2800,"station_id":"ce4bhn12rcd13ifvqgqg","pricing_plan_id":"cebpf4jnsgd1na2vs0mg"},{"bike_id":"8753dd8d-5d1a-4186-ba21-6f05d00ffe1d","system_id":"levelo_inurba_marseille","lat":43.29978,"lon":5.38492,"is_reserved":false,"is_disabled":false,"rental_uris":{"android":"levelo://app?vid=8753dd8d-5d1a-4186-ba21-6f05d00ffe1d","ios":"levelo://app?vid=8753dd8d-5d1a-4186-ba21-6f05d00ffe1d"},"vehicle_type_id":"4","last_reported":1743869425,"current_range_meters":2800,"station_id":"ce4bgj92rcd13ifvqbd0","pricing_plan_id":"cebpf4jnsgd1na2vs0mg"},{"bike_id":"6e7e8bd0-971a-4bf5-a521-0d1053f36753","system_id":"levelo_inurba_marseille","lat":43.31082,"lon":5.42436,"is_reserved":false,"is_disabled":true,"rental_uris":{"android":"levelo://app?vid=6e7e8bd0-971a-4bf5-a521-0d1053f36753","ios":"levelo://app?vid=6e7e8bd0-971a-4bf5-a521-0d1053f36753"},"vehicle_type_id":"4","last_reported":1743869425,"current_range_meters":2800,"station_id":"ce4bhp92rcd13ifvqhag","pricing_plan_id":"cebpf4jnsgd1na2vs0mg"},{"bike_id":"023e5c4b-50ee-4d16-847a-6f058a6d2508","system_id":"levelo_inurba_marseille","lat":43.25499,"lon":5.37653,"is_reserved":false,"is_disabled":false,"rental_uris":{"android":"levelo://app?vid=023e5c4b-50ee-4d16-847a-6f058a6d2508","ios":"levelo://app?vid=023e5c4b-50ee-4d16-847a-6f058a6d2508"},"vehicle_type_id":"4","last_reported":1743869425,"current_range_meters":3600,"station_id":"ce4bhh12rcd13ifvqff0","pricing_plan_id":"cebpf4jnsgd1na2vs0mg"},{"bike_id":"c334e90a-a1ae-4b1c-a131-dfc94bbc62e8","system_id":"levelo_inurba_marseille","lat":43.28938,"lon":5.36389,"is_reserved":false,"is_disabled":true,"rental_uris":{"android":"levelo://app?vid=c334e90a-a1ae-4b1c-a131-dfc94bbc62e8","ios":"levelo://app?vid=c334e90a-a1ae-4b1c-a131-dfc94bbc62e8"},"vehicle_type_id":"4","last_reported":1743869425,"current_range_meters":3200,"station_id":"ce4bhc92rcd13ifvqetg","pricing_plan_id":"cebpf4jnsgd1na2vs0mg"},{"bike_id":"c91e02cd-5d52-419d-b44c-a49ec0eba664","system_id":"levelo_inurba_marseille","lat":43.27974,"lon":5.3874,"is_reserved":false,"is_disabled":false,"rental_uris":{"android":"levelo://app?vid=c91e02cd-5d52-419d-b44c-a49ec0eba664","ios":"levelo://app?vid=c91e02cd-5d52-419d-b44c-a49ec0eba664"},"vehicle_type_id":"4","last_reported":1743869425,"current_range_meters":3200,"station_id":"ce4bhg12rcd13ifvqf80","pricing_plan_id":"cebpf4jnsgd1na2vs0mg"},{"bike_id":"a62c2737-6780-4302-ad39-bfc4c4decf1e","system_id":"levelo_inurba_marseille","lat":43.30952,"lon":5.39029,"is_reserved":false,"is_disabled":false,"rental_uris":{"android":"levelo://app?vid=a62c2737-6780-4302-ad39-bfc4c4decf1e","ios":"levelo://app?vid=a62c2737-6780-4302-ad39-bfc4c4decf1e"},"vehicle_type_id":"4","last_reported":1743869425,"current_range_meters":3200,"station_id":"ce4bgup2rcd13ifvqco0","pricing_plan_id":"cebpf4jnsgd1na2vs0mg"},{"bike_id":"7a389fd7-a90a-47b4-8c7e-a1a93df13874","system_id":"levelo_inurba_marseille","lat":43.286158,"lon":5.351034,"is_reserved":false,"is_disabled":false,"rental_uris":{"android":"levelo://app?vid=7a389fd7-a90a-47b4-8c7e-a1a93df13874","ios":"levelo://app?vid=7a389fd7-a90a-47b4-8c7e-a1a93df13874"},"vehicle_type_id":"4","last_reported":1743869425,"current_range_meters":3200,"station_id":"ce4bhbh2rcd13ifvqeo0","pricing_plan_id":"cebpf4jnsgd1na2vs0mg"},{"bike_id":"70b9d404-9b69-4c80-a5ec-9950e1e5c9a4","system_id":"levelo_inurba_marseille","lat":43.24653,"lon":5.38899,"is_reserved":false,"is_disabled":false,"rental_uris":{"android":"levelo://app?vid=70b9d404-9b69-4c80-a5ec-9950e1e5c9a4","ios":"levelo://app?vid=70b9d404-9b69-4c80-a5ec-9950e1e5c9a4"},"vehicle_type_id":"4","last_reported":1743869425,"current_range_meters":3200,"station_id":"ce4bhg12rcd13ifvqf60","pricing_plan_id":"cebpf4jnsgd1na2vs0mg"},{"bike_id":"a87d57c2-ef8d-4a4e-b9dd-a8319e6d7944","system_id":"levelo_inurba_marseille","lat":43.28155,"lon":5.42638,"is_reserved":false,"is_disabled":false,"rental_uris":{"android":"levelo://app?vid=a87d57c2-ef8d-4a4e-b9dd-a8319e6d7944","ios":"levelo://app?vid=a87d57c2-ef8d-4a4e-b9dd-a8319e6d7944"},"vehicle_type_id":"4","last_reported":1743869425,"current_range_meters":3600,"station_id":"ce4bhnh2rcd13ifvqgug","pricing_plan_id":"cebpf4jnsgd1na2vs0mg"},{"bike_id":"b5349f7b-6f69-44a5-82f3-2980fe38c852","system_id":"levelo_inurba_marseille","lat":43.24808,"lon":5.37459,"is_reserved":false,"is_disabled":false,"rental_uris":{"android":"levelo://app?vid=b5349f7b-6f69-44a5-82f3-2980fe38c852","ios":"levelo://app?vid=b5349f7b-6f69-44a5-82f3-2980fe38c852"},"vehicle_type_id":"4","last_reported":1743869425,"current_range_meters":3600,"station_id":"ce4bhgh2rcd13ifvqfb0","pricing_plan_id":"cebpf4jnsgd1na2vs0mg"},{"bike_id":"a281cfc4-1c35-416b-9079-fc11b53dc3d3","system_id":"levelo_inurba_marseille","lat":43.30303,"lon":5.39198,"is_reserved":false,"is_disabled":false,"rental_uris":{"android":"levelo://app?vid=a281cfc4-1c35-416b-9079-fc11b53dc3d3","ios":"levelo://app?vid=a281cfc4-1c35-416b-9079-fc11b53dc3d3"},"vehicle_type_id":"4","last_reported":1743869425,"current_range_meters":3600,"station_id":"ce4bgkh2rcd13ifvqbk0","pricing_plan_id":"cebpf4jnsgd1na2vs0mg"},{"bike_id":"999f056d-9515-43eb-a5f6-9a483d7da8d0","system_id":"levelo_inurba_marseille","lat":43.279533,"lon":5.41051,"is_reserved":false,"is_disabled":false,"rental_uris":{"android":"levelo://app?vid=999f056d-9515-43eb-a5f6-9a483d7da8d0","ios":"levelo://app?vid=999f056d-9515-43eb-a5f6-9a483d7da8d0"},"vehicle_type_id":"4","last_reported":1743869425,"current_range_meters":3600,"station_id":"ce4bhbp2rcd13ifvqesg","pricing_plan_id":"cebpf4jnsgd1na2vs0mg"},{"bike_id":"7e5e7dd3-2314-4f93-98c6-400ad110dfcb","system_id":"levelo_inurba_marseille","lat":43.29099,"lon":5.38115,"is_reserved":false,"is_disabled":false,"rental_uris":{"android":"levelo://app?vid=7e5e7dd3-2314-4f93-98c6-400ad110dfcb","ios":"levelo://app?vid=7e5e7dd3-2314-4f93-98c6-400ad110dfcb"},"vehicle_type_id":"4","last_reported":1743869425,"current_range_meters":3200,"station_id":"ce4bh512rcd13ifvqe2g","pricing_plan_id":"cebpf4jnsgd1na2vs0mg"},{"bike_id":"3ead1b55-d8b5-4af8-8c4c-a95aef9cd324","system_id":"levelo_inurba_marseille","lat":43.28466,"lon":5.35892,"is_reserved":false,"is_disabled":false,"rental_uris":{"android":"levelo://app?vid=3ead1b55-d8b5-4af8-8c4c-a95aef9cd324","ios":"levelo://app?vid=3ead1b55-d8b5-4af8-8c4c-a95aef9cd324"},"vehicle_type_id":"4","last_reported":1743869425,"current_range_meters":3600,"station_id":"ce4bhah2rcd13ifvqei0","pricing_plan_id":"cebpf4jnsgd1na2vs0mg"},{"bike_id":"fddf833d-37c8-40d1-9a84-28320f472c52","system_id":"levelo_inurba_marseille","lat":43.26794,"lon":5.39433,"is_reserved":false,"is_disabled":false,"rental_uris":{"android":"levelo://app?vid=fddf833d-37c8-40d1-9a84-28320f472c52","ios":"levelo://app?vid=fddf833d-37c8-40d1-9a84-28320f472c52"},"vehicle_type_id":"4","last_reported":1743869425,"current_range_meters":3600,"station_id":"ce4bhh12rcd13ifvqfg0","pricing_plan_id":"cebpf4jnsgd1na2vs0mg"},{"bike_id":"e75c2ef2-3b3d-47b3-b71e-b5e8881f8279","system_id":"levelo_inurba_marseille","lat":43.29713,"lon":5.37693,"is_reserved":false,"is_disabled":false,"rental_uris":{"android":"levelo://app?vid=e75c2ef2-3b3d-47b3-b71e-b5e8881f8279","ios":"levelo://app?vid=e75c2ef2-3b3d-47b3-b71e-b5e8881f8279"},"vehicle_type_id":"4","last_reported":1743869425,"current_range_meters":3600,"station_id":"ce4bgkh2rcd13ifvqbl0","pricing_plan_id":"cebpf4jnsgd1na2vs0mg"},{"bike_id":"639ed47b-4e8c-4f6b-b28f-526a70abbbb9","system_id":"levelo_inurba_marseille","lat":43.29029,"lon":5.3865,"is_reserved":false,"is_disabled":false,"rental_uris":{"android":"levelo://app?vid=639ed47b-4e8c-4f6b-b28f-526a70abbbb9","ios":"levelo://app?vid=639ed47b-4e8c-4f6b-b28f-526a70abbbb9"},"vehicle_type_id":"4","last_reported":1743869425,"current_range_meters":4000,"station_id":"ce4bh4p2rcd13ifvqe0g","pricing_plan_id":"cebpf4jnsgd1na2vs0mg"},{"bike_id":"f19752ed-1dd6-438b-a5c6-b1aea9bf227a","system_id":"levelo_inurba_marseille","lat":43.310773,"lon":5.383557,"is_reserved":false,"is_disabled":false,"rental_uris":{"android":"levelo://app?vid=f19752ed-1dd6-438b-a5c6-b1aea9bf227a","ios":"levelo://app?vid=f19752ed-1dd6-438b-a5c6-b1aea9bf227a"},"vehicle_type_id":"4","last_reported":1743869425,"current_range_meters":4000,"station_id":"ce4bgv92rcd13ifvqcr0","pricing_plan_id":"cebpf4jnsgd1na2vs0mg"},{"bike_id":"b86ee190-1e75-4e39-9cf4-e0696b3782e1","system_id":"levelo_inurba_marseille","lat":43.2737,"lon":5.36249,"is_reserved":false,"is_disabled":false,"rental_uris":{"android":"levelo://app?vid=b86ee190-1e75-4e39-9cf4-e0696b3782e1","ios":"levelo://app?vid=b86ee190-1e75-4e39-9cf4-e0696b3782e1"},"vehicle_type_id":"4","last_reported":1743869425,"current_range_meters":4000,"station_id":"ce4bhbh2rcd13ifvqeo0","pricing_plan_id":"cebpf4jnsgd1na2vs0mg"},{"bike_id":"178c718b-d6a4-422b-bc3d-095731e39912","system_id":"levelo_inurba_marseille","lat":43.27061,"lon":5.40249,"is_reserved":false,"is_disabled":false,"rental_uris":{"android":"levelo://app?vid=178c718b-d6a4-422b-bc3d-095731e39912","ios":"levelo://app?vid=178c718b-d6a4-422b-bc3d-095731e39912"},"vehicle_type_id":"4","last_reported":1743869425,"current_range_meters":4000,"station_id":"ce4bhk92rcd13ifvqgc0","pricing_plan_id":"cebpf4jnsgd1na2vs0mg"},{"bike_id":"e66498a1-9975-49f5-8b0b-43b9b9ebd039","system_id":"levelo_inurba_marseille","lat":43.2656,"lon":5.37287,"is_reserved":false,"is_disabled":false,"rental_uris":{"android":"levelo://app?vid=e66498a1-9975-49f5-8b0b-43b9b9ebd039","ios":"levelo://app?vid=e66498a1-9975-49f5-8b0b-43b9b9ebd039"},"vehicle_type_id":"4","last_reported":1743869425,"current_range_meters":4000,"station_id":"ce4bhg12rcd13ifvqf70","pricing_plan_id":"cebpf4jnsgd1na2vs0mg"},{"bike_id":"fed25cf4-7be8-408e-848d-a778b08cb7e9","system_id":"levelo_inurba_marseille","lat":43.298962,"lon":5.436723,"is_reserved":false,"is_disabled":false,"rental_uris":{"android":"levelo://app?vid=fed25cf4-7be8-408e-848d-a778b08cb7e9","ios":"levelo://app?vid=fed25cf4-7be8-408e-848d-a778b08cb7e9"},"vehicle_type_id":"4","last_reported":1743869425,"current_range_meters":4000,"station_id":"ce4bhpp2rcd13ifvqhfg","pricing_plan_id":"cebpf4jnsgd1na2vs0mg"},{"bike_id":"c49e26dd-b74b-4124-8809-f1a00d405ad7","system_id":"levelo_inurba_marseille","lat":43.295166,"lon":5.374981,"is_reserved":false,"is_disabled":false,"rental_uris":{"android":"levelo://app?vid=c49e26dd-b74b-4124-8809-f1a00d405ad7","ios":"levelo://app?vid=c49e26dd-b74b-4124-8809-f1a00d405ad7"},"vehicle_type_id":"4","last_reported":1743869425,"current_range_meters":4000,"station_id":"ce4bgkp2rcd13ifvqbmg","pricing_plan_id":"cebpf4jnsgd1na2vs0mg"},{"bike_id":"75dcb4db-5540-4bf8-84fe-81ea48915d80","system_id":"levelo_inurba_marseille","lat":43.26557,"lon":5.37283,"is_reserved":false,"is_disabled":false,"rental_uris":{"android":"levelo://app?vid=75dcb4db-5540-4bf8-84fe-81ea48915d80","ios":"levelo://app?vid=75dcb4db-5540-4bf8-84fe-81ea48915d80"},"vehicle_type_id":"4","last_reported":1743869425,"current_range_meters":4000,"station_id":"ce4bhg12rcd13ifvqf70","pricing_plan_id":"cebpf4jnsgd1na2vs0mg"},{"bike_id":"75ccf588-4eae-4bba-b33f-559dba67b46e","system_id":"levelo_inurba_marseille","lat":43.29935,"lon":5.365595,"is_reserved":false,"is_disabled":false,"rental_uris":{"android":"levelo://app?vid=75ccf588-4eae-4bba-b33f-559dba67b46e","ios":"levelo://app?vid=75ccf588-4eae-4bba-b33f-559dba67b46e"},"vehicle_type_id":"4","last_reported":1743869425,"current_range_meters":4400,"station_id":"ce4bgm92rcd13ifvqbr0","pricing_plan_id":"cebpf4jnsgd1na2vs0mg"},{"bike_id":"0d79583e-88c5-4b59-b2e6-ffdc4055445e","system_id":"levelo_inurba_marseille","lat":43.2738,"lon":5.36256,"is_reserved":false,"is_disabled":false,"rental_uris":{"android":"levelo://app?vid=0d79583e-88c5-4b59-b2e6-ffdc4055445e","ios":"levelo://app?vid=0d79583e-88c5-4b59-b2e6-ffdc4055445e"},"vehicle_type_id":"4","last_reported":1743869425,"current_range_meters":6400,"station_id":"ce4bhbh2rcd13ifvqeo0","pricing_plan_id":"cebpf4jnsgd1na2vs0mg"},{"bike_id":"b602d0f2-06fe-4db5-b1b9-9bdb7b08f80f","system_id":"levelo_inurba_marseille","lat":43.24813,"lon":5.37448,"is_reserved":false,"is_disabled":false,"rental_uris":{"android":"levelo://app?vid=b602d0f2-06fe-4db5-b1b9-9bdb7b08f80f","ios":"levelo://app?vid=b602d0f2-06fe-4db5-b1b9-9bdb7b08f80f"},"vehicle_type_id":"4","last_reported":1743869425,"current_range_meters":4800,"station_id":"ce4bhgh2rcd13ifvqfb0","pricing_plan_id":"cebpf4jnsgd1na2vs0mg"},{"bike_id":"8fa92ff1-c2cb-4fa2-b3ce-e14c12ce1bf4","system_id":"levelo_inurba_marseille","lat":43.281555,"lon":5.426399,"is_reserved":false,"is_disabled":false,"rental_uris":{"android":"levelo://app?vid=8fa92ff1-c2cb-4fa2-b3ce-e14c12ce1bf4","ios":"levelo://app?vid=8fa92ff1-c2cb-4fa2-b3ce-e14c12ce1bf4"},"vehicle_type_id":"4","last_reported":1743869425,"current_range_meters":4800,"station_id":"ce4bhnh2rcd13ifvqgug","pricing_plan_id":"cebpf4jnsgd1na2vs0mg"},{"bike_id":"fcbd0ab2-c787-4907-b25a-3f500ece0953","system_id":"levelo_inurba_marseille","lat":43.29537,"lon":5.39393,"is_reserved":false,"is_disabled":false,"rental_uris":{"android":"levelo://app?vid=fcbd0ab2-c787-4907-b25a-3f500ece0953","ios":"levelo://app?vid=fcbd0ab2-c787-4907-b25a-3f500ece0953"},"vehicle_type_id":"4","last_reported":1743869425,"current_range_meters":4800,"station_id":"ce4bh292rcd13ifvqdf0","pricing_plan_id":"cebpf4jnsgd1na2vs0mg"},{"bike_id":"006ccfeb-0c8b-4bb0-a808-e4471af4231e","system_id":"levelo_inurba_marseille","lat":43.25494,"lon":5.37652,"is_reserved":false,"is_disabled":false,"rental_uris":{"android":"levelo://app?vid=006ccfeb-0c8b-4bb0-a808-e4471af4231e","ios":"levelo://app?vid=006ccfeb-0c8b-4bb0-a808-e4471af4231e"},"vehicle_type_id":"4","last_reported":1743869425,"current_range_meters":4800,"station_id":"ce4bhh12rcd13ifvqff0","pricing_plan_id":"cebpf4jnsgd1na2vs0mg"},{"bike_id":"2ac1416a-f6fb-4fe0-a978-e8916b9901f0","system_id":"levelo_inurba_marseille","lat":43.26557,"lon":5.37284,"is_reserved":false,"is_disabled":false,"rental_uris":{"android":"levelo://app?vid=2ac1416a-f6fb-4fe0-a978-e8916b9901f0","ios":"levelo://app?vid=2ac1416a-f6fb-4fe0-a978-e8916b9901f0"},"vehicle_type_id":"4","last_reported":1743869425,"current_range_meters":4800,"station_id":"ce4bhg12rcd13ifvqf70","pricing_plan_id":"cebpf4jnsgd1na2vs0mg"},{"bike_id":"b6b8484c-4cfe-4d87-accb-59b1f72b80ca","system_id":"levelo_inurba_marseille","lat":43.25008,"lon":5.38921,"is_reserved":false,"is_disabled":false,"rental_uris":{"android":"levelo://app?vid=b6b8484c-4cfe-4d87-accb-59b1f72b80ca","ios":"levelo://app?vid=b6b8484c-4cfe-4d87-accb-59b1f72b80ca"},"vehicle_type_id":"4","last_reported":1743869425,"current_range_meters":4800,"station_id":"ce4bhgp2rcd13ifvqfd0","pricing_plan_id":"cebpf4jnsgd1na2vs0mg"},{"bike_id":"c6e09a47-db0b-4659-897b-c68b6d58526c","system_id":"levelo_inurba_marseille","lat":43.22925,"lon":5.3538,"is_reserved":false,"is_disabled":true,"rental_uris":{"android":"levelo://app?vid=c6e09a47-db0b-4659-897b-c68b6d58526c","ios":"levelo://app?vid=c6e09a47-db0b-4659-897b-c68b6d58526c"},"vehicle_type_id":"4","last_reported":1743869425,"current_range_meters":4800,"station_id":"","pricing_plan_id":"cebpf4jnsgd1na2vs0mg"},{"bike_id":"84a07b29-133c-4879-8e50-3b9a7bab03c0","system_id":"levelo_inurba_marseille","lat":43.290344,"lon":5.386591,"is_reserved":false,"is_disabled":false,"rental_uris":{"android":"levelo://app?vid=84a07b29-133c-4879-8e50-3b9a7bab03c0","ios":"levelo://app?vid=84a07b29-133c-4879-8e50-3b9a7bab03c0"},"vehicle_type_id":"4","last_reported":1743869425,"current_range_meters":4000,"station_id":"ce4bh4p2rcd13ifvqe0g","pricing_plan_id":"cebpf4jnsgd1na2vs0mg"},{"bike_id":"a6ed7d55-4106-48bb-9c99-deb74dd690fc","system_id":"levelo_inurba_marseille","lat":43.28617,"lon":5.35104,"is_reserved":false,"is_disabled":false,"rental_uris":{"android":"levelo://app?vid=a6ed7d55-4106-48bb-9c99-deb74dd690fc","ios":"levelo://app?vid=a6ed7d55-4106-48bb-9c99-deb74dd690fc"},"vehicle_type_id":"4","last_reported":1743869425,"current_range_meters":5600,"station_id":"ce4bhch2rcd13ifvqeug","pricing_plan_id":"cebpf4jnsgd1na2vs0mg"},{"bike_id":"88e91797-5f2e-43ee-9a0e-79cab7ec6970","system_id":"levelo_inurba_marseille","lat":43.24813,"lon":5.37464,"is_reserved":false,"is_disabled":false,"rental_uris":{"android":"levelo://app?vid=88e91797-5f2e-43ee-9a0e-79cab7ec6970","ios":"levelo://app?vid=88e91797-5f2e-43ee-9a0e-79cab7ec6970"},"vehicle_type_id":"4","last_reported":1743869425,"current_range_meters":5600,"station_id":"ce4bhgh2rcd13ifvqfb0","pricing_plan_id":"cebpf4jnsgd1na2vs0mg"},{"bike_id":"25ad5958-176d-4193-afb4-584d469695b9","system_id":"levelo_inurba_marseille","lat":43.29912,"lon":5.37462,"is_reserved":false,"is_disabled":false,"rental_uris":{"android":"levelo://app?vid=25ad5958-176d-4193-afb4-584d469695b9","ios":"levelo://app?vid=25ad5958-176d-4193-afb4-584d469695b9"},"vehicle_type_id":"4","last_reported":1743869425,"current_range_meters":5600,"station_id":"ce4bgjh2rcd13ifvqbg0","pricing_plan_id":"cebpf4jnsgd1na2vs0mg"},{"bike_id":"4ff21973-c65b-49f1-8c00-7c33b9b32fe5","system_id":"levelo_inurba_marseille","lat":43.29507,"lon":5.37506,"is_reserved":false,"is_disabled":false,"rental_uris":{"android":"levelo://app?vid=4ff21973-c65b-49f1-8c00-7c33b9b32fe5","ios":"levelo://app?vid=4ff21973-c65b-49f1-8c00-7c33b9b32fe5"},"vehicle_type_id":"4","last_reported":1743869425,"current_range_meters":5600,"station_id":"ce4bgkp2rcd13ifvqbmg","pricing_plan_id":"cebpf4jnsgd1na2vs0mg"},{"bike_id":"2bc6df89-4e38-4317-b2ba-8007e63b4117","system_id":"levelo_inurba_marseille","lat":43.297946,"lon":5.38113,"is_reserved":false,"is_disabled":false,"rental_uris":{"android":"levelo://app?vid=2bc6df89-4e38-4317-b2ba-8007e63b4117","ios":"levelo://app?vid=2bc6df89-4e38-4317-b2ba-8007e63b4117"},"vehicle_type_id":"4","last_reported":1743869425,"current_range_meters":5600,"station_id":"ce4bgip2rcd13ifvqbb0","pricing_plan_id":"cebpf4jnsgd1na2vs0mg"},{"bike_id":"398b1a6c-b751-4c4f-a49b-f383306a8764","system_id":"levelo_inurba_marseille","lat":43.30255,"lon":5.40074,"is_reserved":false,"is_disabled":false,"rental_uris":{"android":"levelo://app?vid=398b1a6c-b751-4c4f-a49b-f383306a8764","ios":"levelo://app?vid=398b1a6c-b751-4c4f-a49b-f383306a8764"},"vehicle_type_id":"4","last_reported":1743869425,"current_range_meters":5600,"station_id":"ce4bgvh2rcd13ifvqcs0","pricing_plan_id":"cebpf4jnsgd1na2vs0mg"},{"bike_id":"08d46310-00f8-4399-9ae9-67d853afa2d9","system_id":"levelo_inurba_marseille","lat":43.2943,"lon":5.38626,"is_reserved":false,"is_disabled":false,"rental_uris":{"android":"levelo://app?vid=08d46310-00f8-4399-9ae9-67d853afa2d9","ios":"levelo://app?vid=08d46310-00f8-4399-9ae9-67d853afa2d9"},"vehicle_type_id":"4","last_reported":1743869425,"current_range_meters":4800,"station_id":"ce4bh2h2rcd13ifvqdh0","pricing_plan_id":"cebpf4jnsgd1na2vs0mg"},{"bike_id":"2b829cb4-e166-4fe2-b281-85746037f1ad","system_id":"levelo_inurba_marseille","lat":43.30391,"lon":5.42477,"is_reserved":false,"is_disabled":false,"rental_uris":{"android":"levelo://app?vid=2b829cb4-e166-4fe2-b281-85746037f1ad","ios":"levelo://app?vid=2b829cb4-e166-4fe2-b281-85746037f1ad"},"vehicle_type_id":"4","last_reported":1743869425,"current_range_meters":6000,"station_id":"ce4bhoh2rcd13ifvqh6g","pricing_plan_id":"cebpf4jnsgd1na2vs0mg"},{"bike_id":"c1799cbf-296a-430c-956f-3fae004e4143","system_id":"levelo_inurba_marseille","lat":43.27213,"lon":5.39179,"is_reserved":false,"is_disabled":false,"rental_uris":{"android":"levelo://app?vid=c1799cbf-296a-430c-956f-3fae004e4143","ios":"levelo://app?vid=c1799cbf-296a-430c-956f-3fae004e4143"},"vehicle_type_id":"4","last_reported":1743869425,"current_range_meters":7200,"station_id":"ce4bhhp2rcd13ifvqfm0","pricing_plan_id":"cebpf4jnsgd1na2vs0mg"},{"bike_id":"86eefd33-5009-4831-8f5a-4c99c748520b","system_id":"levelo_inurba_marseille","lat":43.273741,"lon":5.36265,"is_reserved":false,"is_disabled":false,"rental_uris":{"android":"levelo://app?vid=86eefd33-5009-4831-8f5a-4c99c748520b","ios":"levelo://app?vid=86eefd33-5009-4831-8f5a-4c99c748520b"},"vehicle_type_id":"4","last_reported":1743869425,"current_range_meters":6000,"station_id":"ce4bhbh2rcd13ifvqeo0","pricing_plan_id":"cebpf4jnsgd1na2vs0mg"},{"bike_id":"13451e18-ab04-4602-8672-ee6bdc3e4374","system_id":"levelo_inurba_marseille","lat":43.278138,"lon":5.407108,"is_reserved":false,"is_disabled":false,"rental_uris":{"android":"levelo://app?vid=13451e18-ab04-4602-8672-ee6bdc3e4374","ios":"levelo://app?vid=13451e18-ab04-4602-8672-ee6bdc3e4374"},"vehicle_type_id":"4","last_reported":1743869425,"current_range_meters":6000,"station_id":"ce4bhnh2rcd13ifvqgtg","pricing_plan_id":"cebpf4jnsgd1na2vs0mg"},{"bike_id":"b5196e72-5958-4d75-ba89-93697f3eff16","system_id":"levelo_inurba_marseille","lat":43.29305,"lon":5.37461,"is_reserved":false,"is_disabled":false,"rental_uris":{"android":"levelo://app?vid=b5196e72-5958-4d75-ba89-93697f3eff16","ios":"levelo://app?vid=b5196e72-5958-4d75-ba89-93697f3eff16"},"vehicle_type_id":"4","last_reported":1743869425,"current_range_meters":6000,"station_id":"ce4bgi12rcd13ifvqb70","pricing_plan_id":"cebpf4jnsgd1na2vs0mg"},{"bike_id":"2ee13cf4-e7f2-4746-a996-5b8342b78ff7","system_id":"levelo_inurba_marseille","lat":43.24393,"lon":5.37056,"is_reserved":false,"is_disabled":false,"rental_uris":{"android":"levelo://app?vid=2ee13cf4-e7f2-4746-a996-5b8342b78ff7","ios":"levelo://app?vid=2ee13cf4-e7f2-4746-a996-5b8342b78ff7"},"vehicle_type_id":"4","last_reported":1743869425,"current_range_meters":6000,"station_id":"ce4bhhh2rcd13ifvqfk0","pricing_plan_id":"cebpf4jnsgd1na2vs0mg"},{"bike_id":"3d23369b-786b-4689-a3c1-a79aa3389f8c","system_id":"levelo_inurba_marseille","lat":43.28621,"lon":5.35108,"is_reserved":false,"is_disabled":false,"rental_uris":{"android":"levelo://app?vid=3d23369b-786b-4689-a3c1-a79aa3389f8c","ios":"levelo://app?vid=3d23369b-786b-4689-a3c1-a79aa3389f8c"},"vehicle_type_id":"4","last_reported":1743869425,"current_range_meters":6000,"station_id":"ce4bhch2rcd13ifvqeug","pricing_plan_id":"cebpf4jnsgd1na2vs0mg"},{"bike_id":"eb1099fb-29c4-4fb7-b020-4d31e0150ff9","system_id":"levelo_inurba_marseille","lat":43.28157,"lon":5.42639,"is_reserved":false,"is_disabled":false,"rental_uris":{"android":"levelo://app?vid=eb1099fb-29c4-4fb7-b020-4d31e0150ff9","ios":"levelo://app?vid=eb1099fb-29c4-4fb7-b020-4d31e0150ff9"},"vehicle_type_id":"4","last_reported":1743869425,"current_range_meters":6400,"station_id":"ce4bhnh2rcd13ifvqgug","pricing_plan_id":"cebpf4jnsgd1na2vs0mg"},{"bike_id":"232f9395-ffba-47ed-9d96-fdbd77570882","system_id":"levelo_inurba_marseille","lat":43.273709,"lon":5.362601,"is_reserved":false,"is_disabled":false,"rental_uris":{"android":"levelo://app?vid=232f9395-ffba-47ed-9d96-fdbd77570882","ios":"levelo://app?vid=232f9395-ffba-47ed-9d96-fdbd77570882"},"vehicle_type_id":"4","last_reported":1743869425,"current_range_meters":6400,"station_id":"ce4bhbh2rcd13ifvqeo0","pricing_plan_id":"cebpf4jnsgd1na2vs0mg"},{"bike_id":"a14318a1-56ea-4c99-bbc8-865071a2b7fb","system_id":"levelo_inurba_marseille","lat":43.24796,"lon":5.37461,"is_reserved":false,"is_disabled":false,"rental_uris":{"android":"levelo://app?vid=a14318a1-56ea-4c99-bbc8-865071a2b7fb","ios":"levelo://app?vid=a14318a1-56ea-4c99-bbc8-865071a2b7fb"},"vehicle_type_id":"4","last_reported":1743869425,"current_range_meters":6400,"station_id":"ce4bhgh2rcd13ifvqfb0","pricing_plan_id":"cebpf4jnsgd1na2vs0mg"},{"bike_id":"ae644cdf-1c1d-40df-b8f5-80fded2c7816","system_id":"levelo_inurba_marseille","lat":43.28942,"lon":5.36651,"is_reserved":false,"is_disabled":false,"rental_uris":{"android":"levelo://app?vid=ae644cdf-1c1d-40df-b8f5-80fded2c7816","ios":"levelo://app?vid=ae644cdf-1c1d-40df-b8f5-80fded2c7816"},"vehicle_type_id":"4","last_reported":1743869425,"current_range_meters":6400,"station_id":"ce4bhap2rcd13ifvqek0","pricing_plan_id":"cebpf4jnsgd1na2vs0mg"},{"bike_id":"50297066-959d-45c5-a71e-b062cc3724ec","system_id":"levelo_inurba_marseille","lat":43.3081,"lon":5.37322,"is_reserved":false,"is_disabled":false,"rental_uris":{"android":"levelo://app?vid=50297066-959d-45c5-a71e-b062cc3724ec","ios":"levelo://app?vid=50297066-959d-45c5-a71e-b062cc3724ec"},"vehicle_type_id":"4","last_reported":1743869425,"current_range_meters":6400,"station_id":"","pricing_plan_id":"cebpf4jnsgd1na2vs0mg"},{"bike_id":"9edd22c7-c648-47cb-8944-6510ce3f2ca6","system_id":"levelo_inurba_marseille","lat":43.28848,"lon":5.35852,"is_reserved":false,"is_disabled":false,"rental_uris":{"android":"levelo://app?vid=9edd22c7-c648-47cb-8944-6510ce3f2ca6","ios":"levelo://app?vid=9edd22c7-c648-47cb-8944-6510ce3f2ca6"},"vehicle_type_id":"4","last_reported":1743869425,"current_range_meters":6400,"station_id":"ce4bhb12rcd13ifvqem0","pricing_plan_id":"cebpf4jnsgd1na2vs0mg"},{"bike_id":"84187423-daf6-458e-afea-84a3bb3ccc88","system_id":"levelo_inurba_marseille","lat":43.26939,"lon":5.38919,"is_reserved":false,"is_disabled":false,"rental_uris":{"android":"levelo://app?vid=84187423-daf6-458e-afea-84a3bb3ccc88","ios":"levelo://app?vid=84187423-daf6-458e-afea-84a3bb3ccc88"},"vehicle_type_id":"4","last_reported":1743869425,"current_range_meters":8800,"station_id":"ce4bhhh2rcd13ifvqfl0","pricing_plan_id":"cebpf4jnsgd1na2vs0mg"},{"bike_id":"1d8269f2-975b-469b-b0c1-bb4c3be6f568","system_id":"levelo_inurba_marseille","lat":43.2963,"lon":5.37712,"is_reserved":false,"is_disabled":false,"rental_uris":{"android":"levelo://app?vid=1d8269f2-975b-469b-b0c1-bb4c3be6f568","ios":"levelo://app?vid=1d8269f2-975b-469b-b0c1-bb4c3be6f568"},"vehicle_type_id":"4","last_reported":1743869425,"current_range_meters":6800,"station_id":"ce4bgi92rcd13ifvqb90","pricing_plan_id":"cebpf4jnsgd1na2vs0mg"},{"bike_id":"0835d01c-3d20-4fce-95ca-c7aad3683735","system_id":"levelo_inurba_marseille","lat":43.25118,"lon":5.40352,"is_reserved":false,"is_disabled":false,"rental_uris":{"android":"levelo://app?vid=0835d01c-3d20-4fce-95ca-c7aad3683735","ios":"levelo://app?vid=0835d01c-3d20-4fce-95ca-c7aad3683735"},"vehicle_type_id":"4","last_reported":1743869425,"current_range_meters":6800,"station_id":"ce4bhlh2rcd13ifvqgig","pricing_plan_id":"cebpf4jnsgd1na2vs0mg"},{"bike_id":"2d3c25b8-d290-4024-bd69-e14485deb189","system_id":"levelo_inurba_marseille","lat":43.31279,"lon":5.40164,"is_reserved":false,"is_disabled":false,"rental_uris":{"android":"levelo://app?vid=2d3c25b8-d290-4024-bd69-e14485deb189","ios":"levelo://app?vid=2d3c25b8-d290-4024-bd69-e14485deb189"},"vehicle_type_id":"4","last_reported":1743869425,"current_range_meters":6400,"station_id":"ce4bh092rcd13ifvqd30","pricing_plan_id":"cebpf4jnsgd1na2vs0mg"},{"bike_id":"faa5d74b-ee99-48c8-b3f9-eb4f02267889","system_id":"levelo_inurba_marseille","lat":43.28715,"lon":5.37918,"is_reserved":false,"is_disabled":false,"rental_uris":{"android":"levelo://app?vid=faa5d74b-ee99-48c8-b3f9-eb4f02267889","ios":"levelo://app?vid=faa5d74b-ee99-48c8-b3f9-eb4f02267889"},"vehicle_type_id":"4","last_reported":1743869425,"current_range_meters":6800,"station_id":"ce4bh9p2rcd13ifvqec0","pricing_plan_id":"cebpf4jnsgd1na2vs0mg"},{"bike_id":"1ea81ce7-6289-46e4-9e93-48f42c66ce90","system_id":"levelo_inurba_marseille","lat":43.27966,"lon":5.38751,"is_reserved":false,"is_disabled":false,"rental_uris":{"android":"levelo://app?vid=1ea81ce7-6289-46e4-9e93-48f42c66ce90","ios":"levelo://app?vid=1ea81ce7-6289-46e4-9e93-48f42c66ce90"},"vehicle_type_id":"4","last_reported":1743869425,"current_range_meters":6800,"station_id":"ce4bhg12rcd13ifvqf80","pricing_plan_id":"cebpf4jnsgd1na2vs0mg"},{"bike_id":"3a673a01-13fc-4ed6-b9b1-08a0faf2fd75","system_id":"levelo_inurba_marseille","lat":43.2319,"lon":5.39984,"is_reserved":false,"is_disabled":false,"rental_uris":{"android":"levelo://app?vid=3a673a01-13fc-4ed6-b9b1-08a0faf2fd75","ios":"levelo://app?vid=3a673a01-13fc-4ed6-b9b1-08a0faf2fd75"},"vehicle_type_id":"4","last_reported":1743869425,"current_range_meters":6800,"station_id":"ce4bhn12rcd13ifvqgqg","pricing_plan_id":"cebpf4jnsgd1na2vs0mg"},{"bike_id":"5b51b5fd-ce54-408c-a158-d05e7d152a17","system_id":"levelo_inurba_marseille","lat":43.26572,"lon":5.39005,"is_reserved":false,"is_disabled":false,"rental_uris":{"android":"levelo://app?vid=5b51b5fd-ce54-408c-a158-d05e7d152a17","ios":"levelo://app?vid=5b51b5fd-ce54-408c-a158-d05e7d152a17"},"vehicle_type_id":"4","last_reported":1743869425,"current_range_meters":6800,"station_id":"ce4bhe12rcd13ifvqf30","pricing_plan_id":"cebpf4jnsgd1na2vs0mg"},{"bike_id":"628aa510-a62e-479b-b5cd-8c0fec508da3","system_id":"levelo_inurba_marseille","lat":43.28393,"lon":5.34989,"is_reserved":false,"is_disabled":false,"rental_uris":{"android":"levelo://app?vid=628aa510-a62e-479b-b5cd-8c0fec508da3","ios":"levelo://app?vid=628aa510-a62e-479b-b5cd-8c0fec508da3"},"vehicle_type_id":"4","last_reported":1743869425,"current_range_meters":6800,"station_id":"ce4bhbh2rcd13ifvqepg","pricing_plan_id":"cebpf4jnsgd1na2vs0mg"},{"bike_id":"832d83ed-a1d5-44e0-a01f-8c0cf2f96d85","system_id":"levelo_inurba_marseille","lat":43.23154,"lon":5.4369,"is_reserved":false,"is_disabled":false,"rental_uris":{"android":"levelo://app?vid=832d83ed-a1d5-44e0-a01f-8c0cf2f96d85","ios":"levelo://app?vid=832d83ed-a1d5-44e0-a01f-8c0cf2f96d85"},"vehicle_type_id":"4","last_reported":1743869425,"current_range_meters":7200,"station_id":"ce4bhmp2rcd13ifvqgog","pricing_plan_id":"cebpf4jnsgd1na2vs0mg"},{"bike_id":"d570d08b-a14f-40bc-b5fb-40faa300325c","system_id":"levelo_inurba_marseille","lat":43.248102,"lon":5.374659,"is_reserved":false,"is_disabled":false,"rental_uris":{"android":"levelo://app?vid=d570d08b-a14f-40bc-b5fb-40faa300325c","ios":"levelo://app?vid=d570d08b-a14f-40bc-b5fb-40faa300325c"},"vehicle_type_id":"4","last_reported":1743869425,"current_range_meters":7200,"station_id":"","pricing_plan_id":"cebpf4jnsgd1na2vs0mg"},{"bike_id":"a8169d79-90ac-4a39-810e-1d641e18d594","system_id":"levelo_inurba_marseille","lat":43.257219,"lon":5.411083,"is_reserved":false,"is_disabled":false,"rental_uris":{"android":"levelo://app?vid=a8169d79-90ac-4a39-810e-1d641e18d594","ios":"levelo://app?vid=a8169d79-90ac-4a39-810e-1d641e18d594"},"vehicle_type_id":"4","last_reported":1743869425,"current_range_meters":7200,"station_id":"","pricing_plan_id":"cebpf4jnsgd1na2vs0mg"},{"bike_id":"b1b2480f-09aa-4401-a309-6a8041a409bd","system_id":"levelo_inurba_marseille","lat":43.24185,"lon":5.36415,"is_reserved":false,"is_disabled":false,"rental_uris":{"android":"levelo://app?vid=b1b2480f-09aa-4401-a309-6a8041a409bd","ios":"levelo://app?vid=b1b2480f-09aa-4401-a309-6a8041a409bd"},"vehicle_type_id":"4","last_reported":1743869425,"current_range_meters":7200,"station_id":"cpo36qri1sfpv3e86is0","pricing_plan_id":"cebpf4jnsgd1na2vs0mg"},{"bike_id":"00e0f6a6-e28a-49ae-b6e0-b67659266584","system_id":"levelo_inurba_marseille","lat":43.29877,"lon":5.400608,"is_reserved":false,"is_disabled":false,"rental_uris":{"android":"levelo://app?vid=00e0f6a6-e28a-49ae-b6e0-b67659266584","ios":"levelo://app?vid=00e0f6a6-e28a-49ae-b6e0-b67659266584"},"vehicle_type_id":"4","last_reported":1743869425,"current_range_meters":6800,"station_id":"ce4bho92rcd13ifvqh3g","pricing_plan_id":"cebpf4jnsgd1na2vs0mg"},{"bike_id":"e1d234d1-866d-497b-962d-6fc13a139f2f","system_id":"levelo_inurba_marseille","lat":43.28628,"lon":5.35099,"is_reserved":false,"is_disabled":false,"rental_uris":{"android":"levelo://app?vid=e1d234d1-866d-497b-962d-6fc13a139f2f","ios":"levelo://app?vid=e1d234d1-866d-497b-962d-6fc13a139f2f"},"vehicle_type_id":"4","last_reported":1743869425,"current_range_meters":7200,"station_id":"ce4bhch2rcd13ifvqeug","pricing_plan_id":"cebpf4jnsgd1na2vs0mg"},{"bike_id":"11101b03-02c0-4bb4-a9dc-326497f91f4e","system_id":"levelo_inurba_marseille","lat":43.292544,"lon":5.40914,"is_reserved":false,"is_disabled":true,"rental_uris":{"android":"levelo://app?vid=11101b03-02c0-4bb4-a9dc-326497f91f4e","ios":"levelo://app?vid=11101b03-02c0-4bb4-a9dc-326497f91f4e"},"vehicle_type_id":"4","last_reported":1743869425,"current_range_meters":7200,"station_id":"ce4bh192rcd13ifvqdc0","pricing_plan_id":"cebpf4jnsgd1na2vs0mg"},{"bike_id":"f195dfee-33c8-40db-ab8f-8f2f4dfdbb7c","system_id":"levelo_inurba_marseille","lat":43.29875,"lon":5.39733,"is_reserved":false,"is_disabled":false,"rental_uris":{"android":"levelo://app?vid=f195dfee-33c8-40db-ab8f-8f2f4dfdbb7c","ios":"levelo://app?vid=f195dfee-33c8-40db-ab8f-8f2f4dfdbb7c"},"vehicle_type_id":"4","last_reported":1743869425,"current_range_meters":8000,"station_id":"ce4bh0h2rcd13ifvqd50","pricing_plan_id":"cebpf4jnsgd1na2vs0mg"},{"bike_id":"6ba9f754-9344-4207-aeb0-71f6bbffa8c1","system_id":"levelo_inurba_marseille","lat":43.22927,"lon":5.35388,"is_reserved":false,"is_disabled":false,"rental_uris":{"android":"levelo://app?vid=6ba9f754-9344-4207-aeb0-71f6bbffa8c1","ios":"levelo://app?vid=6ba9f754-9344-4207-aeb0-71f6bbffa8c1"},"vehicle_type_id":"4","last_reported":1743869425,"current_range_meters":8000,"station_id":"","pricing_plan_id":"cebpf4jnsgd1na2vs0mg"},{"bike_id":"e7b956ce-2ab2-4301-8fd3-6312d753e8f6","system_id":"levelo_inurba_marseille","lat":43.24637,"lon":5.38176,"is_reserved":false,"is_disabled":true,"rental_uris":{"android":"levelo://app?vid=e7b956ce-2ab2-4301-8fd3-6312d753e8f6","ios":"levelo://app?vid=e7b956ce-2ab2-4301-8fd3-6312d753e8f6"},"vehicle_type_id":"4","last_reported":1743869425,"current_range_meters":8000,"station_id":"ce4bhih2rcd13ifvqfr0","pricing_plan_id":"cebpf4jnsgd1na2vs0mg"},{"bike_id":"783ef245-163c-4c81-b038-df23059b7c57","system_id":"levelo_inurba_marseille","lat":43.310755,"lon":5.383546,"is_reserved":false,"is_disabled":false,"rental_uris":{"android":"levelo://app?vid=783ef245-163c-4c81-b038-df23059b7c57","ios":"levelo://app?vid=783ef245-163c-4c81-b038-df23059b7c57"},"vehicle_type_id":"4","last_reported":1743869425,"current_range_meters":8000,"station_id":"","pricing_plan_id":"cebpf4jnsgd1na2vs0mg"},{"bike_id":"b0e9b0cb-2612-4797-bfbd-af468a40f785","system_id":"levelo_inurba_marseille","lat":43.31338,"lon":5.39697,"is_reserved":false,"is_disabled":false,"rental_uris":{"android":"levelo://app?vid=b0e9b0cb-2612-4797-bfbd-af468a40f785","ios":"levelo://app?vid=b0e9b0cb-2612-4797-bfbd-af468a40f785"},"vehicle_type_id":"4","last_reported":1743869425,"current_range_meters":8000,"station_id":"ce4bgvp2rcd13ifvqcu0","pricing_plan_id":"cebpf4jnsgd1na2vs0mg"},{"bike_id":"0300ed36-144c-47d9-a922-f93668338414","system_id":"levelo_inurba_marseille","lat":43.23957,"lon":5.366351,"is_reserved":false,"is_disabled":false,"rental_uris":{"android":"levelo://app?vid=0300ed36-144c-47d9-a922-f93668338414","ios":"levelo://app?vid=0300ed36-144c-47d9-a922-f93668338414"},"vehicle_type_id":"4","last_reported":1743869425,"current_range_meters":8000,"station_id":"ce4bhi12rcd13ifvqfp0","pricing_plan_id":"cebpf4jnsgd1na2vs0mg"},{"bike_id":"908c0033-ebf3-400a-acb3-0a621b83539f","system_id":"levelo_inurba_marseille","lat":43.231904,"lon":5.399801,"is_reserved":false,"is_disabled":false,"rental_uris":{"android":"levelo://app?vid=908c0033-ebf3-400a-acb3-0a621b83539f","ios":"levelo://app?vid=908c0033-ebf3-400a-acb3-0a621b83539f"},"vehicle_type_id":"4","last_reported":1743869425,"current_range_meters":8000,"station_id":"ce4bhn12rcd13ifvqgqg","pricing_plan_id":"cebpf4jnsgd1na2vs0mg"},{"bike_id":"7e2ab333-0a43-4114-ad4d-d7c67b59d200","system_id":"levelo_inurba_marseille","lat":43.28271,"lon":5.35064,"is_reserved":false,"is_disabled":false,"rental_uris":{"android":"levelo://app?vid=7e2ab333-0a43-4114-ad4d-d7c67b59d200","ios":"levelo://app?vid=7e2ab333-0a43-4114-ad4d-d7c67b59d200"},"vehicle_type_id":"4","last_reported":1743869425,"current_range_meters":8400,"station_id":"ce4bhbp2rcd13ifvqerg","pricing_plan_id":"cebpf4jnsgd1na2vs0mg"},{"bike_id":"3b4ad8c6-6244-4378-90d7-dac703d1508d","system_id":"levelo_inurba_marseille","lat":43.23195,"lon":5.35558,"is_reserved":false,"is_disabled":false,"rental_uris":{"android":"levelo://app?vid=3b4ad8c6-6244-4378-90d7-dac703d1508d","ios":"levelo://app?vid=3b4ad8c6-6244-4378-90d7-dac703d1508d"},"vehicle_type_id":"4","last_reported":1743869425,"current_range_meters":8400,"station_id":"ce4bhu92rcd13ifvqi70","pricing_plan_id":"cebpf4jnsgd1na2vs0mg"},{"bike_id":"e0fc34f6-0214-440a-9ed4-af39ae5d38dd","system_id":"levelo_inurba_marseille","lat":43.22502,"lon":5.34785,"is_reserved":false,"is_disabled":false,"rental_uris":{"android":"levelo://app?vid=e0fc34f6-0214-440a-9ed4-af39ae5d38dd","ios":"levelo://app?vid=e0fc34f6-0214-440a-9ed4-af39ae5d38dd"},"vehicle_type_id":"4","last_reported":1743869425,"current_range_meters":8400,"station_id":"","pricing_plan_id":"cebpf4jnsgd1na2vs0mg"},{"bike_id":"0314bab5-7060-4db4-b3f2-12aee6f3ad34","system_id":"levelo_inurba_marseille","lat":43.23062,"lon":5.3551,"is_reserved":false,"is_disabled":false,"rental_uris":{"android":"levelo://app?vid=0314bab5-7060-4db4-b3f2-12aee6f3ad34","ios":"levelo://app?vid=0314bab5-7060-4db4-b3f2-12aee6f3ad34"},"vehicle_type_id":"4","last_reported":1743869425,"current_range_meters":8400,"station_id":"cpo3342slgdg3j2ifvpg","pricing_plan_id":"cebpf4jnsgd1na2vs0mg"},{"bike_id":"9a7a41ad-1057-4790-ac5e-1e36ed926c64","system_id":"levelo_inurba_marseille","lat":43.30529,"lon":5.36531,"is_reserved":false,"is_disabled":false,"rental_uris":{"android":"levelo://app?vid=9a7a41ad-1057-4790-ac5e-1e36ed926c64","ios":"levelo://app?vid=9a7a41ad-1057-4790-ac5e-1e36ed926c64"},"vehicle_type_id":"4","last_reported":1743869425,"current_range_meters":8400,"station_id":"ce4bgs12rcd13ifvqcag","pricing_plan_id":"cebpf4jnsgd1na2vs0mg"},{"bike_id":"f229a08a-9237-44f3-870a-72cc9aa4aa81","system_id":"levelo_inurba_marseille","lat":43.27377,"lon":5.36265,"is_reserved":false,"is_disabled":false,"rental_uris":{"android":"levelo://app?vid=f229a08a-9237-44f3-870a-72cc9aa4aa81","ios":"levelo://app?vid=f229a08a-9237-44f3-870a-72cc9aa4aa81"},"vehicle_type_id":"4","last_reported":1743869425,"current_range_meters":8400,"station_id":"ce4bhbh2rcd13ifvqeo0","pricing_plan_id":"cebpf4jnsgd1na2vs0mg"},{"bike_id":"82512dec-48ce-4497-a46f-fae23779088b","system_id":"levelo_inurba_marseille","lat":43.29978,"lon":5.37175,"is_reserved":false,"is_disabled":false,"rental_uris":{"android":"levelo://app?vid=82512dec-48ce-4497-a46f-fae23779088b","ios":"levelo://app?vid=82512dec-48ce-4497-a46f-fae23779088b"},"vehicle_type_id":"4","last_reported":1743869425,"current_range_meters":8000,"station_id":"ce4bgr92rcd13ifvqc7g","pricing_plan_id":"cebpf4jnsgd1na2vs0mg"},{"bike_id":"feb6e46c-3fb2-45a9-a2fb-22ac62feb505","system_id":"levelo_inurba_marseille","lat":43.23053,"lon":5.35496,"is_reserved":false,"is_disabled":true,"rental_uris":{"android":"levelo://app?vid=feb6e46c-3fb2-45a9-a2fb-22ac62feb505","ios":"levelo://app?vid=feb6e46c-3fb2-45a9-a2fb-22ac62feb505"},"vehicle_type_id":"4","last_reported":1743869425,"current_range_meters":8400,"station_id":"cpo3342slgdg3j2ifvpg","pricing_plan_id":"cebpf4jnsgd1na2vs0mg"},{"bike_id":"e096d1a9-c0a7-4974-8c7d-387f953f5d11","system_id":"levelo_inurba_marseille","lat":43.27949,"lon":5.4105,"is_reserved":false,"is_disabled":false,"rental_uris":{"android":"levelo://app?vid=e096d1a9-c0a7-4974-8c7d-387f953f5d11","ios":"levelo://app?vid=e096d1a9-c0a7-4974-8c7d-387f953f5d11"},"vehicle_type_id":"4","last_reported":1743869425,"current_range_meters":8400,"station_id":"ce4bhnp2rcd13ifvqh0g","pricing_plan_id":"cebpf4jnsgd1na2vs0mg"},{"bike_id":"9a2bdb2a-3356-4ea4-b9b3-6b7575542002","system_id":"levelo_inurba_marseille","lat":43.292969,"lon":5.374348,"is_reserved":false,"is_disabled":false,"rental_uris":{"android":"levelo://app?vid=9a2bdb2a-3356-4ea4-b9b3-6b7575542002","ios":"levelo://app?vid=9a2bdb2a-3356-4ea4-b9b3-6b7575542002"},"vehicle_type_id":"4","last_reported":1743869425,"current_range_meters":8800,"station_id":"ce4bgi12rcd13ifvqb70","pricing_plan_id":"cebpf4jnsgd1na2vs0mg"},{"bike_id":"6b8df6c6-e69f-416d-869f-6c58b572d426","system_id":"levelo_inurba_marseille","lat":43.23194,"lon":5.39985,"is_reserved":false,"is_disabled":false,"rental_uris":{"android":"levelo://app?vid=6b8df6c6-e69f-416d-869f-6c58b572d426","ios":"levelo://app?vid=6b8df6c6-e69f-416d-869f-6c58b572d426"},"vehicle_type_id":"4","last_reported":1743869425,"current_range_meters":8800,"station_id":"ce4bhn12rcd13ifvqgqg","pricing_plan_id":"cebpf4jnsgd1na2vs0mg"},{"bike_id":"1d05f402-e37f-48d0-b335-8d4e09017847","system_id":"levelo_inurba_marseille","lat":43.29226,"lon":5.36077,"is_reserved":false,"is_disabled":false,"rental_uris":{"android":"levelo://app?vid=1d05f402-e37f-48d0-b335-8d4e09017847","ios":"levelo://app?vid=1d05f402-e37f-48d0-b335-8d4e09017847"},"vehicle_type_id":"4","last_reported":1743869425,"current_range_meters":8800,"station_id":"ce4bhbh2rcd13ifvqeqg","pricing_plan_id":"cebpf4jnsgd1na2vs0mg"},{"bike_id":"fb0d4993-67fa-4314-9525-ef2ba9197c72","system_id":"levelo_inurba_marseille","lat":43.30321,"lon":5.4059,"is_reserved":false,"is_disabled":false,"rental_uris":{"android":"levelo://app?vid=fb0d4993-67fa-4314-9525-ef2ba9197c72","ios":"levelo://app?vid=fb0d4993-67fa-4314-9525-ef2ba9197c72"},"vehicle_type_id":"4","last_reported":1743869425,"current_range_meters":8800,"station_id":"","pricing_plan_id":"cebpf4jnsgd1na2vs0mg"},{"bike_id":"d893c4d1-3d3c-4c4f-8f1f-2ddb6a5a68ca","system_id":"levelo_inurba_marseille","lat":43.27375,"lon":5.36264,"is_reserved":false,"is_disabled":false,"rental_uris":{"android":"levelo://app?vid=d893c4d1-3d3c-4c4f-8f1f-2ddb6a5a68ca","ios":"levelo://app?vid=d893c4d1-3d3c-4c4f-8f1f-2ddb6a5a68ca"},"vehicle_type_id":"4","last_reported":1743869425,"current_range_meters":7200,"station_id":"ce4bhbh2rcd13ifvqeo0","pricing_plan_id":"cebpf4jnsgd1na2vs0mg"},{"bike_id":"40c61147-31b6-423b-89ab-0078bfdae460","system_id":"levelo_inurba_marseille","lat":43.28669,"lon":5.36349,"is_reserved":false,"is_disabled":false,"rental_uris":{"android":"levelo://app?vid=40c61147-31b6-423b-89ab-0078bfdae460","ios":"levelo://app?vid=40c61147-31b6-423b-89ab-0078bfdae460"},"vehicle_type_id":"4","last_reported":1743869425,"current_range_meters":8800,"station_id":"ce4bhah2rcd13ifvqej0","pricing_plan_id":"cebpf4jnsgd1na2vs0mg"},{"bike_id":"ac7a85da-6a1d-42f4-b3e0-decaec458451","system_id":"levelo_inurba_marseille","lat":43.22929,"lon":5.35368,"is_reserved":false,"is_disabled":true,"rental_uris":{"android":"levelo://app?vid=ac7a85da-6a1d-42f4-b3e0-decaec458451","ios":"levelo://app?vid=ac7a85da-6a1d-42f4-b3e0-decaec458451"},"vehicle_type_id":"4","last_reported":1743869425,"current_range_meters":8800,"station_id":"cpo3532slgdg3j2ikp40","pricing_plan_id":"cebpf4jnsgd1na2vs0mg"},{"bike_id":"ba72c2a3-7217-4df0-8c4f-91b4a2ddde54","system_id":"levelo_inurba_marseille","lat":43.29962,"lon":5.38501,"is_reserved":false,"is_disabled":false,"rental_uris":{"android":"levelo://app?vid=ba72c2a3-7217-4df0-8c4f-91b4a2ddde54","ios":"levelo://app?vid=ba72c2a3-7217-4df0-8c4f-91b4a2ddde54"},"vehicle_type_id":"4","last_reported":1743869425,"current_range_meters":8800,"station_id":"ce4bgj92rcd13ifvqbd0","pricing_plan_id":"cebpf4jnsgd1na2vs0mg"},{"bike_id":"02ab44b9-308a-4647-8726-bb625a416fba","system_id":"levelo_inurba_marseille","lat":43.2983,"lon":5.38231,"is_reserved":false,"is_disabled":false,"rental_uris":{"android":"levelo://app?vid=02ab44b9-308a-4647-8726-bb625a416fba","ios":"levelo://app?vid=02ab44b9-308a-4647-8726-bb625a416fba"},"vehicle_type_id":"4","last_reported":1743869425,"current_range_meters":9600,"station_id":"","pricing_plan_id":"cebpf4jnsgd1na2vs0mg"},{"bike_id":"eb79d1f9-7c91-4ea2-b5f8-796189743e1a","system_id":"levelo_inurba_marseille","lat":43.33733,"lon":5.39176,"is_reserved":false,"is_disabled":false,"rental_uris":{"android":"levelo://app?vid=eb79d1f9-7c91-4ea2-b5f8-796189743e1a","ios":"levelo://app?vid=eb79d1f9-7c91-4ea2-b5f8-796189743e1a"},"vehicle_type_id":"4","last_reported":1743869425,"current_range_meters":9200,"station_id":"ce4bhr92rcd13ifvqhsg","pricing_plan_id":"cebpf4jnsgd1na2vs0mg"},{"bike_id":"ff7ec03b-9cbc-499a-8768-56d604a1a82b","system_id":"levelo_inurba_marseille","lat":43.24161,"lon":5.36398,"is_reserved":false,"is_disabled":false,"rental_uris":{"android":"levelo://app?vid=ff7ec03b-9cbc-499a-8768-56d604a1a82b","ios":"levelo://app?vid=ff7ec03b-9cbc-499a-8768-56d604a1a82b"},"vehicle_type_id":"4","last_reported":1743869425,"current_range_meters":9200,"station_id":"cpo36qri1sfpv3e86is0","pricing_plan_id":"cebpf4jnsgd1na2vs0mg"},{"bike_id":"0d3fb21d-e2e1-4de4-88de-86af364efcdd","system_id":"levelo_inurba_marseille","lat":43.2293,"lon":5.3538,"is_reserved":false,"is_disabled":false,"rental_uris":{"android":"levelo://app?vid=0d3fb21d-e2e1-4de4-88de-86af364efcdd","ios":"levelo://app?vid=0d3fb21d-e2e1-4de4-88de-86af364efcdd"},"vehicle_type_id":"4","last_reported":1743869425,"current_range_meters":9200,"station_id":"cpo3532slgdg3j2ikp40","pricing_plan_id":"cebpf4jnsgd1na2vs0mg"},{"bike_id":"289f0dc6-e1c4-4f87-91ee-dceb90348eaa","system_id":"levelo_inurba_marseille","lat":43.29623,"lon":5.37169,"is_reserved":false,"is_disabled":false,"rental_uris":{"android":"levelo://app?vid=289f0dc6-e1c4-4f87-91ee-dceb90348eaa","ios":"levelo://app?vid=289f0dc6-e1c4-4f87-91ee-dceb90348eaa"},"vehicle_type_id":"4","last_reported":1743869425,"current_range_meters":9200,"station_id":"ce4bgnh2rcd13ifvqc0g","pricing_plan_id":"cebpf4jnsgd1na2vs0mg"},{"bike_id":"36b40002-a941-4025-8496-6f64ad8c3f60","system_id":"levelo_inurba_marseille","lat":43.23215,"lon":5.39992,"is_reserved":false,"is_disabled":false,"rental_uris":{"android":"levelo://app?vid=36b40002-a941-4025-8496-6f64ad8c3f60","ios":"levelo://app?vid=36b40002-a941-4025-8496-6f64ad8c3f60"},"vehicle_type_id":"4","last_reported":1743869425,"current_range_meters":9200,"station_id":"ce4bhn12rcd13ifvqgqg","pricing_plan_id":"cebpf4jnsgd1na2vs0mg"},{"bike_id":"061e9712-dc80-4a1e-a898-df605d31e318","system_id":"levelo_inurba_marseille","lat":43.28352,"lon":5.38119,"is_reserved":false,"is_disabled":false,"rental_uris":{"android":"levelo://app?vid=061e9712-dc80-4a1e-a898-df605d31e318","ios":"levelo://app?vid=061e9712-dc80-4a1e-a898-df605d31e318"},"vehicle_type_id":"4","last_reported":1743869425,"current_range_meters":9200,"station_id":"ce4bh412rcd13ifvqdr0","pricing_plan_id":"cebpf4jnsgd1na2vs0mg"},{"bike_id":"fdad6e5e-1467-4616-9d72-68b29d343e00","system_id":"levelo_inurba_marseille","lat":43.32284,"lon":5.38284,"is_reserved":false,"is_disabled":false,"rental_uris":{"android":"levelo://app?vid=fdad6e5e-1467-4616-9d72-68b29d343e00","ios":"levelo://app?vid=fdad6e5e-1467-4616-9d72-68b29d343e00"},"vehicle_type_id":"4","last_reported":1743869425,"current_range_meters":9200,"station_id":"ce4bhr12rcd13ifvqhqg","pricing_plan_id":"cebpf4jnsgd1na2vs0mg"},{"bike_id":"8e8105ce-63e2-4441-9ebe-d6a09a08a22e","system_id":"levelo_inurba_marseille","lat":43.29664,"lon":5.36155,"is_reserved":false,"is_disabled":false,"rental_uris":{"android":"levelo://app?vid=8e8105ce-63e2-4441-9ebe-d6a09a08a22e","ios":"levelo://app?vid=8e8105ce-63e2-4441-9ebe-d6a09a08a22e"},"vehicle_type_id":"4","last_reported":1743869425,"current_range_meters":9200,"station_id":"","pricing_plan_id":"cebpf4jnsgd1na2vs0mg"},{"bike_id":"14d24ed7-cea7-43de-94b5-d3ed5551437a","system_id":"levelo_inurba_marseille","lat":43.2306,"lon":5.35497,"is_reserved":false,"is_disabled":false,"rental_uris":{"android":"levelo://app?vid=14d24ed7-cea7-43de-94b5-d3ed5551437a","ios":"levelo://app?vid=14d24ed7-cea7-43de-94b5-d3ed5551437a"},"vehicle_type_id":"4","last_reported":1743869425,"current_range_meters":9200,"station_id":"cpo3342slgdg3j2ifvpg","pricing_plan_id":"cebpf4jnsgd1na2vs0mg"},{"bike_id":"b09bec9d-c290-4a39-8cd4-69697c4c17eb","system_id":"levelo_inurba_marseille","lat":43.28413,"lon":5.3499,"is_reserved":false,"is_disabled":false,"rental_uris":{"android":"levelo://app?vid=b09bec9d-c290-4a39-8cd4-69697c4c17eb","ios":"levelo://app?vid=b09bec9d-c290-4a39-8cd4-69697c4c17eb"},"vehicle_type_id":"4","last_reported":1743869425,"current_range_meters":9200,"station_id":"ce4bhbh2rcd13ifvqepg","pricing_plan_id":"cebpf4jnsgd1na2vs0mg"},{"bike_id":"fe8abb4d-6551-489f-9549-73fcda15cdff","system_id":"levelo_inurba_marseille","lat":43.23057,"lon":5.35502,"is_reserved":false,"is_disabled":false,"rental_uris":{"android":"levelo://app?vid=fe8abb4d-6551-489f-9549-73fcda15cdff","ios":"levelo://app?vid=fe8abb4d-6551-489f-9549-73fcda15cdff"},"vehicle_type_id":"4","last_reported":1743869425,"current_range_meters":9200,"station_id":"cpo3342slgdg3j2ifvpg","pricing_plan_id":"cebpf4jnsgd1na2vs0mg"},{"bike_id":"a840170f-69d5-428e-a14c-45384bc1ff21","system_id":"levelo_inurba_marseille","lat":43.295746,"lon":5.367444,"is_reserved":false,"is_disabled":false,"rental_uris":{"android":"levelo://app?vid=a840170f-69d5-428e-a14c-45384bc1ff21","ios":"levelo://app?vid=a840170f-69d5-428e-a14c-45384bc1ff21"},"vehicle_type_id":"4","last_reported":1743869425,"current_range_meters":6800,"station_id":"ce4bgph2rcd13ifvqc2g","pricing_plan_id":"cebpf4jnsgd1na2vs0mg"},{"bike_id":"289a26a8-4ddb-44c5-ac71-1f16ea849e41","system_id":"levelo_inurba_marseille","lat":43.26556,"lon":5.37287,"is_reserved":false,"is_disabled":false,"rental_uris":{"android":"levelo://app?vid=289a26a8-4ddb-44c5-ac71-1f16ea849e41","ios":"levelo://app?vid=289a26a8-4ddb-44c5-ac71-1f16ea849e41"},"vehicle_type_id":"4","last_reported":1743869425,"current_range_meters":9600,"station_id":"ce4bhg12rcd13ifvqf70","pricing_plan_id":"cebpf4jnsgd1na2vs0mg"},{"bike_id":"b967cd06-4181-482c-8ae7-bc67d4d59269","system_id":"levelo_inurba_marseille","lat":43.31089,"lon":5.42427,"is_reserved":false,"is_disabled":false,"rental_uris":{"android":"levelo://app?vid=b967cd06-4181-482c-8ae7-bc67d4d59269","ios":"levelo://app?vid=b967cd06-4181-482c-8ae7-bc67d4d59269"},"vehicle_type_id":"4","last_reported":1743869425,"current_range_meters":9600,"station_id":"ce4bhp92rcd13ifvqhag","pricing_plan_id":"cebpf4jnsgd1na2vs0mg"},{"bike_id":"d56a49c2-1617-44e2-ad81-3daf96ba9d03","system_id":"levelo_inurba_marseille","lat":43.2862,"lon":5.35135,"is_reserved":false,"is_disabled":false,"rental_uris":{"android":"levelo://app?vid=d56a49c2-1617-44e2-ad81-3daf96ba9d03","ios":"levelo://app?vid=d56a49c2-1617-44e2-ad81-3daf96ba9d03"},"vehicle_type_id":"4","last_reported":1743869425,"current_range_meters":9600,"station_id":"ce4bhch2rcd13ifvqeug","pricing_plan_id":"cebpf4jnsgd1na2vs0mg"},{"bike_id":"a5fd9984-86f4-4595-9eef-d06782a6fd57","system_id":"levelo_inurba_marseille","lat":43.29295,"lon":5.37453,"is_reserved":false,"is_disabled":false,"rental_uris":{"android":"levelo://app?vid=a5fd9984-86f4-4595-9eef-d06782a6fd57","ios":"levelo://app?vid=a5fd9984-86f4-4595-9eef-d06782a6fd57"},"vehicle_type_id":"4","last_reported":1743869425,"current_range_meters":12400,"station_id":"ce4bgi12rcd13ifvqb70","pricing_plan_id":"cebpf4jnsgd1na2vs0mg"},{"bike_id":"8556af88-daaf-42e0-b67a-04f02050beb0","system_id":"levelo_inurba_marseille","lat":43.27385,"lon":5.36264,"is_reserved":false,"is_disabled":false,"rental_uris":{"android":"levelo://app?vid=8556af88-daaf-42e0-b67a-04f02050beb0","ios":"levelo://app?vid=8556af88-daaf-42e0-b67a-04f02050beb0"},"vehicle_type_id":"4","last_reported":1743869425,"current_range_meters":9600,"station_id":"ce4bhbh2rcd13ifvqeo0","pricing_plan_id":"cebpf4jnsgd1na2vs0mg"},{"bike_id":"d89bb348-a2b2-475f-b66f-22fe74c882fd","system_id":"levelo_inurba_marseille","lat":43.23195,"lon":5.39979,"is_reserved":false,"is_disabled":false,"rental_uris":{"android":"levelo://app?vid=d89bb348-a2b2-475f-b66f-22fe74c882fd","ios":"levelo://app?vid=d89bb348-a2b2-475f-b66f-22fe74c882fd"},"vehicle_type_id":"4","last_reported":1743869425,"current_range_meters":9600,"station_id":"ce4bhn12rcd13ifvqgqg","pricing_plan_id":"cebpf4jnsgd1na2vs0mg"},{"bike_id":"aecd6db3-bfd0-4f56-bdfc-31c4a713e16f","system_id":"levelo_inurba_marseille","lat":43.28272,"lon":5.35074,"is_reserved":false,"is_disabled":false,"rental_uris":{"android":"levelo://app?vid=aecd6db3-bfd0-4f56-bdfc-31c4a713e16f","ios":"levelo://app?vid=aecd6db3-bfd0-4f56-bdfc-31c4a713e16f"},"vehicle_type_id":"4","last_reported":1743869425,"current_range_meters":9600,"station_id":"ce4bhbp2rcd13ifvqerg","pricing_plan_id":"cebpf4jnsgd1na2vs0mg"},{"bike_id":"ec1d3458-0a90-4120-8a34-a42a38cc7495","system_id":"levelo_inurba_marseille","lat":43.2842,"lon":5.34989,"is_reserved":false,"is_disabled":false,"rental_uris":{"android":"levelo://app?vid=ec1d3458-0a90-4120-8a34-a42a38cc7495","ios":"levelo://app?vid=ec1d3458-0a90-4120-8a34-a42a38cc7495"},"vehicle_type_id":"4","last_reported":1743869425,"current_range_meters":9600,"station_id":"ce4bhbh2rcd13ifvqepg","pricing_plan_id":"cebpf4jnsgd1na2vs0mg"},{"bike_id":"604b1c28-62a6-4ac5-9cbd-b7cca364e5ce","system_id":"levelo_inurba_marseille","lat":43.28349,"lon":5.38104,"is_reserved":false,"is_disabled":false,"rental_uris":{"android":"levelo://app?vid=604b1c28-62a6-4ac5-9cbd-b7cca364e5ce","ios":"levelo://app?vid=604b1c28-62a6-4ac5-9cbd-b7cca364e5ce"},"vehicle_type_id":"4","last_reported":1743869425,"current_range_meters":9600,"station_id":"ce4bh412rcd13ifvqdr0","pricing_plan_id":"cebpf4jnsgd1na2vs0mg"},{"bike_id":"0716997c-3da5-4f80-9209-5906c14d54c2","system_id":"levelo_inurba_marseille","lat":43.3108,"lon":5.42435,"is_reserved":false,"is_disabled":false,"rental_uris":{"android":"levelo://app?vid=0716997c-3da5-4f80-9209-5906c14d54c2","ios":"levelo://app?vid=0716997c-3da5-4f80-9209-5906c14d54c2"},"vehicle_type_id":"4","last_reported":1743869425,"current_range_meters":9200,"station_id":"ce4bhp92rcd13ifvqhag","pricing_plan_id":"cebpf4jnsgd1na2vs0mg"},{"bike_id":"854a4e0c-565a-40ee-9be1-3800f822bd55","system_id":"levelo_inurba_marseille","lat":43.29035,"lon":5.37569,"is_reserved":false,"is_disabled":false,"rental_uris":{"android":"levelo://app?vid=854a4e0c-565a-40ee-9be1-3800f822bd55","ios":"levelo://app?vid=854a4e0c-565a-40ee-9be1-3800f822bd55"},"vehicle_type_id":"4","last_reported":1743869425,"current_range_meters":9600,"station_id":"ce4bh692rcd13ifvqe90","pricing_plan_id":"cebpf4jnsgd1na2vs0mg"},{"bike_id":"80f08235-b306-4bd0-916b-91213dcec3f4","system_id":"levelo_inurba_marseille","lat":43.24165,"lon":5.36393,"is_reserved":false,"is_disabled":false,"rental_uris":{"android":"levelo://app?vid=80f08235-b306-4bd0-916b-91213dcec3f4","ios":"levelo://app?vid=80f08235-b306-4bd0-916b-91213dcec3f4"},"vehicle_type_id":"4","last_reported":1743869425,"current_range_meters":9600,"station_id":"cpo36qri1sfpv3e86is0","pricing_plan_id":"cebpf4jnsgd1na2vs0mg"},{"bike_id":"d5e984d3-343e-4e16-bd54-bc3ebbd48639","system_id":"levelo_inurba_marseille","lat":43.30134,"lon":5.3878,"is_reserved":false,"is_disabled":true,"rental_uris":{"android":"levelo://app?vid=d5e984d3-343e-4e16-bd54-bc3ebbd48639","ios":"levelo://app?vid=d5e984d3-343e-4e16-bd54-bc3ebbd48639"},"vehicle_type_id":"4","last_reported":1743869425,"current_range_meters":10000,"station_id":"ce4bghh2rcd13ifvqb60","pricing_plan_id":"cebpf4jnsgd1na2vs0mg"},{"bike_id":"db5b074a-d935-442f-b4d3-96df771d91d1","system_id":"levelo_inurba_marseille","lat":43.24802,"lon":5.3746,"is_reserved":false,"is_disabled":false,"rental_uris":{"android":"levelo://app?vid=db5b074a-d935-442f-b4d3-96df771d91d1","ios":"levelo://app?vid=db5b074a-d935-442f-b4d3-96df771d91d1"},"vehicle_type_id":"4","last_reported":1743869425,"current_range_meters":10000,"station_id":"ce4bhgh2rcd13ifvqfb0","pricing_plan_id":"cebpf4jnsgd1na2vs0mg"},{"bike_id":"c6813ed1-ee70-43ab-be80-249753dea5f2","system_id":"levelo_inurba_marseille","lat":43.24663,"lon":5.38165,"is_reserved":false,"is_disabled":false,"rental_uris":{"android":"levelo://app?vid=c6813ed1-ee70-43ab-be80-249753dea5f2","ios":"levelo://app?vid=c6813ed1-ee70-43ab-be80-249753dea5f2"},"vehicle_type_id":"4","last_reported":1743869425,"current_range_meters":10000,"station_id":"ce4bhih2rcd13ifvqfr0","pricing_plan_id":"cebpf4jnsgd1na2vs0mg"},{"bike_id":"bc152f58-903d-454b-b199-86f152c018a1","system_id":"levelo_inurba_marseille","lat":43.30192,"lon":5.36622,"is_reserved":false,"is_disabled":false,"rental_uris":{"android":"levelo://app?vid=bc152f58-903d-454b-b199-86f152c018a1","ios":"levelo://app?vid=bc152f58-903d-454b-b199-86f152c018a1"},"vehicle_type_id":"4","last_reported":1743869425,"current_range_meters":14400,"station_id":"ce4bgrh2rcd13ifvqc8g","pricing_plan_id":"cebpf4jnsgd1na2vs0mg"},{"bike_id":"ac2ab547-c1fd-4abe-b352-d4ded3160820","system_id":"levelo_inurba_marseille","lat":43.28406,"lon":5.3498,"is_reserved":false,"is_disabled":false,"rental_uris":{"android":"levelo://app?vid=ac2ab547-c1fd-4abe-b352-d4ded3160820","ios":"levelo://app?vid=ac2ab547-c1fd-4abe-b352-d4ded3160820"},"vehicle_type_id":"4","last_reported":1743869425,"current_range_meters":10000,"station_id":"ce4bhbh2rcd13ifvqepg","pricing_plan_id":"cebpf4jnsgd1na2vs0mg"},{"bike_id":"e02a961d-2935-4e1b-aecb-f85264f5e02e","system_id":"levelo_inurba_marseille","lat":43.28162,"lon":5.42649,"is_reserved":false,"is_disabled":false,"rental_uris":{"android":"levelo://app?vid=e02a961d-2935-4e1b-aecb-f85264f5e02e","ios":"levelo://app?vid=e02a961d-2935-4e1b-aecb-f85264f5e02e"},"vehicle_type_id":"4","last_reported":1743869425,"current_range_meters":10000,"station_id":"ce4bhnh2rcd13ifvqgug","pricing_plan_id":"cebpf4jnsgd1na2vs0mg"},{"bike_id":"bc385e22-7609-4e9f-a7e9-58525b7ea732","system_id":"levelo_inurba_marseille","lat":43.293,"lon":5.37457,"is_reserved":false,"is_disabled":false,"rental_uris":{"android":"levelo://app?vid=bc385e22-7609-4e9f-a7e9-58525b7ea732","ios":"levelo://app?vid=bc385e22-7609-4e9f-a7e9-58525b7ea732"},"vehicle_type_id":"4","last_reported":1743869425,"current_range_meters":10800,"station_id":"ce4bgi12rcd13ifvqb70","pricing_plan_id":"cebpf4jnsgd1na2vs0mg"},{"bike_id":"db29433a-c7f6-40d6-b0e1-3a1f0abf15ab","system_id":"levelo_inurba_marseille","lat":43.241712,"lon":5.364041,"is_reserved":false,"is_disabled":true,"rental_uris":{"android":"levelo://app?vid=db29433a-c7f6-40d6-b0e1-3a1f0abf15ab","ios":"levelo://app?vid=db29433a-c7f6-40d6-b0e1-3a1f0abf15ab"},"vehicle_type_id":"4","last_reported":1743869425,"current_range_meters":10800,"station_id":"ce4bh412rcd13ifvqdr0","pricing_plan_id":"cebpf4jnsgd1na2vs0mg"},{"bike_id":"2d6c6c37-5756-4aa6-9375-4dbc77b35297","system_id":"levelo_inurba_marseille","lat":43.29527,"lon":5.38544,"is_reserved":false,"is_disabled":false,"rental_uris":{"android":"levelo://app?vid=2d6c6c37-5756-4aa6-9375-4dbc77b35297","ios":"levelo://app?vid=2d6c6c37-5756-4aa6-9375-4dbc77b35297"},"vehicle_type_id":"4","last_reported":1743869425,"current_range_meters":10800,"station_id":"ce4bgih2rcd13ifvqba0","pricing_plan_id":"cebpf4jnsgd1na2vs0mg"},{"bike_id":"e59d860a-7b85-4c2f-9822-42c2449790ca","system_id":"levelo_inurba_marseille","lat":43.293272,"lon":5.374464,"is_reserved":false,"is_disabled":false,"rental_uris":{"android":"levelo://app?vid=e59d860a-7b85-4c2f-9822-42c2449790ca","ios":"levelo://app?vid=e59d860a-7b85-4c2f-9822-42c2449790ca"},"vehicle_type_id":"4","last_reported":1743869425,"current_range_meters":10800,"station_id":"ce4bgi12rcd13ifvqb70","pricing_plan_id":"cebpf4jnsgd1na2vs0mg"},{"bike_id":"06464a52-ff91-4515-92bf-fc0cac7e17bc","system_id":"levelo_inurba_marseille","lat":43.28616,"lon":5.35107,"is_reserved":false,"is_disabled":false,"rental_uris":{"android":"levelo://app?vid=06464a52-ff91-4515-92bf-fc0cac7e17bc","ios":"levelo://app?vid=06464a52-ff91-4515-92bf-fc0cac7e17bc"},"vehicle_type_id":"4","last_reported":1743869425,"current_range_meters":10800,"station_id":"ce4bhch2rcd13ifvqeug","pricing_plan_id":"cebpf4jnsgd1na2vs0mg"},{"bike_id":"30b57730-cb66-4122-bd93-7dabcaba84e7","system_id":"levelo_inurba_marseille","lat":43.24899,"lon":5.40692,"is_reserved":false,"is_disabled":false,"rental_uris":{"android":"levelo://app?vid=30b57730-cb66-4122-bd93-7dabcaba84e7","ios":"levelo://app?vid=30b57730-cb66-4122-bd93-7dabcaba84e7"},"vehicle_type_id":"4","last_reported":1743869425,"current_range_meters":10800,"station_id":"","pricing_plan_id":"cebpf4jnsgd1na2vs0mg"},{"bike_id":"c7643979-9ece-4372-b68c-2d9a4e876f66","system_id":"levelo_inurba_marseille","lat":43.22518,"lon":5.34789,"is_reserved":false,"is_disabled":false,"rental_uris":{"android":"levelo://app?vid=c7643979-9ece-4372-b68c-2d9a4e876f66","ios":"levelo://app?vid=c7643979-9ece-4372-b68c-2d9a4e876f66"},"vehicle_type_id":"4","last_reported":1743869425,"current_range_meters":10800,"station_id":"st_cvj5dfep6f1abm77gieg","pricing_plan_id":"cebpf4jnsgd1na2vs0mg"},{"bike_id":"aa4ceb7b-b611-44eb-8f64-f22ae0fc6182","system_id":"levelo_inurba_marseille","lat":43.28356,"lon":5.38101,"is_reserved":false,"is_disabled":false,"rental_uris":{"android":"levelo://app?vid=aa4ceb7b-b611-44eb-8f64-f22ae0fc6182","ios":"levelo://app?vid=aa4ceb7b-b611-44eb-8f64-f22ae0fc6182"},"vehicle_type_id":"4","last_reported":1743869425,"current_range_meters":11200,"station_id":"ce4bh412rcd13ifvqdr0","pricing_plan_id":"cebpf4jnsgd1na2vs0mg"},{"bike_id":"49893cc6-000c-4e13-94e0-be7f519d7d21","system_id":"levelo_inurba_marseille","lat":43.24166,"lon":5.36397,"is_reserved":false,"is_disabled":false,"rental_uris":{"android":"levelo://app?vid=49893cc6-000c-4e13-94e0-be7f519d7d21","ios":"levelo://app?vid=49893cc6-000c-4e13-94e0-be7f519d7d21"},"vehicle_type_id":"4","last_reported":1743869425,"current_range_meters":11200,"station_id":"cpo36qri1sfpv3e86is0","pricing_plan_id":"cebpf4jnsgd1na2vs0mg"},{"bike_id":"00251f22-1b98-475e-968b-b3ed81a2303c","system_id":"levelo_inurba_marseille","lat":43.24187,"lon":5.36419,"is_reserved":false,"is_disabled":false,"rental_uris":{"android":"levelo://app?vid=00251f22-1b98-475e-968b-b3ed81a2303c","ios":"levelo://app?vid=00251f22-1b98-475e-968b-b3ed81a2303c"},"vehicle_type_id":"4","last_reported":1743869425,"current_range_meters":11200,"station_id":"cpo36qri1sfpv3e86is0","pricing_plan_id":"cebpf4jnsgd1na2vs0mg"},{"bike_id":"3b02e95e-4fb0-4ffc-955e-eb811d3e93dd","system_id":"levelo_inurba_marseille","lat":43.22945,"lon":5.35394,"is_reserved":false,"is_disabled":false,"rental_uris":{"android":"levelo://app?vid=3b02e95e-4fb0-4ffc-955e-eb811d3e93dd","ios":"levelo://app?vid=3b02e95e-4fb0-4ffc-955e-eb811d3e93dd"},"vehicle_type_id":"4","last_reported":1743869425,"current_range_meters":11200,"station_id":"cpo3532slgdg3j2ikp40","pricing_plan_id":"cebpf4jnsgd1na2vs0mg"},{"bike_id":"7a935817-47e2-4cb3-8324-a647fdf3a140","system_id":"levelo_inurba_marseille","lat":43.29546,"lon":5.38533,"is_reserved":false,"is_disabled":true,"rental_uris":{"android":"levelo://app?vid=7a935817-47e2-4cb3-8324-a647fdf3a140","ios":"levelo://app?vid=7a935817-47e2-4cb3-8324-a647fdf3a140"},"vehicle_type_id":"4","last_reported":1743869425,"current_range_meters":11200,"station_id":"ce4bgih2rcd13ifvqba0","pricing_plan_id":"cebpf4jnsgd1na2vs0mg"},{"bike_id":"6a93223b-be92-4168-97f8-16c4f2289e32","system_id":"levelo_inurba_marseille","lat":43.28444,"lon":5.39188,"is_reserved":false,"is_disabled":false,"rental_uris":{"android":"levelo://app?vid=6a93223b-be92-4168-97f8-16c4f2289e32","ios":"levelo://app?vid=6a93223b-be92-4168-97f8-16c4f2289e32"},"vehicle_type_id":"4","last_reported":1743869425,"current_range_meters":11600,"station_id":"ce4bhoh2rcd13ifvqh5g","pricing_plan_id":"cebpf4jnsgd1na2vs0mg"},{"bike_id":"bfff19e5-18cd-4438-8635-936fb8f9f127","system_id":"levelo_inurba_marseille","lat":43.25587,"lon":5.38223,"is_reserved":false,"is_disabled":false,"rental_uris":{"android":"levelo://app?vid=bfff19e5-18cd-4438-8635-936fb8f9f127","ios":"levelo://app?vid=bfff19e5-18cd-4438-8635-936fb8f9f127"},"vehicle_type_id":"4","last_reported":1743869425,"current_range_meters":11600,"station_id":"ce4bhih2rcd13ifvqfs0","pricing_plan_id":"cebpf4jnsgd1na2vs0mg"},{"bike_id":"7654dfdb-2d49-4899-b1c4-60867904088e","system_id":"levelo_inurba_marseille","lat":43.24391,"lon":5.37058,"is_reserved":false,"is_disabled":true,"rental_uris":{"android":"levelo://app?vid=7654dfdb-2d49-4899-b1c4-60867904088e","ios":"levelo://app?vid=7654dfdb-2d49-4899-b1c4-60867904088e"},"vehicle_type_id":"4","last_reported":1743869425,"current_range_meters":11600,"station_id":"ce4bhhh2rcd13ifvqfk0","pricing_plan_id":"cebpf4jnsgd1na2vs0mg"},{"bike_id":"0e4911c3-1576-4c24-a369-2451947d6191","system_id":"levelo_inurba_marseille","lat":43.29296,"lon":5.37453,"is_reserved":false,"is_disabled":false,"rental_uris":{"android":"levelo://app?vid=0e4911c3-1576-4c24-a369-2451947d6191","ios":"levelo://app?vid=0e4911c3-1576-4c24-a369-2451947d6191"},"vehicle_type_id":"4","last_reported":1743869425,"current_range_meters":11600,"station_id":"ce4bgi12rcd13ifvqb70","pricing_plan_id":"cebpf4jnsgd1na2vs0mg"},{"bike_id":"ab28779e-763b-4694-9a1d-1eef1ce4ca02","system_id":"levelo_inurba_marseille","lat":43.22923,"lon":5.35372,"is_reserved":false,"is_disabled":true,"rental_uris":{"android":"levelo://app?vid=ab28779e-763b-4694-9a1d-1eef1ce4ca02","ios":"levelo://app?vid=ab28779e-763b-4694-9a1d-1eef1ce4ca02"},"vehicle_type_id":"4","last_reported":1743869425,"current_range_meters":11600,"station_id":"cpo3532slgdg3j2ikp40","pricing_plan_id":"cebpf4jnsgd1na2vs0mg"},{"bike_id":"e74e4f22-2714-4ec6-b43f-dd0e986adc16","system_id":"levelo_inurba_marseille","lat":43.31729,"lon":5.37806,"is_reserved":false,"is_disabled":false,"rental_uris":{"android":"levelo://app?vid=e74e4f22-2714-4ec6-b43f-dd0e986adc16","ios":"levelo://app?vid=e74e4f22-2714-4ec6-b43f-dd0e986adc16"},"vehicle_type_id":"4","last_reported":1743869425,"current_range_meters":11600,"station_id":"ce4bgth2rcd13ifvqch0","pricing_plan_id":"cebpf4jnsgd1na2vs0mg"},{"bike_id":"5fe81c3c-6590-488b-a859-f44703c25475","system_id":"levelo_inurba_marseille","lat":43.2603,"lon":5.37553,"is_reserved":false,"is_disabled":false,"rental_uris":{"android":"levelo://app?vid=5fe81c3c-6590-488b-a859-f44703c25475","ios":"levelo://app?vid=5fe81c3c-6590-488b-a859-f44703c25475"},"vehicle_type_id":"4","last_reported":1743869425,"current_range_meters":11600,"station_id":"ce4bhgh2rcd13ifvqfa0","pricing_plan_id":"cebpf4jnsgd1na2vs0mg"},{"bike_id":"7414c52f-8b5a-4d5f-a63d-394014521f10","system_id":"levelo_inurba_marseille","lat":43.24805,"lon":5.37456,"is_reserved":false,"is_disabled":false,"rental_uris":{"android":"levelo://app?vid=7414c52f-8b5a-4d5f-a63d-394014521f10","ios":"levelo://app?vid=7414c52f-8b5a-4d5f-a63d-394014521f10"},"vehicle_type_id":"4","last_reported":1743869425,"current_range_meters":11600,"station_id":"ce4bhgh2rcd13ifvqfb0","pricing_plan_id":"cebpf4jnsgd1na2vs0mg"},{"bike_id":"ae85a7a4-7c38-4e25-9e50-a9a925b58789","system_id":"levelo_inurba_marseille","lat":43.31087,"lon":5.42438,"is_reserved":false,"is_disabled":false,"rental_uris":{"android":"levelo://app?vid=ae85a7a4-7c38-4e25-9e50-a9a925b58789","ios":"levelo://app?vid=ae85a7a4-7c38-4e25-9e50-a9a925b58789"},"vehicle_type_id":"4","last_reported":1743869425,"current_range_meters":11600,"station_id":"ce4bhp92rcd13ifvqhag","pricing_plan_id":"cebpf4jnsgd1na2vs0mg"},{"bike_id":"8ee8a071-ee3c-4e6e-b1b2-0e8120beb7f4","system_id":"levelo_inurba_marseille","lat":43.25952,"lon":5.40896,"is_reserved":false,"is_disabled":false,"rental_uris":{"android":"levelo://app?vid=8ee8a071-ee3c-4e6e-b1b2-0e8120beb7f4","ios":"levelo://app?vid=8ee8a071-ee3c-4e6e-b1b2-0e8120beb7f4"},"vehicle_type_id":"4","last_reported":1743869425,"current_range_meters":12000,"station_id":"ce4bhm92rcd13ifvqglg","pricing_plan_id":"cebpf4jnsgd1na2vs0mg"},{"bike_id":"5ef9b949-fba6-49e6-bde8-d3f45fbc2299","system_id":"levelo_inurba_marseille","lat":43.29028,"lon":5.38643,"is_reserved":false,"is_disabled":false,"rental_uris":{"android":"levelo://app?vid=5ef9b949-fba6-49e6-bde8-d3f45fbc2299","ios":"levelo://app?vid=5ef9b949-fba6-49e6-bde8-d3f45fbc2299"},"vehicle_type_id":"4","last_reported":1743869425,"current_range_meters":12000,"station_id":"ce4bh4p2rcd13ifvqe0g","pricing_plan_id":"cebpf4jnsgd1na2vs0mg"},{"bike_id":"f24a394a-266f-4198-804d-8e0e669141cd","system_id":"levelo_inurba_marseille","lat":43.23196,"lon":5.35548,"is_reserved":false,"is_disabled":false,"rental_uris":{"android":"levelo://app?vid=f24a394a-266f-4198-804d-8e0e669141cd","ios":"levelo://app?vid=f24a394a-266f-4198-804d-8e0e669141cd"},"vehicle_type_id":"4","last_reported":1743869425,"current_range_meters":11600,"station_id":"ce4bhu92rcd13ifvqi70","pricing_plan_id":"cebpf4jnsgd1na2vs0mg"},{"bike_id":"e1ab711e-1d7a-4afe-af67-1bdc40727ecc","system_id":"levelo_inurba_marseille","lat":43.2829,"lon":5.35089,"is_reserved":false,"is_disabled":false,"rental_uris":{"android":"levelo://app?vid=e1ab711e-1d7a-4afe-af67-1bdc40727ecc","ios":"levelo://app?vid=e1ab711e-1d7a-4afe-af67-1bdc40727ecc"},"vehicle_type_id":"4","last_reported":1743869425,"current_range_meters":12000,"station_id":"ce4bhbp2rcd13ifvqerg","pricing_plan_id":"cebpf4jnsgd1na2vs0mg"},{"bike_id":"71ac0cc9-7bda-4ef7-8643-12612420d7f3","system_id":"levelo_inurba_marseille","lat":43.2738,"lon":5.36259,"is_reserved":false,"is_disabled":false,"rental_uris":{"android":"levelo://app?vid=71ac0cc9-7bda-4ef7-8643-12612420d7f3","ios":"levelo://app?vid=71ac0cc9-7bda-4ef7-8643-12612420d7f3"},"vehicle_type_id":"4","last_reported":1743869425,"current_range_meters":12000,"station_id":"ce4bhbh2rcd13ifvqeo0","pricing_plan_id":"cebpf4jnsgd1na2vs0mg"},{"bike_id":"3a4ddc82-3be1-4056-8cce-a5d400df90fd","system_id":"levelo_inurba_marseille","lat":43.2862,"lon":5.35107,"is_reserved":false,"is_disabled":false,"rental_uris":{"android":"levelo://app?vid=3a4ddc82-3be1-4056-8cce-a5d400df90fd","ios":"levelo://app?vid=3a4ddc82-3be1-4056-8cce-a5d400df90fd"},"vehicle_type_id":"4","last_reported":1743869425,"current_range_meters":12000,"station_id":"ce4bhch2rcd13ifvqeug","pricing_plan_id":"cebpf4jnsgd1na2vs0mg"},{"bike_id":"795e359d-d4de-4f37-b5ce-31859dc68874","system_id":"levelo_inurba_marseille","lat":43.28936,"lon":5.3639,"is_reserved":false,"is_disabled":false,"rental_uris":{"android":"levelo://app?vid=795e359d-d4de-4f37-b5ce-31859dc68874","ios":"levelo://app?vid=795e359d-d4de-4f37-b5ce-31859dc68874"},"vehicle_type_id":"4","last_reported":1743869425,"current_range_meters":12000,"station_id":"ce4bhc92rcd13ifvqetg","pricing_plan_id":"cebpf4jnsgd1na2vs0mg"},{"bike_id":"c91e7028-b0f7-43b9-ab73-dcaab43ec48f","system_id":"levelo_inurba_marseille","lat":43.29267,"lon":5.38442,"is_reserved":false,"is_disabled":false,"rental_uris":{"android":"levelo://app?vid=c91e7028-b0f7-43b9-ab73-dcaab43ec48f","ios":"levelo://app?vid=c91e7028-b0f7-43b9-ab73-dcaab43ec48f"},"vehicle_type_id":"4","last_reported":1743869425,"current_range_meters":12000,"station_id":"ce4bh692rcd13ifvqea0","pricing_plan_id":"cebpf4jnsgd1na2vs0mg"},{"bike_id":"9b28574b-5a8f-4ca1-a2a8-7046c5dc6fa4","system_id":"levelo_inurba_marseille","lat":43.27374,"lon":5.36245,"is_reserved":false,"is_disabled":false,"rental_uris":{"android":"levelo://app?vid=9b28574b-5a8f-4ca1-a2a8-7046c5dc6fa4","ios":"levelo://app?vid=9b28574b-5a8f-4ca1-a2a8-7046c5dc6fa4"},"vehicle_type_id":"4","last_reported":1743869425,"current_range_meters":12000,"station_id":"ce4bhbh2rcd13ifvqeo0","pricing_plan_id":"cebpf4jnsgd1na2vs0mg"},{"bike_id":"98812da8-fbc0-4526-9caa-928b6a0cf273","system_id":"levelo_inurba_marseille","lat":43.25508,"lon":5.37654,"is_reserved":false,"is_disabled":false,"rental_uris":{"android":"levelo://app?vid=98812da8-fbc0-4526-9caa-928b6a0cf273","ios":"levelo://app?vid=98812da8-fbc0-4526-9caa-928b6a0cf273"},"vehicle_type_id":"4","last_reported":1743869425,"current_range_meters":12400,"station_id":"ce4bhh12rcd13ifvqff0","pricing_plan_id":"cebpf4jnsgd1na2vs0mg"},{"bike_id":"58d01bd9-c498-40ad-a311-3964dedc9b47","system_id":"levelo_inurba_marseille","lat":43.29585,"lon":5.36748,"is_reserved":false,"is_disabled":false,"rental_uris":{"android":"levelo://app?vid=58d01bd9-c498-40ad-a311-3964dedc9b47","ios":"levelo://app?vid=58d01bd9-c498-40ad-a311-3964dedc9b47"},"vehicle_type_id":"4","last_reported":1743869425,"current_range_meters":14400,"station_id":"ce4bgph2rcd13ifvqc2g","pricing_plan_id":"cebpf4jnsgd1na2vs0mg"},{"bike_id":"e2852d31-95ff-4e30-a3a8-ef4801645ad5","system_id":"levelo_inurba_marseille","lat":43.28619,"lon":5.35108,"is_reserved":false,"is_disabled":false,"rental_uris":{"android":"levelo://app?vid=e2852d31-95ff-4e30-a3a8-ef4801645ad5","ios":"levelo://app?vid=e2852d31-95ff-4e30-a3a8-ef4801645ad5"},"vehicle_type_id":"4","last_reported":1743869425,"current_range_meters":12400,"station_id":"ce4bhch2rcd13ifvqeug","pricing_plan_id":"cebpf4jnsgd1na2vs0mg"},{"bike_id":"951f1360-360f-4cf7-b729-034ce3eefbcf","system_id":"levelo_inurba_marseille","lat":43.23194,"lon":5.3555,"is_reserved":false,"is_disabled":false,"rental_uris":{"android":"levelo://app?vid=951f1360-360f-4cf7-b729-034ce3eefbcf","ios":"levelo://app?vid=951f1360-360f-4cf7-b729-034ce3eefbcf"},"vehicle_type_id":"4","last_reported":1743869425,"current_range_meters":12400,"station_id":"ce4bhu92rcd13ifvqi70","pricing_plan_id":"cebpf4jnsgd1na2vs0mg"},{"bike_id":"25ba5602-9190-4116-b71f-222ad39f42c7","system_id":"levelo_inurba_marseille","lat":43.2816,"lon":5.42635,"is_reserved":false,"is_disabled":false,"rental_uris":{"android":"levelo://app?vid=25ba5602-9190-4116-b71f-222ad39f42c7","ios":"levelo://app?vid=25ba5602-9190-4116-b71f-222ad39f42c7"},"vehicle_type_id":"4","last_reported":1743869425,"current_range_meters":12000,"station_id":"ce4bhnh2rcd13ifvqgug","pricing_plan_id":"cebpf4jnsgd1na2vs0mg"},{"bike_id":"e8185bb0-bb29-4789-bb59-2112fe4baaa7","system_id":"levelo_inurba_marseille","lat":43.299469,"lon":5.385119,"is_reserved":false,"is_disabled":false,"rental_uris":{"android":"levelo://app?vid=e8185bb0-bb29-4789-bb59-2112fe4baaa7","ios":"levelo://app?vid=e8185bb0-bb29-4789-bb59-2112fe4baaa7"},"vehicle_type_id":"4","last_reported":1743869425,"current_range_meters":12400,"station_id":"ce4bgj92rcd13ifvqbd0","pricing_plan_id":"cebpf4jnsgd1na2vs0mg"},{"bike_id":"5d2217ae-a9f6-4972-9ca4-b63d578d2116","system_id":"levelo_inurba_marseille","lat":43.32477,"lon":5.36567,"is_reserved":false,"is_disabled":false,"rental_uris":{"android":"levelo://app?vid=5d2217ae-a9f6-4972-9ca4-b63d578d2116","ios":"levelo://app?vid=5d2217ae-a9f6-4972-9ca4-b63d578d2116"},"vehicle_type_id":"4","last_reported":1743869425,"current_range_meters":11200,"station_id":"ce4bhs12rcd13ifvqhvg","pricing_plan_id":"cebpf4jnsgd1na2vs0mg"},{"bike_id":"95cbfcb1-8654-4dc7-ab1d-4a3c0c7b0d82","system_id":"levelo_inurba_marseille","lat":43.2306,"lon":5.35489,"is_reserved":false,"is_disabled":false,"rental_uris":{"android":"levelo://app?vid=95cbfcb1-8654-4dc7-ab1d-4a3c0c7b0d82","ios":"levelo://app?vid=95cbfcb1-8654-4dc7-ab1d-4a3c0c7b0d82"},"vehicle_type_id":"4","last_reported":1743869425,"current_range_meters":12800,"station_id":"cpo3342slgdg3j2ifvpg","pricing_plan_id":"cebpf4jnsgd1na2vs0mg"},{"bike_id":"0df65237-e7a4-4343-893f-a48efecb67b4","system_id":"levelo_inurba_marseille","lat":43.25826,"lon":5.39434,"is_reserved":false,"is_disabled":false,"rental_uris":{"android":"levelo://app?vid=0df65237-e7a4-4343-893f-a48efecb67b4","ios":"levelo://app?vid=0df65237-e7a4-4343-893f-a48efecb67b4"},"vehicle_type_id":"4","last_reported":1743869425,"current_range_meters":12800,"station_id":"ce4bhip2rcd13ifvqft0","pricing_plan_id":"cebpf4jnsgd1na2vs0mg"},{"bike_id":"78f5eb49-2986-4e89-a47d-f9f24b792d02","system_id":"levelo_inurba_marseille","lat":43.28413,"lon":5.35013,"is_reserved":false,"is_disabled":false,"rental_uris":{"android":"levelo://app?vid=78f5eb49-2986-4e89-a47d-f9f24b792d02","ios":"levelo://app?vid=78f5eb49-2986-4e89-a47d-f9f24b792d02"},"vehicle_type_id":"4","last_reported":1743869425,"current_range_meters":12800,"station_id":"ce4bhbh2rcd13ifvqepg","pricing_plan_id":"cebpf4jnsgd1na2vs0mg"},{"bike_id":"f17a8ecc-e6a6-4ff0-87dd-6f1b580ae80d","system_id":"levelo_inurba_marseille","lat":43.26204,"lon":5.37938,"is_reserved":false,"is_disabled":false,"rental_uris":{"android":"levelo://app?vid=f17a8ecc-e6a6-4ff0-87dd-6f1b580ae80d","ios":"levelo://app?vid=f17a8ecc-e6a6-4ff0-87dd-6f1b580ae80d"},"vehicle_type_id":"4","last_reported":1743869425,"current_range_meters":12800,"station_id":"ce4bhjp2rcd13ifvqg90","pricing_plan_id":"cebpf4jnsgd1na2vs0mg"},{"bike_id":"abd2bade-bc48-448e-b530-b13304d059a7","system_id":"levelo_inurba_marseille","lat":43.29874,"lon":5.389,"is_reserved":false,"is_disabled":false,"rental_uris":{"android":"levelo://app?vid=abd2bade-bc48-448e-b530-b13304d059a7","ios":"levelo://app?vid=abd2bade-bc48-448e-b530-b13304d059a7"},"vehicle_type_id":"4","last_reported":1743869425,"current_range_meters":12400,"station_id":"ce4bh392rcd13ifvqdl0","pricing_plan_id":"cebpf4jnsgd1na2vs0mg"},{"bike_id":"f1df25a1-cc6f-4a19-8567-430eaf0fc8e4","system_id":"levelo_inurba_marseille","lat":43.22932,"lon":5.35379,"is_reserved":false,"is_disabled":false,"rental_uris":{"android":"levelo://app?vid=f1df25a1-cc6f-4a19-8567-430eaf0fc8e4","ios":"levelo://app?vid=f1df25a1-cc6f-4a19-8567-430eaf0fc8e4"},"vehicle_type_id":"4","last_reported":1743869425,"current_range_meters":12800,"station_id":"cpo3532slgdg3j2ikp40","pricing_plan_id":"cebpf4jnsgd1na2vs0mg"},{"bike_id":"c30f802a-9d70-474a-a9aa-6970c7362d07","system_id":"levelo_inurba_marseille","lat":43.28155,"lon":5.42643,"is_reserved":false,"is_disabled":false,"rental_uris":{"android":"levelo://app?vid=c30f802a-9d70-474a-a9aa-6970c7362d07","ios":"levelo://app?vid=c30f802a-9d70-474a-a9aa-6970c7362d07"},"vehicle_type_id":"4","last_reported":1743869425,"current_range_meters":12800,"station_id":"ce4bhnh2rcd13ifvqgug","pricing_plan_id":"cebpf4jnsgd1na2vs0mg"},{"bike_id":"fab3a0a2-ba3f-4160-92d6-2af481a5e282","system_id":"levelo_inurba_marseille","lat":43.28643,"lon":5.35133,"is_reserved":false,"is_disabled":false,"rental_uris":{"android":"levelo://app?vid=fab3a0a2-ba3f-4160-92d6-2af481a5e282","ios":"levelo://app?vid=fab3a0a2-ba3f-4160-92d6-2af481a5e282"},"vehicle_type_id":"4","last_reported":1743869425,"current_range_meters":13600,"station_id":"ce4bhch2rcd13ifvqeug","pricing_plan_id":"cebpf4jnsgd1na2vs0mg"},{"bike_id":"97d77224-5748-4443-848a-6ab951c45d6d","system_id":"levelo_inurba_marseille","lat":43.3228,"lon":5.38282,"is_reserved":false,"is_disabled":false,"rental_uris":{"android":"levelo://app?vid=97d77224-5748-4443-848a-6ab951c45d6d","ios":"levelo://app?vid=97d77224-5748-4443-848a-6ab951c45d6d"},"vehicle_type_id":"4","last_reported":1743869425,"current_range_meters":13600,"station_id":"ce4bhr12rcd13ifvqhqg","pricing_plan_id":"cebpf4jnsgd1na2vs0mg"},{"bike_id":"a5ee3e06-ae72-48d0-9bae-5aead6340ce6","system_id":"levelo_inurba_marseille","lat":43.28426,"lon":5.34991,"is_reserved":false,"is_disabled":false,"rental_uris":{"android":"levelo://app?vid=a5ee3e06-ae72-48d0-9bae-5aead6340ce6","ios":"levelo://app?vid=a5ee3e06-ae72-48d0-9bae-5aead6340ce6"},"vehicle_type_id":"4","last_reported":1743869425,"current_range_meters":13600,"station_id":"ce4bhbh2rcd13ifvqepg","pricing_plan_id":"cebpf4jnsgd1na2vs0mg"},{"bike_id":"a2764ba8-e2f6-4dea-aa4d-b4eda957e15e","system_id":"levelo_inurba_marseille","lat":43.31763,"lon":5.39001,"is_reserved":false,"is_disabled":false,"rental_uris":{"android":"levelo://app?vid=a2764ba8-e2f6-4dea-aa4d-b4eda957e15e","ios":"levelo://app?vid=a2764ba8-e2f6-4dea-aa4d-b4eda957e15e"},"vehicle_type_id":"4","last_reported":1743869425,"current_range_meters":12800,"station_id":"ce4bhqp2rcd13ifvqhng","pricing_plan_id":"cebpf4jnsgd1na2vs0mg"},{"bike_id":"33bdc25c-426d-4542-8bd7-aea233210dc2","system_id":"levelo_inurba_marseille","lat":43.28438,"lon":5.35024,"is_reserved":false,"is_disabled":false,"rental_uris":{"android":"levelo://app?vid=33bdc25c-426d-4542-8bd7-aea233210dc2","ios":"levelo://app?vid=33bdc25c-426d-4542-8bd7-aea233210dc2"},"vehicle_type_id":"4","last_reported":1743869425,"current_range_meters":13600,"station_id":"ce4bhbh2rcd13ifvqepg","pricing_plan_id":"cebpf4jnsgd1na2vs0mg"},{"bike_id":"73272853-088e-4b39-8e6e-94fe10fc353c","system_id":"levelo_inurba_marseille","lat":43.33767,"lon":5.37514,"is_reserved":false,"is_disabled":false,"rental_uris":{"android":"levelo://app?vid=73272853-088e-4b39-8e6e-94fe10fc353c","ios":"levelo://app?vid=73272853-088e-4b39-8e6e-94fe10fc353c"},"vehicle_type_id":"4","last_reported":1743869425,"current_range_meters":13600,"station_id":"","pricing_plan_id":"cebpf4jnsgd1na2vs0mg"},{"bike_id":"de603971-ad9b-4430-951e-0e4f9937ea0a","system_id":"levelo_inurba_marseille","lat":43.24167,"lon":5.36394,"is_reserved":false,"is_disabled":false,"rental_uris":{"android":"levelo://app?vid=de603971-ad9b-4430-951e-0e4f9937ea0a","ios":"levelo://app?vid=de603971-ad9b-4430-951e-0e4f9937ea0a"},"vehicle_type_id":"4","last_reported":1743869425,"current_range_meters":13600,"station_id":"cpo36qri1sfpv3e86is0","pricing_plan_id":"cebpf4jnsgd1na2vs0mg"},{"bike_id":"a7d99540-fc67-493c-9edb-f5905ced80c8","system_id":"levelo_inurba_marseille","lat":43.28411,"lon":5.34986,"is_reserved":false,"is_disabled":false,"rental_uris":{"android":"levelo://app?vid=a7d99540-fc67-493c-9edb-f5905ced80c8","ios":"levelo://app?vid=a7d99540-fc67-493c-9edb-f5905ced80c8"},"vehicle_type_id":"4","last_reported":1743869425,"current_range_meters":13600,"station_id":"ce4bhbh2rcd13ifvqepg","pricing_plan_id":"cebpf4jnsgd1na2vs0mg"},{"bike_id":"468a060a-fcfa-43fc-a3ae-6f9d2495ff46","system_id":"levelo_inurba_marseille","lat":43.2315,"lon":5.43712,"is_reserved":false,"is_disabled":false,"rental_uris":{"android":"levelo://app?vid=468a060a-fcfa-43fc-a3ae-6f9d2495ff46","ios":"levelo://app?vid=468a060a-fcfa-43fc-a3ae-6f9d2495ff46"},"vehicle_type_id":"4","last_reported":1743869425,"current_range_meters":13600,"station_id":"ce4bhmp2rcd13ifvqgog","pricing_plan_id":"cebpf4jnsgd1na2vs0mg"},{"bike_id":"310cf25c-6b50-4e0e-b783-6d931222ba8d","system_id":"levelo_inurba_marseille","lat":43.27985,"lon":5.41656,"is_reserved":false,"is_disabled":false,"rental_uris":{"android":"levelo://app?vid=310cf25c-6b50-4e0e-b783-6d931222ba8d","ios":"levelo://app?vid=310cf25c-6b50-4e0e-b783-6d931222ba8d"},"vehicle_type_id":"4","last_reported":1743869425,"current_range_meters":13600,"station_id":"ce4bho12rcd13ifvqh1g","pricing_plan_id":"cebpf4jnsgd1na2vs0mg"},{"bike_id":"e905a421-6027-4c7e-a848-1a4fa856e800","system_id":"levelo_inurba_marseille","lat":43.26574,"lon":5.39004,"is_reserved":false,"is_disabled":false,"rental_uris":{"android":"levelo://app?vid=e905a421-6027-4c7e-a848-1a4fa856e800","ios":"levelo://app?vid=e905a421-6027-4c7e-a848-1a4fa856e800"},"vehicle_type_id":"4","last_reported":1743869425,"current_range_meters":13600,"station_id":"ce4bhe12rcd13ifvqf30","pricing_plan_id":"cebpf4jnsgd1na2vs0mg"},{"bike_id":"c23772a6-53c1-430f-8570-284ba0642d08","system_id":"levelo_inurba_marseille","lat":43.28605,"lon":5.35102,"is_reserved":false,"is_disabled":false,"rental_uris":{"android":"levelo://app?vid=c23772a6-53c1-430f-8570-284ba0642d08","ios":"levelo://app?vid=c23772a6-53c1-430f-8570-284ba0642d08"},"vehicle_type_id":"4","last_reported":1743869425,"current_range_meters":14000,"station_id":"ce4bhch2rcd13ifvqeug","pricing_plan_id":"cebpf4jnsgd1na2vs0mg"},{"bike_id":"c50edd2b-88dd-434e-b794-36692e2c1f27","system_id":"levelo_inurba_marseille","lat":43.284191,"lon":5.349845,"is_reserved":false,"is_disabled":false,"rental_uris":{"android":"levelo://app?vid=c50edd2b-88dd-434e-b794-36692e2c1f27","ios":"levelo://app?vid=c50edd2b-88dd-434e-b794-36692e2c1f27"},"vehicle_type_id":"4","last_reported":1743869425,"current_range_meters":14000,"station_id":"ce4bhbh2rcd13ifvqepg","pricing_plan_id":"cebpf4jnsgd1na2vs0mg"},{"bike_id":"9f3e927f-15f2-4d15-9713-94b3eddba0bd","system_id":"levelo_inurba_marseille","lat":43.23147,"lon":5.43711,"is_reserved":false,"is_disabled":false,"rental_uris":{"android":"levelo://app?vid=9f3e927f-15f2-4d15-9713-94b3eddba0bd","ios":"levelo://app?vid=9f3e927f-15f2-4d15-9713-94b3eddba0bd"},"vehicle_type_id":"4","last_reported":1743869425,"current_range_meters":14000,"station_id":"ce4bhmp2rcd13ifvqgog","pricing_plan_id":"cebpf4jnsgd1na2vs0mg"},{"bike_id":"dc63fabf-8ce8-44e4-8a18-22cd8bbb3819","system_id":"levelo_inurba_marseille","lat":43.31729,"lon":5.42392,"is_reserved":false,"is_disabled":false,"rental_uris":{"android":"levelo://app?vid=dc63fabf-8ce8-44e4-8a18-22cd8bbb3819","ios":"levelo://app?vid=dc63fabf-8ce8-44e4-8a18-22cd8bbb3819"},"vehicle_type_id":"4","last_reported":1743869425,"current_range_meters":14000,"station_id":"ce4bhp92rcd13ifvqhbg","pricing_plan_id":"cebpf4jnsgd1na2vs0mg"},{"bike_id":"d8b4f1e7-2026-41c2-80a4-fee5ef280305","system_id":"levelo_inurba_marseille","lat":43.30806,"lon":5.43518,"is_reserved":false,"is_disabled":false,"rental_uris":{"android":"levelo://app?vid=d8b4f1e7-2026-41c2-80a4-fee5ef280305","ios":"levelo://app?vid=d8b4f1e7-2026-41c2-80a4-fee5ef280305"},"vehicle_type_id":"4","last_reported":1743869425,"current_range_meters":14400,"station_id":"ce4bhph2rcd13ifvqheg","pricing_plan_id":"cebpf4jnsgd1na2vs0mg"},{"bike_id":"6082a6d8-29f3-4441-bd82-d0f95ead75d7","system_id":"levelo_inurba_marseille","lat":43.23186,"lon":5.35574,"is_reserved":false,"is_disabled":false,"rental_uris":{"android":"levelo://app?vid=6082a6d8-29f3-4441-bd82-d0f95ead75d7","ios":"levelo://app?vid=6082a6d8-29f3-4441-bd82-d0f95ead75d7"},"vehicle_type_id":"4","last_reported":1743869425,"current_range_meters":14400,"station_id":"ce4bhu92rcd13ifvqi70","pricing_plan_id":"cebpf4jnsgd1na2vs0mg"},{"bike_id":"b01f2b6c-7fe9-48f0-afe1-7f525943b944","system_id":"levelo_inurba_marseille","lat":43.26198,"lon":5.37931,"is_reserved":false,"is_disabled":false,"rental_uris":{"android":"levelo://app?vid=b01f2b6c-7fe9-48f0-afe1-7f525943b944","ios":"levelo://app?vid=b01f2b6c-7fe9-48f0-afe1-7f525943b944"},"vehicle_type_id":"4","last_reported":1743869425,"current_range_meters":14800,"station_id":"ce4bhjp2rcd13ifvqg90","pricing_plan_id":"cebpf4jnsgd1na2vs0mg"},{"bike_id":"00ebf912-6dd9-4ba9-86ff-eb30aa842965","system_id":"levelo_inurba_marseille","lat":43.29202,"lon":5.3581,"is_reserved":false,"is_disabled":false,"rental_uris":{"android":"levelo://app?vid=00ebf912-6dd9-4ba9-86ff-eb30aa842965","ios":"levelo://app?vid=00ebf912-6dd9-4ba9-86ff-eb30aa842965"},"vehicle_type_id":"4","last_reported":1743869425,"current_range_meters":14800,"station_id":"ce4bhb12rcd13ifvqel0","pricing_plan_id":"cebpf4jnsgd1na2vs0mg"},{"bike_id":"4e4e8c42-8806-4205-b430-1456d6805702","system_id":"levelo_inurba_marseille","lat":43.29199,"lon":5.35802,"is_reserved":false,"is_disabled":false,"rental_uris":{"android":"levelo://app?vid=4e4e8c42-8806-4205-b430-1456d6805702","ios":"levelo://app?vid=4e4e8c42-8806-4205-b430-1456d6805702"},"vehicle_type_id":"4","last_reported":1743869425,"current_range_meters":14800,"station_id":"ce4bhb12rcd13ifvqel0","pricing_plan_id":"cebpf4jnsgd1na2vs0mg"},{"bike_id":"c1b50e89-53cf-4e3f-8bb9-965b51be5b9e","system_id":"levelo_inurba_marseille","lat":43.284,"lon":5.37521,"is_reserved":false,"is_disabled":false,"rental_uris":{"android":"levelo://app?vid=c1b50e89-53cf-4e3f-8bb9-965b51be5b9e","ios":"levelo://app?vid=c1b50e89-53cf-4e3f-8bb9-965b51be5b9e"},"vehicle_type_id":"4","last_reported":1743869425,"current_range_meters":14800,"station_id":"ce4bh412rcd13ifvqds0","pricing_plan_id":"cebpf4jnsgd1na2vs0mg"},{"bike_id":"87908f94-d8aa-4a33-8565-205213af20b1","system_id":"levelo_inurba_marseille","lat":43.3211,"lon":5.36791,"is_reserved":false,"is_disabled":false,"rental_uris":{"android":"levelo://app?vid=87908f94-d8aa-4a33-8565-205213af20b1","ios":"levelo://app?vid=87908f94-d8aa-4a33-8565-205213af20b1"},"vehicle_type_id":"4","last_reported":1743869425,"current_range_meters":15200,"station_id":"ce4bhrh2rcd13ifvqhug","pricing_plan_id":"cebpf4jnsgd1na2vs0mg"},{"bike_id":"8586b616-aca0-4aa0-9eca-e908924c4157","system_id":"levelo_inurba_marseille","lat":43.292845,"lon":5.36846,"is_reserved":false,"is_disabled":false,"rental_uris":{"android":"levelo://app?vid=8586b616-aca0-4aa0-9eca-e908924c4157","ios":"levelo://app?vid=8586b616-aca0-4aa0-9eca-e908924c4157"},"vehicle_type_id":"4","last_reported":1743869425,"current_range_meters":15200,"station_id":"ce4bhbp2rcd13ifvqesg","pricing_plan_id":"cebpf4jnsgd1na2vs0mg"},{"bike_id":"77d4655a-889b-426f-b9ab-693ce108d89a","system_id":"levelo_inurba_marseille","lat":43.30904,"lon":5.36839,"is_reserved":false,"is_disabled":false,"rental_uris":{"android":"levelo://app?vid=77d4655a-889b-426f-b9ab-693ce108d89a","ios":"levelo://app?vid=77d4655a-889b-426f-b9ab-693ce108d89a"},"vehicle_type_id":"4","last_reported":1743869425,"current_range_meters":15200,"station_id":"ce4bgn92rcd13ifvqbvg","pricing_plan_id":"cebpf4jnsgd1na2vs0mg"},{"bike_id":"a3fd81b3-269f-468a-8a72-bbf09c28df00","system_id":"levelo_inurba_marseille","lat":43.30471,"lon":5.37899,"is_reserved":false,"is_disabled":false,"rental_uris":{"android":"levelo://app?vid=a3fd81b3-269f-468a-8a72-bbf09c28df00","ios":"levelo://app?vid=a3fd81b3-269f-468a-8a72-bbf09c28df00"},"vehicle_type_id":"4","last_reported":1743869425,"current_range_meters":14800,"station_id":"ce4bgup2rcd13ifvqcn0","pricing_plan_id":"cebpf4jnsgd1na2vs0mg"},{"bike_id":"5420e474-5232-43f0-bd62-51e2359e3157","system_id":"levelo_inurba_marseille","lat":43.31343,"lon":5.36999,"is_reserved":false,"is_disabled":false,"rental_uris":{"android":"levelo://app?vid=5420e474-5232-43f0-bd62-51e2359e3157","ios":"levelo://app?vid=5420e474-5232-43f0-bd62-51e2359e3157"},"vehicle_type_id":"4","last_reported":1743869425,"current_range_meters":16000,"station_id":"","pricing_plan_id":"cebpf4jnsgd1na2vs0mg"},{"bike_id":"ceba594e-ff69-4140-828e-f8a961103e51","system_id":"levelo_inurba_marseille","lat":43.24186,"lon":5.36432,"is_reserved":false,"is_disabled":false,"rental_uris":{"android":"levelo://app?vid=ceba594e-ff69-4140-828e-f8a961103e51","ios":"levelo://app?vid=ceba594e-ff69-4140-828e-f8a961103e51"},"vehicle_type_id":"4","last_reported":1743869425,"current_range_meters":16000,"station_id":"cpo36qri1sfpv3e86is0","pricing_plan_id":"cebpf4jnsgd1na2vs0mg"},{"bike_id":"5654602e-3974-4804-ba48-e78159de4009","system_id":"levelo_inurba_marseille","lat":43.25106,"lon":5.40338,"is_reserved":false,"is_disabled":false,"rental_uris":{"android":"levelo://app?vid=5654602e-3974-4804-ba48-e78159de4009","ios":"levelo://app?vid=5654602e-3974-4804-ba48-e78159de4009"},"vehicle_type_id":"4","last_reported":1743869425,"current_range_meters":16000,"station_id":"ce4bhlh2rcd13ifvqgig","pricing_plan_id":"cebpf4jnsgd1na2vs0mg"},{"bike_id":"7fd0635d-68ad-4ce6-a52b-daef56987b4b","system_id":"levelo_inurba_marseille","lat":43.30889,"lon":5.38627,"is_reserved":false,"is_disabled":false,"rental_uris":{"android":"levelo://app?vid=7fd0635d-68ad-4ce6-a52b-daef56987b4b","ios":"levelo://app?vid=7fd0635d-68ad-4ce6-a52b-daef56987b4b"},"vehicle_type_id":"4","last_reported":1743869425,"current_range_meters":16000,"station_id":"","pricing_plan_id":"cebpf4jnsgd1na2vs0mg"},{"bike_id":"8e5bc270-6f55-45b4-918a-d08230aa5f2e","system_id":"levelo_inurba_marseille","lat":43.28834,"lon":5.35876,"is_reserved":false,"is_disabled":false,"rental_uris":{"android":"levelo://app?vid=8e5bc270-6f55-45b4-918a-d08230aa5f2e","ios":"levelo://app?vid=8e5bc270-6f55-45b4-918a-d08230aa5f2e"},"vehicle_type_id":"4","last_reported":1743869425,"current_range_meters":16000,"station_id":"ce4bhb12rcd13ifvqem0","pricing_plan_id":"cebpf4jnsgd1na2vs0mg"},{"bike_id":"a9603315-6341-4782-9e9f-0c5a9c76e61d","system_id":"levelo_inurba_marseille","lat":43.2707,"lon":5.42278,"is_reserved":false,"is_disabled":false,"rental_uris":{"android":"levelo://app?vid=a9603315-6341-4782-9e9f-0c5a9c76e61d","ios":"levelo://app?vid=a9603315-6341-4782-9e9f-0c5a9c76e61d"},"vehicle_type_id":"4","last_reported":1743869425,"current_range_meters":16000,"station_id":"ce4bhk92rcd13ifvqgb0","pricing_plan_id":"cebpf4jnsgd1na2vs0mg"},{"bike_id":"136b6e45-ee21-453e-aa22-e07947db9071","system_id":"levelo_inurba_marseille","lat":43.23168,"lon":5.43702,"is_reserved":false,"is_disabled":true,"rental_uris":{"android":"levelo://app?vid=136b6e45-ee21-453e-aa22-e07947db9071","ios":"levelo://app?vid=136b6e45-ee21-453e-aa22-e07947db9071"},"vehicle_type_id":"4","last_reported":1743869425,"current_range_meters":16000,"station_id":"ce4bhmp2rcd13ifvqgog","pricing_plan_id":"cebpf4jnsgd1na2vs0mg"},{"bike_id":"71ab78b6-2beb-4229-9357-f553a5263d60","system_id":"levelo_inurba_marseille","lat":43.29298,"lon":5.37457,"is_reserved":false,"is_disabled":false,"rental_uris":{"android":"levelo://app?vid=71ab78b6-2beb-4229-9357-f553a5263d60","ios":"levelo://app?vid=71ab78b6-2beb-4229-9357-f553a5263d60"},"vehicle_type_id":"4","last_reported":1743869425,"current_range_meters":16400,"station_id":"ce4bgi12rcd13ifvqb70","pricing_plan_id":"cebpf4jnsgd1na2vs0mg"},{"bike_id":"84b8e111-4467-4f57-b6f7-41adfeccf68b","system_id":"levelo_inurba_marseille","lat":43.23071,"lon":5.35498,"is_reserved":false,"is_disabled":false,"rental_uris":{"android":"levelo://app?vid=84b8e111-4467-4f57-b6f7-41adfeccf68b","ios":"levelo://app?vid=84b8e111-4467-4f57-b6f7-41adfeccf68b"},"vehicle_type_id":"4","last_reported":1743869425,"current_range_meters":16400,"station_id":"cpo3342slgdg3j2ifvpg","pricing_plan_id":"cebpf4jnsgd1na2vs0mg"},{"bike_id":"c3e6d442-6282-4c88-9f90-93d85aff9e76","system_id":"levelo_inurba_marseille","lat":43.28155,"lon":5.4265,"is_reserved":false,"is_disabled":false,"rental_uris":{"android":"levelo://app?vid=c3e6d442-6282-4c88-9f90-93d85aff9e76","ios":"levelo://app?vid=c3e6d442-6282-4c88-9f90-93d85aff9e76"},"vehicle_type_id":"4","last_reported":1743869425,"current_range_meters":16400,"station_id":"ce4bhnh2rcd13ifvqgug","pricing_plan_id":"cebpf4jnsgd1na2vs0mg"},{"bike_id":"eecd9657-472c-43ed-bd56-0ec7af891a2b","system_id":"levelo_inurba_marseille","lat":43.3133,"lon":5.39687,"is_reserved":false,"is_disabled":false,"rental_uris":{"android":"levelo://app?vid=eecd9657-472c-43ed-bd56-0ec7af891a2b","ios":"levelo://app?vid=eecd9657-472c-43ed-bd56-0ec7af891a2b"},"vehicle_type_id":"4","last_reported":1743869425,"current_range_meters":16400,"station_id":"ce4bgvp2rcd13ifvqcu0","pricing_plan_id":"cebpf4jnsgd1na2vs0mg"},{"bike_id":"f5290d19-f9a4-43ad-a49e-f4af7634048e","system_id":"levelo_inurba_marseille","lat":43.28613,"lon":5.35103,"is_reserved":false,"is_disabled":false,"rental_uris":{"android":"levelo://app?vid=f5290d19-f9a4-43ad-a49e-f4af7634048e","ios":"levelo://app?vid=f5290d19-f9a4-43ad-a49e-f4af7634048e"},"vehicle_type_id":"4","last_reported":1743869425,"current_range_meters":16400,"station_id":"ce4bhch2rcd13ifvqeug","pricing_plan_id":"cebpf4jnsgd1na2vs0mg"},{"bike_id":"489846bf-1a01-4b7e-93f0-fc79c59efc6b","system_id":"levelo_inurba_marseille","lat":43.29963,"lon":5.38502,"is_reserved":false,"is_disabled":false,"rental_uris":{"android":"levelo://app?vid=489846bf-1a01-4b7e-93f0-fc79c59efc6b","ios":"levelo://app?vid=489846bf-1a01-4b7e-93f0-fc79c59efc6b"},"vehicle_type_id":"4","last_reported":1743869425,"current_range_meters":16400,"station_id":"ce4bgj92rcd13ifvqbd0","pricing_plan_id":"cebpf4jnsgd1na2vs0mg"},{"bike_id":"8ddb5c1a-cfc3-48a1-a076-a2f2eeb905d1","system_id":"levelo_inurba_marseille","lat":43.23979,"lon":5.36653,"is_reserved":false,"is_disabled":false,"rental_uris":{"android":"levelo://app?vid=8ddb5c1a-cfc3-48a1-a076-a2f2eeb905d1","ios":"levelo://app?vid=8ddb5c1a-cfc3-48a1-a076-a2f2eeb905d1"},"vehicle_type_id":"4","last_reported":1743869425,"current_range_meters":16400,"station_id":"ce4bhi12rcd13ifvqfp0","pricing_plan_id":"cebpf4jnsgd1na2vs0mg"},{"bike_id":"8531f5d2-ec8c-49ba-9296-c719d99df2cd","system_id":"levelo_inurba_marseille","lat":43.229248,"lon":5.353773,"is_reserved":false,"is_disabled":false,"rental_uris":{"android":"levelo://app?vid=8531f5d2-ec8c-49ba-9296-c719d99df2cd","ios":"levelo://app?vid=8531f5d2-ec8c-49ba-9296-c719d99df2cd"},"vehicle_type_id":"4","last_reported":1743869425,"current_range_meters":16800,"station_id":"","pricing_plan_id":"cebpf4jnsgd1na2vs0mg"},{"bike_id":"a409c3f0-8991-4228-afb5-57b19bb06658","system_id":"levelo_inurba_marseille","lat":43.32401,"lon":5.38997,"is_reserved":false,"is_disabled":false,"rental_uris":{"android":"levelo://app?vid=a409c3f0-8991-4228-afb5-57b19bb06658","ios":"levelo://app?vid=a409c3f0-8991-4228-afb5-57b19bb06658"},"vehicle_type_id":"4","last_reported":1743869425,"current_range_meters":16800,"station_id":"","pricing_plan_id":"cebpf4jnsgd1na2vs0mg"},{"bike_id":"90981121-116c-47a5-b4b5-494ed4cfe28c","system_id":"levelo_inurba_marseille","lat":43.29274,"lon":5.3685,"is_reserved":false,"is_disabled":false,"rental_uris":{"android":"levelo://app?vid=90981121-116c-47a5-b4b5-494ed4cfe28c","ios":"levelo://app?vid=90981121-116c-47a5-b4b5-494ed4cfe28c"},"vehicle_type_id":"4","last_reported":1743869425,"current_range_meters":16800,"station_id":"ce4bhbp2rcd13ifvqesg","pricing_plan_id":"cebpf4jnsgd1na2vs0mg"},{"bike_id":"d91a95ab-fd97-4361-98b1-a0cb368dc15d","system_id":"levelo_inurba_marseille","lat":43.29906,"lon":5.38133,"is_reserved":false,"is_disabled":false,"rental_uris":{"android":"levelo://app?vid=d91a95ab-fd97-4361-98b1-a0cb368dc15d","ios":"levelo://app?vid=d91a95ab-fd97-4361-98b1-a0cb368dc15d"},