{"last_updated":1736953751,"ttl":60,"version":"2.2","data":{"bikes":[{"bike_id":"8950994e-141b-4c16-ae82-ef1e6827f7d4","system_id":"levelo_inurba_marseille","lat":43.2783,"lon":5.40721,"is_reserved":false,"is_disabled":false,"rental_uris":{"android":"levelo://app?vid=8950994e-141b-4c16-ae82-ef1e6827f7d4","ios":"levelo://app?vid=8950994e-141b-4c16-ae82-ef1e6827f7d4"},"vehicle_type_id":"4","last_reported":1736953751,"current_range_meters":5600,"station_id":"ce4bhnh2rcd13ifvqgtg","pricing_plan_id":"cebpf4jnsgd1na2vs0mg"},{"bike_id":"4805b49a-5a71-4c02-bacb-6ab8793208f4","system_id":"levelo_inurba_marseille","lat":43.29289,"lon":5.36842,"is_reserved":false,"is_disabled":false,"rental_uris":{"android":"levelo://app?vid=4805b49a-5a71-4c02-bacb-6ab8793208f4","ios":"levelo://app?vid=4805b49a-5a71-4c02-bacb-6ab8793208f4"},"vehicle_type_id":"4","last_reported":1736953751,"current_range_meters":8800,"station_id":"ce4bhbp2rcd13ifvqesg","pricing_plan_id":"cebpf4jnsgd1na2vs0mg"},{"bike_id":"9a6b4e17-666c-448f-bef4-cde79c4dfef8","system_id":"levelo_inurba_marseille","lat":43.31125,"lon":5.37762,"is_reserved":false,"is_disabled":false,"rental_uris":{"android":"levelo://app?vid=9a6b4e17-666c-448f-bef4-cde79c4dfef8","ios":"levelo://app?vid=9a6b4e17-666c-448f-bef4-cde79c4dfef8"},"vehicle_type_id":"4","last_reported":1736953751,"current_range_meters":34800,"station_id":"ce4bgt92rcd13ifvqcg0","pricing_plan_id":"cebpf4jnsgd1na2vs0mg"},{"bike_id":"46cd3a02-8b2f-4b2e-a52d-372b2e1329e8","system_id":"levelo_inurba_marseille","lat":43.29041,"lon":5.35928,"is_reserved":false,"is_disabled":false,"rental_uris":{"android":"levelo://app?vid=46cd3a02-8b2f-4b2e-a52d-372b2e1329e8","ios":"levelo://app?vid=46cd3a02-8b2f-4b2e-a52d-372b2e1329e8"},"vehicle_type_id":"4","last_reported":1736953751,"current_range_meters":30000,"station_id":"ce4bha92rcd13ifvqeg0","pricing_plan_id":"cebpf4jnsgd1na2vs0mg"},{"bike_id":"c33d2a95-3706-4d2b-9d34-a71ba19d7faf","system_id":"levelo_inurba_marseille","lat":43.25106,"lon":5.40325,"is_reserved":false,"is_disabled":false,"rental_uris":{"android":"levelo://app?vid=c33d2a95-3706-4d2b-9d34-a71ba19d7faf","ios":"levelo://app?vid=c33d2a95-3706-4d2b-9d34-a71ba19d7faf"},"vehicle_type_id":"4","last_reported":1736953751,"current_range_meters":6000,"station_id":"ce4bhlh2rcd13ifvqgig","pricing_plan_id":"cebpf4jnsgd1na2vs0mg"},{"bike_id":"a7522ff5-caf6-4d22-82f3-00e2fb11d9fd","system_id":"levelo_inurba_marseille","lat":43.31322,"lon":5.36738,"is_reserved":false,"is_disabled":false,"rental_uris":{"android":"levelo://app?vid=a7522ff5-caf6-4d22-82f3-00e2fb11d9fd","ios":"levelo://app?vid=a7522ff5-caf6-4d22-82f3-00e2fb11d9fd"},"vehicle_type_id":"4","last_reported":1736953751,"current_range_meters":37600,"station_id":"ce4bgr92rcd13ifvqc6g","pricing_plan_id":"cebpf4jnsgd1na2vs0mg"},{"bike_id":"910e1867-d7b5-4106-bbaa-4ba87bfa707f","system_id":"levelo_inurba_marseille","lat":43.28452,"lon":5.35889,"is_reserved":false,"is_disabled":false,"rental_uris":{"android":"levelo://app?vid=910e1867-d7b5-4106-bbaa-4ba87bfa707f","ios":"levelo://app?vid=910e1867-d7b5-4106-bbaa-4ba87bfa707f"},"vehicle_type_id":"4","last_reported":1736953751,"current_range_meters":24000,"station_id":"ce4bhah2rcd13ifvqei0","pricing_plan_id":"cebpf4jnsgd1na2vs0mg"},{"bike_id":"5bbdba29-3f63-48a2-9338-63c51c75a5ac","system_id":"levelo_inurba_marseille","lat":43.24669,"lon":5.38894,"is_reserved":false,"is_disabled":true,"rental_uris":{"android":"levelo://app?vid=5bbdba29-3f63-48a2-9338-63c51c75a5ac","ios":"levelo://app?vid=5bbdba29-3f63-48a2-9338-63c51c75a5ac"},"vehicle_type_id":"4","last_reported":1736953751,"current_range_meters":1200,"station_id":"ce4bhg12rcd13ifvqf60","pricing_plan_id":"cebpf4jnsgd1na2vs0mg"},{"bike_id":"8c80d85c-d04d-4d97-af81-8685f331d24e","system_id":"levelo_inurba_marseille","lat":43.29236,"lon":5.36076,"is_reserved":false,"is_disabled":false,"rental_uris":{"android":"levelo://app?vid=8c80d85c-d04d-4d97-af81-8685f331d24e","ios":"levelo://app?vid=8c80d85c-d04d-4d97-af81-8685f331d24e"},"vehicle_type_id":"4","last_reported":1736953751,"current_range_meters":38800,"station_id":"ce4bhbh2rcd13ifvqeqg","pricing_plan_id":"cebpf4jnsgd1na2vs0mg"},{"bike_id":"4fa358ca-b741-467a-a03f-b8033021b471","system_id":"levelo_inurba_marseille","lat":43.337571,"lon":5.374567,"is_reserved":false,"is_disabled":false,"rental_uris":{"android":"levelo://app?vid=4fa358ca-b741-467a-a03f-b8033021b471","ios":"levelo://app?vid=4fa358ca-b741-467a-a03f-b8033021b471"},"vehicle_type_id":"4","last_reported":1736953751,"current_range_meters":36400,"station_id":"","pricing_plan_id":"cebpf4jnsgd1na2vs0mg"},{"bike_id":"5db5f749-55d7-4666-b989-2cc4222957b1","system_id":"levelo_inurba_marseille","lat":43.284503,"lon":5.392184,"is_reserved":false,"is_disabled":true,"rental_uris":{"android":"levelo://app?vid=5db5f749-55d7-4666-b989-2cc4222957b1","ios":"levelo://app?vid=5db5f749-55d7-4666-b989-2cc4222957b1"},"vehicle_type_id":"4","last_reported":1736953751,"current_range_meters":24400,"station_id":"ce4bhoh2rcd13ifvqh5g","pricing_plan_id":"cebpf4jnsgd1na2vs0mg"},{"bike_id":"6c72276d-8e89-4c2f-8150-2735b7561b95","system_id":"levelo_inurba_marseille","lat":43.27496,"lon":5.42462,"is_reserved":false,"is_disabled":true,"rental_uris":{"android":"levelo://app?vid=6c72276d-8e89-4c2f-8150-2735b7561b95","ios":"levelo://app?vid=6c72276d-8e89-4c2f-8150-2735b7561b95"},"vehicle_type_id":"4","last_reported":1736953751,"current_range_meters":0,"station_id":"ce4bhn92rcd13ifvqgrg","pricing_plan_id":"cebpf4jnsgd1na2vs0mg"},{"bike_id":"12735cc0-5806-4a63-b867-b2c0df2b22b6","system_id":"levelo_inurba_marseille","lat":43.29163,"lon":5.37158,"is_reserved":false,"is_disabled":false,"rental_uris":{"android":"levelo://app?vid=12735cc0-5806-4a63-b867-b2c0df2b22b6","ios":"levelo://app?vid=12735cc0-5806-4a63-b867-b2c0df2b22b6"},"vehicle_type_id":"4","last_reported":1736953751,"current_range_meters":10800,"station_id":"ce4bha92rcd13ifvqeh0","pricing_plan_id":"cebpf4jnsgd1na2vs0mg"},{"bike_id":"04ca7d58-6107-4c23-b020-0d87521c21e5","system_id":"levelo_inurba_marseille","lat":43.29207,"lon":5.35825,"is_reserved":false,"is_disabled":false,"rental_uris":{"android":"levelo://app?vid=04ca7d58-6107-4c23-b020-0d87521c21e5","ios":"levelo://app?vid=04ca7d58-6107-4c23-b020-0d87521c21e5"},"vehicle_type_id":"4","last_reported":1736953751,"current_range_meters":39200,"station_id":"ce4bhb12rcd13ifvqel0","pricing_plan_id":"cebpf4jnsgd1na2vs0mg"},{"bike_id":"ccbd796f-0853-4438-83a6-7ee13405bafc","system_id":"levelo_inurba_marseille","lat":43.27826,"lon":5.39194,"is_reserved":false,"is_disabled":true,"rental_uris":{"android":"levelo://app?vid=ccbd796f-0853-4438-83a6-7ee13405bafc","ios":"levelo://app?vid=ccbd796f-0853-4438-83a6-7ee13405bafc"},"vehicle_type_id":"4","last_reported":1736953751,"current_range_meters":800,"station_id":"ce4bhjp2rcd13ifvqga0","pricing_plan_id":"cebpf4jnsgd1na2vs0mg"},{"bike_id":"c7a83e68-2daf-4787-a504-b04c946ccdbe","system_id":"levelo_inurba_marseille","lat":43.24804,"lon":5.37461,"is_reserved":false,"is_disabled":false,"rental_uris":{"android":"levelo://app?vid=c7a83e68-2daf-4787-a504-b04c946ccdbe","ios":"levelo://app?vid=c7a83e68-2daf-4787-a504-b04c946ccdbe"},"vehicle_type_id":"4","last_reported":1736953751,"current_range_meters":36400,"station_id":"ce4bhgh2rcd13ifvqfb0","pricing_plan_id":"cebpf4jnsgd1na2vs0mg"},{"bike_id":"d87ccf1d-04a2-4124-ab20-2a832bc0fcf4","system_id":"levelo_inurba_marseille","lat":43.2973,"lon":5.37653,"is_reserved":false,"is_disabled":false,"rental_uris":{"android":"levelo://app?vid=d87ccf1d-04a2-4124-ab20-2a832bc0fcf4","ios":"levelo://app?vid=d87ccf1d-04a2-4124-ab20-2a832bc0fcf4"},"vehicle_type_id":"4","last_reported":1736953751,"current_range_meters":36800,"station_id":"ce4bgkh2rcd13ifvqbl0","pricing_plan_id":"cebpf4jnsgd1na2vs0mg"},{"bike_id":"1546f697-d82b-4e5d-a850-a9023302096e","system_id":"levelo_inurba_marseille","lat":43.25003,"lon":5.38914,"is_reserved":false,"is_disabled":false,"rental_uris":{"android":"levelo://app?vid=1546f697-d82b-4e5d-a850-a9023302096e","ios":"levelo://app?vid=1546f697-d82b-4e5d-a850-a9023302096e"},"vehicle_type_id":"4","last_reported":1736953751,"current_range_meters":38800,"station_id":"ce4bhgp2rcd13ifvqfd0","pricing_plan_id":"cebpf4jnsgd1na2vs0mg"},{"bike_id":"b758f913-8ddf-42b4-a9dc-47e155bc1074","system_id":"levelo_inurba_marseille","lat":43.29179,"lon":5.35802,"is_reserved":false,"is_disabled":false,"rental_uris":{"android":"levelo://app?vid=b758f913-8ddf-42b4-a9dc-47e155bc1074","ios":"levelo://app?vid=b758f913-8ddf-42b4-a9dc-47e155bc1074"},"vehicle_type_id":"4","last_reported":1736953751,"current_range_meters":39200,"station_id":"ce4bhb12rcd13ifvqel0","pricing_plan_id":"cebpf4jnsgd1na2vs0mg"},{"bike_id":"a05bd889-5f47-4435-a653-f868055678ed","system_id":"levelo_inurba_marseille","lat":43.24995,"lon":5.38933,"is_reserved":false,"is_disabled":false,"rental_uris":{"android":"levelo://app?vid=a05bd889-5f47-4435-a653-f868055678ed","ios":"levelo://app?vid=a05bd889-5f47-4435-a653-f868055678ed"},"vehicle_type_id":"4","last_reported":1736953751,"current_range_meters":26800,"station_id":"ce4bhgp2rcd13ifvqfd0","pricing_plan_id":"cebpf4jnsgd1na2vs0mg"},{"bike_id":"5dc3dd3e-37d2-4dd0-b33d-d2f8ed1e3625","system_id":"levelo_inurba_marseille","lat":43.25922,"lon":5.40879,"is_reserved":false,"is_disabled":false,"rental_uris":{"android":"levelo://app?vid=5dc3dd3e-37d2-4dd0-b33d-d2f8ed1e3625","ios":"levelo://app?vid=5dc3dd3e-37d2-4dd0-b33d-d2f8ed1e3625"},"vehicle_type_id":"4","last_reported":1736953751,"current_range_meters":6800,"station_id":"ce4bhm92rcd13ifvqglg","pricing_plan_id":"cebpf4jnsgd1na2vs0mg"},{"bike_id":"ce30391b-c7d3-4416-9d1e-aea797233304","system_id":"levelo_inurba_marseille","lat":43.27368,"lon":5.3625,"is_reserved":false,"is_disabled":false,"rental_uris":{"android":"levelo://app?vid=ce30391b-c7d3-4416-9d1e-aea797233304","ios":"levelo://app?vid=ce30391b-c7d3-4416-9d1e-aea797233304"},"vehicle_type_id":"4","last_reported":1736953751,"current_range_meters":33200,"station_id":"ce4bhbh2rcd13ifvqeo0","pricing_plan_id":"cebpf4jnsgd1na2vs0mg"},{"bike_id":"8453db75-3167-4ff1-8aa6-48e00cb37721","system_id":"levelo_inurba_marseille","lat":43.25567,"lon":5.38245,"is_reserved":false,"is_disabled":false,"rental_uris":{"android":"levelo://app?vid=8453db75-3167-4ff1-8aa6-48e00cb37721","ios":"levelo://app?vid=8453db75-3167-4ff1-8aa6-48e00cb37721"},"vehicle_type_id":"4","last_reported":1736953751,"current_range_meters":16000,"station_id":"ce4bhih2rcd13ifvqfs0","pricing_plan_id":"cebpf4jnsgd1na2vs0mg"},{"bike_id":"1f035d8e-e273-4e72-a566-78bb37da1926","system_id":"levelo_inurba_marseille","lat":43.25724,"lon":5.41112,"is_reserved":false,"is_disabled":false,"rental_uris":{"android":"levelo://app?vid=1f035d8e-e273-4e72-a566-78bb37da1926","ios":"levelo://app?vid=1f035d8e-e273-4e72-a566-78bb37da1926"},"vehicle_type_id":"4","last_reported":1736953751,"current_range_meters":30000,"station_id":"ce4bhkp2rcd13ifvqgd0","pricing_plan_id":"cebpf4jnsgd1na2vs0mg"},{"bike_id":"6451e2ed-7def-45ea-94da-bf390bc8af85","system_id":"levelo_inurba_marseille","lat":43.25001,"lon":5.38914,"is_reserved":false,"is_disabled":false,"rental_uris":{"android":"levelo://app?vid=6451e2ed-7def-45ea-94da-bf390bc8af85","ios":"levelo://app?vid=6451e2ed-7def-45ea-94da-bf390bc8af85"},"vehicle_type_id":"4","last_reported":1736953751,"current_range_meters":30000,"station_id":"ce4bhgp2rcd13ifvqfd0","pricing_plan_id":"cebpf4jnsgd1na2vs0mg"},{"bike_id":"8407a36e-c4a3-4734-83db-62091b367019","system_id":"levelo_inurba_marseille","lat":43.32661,"lon":5.40995,"is_reserved":false,"is_disabled":false,"rental_uris":{"android":"levelo://app?vid=8407a36e-c4a3-4734-83db-62091b367019","ios":"levelo://app?vid=8407a36e-c4a3-4734-83db-62091b367019"},"vehicle_type_id":"4","last_reported":1736953751,"current_range_meters":27200,"station_id":"ce4bhpp2rcd13ifvqhgg","pricing_plan_id":"cebpf4jnsgd1na2vs0mg"},{"bike_id":"1ca2fac6-cdd0-4be6-b761-d0cdd8e2c59f","system_id":"levelo_inurba_marseille","lat":43.26942,"lon":5.40253,"is_reserved":false,"is_disabled":true,"rental_uris":{"android":"levelo://app?vid=1ca2fac6-cdd0-4be6-b761-d0cdd8e2c59f","ios":"levelo://app?vid=1ca2fac6-cdd0-4be6-b761-d0cdd8e2c59f"},"vehicle_type_id":"4","last_reported":1736953751,"current_range_meters":1600,"station_id":"cjm6bp8fraef2m0cb0m0","pricing_plan_id":"cebpf4jnsgd1na2vs0mg"},{"bike_id":"b544ab56-db1f-459e-a299-93f0621b7554","system_id":"levelo_inurba_marseille","lat":43.26562,"lon":5.37292,"is_reserved":false,"is_disabled":false,"rental_uris":{"android":"levelo://app?vid=b544ab56-db1f-459e-a299-93f0621b7554","ios":"levelo://app?vid=b544ab56-db1f-459e-a299-93f0621b7554"},"vehicle_type_id":"4","last_reported":1736953751,"current_range_meters":27600,"station_id":"ce4bhg12rcd13ifvqf70","pricing_plan_id":"cebpf4jnsgd1na2vs0mg"},{"bike_id":"1387e326-3471-4d34-8c16-3f2277450c81","system_id":"levelo_inurba_marseille","lat":43.26207,"lon":5.37444,"is_reserved":false,"is_disabled":false,"rental_uris":{"android":"levelo://app?vid=1387e326-3471-4d34-8c16-3f2277450c81","ios":"levelo://app?vid=1387e326-3471-4d34-8c16-3f2277450c81"},"vehicle_type_id":"4","last_reported":1736953751,"current_range_meters":19200,"station_id":"ce4bhgp2rcd13ifvqfc0","pricing_plan_id":"cebpf4jnsgd1na2vs0mg"},{"bike_id":"c8334207-f5c0-442a-8167-934adbff4575","system_id":"levelo_inurba_marseille","lat":43.25088,"lon":5.39508,"is_reserved":false,"is_disabled":false,"rental_uris":{"android":"levelo://app?vid=c8334207-f5c0-442a-8167-934adbff4575","ios":"levelo://app?vid=c8334207-f5c0-442a-8167-934adbff4575"},"vehicle_type_id":"4","last_reported":1736953751,"current_range_meters":17600,"station_id":"ce4bhm12rcd13ifvqgkg","pricing_plan_id":"cebpf4jnsgd1na2vs0mg"},{"bike_id":"902edfe6-251a-49fc-8548-2023567b8c62","system_id":"levelo_inurba_marseille","lat":43.303,"lon":5.36907,"is_reserved":false,"is_disabled":false,"rental_uris":{"android":"levelo://app?vid=902edfe6-251a-49fc-8548-2023567b8c62","ios":"levelo://app?vid=902edfe6-251a-49fc-8548-2023567b8c62"},"vehicle_type_id":"4","last_reported":1736953751,"current_range_meters":38800,"station_id":"ce4bgqh2rcd13ifvqc5g","pricing_plan_id":"cebpf4jnsgd1na2vs0mg"},{"bike_id":"4e98bc14-30bb-4b0d-977c-6476716423cb","system_id":"levelo_inurba_marseille","lat":43.31164,"lon":5.38704,"is_reserved":false,"is_disabled":false,"rental_uris":{"android":"levelo://app?vid=4e98bc14-30bb-4b0d-977c-6476716423cb","ios":"levelo://app?vid=4e98bc14-30bb-4b0d-977c-6476716423cb"},"vehicle_type_id":"4","last_reported":1736953751,"current_range_meters":38400,"station_id":"ce4bgv12rcd13ifvqcp0","pricing_plan_id":"cebpf4jnsgd1na2vs0mg"},{"bike_id":"c8e997c0-8580-4d0f-8d9f-0766596381e1","system_id":"levelo_inurba_marseille","lat":43.33918,"lon":5.37562,"is_reserved":false,"is_disabled":true,"rental_uris":{"android":"levelo://app?vid=c8e997c0-8580-4d0f-8d9f-0766596381e1","ios":"levelo://app?vid=c8e997c0-8580-4d0f-8d9f-0766596381e1"},"vehicle_type_id":"4","last_reported":1736953751,"current_range_meters":0,"station_id":"","pricing_plan_id":"cebpf4jnsgd1na2vs0mg"},{"bike_id":"a2736fdb-68f0-46c0-bca0-3d525209c8d7","system_id":"levelo_inurba_marseille","lat":43.2893,"lon":5.36639,"is_reserved":false,"is_disabled":true,"rental_uris":{"android":"levelo://app?vid=a2736fdb-68f0-46c0-bca0-3d525209c8d7","ios":"levelo://app?vid=a2736fdb-68f0-46c0-bca0-3d525209c8d7"},"vehicle_type_id":"4","last_reported":1736953751,"current_range_meters":3200,"station_id":"ce4bhap2rcd13ifvqek0","pricing_plan_id":"cebpf4jnsgd1na2vs0mg"},{"bike_id":"c0921cf0-5ed1-4075-b525-0763614a3f04","system_id":"levelo_inurba_marseille","lat":43.320571,"lon":5.415417,"is_reserved":false,"is_disabled":false,"rental_uris":{"android":"levelo://app?vid=c0921cf0-5ed1-4075-b525-0763614a3f04","ios":"levelo://app?vid=c0921cf0-5ed1-4075-b525-0763614a3f04"},"vehicle_type_id":"4","last_reported":1736953751,"current_range_meters":36400,"station_id":"ce4bhq92rcd13ifvqhkg","pricing_plan_id":"cebpf4jnsgd1na2vs0mg"},{"bike_id":"7a01fbe9-064e-4bb0-9200-81a1eeced978","system_id":"levelo_inurba_marseille","lat":43.24181,"lon":5.36406,"is_reserved":false,"is_disabled":false,"rental_uris":{"android":"levelo://app?vid=7a01fbe9-064e-4bb0-9200-81a1eeced978","ios":"levelo://app?vid=7a01fbe9-064e-4bb0-9200-81a1eeced978"},"vehicle_type_id":"4","last_reported":1736953751,"current_range_meters":13600,"station_id":"cpo36qri1sfpv3e86is0","pricing_plan_id":"cebpf4jnsgd1na2vs0mg"},{"bike_id":"49805654-6cba-42a1-8c74-d39a8e7f4097","system_id":"levelo_inurba_marseille","lat":43.29786,"lon":5.39337,"is_reserved":false,"is_disabled":false,"rental_uris":{"android":"levelo://app?vid=49805654-6cba-42a1-8c74-d39a8e7f4097","ios":"levelo://app?vid=49805654-6cba-42a1-8c74-d39a8e7f4097"},"vehicle_type_id":"4","last_reported":1736953751,"current_range_meters":26000,"station_id":"chh1huq6cuj3fo74tm60","pricing_plan_id":"cebpf4jnsgd1na2vs0mg"},{"bike_id":"26ca76cb-7a8f-4906-b19f-c07db412d48c","system_id":"levelo_inurba_marseille","lat":43.29878,"lon":5.39729,"is_reserved":false,"is_disabled":false,"rental_uris":{"android":"levelo://app?vid=26ca76cb-7a8f-4906-b19f-c07db412d48c","ios":"levelo://app?vid=26ca76cb-7a8f-4906-b19f-c07db412d48c"},"vehicle_type_id":"4","last_reported":1736953751,"current_range_meters":18000,"station_id":"ce4bh0h2rcd13ifvqd50","pricing_plan_id":"cebpf4jnsgd1na2vs0mg"},{"bike_id":"7b693463-6b82-4e9a-aa2d-726f031e21f9","system_id":"levelo_inurba_marseille","lat":43.30804,"lon":5.4351,"is_reserved":false,"is_disabled":false,"rental_uris":{"android":"levelo://app?vid=7b693463-6b82-4e9a-aa2d-726f031e21f9","ios":"levelo://app?vid=7b693463-6b82-4e9a-aa2d-726f031e21f9"},"vehicle_type_id":"4","last_reported":1736953751,"current_range_meters":32400,"station_id":"ce4bhph2rcd13ifvqheg","pricing_plan_id":"cebpf4jnsgd1na2vs0mg"},{"bike_id":"ee28e867-21e8-4831-b259-c94c83f948c2","system_id":"levelo_inurba_marseille","lat":43.29593,"lon":5.36749,"is_reserved":false,"is_disabled":false,"rental_uris":{"android":"levelo://app?vid=ee28e867-21e8-4831-b259-c94c83f948c2","ios":"levelo://app?vid=ee28e867-21e8-4831-b259-c94c83f948c2"},"vehicle_type_id":"4","last_reported":1736953751,"current_range_meters":30800,"station_id":"ce4bgph2rcd13ifvqc2g","pricing_plan_id":"cebpf4jnsgd1na2vs0mg"},{"bike_id":"e81ef256-d7a3-4c28-9bcc-58b1fdfe2d9d","system_id":"levelo_inurba_marseille","lat":43.25098,"lon":5.4033,"is_reserved":false,"is_disabled":false,"rental_uris":{"android":"levelo://app?vid=e81ef256-d7a3-4c28-9bcc-58b1fdfe2d9d","ios":"levelo://app?vid=e81ef256-d7a3-4c28-9bcc-58b1fdfe2d9d"},"vehicle_type_id":"4","last_reported":1736953751,"current_range_meters":38000,"station_id":"ce4bhlh2rcd13ifvqgig","pricing_plan_id":"cebpf4jnsgd1na2vs0mg"},{"bike_id":"db27b2af-171c-4aa7-b50e-e2ab13f4af0b","system_id":"levelo_inurba_marseille","lat":43.3054,"lon":5.3653,"is_reserved":false,"is_disabled":false,"rental_uris":{"android":"levelo://app?vid=db27b2af-171c-4aa7-b50e-e2ab13f4af0b","ios":"levelo://app?vid=db27b2af-171c-4aa7-b50e-e2ab13f4af0b"},"vehicle_type_id":"4","last_reported":1736953751,"current_range_meters":11200,"station_id":"ce4bgs12rcd13ifvqcag","pricing_plan_id":"cebpf4jnsgd1na2vs0mg"},{"bike_id":"8c1211a8-861b-4785-8d7c-1e9bc91241f4","system_id":"levelo_inurba_marseille","lat":43.29589,"lon":5.37505,"is_reserved":false,"is_disabled":false,"rental_uris":{"android":"levelo://app?vid=8c1211a8-861b-4785-8d7c-1e9bc91241f4","ios":"levelo://app?vid=8c1211a8-861b-4785-8d7c-1e9bc91241f4"},"vehicle_type_id":"4","last_reported":1736953751,"current_range_meters":28000,"station_id":"ce4bgh92rcd13ifvqb50","pricing_plan_id":"cebpf4jnsgd1na2vs0mg"},{"bike_id":"3b0df8f4-c955-4df9-b9e1-023598765e48","system_id":"levelo_inurba_marseille","lat":43.29712,"lon":5.36618,"is_reserved":false,"is_disabled":false,"rental_uris":{"android":"levelo://app?vid=3b0df8f4-c955-4df9-b9e1-023598765e48","ios":"levelo://app?vid=3b0df8f4-c955-4df9-b9e1-023598765e48"},"vehicle_type_id":"4","last_reported":1736953751,"current_range_meters":28400,"station_id":"ce4bgn12rcd13ifvqbt0","pricing_plan_id":"cebpf4jnsgd1na2vs0mg"},{"bike_id":"4cd29692-9aea-4560-8529-44b6bd5b3c30","system_id":"levelo_inurba_marseille","lat":43.23066,"lon":5.35493,"is_reserved":false,"is_disabled":false,"rental_uris":{"android":"levelo://app?vid=4cd29692-9aea-4560-8529-44b6bd5b3c30","ios":"levelo://app?vid=4cd29692-9aea-4560-8529-44b6bd5b3c30"},"vehicle_type_id":"4","last_reported":1736953751,"current_range_meters":12400,"station_id":"cpo3342slgdg3j2ifvpg","pricing_plan_id":"cebpf4jnsgd1na2vs0mg"},{"bike_id":"f8800adc-29e9-47fc-86f1-25a46dbbb4db","system_id":"levelo_inurba_marseille","lat":43.30533,"lon":5.36543,"is_reserved":false,"is_disabled":false,"rental_uris":{"android":"levelo://app?vid=f8800adc-29e9-47fc-86f1-25a46dbbb4db","ios":"levelo://app?vid=f8800adc-29e9-47fc-86f1-25a46dbbb4db"},"vehicle_type_id":"4","last_reported":1736953751,"current_range_meters":10800,"station_id":"ce4bgs12rcd13ifvqcag","pricing_plan_id":"cebpf4jnsgd1na2vs0mg"},{"bike_id":"b04bca53-7737-4ef3-b26d-f6b2d60c721f","system_id":"levelo_inurba_marseille","lat":43.31481,"lon":5.37296,"is_reserved":false,"is_disabled":false,"rental_uris":{"android":"levelo://app?vid=b04bca53-7737-4ef3-b26d-f6b2d60c721f","ios":"levelo://app?vid=b04bca53-7737-4ef3-b26d-f6b2d60c721f"},"vehicle_type_id":"4","last_reported":1736953751,"current_range_meters":27600,"station_id":"ce4bgt12rcd13ifvqcd0","pricing_plan_id":"cebpf4jnsgd1na2vs0mg"},{"bike_id":"fea1b24d-bbfb-474a-b028-8645483cd7e6","system_id":"levelo_inurba_marseille","lat":43.27314,"lon":5.42346,"is_reserved":false,"is_disabled":false,"rental_uris":{"android":"levelo://app?vid=fea1b24d-bbfb-474a-b028-8645483cd7e6","ios":"levelo://app?vid=fea1b24d-bbfb-474a-b028-8645483cd7e6"},"vehicle_type_id":"4","last_reported":1736953751,"current_range_meters":37600,"station_id":"","pricing_plan_id":"cebpf4jnsgd1na2vs0mg"},{"bike_id":"f6a9ee07-670e-4ce0-b17d-89f72f1464bd","system_id":"levelo_inurba_marseille","lat":43.24179,"lon":5.39726,"is_reserved":false,"is_disabled":false,"rental_uris":{"android":"levelo://app?vid=f6a9ee07-670e-4ce0-b17d-89f72f1464bd","ios":"levelo://app?vid=f6a9ee07-670e-4ce0-b17d-89f72f1464bd"},"vehicle_type_id":"4","last_reported":1736953751,"current_range_meters":36800,"station_id":"ce4bhn12rcd13ifvqgpg","pricing_plan_id":"cebpf4jnsgd1na2vs0mg"},{"bike_id":"eb3cfde7-0e19-4fe4-812f-cd9fb9af6e0c","system_id":"levelo_inurba_marseille","lat":43.27994,"lon":5.41665,"is_reserved":false,"is_disabled":false,"rental_uris":{"android":"levelo://app?vid=eb3cfde7-0e19-4fe4-812f-cd9fb9af6e0c","ios":"levelo://app?vid=eb3cfde7-0e19-4fe4-812f-cd9fb9af6e0c"},"vehicle_type_id":"4","last_reported":1736953751,"current_range_meters":39200,"station_id":"ce4bho12rcd13ifvqh1g","pricing_plan_id":"cebpf4jnsgd1na2vs0mg"},{"bike_id":"55077a3d-ab60-42c3-b097-5558157a8b75","system_id":"levelo_inurba_marseille","lat":43.26577,"lon":5.39003,"is_reserved":false,"is_disabled":false,"rental_uris":{"android":"levelo://app?vid=55077a3d-ab60-42c3-b097-5558157a8b75","ios":"levelo://app?vid=55077a3d-ab60-42c3-b097-5558157a8b75"},"vehicle_type_id":"4","last_reported":1736953751,"current_range_meters":30800,"station_id":"ce4bhe12rcd13ifvqf30","pricing_plan_id":"cebpf4jnsgd1na2vs0mg"},{"bike_id":"0de1c0c3-224c-470c-9c40-92abbb1e542e","system_id":"levelo_inurba_marseille","lat":43.2745,"lon":5.39394,"is_reserved":false,"is_disabled":true,"rental_uris":{"android":"levelo://app?vid=0de1c0c3-224c-470c-9c40-92abbb1e542e","ios":"levelo://app?vid=0de1c0c3-224c-470c-9c40-92abbb1e542e"},"vehicle_type_id":"4","last_reported":1736953751,"current_range_meters":28000,"station_id":"ce4bhdp2rcd13ifvqf20","pricing_plan_id":"cebpf4jnsgd1na2vs0mg"},{"bike_id":"73f1c851-1049-430e-8368-87296464dcce","system_id":"levelo_inurba_marseille","lat":43.324718,"lon":5.365821,"is_reserved":false,"is_disabled":false,"rental_uris":{"android":"levelo://app?vid=73f1c851-1049-430e-8368-87296464dcce","ios":"levelo://app?vid=73f1c851-1049-430e-8368-87296464dcce"},"vehicle_type_id":"4","last_reported":1736953751,"current_range_meters":32800,"station_id":"ce4bhs12rcd13ifvqhvg","pricing_plan_id":"cebpf4jnsgd1na2vs0mg"},{"bike_id":"c056450f-8550-4ac8-ba65-6c2e707fee50","system_id":"levelo_inurba_marseille","lat":43.26503,"lon":5.39548,"is_reserved":false,"is_disabled":false,"rental_uris":{"android":"levelo://app?vid=c056450f-8550-4ac8-ba65-6c2e707fee50","ios":"levelo://app?vid=c056450f-8550-4ac8-ba65-6c2e707fee50"},"vehicle_type_id":"4","last_reported":1736953751,"current_range_meters":35200,"station_id":"ce4bhi12rcd13ifvqfq0","pricing_plan_id":"cebpf4jnsgd1na2vs0mg"},{"bike_id":"1f149e26-9d4e-4970-96ec-1b76430b914b","system_id":"levelo_inurba_marseille","lat":43.24386,"lon":5.370575,"is_reserved":false,"is_disabled":false,"rental_uris":{"android":"levelo://app?vid=1f149e26-9d4e-4970-96ec-1b76430b914b","ios":"levelo://app?vid=1f149e26-9d4e-4970-96ec-1b76430b914b"},"vehicle_type_id":"4","last_reported":1736953751,"current_range_meters":38000,"station_id":"ce4bhhh2rcd13ifvqfk0","pricing_plan_id":"cebpf4jnsgd1na2vs0mg"},{"bike_id":"da3afe3c-5cdd-453f-9551-77e8476e7381","system_id":"levelo_inurba_marseille","lat":43.29536,"lon":5.38529,"is_reserved":false,"is_disabled":true,"rental_uris":{"android":"levelo://app?vid=da3afe3c-5cdd-453f-9551-77e8476e7381","ios":"levelo://app?vid=da3afe3c-5cdd-453f-9551-77e8476e7381"},"vehicle_type_id":"4","last_reported":1736953751,"current_range_meters":38800,"station_id":"ce4bgih2rcd13ifvqba0","pricing_plan_id":"cebpf4jnsgd1na2vs0mg"},{"bike_id":"006cbbed-a8c4-4caa-84c8-9b87817f75fc","system_id":"levelo_inurba_marseille","lat":43.28981,"lon":5.37824,"is_reserved":false,"is_disabled":false,"rental_uris":{"android":"levelo://app?vid=006cbbed-a8c4-4caa-84c8-9b87817f75fc","ios":"levelo://app?vid=006cbbed-a8c4-4caa-84c8-9b87817f75fc"},"vehicle_type_id":"4","last_reported":1736953751,"current_range_meters":39200,"station_id":"ce4bh9p2rcd13ifvqed0","pricing_plan_id":"cebpf4jnsgd1na2vs0mg"},{"bike_id":"28402812-2437-4cb5-805b-4b740e765b45","system_id":"levelo_inurba_marseille","lat":43.30545,"lon":5.36533,"is_reserved":false,"is_disabled":false,"rental_uris":{"android":"levelo://app?vid=28402812-2437-4cb5-805b-4b740e765b45","ios":"levelo://app?vid=28402812-2437-4cb5-805b-4b740e765b45"},"vehicle_type_id":"4","last_reported":1736953751,"current_range_meters":30400,"station_id":"ce4bgs12rcd13ifvqcag","pricing_plan_id":"cebpf4jnsgd1na2vs0mg"},{"bike_id":"e736e9ea-e6ad-4804-90e7-02f127187af8","system_id":"levelo_inurba_marseille","lat":43.28998,"lon":5.3784,"is_reserved":false,"is_disabled":false,"rental_uris":{"android":"levelo://app?vid=e736e9ea-e6ad-4804-90e7-02f127187af8","ios":"levelo://app?vid=e736e9ea-e6ad-4804-90e7-02f127187af8"},"vehicle_type_id":"4","last_reported":1736953751,"current_range_meters":31200,"station_id":"ce4bh9p2rcd13ifvqed0","pricing_plan_id":"cebpf4jnsgd1na2vs0mg"},{"bike_id":"2f7f8f97-233b-49c1-a73b-02bd22f3a824","system_id":"levelo_inurba_marseille","lat":43.26671,"lon":5.38254,"is_reserved":false,"is_disabled":false,"rental_uris":{"android":"levelo://app?vid=2f7f8f97-233b-49c1-a73b-02bd22f3a824","ios":"levelo://app?vid=2f7f8f97-233b-49c1-a73b-02bd22f3a824"},"vehicle_type_id":"4","last_reported":1736953751,"current_range_meters":38800,"station_id":"ce4bhg92rcd13ifvqf90","pricing_plan_id":"cebpf4jnsgd1na2vs0mg"},{"bike_id":"71aa23b2-0c9b-4807-95fa-c66bd4c54d0d","system_id":"levelo_inurba_marseille","lat":43.3189,"lon":5.4073,"is_reserved":false,"is_disabled":false,"rental_uris":{"android":"levelo://app?vid=71aa23b2-0c9b-4807-95fa-c66bd4c54d0d","ios":"levelo://app?vid=71aa23b2-0c9b-4807-95fa-c66bd4c54d0d"},"vehicle_type_id":"4","last_reported":1736953751,"current_range_meters":36000,"station_id":"ce4bhq12rcd13ifvqhig","pricing_plan_id":"cebpf4jnsgd1na2vs0mg"},{"bike_id":"18e5d3ba-182e-4214-ae6e-70deec2ba806","system_id":"levelo_inurba_marseille","lat":43.30426,"lon":5.3976,"is_reserved":false,"is_disabled":false,"rental_uris":{"android":"levelo://app?vid=18e5d3ba-182e-4214-ae6e-70deec2ba806","ios":"levelo://app?vid=18e5d3ba-182e-4214-ae6e-70deec2ba806"},"vehicle_type_id":"4","last_reported":1736953751,"current_range_meters":39200,"station_id":"ce4bh092rcd13ifvqd20","pricing_plan_id":"cebpf4jnsgd1na2vs0mg"},{"bike_id":"2c839bfc-228b-4afd-9c45-0e54b8f36672","system_id":"levelo_inurba_marseille","lat":43.24659,"lon":5.38893,"is_reserved":false,"is_disabled":false,"rental_uris":{"android":"levelo://app?vid=2c839bfc-228b-4afd-9c45-0e54b8f36672","ios":"levelo://app?vid=2c839bfc-228b-4afd-9c45-0e54b8f36672"},"vehicle_type_id":"4","last_reported":1736953751,"current_range_meters":38800,"station_id":"ce4bhg12rcd13ifvqf60","pricing_plan_id":"cebpf4jnsgd1na2vs0mg"},{"bike_id":"60811c8f-56f4-4449-b6ae-99b7c9b711dc","system_id":"levelo_inurba_marseille","lat":43.27815,"lon":5.40705,"is_reserved":false,"is_disabled":false,"rental_uris":{"android":"levelo://app?vid=60811c8f-56f4-4449-b6ae-99b7c9b711dc","ios":"levelo://app?vid=60811c8f-56f4-4449-b6ae-99b7c9b711dc"},"vehicle_type_id":"4","last_reported":1736953751,"current_range_meters":36400,"station_id":"ce4bhnh2rcd13ifvqgtg","pricing_plan_id":"cebpf4jnsgd1na2vs0mg"},{"bike_id":"4fe12716-4dbd-46cf-bff6-0efd463fd19c","system_id":"levelo_inurba_marseille","lat":43.264629,"lon":5.373444,"is_reserved":false,"is_disabled":false,"rental_uris":{"android":"levelo://app?vid=4fe12716-4dbd-46cf-bff6-0efd463fd19c","ios":"levelo://app?vid=4fe12716-4dbd-46cf-bff6-0efd463fd19c"},"vehicle_type_id":"4","last_reported":1736953751,"current_range_meters":36000,"station_id":"ce4bhg12rcd13ifvqf70","pricing_plan_id":"cebpf4jnsgd1na2vs0mg"},{"bike_id":"663d7f2c-2062-4d24-ae4c-cbceda4e4161","system_id":"levelo_inurba_marseille","lat":43.27189,"lon":5.40989,"is_reserved":false,"is_disabled":false,"rental_uris":{"android":"levelo://app?vid=663d7f2c-2062-4d24-ae4c-cbceda4e4161","ios":"levelo://app?vid=663d7f2c-2062-4d24-ae4c-cbceda4e4161"},"vehicle_type_id":"4","last_reported":1736953751,"current_range_meters":32400,"station_id":"ce4bhl12rcd13ifvqgf0","pricing_plan_id":"cebpf4jnsgd1na2vs0mg"},{"bike_id":"501a3598-7a32-4c77-bb25-544b83aa1c6c","system_id":"levelo_inurba_marseille","lat":43.32497,"lon":5.36558,"is_reserved":false,"is_disabled":false,"rental_uris":{"android":"levelo://app?vid=501a3598-7a32-4c77-bb25-544b83aa1c6c","ios":"levelo://app?vid=501a3598-7a32-4c77-bb25-544b83aa1c6c"},"vehicle_type_id":"4","last_reported":1736953751,"current_range_meters":16000,"station_id":"ce4bhs12rcd13ifvqhvg","pricing_plan_id":"cebpf4jnsgd1na2vs0mg"},{"bike_id":"1e532559-6003-4319-9021-c663930106a4","system_id":"levelo_inurba_marseille","lat":43.32346,"lon":5.40612,"is_reserved":false,"is_disabled":false,"rental_uris":{"android":"levelo://app?vid=1e532559-6003-4319-9021-c663930106a4","ios":"levelo://app?vid=1e532559-6003-4319-9021-c663930106a4"},"vehicle_type_id":"4","last_reported":1736953751,"current_range_meters":18800,"station_id":"ce4bhq92rcd13ifvqhjg","pricing_plan_id":"cebpf4jnsgd1na2vs0mg"},{"bike_id":"36f88621-bbfd-41a7-b1c5-65b5058829a7","system_id":"levelo_inurba_marseille","lat":43.31104,"lon":5.37769,"is_reserved":false,"is_disabled":false,"rental_uris":{"android":"levelo://app?vid=36f88621-bbfd-41a7-b1c5-65b5058829a7","ios":"levelo://app?vid=36f88621-bbfd-41a7-b1c5-65b5058829a7"},"vehicle_type_id":"4","last_reported":1736953751,"current_range_meters":36800,"station_id":"ce4bgt92rcd13ifvqcg0","pricing_plan_id":"cebpf4jnsgd1na2vs0mg"},{"bike_id":"a15980ac-c225-4e68-8982-6cc8c4cbfd79","system_id":"levelo_inurba_marseille","lat":43.231965,"lon":5.355565,"is_reserved":false,"is_disabled":false,"rental_uris":{"android":"levelo://app?vid=a15980ac-c225-4e68-8982-6cc8c4cbfd79","ios":"levelo://app?vid=a15980ac-c225-4e68-8982-6cc8c4cbfd79"},"vehicle_type_id":"4","last_reported":1736953751,"current_range_meters":39200,"station_id":"ce4bhu92rcd13ifvqi70","pricing_plan_id":"cebpf4jnsgd1na2vs0mg"},{"bike_id":"c1e4c3f1-3e89-4762-b660-b562a1538ef0","system_id":"levelo_inurba_marseille","lat":43.25119,"lon":5.40315,"is_reserved":false,"is_disabled":false,"rental_uris":{"android":"levelo://app?vid=c1e4c3f1-3e89-4762-b660-b562a1538ef0","ios":"levelo://app?vid=c1e4c3f1-3e89-4762-b660-b562a1538ef0"},"vehicle_type_id":"4","last_reported":1736953751,"current_range_meters":38800,"station_id":"ce4bhlh2rcd13ifvqgig","pricing_plan_id":"cebpf4jnsgd1na2vs0mg"},{"bike_id":"98da722a-92ae-4d34-822e-4ec4de5ea2ab","system_id":"levelo_inurba_marseille","lat":43.26213,"lon":5.37442,"is_reserved":false,"is_disabled":false,"rental_uris":{"android":"levelo://app?vid=98da722a-92ae-4d34-822e-4ec4de5ea2ab","ios":"levelo://app?vid=98da722a-92ae-4d34-822e-4ec4de5ea2ab"},"vehicle_type_id":"4","last_reported":1736953751,"current_range_meters":3600,"station_id":"ce4bhgp2rcd13ifvqfc0","pricing_plan_id":"cebpf4jnsgd1na2vs0mg"},{"bike_id":"e1de33b0-3836-4f1b-a0f6-b4e50d255ecf","system_id":"levelo_inurba_marseille","lat":43.294752,"lon":5.376952,"is_reserved":false,"is_disabled":false,"rental_uris":{"android":"levelo://app?vid=e1de33b0-3836-4f1b-a0f6-b4e50d255ecf","ios":"levelo://app?vid=e1de33b0-3836-4f1b-a0f6-b4e50d255ecf"},"vehicle_type_id":"4","last_reported":1736953751,"current_range_meters":33200,"station_id":"ce4bgjh2rcd13ifvqbf0","pricing_plan_id":"cebpf4jnsgd1na2vs0mg"},{"bike_id":"16bc98a2-4150-4e20-ab26-c02226861840","system_id":"levelo_inurba_marseille","lat":43.29274,"lon":5.36845,"is_reserved":false,"is_disabled":false,"rental_uris":{"android":"levelo://app?vid=16bc98a2-4150-4e20-ab26-c02226861840","ios":"levelo://app?vid=16bc98a2-4150-4e20-ab26-c02226861840"},"vehicle_type_id":"4","last_reported":1736953751,"current_range_meters":12400,"station_id":"ce4bhbp2rcd13ifvqesg","pricing_plan_id":"cebpf4jnsgd1na2vs0mg"},{"bike_id":"5e4e4f4c-73fe-49c3-b2c1-6288532fac88","system_id":"levelo_inurba_marseille","lat":43.29738,"lon":5.37694,"is_reserved":false,"is_disabled":false,"rental_uris":{"android":"levelo://app?vid=5e4e4f4c-73fe-49c3-b2c1-6288532fac88","ios":"levelo://app?vid=5e4e4f4c-73fe-49c3-b2c1-6288532fac88"},"vehicle_type_id":"4","last_reported":1736953751,"current_range_meters":20000,"station_id":"ce4bgkh2rcd13ifvqbl0","pricing_plan_id":"cebpf4jnsgd1na2vs0mg"},{"bike_id":"d7ba0e14-4cde-4fb3-9b34-12776f6cec7d","system_id":"levelo_inurba_marseille","lat":43.30189,"lon":5.36605,"is_reserved":false,"is_disabled":false,"rental_uris":{"android":"levelo://app?vid=d7ba0e14-4cde-4fb3-9b34-12776f6cec7d","ios":"levelo://app?vid=d7ba0e14-4cde-4fb3-9b34-12776f6cec7d"},"vehicle_type_id":"4","last_reported":1736953751,"current_range_meters":38800,"station_id":"ce4bgrh2rcd13ifvqc8g","pricing_plan_id":"cebpf4jnsgd1na2vs0mg"},{"bike_id":"51bb6953-dea8-4e82-96bf-52696267905f","system_id":"levelo_inurba_marseille","lat":43.23061,"lon":5.35509,"is_reserved":false,"is_disabled":false,"rental_uris":{"android":"levelo://app?vid=51bb6953-dea8-4e82-96bf-52696267905f","ios":"levelo://app?vid=51bb6953-dea8-4e82-96bf-52696267905f"},"vehicle_type_id":"4","last_reported":1736953751,"current_range_meters":38800,"station_id":"cpo3342slgdg3j2ifvpg","pricing_plan_id":"cebpf4jnsgd1na2vs0mg"},{"bike_id":"8c6739ac-fc4b-4446-93e5-573627213987","system_id":"levelo_inurba_marseille","lat":43.27941,"lon":5.41033,"is_reserved":false,"is_disabled":false,"rental_uris":{"android":"levelo://app?vid=8c6739ac-fc4b-4446-93e5-573627213987","ios":"levelo://app?vid=8c6739ac-fc4b-4446-93e5-573627213987"},"vehicle_type_id":"4","last_reported":1736953751,"current_range_meters":16400,"station_id":"ce4bhnp2rcd13ifvqh0g","pricing_plan_id":"cebpf4jnsgd1na2vs0mg"},{"bike_id":"c3fd4a15-54c7-4bf7-8e92-aec52d2a8162","system_id":"levelo_inurba_marseille","lat":43.26714,"lon":5.38321,"is_reserved":false,"is_disabled":false,"rental_uris":{"android":"levelo://app?vid=c3fd4a15-54c7-4bf7-8e92-aec52d2a8162","ios":"levelo://app?vid=c3fd4a15-54c7-4bf7-8e92-aec52d2a8162"},"vehicle_type_id":"4","last_reported":1736953751,"current_range_meters":32400,"station_id":"ce4bhg92rcd13ifvqf90","pricing_plan_id":"cebpf4jnsgd1na2vs0mg"},{"bike_id":"8f689d93-96c4-4ef6-b8c3-1e05071b86b0","system_id":"levelo_inurba_marseille","lat":43.28933,"lon":5.36633,"is_reserved":false,"is_disabled":false,"rental_uris":{"android":"levelo://app?vid=8f689d93-96c4-4ef6-b8c3-1e05071b86b0","ios":"levelo://app?vid=8f689d93-96c4-4ef6-b8c3-1e05071b86b0"},"vehicle_type_id":"4","last_reported":1736953751,"current_range_meters":39200,"station_id":"ce4bhap2rcd13ifvqek0","pricing_plan_id":"cebpf4jnsgd1na2vs0mg"},{"bike_id":"2844ea74-3d47-4632-961c-c96ebdb1994a","system_id":"levelo_inurba_marseille","lat":43.24059,"lon":5.3772,"is_reserved":false,"is_disabled":false,"rental_uris":{"android":"levelo://app?vid=2844ea74-3d47-4632-961c-c96ebdb1994a","ios":"levelo://app?vid=2844ea74-3d47-4632-961c-c96ebdb1994a"},"vehicle_type_id":"4","last_reported":1736953751,"current_range_meters":38400,"station_id":"ce4bhnp2rcd13ifvqgvg","pricing_plan_id":"cebpf4jnsgd1na2vs0mg"},{"bike_id":"ca98b027-a6b1-4ad4-9122-1548fee4bbda","system_id":"levelo_inurba_marseille","lat":43.255,"lon":5.37653,"is_reserved":false,"is_disabled":false,"rental_uris":{"android":"levelo://app?vid=ca98b027-a6b1-4ad4-9122-1548fee4bbda","ios":"levelo://app?vid=ca98b027-a6b1-4ad4-9122-1548fee4bbda"},"vehicle_type_id":"4","last_reported":1736953751,"current_range_meters":35200,"station_id":"ce4bhh12rcd13ifvqff0","pricing_plan_id":"cebpf4jnsgd1na2vs0mg"},{"bike_id":"1a88b36a-bdcc-4ab6-a257-59715f73d204","system_id":"levelo_inurba_marseille","lat":43.26685,"lon":5.38261,"is_reserved":false,"is_disabled":false,"rental_uris":{"android":"levelo://app?vid=1a88b36a-bdcc-4ab6-a257-59715f73d204","ios":"levelo://app?vid=1a88b36a-bdcc-4ab6-a257-59715f73d204"},"vehicle_type_id":"4","last_reported":1736953751,"current_range_meters":25200,"station_id":"ce4bhg92rcd13ifvqf90","pricing_plan_id":"cebpf4jnsgd1na2vs0mg"},{"bike_id":"f6b5a21b-caca-4bab-9767-62a516c88435","system_id":"levelo_inurba_marseille","lat":43.2464,"lon":5.38878,"is_reserved":false,"is_disabled":false,"rental_uris":{"android":"levelo://app?vid=f6b5a21b-caca-4bab-9767-62a516c88435","ios":"levelo://app?vid=f6b5a21b-caca-4bab-9767-62a516c88435"},"vehicle_type_id":"4","last_reported":1736953751,"current_range_meters":38800,"station_id":"ce4bhg12rcd13ifvqf60","pricing_plan_id":"cebpf4jnsgd1na2vs0mg"},{"bike_id":"1ab3f322-8e8f-40bf-b46a-ad736fdeffee","system_id":"levelo_inurba_marseille","lat":43.2315,"lon":5.43718,"is_reserved":false,"is_disabled":false,"rental_uris":{"android":"levelo://app?vid=1ab3f322-8e8f-40bf-b46a-ad736fdeffee","ios":"levelo://app?vid=1ab3f322-8e8f-40bf-b46a-ad736fdeffee"},"vehicle_type_id":"4","last_reported":1736953751,"current_range_meters":38000,"station_id":"ce4bhmp2rcd13ifvqgog","pricing_plan_id":"cebpf4jnsgd1na2vs0mg"},{"bike_id":"4a8c20d9-670a-4029-9219-52996fd0718d","system_id":"levelo_inurba_marseille","lat":43.2807,"lon":5.39631,"is_reserved":false,"is_disabled":true,"rental_uris":{"android":"levelo://app?vid=4a8c20d9-670a-4029-9219-52996fd0718d","ios":"levelo://app?vid=4a8c20d9-670a-4029-9219-52996fd0718d"},"vehicle_type_id":"4","last_reported":1736953751,"current_range_meters":800,"station_id":"ce4bho12rcd13ifvqh2g","pricing_plan_id":"cebpf4jnsgd1na2vs0mg"},{"bike_id":"2b1918a3-9e40-4b4a-aa0a-334c712fe7a7","system_id":"levelo_inurba_marseille","lat":43.26803,"lon":5.40274,"is_reserved":false,"is_disabled":false,"rental_uris":{"android":"levelo://app?vid=2b1918a3-9e40-4b4a-aa0a-334c712fe7a7","ios":"levelo://app?vid=2b1918a3-9e40-4b4a-aa0a-334c712fe7a7"},"vehicle_type_id":"4","last_reported":1736953751,"current_range_meters":27200,"station_id":"ce501612rcd8frsf0b60","pricing_plan_id":"cebpf4jnsgd1na2vs0mg"},{"bike_id":"cb57f13e-0f96-498a-b9ca-57c0b42e7a64","system_id":"levelo_inurba_marseille","lat":43.23962,"lon":5.36631,"is_reserved":false,"is_disabled":false,"rental_uris":{"android":"levelo://app?vid=cb57f13e-0f96-498a-b9ca-57c0b42e7a64","ios":"levelo://app?vid=cb57f13e-0f96-498a-b9ca-57c0b42e7a64"},"vehicle_type_id":"4","last_reported":1736953751,"current_range_meters":24000,"station_id":"ce4bhi12rcd13ifvqfp0","pricing_plan_id":"cebpf4jnsgd1na2vs0mg"},{"bike_id":"a56bdef2-14b8-4e02-b3bc-538917283971","system_id":"levelo_inurba_marseille","lat":43.251,"lon":5.39517,"is_reserved":false,"is_disabled":false,"rental_uris":{"android":"levelo://app?vid=a56bdef2-14b8-4e02-b3bc-538917283971","ios":"levelo://app?vid=a56bdef2-14b8-4e02-b3bc-538917283971"},"vehicle_type_id":"4","last_reported":1736953751,"current_range_meters":27600,"station_id":"ce4bhm12rcd13ifvqgkg","pricing_plan_id":"cebpf4jnsgd1na2vs0mg"},{"bike_id":"2b75d51d-2688-4919-ac8b-574def0d5a27","system_id":"levelo_inurba_marseille","lat":43.3065,"lon":5.401,"is_reserved":false,"is_disabled":false,"rental_uris":{"android":"levelo://app?vid=2b75d51d-2688-4919-ac8b-574def0d5a27","ios":"levelo://app?vid=2b75d51d-2688-4919-ac8b-574def0d5a27"},"vehicle_type_id":"4","last_reported":1736953751,"current_range_meters":28400,"station_id":"ce4bh112rcd13ifvqda0","pricing_plan_id":"cebpf4jnsgd1na2vs0mg"},{"bike_id":"da2b8bfa-ca25-438c-8821-598b2c7e52f1","system_id":"levelo_inurba_marseille","lat":43.29898,"lon":5.43661,"is_reserved":false,"is_disabled":true,"rental_uris":{"android":"levelo://app?vid=da2b8bfa-ca25-438c-8821-598b2c7e52f1","ios":"levelo://app?vid=da2b8bfa-ca25-438c-8821-598b2c7e52f1"},"vehicle_type_id":"4","last_reported":1736953751,"current_range_meters":0,"station_id":"ce4bhpp2rcd13ifvqhfg","pricing_plan_id":"cebpf4jnsgd1na2vs0mg"},{"bike_id":"2578cab6-a967-48c2-884c-de4de961fa05","system_id":"levelo_inurba_marseille","lat":43.2594,"lon":5.40898,"is_reserved":false,"is_disabled":false,"rental_uris":{"android":"levelo://app?vid=2578cab6-a967-48c2-884c-de4de961fa05","ios":"levelo://app?vid=2578cab6-a967-48c2-884c-de4de961fa05"},"vehicle_type_id":"4","last_reported":1736953751,"current_range_meters":8000,"station_id":"ce4bhm92rcd13ifvqglg","pricing_plan_id":"cebpf4jnsgd1na2vs0mg"},{"bike_id":"ab72bab7-dad1-439c-a66d-b4dd886f9569","system_id":"levelo_inurba_marseille","lat":43.313677,"lon":5.38483,"is_reserved":false,"is_disabled":false,"rental_uris":{"android":"levelo://app?vid=ab72bab7-dad1-439c-a66d-b4dd886f9569","ios":"levelo://app?vid=ab72bab7-dad1-439c-a66d-b4dd886f9569"},"vehicle_type_id":"4","last_reported":1736953751,"current_range_meters":38800,"station_id":"ce4bgt92rcd13ifvqcf0","pricing_plan_id":"cebpf4jnsgd1na2vs0mg"},{"bike_id":"36b9279c-a830-47ad-a411-ee77e1de6f7b","system_id":"levelo_inurba_marseille","lat":43.2904,"lon":5.4203,"is_reserved":false,"is_disabled":false,"rental_uris":{"android":"levelo://app?vid=36b9279c-a830-47ad-a411-ee77e1de6f7b","ios":"levelo://app?vid=36b9279c-a830-47ad-a411-ee77e1de6f7b"},"vehicle_type_id":"4","last_reported":1736953751,"current_range_meters":21600,"station_id":"ce4bhph2rcd13ifvqheg","pricing_plan_id":"cebpf4jnsgd1na2vs0mg"},{"bike_id":"e5b9252e-eebf-4c90-b028-b53cc4934330","system_id":"levelo_inurba_marseille","lat":43.3037,"lon":5.41894,"is_reserved":false,"is_disabled":true,"rental_uris":{"android":"levelo://app?vid=e5b9252e-eebf-4c90-b028-b53cc4934330","ios":"levelo://app?vid=e5b9252e-eebf-4c90-b028-b53cc4934330"},"vehicle_type_id":"4","last_reported":1736953751,"current_range_meters":16800,"station_id":"ce4bhop2rcd13ifvqh7g","pricing_plan_id":"cebpf4jnsgd1na2vs0mg"},{"bike_id":"c6f23a59-3554-42b4-82a4-19169d922143","system_id":"levelo_inurba_marseille","lat":43.2905,"lon":5.35968,"is_reserved":false,"is_disabled":false,"rental_uris":{"android":"levelo://app?vid=c6f23a59-3554-42b4-82a4-19169d922143","ios":"levelo://app?vid=c6f23a59-3554-42b4-82a4-19169d922143"},"vehicle_type_id":"4","last_reported":1736953751,"current_range_meters":38000,"station_id":"ce4bha92rcd13ifvqeg0","pricing_plan_id":"cebpf4jnsgd1na2vs0mg"},{"bike_id":"9043537c-f183-444e-8138-e271e9005747","system_id":"levelo_inurba_marseille","lat":43.26571,"lon":5.39,"is_reserved":false,"is_disabled":false,"rental_uris":{"android":"levelo://app?vid=9043537c-f183-444e-8138-e271e9005747","ios":"levelo://app?vid=9043537c-f183-444e-8138-e271e9005747"},"vehicle_type_id":"4","last_reported":1736953751,"current_range_meters":16000,"station_id":"ce4bhe12rcd13ifvqf30","pricing_plan_id":"cebpf4jnsgd1na2vs0mg"},{"bike_id":"93af35ad-738e-40e4-afcb-6d3589d7e732","system_id":"levelo_inurba_marseille","lat":43.23139,"lon":5.43688,"is_reserved":false,"is_disabled":false,"rental_uris":{"android":"levelo://app?vid=93af35ad-738e-40e4-afcb-6d3589d7e732","ios":"levelo://app?vid=93af35ad-738e-40e4-afcb-6d3589d7e732"},"vehicle_type_id":"4","last_reported":1736953751,"current_range_meters":26800,"station_id":"ce4bhmp2rcd13ifvqgog","pricing_plan_id":"cebpf4jnsgd1na2vs0mg"},{"bike_id":"653d7eb5-e932-4d0f-8eba-b2bccd81fbe5","system_id":"levelo_inurba_marseille","lat":43.31364,"lon":5.36713,"is_reserved":false,"is_disabled":true,"rental_uris":{"android":"levelo://app?vid=653d7eb5-e932-4d0f-8eba-b2bccd81fbe5","ios":"levelo://app?vid=653d7eb5-e932-4d0f-8eba-b2bccd81fbe5"},"vehicle_type_id":"4","last_reported":1736953751,"current_range_meters":0,"station_id":"ce4bgr92rcd13ifvqc6g","pricing_plan_id":"cebpf4jnsgd1na2vs0mg"},{"bike_id":"3b3ff05d-cedd-4f1f-96d1-3afd86d2639b","system_id":"levelo_inurba_marseille","lat":43.24103,"lon":5.37776,"is_reserved":false,"is_disabled":false,"rental_uris":{"android":"levelo://app?vid=3b3ff05d-cedd-4f1f-96d1-3afd86d2639b","ios":"levelo://app?vid=3b3ff05d-cedd-4f1f-96d1-3afd86d2639b"},"vehicle_type_id":"4","last_reported":1736953751,"current_range_meters":38800,"station_id":"ce4bhnp2rcd13ifvqgvg","pricing_plan_id":"cebpf4jnsgd1na2vs0mg"},{"bike_id":"db11193f-e588-4a85-900e-70724fc8f9fe","system_id":"levelo_inurba_marseille","lat":43.2901,"lon":5.35606,"is_reserved":false,"is_disabled":false,"rental_uris":{"android":"levelo://app?vid=db11193f-e588-4a85-900e-70724fc8f9fe","ios":"levelo://app?vid=db11193f-e588-4a85-900e-70724fc8f9fe"},"vehicle_type_id":"4","last_reported":1736953751,"current_range_meters":38400,"station_id":"ce4bhb92rcd13ifvqen0","pricing_plan_id":"cebpf4jnsgd1na2vs0mg"},{"bike_id":"bf9fa473-406d-4cf1-9a0a-a19c23399b29","system_id":"levelo_inurba_marseille","lat":43.31335,"lon":5.39696,"is_reserved":false,"is_disabled":false,"rental_uris":{"android":"levelo://app?vid=bf9fa473-406d-4cf1-9a0a-a19c23399b29","ios":"levelo://app?vid=bf9fa473-406d-4cf1-9a0a-a19c23399b29"},"vehicle_type_id":"4","last_reported":1736953751,"current_range_meters":38800,"station_id":"ce4bgvp2rcd13ifvqcu0","pricing_plan_id":"cebpf4jnsgd1na2vs0mg"},{"bike_id":"0adbfa65-465c-487a-8c44-6247250163c9","system_id":"levelo_inurba_marseille","lat":43.312232,"lon":5.368524,"is_reserved":false,"is_disabled":true,"rental_uris":{"android":"levelo://app?vid=0adbfa65-465c-487a-8c44-6247250163c9","ios":"levelo://app?vid=0adbfa65-465c-487a-8c44-6247250163c9"},"vehicle_type_id":"4","last_reported":1736953751,"current_range_meters":5600,"station_id":"ce4bgl92rcd13ifvqbq0","pricing_plan_id":"cebpf4jnsgd1na2vs0mg"},{"bike_id":"c57f7411-350c-444f-bc55-fcab7a54283f","system_id":"levelo_inurba_marseille","lat":43.2796,"lon":5.41043,"is_reserved":false,"is_disabled":false,"rental_uris":{"android":"levelo://app?vid=c57f7411-350c-444f-bc55-fcab7a54283f","ios":"levelo://app?vid=c57f7411-350c-444f-bc55-fcab7a54283f"},"vehicle_type_id":"4","last_reported":1736953751,"current_range_meters":34000,"station_id":"ce4bhnp2rcd13ifvqh0g","pricing_plan_id":"cebpf4jnsgd1na2vs0mg"},{"bike_id":"d8e3941b-0cae-4b8e-ae3c-c34a4b3b2c65","system_id":"levelo_inurba_marseille","lat":43.31996,"lon":5.38162,"is_reserved":false,"is_disabled":false,"rental_uris":{"android":"levelo://app?vid=d8e3941b-0cae-4b8e-ae3c-c34a4b3b2c65","ios":"levelo://app?vid=d8e3941b-0cae-4b8e-ae3c-c34a4b3b2c65"},"vehicle_type_id":"4","last_reported":1736953751,"current_range_meters":38800,"station_id":"ce4bhr12rcd13ifvqhpg","pricing_plan_id":"cebpf4jnsgd1na2vs0mg"},{"bike_id":"9db02719-0257-42d2-a2f1-eb9f3f010788","system_id":"levelo_inurba_marseille","lat":43.28577,"lon":5.38413,"is_reserved":false,"is_disabled":true,"rental_uris":{"android":"levelo://app?vid=9db02719-0257-42d2-a2f1-eb9f3f010788","ios":"levelo://app?vid=9db02719-0257-42d2-a2f1-eb9f3f010788"},"vehicle_type_id":"4","last_reported":1736953751,"current_range_meters":0,"station_id":"","pricing_plan_id":"cebpf4jnsgd1na2vs0mg"},{"bike_id":"ef7adbc7-f956-407a-a3eb-ebdd3e60d992","system_id":"levelo_inurba_marseille","lat":43.30558,"lon":5.36543,"is_reserved":false,"is_disabled":true,"rental_uris":{"android":"levelo://app?vid=ef7adbc7-f956-407a-a3eb-ebdd3e60d992","ios":"levelo://app?vid=ef7adbc7-f956-407a-a3eb-ebdd3e60d992"},"vehicle_type_id":"4","last_reported":1736953751,"current_range_meters":7200,"station_id":"ce4bgs12rcd13ifvqcag","pricing_plan_id":"cebpf4jnsgd1na2vs0mg"},{"bike_id":"96208fbe-0104-44a0-8e03-e2925ffa104c","system_id":"levelo_inurba_marseille","lat":43.29271,"lon":5.36853,"is_reserved":false,"is_disabled":false,"rental_uris":{"android":"levelo://app?vid=96208fbe-0104-44a0-8e03-e2925ffa104c","ios":"levelo://app?vid=96208fbe-0104-44a0-8e03-e2925ffa104c"},"vehicle_type_id":"4","last_reported":1736953751,"current_range_meters":38000,"station_id":"ce4bhbp2rcd13ifvqesg","pricing_plan_id":"cebpf4jnsgd1na2vs0mg"},{"bike_id":"4df542d4-5bbd-4c6e-9c5e-d149bbcd1660","system_id":"levelo_inurba_marseille","lat":43.26204,"lon":5.37926,"is_reserved":false,"is_disabled":false,"rental_uris":{"android":"levelo://app?vid=4df542d4-5bbd-4c6e-9c5e-d149bbcd1660","ios":"levelo://app?vid=4df542d4-5bbd-4c6e-9c5e-d149bbcd1660"},"vehicle_type_id":"4","last_reported":1736953751,"current_range_meters":28800,"station_id":"ce4bhjp2rcd13ifvqg90","pricing_plan_id":"cebpf4jnsgd1na2vs0mg"},{"bike_id":"ab0be606-3598-4d5a-9335-bc8a0f7226ae","system_id":"levelo_inurba_marseille","lat":43.33023,"lon":5.390473,"is_reserved":false,"is_disabled":false,"rental_uris":{"android":"levelo://app?vid=ab0be606-3598-4d5a-9335-bc8a0f7226ae","ios":"levelo://app?vid=ab0be606-3598-4d5a-9335-bc8a0f7226ae"},"vehicle_type_id":"4","last_reported":1736953751,"current_range_meters":38400,"station_id":"ce4bhr92rcd13ifvqhrg","pricing_plan_id":"cebpf4jnsgd1na2vs0mg"},{"bike_id":"403439f7-8e74-4d85-913e-67da90f92235","system_id":"levelo_inurba_marseille","lat":43.29199,"lon":5.35811,"is_reserved":false,"is_disabled":false,"rental_uris":{"android":"levelo://app?vid=403439f7-8e74-4d85-913e-67da90f92235","ios":"levelo://app?vid=403439f7-8e74-4d85-913e-67da90f92235"},"vehicle_type_id":"4","last_reported":1736953751,"current_range_meters":25600,"station_id":"ce4bhb12rcd13ifvqel0","pricing_plan_id":"cebpf4jnsgd1na2vs0mg"},{"bike_id":"e02a9549-b281-4f69-a34c-4208f5511fef","system_id":"levelo_inurba_marseille","lat":43.25007,"lon":5.38928,"is_reserved":false,"is_disabled":false,"rental_uris":{"android":"levelo://app?vid=e02a9549-b281-4f69-a34c-4208f5511fef","ios":"levelo://app?vid=e02a9549-b281-4f69-a34c-4208f5511fef"},"vehicle_type_id":"4","last_reported":1736953751,"current_range_meters":38800,"station_id":"ce4bhgp2rcd13ifvqfd0","pricing_plan_id":"cebpf4jnsgd1na2vs0mg"},{"bike_id":"a1cbf57f-0d37-4cde-a4f4-e53c7978be93","system_id":"levelo_inurba_marseille","lat":43.26067,"lon":5.39392,"is_reserved":false,"is_disabled":false,"rental_uris":{"android":"levelo://app?vid=a1cbf57f-0d37-4cde-a4f4-e53c7978be93","ios":"levelo://app?vid=a1cbf57f-0d37-4cde-a4f4-e53c7978be93"},"vehicle_type_id":"4","last_reported":1736953751,"current_range_meters":8000,"station_id":"ce4bhh92rcd13ifvqfj0","pricing_plan_id":"cebpf4jnsgd1na2vs0mg"},{"bike_id":"f8a8ae82-a431-48ca-a666-9607389985e3","system_id":"levelo_inurba_marseille","lat":43.290588,"lon":5.378341,"is_reserved":false,"is_disabled":false,"rental_uris":{"android":"levelo://app?vid=f8a8ae82-a431-48ca-a666-9607389985e3","ios":"levelo://app?vid=f8a8ae82-a431-48ca-a666-9607389985e3"},"vehicle_type_id":"4","last_reported":1736953751,"current_range_meters":26800,"station_id":"ce4bh9p2rcd13ifvqed0","pricing_plan_id":"cebpf4jnsgd1na2vs0mg"},{"bike_id":"20b42ccb-0411-4ccb-9208-7ac954900656","system_id":"levelo_inurba_marseille","lat":43.31362,"lon":5.367106,"is_reserved":false,"is_disabled":false,"rental_uris":{"android":"levelo://app?vid=20b42ccb-0411-4ccb-9208-7ac954900656","ios":"levelo://app?vid=20b42ccb-0411-4ccb-9208-7ac954900656"},"vehicle_type_id":"4","last_reported":1736953751,"current_range_meters":39200,"station_id":"ce4bgr92rcd13ifvqc6g","pricing_plan_id":"cebpf4jnsgd1na2vs0mg"},{"bike_id":"0ad6f0f5-2cfe-40ff-8076-e9ff8eee4651","system_id":"levelo_inurba_marseille","lat":43.292215,"lon":5.36076,"is_reserved":false,"is_disabled":false,"rental_uris":{"android":"levelo://app?vid=0ad6f0f5-2cfe-40ff-8076-e9ff8eee4651","ios":"levelo://app?vid=0ad6f0f5-2cfe-40ff-8076-e9ff8eee4651"},"vehicle_type_id":"4","last_reported":1736953751,"current_range_meters":12400,"station_id":"ce4bhbh2rcd13ifvqeqg","pricing_plan_id":"cebpf4jnsgd1na2vs0mg"},{"bike_id":"7a26b63c-652f-4d2d-8353-1a9dfb4e945a","system_id":"levelo_inurba_marseille","lat":43.33729,"lon":5.392,"is_reserved":false,"is_disabled":false,"rental_uris":{"android":"levelo://app?vid=7a26b63c-652f-4d2d-8353-1a9dfb4e945a","ios":"levelo://app?vid=7a26b63c-652f-4d2d-8353-1a9dfb4e945a"},"vehicle_type_id":"4","last_reported":1736953751,"current_range_meters":38800,"station_id":"ce4bhr92rcd13ifvqhsg","pricing_plan_id":"cebpf4jnsgd1na2vs0mg"},{"bike_id":"e96d83a8-cde8-404a-9e40-5bc9e9229ea9","system_id":"levelo_inurba_marseille","lat":43.33746,"lon":5.37457,"is_reserved":false,"is_disabled":false,"rental_uris":{"android":"levelo://app?vid=e96d83a8-cde8-404a-9e40-5bc9e9229ea9","ios":"levelo://app?vid=e96d83a8-cde8-404a-9e40-5bc9e9229ea9"},"vehicle_type_id":"4","last_reported":1736953751,"current_range_meters":37600,"station_id":"","pricing_plan_id":"cebpf4jnsgd1na2vs0mg"},{"bike_id":"56e0ff8f-f385-4150-9c69-b0a3357e7adb","system_id":"levelo_inurba_marseille","lat":43.26033,"lon":5.37557,"is_reserved":false,"is_disabled":false,"rental_uris":{"android":"levelo://app?vid=56e0ff8f-f385-4150-9c69-b0a3357e7adb","ios":"levelo://app?vid=56e0ff8f-f385-4150-9c69-b0a3357e7adb"},"vehicle_type_id":"4","last_reported":1736953751,"current_range_meters":8400,"station_id":"ce4bhgh2rcd13ifvqfa0","pricing_plan_id":"cebpf4jnsgd1na2vs0mg"},{"bike_id":"beae90ea-de3b-4a50-b97e-d77bd8538a84","system_id":"levelo_inurba_marseille","lat":43.23157,"lon":5.4372,"is_reserved":false,"is_disabled":false,"rental_uris":{"android":"levelo://app?vid=beae90ea-de3b-4a50-b97e-d77bd8538a84","ios":"levelo://app?vid=beae90ea-de3b-4a50-b97e-d77bd8538a84"},"vehicle_type_id":"4","last_reported":1736953751,"current_range_meters":8000,"station_id":"ce4bhmp2rcd13ifvqgog","pricing_plan_id":"cebpf4jnsgd1na2vs0mg"},{"bike_id":"eed7dda4-6056-4a2a-bd45-a788cf53351c","system_id":"levelo_inurba_marseille","lat":43.2909,"lon":5.38139,"is_reserved":false,"is_disabled":false,"rental_uris":{"android":"levelo://app?vid=eed7dda4-6056-4a2a-bd45-a788cf53351c","ios":"levelo://app?vid=eed7dda4-6056-4a2a-bd45-a788cf53351c"},"vehicle_type_id":"4","last_reported":1736953751,"current_range_meters":14400,"station_id":"ce4bh512rcd13ifvqe2g","pricing_plan_id":"cebpf4jnsgd1na2vs0mg"},{"bike_id":"886c2bbb-1b99-4795-80cb-99bf8240c559","system_id":"levelo_inurba_marseille","lat":43.24656,"lon":5.38885,"is_reserved":false,"is_disabled":false,"rental_uris":{"android":"levelo://app?vid=886c2bbb-1b99-4795-80cb-99bf8240c559","ios":"levelo://app?vid=886c2bbb-1b99-4795-80cb-99bf8240c559"},"vehicle_type_id":"4","last_reported":1736953751,"current_range_meters":26000,"station_id":"ce4bhg12rcd13ifvqf60","pricing_plan_id":"cebpf4jnsgd1na2vs0mg"},{"bike_id":"3b401bb6-c6a6-4b87-8858-55d629130591","system_id":"levelo_inurba_marseille","lat":43.26029,"lon":5.37557,"is_reserved":false,"is_disabled":true,"rental_uris":{"android":"levelo://app?vid=3b401bb6-c6a6-4b87-8858-55d629130591","ios":"levelo://app?vid=3b401bb6-c6a6-4b87-8858-55d629130591"},"vehicle_type_id":"4","last_reported":1736953751,"current_range_meters":0,"station_id":"ce4bhgh2rcd13ifvqfa0","pricing_plan_id":"cebpf4jnsgd1na2vs0mg"},{"bike_id":"f6bb3330-51df-4aaa-8269-ab7638db39bd","system_id":"levelo_inurba_marseille","lat":43.24401,"lon":5.37053,"is_reserved":false,"is_disabled":false,"rental_uris":{"android":"levelo://app?vid=f6bb3330-51df-4aaa-8269-ab7638db39bd","ios":"levelo://app?vid=f6bb3330-51df-4aaa-8269-ab7638db39bd"},"vehicle_type_id":"4","last_reported":1736953751,"current_range_meters":31200,"station_id":"ce4bhhh2rcd13ifvqfk0","pricing_plan_id":"cebpf4jnsgd1na2vs0mg"},{"bike_id":"b72f5c81-7da9-44ab-bae7-4902cb063865","system_id":"levelo_inurba_marseille","lat":43.2572,"lon":5.41112,"is_reserved":false,"is_disabled":false,"rental_uris":{"android":"levelo://app?vid=b72f5c81-7da9-44ab-bae7-4902cb063865","ios":"levelo://app?vid=b72f5c81-7da9-44ab-bae7-4902cb063865"},"vehicle_type_id":"4","last_reported":1736953751,"current_range_meters":38800,"station_id":"ce4bhkp2rcd13ifvqgd0","pricing_plan_id":"cebpf4jnsgd1na2vs0mg"},{"bike_id":"28fdba24-e4dd-42f3-aed2-9fd37f7e166c","system_id":"levelo_inurba_marseille","lat":43.30558,"lon":5.36538,"is_reserved":false,"is_disabled":false,"rental_uris":{"android":"levelo://app?vid=28fdba24-e4dd-42f3-aed2-9fd37f7e166c","ios":"levelo://app?vid=28fdba24-e4dd-42f3-aed2-9fd37f7e166c"},"vehicle_type_id":"4","last_reported":1736953751,"current_range_meters":22800,"station_id":"ce4bgs12rcd13ifvqcag","pricing_plan_id":"cebpf4jnsgd1na2vs0mg"},{"bike_id":"0c1ab67a-c7c3-47b9-bfc2-911abf2dba6e","system_id":"levelo_inurba_marseille","lat":43.315,"lon":5.37314,"is_reserved":false,"is_disabled":false,"rental_uris":{"android":"levelo://app?vid=0c1ab67a-c7c3-47b9-bfc2-911abf2dba6e","ios":"levelo://app?vid=0c1ab67a-c7c3-47b9-bfc2-911abf2dba6e"},"vehicle_type_id":"4","last_reported":1736953751,"current_range_meters":19200,"station_id":"ce4bgt12rcd13ifvqcd0","pricing_plan_id":"cebpf4jnsgd1na2vs0mg"},{"bike_id":"293537b8-faa4-4512-9781-add1f5857757","system_id":"levelo_inurba_marseille","lat":43.273765,"lon":5.362562,"is_reserved":false,"is_disabled":false,"rental_uris":{"android":"levelo://app?vid=293537b8-faa4-4512-9781-add1f5857757","ios":"levelo://app?vid=293537b8-faa4-4512-9781-add1f5857757"},"vehicle_type_id":"4","last_reported":1736953751,"current_range_meters":38800,"station_id":"ce4bhbh2rcd13ifvqeo0","pricing_plan_id":"cebpf4jnsgd1na2vs0mg"},{"bike_id":"ae6a24c6-71f9-417a-adfe-c09c90280637","system_id":"levelo_inurba_marseille","lat":43.265498,"lon":5.372989,"is_reserved":false,"is_disabled":false,"rental_uris":{"android":"levelo://app?vid=ae6a24c6-71f9-417a-adfe-c09c90280637","ios":"levelo://app?vid=ae6a24c6-71f9-417a-adfe-c09c90280637"},"vehicle_type_id":"4","last_reported":1736953751,"current_range_meters":37600,"station_id":"ce4bhg12rcd13ifvqf70","pricing_plan_id":"cebpf4jnsgd1na2vs0mg"},{"bike_id":"c5748c79-66ea-4909-9026-e66a2b573a47","system_id":"levelo_inurba_marseille","lat":43.30301,"lon":5.36922,"is_reserved":false,"is_disabled":true,"rental_uris":{"android":"levelo://app?vid=c5748c79-66ea-4909-9026-e66a2b573a47","ios":"levelo://app?vid=c5748c79-66ea-4909-9026-e66a2b573a47"},"vehicle_type_id":"4","last_reported":1736953751,"current_range_meters":28400,"station_id":"ce4bgqh2rcd13ifvqc5g","pricing_plan_id":"cebpf4jnsgd1na2vs0mg"},{"bike_id":"5e0330a3-817d-43e3-bb80-6ec5bd5301e0","system_id":"levelo_inurba_marseille","lat":43.2972,"lon":5.377,"is_reserved":false,"is_disabled":false,"rental_uris":{"android":"levelo://app?vid=5e0330a3-817d-43e3-bb80-6ec5bd5301e0","ios":"levelo://app?vid=5e0330a3-817d-43e3-bb80-6ec5bd5301e0"},"vehicle_type_id":"4","last_reported":1736953751,"current_range_meters":38400,"station_id":"ce4bgkh2rcd13ifvqbl0","pricing_plan_id":"cebpf4jnsgd1na2vs0mg"},{"bike_id":"b36a1c0d-0330-4dd2-a728-642e1e22ff71","system_id":"levelo_inurba_marseille","lat":43.26952,"lon":5.40259,"is_reserved":false,"is_disabled":false,"rental_uris":{"android":"levelo://app?vid=b36a1c0d-0330-4dd2-a728-642e1e22ff71","ios":"levelo://app?vid=b36a1c0d-0330-4dd2-a728-642e1e22ff71"},"vehicle_type_id":"4","last_reported":1736953751,"current_range_meters":39200,"station_id":"cjm6bp8fraef2m0cb0m0","pricing_plan_id":"cebpf4jnsgd1na2vs0mg"},{"bike_id":"60c48e84-151f-4edd-83cd-789ff87c7f63","system_id":"levelo_inurba_marseille","lat":43.28691,"lon":5.37379,"is_reserved":false,"is_disabled":true,"rental_uris":{"android":"levelo://app?vid=60c48e84-151f-4edd-83cd-789ff87c7f63","ios":"levelo://app?vid=60c48e84-151f-4edd-83cd-789ff87c7f63"},"vehicle_type_id":"4","last_reported":1736953751,"current_range_meters":28400,"station_id":"ce4bh3p2rcd13ifvqdq0","pricing_plan_id":"cebpf4jnsgd1na2vs0mg"},{"bike_id":"c359d983-8dc1-4d71-a640-ffd66230aa2e","system_id":"levelo_inurba_marseille","lat":43.28628,"lon":5.35101,"is_reserved":false,"is_disabled":false,"rental_uris":{"android":"levelo://app?vid=c359d983-8dc1-4d71-a640-ffd66230aa2e","ios":"levelo://app?vid=c359d983-8dc1-4d71-a640-ffd66230aa2e"},"vehicle_type_id":"4","last_reported":1736953751,"current_range_meters":27600,"station_id":"ce4bhch2rcd13ifvqeug","pricing_plan_id":"cebpf4jnsgd1na2vs0mg"},{"bike_id":"e05770dc-4ca5-42f6-8928-9e060772c93d","system_id":"levelo_inurba_marseille","lat":43.32365,"lon":5.38888,"is_reserved":false,"is_disabled":false,"rental_uris":{"android":"levelo://app?vid=e05770dc-4ca5-42f6-8928-9e060772c93d","ios":"levelo://app?vid=e05770dc-4ca5-42f6-8928-9e060772c93d"},"vehicle_type_id":"4","last_reported":1736953751,"current_range_meters":37600,"station_id":"ce4bhqp2rcd13ifvqhog","pricing_plan_id":"cebpf4jnsgd1na2vs0mg"},{"bike_id":"3924567e-ccdb-4f0d-8926-0a0f5d80ec63","system_id":"levelo_inurba_marseille","lat":43.30439,"lon":5.38889,"is_reserved":false,"is_disabled":false,"rental_uris":{"android":"levelo://app?vid=3924567e-ccdb-4f0d-8926-0a0f5d80ec63","ios":"levelo://app?vid=3924567e-ccdb-4f0d-8926-0a0f5d80ec63"},"vehicle_type_id":"4","last_reported":1736953751,"current_range_meters":2800,"station_id":"ce4bgk12rcd13ifvqbi0","pricing_plan_id":"cebpf4jnsgd1na2vs0mg"},{"bike_id":"a0ffede7-3341-4855-b911-b1e6e871db85","system_id":"levelo_inurba_marseille","lat":43.32047,"lon":5.4156,"is_reserved":false,"is_disabled":false,"rental_uris":{"android":"levelo://app?vid=a0ffede7-3341-4855-b911-b1e6e871db85","ios":"levelo://app?vid=a0ffede7-3341-4855-b911-b1e6e871db85"},"vehicle_type_id":"4","last_reported":1736953751,"current_range_meters":14000,"station_id":"ce4bhq92rcd13ifvqhkg","pricing_plan_id":"cebpf4jnsgd1na2vs0mg"},{"bike_id":"de05f028-7450-4792-8d5b-e268410faa9d","system_id":"levelo_inurba_marseille","lat":43.32104,"lon":5.36775,"is_reserved":false,"is_disabled":false,"rental_uris":{"android":"levelo://app?vid=de05f028-7450-4792-8d5b-e268410faa9d","ios":"levelo://app?vid=de05f028-7450-4792-8d5b-e268410faa9d"},"vehicle_type_id":"4","last_reported":1736953751,"current_range_meters":25200,"station_id":"ce4bhrh2rcd13ifvqhug","pricing_plan_id":"cebpf4jnsgd1na2vs0mg"},{"bike_id":"8d5f5909-6ecd-4717-9f32-79d2ca4fb113","system_id":"levelo_inurba_marseille","lat":43.27615,"lon":5.3611,"is_reserved":false,"is_disabled":false,"rental_uris":{"android":"levelo://app?vid=8d5f5909-6ecd-4717-9f32-79d2ca4fb113","ios":"levelo://app?vid=8d5f5909-6ecd-4717-9f32-79d2ca4fb113"},"vehicle_type_id":"4","last_reported":1736953751,"current_range_meters":8000,"station_id":"ce4bgj92rcd13ifvqbe0","pricing_plan_id":"cebpf4jnsgd1na2vs0mg"},{"bike_id":"b354b3ea-f7ff-42ac-a645-9e5cbfe3e2e2","system_id":"levelo_inurba_marseille","lat":43.30535,"lon":5.36546,"is_reserved":false,"is_disabled":false,"rental_uris":{"android":"levelo://app?vid=b354b3ea-f7ff-42ac-a645-9e5cbfe3e2e2","ios":"levelo://app?vid=b354b3ea-f7ff-42ac-a645-9e5cbfe3e2e2"},"vehicle_type_id":"4","last_reported":1736953751,"current_range_meters":39200,"station_id":"ce4bgs12rcd13ifvqcag","pricing_plan_id":"cebpf4jnsgd1na2vs0mg"},{"bike_id":"f955eab0-37b6-4a39-b689-c159c491c373","system_id":"levelo_inurba_marseille","lat":43.31329,"lon":5.39684,"is_reserved":false,"is_disabled":false,"rental_uris":{"android":"levelo://app?vid=f955eab0-37b6-4a39-b689-c159c491c373","ios":"levelo://app?vid=f955eab0-37b6-4a39-b689-c159c491c373"},"vehicle_type_id":"4","last_reported":1736953751,"current_range_meters":24000,"station_id":"ce4bgvp2rcd13ifvqcu0","pricing_plan_id":"cebpf4jnsgd1na2vs0mg"},{"bike_id":"3345b302-c6e5-4089-8cca-37b2dd681680","system_id":"levelo_inurba_marseille","lat":43.29006,"lon":5.35605,"is_reserved":false,"is_disabled":false,"rental_uris":{"android":"levelo://app?vid=3345b302-c6e5-4089-8cca-37b2dd681680","ios":"levelo://app?vid=3345b302-c6e5-4089-8cca-37b2dd681680"},"vehicle_type_id":"4","last_reported":1736953751,"current_range_meters":38800,"station_id":"ce4bhb92rcd13ifvqen0","pricing_plan_id":"cebpf4jnsgd1na2vs0mg"},{"bike_id":"b4e5917f-ad4f-488f-98af-ef26da7570cb","system_id":"levelo_inurba_marseille","lat":43.29174,"lon":5.37144,"is_reserved":false,"is_disabled":false,"rental_uris":{"android":"levelo://app?vid=b4e5917f-ad4f-488f-98af-ef26da7570cb","ios":"levelo://app?vid=b4e5917f-ad4f-488f-98af-ef26da7570cb"},"vehicle_type_id":"4","last_reported":1736953751,"current_range_meters":33600,"station_id":"ce4bha92rcd13ifvqeh0","pricing_plan_id":"cebpf4jnsgd1na2vs0mg"},{"bike_id":"02d44c0a-962d-4386-a061-0ad017a5041a","system_id":"levelo_inurba_marseille","lat":43.27571,"lon":5.38444,"is_reserved":false,"is_disabled":false,"rental_uris":{"android":"levelo://app?vid=02d44c0a-962d-4386-a061-0ad017a5041a","ios":"levelo://app?vid=02d44c0a-962d-4386-a061-0ad017a5041a"},"vehicle_type_id":"4","last_reported":1736953751,"current_range_meters":14000,"station_id":"ce4bhh92rcd13ifvqfi0","pricing_plan_id":"cebpf4jnsgd1na2vs0mg"},{"bike_id":"5a8221a2-d74f-4589-b570-9c1cc5654e97","system_id":"levelo_inurba_marseille","lat":43.28463,"lon":5.38403,"is_reserved":false,"is_disabled":false,"rental_uris":{"android":"levelo://app?vid=5a8221a2-d74f-4589-b570-9c1cc5654e97","ios":"levelo://app?vid=5a8221a2-d74f-4589-b570-9c1cc5654e97"},"vehicle_type_id":"4","last_reported":1736953751,"current_range_meters":24400,"station_id":"ce4bh512rcd13ifvqe3g","pricing_plan_id":"cebpf4jnsgd1na2vs0mg"},{"bike_id":"802af567-23e5-460f-b8c1-0017ba6b1c43","system_id":"levelo_inurba_marseille","lat":43.30432,"lon":5.39748,"is_reserved":false,"is_disabled":false,"rental_uris":{"android":"levelo://app?vid=802af567-23e5-460f-b8c1-0017ba6b1c43","ios":"levelo://app?vid=802af567-23e5-460f-b8c1-0017ba6b1c43"},"vehicle_type_id":"4","last_reported":1736953751,"current_range_meters":38400,"station_id":"ce4bh092rcd13ifvqd20","pricing_plan_id":"cebpf4jnsgd1na2vs0mg"},{"bike_id":"2d7f3353-743b-41e1-85f2-e32181d4ae48","system_id":"levelo_inurba_marseille","lat":43.32015,"lon":5.38141,"is_reserved":false,"is_disabled":false,"rental_uris":{"android":"levelo://app?vid=2d7f3353-743b-41e1-85f2-e32181d4ae48","ios":"levelo://app?vid=2d7f3353-743b-41e1-85f2-e32181d4ae48"},"vehicle_type_id":"4","last_reported":1736953751,"current_range_meters":37600,"station_id":"ce4bhr12rcd13ifvqhpg","pricing_plan_id":"cebpf4jnsgd1na2vs0mg"},{"bike_id":"511cb4a9-2f4b-4d3e-be2f-819d95791ee6","system_id":"levelo_inurba_marseille","lat":43.28887,"lon":5.42639,"is_reserved":false,"is_disabled":true,"rental_uris":{"android":"levelo://app?vid=511cb4a9-2f4b-4d3e-be2f-819d95791ee6","ios":"levelo://app?vid=511cb4a9-2f4b-4d3e-be2f-819d95791ee6"},"vehicle_type_id":"4","last_reported":1736953751,"current_range_meters":34800,"station_id":"","pricing_plan_id":"cebpf4jnsgd1na2vs0mg"},{"bike_id":"6ddc98b1-b7ce-45ea-823f-4ac71b5fa355","system_id":"levelo_inurba_marseille","lat":43.29186,"lon":5.35807,"is_reserved":false,"is_disabled":false,"rental_uris":{"android":"levelo://app?vid=6ddc98b1-b7ce-45ea-823f-4ac71b5fa355","ios":"levelo://app?vid=6ddc98b1-b7ce-45ea-823f-4ac71b5fa355"},"vehicle_type_id":"4","last_reported":1736953751,"current_range_meters":11600,"station_id":"ce4bhb12rcd13ifvqel0","pricing_plan_id":"cebpf4jnsgd1na2vs0mg"},{"bike_id":"e227e9b7-c139-49e0-927d-482a1ba9794f","system_id":"levelo_inurba_marseille","lat":43.29595,"lon":5.38094,"is_reserved":false,"is_disabled":false,"rental_uris":{"android":"levelo://app?vid=e227e9b7-c139-49e0-927d-482a1ba9794f","ios":"levelo://app?vid=e227e9b7-c139-49e0-927d-482a1ba9794f"},"vehicle_type_id":"4","last_reported":1736953751,"current_range_meters":34000,"station_id":"ce4bgl12rcd13ifvqbo0","pricing_plan_id":"cebpf4jnsgd1na2vs0mg"},{"bike_id":"94901ff2-d6a9-47bc-97a8-2fd79486637f","system_id":"levelo_inurba_marseille","lat":43.23181,"lon":5.39985,"is_reserved":false,"is_disabled":false,"rental_uris":{"android":"levelo://app?vid=94901ff2-d6a9-47bc-97a8-2fd79486637f","ios":"levelo://app?vid=94901ff2-d6a9-47bc-97a8-2fd79486637f"},"vehicle_type_id":"4","last_reported":1736953751,"current_range_meters":38800,"station_id":"ce4bhn12rcd13ifvqgqg","pricing_plan_id":"cebpf4jnsgd1na2vs0mg"},{"bike_id":"98a57bb2-306f-45f6-bd2d-9858b4591fe0","system_id":"levelo_inurba_marseille","lat":43.24996,"lon":5.38934,"is_reserved":false,"is_disabled":false,"rental_uris":{"android":"levelo://app?vid=98a57bb2-306f-45f6-bd2d-9858b4591fe0","ios":"levelo://app?vid=98a57bb2-306f-45f6-bd2d-9858b4591fe0"},"vehicle_type_id":"4","last_reported":1736953751,"current_range_meters":26800,"station_id":"ce4bhgp2rcd13ifvqfd0","pricing_plan_id":"cebpf4jnsgd1na2vs0mg"},{"bike_id":"07707271-2e63-4e44-8938-6537d0cfbbe2","system_id":"levelo_inurba_marseille","lat":43.31721,"lon":5.42407,"is_reserved":false,"is_disabled":false,"rental_uris":{"android":"levelo://app?vid=07707271-2e63-4e44-8938-6537d0cfbbe2","ios":"levelo://app?vid=07707271-2e63-4e44-8938-6537d0cfbbe2"},"vehicle_type_id":"4","last_reported":1736953751,"current_range_meters":38000,"station_id":"ce4bhp92rcd13ifvqhbg","pricing_plan_id":"cebpf4jnsgd1na2vs0mg"},{"bike_id":"b583689d-4b3b-4fec-a4c3-0358dd755494","system_id":"levelo_inurba_marseille","lat":43.26685,"lon":5.3828,"is_reserved":false,"is_disabled":false,"rental_uris":{"android":"levelo://app?vid=b583689d-4b3b-4fec-a4c3-0358dd755494","ios":"levelo://app?vid=b583689d-4b3b-4fec-a4c3-0358dd755494"},"vehicle_type_id":"4","last_reported":1736953751,"current_range_meters":27600,"station_id":"ce4bhg92rcd13ifvqf90","pricing_plan_id":"cebpf4jnsgd1na2vs0mg"},{"bike_id":"bdbd16f5-cde6-4c85-958e-8f9700189ae9","system_id":"levelo_inurba_marseille","lat":43.31367,"lon":5.36716,"is_reserved":false,"is_disabled":false,"rental_uris":{"android":"levelo://app?vid=bdbd16f5-cde6-4c85-958e-8f9700189ae9","ios":"levelo://app?vid=bdbd16f5-cde6-4c85-958e-8f9700189ae9"},"vehicle_type_id":"4","last_reported":1736953751,"current_range_meters":38000,"station_id":"ce4bgr92rcd13ifvqc6g","pricing_plan_id":"cebpf4jnsgd1na2vs0mg"},{"bike_id":"e4259690-3fb4-4dd4-b235-d449ed58344f","system_id":"levelo_inurba_marseille","lat":43.26557,"lon":5.3731,"is_reserved":false,"is_disabled":false,"rental_uris":{"android":"levelo://app?vid=e4259690-3fb4-4dd4-b235-d449ed58344f","ios":"levelo://app?vid=e4259690-3fb4-4dd4-b235-d449ed58344f"},"vehicle_type_id":"4","last_reported":1736953751,"current_range_meters":26800,"station_id":"ce4bhg12rcd13ifvqf70","pricing_plan_id":"cebpf4jnsgd1na2vs0mg"},{"bike_id":"8534aaf4-535f-4db5-8998-0f97ef68ef36","system_id":"levelo_inurba_marseille","lat":43.24408,"lon":5.37045,"is_reserved":false,"is_disabled":false,"rental_uris":{"android":"levelo://app?vid=8534aaf4-535f-4db5-8998-0f97ef68ef36","ios":"levelo://app?vid=8534aaf4-535f-4db5-8998-0f97ef68ef36"},"vehicle_type_id":"4","last_reported":1736953751,"current_range_meters":15200,"station_id":"ce4bhhh2rcd13ifvqfk0","pricing_plan_id":"cebpf4jnsgd1na2vs0mg"},{"bike_id":"071f402c-98e5-4cd3-9ac8-9434a30cd200","system_id":"levelo_inurba_marseille","lat":43.29572,"lon":5.39979,"is_reserved":false,"is_disabled":false,"rental_uris":{"android":"levelo://app?vid=071f402c-98e5-4cd3-9ac8-9434a30cd200","ios":"levelo://app?vid=071f402c-98e5-4cd3-9ac8-9434a30cd200"},"vehicle_type_id":"4","last_reported":1736953751,"current_range_meters":38800,"station_id":"ce4bh312rcd13ifvqdj0","pricing_plan_id":"cebpf4jnsgd1na2vs0mg"},{"bike_id":"b2c33e7b-da8a-4cda-ab12-4bcf5000aca5","system_id":"levelo_inurba_marseille","lat":43.27624,"lon":5.36106,"is_reserved":false,"is_disabled":false,"rental_uris":{"android":"levelo://app?vid=b2c33e7b-da8a-4cda-ab12-4bcf5000aca5","ios":"levelo://app?vid=b2c33e7b-da8a-4cda-ab12-4bcf5000aca5"},"vehicle_type_id":"4","last_reported":1736953751,"current_range_meters":28000,"station_id":"ce4bgj92rcd13ifvqbe0","pricing_plan_id":"cebpf4jnsgd1na2vs0mg"},{"bike_id":"6972ffb5-b91e-4711-9114-1e0ca2451244","system_id":"levelo_inurba_marseille","lat":43.30496,"lon":5.36789,"is_reserved":false,"is_disabled":false,"rental_uris":{"android":"levelo://app?vid=6972ffb5-b91e-4711-9114-1e0ca2451244","ios":"levelo://app?vid=6972ffb5-b91e-4711-9114-1e0ca2451244"},"vehicle_type_id":"4","last_reported":1736953751,"current_range_meters":22800,"station_id":"","pricing_plan_id":"cebpf4jnsgd1na2vs0mg"},{"bike_id":"6c02ae22-4e33-4b73-a0d5-7fa499611cc2","system_id":"levelo_inurba_marseille","lat":43.23154,"lon":5.43705,"is_reserved":false,"is_disabled":false,"rental_uris":{"android":"levelo://app?vid=6c02ae22-4e33-4b73-a0d5-7fa499611cc2","ios":"levelo://app?vid=6c02ae22-4e33-4b73-a0d5-7fa499611cc2"},"vehicle_type_id":"4","last_reported":1736953751,"current_range_meters":37600,"station_id":"ce4bhmp2rcd13ifvqgog","pricing_plan_id":"cebpf4jnsgd1na2vs0mg"},{"bike_id":"02908220-1c55-4c15-9a97-ca442f0ecb98","system_id":"levelo_inurba_marseille","lat":43.23157,"lon":5.4371,"is_reserved":false,"is_disabled":false,"rental_uris":{"android":"levelo://app?vid=02908220-1c55-4c15-9a97-ca442f0ecb98","ios":"levelo://app?vid=02908220-1c55-4c15-9a97-ca442f0ecb98"},"vehicle_type_id":"4","last_reported":1736953751,"current_range_meters":38800,"station_id":"ce4bhmp2rcd13ifvqgog","pricing_plan_id":"cebpf4jnsgd1na2vs0mg"},{"bike_id":"e96359b9-35af-461f-9aec-a5caa9985d29","system_id":"levelo_inurba_marseille","lat":43.25569,"lon":5.3823,"is_reserved":false,"is_disabled":false,"rental_uris":{"android":"levelo://app?vid=e96359b9-35af-461f-9aec-a5caa9985d29","ios":"levelo://app?vid=e96359b9-35af-461f-9aec-a5caa9985d29"},"vehicle_type_id":"4","last_reported":1736953751,"current_range_meters":38800,"station_id":"ce4bhih2rcd13ifvqfs0","pricing_plan_id":"cebpf4jnsgd1na2vs0mg"},{"bike_id":"1ac66b2f-3713-43a8-bee1-1a7f413f5233","system_id":"levelo_inurba_marseille","lat":43.24166,"lon":5.39715,"is_reserved":false,"is_disabled":false,"rental_uris":{"android":"levelo://app?vid=1ac66b2f-3713-43a8-bee1-1a7f413f5233","ios":"levelo://app?vid=1ac66b2f-3713-43a8-bee1-1a7f413f5233"},"vehicle_type_id":"4","last_reported":1736953751,"current_range_meters":31200,"station_id":"ce4bhn12rcd13ifvqgpg","pricing_plan_id":"cebpf4jnsgd1na2vs0mg"},{"bike_id":"8d1b4cfd-a0a8-4c74-bf1d-7e6fb11edf67","system_id":"levelo_inurba_marseille","lat":43.31333,"lon":5.3968,"is_reserved":false,"is_disabled":false,"rental_uris":{"android":"levelo://app?vid=8d1b4cfd-a0a8-4c74-bf1d-7e6fb11edf67","ios":"levelo://app?vid=8d1b4cfd-a0a8-4c74-bf1d-7e6fb11edf67"},"vehicle_type_id":"4","last_reported":1736953751,"current_range_meters":29600,"station_id":"ce4bgvp2rcd13ifvqcu0","pricing_plan_id":"cebpf4jnsgd1na2vs0mg"},{"bike_id":"6578b202-5cb2-42fe-b2dd-95b2b4829bff","system_id":"levelo_inurba_marseille","lat":43.29285,"lon":5.36825,"is_reserved":false,"is_disabled":false,"rental_uris":{"android":"levelo://app?vid=6578b202-5cb2-42fe-b2dd-95b2b4829bff","ios":"levelo://app?vid=6578b202-5cb2-42fe-b2dd-95b2b4829bff"},"vehicle_type_id":"4","last_reported":1736953751,"current_range_meters":22800,"station_id":"ce4bhbp2rcd13ifvqesg","pricing_plan_id":"cebpf4jnsgd1na2vs0mg"},{"bike_id":"e65f38d5-6017-4a2a-a823-9db3d7e3ecc2","system_id":"levelo_inurba_marseille","lat":43.26568,"lon":5.37321,"is_reserved":false,"is_disabled":false,"rental_uris":{"android":"levelo://app?vid=e65f38d5-6017-4a2a-a823-9db3d7e3ecc2","ios":"levelo://app?vid=e65f38d5-6017-4a2a-a823-9db3d7e3ecc2"},"vehicle_type_id":"4","last_reported":1736953751,"current_range_meters":22400,"station_id":"ce4bhg12rcd13ifvqf70","pricing_plan_id":"cebpf4jnsgd1na2vs0mg"},{"bike_id":"41922604-c7b8-4e93-9da5-3903771d7233","system_id":"levelo_inurba_marseille","lat":43.24812,"lon":5.37466,"is_reserved":false,"is_disabled":false,"rental_uris":{"android":"levelo://app?vid=41922604-c7b8-4e93-9da5-3903771d7233","ios":"levelo://app?vid=41922604-c7b8-4e93-9da5-3903771d7233"},"vehicle_type_id":"4","last_reported":1736953751,"current_range_meters":16400,"station_id":"ce4bhgh2rcd13ifvqfb0","pricing_plan_id":"cebpf4jnsgd1na2vs0mg"},{"bike_id":"66904438-f1b0-43bd-9897-4fd12374d0f1","system_id":"levelo_inurba_marseille","lat":43.29728,"lon":5.36621,"is_reserved":false,"is_disabled":false,"rental_uris":{"android":"levelo://app?vid=66904438-f1b0-43bd-9897-4fd12374d0f1","ios":"levelo://app?vid=66904438-f1b0-43bd-9897-4fd12374d0f1"},"vehicle_type_id":"4","last_reported":1736953751,"current_range_meters":33600,"station_id":"ce4bgn12rcd13ifvqbt0","pricing_plan_id":"cebpf4jnsgd1na2vs0mg"},{"bike_id":"92ae310c-df05-444c-9764-d6b32224238a","system_id":"levelo_inurba_marseille","lat":43.29888,"lon":5.38904,"is_reserved":false,"is_disabled":false,"rental_uris":{"android":"levelo://app?vid=92ae310c-df05-444c-9764-d6b32224238a","ios":"levelo://app?vid=92ae310c-df05-444c-9764-d6b32224238a"},"vehicle_type_id":"4","last_reported":1736953751,"current_range_meters":28800,"station_id":"ce4bh392rcd13ifvqdl0","pricing_plan_id":"cebpf4jnsgd1na2vs0mg"},{"bike_id":"8394f5a8-31fa-4d89-9cc7-8ec508751ca2","system_id":"levelo_inurba_marseille","lat":43.25867,"lon":5.399,"is_reserved":false,"is_disabled":false,"rental_uris":{"android":"levelo://app?vid=8394f5a8-31fa-4d89-9cc7-8ec508751ca2","ios":"levelo://app?vid=8394f5a8-31fa-4d89-9cc7-8ec508751ca2"},"vehicle_type_id":"4","last_reported":1736953751,"current_range_meters":30400,"station_id":"ce4bhl92rcd13ifvqghg","pricing_plan_id":"cebpf4jnsgd1na2vs0mg"},{"bike_id":"bb804e28-0607-493e-806c-37e58a339016","system_id":"levelo_inurba_marseille","lat":43.25811,"lon":5.39426,"is_reserved":false,"is_disabled":false,"rental_uris":{"android":"levelo://app?vid=bb804e28-0607-493e-806c-37e58a339016","ios":"levelo://app?vid=bb804e28-0607-493e-806c-37e58a339016"},"vehicle_type_id":"4","last_reported":1736953751,"current_range_meters":39200,"station_id":"ce4bhip2rcd13ifvqft0","pricing_plan_id":"cebpf4jnsgd1na2vs0mg"},{"bike_id":"5fba5611-eed6-4d3c-b839-97e478afacfa","system_id":"levelo_inurba_marseille","lat":43.27617,"lon":5.36115,"is_reserved":false,"is_disabled":false,"rental_uris":{"android":"levelo://app?vid=5fba5611-eed6-4d3c-b839-97e478afacfa","ios":"levelo://app?vid=5fba5611-eed6-4d3c-b839-97e478afacfa"},"vehicle_type_id":"4","last_reported":1736953751,"current_range_meters":38800,"station_id":"ce4bgj92rcd13ifvqbe0","pricing_plan_id":"cebpf4jnsgd1na2vs0mg"},{"bike_id":"cb1e2b1c-f8d7-4cb8-aaa2-00d5e7f3fd54","system_id":"levelo_inurba_marseille","lat":43.3234,"lon":5.40617,"is_reserved":false,"is_disabled":false,"rental_uris":{"android":"levelo://app?vid=cb1e2b1c-f8d7-4cb8-aaa2-00d5e7f3fd54","ios":"levelo://app?vid=cb1e2b1c-f8d7-4cb8-aaa2-00d5e7f3fd54"},"vehicle_type_id":"4","last_reported":1736953751,"current_range_meters":39200,"station_id":"ce4bhq92rcd13ifvqhjg","pricing_plan_id":"cebpf4jnsgd1na2vs0mg"},{"bike_id":"190659af-f5e3-4f89-9ea3-55480b891b0a","system_id":"levelo_inurba_marseille","lat":43.27583,"lon":5.38433,"is_reserved":false,"is_disabled":false,"rental_uris":{"android":"levelo://app?vid=190659af-f5e3-4f89-9ea3-55480b891b0a","ios":"levelo://app?vid=190659af-f5e3-4f89-9ea3-55480b891b0a"},"vehicle_type_id":"4","last_reported":1736953751,"current_range_meters":27600,"station_id":"ce4bhh92rcd13ifvqfi0","pricing_plan_id":"cebpf4jnsgd1na2vs0mg"},{"bike_id":"489255cf-6ef8-4acc-9a59-3fc2634d71c8","system_id":"levelo_inurba_marseille","lat":43.26572,"lon":5.37291,"is_reserved":false,"is_disabled":false,"rental_uris":{"android":"levelo://app?vid=489255cf-6ef8-4acc-9a59-3fc2634d71c8","ios":"levelo://app?vid=489255cf-6ef8-4acc-9a59-3fc2634d71c8"},"vehicle_type_id":"4","last_reported":1736953751,"current_range_meters":33600,"station_id":"ce4bhg12rcd13ifvqf70","pricing_plan_id":"cebpf4jnsgd1na2vs0mg"},{"bike_id":"17fbe066-9bc9-4967-80bc-cbe70e18d732","system_id":"levelo_inurba_marseille","lat":43.231869,"lon":5.399872,"is_reserved":false,"is_disabled":false,"rental_uris":{"android":"levelo://app?vid=17fbe066-9bc9-4967-80bc-cbe70e18d732","ios":"levelo://app?vid=17fbe066-9bc9-4967-80bc-cbe70e18d732"},"vehicle_type_id":"4","last_reported":1736953751,"current_range_meters":32800,"station_id":"ce4bhn12rcd13ifvqgqg","pricing_plan_id":"cebpf4jnsgd1na2vs0mg"},{"bike_id":"6fe83722-0e1a-479f-8533-557c815b2480","system_id":"levelo_inurba_marseille","lat":43.275832,"lon":5.423513,"is_reserved":false,"is_disabled":false,"rental_uris":{"android":"levelo://app?vid=6fe83722-0e1a-479f-8533-557c815b2480","ios":"levelo://app?vid=6fe83722-0e1a-479f-8533-557c815b2480"},"vehicle_type_id":"4","last_reported":1736953751,"current_range_meters":28000,"station_id":"ce4bhn92rcd13ifvqgrg","pricing_plan_id":"cebpf4jnsgd1na2vs0mg"},{"bike_id":"6190e5c6-09a2-41bc-8609-ed14a1c62a06","system_id":"levelo_inurba_marseille","lat":43.251343,"lon":5.403075,"is_reserved":false,"is_disabled":false,"rental_uris":{"android":"levelo://app?vid=6190e5c6-09a2-41bc-8609-ed14a1c62a06","ios":"levelo://app?vid=6190e5c6-09a2-41bc-8609-ed14a1c62a06"},"vehicle_type_id":"4","last_reported":1736953751,"current_range_meters":38800,"station_id":"ce4bhlh2rcd13ifvqgig","pricing_plan_id":"cebpf4jnsgd1na2vs0mg"},{"bike_id":"a019fb2c-026e-432f-a789-2e11293226c1","system_id":"levelo_inurba_marseille","lat":43.31531,"lon":5.373,"is_reserved":false,"is_disabled":false,"rental_uris":{"android":"levelo://app?vid=a019fb2c-026e-432f-a789-2e11293226c1","ios":"levelo://app?vid=a019fb2c-026e-432f-a789-2e11293226c1"},"vehicle_type_id":"4","last_reported":1736953751,"current_range_meters":25200,"station_id":"","pricing_plan_id":"cebpf4jnsgd1na2vs0mg"},{"bike_id":"a1d7faff-5242-4f33-884d-2179ea4c9811","system_id":"levelo_inurba_marseille","lat":43.25117,"lon":5.40327,"is_reserved":false,"is_disabled":false,"rental_uris":{"android":"levelo://app?vid=a1d7faff-5242-4f33-884d-2179ea4c9811","ios":"levelo://app?vid=a1d7faff-5242-4f33-884d-2179ea4c9811"},"vehicle_type_id":"4","last_reported":1736953751,"current_range_meters":38800,"station_id":"ce4bhlh2rcd13ifvqgig","pricing_plan_id":"cebpf4jnsgd1na2vs0mg"},{"bike_id":"8509a7a0-ff42-420a-a121-832a83a5bee5","system_id":"levelo_inurba_marseille","lat":43.27495,"lon":5.42447,"is_reserved":false,"is_disabled":false,"rental_uris":{"android":"levelo://app?vid=8509a7a0-ff42-420a-a121-832a83a5bee5","ios":"levelo://app?vid=8509a7a0-ff42-420a-a121-832a83a5bee5"},"vehicle_type_id":"4","last_reported":1736953751,"current_range_meters":14000,"station_id":"ce4bhn92rcd13ifvqgrg","pricing_plan_id":"cebpf4jnsgd1na2vs0mg"},{"bike_id":"2d7e317f-2e49-4ce5-9a52-1106fa4045cf","system_id":"levelo_inurba_marseille","lat":43.31136,"lon":5.37792,"is_reserved":false,"is_disabled":false,"rental_uris":{"android":"levelo://app?vid=2d7e317f-2e49-4ce5-9a52-1106fa4045cf","ios":"levelo://app?vid=2d7e317f-2e49-4ce5-9a52-1106fa4045cf"},"vehicle_type_id":"4","last_reported":1736953751,"current_range_meters":25200,"station_id":"ce4bgt92rcd13ifvqcg0","pricing_plan_id":"cebpf4jnsgd1na2vs0mg"},{"bike_id":"59e39e6e-07d2-4c0d-a96b-2eece172dc89","system_id":"levelo_inurba_marseille","lat":43.26213,"lon":5.37437,"is_reserved":false,"is_disabled":true,"rental_uris":{"android":"levelo://app?vid=59e39e6e-07d2-4c0d-a96b-2eece172dc89","ios":"levelo://app?vid=59e39e6e-07d2-4c0d-a96b-2eece172dc89"},"vehicle_type_id":"4","last_reported":1736953751,"current_range_meters":38400,"station_id":"ce4bhgp2rcd13ifvqfc0","pricing_plan_id":"cebpf4jnsgd1na2vs0mg"},{"bike_id":"685a7f88-d28b-4dd7-a290-b13b24decd47","system_id":"levelo_inurba_marseille","lat":43.25736,"lon":5.41126,"is_reserved":false,"is_disabled":false,"rental_uris":{"android":"levelo://app?vid=685a7f88-d28b-4dd7-a290-b13b24decd47","ios":"levelo://app?vid=685a7f88-d28b-4dd7-a290-b13b24decd47"},"vehicle_type_id":"4","last_reported":1736953751,"current_range_meters":17600,"station_id":"ce4bhkp2rcd13ifvqgd0","pricing_plan_id":"cebpf4jnsgd1na2vs0mg"},{"bike_id":"0f2fc33a-dd07-43b0-a263-065a69bf42ea","system_id":"levelo_inurba_marseille","lat":43.26055,"lon":5.39393,"is_reserved":false,"is_disabled":false,"rental_uris":{"android":"levelo://app?vid=0f2fc33a-dd07-43b0-a263-065a69bf42ea","ios":"levelo://app?vid=0f2fc33a-dd07-43b0-a263-065a69bf42ea"},"vehicle_type_id":"4","last_reported":1736953751,"current_range_meters":38000,"station_id":"ce4bhh92rcd13ifvqfj0","pricing_plan_id":"cebpf4jnsgd1na2vs0mg"},{"bike_id":"ca20d5f5-3ed5-4adc-a7da-471ede3b84f8","system_id":"levelo_inurba_marseille","lat":43.29263,"lon":5.38447,"is_reserved":false,"is_disabled":true,"rental_uris":{"android":"levelo://app?vid=ca20d5f5-3ed5-4adc-a7da-471ede3b84f8","ios":"levelo://app?vid=ca20d5f5-3ed5-4adc-a7da-471ede3b84f8"},"vehicle_type_id":"4","last_reported":1736953751,"current_range_meters":0,"station_id":"ce4bh692rcd13ifvqea0","pricing_plan_id":"cebpf4jnsgd1na2vs0mg"},{"bike_id":"aa37f7b6-9be1-42e3-b91d-8e9e14f63651","system_id":"levelo_inurba_marseille","lat":43.27946,"lon":5.41038,"is_reserved":false,"is_disabled":false,"rental_uris":{"android":"levelo://app?vid=aa37f7b6-9be1-42e3-b91d-8e9e14f63651","ios":"levelo://app?vid=aa37f7b6-9be1-42e3-b91d-8e9e14f63651"},"vehicle_type_id":"4","last_reported":1736953751,"current_range_meters":32000,"station_id":"ce4bhnp2rcd13ifvqh0g","pricing_plan_id":"cebpf4jnsgd1na2vs0mg"},{"bike_id":"a2acbd59-835d-49a5-be65-bf1391599127","system_id":"levelo_inurba_marseille","lat":43.25935,"lon":5.40896,"is_reserved":false,"is_disabled":false,"rental_uris":{"android":"levelo://app?vid=a2acbd59-835d-49a5-be65-bf1391599127","ios":"levelo://app?vid=a2acbd59-835d-49a5-be65-bf1391599127"},"vehicle_type_id":"4","last_reported":1736953751,"current_range_meters":16800,"station_id":"ce4bhm92rcd13ifvqglg","pricing_plan_id":"cebpf4jnsgd1na2vs0mg"},{"bike_id":"0bddd997-5f94-4ffa-8a7c-f2fa5a909638","system_id":"levelo_inurba_marseille","lat":43.2898,"lon":5.37819,"is_reserved":false,"is_disabled":false,"rental_uris":{"android":"levelo://app?vid=0bddd997-5f94-4ffa-8a7c-f2fa5a909638","ios":"levelo://app?vid=0bddd997-5f94-4ffa-8a7c-f2fa5a909638"},"vehicle_type_id":"4","last_reported":1736953751,"current_range_meters":38400,"station_id":"ce4bh9p2rcd13ifvqed0","pricing_plan_id":"cebpf4jnsgd1na2vs0mg"},{"bike_id":"7b2751da-c371-44e2-98c9-6eeeee6b9d45","system_id":"levelo_inurba_marseille","lat":43.2593,"lon":5.40899,"is_reserved":false,"is_disabled":false,"rental_uris":{"android":"levelo://app?vid=7b2751da-c371-44e2-98c9-6eeeee6b9d45","ios":"levelo://app?vid=7b2751da-c371-44e2-98c9-6eeeee6b9d45"},"vehicle_type_id":"4","last_reported":1736953751,"current_range_meters":32000,"station_id":"ce4bhm92rcd13ifvqglg","pricing_plan_id":"cebpf4jnsgd1na2vs0mg"},{"bike_id":"b32131cc-2166-400f-ac66-db010d5012b6","system_id":"levelo_inurba_marseille","lat":43.28975,"lon":5.37828,"is_reserved":false,"is_disabled":false,"rental_uris":{"android":"levelo://app?vid=b32131cc-2166-400f-ac66-db010d5012b6","ios":"levelo://app?vid=b32131cc-2166-400f-ac66-db010d5012b6"},"vehicle_type_id":"4","last_reported":1736953751,"current_range_meters":26000,"station_id":"ce4bh9p2rcd13ifvqed0","pricing_plan_id":"cebpf4jnsgd1na2vs0mg"},{"bike_id":"7a260326-6fa1-42cb-a561-a3b2182a792d","system_id":"levelo_inurba_marseille","lat":43.27206,"lon":5.3917,"is_reserved":false,"is_disabled":false,"rental_uris":{"android":"levelo://app?vid=7a260326-6fa1-42cb-a561-a3b2182a792d","ios":"levelo://app?vid=7a260326-6fa1-42cb-a561-a3b2182a792d"},"vehicle_type_id":"4","last_reported":1736953751,"current_range_meters":4800,"station_id":"ce4bhhp2rcd13ifvqfm0","pricing_plan_id":"cebpf4jnsgd1na2vs0mg"},{"bike_id":"f7a93299-4b31-44c2-976e-82f7878bc418","system_id":"levelo_inurba_marseille","lat":43.25496,"lon":5.37649,"is_reserved":false,"is_disabled":false,"rental_uris":{"android":"levelo://app?vid=f7a93299-4b31-44c2-976e-82f7878bc418","ios":"levelo://app?vid=f7a93299-4b31-44c2-976e-82f7878bc418"},"vehicle_type_id":"4","last_reported":1736953751,"current_range_meters":31200,"station_id":"ce4bhh12rcd13ifvqff0","pricing_plan_id":"cebpf4jnsgd1na2vs0mg"},{"bike_id":"4fda0037-5dc9-4260-b28a-69c626e19ed4","system_id":"levelo_inurba_marseille","lat":43.30531,"lon":5.36531,"is_reserved":false,"is_disabled":false,"rental_uris":{"android":"levelo://app?vid=4fda0037-5dc9-4260-b28a-69c626e19ed4","ios":"levelo://app?vid=4fda0037-5dc9-4260-b28a-69c626e19ed4"},"vehicle_type_id":"4","last_reported":1736953751,"current_range_meters":38800,"station_id":"ce4bgs12rcd13ifvqcag","pricing_plan_id":"cebpf4jnsgd1na2vs0mg"},{"bike_id":"f4ecb78e-bdfa-4410-b359-a1f687538204","system_id":"levelo_inurba_marseille","lat":43.31166,"lon":5.38706,"is_reserved":false,"is_disabled":false,"rental_uris":{"android":"levelo://app?vid=f4ecb78e-bdfa-4410-b359-a1f687538204","ios":"levelo://app?vid=f4ecb78e-bdfa-4410-b359-a1f687538204"},"vehicle_type_id":"4","last_reported":1736953751,"current_range_meters":24000,"station_id":"ce4bgv12rcd13ifvqcp0","pricing_plan_id":"cebpf4jnsgd1na2vs0mg"},{"bike_id":"4fcc1908-dbb1-4637-a5c7-041abdcb6bdd","system_id":"levelo_inurba_marseille","lat":43.3057,"lon":5.36531,"is_reserved":false,"is_disabled":false,"rental_uris":{"android":"levelo://app?vid=4fcc1908-dbb1-4637-a5c7-041abdcb6bdd","ios":"levelo://app?vid=4fcc1908-dbb1-4637-a5c7-041abdcb6bdd"},"vehicle_type_id":"4","last_reported":1736953751,"current_range_meters":38400,"station_id":"ce4bgs12rcd13ifvqcag","pricing_plan_id":"cebpf4jnsgd1na2vs0mg"},{"bike_id":"8e1700e2-2825-47f3-9373-6fc227095b7d","system_id":"levelo_inurba_marseille","lat":43.241631,"lon":5.363973,"is_reserved":false,"is_disabled":false,"rental_uris":{"android":"levelo://app?vid=8e1700e2-2825-47f3-9373-6fc227095b7d","ios":"levelo://app?vid=8e1700e2-2825-47f3-9373-6fc227095b7d"},"vehicle_type_id":"4","last_reported":1736953751,"current_range_meters":36400,"station_id":"cpo36qri1sfpv3e86is0","pricing_plan_id":"cebpf4jnsgd1na2vs0mg"},{"bike_id":"6a90b950-9155-48a7-98c7-17b0e066be78","system_id":"levelo_inurba_marseille","lat":43.296,"lon":5.38094,"is_reserved":false,"is_disabled":false,"rental_uris":{"android":"levelo://app?vid=6a90b950-9155-48a7-98c7-17b0e066be78","ios":"levelo://app?vid=6a90b950-9155-48a7-98c7-17b0e066be78"},"vehicle_type_id":"4","last_reported":1736953751,"current_range_meters":32800,"station_id":"ce4bgl12rcd13ifvqbo0","pricing_plan_id":"cebpf4jnsgd1na2vs0mg"},{"bike_id":"b64b14d9-a03a-4200-91e3-c0820d60682c","system_id":"levelo_inurba_marseille","lat":43.24171,"lon":5.39718,"is_reserved":false,"is_disabled":false,"rental_uris":{"android":"levelo://app?vid=b64b14d9-a03a-4200-91e3-c0820d60682c","ios":"levelo://app?vid=b64b14d9-a03a-4200-91e3-c0820d60682c"},"vehicle_type_id":"4","last_reported":1736953751,"current_range_meters":24000,"station_id":"ce4bhn12rcd13ifvqgpg","pricing_plan_id":"cebpf4jnsgd1na2vs0mg"},{"bike_id":"5258efc2-c8fc-49b2-81a1-c5ad52c1bb9f","system_id":"levelo_inurba_marseille","lat":43.31487,"lon":5.37282,"is_reserved":false,"is_disabled":false,"rental_uris":{"android":"levelo://app?vid=5258efc2-c8fc-49b2-81a1-c5ad52c1bb9f","ios":"levelo://app?vid=5258efc2-c8fc-49b2-81a1-c5ad52c1bb9f"},"vehicle_type_id":"4","last_reported":1736953751,"current_range_meters":39200,"station_id":"ce4bgt12rcd13ifvqcd0","pricing_plan_id":"cebpf4jnsgd1na2vs0mg"},{"bike_id":"4a4d296c-e71a-4d73-8515-0b49a9079d8d","system_id":"levelo_inurba_marseille","lat":43.24538,"lon":5.39519,"is_reserved":false,"is_disabled":false,"rental_uris":{"android":"levelo://app?vid=4a4d296c-e71a-4d73-8515-0b49a9079d8d","ios":"levelo://app?vid=4a4d296c-e71a-4d73-8515-0b49a9079d8d"},"vehicle_type_id":"4","last_reported":1736953751,"current_range_meters":38800,"station_id":"ce4bhlp2rcd13ifvqgjg","pricing_plan_id":"cebpf4jnsgd1na2vs0mg"},{"bike_id":"f6f6a71b-b625-4020-bff4-8a83c993b7b7","system_id":"levelo_inurba_marseille","lat":43.31499,"lon":5.37297,"is_reserved":false,"is_disabled":false,"rental_uris":{"android":"levelo://app?vid=f6f6a71b-b625-4020-bff4-8a83c993b7b7","ios":"levelo://app?vid=f6f6a71b-b625-4020-bff4-8a83c993b7b7"},"vehicle_type_id":"4","last_reported":1736953751,"current_range_meters":38800,"station_id":"ce4bgt12rcd13ifvqcd0","pricing_plan_id":"cebpf4jnsgd1na2vs0mg"},{"bike_id":"dea29668-93b7-4c55-909e-1744091ae39d","system_id":"levelo_inurba_marseille","lat":43.29847,"lon":5.36276,"is_reserved":false,"is_disabled":false,"rental_uris":{"android":"levelo://app?vid=dea29668-93b7-4c55-909e-1744091ae39d","ios":"levelo://app?vid=dea29668-93b7-4c55-909e-1744091ae39d"},"vehicle_type_id":"4","last_reported":1736953751,"current_range_meters":38000,"station_id":"ce4bgpp2rcd13ifvqc3g","pricing_plan_id":"cebpf4jnsgd1na2vs0mg"},{"bike_id":"b438a536-2826-455d-89c2-219747efc24e","system_id":"levelo_inurba_marseille","lat":43.27371,"lon":5.36257,"is_reserved":false,"is_disabled":false,"rental_uris":{"android":"levelo://app?vid=b438a536-2826-455d-89c2-219747efc24e","ios":"levelo://app?vid=b438a536-2826-455d-89c2-219747efc24e"},"vehicle_type_id":"4","last_reported":1736953751,"current_range_meters":39200,"station_id":"ce4bhbh2rcd13ifvqeo0","pricing_plan_id":"cebpf4jnsgd1na2vs0mg"},{"bike_id":"6027163c-6e0b-44a2-bfed-3a477a83b455","system_id":"levelo_inurba_marseille","lat":43.31715,"lon":5.3777,"is_reserved":false,"is_disabled":true,"rental_uris":{"android":"levelo://app?vid=6027163c-6e0b-44a2-bfed-3a477a83b455","ios":"levelo://app?vid=6027163c-6e0b-44a2-bfed-3a477a83b455"},"vehicle_type_id":"4","last_reported":1736953751,"current_range_meters":38800,"station_id":"ce4bgth2rcd13ifvqch0","pricing_plan_id":"cebpf4jnsgd1na2vs0mg"},{"bike_id":"8f6f19fc-8b97-4eba-a113-b69f88d74130","system_id":"levelo_inurba_marseille","lat":43.29586,"lon":5.36739,"is_reserved":false,"is_disabled":false,"rental_uris":{"android":"levelo://app?vid=8f6f19fc-8b97-4eba-a113-b69f88d74130","ios":"levelo://app?vid=8f6f19fc-8b97-4eba-a113-b69f88d74130"},"vehicle_type_id":"4","last_reported":1736953751,"current_range_meters":4400,"station_id":"ce4bgph2rcd13ifvqc2g","pricing_plan_id":"cebpf4jnsgd1na2vs0mg"},{"bike_id":"6d7035bc-03fb-481d-bb1e-5df61a4e2711","system_id":"levelo_inurba_marseille","lat":43.25498,"lon":5.37653,"is_reserved":false,"is_disabled":false,"rental_uris":{"android":"levelo://app?vid=6d7035bc-03fb-481d-bb1e-5df61a4e2711","ios":"levelo://app?vid=6d7035bc-03fb-481d-bb1e-5df61a4e2711"},"vehicle_type_id":"4","last_reported":1736953751,"current_range_meters":39200,"station_id":"ce4bhh12rcd13ifvqff0","pricing_plan_id":"cebpf4jnsgd1na2vs0mg"},{"bike_id":"2f583df8-7c5b-472c-a0c7-fb2c4c603593","system_id":"levelo_inurba_marseille","lat":43.29571,"lon":5.42285,"is_reserved":false,"is_disabled":true,"rental_uris":{"android":"levelo://app?vid=2f583df8-7c5b-472c-a0c7-fb2c4c603593","ios":"levelo://app?vid=2f583df8-7c5b-472c-a0c7-fb2c4c603593"},"vehicle_type_id":"4","last_reported":1736953751,"current_range_meters":1200,"station_id":"ce4bhph2rcd13ifvqhdg","pricing_plan_id":"cebpf4jnsgd1na2vs0mg"},{"bike_id":"f78904b4-e0d0-4c47-bf62-4cc95daf3d6f","system_id":"levelo_inurba_marseille","lat":43.28671,"lon":5.36355,"is_reserved":false,"is_disabled":false,"rental_uris":{"android":"levelo://app?vid=f78904b4-e0d0-4c47-bf62-4cc95daf3d6f","ios":"levelo://app?vid=f78904b4-e0d0-4c47-bf62-4cc95daf3d6f"},"vehicle_type_id":"4","last_reported":1736953751,"current_range_meters":38800,"station_id":"ce4bhah2rcd13ifvqej0","pricing_plan_id":"cebpf4jnsgd1na2vs0mg"},{"bike_id":"91cff828-358f-4479-bd0b-d37a4875ff6d","system_id":"levelo_inurba_marseille","lat":43.24659,"lon":5.38161,"is_reserved":false,"is_disabled":false,"rental_uris":{"android":"levelo://app?vid=91cff828-358f-4479-bd0b-d37a4875ff6d","ios":"levelo://app?vid=91cff828-358f-4479-bd0b-d37a4875ff6d"},"vehicle_type_id":"4","last_reported":1736953751,"current_range_meters":30000,"station_id":"ce4bhih2rcd13ifvqfr0","pricing_plan_id":"cebpf4jnsgd1na2vs0mg"},{"bike_id":"88c79ae2-04c1-48da-ae2b-41810cc7f240","system_id":"levelo_inurba_marseille","lat":43.28035,"lon":5.3694,"is_reserved":false,"is_disabled":false,"rental_uris":{"android":"levelo://app?vid=88c79ae2-04c1-48da-ae2b-41810cc7f240","ios":"levelo://app?vid=88c79ae2-04c1-48da-ae2b-41810cc7f240"},"vehicle_type_id":"4","last_reported":1736953751,"current_range_meters":38800,"station_id":"ce4bha12rcd13ifvqef0","pricing_plan_id":"cebpf4jnsgd1na2vs0mg"},{"bike_id":"9ef17802-aec1-4578-b006-50808987e5bc","system_id":"levelo_inurba_marseille","lat":43.31514,"lon":5.37306,"is_reserved":false,"is_disabled":false,"rental_uris":{"android":"levelo://app?vid=9ef17802-aec1-4578-b006-50808987e5bc","ios":"levelo://app?vid=9ef17802-aec1-4578-b006-50808987e5bc"},"vehicle_type_id":"4","last_reported":1736953751,"current_range_meters":38400,"station_id":"ce4bgt12rcd13ifvqcd0","pricing_plan_id":"cebpf4jnsgd1na2vs0mg"},{"bike_id":"cf327ec5-c89a-4747-9b1e-131f3a43889a","system_id":"levelo_inurba_marseille","lat":43.31354,"lon":5.36734,"is_reserved":false,"is_disabled":false,"rental_uris":{"android":"levelo://app?vid=cf327ec5-c89a-4747-9b1e-131f3a43889a","ios":"levelo://app?vid=cf327ec5-c89a-4747-9b1e-131f3a43889a"},"vehicle_type_id":"4","last_reported":1736953751,"current_range_meters":38000,"station_id":"ce4bgr92rcd13ifvqc6g","pricing_plan_id":"cebpf4jnsgd1na2vs0mg"},{"bike_id":"33ca93a8-d9f2-4454-a351-9076dd3a188f","system_id":"levelo_inurba_marseille","lat":43.27813,"lon":5.40709,"is_reserved":false,"is_disabled":false,"rental_uris":{"android":"levelo://app?vid=33ca93a8-d9f2-4454-a351-9076dd3a188f","ios":"levelo://app?vid=33ca93a8-d9f2-4454-a351-9076dd3a188f"},"vehicle_type_id":"4","last_reported":1736953751,"current_range_meters":34800,"station_id":"ce4bhnh2rcd13ifvqgtg","pricing_plan_id":"cebpf4jnsgd1na2vs0mg"},{"bike_id":"c2e58045-89d2-48a0-a8da-2c15cac777fb","system_id":"levelo_inurba_marseille","lat":43.31243,"lon":5.36841,"is_reserved":false,"is_disabled":false,"rental_uris":{"android":"levelo://app?vid=c2e58045-89d2-48a0-a8da-2c15cac777fb","ios":"levelo://app?vid=c2e58045-89d2-48a0-a8da-2c15cac777fb"},"vehicle_type_id":"4","last_reported":1736953751,"current_range_meters":28000,"station_id":"ce4bgl92rcd13ifvqbq0","pricing_plan_id":"cebpf4jnsgd1na2vs0mg"},{"bike_id":"d33460b0-bef1-4950-a319-3914b66916f2","system_id":"levelo_inurba_marseille","lat":43.29033,"lon":5.38648,"is_reserved":false,"is_disabled":false,"rental_uris":{"android":"levelo://app?vid=d33460b0-bef1-4950-a319-3914b66916f2","ios":"levelo://app?vid=d33460b0-bef1-4950-a319-3914b66916f2"},"vehicle_type_id":"4","last_reported":1736953751,"current_range_meters":31200,"station_id":"ce4bh4p2rcd13ifvqe0g","pricing_plan_id":"cebpf4jnsgd1na2vs0mg"},{"bike_id":"69a90f88-c899-401a-86f2-f5942b7ad718","system_id":"levelo_inurba_marseille","lat":43.24179,"lon":5.39728,"is_reserved":false,"is_disabled":true,"rental_uris":{"android":"levelo://app?vid=69a90f88-c899-401a-86f2-f5942b7ad718","ios":"levelo://app?vid=69a90f88-c899-401a-86f2-f5942b7ad718"},"vehicle_type_id":"4","last_reported":1736953751,"current_range_meters":1600,"station_id":"ce4bhn12rcd13ifvqgpg","pricing_plan_id":"cebpf4jnsgd1na2vs0mg"},{"bike_id":"1f628625-b132-46af-a107-7d8bd847985a","system_id":"levelo_inurba_marseille","lat":43.32438,"lon":5.36505,"is_reserved":false,"is_disabled":false,"rental_uris":{"android":"levelo://app?vid=1f628625-b132-46af-a107-7d8bd847985a","ios":"levelo://app?vid=1f628625-b132-46af-a107-7d8bd847985a"},"vehicle_type_id":"4","last_reported":1736953751,"current_range_meters":12800,"station_id":"ce4bhs12rcd13ifvqhvg","pricing_plan_id":"cebpf4jnsgd1na2vs0mg"},