{"last_updated":1702631246,"ttl":30,"version":"2.2","data":{"bikes":[{"bike_id":"a765bfb4-9646-496b-9ed7-99c61f50f108","system_id":"levelo_inurba_marseille","lat":43.313391,"lon":5.36706,"is_reserved":false,"is_disabled":false,"rental_uris":{"android":"levelo://app?vid=a765bfb4-9646-496b-9ed7-99c61f50f108","ios":"levelo://app?vid=a765bfb4-9646-496b-9ed7-99c61f50f108"},"vehicle_type_id":"4","last_reported":1702631246,"current_range_meters":28000,"station_id":"ce4bgr92rcd13ifvqc6g","pricing_plan_id":"free"},{"bike_id":"500b1cc1-06b5-4a49-b594-610cc505f678","system_id":"levelo_inurba_marseille","lat":43.31341,"lon":5.367098,"is_reserved":false,"is_disabled":false,"rental_uris":{"android":"levelo://app?vid=500b1cc1-06b5-4a49-b594-610cc505f678","ios":"levelo://app?vid=500b1cc1-06b5-4a49-b594-610cc505f678"},"vehicle_type_id":"4","last_reported":1702631246,"current_range_meters":31200,"station_id":"ce4bgr92rcd13ifvqc6g","pricing_plan_id":"free"},{"bike_id":"0f1a27b8-8634-4a2a-93c7-46588d883e1f","system_id":"levelo_inurba_marseille","lat":43.313391,"lon":5.36706,"is_reserved":false,"is_disabled":false,"rental_uris":{"android":"levelo://app?vid=0f1a27b8-8634-4a2a-93c7-46588d883e1f","ios":"levelo://app?vid=0f1a27b8-8634-4a2a-93c7-46588d883e1f"},"vehicle_type_id":"4","last_reported":1702631246,"current_range_meters":8400,"station_id":"ce4bgr92rcd13ifvqc6g","pricing_plan_id":"free"},{"bike_id":"4d1dcfbe-1881-41ad-a27c-702008fccaa3","system_id":"levelo_inurba_marseille","lat":43.31341,"lon":5.367098,"is_reserved":false,"is_disabled":false,"rental_uris":{"android":"levelo://app?vid=4d1dcfbe-1881-41ad-a27c-702008fccaa3","ios":"levelo://app?vid=4d1dcfbe-1881-41ad-a27c-702008fccaa3"},"vehicle_type_id":"4","last_reported":1702631246,"current_range_meters":26000,"station_id":"ce4bgr92rcd13ifvqc6g","pricing_plan_id":"free"},{"bike_id":"ed0cc9b9-ef2e-400a-ae2d-91d5657b993a","system_id":"levelo_inurba_marseille","lat":43.31341,"lon":5.367098,"is_reserved":false,"is_disabled":false,"rental_uris":{"android":"levelo://app?vid=ed0cc9b9-ef2e-400a-ae2d-91d5657b993a","ios":"levelo://app?vid=ed0cc9b9-ef2e-400a-ae2d-91d5657b993a"},"vehicle_type_id":"4","last_reported":1702631246,"current_range_meters":14800,"station_id":"ce4bgr92rcd13ifvqc6g","pricing_plan_id":"free"},{"bike_id":"1e4b2a8a-079c-47e6-aed5-2e90b9a3d67e","system_id":"levelo_inurba_marseille","lat":43.313391,"lon":5.36706,"is_reserved":false,"is_disabled":false,"rental_uris":{"android":"levelo://app?vid=1e4b2a8a-079c-47e6-aed5-2e90b9a3d67e","ios":"levelo://app?vid=1e4b2a8a-079c-47e6-aed5-2e90b9a3d67e"},"vehicle_type_id":"4","last_reported":1702631246,"current_range_meters":30800,"station_id":"ce4bgr92rcd13ifvqc6g","pricing_plan_id":"free"},{"bike_id":"ceb6a469-dba4-455c-b68d-e3ae215e36bb","system_id":"levelo_inurba_marseille","lat":43.313391,"lon":5.36706,"is_reserved":false,"is_disabled":false,"rental_uris":{"android":"levelo://app?vid=ceb6a469-dba4-455c-b68d-e3ae215e36bb","ios":"levelo://app?vid=ceb6a469-dba4-455c-b68d-e3ae215e36bb"},"vehicle_type_id":"4","last_reported":1702631246,"current_range_meters":24800,"station_id":"ce4bgr92rcd13ifvqc6g","pricing_plan_id":"free"},{"bike_id":"8bef25e2-ab22-4025-a50c-8f0f6c8031eb","system_id":"levelo_inurba_marseille","lat":43.313391,"lon":5.36706,"is_reserved":false,"is_disabled":false,"rental_uris":{"android":"levelo://app?vid=8bef25e2-ab22-4025-a50c-8f0f6c8031eb","ios":"levelo://app?vid=8bef25e2-ab22-4025-a50c-8f0f6c8031eb"},"vehicle_type_id":"4","last_reported":1702631246,"current_range_meters":31200,"station_id":"ce4bgr92rcd13ifvqc6g","pricing_plan_id":"free"},{"bike_id":"5c8e8237-b843-4079-93d7-1f9c7d03bdc5","system_id":"levelo_inurba_marseille","lat":43.31341,"lon":5.367098,"is_reserved":false,"is_disabled":false,"rental_uris":{"android":"levelo://app?vid=5c8e8237-b843-4079-93d7-1f9c7d03bdc5","ios":"levelo://app?vid=5c8e8237-b843-4079-93d7-1f9c7d03bdc5"},"vehicle_type_id":"4","last_reported":1702631246,"current_range_meters":14400,"station_id":"ce4bgr92rcd13ifvqc6g","pricing_plan_id":"free"},{"bike_id":"d7015638-27cb-427d-85c5-3a2b92f9a31f","system_id":"levelo_inurba_marseille","lat":43.31341,"lon":5.367098,"is_reserved":false,"is_disabled":false,"rental_uris":{"android":"levelo://app?vid=d7015638-27cb-427d-85c5-3a2b92f9a31f","ios":"levelo://app?vid=d7015638-27cb-427d-85c5-3a2b92f9a31f"},"vehicle_type_id":"4","last_reported":1702631246,"current_range_meters":21200,"station_id":"ce4bgr92rcd13ifvqc6g","pricing_plan_id":"free"},{"bike_id":"c87e6ef7-0c44-4991-87f4-1a9e88b746f7","system_id":"levelo_inurba_marseille","lat":43.313391,"lon":5.36706,"is_reserved":false,"is_disabled":false,"rental_uris":{"android":"levelo://app?vid=c87e6ef7-0c44-4991-87f4-1a9e88b746f7","ios":"levelo://app?vid=c87e6ef7-0c44-4991-87f4-1a9e88b746f7"},"vehicle_type_id":"4","last_reported":1702631246,"current_range_meters":23600,"station_id":"ce4bgr92rcd13ifvqc6g","pricing_plan_id":"free"},{"bike_id":"13521fa5-3aad-4070-a625-7cfe291de933","system_id":"levelo_inurba_marseille","lat":43.312239,"lon":5.368562,"is_reserved":false,"is_disabled":false,"rental_uris":{"android":"levelo://app?vid=13521fa5-3aad-4070-a625-7cfe291de933","ios":"levelo://app?vid=13521fa5-3aad-4070-a625-7cfe291de933"},"vehicle_type_id":"4","last_reported":1702631246,"current_range_meters":26000,"station_id":"ce4bgl92rcd13ifvqbq0","pricing_plan_id":"free"},{"bike_id":"f6875752-a95a-4b14-9f64-b96ee45d99c3","system_id":"levelo_inurba_marseille","lat":43.312239,"lon":5.368562,"is_reserved":false,"is_disabled":false,"rental_uris":{"android":"levelo://app?vid=f6875752-a95a-4b14-9f64-b96ee45d99c3","ios":"levelo://app?vid=f6875752-a95a-4b14-9f64-b96ee45d99c3"},"vehicle_type_id":"4","last_reported":1702631246,"current_range_meters":14800,"station_id":"ce4bgl92rcd13ifvqbq0","pricing_plan_id":"free"},{"bike_id":"9d034e94-5ce2-4489-9089-f60171e47899","system_id":"levelo_inurba_marseille","lat":43.309076,"lon":5.368465,"is_reserved":false,"is_disabled":false,"rental_uris":{"android":"levelo://app?vid=9d034e94-5ce2-4489-9089-f60171e47899","ios":"levelo://app?vid=9d034e94-5ce2-4489-9089-f60171e47899"},"vehicle_type_id":"4","last_reported":1702631246,"current_range_meters":23200,"station_id":"ce4bgn92rcd13ifvqbvg","pricing_plan_id":"free"},{"bike_id":"cca0cedc-ddd5-45ff-9b5b-d31c0b645042","system_id":"levelo_inurba_marseille","lat":43.309076,"lon":5.368465,"is_reserved":false,"is_disabled":false,"rental_uris":{"android":"levelo://app?vid=cca0cedc-ddd5-45ff-9b5b-d31c0b645042","ios":"levelo://app?vid=cca0cedc-ddd5-45ff-9b5b-d31c0b645042"},"vehicle_type_id":"4","last_reported":1702631246,"current_range_meters":28000,"station_id":"ce4bgn92rcd13ifvqbvg","pricing_plan_id":"free"},{"bike_id":"3f8b821f-e430-4a35-bf14-f8b6e777ea11","system_id":"levelo_inurba_marseille","lat":43.313939,"lon":5.375306,"is_reserved":false,"is_disabled":false,"rental_uris":{"android":"levelo://app?vid=3f8b821f-e430-4a35-bf14-f8b6e777ea11","ios":"levelo://app?vid=3f8b821f-e430-4a35-bf14-f8b6e777ea11"},"vehicle_type_id":"4","last_reported":1702631246,"current_range_meters":800,"station_id":"","pricing_plan_id":"free"},{"bike_id":"a753d17b-a425-4fc2-b70c-ffb7cfc13771","system_id":"levelo_inurba_marseille","lat":43.305712,"lon":5.365641,"is_reserved":false,"is_disabled":false,"rental_uris":{"android":"levelo://app?vid=a753d17b-a425-4fc2-b70c-ffb7cfc13771","ios":"levelo://app?vid=a753d17b-a425-4fc2-b70c-ffb7cfc13771"},"vehicle_type_id":"4","last_reported":1702631246,"current_range_meters":26400,"station_id":"ce4bgs12rcd13ifvqcag","pricing_plan_id":"free"},{"bike_id":"9a33b5f4-5f6d-4277-9f95-1588f17c277d","system_id":"levelo_inurba_marseille","lat":43.305712,"lon":5.365641,"is_reserved":false,"is_disabled":false,"rental_uris":{"android":"levelo://app?vid=9a33b5f4-5f6d-4277-9f95-1588f17c277d","ios":"levelo://app?vid=9a33b5f4-5f6d-4277-9f95-1588f17c277d"},"vehicle_type_id":"4","last_reported":1702631246,"current_range_meters":24400,"station_id":"ce4bgs12rcd13ifvqcag","pricing_plan_id":"free"},{"bike_id":"602456bc-d701-4de1-a3ca-a55708f38cae","system_id":"levelo_inurba_marseille","lat":43.305468,"lon":5.36702,"is_reserved":false,"is_disabled":false,"rental_uris":{"android":"levelo://app?vid=602456bc-d701-4de1-a3ca-a55708f38cae","ios":"levelo://app?vid=602456bc-d701-4de1-a3ca-a55708f38cae"},"vehicle_type_id":"4","last_reported":1702631246,"current_range_meters":20800,"station_id":"ce4bgrp2rcd13ifvqc9g","pricing_plan_id":"free"},{"bike_id":"157a8f3a-68c6-4c32-aea5-7295b93ec660","system_id":"levelo_inurba_marseille","lat":43.305368,"lon":5.367343,"is_reserved":false,"is_disabled":false,"rental_uris":{"android":"levelo://app?vid=157a8f3a-68c6-4c32-aea5-7295b93ec660","ios":"levelo://app?vid=157a8f3a-68c6-4c32-aea5-7295b93ec660"},"vehicle_type_id":"4","last_reported":1702631246,"current_range_meters":24000,"station_id":"ce4bgrp2rcd13ifvqc9g","pricing_plan_id":"free"},{"bike_id":"dae3d371-2cad-40b1-928f-17d2b34f6615","system_id":"levelo_inurba_marseille","lat":43.30544,"lon":5.36691,"is_reserved":false,"is_disabled":false,"rental_uris":{"android":"levelo://app?vid=dae3d371-2cad-40b1-928f-17d2b34f6615","ios":"levelo://app?vid=dae3d371-2cad-40b1-928f-17d2b34f6615"},"vehicle_type_id":"4","last_reported":1702631246,"current_range_meters":31200,"station_id":"ce4bgrp2rcd13ifvqc9g","pricing_plan_id":"free"},{"bike_id":"203c13d6-1f55-4a80-93d1-b8667e889f0c","system_id":"levelo_inurba_marseille","lat":43.30544,"lon":5.366993,"is_reserved":false,"is_disabled":false,"rental_uris":{"android":"levelo://app?vid=203c13d6-1f55-4a80-93d1-b8667e889f0c","ios":"levelo://app?vid=203c13d6-1f55-4a80-93d1-b8667e889f0c"},"vehicle_type_id":"4","last_reported":1702631246,"current_range_meters":26000,"station_id":"ce4bgrp2rcd13ifvqc9g","pricing_plan_id":"free"},{"bike_id":"7c13521e-4a84-47bd-9a47-41bfa5e48b5a","system_id":"levelo_inurba_marseille","lat":43.305368,"lon":5.367343,"is_reserved":false,"is_disabled":false,"rental_uris":{"android":"levelo://app?vid=7c13521e-4a84-47bd-9a47-41bfa5e48b5a","ios":"levelo://app?vid=7c13521e-4a84-47bd-9a47-41bfa5e48b5a"},"vehicle_type_id":"4","last_reported":1702631246,"current_range_meters":23600,"station_id":"ce4bgrp2rcd13ifvqc9g","pricing_plan_id":"free"},{"bike_id":"0e903464-c6e7-471f-adf3-3367cce0ba5f","system_id":"levelo_inurba_marseille","lat":43.305712,"lon":5.365641,"is_reserved":false,"is_disabled":false,"rental_uris":{"android":"levelo://app?vid=0e903464-c6e7-471f-adf3-3367cce0ba5f","ios":"levelo://app?vid=0e903464-c6e7-471f-adf3-3367cce0ba5f"},"vehicle_type_id":"4","last_reported":1702631246,"current_range_meters":28800,"station_id":"ce4bgs12rcd13ifvqcag","pricing_plan_id":"free"},{"bike_id":"b9a61213-f60b-4899-9f1f-9f5ad9c86497","system_id":"levelo_inurba_marseille","lat":43.305368,"lon":5.367343,"is_reserved":false,"is_disabled":false,"rental_uris":{"android":"levelo://app?vid=b9a61213-f60b-4899-9f1f-9f5ad9c86497","ios":"levelo://app?vid=b9a61213-f60b-4899-9f1f-9f5ad9c86497"},"vehicle_type_id":"4","last_reported":1702631246,"current_range_meters":25200,"station_id":"ce4bgrp2rcd13ifvqc9g","pricing_plan_id":"free"},{"bike_id":"a19fae66-f288-441b-a1e4-bd178918b39b","system_id":"levelo_inurba_marseille","lat":43.305368,"lon":5.367343,"is_reserved":false,"is_disabled":false,"rental_uris":{"android":"levelo://app?vid=a19fae66-f288-441b-a1e4-bd178918b39b","ios":"levelo://app?vid=a19fae66-f288-441b-a1e4-bd178918b39b"},"vehicle_type_id":"4","last_reported":1702631246,"current_range_meters":20400,"station_id":"ce4bgrp2rcd13ifvqc9g","pricing_plan_id":"free"},{"bike_id":"f7acd720-0f92-4ad0-bbfb-358ed8f7e40e","system_id":"levelo_inurba_marseille","lat":43.305368,"lon":5.367343,"is_reserved":false,"is_disabled":false,"rental_uris":{"android":"levelo://app?vid=f7acd720-0f92-4ad0-bbfb-358ed8f7e40e","ios":"levelo://app?vid=f7acd720-0f92-4ad0-bbfb-358ed8f7e40e"},"vehicle_type_id":"4","last_reported":1702631246,"current_range_meters":23600,"station_id":"ce4bgrp2rcd13ifvqc9g","pricing_plan_id":"free"},{"bike_id":"763c8f79-5050-4eec-a47e-bf27cca6bdb3","system_id":"levelo_inurba_marseille","lat":43.305368,"lon":5.367343,"is_reserved":false,"is_disabled":false,"rental_uris":{"android":"levelo://app?vid=763c8f79-5050-4eec-a47e-bf27cca6bdb3","ios":"levelo://app?vid=763c8f79-5050-4eec-a47e-bf27cca6bdb3"},"vehicle_type_id":"4","last_reported":1702631246,"current_range_meters":25200,"station_id":"ce4bgrp2rcd13ifvqc9g","pricing_plan_id":"free"},{"bike_id":"18a9f65f-e97c-40ee-bcc3-1b1c7dd5dd34","system_id":"levelo_inurba_marseille","lat":43.305714,"lon":5.365633,"is_reserved":false,"is_disabled":false,"rental_uris":{"android":"levelo://app?vid=18a9f65f-e97c-40ee-bcc3-1b1c7dd5dd34","ios":"levelo://app?vid=18a9f65f-e97c-40ee-bcc3-1b1c7dd5dd34"},"vehicle_type_id":"4","last_reported":1702631246,"current_range_meters":31200,"station_id":"ce4bgs12rcd13ifvqcag","pricing_plan_id":"free"},{"bike_id":"7906156c-2e10-4a64-b1a7-2d364211b918","system_id":"levelo_inurba_marseille","lat":43.305368,"lon":5.367343,"is_reserved":false,"is_disabled":false,"rental_uris":{"android":"levelo://app?vid=7906156c-2e10-4a64-b1a7-2d364211b918","ios":"levelo://app?vid=7906156c-2e10-4a64-b1a7-2d364211b918"},"vehicle_type_id":"4","last_reported":1702631246,"current_range_meters":29200,"station_id":"ce4bgrp2rcd13ifvqc9g","pricing_plan_id":"free"},{"bike_id":"14e93773-de84-4db5-b826-dff4c80b188c","system_id":"levelo_inurba_marseille","lat":43.305368,"lon":5.367343,"is_reserved":false,"is_disabled":false,"rental_uris":{"android":"levelo://app?vid=14e93773-de84-4db5-b826-dff4c80b188c","ios":"levelo://app?vid=14e93773-de84-4db5-b826-dff4c80b188c"},"vehicle_type_id":"4","last_reported":1702631246,"current_range_meters":20000,"station_id":"ce4bgrp2rcd13ifvqc9g","pricing_plan_id":"free"},{"bike_id":"955e4ab2-16e5-44e8-a986-a2f50ff96c06","system_id":"levelo_inurba_marseille","lat":43.305382,"lon":5.365389,"is_reserved":false,"is_disabled":false,"rental_uris":{"android":"levelo://app?vid=955e4ab2-16e5-44e8-a986-a2f50ff96c06","ios":"levelo://app?vid=955e4ab2-16e5-44e8-a986-a2f50ff96c06"},"vehicle_type_id":"4","last_reported":1702631246,"current_range_meters":20000,"station_id":"","pricing_plan_id":"free"},{"bike_id":"55285a82-d434-477f-8efb-68044e144c3a","system_id":"levelo_inurba_marseille","lat":43.305368,"lon":5.367343,"is_reserved":false,"is_disabled":false,"rental_uris":{"android":"levelo://app?vid=55285a82-d434-477f-8efb-68044e144c3a","ios":"levelo://app?vid=55285a82-d434-477f-8efb-68044e144c3a"},"vehicle_type_id":"4","last_reported":1702631246,"current_range_meters":29200,"station_id":"ce4bgrp2rcd13ifvqc9g","pricing_plan_id":"free"},{"bike_id":"23a76755-2585-4c93-a187-d2ff6c53cfb4","system_id":"levelo_inurba_marseille","lat":43.305706,"lon":5.365654,"is_reserved":false,"is_disabled":false,"rental_uris":{"android":"levelo://app?vid=23a76755-2585-4c93-a187-d2ff6c53cfb4","ios":"levelo://app?vid=23a76755-2585-4c93-a187-d2ff6c53cfb4"},"vehicle_type_id":"4","last_reported":1702631246,"current_range_meters":7200,"station_id":"ce4bgs12rcd13ifvqcag","pricing_plan_id":"free"},{"bike_id":"aacfe432-6ac6-4f6e-9473-0a63d1707f5c","system_id":"levelo_inurba_marseille","lat":43.305706,"lon":5.365654,"is_reserved":false,"is_disabled":false,"rental_uris":{"android":"levelo://app?vid=aacfe432-6ac6-4f6e-9473-0a63d1707f5c","ios":"levelo://app?vid=aacfe432-6ac6-4f6e-9473-0a63d1707f5c"},"vehicle_type_id":"4","last_reported":1702631246,"current_range_meters":2800,"station_id":"ce4bgs12rcd13ifvqcag","pricing_plan_id":"free"},{"bike_id":"ea90133d-bf35-4e95-bb67-746ac9b8d0d3","system_id":"levelo_inurba_marseille","lat":43.305706,"lon":5.365654,"is_reserved":false,"is_disabled":false,"rental_uris":{"android":"levelo://app?vid=ea90133d-bf35-4e95-bb67-746ac9b8d0d3","ios":"levelo://app?vid=ea90133d-bf35-4e95-bb67-746ac9b8d0d3"},"vehicle_type_id":"4","last_reported":1702631246,"current_range_meters":28000,"station_id":"ce4bgs12rcd13ifvqcag","pricing_plan_id":"free"},{"bike_id":"95c5359e-f913-40bc-92c0-3ea7c91e9cf3","system_id":"levelo_inurba_marseille","lat":43.305706,"lon":5.365654,"is_reserved":false,"is_disabled":false,"rental_uris":{"android":"levelo://app?vid=95c5359e-f913-40bc-92c0-3ea7c91e9cf3","ios":"levelo://app?vid=95c5359e-f913-40bc-92c0-3ea7c91e9cf3"},"vehicle_type_id":"4","last_reported":1702631246,"current_range_meters":31200,"station_id":"ce4bgs12rcd13ifvqcag","pricing_plan_id":"free"},{"bike_id":"86c1c387-fe6d-48e8-8246-48bd8bf7e431","system_id":"levelo_inurba_marseille","lat":43.305159,"lon":5.367023,"is_reserved":false,"is_disabled":false,"rental_uris":{"android":"levelo://app?vid=86c1c387-fe6d-48e8-8246-48bd8bf7e431","ios":"levelo://app?vid=86c1c387-fe6d-48e8-8246-48bd8bf7e431"},"vehicle_type_id":"4","last_reported":1702631246,"current_range_meters":9600,"station_id":"ce4bgrp2rcd13ifvqc9g","pricing_plan_id":"free"},{"bike_id":"849fab02-223a-4d26-92fd-f795dd17f26c","system_id":"levelo_inurba_marseille","lat":43.307945,"lon":5.376487,"is_reserved":false,"is_disabled":false,"rental_uris":{"android":"levelo://app?vid=849fab02-223a-4d26-92fd-f795dd17f26c","ios":"levelo://app?vid=849fab02-223a-4d26-92fd-f795dd17f26c"},"vehicle_type_id":"4","last_reported":1702631246,"current_range_meters":30400,"station_id":"ce4bgv92rcd13ifvqcq0","pricing_plan_id":"free"},{"bike_id":"15b2bdf1-d309-4f1e-9b52-c1331086db5f","system_id":"levelo_inurba_marseille","lat":43.317075,"lon":5.377367,"is_reserved":false,"is_disabled":false,"rental_uris":{"android":"levelo://app?vid=15b2bdf1-d309-4f1e-9b52-c1331086db5f","ios":"levelo://app?vid=15b2bdf1-d309-4f1e-9b52-c1331086db5f"},"vehicle_type_id":"4","last_reported":1702631246,"current_range_meters":16000,"station_id":"ce4bgth2rcd13ifvqch0","pricing_plan_id":"free"},{"bike_id":"902f7443-fcd1-4444-843e-ab16fa200580","system_id":"levelo_inurba_marseille","lat":43.317075,"lon":5.377367,"is_reserved":false,"is_disabled":false,"rental_uris":{"android":"levelo://app?vid=902f7443-fcd1-4444-843e-ab16fa200580","ios":"levelo://app?vid=902f7443-fcd1-4444-843e-ab16fa200580"},"vehicle_type_id":"4","last_reported":1702631246,"current_range_meters":24000,"station_id":"ce4bgth2rcd13ifvqch0","pricing_plan_id":"free"},{"bike_id":"fd290d82-ad28-4014-aca0-32a85e112a9f","system_id":"levelo_inurba_marseille","lat":43.30304,"lon":5.368987,"is_reserved":false,"is_disabled":false,"rental_uris":{"android":"levelo://app?vid=fd290d82-ad28-4014-aca0-32a85e112a9f","ios":"levelo://app?vid=fd290d82-ad28-4014-aca0-32a85e112a9f"},"vehicle_type_id":"4","last_reported":1702631246,"current_range_meters":27200,"station_id":"ce4bgqh2rcd13ifvqc5g","pricing_plan_id":"free"},{"bike_id":"dead9712-8f60-475b-8b2c-c1610664f5c7","system_id":"levelo_inurba_marseille","lat":43.303046,"lon":5.368981,"is_reserved":false,"is_disabled":false,"rental_uris":{"android":"levelo://app?vid=dead9712-8f60-475b-8b2c-c1610664f5c7","ios":"levelo://app?vid=dead9712-8f60-475b-8b2c-c1610664f5c7"},"vehicle_type_id":"4","last_reported":1702631246,"current_range_meters":30000,"station_id":"ce4bgqh2rcd13ifvqc5g","pricing_plan_id":"free"},{"bike_id":"13f233f4-5826-48a4-95d1-b962596e957a","system_id":"levelo_inurba_marseille","lat":43.308012,"lon":5.381511,"is_reserved":false,"is_disabled":false,"rental_uris":{"android":"levelo://app?vid=13f233f4-5826-48a4-95d1-b962596e957a","ios":"levelo://app?vid=13f233f4-5826-48a4-95d1-b962596e957a"},"vehicle_type_id":"4","last_reported":1702631246,"current_range_meters":20000,"station_id":"ce4bgt12rcd13ifvqce0","pricing_plan_id":"free"},{"bike_id":"d459d376-50f6-4744-ab46-b73113d3d60c","system_id":"levelo_inurba_marseille","lat":43.302784,"lon":5.377158,"is_reserved":false,"is_disabled":false,"rental_uris":{"android":"levelo://app?vid=d459d376-50f6-4744-ab46-b73113d3d60c","ios":"levelo://app?vid=d459d376-50f6-4744-ab46-b73113d3d60c"},"vehicle_type_id":"4","last_reported":1702631246,"current_range_meters":31200,"station_id":"ce4bguh2rcd13ifvqcj0","pricing_plan_id":"free"},{"bike_id":"efe4d24a-3c79-4456-8cf5-28f44dfd4210","system_id":"levelo_inurba_marseille","lat":43.302784,"lon":5.377158,"is_reserved":false,"is_disabled":false,"rental_uris":{"android":"levelo://app?vid=efe4d24a-3c79-4456-8cf5-28f44dfd4210","ios":"levelo://app?vid=efe4d24a-3c79-4456-8cf5-28f44dfd4210"},"vehicle_type_id":"4","last_reported":1702631246,"current_range_meters":19600,"station_id":"ce4bguh2rcd13ifvqcj0","pricing_plan_id":"free"},{"bike_id":"4593980f-e4e6-4719-abec-7c6e2c9dc076","system_id":"levelo_inurba_marseille","lat":43.302784,"lon":5.377158,"is_reserved":false,"is_disabled":false,"rental_uris":{"android":"levelo://app?vid=4593980f-e4e6-4719-abec-7c6e2c9dc076","ios":"levelo://app?vid=4593980f-e4e6-4719-abec-7c6e2c9dc076"},"vehicle_type_id":"4","last_reported":1702631246,"current_range_meters":28000,"station_id":"ce4bguh2rcd13ifvqcj0","pricing_plan_id":"free"},{"bike_id":"635fc45a-141d-4ff1-b1a7-a64f43fb7beb","system_id":"levelo_inurba_marseille","lat":43.302784,"lon":5.377158,"is_reserved":false,"is_disabled":false,"rental_uris":{"android":"levelo://app?vid=635fc45a-141d-4ff1-b1a7-a64f43fb7beb","ios":"levelo://app?vid=635fc45a-141d-4ff1-b1a7-a64f43fb7beb"},"vehicle_type_id":"4","last_reported":1702631246,"current_range_meters":26000,"station_id":"ce4bguh2rcd13ifvqcj0","pricing_plan_id":"free"},{"bike_id":"d82a233c-ae8d-4ce3-ad27-d1c11dc19c1e","system_id":"levelo_inurba_marseille","lat":43.30146,"lon":5.37418,"is_reserved":false,"is_disabled":false,"rental_uris":{"android":"levelo://app?vid=d82a233c-ae8d-4ce3-ad27-d1c11dc19c1e","ios":"levelo://app?vid=d82a233c-ae8d-4ce3-ad27-d1c11dc19c1e"},"vehicle_type_id":"4","last_reported":1702631246,"current_range_meters":16000,"station_id":"ce4bgs92rcd13ifvqcc0","pricing_plan_id":"free"},{"bike_id":"2ea779fb-8494-49b7-82a9-bb0949e66430","system_id":"levelo_inurba_marseille","lat":43.30143,"lon":5.37413,"is_reserved":false,"is_disabled":false,"rental_uris":{"android":"levelo://app?vid=2ea779fb-8494-49b7-82a9-bb0949e66430","ios":"levelo://app?vid=2ea779fb-8494-49b7-82a9-bb0949e66430"},"vehicle_type_id":"4","last_reported":1702631246,"current_range_meters":16000,"station_id":"ce4bgs92rcd13ifvqcc0","pricing_plan_id":"free"},{"bike_id":"32a87be1-0e89-4500-b277-365104472c84","system_id":"levelo_inurba_marseille","lat":43.30143,"lon":5.37413,"is_reserved":false,"is_disabled":false,"rental_uris":{"android":"levelo://app?vid=32a87be1-0e89-4500-b277-365104472c84","ios":"levelo://app?vid=32a87be1-0e89-4500-b277-365104472c84"},"vehicle_type_id":"4","last_reported":1702631246,"current_range_meters":22000,"station_id":"ce4bgs92rcd13ifvqcc0","pricing_plan_id":"free"},{"bike_id":"59dc5dd1-a724-4f34-acf9-17eff8213f3c","system_id":"levelo_inurba_marseille","lat":43.30132,"lon":5.37424,"is_reserved":false,"is_disabled":false,"rental_uris":{"android":"levelo://app?vid=59dc5dd1-a724-4f34-acf9-17eff8213f3c","ios":"levelo://app?vid=59dc5dd1-a724-4f34-acf9-17eff8213f3c"},"vehicle_type_id":"4","last_reported":1702631246,"current_range_meters":30800,"station_id":"ce4bgs92rcd13ifvqcc0","pricing_plan_id":"free"},{"bike_id":"fdcd74e0-5fce-436e-805d-ade6ef010660","system_id":"levelo_inurba_marseille","lat":43.319935,"lon":5.381699,"is_reserved":false,"is_disabled":false,"rental_uris":{"android":"levelo://app?vid=fdcd74e0-5fce-436e-805d-ade6ef010660","ios":"levelo://app?vid=fdcd74e0-5fce-436e-805d-ade6ef010660"},"vehicle_type_id":"4","last_reported":1702631246,"current_range_meters":0,"station_id":"ce4bhr12rcd13ifvqhpg","pricing_plan_id":"free"},{"bike_id":"cded156d-0bbf-4944-bb53-3c38606e3b0c","system_id":"levelo_inurba_marseille","lat":43.313571,"lon":5.384829,"is_reserved":false,"is_disabled":false,"rental_uris":{"android":"levelo://app?vid=cded156d-0bbf-4944-bb53-3c38606e3b0c","ios":"levelo://app?vid=cded156d-0bbf-4944-bb53-3c38606e3b0c"},"vehicle_type_id":"4","last_reported":1702631246,"current_range_meters":19600,"station_id":"ce4bgt92rcd13ifvqcf0","pricing_plan_id":"free"},{"bike_id":"2bf0d8d7-66b3-4f1d-a417-3cc1b12a7674","system_id":"levelo_inurba_marseille","lat":43.313571,"lon":5.384829,"is_reserved":false,"is_disabled":false,"rental_uris":{"android":"levelo://app?vid=2bf0d8d7-66b3-4f1d-a417-3cc1b12a7674","ios":"levelo://app?vid=2bf0d8d7-66b3-4f1d-a417-3cc1b12a7674"},"vehicle_type_id":"4","last_reported":1702631246,"current_range_meters":13600,"station_id":"ce4bgt92rcd13ifvqcf0","pricing_plan_id":"free"},{"bike_id":"c262d557-d265-471d-990c-f060bf0b69b5","system_id":"levelo_inurba_marseille","lat":43.299724,"lon":5.371829,"is_reserved":false,"is_disabled":false,"rental_uris":{"android":"levelo://app?vid=c262d557-d265-471d-990c-f060bf0b69b5","ios":"levelo://app?vid=c262d557-d265-471d-990c-f060bf0b69b5"},"vehicle_type_id":"4","last_reported":1702631246,"current_range_meters":16800,"station_id":"ce4bgr92rcd13ifvqc7g","pricing_plan_id":"free"},{"bike_id":"a5b79dcb-cc45-4bbc-be65-cc042fad8999","system_id":"levelo_inurba_marseille","lat":43.305364,"lon":5.384119,"is_reserved":false,"is_disabled":false,"rental_uris":{"android":"levelo://app?vid=a5b79dcb-cc45-4bbc-be65-cc042fad8999","ios":"levelo://app?vid=a5b79dcb-cc45-4bbc-be65-cc042fad8999"},"vehicle_type_id":"4","last_reported":1702631246,"current_range_meters":12400,"station_id":"ce4bgg92rcd13ifvqb30","pricing_plan_id":"free"},{"bike_id":"e5ab0212-1b3e-40b5-a5e8-ef4be0bdaff2","system_id":"levelo_inurba_marseille","lat":43.298433,"lon":5.362774,"is_reserved":false,"is_disabled":false,"rental_uris":{"android":"levelo://app?vid=e5ab0212-1b3e-40b5-a5e8-ef4be0bdaff2","ios":"levelo://app?vid=e5ab0212-1b3e-40b5-a5e8-ef4be0bdaff2"},"vehicle_type_id":"4","last_reported":1702631246,"current_range_meters":27600,"station_id":"ce4bgpp2rcd13ifvqc3g","pricing_plan_id":"free"},{"bike_id":"685f8c56-0aa4-45b2-acce-9559152e9e92","system_id":"levelo_inurba_marseille","lat":43.298433,"lon":5.362774,"is_reserved":false,"is_disabled":false,"rental_uris":{"android":"levelo://app?vid=685f8c56-0aa4-45b2-acce-9559152e9e92","ios":"levelo://app?vid=685f8c56-0aa4-45b2-acce-9559152e9e92"},"vehicle_type_id":"4","last_reported":1702631246,"current_range_meters":29600,"station_id":"ce4bgpp2rcd13ifvqc3g","pricing_plan_id":"free"},{"bike_id":"e8416776-5809-4d8d-8244-11dbee1b6cd2","system_id":"levelo_inurba_marseille","lat":43.299097,"lon":5.374513,"is_reserved":false,"is_disabled":false,"rental_uris":{"android":"levelo://app?vid=e8416776-5809-4d8d-8244-11dbee1b6cd2","ios":"levelo://app?vid=e8416776-5809-4d8d-8244-11dbee1b6cd2"},"vehicle_type_id":"4","last_reported":1702631246,"current_range_meters":25600,"station_id":"ce4bgjh2rcd13ifvqbg0","pricing_plan_id":"free"},{"bike_id":"746b9755-5531-4aec-a2e8-f94fcf2d70e6","system_id":"levelo_inurba_marseille","lat":43.297794,"lon":5.370888,"is_reserved":false,"is_disabled":false,"rental_uris":{"android":"levelo://app?vid=746b9755-5531-4aec-a2e8-f94fcf2d70e6","ios":"levelo://app?vid=746b9755-5531-4aec-a2e8-f94fcf2d70e6"},"vehicle_type_id":"4","last_reported":1702631246,"current_range_meters":13600,"station_id":"ce4bgop2rcd13ifvqc1g","pricing_plan_id":"free"},{"bike_id":"0eea8a30-88a6-46e7-9a8c-2c6a74a10c02","system_id":"levelo_inurba_marseille","lat":43.32331,"lon":5.38213,"is_reserved":false,"is_disabled":false,"rental_uris":{"android":"levelo://app?vid=0eea8a30-88a6-46e7-9a8c-2c6a74a10c02","ios":"levelo://app?vid=0eea8a30-88a6-46e7-9a8c-2c6a74a10c02"},"vehicle_type_id":"4","last_reported":1702631246,"current_range_meters":1200,"station_id":"","pricing_plan_id":"free"},{"bike_id":"964d1280-699f-4f8b-beb1-52842bf2c3ab","system_id":"levelo_inurba_marseille","lat":43.31554,"lon":5.38765,"is_reserved":false,"is_disabled":false,"rental_uris":{"android":"levelo://app?vid=964d1280-699f-4f8b-beb1-52842bf2c3ab","ios":"levelo://app?vid=964d1280-699f-4f8b-beb1-52842bf2c3ab"},"vehicle_type_id":"4","last_reported":1702631246,"current_range_meters":30400,"station_id":"","pricing_plan_id":"free"},{"bike_id":"5f302f6a-03df-42c2-8c78-ac7d54cd75e3","system_id":"levelo_inurba_marseille","lat":43.328371,"lon":5.366912,"is_reserved":false,"is_disabled":false,"rental_uris":{"android":"levelo://app?vid=5f302f6a-03df-42c2-8c78-ac7d54cd75e3","ios":"levelo://app?vid=5f302f6a-03df-42c2-8c78-ac7d54cd75e3"},"vehicle_type_id":"4","last_reported":1702631246,"current_range_meters":20800,"station_id":"ce4bhs92rcd13ifvqi0g","pricing_plan_id":"free"},{"bike_id":"14bb1dad-6fd8-4313-bf83-1f9823d5c0bc","system_id":"levelo_inurba_marseille","lat":43.297163,"lon":5.365866,"is_reserved":false,"is_disabled":false,"rental_uris":{"android":"levelo://app?vid=14bb1dad-6fd8-4313-bf83-1f9823d5c0bc","ios":"levelo://app?vid=14bb1dad-6fd8-4313-bf83-1f9823d5c0bc"},"vehicle_type_id":"4","last_reported":1702631246,"current_range_meters":12800,"station_id":"ce4bgn12rcd13ifvqbt0","pricing_plan_id":"free"},{"bike_id":"0a4a254a-9b54-4cdd-9686-312882873d3c","system_id":"levelo_inurba_marseille","lat":43.296131,"lon":5.370791,"is_reserved":false,"is_disabled":false,"rental_uris":{"android":"levelo://app?vid=0a4a254a-9b54-4cdd-9686-312882873d3c","ios":"levelo://app?vid=0a4a254a-9b54-4cdd-9686-312882873d3c"},"vehicle_type_id":"4","last_reported":1702631246,"current_range_meters":11600,"station_id":"ce4bgnh2rcd13ifvqc0g","pricing_plan_id":"free"},{"bike_id":"1b11e655-3ede-4537-a2c3-9ba60c2b25a3","system_id":"levelo_inurba_marseille","lat":43.29584,"lon":5.36748,"is_reserved":false,"is_disabled":false,"rental_uris":{"android":"levelo://app?vid=1b11e655-3ede-4537-a2c3-9ba60c2b25a3","ios":"levelo://app?vid=1b11e655-3ede-4537-a2c3-9ba60c2b25a3"},"vehicle_type_id":"4","last_reported":1702631246,"current_range_meters":19200,"station_id":"ce4bgph2rcd13ifvqc2g","pricing_plan_id":"free"},{"bike_id":"c1bbecf8-64ec-48a7-a04b-714748ebf783","system_id":"levelo_inurba_marseille","lat":43.309589,"lon":5.390258,"is_reserved":false,"is_disabled":false,"rental_uris":{"android":"levelo://app?vid=c1bbecf8-64ec-48a7-a04b-714748ebf783","ios":"levelo://app?vid=c1bbecf8-64ec-48a7-a04b-714748ebf783"},"vehicle_type_id":"4","last_reported":1702631246,"current_range_meters":29200,"station_id":"ce4bgup2rcd13ifvqco0","pricing_plan_id":"free"},{"bike_id":"a59c0897-40ce-44cf-98ea-0390e7f305f8","system_id":"levelo_inurba_marseille","lat":43.317557,"lon":5.390173,"is_reserved":false,"is_disabled":false,"rental_uris":{"android":"levelo://app?vid=a59c0897-40ce-44cf-98ea-0390e7f305f8","ios":"levelo://app?vid=a59c0897-40ce-44cf-98ea-0390e7f305f8"},"vehicle_type_id":"4","last_reported":1702631246,"current_range_meters":24400,"station_id":"ce4bhqp2rcd13ifvqhng","pricing_plan_id":"free"},{"bike_id":"2abd8184-cd87-4b4f-809b-fcf59deaf2a7","system_id":"levelo_inurba_marseille","lat":43.317557,"lon":5.390173,"is_reserved":false,"is_disabled":false,"rental_uris":{"android":"levelo://app?vid=2abd8184-cd87-4b4f-809b-fcf59deaf2a7","ios":"levelo://app?vid=2abd8184-cd87-4b4f-809b-fcf59deaf2a7"},"vehicle_type_id":"4","last_reported":1702631246,"current_range_meters":25200,"station_id":"ce4bhqp2rcd13ifvqhng","pricing_plan_id":"free"},{"bike_id":"2886aeaf-da58-45cc-beac-3af97e723dee","system_id":"levelo_inurba_marseille","lat":43.296277,"lon":5.377108,"is_reserved":false,"is_disabled":false,"rental_uris":{"android":"levelo://app?vid=2886aeaf-da58-45cc-beac-3af97e723dee","ios":"levelo://app?vid=2886aeaf-da58-45cc-beac-3af97e723dee"},"vehicle_type_id":"4","last_reported":1702631246,"current_range_meters":0,"station_id":"ce4bgi92rcd13ifvqb90","pricing_plan_id":"free"},{"bike_id":"e651e6b6-1cd9-4940-b96f-07f224dee121","system_id":"levelo_inurba_marseille","lat":43.295279,"lon":5.375048,"is_reserved":false,"is_disabled":false,"rental_uris":{"android":"levelo://app?vid=e651e6b6-1cd9-4940-b96f-07f224dee121","ios":"levelo://app?vid=e651e6b6-1cd9-4940-b96f-07f224dee121"},"vehicle_type_id":"4","last_reported":1702631246,"current_range_meters":18800,"station_id":"ce4bgkp2rcd13ifvqbmg","pricing_plan_id":"free"},{"bike_id":"298ebd5a-0299-4d1f-88cf-325b9cf61e26","system_id":"levelo_inurba_marseille","lat":43.32367,"lon":5.388836,"is_reserved":false,"is_disabled":false,"rental_uris":{"android":"levelo://app?vid=298ebd5a-0299-4d1f-88cf-325b9cf61e26","ios":"levelo://app?vid=298ebd5a-0299-4d1f-88cf-325b9cf61e26"},"vehicle_type_id":"4","last_reported":1702631246,"current_range_meters":5200,"station_id":"ce4bhqp2rcd13ifvqhog","pricing_plan_id":"free"},{"bike_id":"060896a5-0b19-4c1a-b513-93239fdf6290","system_id":"levelo_inurba_marseille","lat":43.29601,"lon":5.381084,"is_reserved":false,"is_disabled":false,"rental_uris":{"android":"levelo://app?vid=060896a5-0b19-4c1a-b513-93239fdf6290","ios":"levelo://app?vid=060896a5-0b19-4c1a-b513-93239fdf6290"},"vehicle_type_id":"4","last_reported":1702631246,"current_range_meters":19200,"station_id":"ce4bgl12rcd13ifvqbo0","pricing_plan_id":"free"},{"bike_id":"e82f72cf-082b-4c22-9586-f6f782a50607","system_id":"levelo_inurba_marseille","lat":43.293259,"lon":5.371586,"is_reserved":false,"is_disabled":false,"rental_uris":{"android":"levelo://app?vid=e82f72cf-082b-4c22-9586-f6f782a50607","ios":"levelo://app?vid=e82f72cf-082b-4c22-9586-f6f782a50607"},"vehicle_type_id":"4","last_reported":1702631246,"current_range_meters":30400,"station_id":"ce4bgh92rcd13ifvqb40","pricing_plan_id":"free"},{"bike_id":"013b2b04-e49d-4638-a1e3-a7cea400205d","system_id":"levelo_inurba_marseille","lat":43.293009,"lon":5.374584,"is_reserved":false,"is_disabled":false,"rental_uris":{"android":"levelo://app?vid=013b2b04-e49d-4638-a1e3-a7cea400205d","ios":"levelo://app?vid=013b2b04-e49d-4638-a1e3-a7cea400205d"},"vehicle_type_id":"4","last_reported":1702631246,"current_range_meters":27200,"station_id":"ce4bgi12rcd13ifvqb70","pricing_plan_id":"free"},{"bike_id":"3b0d6d04-63d3-43af-a4d0-6e811165b9a8","system_id":"levelo_inurba_marseille","lat":43.2936,"lon":5.37835,"is_reserved":false,"is_disabled":false,"rental_uris":{"android":"levelo://app?vid=3b0d6d04-63d3-43af-a4d0-6e811165b9a8","ios":"levelo://app?vid=3b0d6d04-63d3-43af-a4d0-6e811165b9a8"},"vehicle_type_id":"4","last_reported":1702631246,"current_range_meters":29600,"station_id":"ce4bgjh2rcd13ifvqbf0","pricing_plan_id":"free"},{"bike_id":"be3652a3-c222-4515-a0f9-ae84c1d96ffa","system_id":"levelo_inurba_marseille","lat":43.2936,"lon":5.37835,"is_reserved":false,"is_disabled":false,"rental_uris":{"android":"levelo://app?vid=be3652a3-c222-4515-a0f9-ae84c1d96ffa","ios":"levelo://app?vid=be3652a3-c222-4515-a0f9-ae84c1d96ffa"},"vehicle_type_id":"4","last_reported":1702631246,"current_range_meters":18000,"station_id":"ce4bgjh2rcd13ifvqbf0","pricing_plan_id":"free"},{"bike_id":"3e85b98f-4ec7-44a6-a0c5-ac25f873c94a","system_id":"levelo_inurba_marseille","lat":43.303002,"lon":5.392142,"is_reserved":false,"is_disabled":false,"rental_uris":{"android":"levelo://app?vid=3e85b98f-4ec7-44a6-a0c5-ac25f873c94a","ios":"levelo://app?vid=3e85b98f-4ec7-44a6-a0c5-ac25f873c94a"},"vehicle_type_id":"4","last_reported":1702631246,"current_range_meters":26800,"station_id":"ce4bgkh2rcd13ifvqbk0","pricing_plan_id":"free"},{"bike_id":"0c835c75-0404-4c83-af5e-d5e9d3ac7f63","system_id":"levelo_inurba_marseille","lat":43.2936,"lon":5.37835,"is_reserved":false,"is_disabled":false,"rental_uris":{"android":"levelo://app?vid=0c835c75-0404-4c83-af5e-d5e9d3ac7f63","ios":"levelo://app?vid=0c835c75-0404-4c83-af5e-d5e9d3ac7f63"},"vehicle_type_id":"4","last_reported":1702631246,"current_range_meters":16000,"station_id":"ce4bgjh2rcd13ifvqbf0","pricing_plan_id":"free"},{"bike_id":"132d53da-2afd-4002-9141-884b7c439933","system_id":"levelo_inurba_marseille","lat":43.292311,"lon":5.360731,"is_reserved":false,"is_disabled":false,"rental_uris":{"android":"levelo://app?vid=132d53da-2afd-4002-9141-884b7c439933","ios":"levelo://app?vid=132d53da-2afd-4002-9141-884b7c439933"},"vehicle_type_id":"4","last_reported":1702631246,"current_range_meters":5600,"station_id":"ce4bhbh2rcd13ifvqeqg","pricing_plan_id":"free"},{"bike_id":"1993619f-1de2-4be2-99fd-2f9d0d6cc4e6","system_id":"levelo_inurba_marseille","lat":43.2936,"lon":5.37835,"is_reserved":false,"is_disabled":false,"rental_uris":{"android":"levelo://app?vid=1993619f-1de2-4be2-99fd-2f9d0d6cc4e6","ios":"levelo://app?vid=1993619f-1de2-4be2-99fd-2f9d0d6cc4e6"},"vehicle_type_id":"4","last_reported":1702631246,"current_range_meters":27200,"station_id":"ce4bgjh2rcd13ifvqbf0","pricing_plan_id":"free"},{"bike_id":"3891e881-4f5f-4156-bb66-db65171964c4","system_id":"levelo_inurba_marseille","lat":43.292311,"lon":5.360731,"is_reserved":false,"is_disabled":false,"rental_uris":{"android":"levelo://app?vid=3891e881-4f5f-4156-bb66-db65171964c4","ios":"levelo://app?vid=3891e881-4f5f-4156-bb66-db65171964c4"},"vehicle_type_id":"4","last_reported":1702631246,"current_range_meters":28400,"station_id":"ce4bhbh2rcd13ifvqeqg","pricing_plan_id":"free"},{"bike_id":"54bc59df-ac4e-4fd3-b1a7-6c729d40cb49","system_id":"levelo_inurba_marseille","lat":43.292311,"lon":5.360731,"is_reserved":false,"is_disabled":false,"rental_uris":{"android":"levelo://app?vid=54bc59df-ac4e-4fd3-b1a7-6c729d40cb49","ios":"levelo://app?vid=54bc59df-ac4e-4fd3-b1a7-6c729d40cb49"},"vehicle_type_id":"4","last_reported":1702631246,"current_range_meters":22800,"station_id":"ce4bhbh2rcd13ifvqeqg","pricing_plan_id":"free"},{"bike_id":"901bc6b2-15b6-4799-8d85-3494f318205b","system_id":"levelo_inurba_marseille","lat":43.30085,"lon":5.390856,"is_reserved":false,"is_disabled":false,"rental_uris":{"android":"levelo://app?vid=901bc6b2-15b6-4799-8d85-3494f318205b","ios":"levelo://app?vid=901bc6b2-15b6-4799-8d85-3494f318205b"},"vehicle_type_id":"4","last_reported":1702631246,"current_range_meters":26800,"station_id":"ce4bh192rcd13ifvqdb0","pricing_plan_id":"free"},{"bike_id":"6bef3136-25ed-4e13-954c-d7219e9dc03b","system_id":"levelo_inurba_marseille","lat":43.292311,"lon":5.360731,"is_reserved":false,"is_disabled":false,"rental_uris":{"android":"levelo://app?vid=6bef3136-25ed-4e13-954c-d7219e9dc03b","ios":"levelo://app?vid=6bef3136-25ed-4e13-954c-d7219e9dc03b"},"vehicle_type_id":"4","last_reported":1702631246,"current_range_meters":400,"station_id":"ce4bhbh2rcd13ifvqeqg","pricing_plan_id":"free"},{"bike_id":"be666303-c962-43b3-9743-605c4f903320","system_id":"levelo_inurba_marseille","lat":43.29205,"lon":5.35811,"is_reserved":false,"is_disabled":false,"rental_uris":{"android":"levelo://app?vid=be666303-c962-43b3-9743-605c4f903320","ios":"levelo://app?vid=be666303-c962-43b3-9743-605c4f903320"},"vehicle_type_id":"4","last_reported":1702631246,"current_range_meters":14800,"station_id":"ce4bhb12rcd13ifvqel0","pricing_plan_id":"free"},{"bike_id":"19ec8f28-3036-4761-bb00-b7460760d56e","system_id":"levelo_inurba_marseille","lat":43.291994,"lon":5.357886,"is_reserved":false,"is_disabled":false,"rental_uris":{"android":"levelo://app?vid=19ec8f28-3036-4761-bb00-b7460760d56e","ios":"levelo://app?vid=19ec8f28-3036-4761-bb00-b7460760d56e"},"vehicle_type_id":"4","last_reported":1702631246,"current_range_meters":28400,"station_id":"ce4bhb12rcd13ifvqel0","pricing_plan_id":"free"},{"bike_id":"e177567d-88fb-4a74-8766-d1511c351028","system_id":"levelo_inurba_marseille","lat":43.29191,"lon":5.35807,"is_reserved":false,"is_disabled":false,"rental_uris":{"android":"levelo://app?vid=e177567d-88fb-4a74-8766-d1511c351028","ios":"levelo://app?vid=e177567d-88fb-4a74-8766-d1511c351028"},"vehicle_type_id":"4","last_reported":1702631246,"current_range_meters":30000,"station_id":"ce4bhb12rcd13ifvqel0","pricing_plan_id":"free"},{"bike_id":"520f5a65-9aba-4c47-a8c2-36fc2d4d8474","system_id":"levelo_inurba_marseille","lat":43.291994,"lon":5.357886,"is_reserved":false,"is_disabled":false,"rental_uris":{"android":"levelo://app?vid=520f5a65-9aba-4c47-a8c2-36fc2d4d8474","ios":"levelo://app?vid=520f5a65-9aba-4c47-a8c2-36fc2d4d8474"},"vehicle_type_id":"4","last_reported":1702631246,"current_range_meters":29200,"station_id":"ce4bhb12rcd13ifvqel0","pricing_plan_id":"free"},{"bike_id":"0e0fffcd-6e8e-43ef-96c5-f438cff39409","system_id":"levelo_inurba_marseille","lat":43.313291,"lon":5.396838,"is_reserved":false,"is_disabled":false,"rental_uris":{"android":"levelo://app?vid=0e0fffcd-6e8e-43ef-96c5-f438cff39409","ios":"levelo://app?vid=0e0fffcd-6e8e-43ef-96c5-f438cff39409"},"vehicle_type_id":"4","last_reported":1702631246,"current_range_meters":25200,"station_id":"ce4bgvp2rcd13ifvqcu0","pricing_plan_id":"free"},{"bike_id":"0831b49f-68ee-4c33-90f1-f32505ee4f5c","system_id":"levelo_inurba_marseille","lat":43.309038,"lon":5.396546,"is_reserved":false,"is_disabled":false,"rental_uris":{"android":"levelo://app?vid=0831b49f-68ee-4c33-90f1-f32505ee4f5c","ios":"levelo://app?vid=0831b49f-68ee-4c33-90f1-f32505ee4f5c"},"vehicle_type_id":"4","last_reported":1702631246,"current_range_meters":8800,"station_id":"ce4bh012rcd13ifvqcv0","pricing_plan_id":"free"},{"bike_id":"df7ad4ca-3c79-42ac-802f-e04305cc9854","system_id":"levelo_inurba_marseille","lat":43.309038,"lon":5.396546,"is_reserved":false,"is_disabled":false,"rental_uris":{"android":"levelo://app?vid=df7ad4ca-3c79-42ac-802f-e04305cc9854","ios":"levelo://app?vid=df7ad4ca-3c79-42ac-802f-e04305cc9854"},"vehicle_type_id":"4","last_reported":1702631246,"current_range_meters":29200,"station_id":"ce4bh012rcd13ifvqcv0","pricing_plan_id":"free"},{"bike_id":"13446888-561e-492b-829d-e5a7127a0901","system_id":"levelo_inurba_marseille","lat":43.29529,"lon":5.385581,"is_reserved":false,"is_disabled":false,"rental_uris":{"android":"levelo://app?vid=13446888-561e-492b-829d-e5a7127a0901","ios":"levelo://app?vid=13446888-561e-492b-829d-e5a7127a0901"},"vehicle_type_id":"4","last_reported":1702631246,"current_range_meters":19200,"station_id":"ce4bgih2rcd13ifvqba0","pricing_plan_id":"free"},{"bike_id":"b2f01c61-a5d7-47f9-a7c9-35d170a5e249","system_id":"levelo_inurba_marseille","lat":43.29529,"lon":5.385581,"is_reserved":false,"is_disabled":false,"rental_uris":{"android":"levelo://app?vid=b2f01c61-a5d7-47f9-a7c9-35d170a5e249","ios":"levelo://app?vid=b2f01c61-a5d7-47f9-a7c9-35d170a5e249"},"vehicle_type_id":"4","last_reported":1702631246,"current_range_meters":22000,"station_id":"ce4bgih2rcd13ifvqba0","pricing_plan_id":"free"},{"bike_id":"308eaca0-fb66-4467-b4dd-8e20a8b67f03","system_id":"levelo_inurba_marseille","lat":43.290779,"lon":5.371482,"is_reserved":false,"is_disabled":false,"rental_uris":{"android":"levelo://app?vid=308eaca0-fb66-4467-b4dd-8e20a8b67f03","ios":"levelo://app?vid=308eaca0-fb66-4467-b4dd-8e20a8b67f03"},"vehicle_type_id":"4","last_reported":1702631246,"current_range_meters":26000,"station_id":"ce4bh5p2rcd13ifvqe4g","pricing_plan_id":"free"},{"bike_id":"864c0fec-0609-4793-9aee-ffd3010ecb5c","system_id":"levelo_inurba_marseille","lat":43.290327,"lon":5.375711,"is_reserved":false,"is_disabled":false,"rental_uris":{"android":"levelo://app?vid=864c0fec-0609-4793-9aee-ffd3010ecb5c","ios":"levelo://app?vid=864c0fec-0609-4793-9aee-ffd3010ecb5c"},"vehicle_type_id":"4","last_reported":1702631246,"current_range_meters":18800,"station_id":"ce4bh692rcd13ifvqe90","pricing_plan_id":"free"},{"bike_id":"df55650e-5f4b-49a9-80ba-a65ffebc4b78","system_id":"levelo_inurba_marseille","lat":43.290327,"lon":5.375711,"is_reserved":false,"is_disabled":false,"rental_uris":{"android":"levelo://app?vid=df55650e-5f4b-49a9-80ba-a65ffebc4b78","ios":"levelo://app?vid=df55650e-5f4b-49a9-80ba-a65ffebc4b78"},"vehicle_type_id":"4","last_reported":1702631246,"current_range_meters":15200,"station_id":"ce4bh692rcd13ifvqe90","pricing_plan_id":"free"},{"bike_id":"339ce5a8-d255-4e54-bd0d-f8baf75b3f50","system_id":"levelo_inurba_marseille","lat":43.290327,"lon":5.375711,"is_reserved":false,"is_disabled":false,"rental_uris":{"android":"levelo://app?vid=339ce5a8-d255-4e54-bd0d-f8baf75b3f50","ios":"levelo://app?vid=339ce5a8-d255-4e54-bd0d-f8baf75b3f50"},"vehicle_type_id":"4","last_reported":1702631246,"current_range_meters":5600,"station_id":"ce4bh692rcd13ifvqe90","pricing_plan_id":"free"},{"bike_id":"ad27cc3d-9828-4840-8844-4773739335c0","system_id":"levelo_inurba_marseille","lat":43.294162,"lon":5.386292,"is_reserved":false,"is_disabled":false,"rental_uris":{"android":"levelo://app?vid=ad27cc3d-9828-4840-8844-4773739335c0","ios":"levelo://app?vid=ad27cc3d-9828-4840-8844-4773739335c0"},"vehicle_type_id":"4","last_reported":1702631246,"current_range_meters":25200,"station_id":"ce4bh2h2rcd13ifvqdh0","pricing_plan_id":"free"},{"bike_id":"341da9ca-b796-4273-b047-2ea19081c852","system_id":"levelo_inurba_marseille","lat":43.292642,"lon":5.384254,"is_reserved":false,"is_disabled":false,"rental_uris":{"android":"levelo://app?vid=341da9ca-b796-4273-b047-2ea19081c852","ios":"levelo://app?vid=341da9ca-b796-4273-b047-2ea19081c852"},"vehicle_type_id":"4","last_reported":1702631246,"current_range_meters":25200,"station_id":"ce4bh692rcd13ifvqea0","pricing_plan_id":"free"},{"bike_id":"d11d2900-eda9-40a1-913d-709cf2942f67","system_id":"levelo_inurba_marseille","lat":43.290104,"lon":5.356111,"is_reserved":false,"is_disabled":false,"rental_uris":{"android":"levelo://app?vid=d11d2900-eda9-40a1-913d-709cf2942f67","ios":"levelo://app?vid=d11d2900-eda9-40a1-913d-709cf2942f67"},"vehicle_type_id":"4","last_reported":1702631246,"current_range_meters":28000,"station_id":"ce4bhb92rcd13ifvqen0","pricing_plan_id":"free"},{"bike_id":"4c6156b1-8bc0-4181-81b6-86f59524a904","system_id":"levelo_inurba_marseille","lat":43.290103,"lon":5.356114,"is_reserved":false,"is_disabled":false,"rental_uris":{"android":"levelo://app?vid=4c6156b1-8bc0-4181-81b6-86f59524a904","ios":"levelo://app?vid=4c6156b1-8bc0-4181-81b6-86f59524a904"},"vehicle_type_id":"4","last_reported":1702631246,"current_range_meters":25200,"station_id":"ce4bhb92rcd13ifvqen0","pricing_plan_id":"free"},{"bike_id":"899e046b-2fd8-4ea4-88f6-ab2791a1393a","system_id":"levelo_inurba_marseille","lat":43.290103,"lon":5.356114,"is_reserved":false,"is_disabled":false,"rental_uris":{"android":"levelo://app?vid=899e046b-2fd8-4ea4-88f6-ab2791a1393a","ios":"levelo://app?vid=899e046b-2fd8-4ea4-88f6-ab2791a1393a"},"vehicle_type_id":"4","last_reported":1702631246,"current_range_meters":30800,"station_id":"ce4bhb92rcd13ifvqen0","pricing_plan_id":"free"},{"bike_id":"5f0f46cd-d36d-4afe-8640-d2c792a64864","system_id":"levelo_inurba_marseille","lat":43.290995,"lon":5.381361,"is_reserved":false,"is_disabled":false,"rental_uris":{"android":"levelo://app?vid=5f0f46cd-d36d-4afe-8640-d2c792a64864","ios":"levelo://app?vid=5f0f46cd-d36d-4afe-8640-d2c792a64864"},"vehicle_type_id":"4","last_reported":1702631246,"current_range_meters":8400,"station_id":"ce4bh512rcd13ifvqe2g","pricing_plan_id":"free"},{"bike_id":"2c9d0dee-a286-4677-95cd-7a22d0d936af","system_id":"levelo_inurba_marseille","lat":43.290103,"lon":5.356114,"is_reserved":false,"is_disabled":false,"rental_uris":{"android":"levelo://app?vid=2c9d0dee-a286-4677-95cd-7a22d0d936af","ios":"levelo://app?vid=2c9d0dee-a286-4677-95cd-7a22d0d936af"},"vehicle_type_id":"4","last_reported":1702631246,"current_range_meters":26800,"station_id":"ce4bhb92rcd13ifvqen0","pricing_plan_id":"free"},{"bike_id":"0e4c246f-0f4e-4ef0-b431-d565d92aaf2a","system_id":"levelo_inurba_marseille","lat":43.290995,"lon":5.381361,"is_reserved":false,"is_disabled":false,"rental_uris":{"android":"levelo://app?vid=0e4c246f-0f4e-4ef0-b431-d565d92aaf2a","ios":"levelo://app?vid=0e4c246f-0f4e-4ef0-b431-d565d92aaf2a"},"vehicle_type_id":"4","last_reported":1702631246,"current_range_meters":3200,"station_id":"ce4bh512rcd13ifvqe2g","pricing_plan_id":"free"},{"bike_id":"7d9b9f57-637a-4868-bfcc-27056f11f72a","system_id":"levelo_inurba_marseille","lat":43.290995,"lon":5.381361,"is_reserved":false,"is_disabled":false,"rental_uris":{"android":"levelo://app?vid=7d9b9f57-637a-4868-bfcc-27056f11f72a","ios":"levelo://app?vid=7d9b9f57-637a-4868-bfcc-27056f11f72a"},"vehicle_type_id":"4","last_reported":1702631246,"current_range_meters":22000,"station_id":"ce4bh512rcd13ifvqe2g","pricing_plan_id":"free"},{"bike_id":"68e2a27c-2741-4b88-87af-fef11fa53e11","system_id":"levelo_inurba_marseille","lat":43.2901,"lon":5.381269,"is_reserved":false,"is_disabled":false,"rental_uris":{"android":"levelo://app?vid=68e2a27c-2741-4b88-87af-fef11fa53e11","ios":"levelo://app?vid=68e2a27c-2741-4b88-87af-fef11fa53e11"},"vehicle_type_id":"4","last_reported":1702631246,"current_range_meters":27600,"station_id":"ce4bh4p2rcd13ifvqe1g","pricing_plan_id":"free"},{"bike_id":"ad1c7246-cfab-4c2a-bb08-e539ea49ad6c","system_id":"levelo_inurba_marseille","lat":43.290094,"lon":5.381264,"is_reserved":false,"is_disabled":false,"rental_uris":{"android":"levelo://app?vid=ad1c7246-cfab-4c2a-bb08-e539ea49ad6c","ios":"levelo://app?vid=ad1c7246-cfab-4c2a-bb08-e539ea49ad6c"},"vehicle_type_id":"4","last_reported":1702631246,"current_range_meters":1600,"station_id":"ce4bh4p2rcd13ifvqe1g","pricing_plan_id":"free"},{"bike_id":"4f70777b-c241-4df9-a8b6-c31c195a618e","system_id":"levelo_inurba_marseille","lat":43.31266,"lon":5.40165,"is_reserved":false,"is_disabled":false,"rental_uris":{"android":"levelo://app?vid=4f70777b-c241-4df9-a8b6-c31c195a618e","ios":"levelo://app?vid=4f70777b-c241-4df9-a8b6-c31c195a618e"},"vehicle_type_id":"4","last_reported":1702631246,"current_range_meters":21600,"station_id":"ce4bh092rcd13ifvqd30","pricing_plan_id":"free"},{"bike_id":"e65971d3-3ecc-42ae-b937-b19d5d6c8901","system_id":"levelo_inurba_marseille","lat":43.31268,"lon":5.40171,"is_reserved":false,"is_disabled":false,"rental_uris":{"android":"levelo://app?vid=e65971d3-3ecc-42ae-b937-b19d5d6c8901","ios":"levelo://app?vid=e65971d3-3ecc-42ae-b937-b19d5d6c8901"},"vehicle_type_id":"4","last_reported":1702631246,"current_range_meters":8400,"station_id":"ce4bh092rcd13ifvqd30","pricing_plan_id":"free"},{"bike_id":"930bba3a-4350-44cf-bb9b-310a6cbdb5ef","system_id":"levelo_inurba_marseille","lat":43.337595,"lon":5.374545,"is_reserved":false,"is_disabled":false,"rental_uris":{"android":"levelo://app?vid=930bba3a-4350-44cf-bb9b-310a6cbdb5ef","ios":"levelo://app?vid=930bba3a-4350-44cf-bb9b-310a6cbdb5ef"},"vehicle_type_id":"4","last_reported":1702631246,"current_range_meters":30000,"station_id":"","pricing_plan_id":"free"},{"bike_id":"e654bc52-de77-4698-86eb-187f69937b45","system_id":"levelo_inurba_marseille","lat":43.286961,"lon":5.373785,"is_reserved":false,"is_disabled":false,"rental_uris":{"android":"levelo://app?vid=e654bc52-de77-4698-86eb-187f69937b45","ios":"levelo://app?vid=e654bc52-de77-4698-86eb-187f69937b45"},"vehicle_type_id":"4","last_reported":1702631246,"current_range_meters":18000,"station_id":"ce4bh3p2rcd13ifvqdq0","pricing_plan_id":"free"},{"bike_id":"6782263a-5ce3-4be1-bfa6-ae970484270b","system_id":"levelo_inurba_marseille","lat":43.286961,"lon":5.373785,"is_reserved":false,"is_disabled":false,"rental_uris":{"android":"levelo://app?vid=6782263a-5ce3-4be1-bfa6-ae970484270b","ios":"levelo://app?vid=6782263a-5ce3-4be1-bfa6-ae970484270b"},"vehicle_type_id":"4","last_reported":1702631246,"current_range_meters":29200,"station_id":"ce4bh3p2rcd13ifvqdq0","pricing_plan_id":"free"},{"bike_id":"950ea679-dc2f-4e39-986f-59cef1165ddc","system_id":"levelo_inurba_marseille","lat":43.289307,"lon":5.38406,"is_reserved":false,"is_disabled":false,"rental_uris":{"android":"levelo://app?vid=950ea679-dc2f-4e39-986f-59cef1165ddc","ios":"levelo://app?vid=950ea679-dc2f-4e39-986f-59cef1165ddc"},"vehicle_type_id":"4","last_reported":1702631246,"current_range_meters":14800,"station_id":"ce4bh612rcd13ifvqe6g","pricing_plan_id":"free"},{"bike_id":"81b4c286-bdcf-444d-9086-8759a0dcf72e","system_id":"levelo_inurba_marseille","lat":43.29029,"lon":5.38633,"is_reserved":false,"is_disabled":false,"rental_uris":{"android":"levelo://app?vid=81b4c286-bdcf-444d-9086-8759a0dcf72e","ios":"levelo://app?vid=81b4c286-bdcf-444d-9086-8759a0dcf72e"},"vehicle_type_id":"4","last_reported":1702631246,"current_range_meters":0,"station_id":"ce4bh4p2rcd13ifvqe0g","pricing_plan_id":"free"},{"bike_id":"7b6c65ea-0652-405a-8b20-bb8a02837e50","system_id":"levelo_inurba_marseille","lat":43.290345,"lon":5.38646,"is_reserved":false,"is_disabled":false,"rental_uris":{"android":"levelo://app?vid=7b6c65ea-0652-405a-8b20-bb8a02837e50","ios":"levelo://app?vid=7b6c65ea-0652-405a-8b20-bb8a02837e50"},"vehicle_type_id":"4","last_reported":1702631246,"current_range_meters":24800,"station_id":"ce4bh4p2rcd13ifvqe0g","pricing_plan_id":"free"},{"bike_id":"cf39560a-2ffd-4345-9919-dfc40d7d98e6","system_id":"levelo_inurba_marseille","lat":43.289307,"lon":5.38406,"is_reserved":false,"is_disabled":false,"rental_uris":{"android":"levelo://app?vid=cf39560a-2ffd-4345-9919-dfc40d7d98e6","ios":"levelo://app?vid=cf39560a-2ffd-4345-9919-dfc40d7d98e6"},"vehicle_type_id":"4","last_reported":1702631246,"current_range_meters":12800,"station_id":"ce4bh612rcd13ifvqe6g","pricing_plan_id":"free"},{"bike_id":"a9fe6af0-c2e7-4a7b-912d-dfce0ab744f7","system_id":"levelo_inurba_marseille","lat":43.290336,"lon":5.386425,"is_reserved":false,"is_disabled":false,"rental_uris":{"android":"levelo://app?vid=a9fe6af0-c2e7-4a7b-912d-dfce0ab744f7","ios":"levelo://app?vid=a9fe6af0-c2e7-4a7b-912d-dfce0ab744f7"},"vehicle_type_id":"4","last_reported":1702631246,"current_range_meters":27600,"station_id":"ce4bh4p2rcd13ifvqe0g","pricing_plan_id":"free"},{"bike_id":"a88360c5-e0f1-4541-884b-7bcb4ff51a37","system_id":"levelo_inurba_marseille","lat":43.302759,"lon":5.400793,"is_reserved":false,"is_disabled":false,"rental_uris":{"android":"levelo://app?vid=a88360c5-e0f1-4541-884b-7bcb4ff51a37","ios":"levelo://app?vid=a88360c5-e0f1-4541-884b-7bcb4ff51a37"},"vehicle_type_id":"4","last_reported":1702631246,"current_range_meters":26000,"station_id":"ce4bgvh2rcd13ifvqcs0","pricing_plan_id":"free"},{"bike_id":"36b82005-c8bc-4564-9dd8-b3579af4a0be","system_id":"levelo_inurba_marseille","lat":43.287185,"lon":5.379373,"is_reserved":false,"is_disabled":false,"rental_uris":{"android":"levelo://app?vid=36b82005-c8bc-4564-9dd8-b3579af4a0be","ios":"levelo://app?vid=36b82005-c8bc-4564-9dd8-b3579af4a0be"},"vehicle_type_id":"4","last_reported":1702631246,"current_range_meters":16000,"station_id":"ce4bh9p2rcd13ifvqec0","pricing_plan_id":"free"},{"bike_id":"7b914a8b-c3bf-418e-811c-7c4187cb30e9","system_id":"levelo_inurba_marseille","lat":43.287185,"lon":5.379373,"is_reserved":false,"is_disabled":false,"rental_uris":{"android":"levelo://app?vid=7b914a8b-c3bf-418e-811c-7c4187cb30e9","ios":"levelo://app?vid=7b914a8b-c3bf-418e-811c-7c4187cb30e9"},"vehicle_type_id":"4","last_reported":1702631246,"current_range_meters":16000,"station_id":"ce4bh9p2rcd13ifvqec0","pricing_plan_id":"free"},{"bike_id":"a8ba5243-9537-4dfe-9524-e6ea5eb94510","system_id":"levelo_inurba_marseille","lat":43.287185,"lon":5.379373,"is_reserved":false,"is_disabled":false,"rental_uris":{"android":"levelo://app?vid=a8ba5243-9537-4dfe-9524-e6ea5eb94510","ios":"levelo://app?vid=a8ba5243-9537-4dfe-9524-e6ea5eb94510"},"vehicle_type_id":"4","last_reported":1702631246,"current_range_meters":22400,"station_id":"ce4bh9p2rcd13ifvqec0","pricing_plan_id":"free"},{"bike_id":"fcb060b7-a9b3-42f7-9984-8cb96c0796ef","system_id":"levelo_inurba_marseille","lat":43.31688,"lon":5.40468,"is_reserved":false,"is_disabled":false,"rental_uris":{"android":"levelo://app?vid=fcb060b7-a9b3-42f7-9984-8cb96c0796ef","ios":"levelo://app?vid=fcb060b7-a9b3-42f7-9984-8cb96c0796ef"},"vehicle_type_id":"4","last_reported":1702631246,"current_range_meters":23600,"station_id":"ce4bh012rcd13ifvqd00","pricing_plan_id":"free"},{"bike_id":"3acbe5c6-6468-446a-903f-c5e4037630e9","system_id":"levelo_inurba_marseille","lat":43.31686,"lon":5.40471,"is_reserved":false,"is_disabled":false,"rental_uris":{"android":"levelo://app?vid=3acbe5c6-6468-446a-903f-c5e4037630e9","ios":"levelo://app?vid=3acbe5c6-6468-446a-903f-c5e4037630e9"},"vehicle_type_id":"4","last_reported":1702631246,"current_range_meters":19200,"station_id":"ce4bh012rcd13ifvqd00","pricing_plan_id":"free"},{"bike_id":"60217d9c-c3c4-40ba-bc8a-3a4849b2bf3b","system_id":"levelo_inurba_marseille","lat":43.283998,"lon":5.375062,"is_reserved":false,"is_disabled":false,"rental_uris":{"android":"levelo://app?vid=60217d9c-c3c4-40ba-bc8a-3a4849b2bf3b","ios":"levelo://app?vid=60217d9c-c3c4-40ba-bc8a-3a4849b2bf3b"},"vehicle_type_id":"4","last_reported":1702631246,"current_range_meters":30800,"station_id":"ce4bh412rcd13ifvqds0","pricing_plan_id":"free"},{"bike_id":"ccf80a34-893f-43ff-bccc-1bc2a7fbc5e8","system_id":"levelo_inurba_marseille","lat":43.319179,"lon":5.407725,"is_reserved":false,"is_disabled":false,"rental_uris":{"android":"levelo://app?vid=ccf80a34-893f-43ff-bccc-1bc2a7fbc5e8","ios":"levelo://app?vid=ccf80a34-893f-43ff-bccc-1bc2a7fbc5e8"},"vehicle_type_id":"4","last_reported":1702631246,"current_range_meters":27200,"station_id":"ce4bhq12rcd13ifvqhig","pricing_plan_id":"free"},{"bike_id":"1ab5cd54-43c0-49fa-a466-54df9f902037","system_id":"levelo_inurba_marseille","lat":43.323464,"lon":5.406297,"is_reserved":false,"is_disabled":false,"rental_uris":{"android":"levelo://app?vid=1ab5cd54-43c0-49fa-a466-54df9f902037","ios":"levelo://app?vid=1ab5cd54-43c0-49fa-a466-54df9f902037"},"vehicle_type_id":"4","last_reported":1702631246,"current_range_meters":31200,"station_id":"ce4bhq92rcd13ifvqhjg","pricing_plan_id":"free"},{"bike_id":"41f7c2ab-6ae9-416d-bdc9-69f9f84af943","system_id":"levelo_inurba_marseille","lat":43.323464,"lon":5.406297,"is_reserved":false,"is_disabled":false,"rental_uris":{"android":"levelo://app?vid=41f7c2ab-6ae9-416d-bdc9-69f9f84af943","ios":"levelo://app?vid=41f7c2ab-6ae9-416d-bdc9-69f9f84af943"},"vehicle_type_id":"4","last_reported":1702631246,"current_range_meters":31200,"station_id":"ce4bhq92rcd13ifvqhjg","pricing_plan_id":"free"},{"bike_id":"fdad18a5-33a2-4a91-abdf-4b23b3c37c9a","system_id":"levelo_inurba_marseille","lat":43.284793,"lon":5.384119,"is_reserved":false,"is_disabled":false,"rental_uris":{"android":"levelo://app?vid=fdad18a5-33a2-4a91-abdf-4b23b3c37c9a","ios":"levelo://app?vid=fdad18a5-33a2-4a91-abdf-4b23b3c37c9a"},"vehicle_type_id":"4","last_reported":1702631246,"current_range_meters":18400,"station_id":"ce4bh512rcd13ifvqe3g","pricing_plan_id":"free"},{"bike_id":"72f0b9fb-b505-4a85-9958-4b49fd1d3450","system_id":"levelo_inurba_marseille","lat":43.288501,"lon":5.393087,"is_reserved":false,"is_disabled":false,"rental_uris":{"android":"levelo://app?vid=72f0b9fb-b505-4a85-9958-4b49fd1d3450","ios":"levelo://app?vid=72f0b9fb-b505-4a85-9958-4b49fd1d3450"},"vehicle_type_id":"4","last_reported":1702631246,"current_range_meters":10400,"station_id":"ce4bh2p2rcd13ifvqdi0","pricing_plan_id":"free"},{"bike_id":"3241b507-bc4b-488c-aade-73d8922dc21e","system_id":"levelo_inurba_marseille","lat":43.28352,"lon":5.38633,"is_reserved":false,"is_disabled":false,"rental_uris":{"android":"levelo://app?vid=3241b507-bc4b-488c-aade-73d8922dc21e","ios":"levelo://app?vid=3241b507-bc4b-488c-aade-73d8922dc21e"},"vehicle_type_id":"4","last_reported":1702631246,"current_range_meters":15200,"station_id":"ce4bh492rcd13ifvqdvg","pricing_plan_id":"free"},{"bike_id":"a504b27d-6e8a-48d0-866f-304fb1963ec6","system_id":"levelo_inurba_marseille","lat":43.32663,"lon":5.409756,"is_reserved":false,"is_disabled":false,"rental_uris":{"android":"levelo://app?vid=a504b27d-6e8a-48d0-866f-304fb1963ec6","ios":"levelo://app?vid=a504b27d-6e8a-48d0-866f-304fb1963ec6"},"vehicle_type_id":"4","last_reported":1702631246,"current_range_meters":800,"station_id":"ce4bhpp2rcd13ifvqhgg","pricing_plan_id":"free"},{"bike_id":"16e35e61-0d29-460d-a592-ee400d072ad7","system_id":"levelo_inurba_marseille","lat":43.30418,"lon":5.412777,"is_reserved":false,"is_disabled":false,"rental_uris":{"android":"levelo://app?vid=16e35e61-0d29-460d-a592-ee400d072ad7","ios":"levelo://app?vid=16e35e61-0d29-460d-a592-ee400d072ad7"},"vehicle_type_id":"4","last_reported":1702631246,"current_range_meters":23200,"station_id":"ce4bhop2rcd13ifvqh8g","pricing_plan_id":"free"},{"bike_id":"846dafa0-598f-4789-939c-acd53b4e0ffa","system_id":"levelo_inurba_marseille","lat":43.304188,"lon":5.412904,"is_reserved":false,"is_disabled":false,"rental_uris":{"android":"levelo://app?vid=846dafa0-598f-4789-939c-acd53b4e0ffa","ios":"levelo://app?vid=846dafa0-598f-4789-939c-acd53b4e0ffa"},"vehicle_type_id":"4","last_reported":1702631246,"current_range_meters":18800,"station_id":"ce4bhop2rcd13ifvqh8g","pricing_plan_id":"free"},{"bike_id":"273dbe8c-1882-47cb-8776-03b2f7a338e7","system_id":"levelo_inurba_marseille","lat":43.30427,"lon":5.41289,"is_reserved":false,"is_disabled":false,"rental_uris":{"android":"levelo://app?vid=273dbe8c-1882-47cb-8776-03b2f7a338e7","ios":"levelo://app?vid=273dbe8c-1882-47cb-8776-03b2f7a338e7"},"vehicle_type_id":"4","last_reported":1702631246,"current_range_meters":24400,"station_id":"ce4bhop2rcd13ifvqh8g","pricing_plan_id":"free"},{"bike_id":"c99de67d-4722-47ad-9289-1378328c61a0","system_id":"levelo_inurba_marseille","lat":43.304188,"lon":5.412904,"is_reserved":false,"is_disabled":false,"rental_uris":{"android":"levelo://app?vid=c99de67d-4722-47ad-9289-1378328c61a0","ios":"levelo://app?vid=c99de67d-4722-47ad-9289-1378328c61a0"},"vehicle_type_id":"4","last_reported":1702631246,"current_range_meters":30800,"station_id":"ce4bhop2rcd13ifvqh8g","pricing_plan_id":"free"},{"bike_id":"a2db5b98-f7ff-445c-8bfc-006abb56b600","system_id":"levelo_inurba_marseille","lat":43.304188,"lon":5.412904,"is_reserved":false,"is_disabled":false,"rental_uris":{"android":"levelo://app?vid=a2db5b98-f7ff-445c-8bfc-006abb56b600","ios":"levelo://app?vid=a2db5b98-f7ff-445c-8bfc-006abb56b600"},"vehicle_type_id":"4","last_reported":1702631246,"current_range_meters":0,"station_id":"ce4bhop2rcd13ifvqh8g","pricing_plan_id":"free"},{"bike_id":"7b357386-541f-467a-b5d2-0908eedbe5d1","system_id":"levelo_inurba_marseille","lat":43.279087,"lon":5.380114,"is_reserved":false,"is_disabled":false,"rental_uris":{"android":"levelo://app?vid=7b357386-541f-467a-b5d2-0908eedbe5d1","ios":"levelo://app?vid=7b357386-541f-467a-b5d2-0908eedbe5d1"},"vehicle_type_id":"4","last_reported":1702631246,"current_range_meters":7600,"station_id":"ce4bhf92rcd13ifvqf50","pricing_plan_id":"free"},{"bike_id":"85239905-df90-4ad0-845e-668a13229542","system_id":"levelo_inurba_marseille","lat":43.279742,"lon":5.38744,"is_reserved":false,"is_disabled":false,"rental_uris":{"android":"levelo://app?vid=85239905-df90-4ad0-845e-668a13229542","ios":"levelo://app?vid=85239905-df90-4ad0-845e-668a13229542"},"vehicle_type_id":"4","last_reported":1702631246,"current_range_meters":16400,"station_id":"ce4bhg12rcd13ifvqf80","pricing_plan_id":"free"},{"bike_id":"1efda5bc-8308-4b04-8a78-c9dbbc72d4fc","system_id":"levelo_inurba_marseille","lat":43.279742,"lon":5.38744,"is_reserved":false,"is_disabled":false,"rental_uris":{"android":"levelo://app?vid=1efda5bc-8308-4b04-8a78-c9dbbc72d4fc","ios":"levelo://app?vid=1efda5bc-8308-4b04-8a78-c9dbbc72d4fc"},"vehicle_type_id":"4","last_reported":1702631246,"current_range_meters":20400,"station_id":"ce4bhg12rcd13ifvqf80","pricing_plan_id":"free"},{"bike_id":"1a7251ba-9aef-4814-a6a3-e34accc7bbd7","system_id":"levelo_inurba_marseille","lat":43.279742,"lon":5.38744,"is_reserved":false,"is_disabled":false,"rental_uris":{"android":"levelo://app?vid=1a7251ba-9aef-4814-a6a3-e34accc7bbd7","ios":"levelo://app?vid=1a7251ba-9aef-4814-a6a3-e34accc7bbd7"},"vehicle_type_id":"4","last_reported":1702631246,"current_range_meters":27200,"station_id":"ce4bhg12rcd13ifvqf80","pricing_plan_id":"free"},{"bike_id":"d7848d2b-b23a-4e09-ab45-e23e9b925de4","system_id":"levelo_inurba_marseille","lat":43.279742,"lon":5.38744,"is_reserved":false,"is_disabled":false,"rental_uris":{"android":"levelo://app?vid=d7848d2b-b23a-4e09-ab45-e23e9b925de4","ios":"levelo://app?vid=d7848d2b-b23a-4e09-ab45-e23e9b925de4"},"vehicle_type_id":"4","last_reported":1702631246,"current_range_meters":30000,"station_id":"ce4bhg12rcd13ifvqf80","pricing_plan_id":"free"},{"bike_id":"2f4048f1-0f30-4ffc-a83f-858e1ebe1075","system_id":"levelo_inurba_marseille","lat":43.325233,"lon":5.414318,"is_reserved":false,"is_disabled":false,"rental_uris":{"android":"levelo://app?vid=2f4048f1-0f30-4ffc-a83f-858e1ebe1075","ios":"levelo://app?vid=2f4048f1-0f30-4ffc-a83f-858e1ebe1075"},"vehicle_type_id":"4","last_reported":1702631246,"current_range_meters":31200,"station_id":"ce4bhq12rcd13ifvqhhg","pricing_plan_id":"free"},{"bike_id":"72da60ac-c4be-4e45-ba40-8b7f74c7f23d","system_id":"levelo_inurba_marseille","lat":43.325233,"lon":5.414318,"is_reserved":false,"is_disabled":false,"rental_uris":{"android":"levelo://app?vid=72da60ac-c4be-4e45-ba40-8b7f74c7f23d","ios":"levelo://app?vid=72da60ac-c4be-4e45-ba40-8b7f74c7f23d"},"vehicle_type_id":"4","last_reported":1702631246,"current_range_meters":28800,"station_id":"ce4bhq12rcd13ifvqhhg","pricing_plan_id":"free"},{"bike_id":"23f4836e-01ad-4fc8-8340-dac236f394c8","system_id":"levelo_inurba_marseille","lat":43.278401,"lon":5.392152,"is_reserved":false,"is_disabled":false,"rental_uris":{"android":"levelo://app?vid=23f4836e-01ad-4fc8-8340-dac236f394c8","ios":"levelo://app?vid=23f4836e-01ad-4fc8-8340-dac236f394c8"},"vehicle_type_id":"4","last_reported":1702631246,"current_range_meters":21600,"station_id":"ce4bhjp2rcd13ifvqga0","pricing_plan_id":"free"},{"bike_id":"f7a6d195-6723-44db-a0a2-d746f9ebf850","system_id":"levelo_inurba_marseille","lat":43.278399,"lon":5.392139,"is_reserved":false,"is_disabled":false,"rental_uris":{"android":"levelo://app?vid=f7a6d195-6723-44db-a0a2-d746f9ebf850","ios":"levelo://app?vid=f7a6d195-6723-44db-a0a2-d746f9ebf850"},"vehicle_type_id":"4","last_reported":1702631246,"current_range_meters":30000,"station_id":"ce4bhjp2rcd13ifvqga0","pricing_plan_id":"free"},{"bike_id":"549fd1d9-6827-41e3-b70e-487aa97e8bc5","system_id":"levelo_inurba_marseille","lat":43.275625,"lon":5.384392,"is_reserved":false,"is_disabled":false,"rental_uris":{"android":"levelo://app?vid=549fd1d9-6827-41e3-b70e-487aa97e8bc5","ios":"levelo://app?vid=549fd1d9-6827-41e3-b70e-487aa97e8bc5"},"vehicle_type_id":"4","last_reported":1702631246,"current_range_meters":26000,"station_id":"ce4bhh92rcd13ifvqfi0","pricing_plan_id":"free"},{"bike_id":"2b34d9c8-3f1f-40bd-b2c1-047e0924a646","system_id":"levelo_inurba_marseille","lat":43.273609,"lon":5.362708,"is_reserved":false,"is_disabled":false,"rental_uris":{"android":"levelo://app?vid=2b34d9c8-3f1f-40bd-b2c1-047e0924a646","ios":"levelo://app?vid=2b34d9c8-3f1f-40bd-b2c1-047e0924a646"},"vehicle_type_id":"4","last_reported":1702631246,"current_range_meters":8000,"station_id":"ce4bhbh2rcd13ifvqeo0","pricing_plan_id":"free"},{"bike_id":"9c814be1-a2ce-4fff-83da-691bea7343d0","system_id":"levelo_inurba_marseille","lat":43.33601,"lon":5.41032,"is_reserved":false,"is_disabled":false,"rental_uris":{"android":"levelo://app?vid=9c814be1-a2ce-4fff-83da-691bea7343d0","ios":"levelo://app?vid=9c814be1-a2ce-4fff-83da-691bea7343d0"},"vehicle_type_id":"4","last_reported":1702631246,"current_range_meters":16000,"station_id":"ce4bhqh2rcd13ifvqhmg","pricing_plan_id":"free"},{"bike_id":"98b1ea02-0ceb-4303-ac50-6ce24a7d6c07","system_id":"levelo_inurba_marseille","lat":43.336148,"lon":5.410349,"is_reserved":false,"is_disabled":false,"rental_uris":{"android":"levelo://app?vid=98b1ea02-0ceb-4303-ac50-6ce24a7d6c07","ios":"levelo://app?vid=98b1ea02-0ceb-4303-ac50-6ce24a7d6c07"},"vehicle_type_id":"4","last_reported":1702631246,"current_range_meters":28800,"station_id":"ce4bhqh2rcd13ifvqhmg","pricing_plan_id":"free"},{"bike_id":"9f7a66a8-1832-46a7-b1aa-9913aa02039d","system_id":"levelo_inurba_marseille","lat":43.336134,"lon":5.410341,"is_reserved":false,"is_disabled":false,"rental_uris":{"android":"levelo://app?vid=9f7a66a8-1832-46a7-b1aa-9913aa02039d","ios":"levelo://app?vid=9f7a66a8-1832-46a7-b1aa-9913aa02039d"},"vehicle_type_id":"4","last_reported":1702631246,"current_range_meters":2000,"station_id":"ce4bhqh2rcd13ifvqhmg","pricing_plan_id":"free"},{"bike_id":"8ebe0074-ecba-44b2-bb3d-318e67263d6e","system_id":"levelo_inurba_marseille","lat":43.336134,"lon":5.410341,"is_reserved":false,"is_disabled":false,"rental_uris":{"android":"levelo://app?vid=8ebe0074-ecba-44b2-bb3d-318e67263d6e","ios":"levelo://app?vid=8ebe0074-ecba-44b2-bb3d-318e67263d6e"},"vehicle_type_id":"4","last_reported":1702631246,"current_range_meters":10800,"station_id":"ce4bhqh2rcd13ifvqhmg","pricing_plan_id":"free"},{"bike_id":"23f16bf3-cdc6-40ba-9437-00905e462800","system_id":"levelo_inurba_marseille","lat":43.276771,"lon":5.388799,"is_reserved":false,"is_disabled":false,"rental_uris":{"android":"levelo://app?vid=23f16bf3-cdc6-40ba-9437-00905e462800","ios":"levelo://app?vid=23f16bf3-cdc6-40ba-9437-00905e462800"},"vehicle_type_id":"4","last_reported":1702631246,"current_range_meters":25600,"station_id":"ce4bhi12rcd13ifvqfo0","pricing_plan_id":"free"},{"bike_id":"e925b3d1-1a08-4c4b-beb4-4c15019c4a47","system_id":"levelo_inurba_marseille","lat":43.310785,"lon":5.424305,"is_reserved":false,"is_disabled":false,"rental_uris":{"android":"levelo://app?vid=e925b3d1-1a08-4c4b-beb4-4c15019c4a47","ios":"levelo://app?vid=e925b3d1-1a08-4c4b-beb4-4c15019c4a47"},"vehicle_type_id":"4","last_reported":1702631246,"current_range_meters":12000,"station_id":"ce4bhp92rcd13ifvqhag","pricing_plan_id":"free"},{"bike_id":"42480997-c2e6-46dd-835e-645a39cad71d","system_id":"levelo_inurba_marseille","lat":43.340804,"lon":5.410219,"is_reserved":false,"is_disabled":false,"rental_uris":{"android":"levelo://app?vid=42480997-c2e6-46dd-835e-645a39cad71d","ios":"levelo://app?vid=42480997-c2e6-46dd-835e-645a39cad71d"},"vehicle_type_id":"4","last_reported":1702631246,"current_range_meters":31200,"station_id":"ce4bhqh2rcd13ifvqhlg","pricing_plan_id":"free"},{"bike_id":"435c43fc-4889-44ab-9b05-535635f4a017","system_id":"levelo_inurba_marseille","lat":43.340804,"lon":5.410219,"is_reserved":false,"is_disabled":false,"rental_uris":{"android":"levelo://app?vid=435c43fc-4889-44ab-9b05-535635f4a017","ios":"levelo://app?vid=435c43fc-4889-44ab-9b05-535635f4a017"},"vehicle_type_id":"4","last_reported":1702631246,"current_range_meters":29200,"station_id":"ce4bhqh2rcd13ifvqhlg","pricing_plan_id":"free"},{"bike_id":"f66a35b3-d1a2-4e3b-a219-8bd098e9973c","system_id":"levelo_inurba_marseille","lat":43.340804,"lon":5.410219,"is_reserved":false,"is_disabled":false,"rental_uris":{"android":"levelo://app?vid=f66a35b3-d1a2-4e3b-a219-8bd098e9973c","ios":"levelo://app?vid=f66a35b3-d1a2-4e3b-a219-8bd098e9973c"},"vehicle_type_id":"4","last_reported":1702631246,"current_range_meters":12000,"station_id":"ce4bhqh2rcd13ifvqhlg","pricing_plan_id":"free"},{"bike_id":"880892c9-46a8-4d00-a9cf-fafd7a519234","system_id":"levelo_inurba_marseille","lat":43.340804,"lon":5.410219,"is_reserved":false,"is_disabled":false,"rental_uris":{"android":"levelo://app?vid=880892c9-46a8-4d00-a9cf-fafd7a519234","ios":"levelo://app?vid=880892c9-46a8-4d00-a9cf-fafd7a519234"},"vehicle_type_id":"4","last_reported":1702631246,"current_range_meters":18400,"station_id":"ce4bhqh2rcd13ifvqhlg","pricing_plan_id":"free"},{"bike_id":"bef127eb-ad09-4148-acb9-c2e1f27e433e","system_id":"levelo_inurba_marseille","lat":43.340804,"lon":5.410219,"is_reserved":false,"is_disabled":false,"rental_uris":{"android":"levelo://app?vid=bef127eb-ad09-4148-acb9-c2e1f27e433e","ios":"levelo://app?vid=bef127eb-ad09-4148-acb9-c2e1f27e433e"},"vehicle_type_id":"4","last_reported":1702631246,"current_range_meters":22400,"station_id":"ce4bhqh2rcd13ifvqhlg","pricing_plan_id":"free"},{"bike_id":"3ca2c2d2-99b0-4aa6-a05d-e30f02e6a7fb","system_id":"levelo_inurba_marseille","lat":43.276092,"lon":5.395289,"is_reserved":false,"is_disabled":false,"rental_uris":{"android":"levelo://app?vid=3ca2c2d2-99b0-4aa6-a05d-e30f02e6a7fb","ios":"levelo://app?vid=3ca2c2d2-99b0-4aa6-a05d-e30f02e6a7fb"},"vehicle_type_id":"4","last_reported":1702631246,"current_range_meters":28400,"station_id":"","pricing_plan_id":"free"},{"bike_id":"063162a9-fd2a-453d-a92e-e870e84c81b3","system_id":"levelo_inurba_marseille","lat":43.273125,"lon":5.390731,"is_reserved":false,"is_disabled":false,"rental_uris":{"android":"levelo://app?vid=063162a9-fd2a-453d-a92e-e870e84c81b3","ios":"levelo://app?vid=063162a9-fd2a-453d-a92e-e870e84c81b3"},"vehicle_type_id":"4","last_reported":1702631246,"current_range_meters":11600,"station_id":"ce4bhgp2rcd13ifvqfe0","pricing_plan_id":"free"},{"bike_id":"aa0f8af4-4301-4cb6-9588-e2a05e699294","system_id":"levelo_inurba_marseille","lat":43.304184,"lon":5.425278,"is_reserved":false,"is_disabled":false,"rental_uris":{"android":"levelo://app?vid=aa0f8af4-4301-4cb6-9588-e2a05e699294","ios":"levelo://app?vid=aa0f8af4-4301-4cb6-9588-e2a05e699294"},"vehicle_type_id":"4","last_reported":1702631246,"current_range_meters":18400,"station_id":"ce4bhp92rcd13ifvqhcg","pricing_plan_id":"free"},{"bike_id":"3ee6b74b-5db0-4580-98a7-fc79a9e0df6a","system_id":"levelo_inurba_marseille","lat":43.304147,"lon":5.425353,"is_reserved":false,"is_disabled":false,"rental_uris":{"android":"levelo://app?vid=3ee6b74b-5db0-4580-98a7-fc79a9e0df6a","ios":"levelo://app?vid=3ee6b74b-5db0-4580-98a7-fc79a9e0df6a"},"vehicle_type_id":"4","last_reported":1702631246,"current_range_meters":21200,"station_id":"ce4bhoh2rcd13ifvqh6g","pricing_plan_id":"free"},{"bike_id":"5d3f594c-9b0e-418e-807f-31b01190d134","system_id":"levelo_inurba_marseille","lat":43.295523,"lon":5.422926,"is_reserved":false,"is_disabled":false,"rental_uris":{"android":"levelo://app?vid=5d3f594c-9b0e-418e-807f-31b01190d134","ios":"levelo://app?vid=5d3f594c-9b0e-418e-807f-31b01190d134"},"vehicle_type_id":"4","last_reported":1702631246,"current_range_meters":29200,"station_id":"ce4bhph2rcd13ifvqhdg","pricing_plan_id":"free"},{"bike_id":"94984fc3-6575-498f-bb52-e6c05e1c5e4b","system_id":"levelo_inurba_marseille","lat":43.295523,"lon":5.422926,"is_reserved":false,"is_disabled":false,"rental_uris":{"android":"levelo://app?vid=94984fc3-6575-498f-bb52-e6c05e1c5e4b","ios":"levelo://app?vid=94984fc3-6575-498f-bb52-e6c05e1c5e4b"},"vehicle_type_id":"4","last_reported":1702631246,"current_range_meters":22000,"station_id":"ce4bhph2rcd13ifvqhdg","pricing_plan_id":"free"},{"bike_id":"9128feaf-36b8-4e63-849f-ccc68f896dc0","system_id":"levelo_inurba_marseille","lat":43.295523,"lon":5.422926,"is_reserved":false,"is_disabled":false,"rental_uris":{"android":"levelo://app?vid=9128feaf-36b8-4e63-849f-ccc68f896dc0","ios":"levelo://app?vid=9128feaf-36b8-4e63-849f-ccc68f896dc0"},"vehicle_type_id":"4","last_reported":1702631246,"current_range_meters":31200,"station_id":"ce4bhph2rcd13ifvqhdg","pricing_plan_id":"free"},{"bike_id":"44b5f216-a7b6-4c19-8600-d0fc7a6dee0a","system_id":"levelo_inurba_marseille","lat":43.295523,"lon":5.422926,"is_reserved":false,"is_disabled":false,"rental_uris":{"android":"levelo://app?vid=44b5f216-a7b6-4c19-8600-d0fc7a6dee0a","ios":"levelo://app?vid=44b5f216-a7b6-4c19-8600-d0fc7a6dee0a"},"vehicle_type_id":"4","last_reported":1702631246,"current_range_meters":23600,"station_id":"ce4bhph2rcd13ifvqhdg","pricing_plan_id":"free"},{"bike_id":"69f8ad0f-2459-47c5-93c3-15dea485ac8b","system_id":"levelo_inurba_marseille","lat":43.295531,"lon":5.422853,"is_reserved":false,"is_disabled":false,"rental_uris":{"android":"levelo://app?vid=69f8ad0f-2459-47c5-93c3-15dea485ac8b","ios":"levelo://app?vid=69f8ad0f-2459-47c5-93c3-15dea485ac8b"},"vehicle_type_id":"4","last_reported":1702631246,"current_range_meters":26000,"station_id":"ce4bhph2rcd13ifvqhdg","pricing_plan_id":"free"},{"bike_id":"a7863f6b-776e-4daa-b931-d7ecbe1a71ad","system_id":"levelo_inurba_marseille","lat":43.295521,"lon":5.422858,"is_reserved":false,"is_disabled":false,"rental_uris":{"android":"levelo://app?vid=a7863f6b-776e-4daa-b931-d7ecbe1a71ad","ios":"levelo://app?vid=a7863f6b-776e-4daa-b931-d7ecbe1a71ad"},"vehicle_type_id":"4","last_reported":1702631246,"current_range_meters":22000,"station_id":"ce4bhph2rcd13ifvqhdg","pricing_plan_id":"free"},{"bike_id":"1d2472e2-350f-44fa-a627-38e6bb5829da","system_id":"levelo_inurba_marseille","lat":43.295522,"lon":5.422876,"is_reserved":false,"is_disabled":false,"rental_uris":{"android":"levelo://app?vid=1d2472e2-350f-44fa-a627-38e6bb5829da","ios":"levelo://app?vid=1d2472e2-350f-44fa-a627-38e6bb5829da"},"vehicle_type_id":"4","last_reported":1702631246,"current_range_meters":24400,"station_id":"ce4bhph2rcd13ifvqhdg","pricing_plan_id":"free"},{"bike_id":"0fdd36e0-a97d-4931-83bd-dc41afbd80cb","system_id":"levelo_inurba_marseille","lat":43.295528,"lon":5.42288,"is_reserved":false,"is_disabled":false,"rental_uris":{"android":"levelo://app?vid=0fdd36e0-a97d-4931-83bd-dc41afbd80cb","ios":"levelo://app?vid=0fdd36e0-a97d-4931-83bd-dc41afbd80cb"},"vehicle_type_id":"4","last_reported":1702631246,"current_range_meters":26400,"station_id":"ce4bhph2rcd13ifvqhdg","pricing_plan_id":"free"},{"bike_id":"744d0915-676f-445e-8051-ce5abddae6b8","system_id":"levelo_inurba_marseille","lat":43.278128,"lon":5.407195,"is_reserved":false,"is_disabled":false,"rental_uris":{"android":"levelo://app?vid=744d0915-676f-445e-8051-ce5abddae6b8","ios":"levelo://app?vid=744d0915-676f-445e-8051-ce5abddae6b8"},"vehicle_type_id":"4","last_reported":1702631246,"current_range_meters":30000,"station_id":"ce4bhnh2rcd13ifvqgtg","pricing_plan_id":"free"},{"bike_id":"21315ac8-eb5f-48b7-9bb3-3308183cc673","system_id":"levelo_inurba_marseille","lat":43.27818,"lon":5.40712,"is_reserved":false,"is_disabled":false,"rental_uris":{"android":"levelo://app?vid=21315ac8-eb5f-48b7-9bb3-3308183cc673","ios":"levelo://app?vid=21315ac8-eb5f-48b7-9bb3-3308183cc673"},"vehicle_type_id":"4","last_reported":1702631246,"current_range_meters":20800,"station_id":"ce4bhnh2rcd13ifvqgtg","pricing_plan_id":"free"},{"bike_id":"13136e7b-17d5-41a3-baf1-84312a187446","system_id":"levelo_inurba_marseille","lat":43.278128,"lon":5.407195,"is_reserved":false,"is_disabled":false,"rental_uris":{"android":"levelo://app?vid=13136e7b-17d5-41a3-baf1-84312a187446","ios":"levelo://app?vid=13136e7b-17d5-41a3-baf1-84312a187446"},"vehicle_type_id":"4","last_reported":1702631246,"current_range_meters":31200,"station_id":"ce4bhnh2rcd13ifvqgtg","pricing_plan_id":"free"},{"bike_id":"9ed8a8b0-adcb-4301-a90b-ada718e24e35","system_id":"levelo_inurba_marseille","lat":43.278128,"lon":5.407195,"is_reserved":false,"is_disabled":false,"rental_uris":{"android":"levelo://app?vid=9ed8a8b0-adcb-4301-a90b-ada718e24e35","ios":"levelo://app?vid=9ed8a8b0-adcb-4301-a90b-ada718e24e35"},"vehicle_type_id":"4","last_reported":1702631246,"current_range_meters":28000,"station_id":"ce4bhnh2rcd13ifvqgtg","pricing_plan_id":"free"},{"bike_id":"aaf0a2da-6559-483e-b877-95aab8f7a9d9","system_id":"levelo_inurba_marseille","lat":43.27816,"lon":5.4072,"is_reserved":false,"is_disabled":false,"rental_uris":{"android":"levelo://app?vid=aaf0a2da-6559-483e-b877-95aab8f7a9d9","ios":"levelo://app?vid=aaf0a2da-6559-483e-b877-95aab8f7a9d9"},"vehicle_type_id":"4","last_reported":1702631246,"current_range_meters":23200,"station_id":"ce4bhnh2rcd13ifvqgtg","pricing_plan_id":"free"},{"bike_id":"6baecf9e-750f-4685-ba33-d33fd9cbfd22","system_id":"levelo_inurba_marseille","lat":43.278128,"lon":5.407195,"is_reserved":false,"is_disabled":false,"rental_uris":{"android":"levelo://app?vid=6baecf9e-750f-4685-ba33-d33fd9cbfd22","ios":"levelo://app?vid=6baecf9e-750f-4685-ba33-d33fd9cbfd22"},"vehicle_type_id":"4","last_reported":1702631246,"current_range_meters":30800,"station_id":"ce4bhnh2rcd13ifvqgtg","pricing_plan_id":"free"},{"bike_id":"99672b23-a5b6-4be4-9c79-7ddffd972fd5","system_id":"levelo_inurba_marseille","lat":43.278128,"lon":5.407195,"is_reserved":false,"is_disabled":false,"rental_uris":{"android":"levelo://app?vid=99672b23-a5b6-4be4-9c79-7ddffd972fd5","ios":"levelo://app?vid=99672b23-a5b6-4be4-9c79-7ddffd972fd5"},"vehicle_type_id":"4","last_reported":1702631246,"current_range_meters":25600,"station_id":"ce4bhnh2rcd13ifvqgtg","pricing_plan_id":"free"},{"bike_id":"6da20ce3-0cea-45d7-a352-df5d8299c97b","system_id":"levelo_inurba_marseille","lat":43.269467,"lon":5.386439,"is_reserved":false,"is_disabled":false,"rental_uris":{"android":"levelo://app?vid=6da20ce3-0cea-45d7-a352-df5d8299c97b","ios":"levelo://app?vid=6da20ce3-0cea-45d7-a352-df5d8299c97b"},"vehicle_type_id":"4","last_reported":1702631246,"current_range_meters":10000,"station_id":"ce4bhh92rcd13ifvqfh0","pricing_plan_id":"free"},{"bike_id":"adafdf8d-96e3-421b-bcc7-a7f6aece0ec5","system_id":"levelo_inurba_marseille","lat":43.269467,"lon":5.386439,"is_reserved":false,"is_disabled":false,"rental_uris":{"android":"levelo://app?vid=adafdf8d-96e3-421b-bcc7-a7f6aece0ec5","ios":"levelo://app?vid=adafdf8d-96e3-421b-bcc7-a7f6aece0ec5"},"vehicle_type_id":"4","last_reported":1702631246,"current_range_meters":25200,"station_id":"ce4bhh92rcd13ifvqfh0","pricing_plan_id":"free"},{"bike_id":"b3047019-6988-4c38-8f4d-5aec6d910e57","system_id":"levelo_inurba_marseille","lat":43.269467,"lon":5.386439,"is_reserved":false,"is_disabled":false,"rental_uris":{"android":"levelo://app?vid=b3047019-6988-4c38-8f4d-5aec6d910e57","ios":"levelo://app?vid=b3047019-6988-4c38-8f4d-5aec6d910e57"},"vehicle_type_id":"4","last_reported":1702631246,"current_range_meters":26800,"station_id":"ce4bhh92rcd13ifvqfh0","pricing_plan_id":"free"},{"bike_id":"a25b5c9a-b4b5-458d-9db3-e572c7d57067","system_id":"levelo_inurba_marseille","lat":43.269467,"lon":5.386439,"is_reserved":false,"is_disabled":false,"rental_uris":{"android":"levelo://app?vid=a25b5c9a-b4b5-458d-9db3-e572c7d57067","ios":"levelo://app?vid=a25b5c9a-b4b5-458d-9db3-e572c7d57067"},"vehicle_type_id":"4","last_reported":1702631246,"current_range_meters":28000,"station_id":"ce4bhh92rcd13ifvqfh0","pricing_plan_id":"free"},{"bike_id":"a4b7fddf-6322-4586-bc30-ce6b7b6f550b","system_id":"levelo_inurba_marseille","lat":43.269467,"lon":5.386439,"is_reserved":false,"is_disabled":false,"rental_uris":{"android":"levelo://app?vid=a4b7fddf-6322-4586-bc30-ce6b7b6f550b","ios":"levelo://app?vid=a4b7fddf-6322-4586-bc30-ce6b7b6f550b"},"vehicle_type_id":"4","last_reported":1702631246,"current_range_meters":28000,"station_id":"ce4bhh92rcd13ifvqfh0","pricing_plan_id":"free"},{"bike_id":"76cc33b1-f4ee-42ff-bc97-311a175184c3","system_id":"levelo_inurba_marseille","lat":43.27948,"lon":5.41042,"is_reserved":false,"is_disabled":false,"rental_uris":{"android":"levelo://app?vid=76cc33b1-f4ee-42ff-bc97-311a175184c3","ios":"levelo://app?vid=76cc33b1-f4ee-42ff-bc97-311a175184c3"},"vehicle_type_id":"4","last_reported":1702631246,"current_range_meters":30800,"station_id":"ce4bhnp2rcd13ifvqh0g","pricing_plan_id":"free"},{"bike_id":"7293e5de-fdab-4b0f-a215-eee67cf36860","system_id":"levelo_inurba_marseille","lat":43.279465,"lon":5.410561,"is_reserved":false,"is_disabled":false,"rental_uris":{"android":"levelo://app?vid=7293e5de-fdab-4b0f-a215-eee67cf36860","ios":"levelo://app?vid=7293e5de-fdab-4b0f-a215-eee67cf36860"},"vehicle_type_id":"4","last_reported":1702631246,"current_range_meters":10000,"station_id":"ce4bhnp2rcd13ifvqh0g","pricing_plan_id":"free"},{"bike_id":"f56d1639-c75a-49ae-a824-dcf5718915ab","system_id":"levelo_inurba_marseille","lat":43.279437,"lon":5.41043,"is_reserved":false,"is_disabled":false,"rental_uris":{"android":"levelo://app?vid=f56d1639-c75a-49ae-a824-dcf5718915ab","ios":"levelo://app?vid=f56d1639-c75a-49ae-a824-dcf5718915ab"},"vehicle_type_id":"4","last_reported":1702631246,"current_range_meters":20000,"station_id":"ce4bhnp2rcd13ifvqh0g","pricing_plan_id":"free"},{"bike_id":"eb6ccbee-ab6a-4e74-adda-2871950dfeb7","system_id":"levelo_inurba_marseille","lat":43.26681,"lon":5.382694,"is_reserved":false,"is_disabled":false,"rental_uris":{"android":"levelo://app?vid=eb6ccbee-ab6a-4e74-adda-2871950dfeb7","ios":"levelo://app?vid=eb6ccbee-ab6a-4e74-adda-2871950dfeb7"},"vehicle_type_id":"4","last_reported":1702631246,"current_range_meters":25600,"station_id":"ce4bhg92rcd13ifvqf90","pricing_plan_id":"free"},{"bike_id":"0650813a-e71b-48fe-b621-fedb00b0f8f5","system_id":"levelo_inurba_marseille","lat":43.26681,"lon":5.382694,"is_reserved":false,"is_disabled":false,"rental_uris":{"android":"levelo://app?vid=0650813a-e71b-48fe-b621-fedb00b0f8f5","ios":"levelo://app?vid=0650813a-e71b-48fe-b621-fedb00b0f8f5"},"vehicle_type_id":"4","last_reported":1702631246,"current_range_meters":28000,"station_id":"ce4bhg92rcd13ifvqf90","pricing_plan_id":"free"},{"bike_id":"1eaedf40-784a-4534-a068-edcb9f561aa7","system_id":"levelo_inurba_marseille","lat":43.26681,"lon":5.382694,"is_reserved":false,"is_disabled":false,"rental_uris":{"android":"levelo://app?vid=1eaedf40-784a-4534-a068-edcb9f561aa7","ios":"levelo://app?vid=1eaedf40-784a-4534-a068-edcb9f561aa7"},"vehicle_type_id":"4","last_reported":1702631246,"current_range_meters":30400,"station_id":"ce4bhg92rcd13ifvqf90","pricing_plan_id":"free"},{"bike_id":"829307dd-9e44-449a-bf7d-95a9170e4219","system_id":"levelo_inurba_marseille","lat":43.26681,"lon":5.382694,"is_reserved":false,"is_disabled":false,"rental_uris":{"android":"levelo://app?vid=829307dd-9e44-449a-bf7d-95a9170e4219","ios":"levelo://app?vid=829307dd-9e44-449a-bf7d-95a9170e4219"},"vehicle_type_id":"4","last_reported":1702631246,"current_range_meters":4400,"station_id":"ce4bhg92rcd13ifvqf90","pricing_plan_id":"free"},{"bike_id":"e8e248da-6af5-4b0e-8934-ed8721777e5c","system_id":"levelo_inurba_marseille","lat":43.26681,"lon":5.382694,"is_reserved":false,"is_disabled":false,"rental_uris":{"android":"levelo://app?vid=e8e248da-6af5-4b0e-8934-ed8721777e5c","ios":"levelo://app?vid=e8e248da-6af5-4b0e-8934-ed8721777e5c"},"vehicle_type_id":"4","last_reported":1702631246,"current_range_meters":27600,"station_id":"ce4bhg92rcd13ifvqf90","pricing_plan_id":"free"},{"bike_id":"a5e42a66-9b46-4ca8-84f4-a03ae642fef1","system_id":"levelo_inurba_marseille","lat":43.26681,"lon":5.382694,"is_reserved":false,"is_disabled":false,"rental_uris":{"android":"levelo://app?vid=a5e42a66-9b46-4ca8-84f4-a03ae642fef1","ios":"levelo://app?vid=a5e42a66-9b46-4ca8-84f4-a03ae642fef1"},"vehicle_type_id":"4","last_reported":1702631246,"current_range_meters":0,"station_id":"ce4bhg92rcd13ifvqf90","pricing_plan_id":"free"},{"bike_id":"233e4d84-6e5c-4e53-ae5b-241ab43f5062","system_id":"levelo_inurba_marseille","lat":43.268117,"lon":5.389113,"is_reserved":false,"is_disabled":false,"rental_uris":{"android":"levelo://app?vid=233e4d84-6e5c-4e53-ae5b-241ab43f5062","ios":"levelo://app?vid=233e4d84-6e5c-4e53-ae5b-241ab43f5062"},"vehicle_type_id":"4","last_reported":1702631246,"current_range_meters":4800,"station_id":"","pricing_plan_id":"free"},{"bike_id":"8df36a2f-9a4c-411e-9780-e3e8c897fac1","system_id":"levelo_inurba_marseille","lat":43.27996,"lon":5.416624,"is_reserved":false,"is_disabled":false,"rental_uris":{"android":"levelo://app?vid=8df36a2f-9a4c-411e-9780-e3e8c897fac1","ios":"levelo://app?vid=8df36a2f-9a4c-411e-9780-e3e8c897fac1"},"vehicle_type_id":"4","last_reported":1702631246,"current_range_meters":31200,"station_id":"ce4bho12rcd13ifvqh1g","pricing_plan_id":"free"},{"bike_id":"8dd7f3b2-fac2-4f40-8d56-9a0ca7caf5b3","system_id":"levelo_inurba_marseille","lat":43.331996,"lon":5.429407,"is_reserved":false,"is_disabled":false,"rental_uris":{"android":"levelo://app?vid=8dd7f3b2-fac2-4f40-8d56-9a0ca7caf5b3","ios":"levelo://app?vid=8dd7f3b2-fac2-4f40-8d56-9a0ca7caf5b3"},"vehicle_type_id":"4","last_reported":1702631246,"current_range_meters":8800,"station_id":"","pricing_plan_id":"free"},{"bike_id":"57af1789-7d59-4a18-978a-31ab3befc7c2","system_id":"levelo_inurba_marseille","lat":43.2694,"lon":5.40255,"is_reserved":false,"is_disabled":false,"rental_uris":{"android":"levelo://app?vid=57af1789-7d59-4a18-978a-31ab3befc7c2","ios":"levelo://app?vid=57af1789-7d59-4a18-978a-31ab3befc7c2"},"vehicle_type_id":"4","last_reported":1702631246,"current_range_meters":15200,"station_id":"cjm6bp8fraef2m0cb0m0","pricing_plan_id":"free"},{"bike_id":"58b7ffe3-528d-4a0b-8000-38f813ae35b3","system_id":"levelo_inurba_marseille","lat":43.317104,"lon":5.436818,"is_reserved":false,"is_disabled":false,"rental_uris":{"android":"levelo://app?vid=58b7ffe3-528d-4a0b-8000-38f813ae35b3","ios":"levelo://app?vid=58b7ffe3-528d-4a0b-8000-38f813ae35b3"},"vehicle_type_id":"4","last_reported":1702631246,"current_range_meters":31200,"station_id":"ce4bhp92rcd13ifvqhcg","pricing_plan_id":"free"},{"bike_id":"dcd51afc-e0ea-40ce-a3ed-c5c9a2a1a2ae","system_id":"levelo_inurba_marseille","lat":43.317104,"lon":5.436818,"is_reserved":false,"is_disabled":false,"rental_uris":{"android":"levelo://app?vid=dcd51afc-e0ea-40ce-a3ed-c5c9a2a1a2ae","ios":"levelo://app?vid=dcd51afc-e0ea-40ce-a3ed-c5c9a2a1a2ae"},"vehicle_type_id":"4","last_reported":1702631246,"current_range_meters":29200,"station_id":"ce4bhp92rcd13ifvqhcg","pricing_plan_id":"free"},{"bike_id":"0b845d98-c765-4efc-b889-4fab1bce0ade","system_id":"levelo_inurba_marseille","lat":43.26202,"lon":5.379299,"is_reserved":false,"is_disabled":false,"rental_uris":{"android":"levelo://app?vid=0b845d98-c765-4efc-b889-4fab1bce0ade","ios":"levelo://app?vid=0b845d98-c765-4efc-b889-4fab1bce0ade"},"vehicle_type_id":"4","last_reported":1702631246,"current_range_meters":25600,"station_id":"ce4bhjp2rcd13ifvqg90","pricing_plan_id":"free"},{"bike_id":"be197fd9-64ec-4b98-b633-39b07f94c9d7","system_id":"levelo_inurba_marseille","lat":43.26202,"lon":5.379299,"is_reserved":false,"is_disabled":false,"rental_uris":{"android":"levelo://app?vid=be197fd9-64ec-4b98-b633-39b07f94c9d7","ios":"levelo://app?vid=be197fd9-64ec-4b98-b633-39b07f94c9d7"},"vehicle_type_id":"4","last_reported":1702631246,"current_range_meters":2800,"station_id":"ce4bhjp2rcd13ifvqg90","pricing_plan_id":"free"},{"bike_id":"4510633c-6100-41ad-9855-e4f0def2a04e","system_id":"levelo_inurba_marseille","lat":43.29901,"lon":5.43665,"is_reserved":false,"is_disabled":false,"rental_uris":{"android":"levelo://app?vid=4510633c-6100-41ad-9855-e4f0def2a04e","ios":"levelo://app?vid=4510633c-6100-41ad-9855-e4f0def2a04e"},"vehicle_type_id":"4","last_reported":1702631246,"current_range_meters":20800,"station_id":"ce4bhpp2rcd13ifvqhfg","pricing_plan_id":"free"},{"bike_id":"281cc086-7c8f-44e0-abbe-0ddc559b2c6b","system_id":"levelo_inurba_marseille","lat":43.281548,"lon":5.42643,"is_reserved":false,"is_disabled":false,"rental_uris":{"android":"levelo://app?vid=281cc086-7c8f-44e0-abbe-0ddc559b2c6b","ios":"levelo://app?vid=281cc086-7c8f-44e0-abbe-0ddc559b2c6b"},"vehicle_type_id":"4","last_reported":1702631246,"current_range_meters":27200,"station_id":"ce4bhnh2rcd13ifvqgug","pricing_plan_id":"free"},{"bike_id":"898f9814-e653-48c5-8d49-4d5eaed0dd4d","system_id":"levelo_inurba_marseille","lat":43.281548,"lon":5.42643,"is_reserved":false,"is_disabled":false,"rental_uris":{"android":"levelo://app?vid=898f9814-e653-48c5-8d49-4d5eaed0dd4d","ios":"levelo://app?vid=898f9814-e653-48c5-8d49-4d5eaed0dd4d"},"vehicle_type_id":"4","last_reported":1702631246,"current_range_meters":11600,"station_id":"ce4bhnh2rcd13ifvqgug","pricing_plan_id":"free"},{"bike_id":"0234f7ca-f206-4e1a-9c12-46bcca0dae13","system_id":"levelo_inurba_marseille","lat":43.281548,"lon":5.42643,"is_reserved":false,"is_disabled":false,"rental_uris":{"android":"levelo://app?vid=0234f7ca-f206-4e1a-9c12-46bcca0dae13","ios":"levelo://app?vid=0234f7ca-f206-4e1a-9c12-46bcca0dae13"},"vehicle_type_id":"4","last_reported":1702631246,"current_range_meters":16400,"station_id":"ce4bhnh2rcd13ifvqgug","pricing_plan_id":"free"},{"bike_id":"e1a4e7f2-d6c9-431f-9be0-2c76848eb849","system_id":"levelo_inurba_marseille","lat":43.281548,"lon":5.42643,"is_reserved":false,"is_disabled":false,"rental_uris":{"android":"levelo://app?vid=e1a4e7f2-d6c9-431f-9be0-2c76848eb849","ios":"levelo://app?vid=e1a4e7f2-d6c9-431f-9be0-2c76848eb849"},"vehicle_type_id":"4","last_reported":1702631246,"current_range_meters":30000,"station_id":"ce4bhnh2rcd13ifvqgug","pricing_plan_id":"free"},{"bike_id":"735f2dc7-3a26-413c-b0fb-a8bae6b3656a","system_id":"levelo_inurba_marseille","lat":43.2607,"lon":5.393983,"is_reserved":false,"is_disabled":false,"rental_uris":{"android":"levelo://app?vid=735f2dc7-3a26-413c-b0fb-a8bae6b3656a","ios":"levelo://app?vid=735f2dc7-3a26-413c-b0fb-a8bae6b3656a"},"vehicle_type_id":"4","last_reported":1702631246,"current_range_meters":23200,"station_id":"ce4bhh92rcd13ifvqfj0","pricing_plan_id":"free"},{"bike_id":"1cb60a24-c2be-43f6-9a9b-c8b6a5d9e10f","system_id":"levelo_inurba_marseille","lat":43.26057,"lon":5.39395,"is_reserved":false,"is_disabled":false,"rental_uris":{"android":"levelo://app?vid=1cb60a24-c2be-43f6-9a9b-c8b6a5d9e10f","ios":"levelo://app?vid=1cb60a24-c2be-43f6-9a9b-c8b6a5d9e10f"},"vehicle_type_id":"4","last_reported":1702631246,"current_range_meters":31200,"station_id":"ce4bhh92rcd13ifvqfj0","pricing_plan_id":"free"},{"bike_id":"5a7aad06-a599-40eb-87c0-e5cd41ac6735","system_id":"levelo_inurba_marseille","lat":43.260539,"lon":5.394015,"is_reserved":false,"is_disabled":false,"rental_uris":{"android":"levelo://app?vid=5a7aad06-a599-40eb-87c0-e5cd41ac6735","ios":"levelo://app?vid=5a7aad06-a599-40eb-87c0-e5cd41ac6735"},"vehicle_type_id":"4","last_reported":1702631246,"current_range_meters":23200,"station_id":"","pricing_plan_id":"free"},{"bike_id":"6b439d36-410c-4b80-ad9e-8b4f882cb7c1","system_id":"levelo_inurba_marseille","lat":43.27499,"lon":5.42448,"is_reserved":false,"is_disabled":false,"rental_uris":{"android":"levelo://app?vid=6b439d36-410c-4b80-ad9e-8b4f882cb7c1","ios":"levelo://app?vid=6b439d36-410c-4b80-ad9e-8b4f882cb7c1"},"vehicle_type_id":"4","last_reported":1702631246,"current_range_meters":20000,"station_id":"ce4bhn92rcd13ifvqgrg","pricing_plan_id":"free"},{"bike_id":"7f1d355d-d0e0-455c-acdb-1d3fb2975bf5","system_id":"levelo_inurba_marseille","lat":43.275028,"lon":5.424534,"is_reserved":false,"is_disabled":false,"rental_uris":{"android":"levelo://app?vid=7f1d355d-d0e0-455c-acdb-1d3fb2975bf5","ios":"levelo://app?vid=7f1d355d-d0e0-455c-acdb-1d3fb2975bf5"},"vehicle_type_id":"4","last_reported":1702631246,"current_range_meters":22400,"station_id":"ce4bhn92rcd13ifvqgrg","pricing_plan_id":"free"},{"bike_id":"8eb11b68-350f-4238-9580-eb2604e67bf8","system_id":"levelo_inurba_marseille","lat":43.275028,"lon":5.424534,"is_reserved":false,"is_disabled":false,"rental_uris":{"android":"levelo://app?vid=8eb11b68-350f-4238-9580-eb2604e67bf8","ios":"levelo://app?vid=8eb11b68-350f-4238-9580-eb2604e67bf8"},"vehicle_type_id":"4","last_reported":1702631246,"current_range_meters":10400,"station_id":"ce4bhn92rcd13ifvqgrg","pricing_plan_id":"free"},{"bike_id":"6aa362c8-9a46-458b-813a-b9a7fee51c49","system_id":"levelo_inurba_marseille","lat":43.275028,"lon":5.424534,"is_reserved":false,"is_disabled":false,"rental_uris":{"android":"levelo://app?vid=6aa362c8-9a46-458b-813a-b9a7fee51c49","ios":"levelo://app?vid=6aa362c8-9a46-458b-813a-b9a7fee51c49"},"vehicle_type_id":"4","last_reported":1702631246,"current_range_meters":28000,"station_id":"ce4bhn92rcd13ifvqgrg","pricing_plan_id":"free"},{"bike_id":"786ce9a3-131e-40d4-85f8-31d935c8c652","system_id":"levelo_inurba_marseille","lat":43.275028,"lon":5.424534,"is_reserved":false,"is_disabled":false,"rental_uris":{"android":"levelo://app?vid=786ce9a3-131e-40d4-85f8-31d935c8c652","ios":"levelo://app?vid=786ce9a3-131e-40d4-85f8-31d935c8c652"},"vehicle_type_id":"4","last_reported":1702631246,"current_range_meters":26000,"station_id":"ce4bhn92rcd13ifvqgrg","pricing_plan_id":"free"},{"bike_id":"0b41f3a7-2efa-462f-b0bd-2fee3739c3ce","system_id":"levelo_inurba_marseille","lat":43.275028,"lon":5.424534,"is_reserved":false,"is_disabled":false,"rental_uris":{"android":"levelo://app?vid=0b41f3a7-2efa-462f-b0bd-2fee3739c3ce","ios":"levelo://app?vid=0b41f3a7-2efa-462f-b0bd-2fee3739c3ce"},"vehicle_type_id":"4","last_reported":1702631246,"current_range_meters":31200,"station_id":"ce4bhn92rcd13ifvqgrg","pricing_plan_id":"free"},{"bike_id":"058bbade-801c-4385-9ea5-0c480a7ad204","system_id":"levelo_inurba_marseille","lat":43.27495,"lon":5.42453,"is_reserved":false,"is_disabled":false,"rental_uris":{"android":"levelo://app?vid=058bbade-801c-4385-9ea5-0c480a7ad204","ios":"levelo://app?vid=058bbade-801c-4385-9ea5-0c480a7ad204"},"vehicle_type_id":"4","last_reported":1702631246,"current_range_meters":12800,"station_id":"ce4bhn92rcd13ifvqgrg","pricing_plan_id":"free"},{"bike_id":"165ceece-25e6-422e-83f8-0b6e0273b138","system_id":"levelo_inurba_marseille","lat":43.275028,"lon":5.424534,"is_reserved":false,"is_disabled":false,"rental_uris":{"android":"levelo://app?vid=165ceece-25e6-422e-83f8-0b6e0273b138","ios":"levelo://app?vid=165ceece-25e6-422e-83f8-0b6e0273b138"},"vehicle_type_id":"4","last_reported":1702631246,"current_range_meters":26000,"station_id":"ce4bhn92rcd13ifvqgrg","pricing_plan_id":"free"},{"bike_id":"61759779-3102-4335-85bb-471201d8436f","system_id":"levelo_inurba_marseille","lat":43.275028,"lon":5.424534,"is_reserved":false,"is_disabled":false,"rental_uris":{"android":"levelo://app?vid=61759779-3102-4335-85bb-471201d8436f","ios":"levelo://app?vid=61759779-3102-4335-85bb-471201d8436f"},"vehicle_type_id":"4","last_reported":1702631246,"current_range_meters":26800,"station_id":"ce4bhn92rcd13ifvqgrg","pricing_plan_id":"free"},{"bike_id":"bcbedf1b-83ff-489c-86dd-65f1f37a8571","system_id":"levelo_inurba_marseille","lat":43.27494,"lon":5.42454,"is_reserved":false,"is_disabled":false,"rental_uris":{"android":"levelo://app?vid=bcbedf1b-83ff-489c-86dd-65f1f37a8571","ios":"levelo://app?vid=bcbedf1b-83ff-489c-86dd-65f1f37a8571"},"vehicle_type_id":"4","last_reported":1702631246,"current_range_meters":18000,"station_id":"ce4bhn92rcd13ifvqgrg","pricing_plan_id":"free"},{"bike_id":"7a3b8a2b-9eaf-4ce3-9206-95378878fe92","system_id":"levelo_inurba_marseille","lat":43.275028,"lon":5.424534,"is_reserved":false,"is_disabled":false,"rental_uris":{"android":"levelo://app?vid=7a3b8a2b-9eaf-4ce3-9206-95378878fe92","ios":"levelo://app?vid=7a3b8a2b-9eaf-4ce3-9206-95378878fe92"},"vehicle_type_id":"4","last_reported":1702631246,"current_range_meters":30000,"station_id":"ce4bhn92rcd13ifvqgrg","pricing_plan_id":"free"},{"bike_id":"f8a376cc-e9e8-40b4-b8cb-d28bb47eafca","system_id":"levelo_inurba_marseille","lat":43.275028,"lon":5.424534,"is_reserved":false,"is_disabled":false,"rental_uris":{"android":"levelo://app?vid=f8a376cc-e9e8-40b4-b8cb-d28bb47eafca","ios":"levelo://app?vid=f8a376cc-e9e8-40b4-b8cb-d28bb47eafca"},"vehicle_type_id":"4","last_reported":1702631246,"current_range_meters":21600,"station_id":"ce4bhn92rcd13ifvqgrg","pricing_plan_id":"free"},{"bike_id":"af6bc09a-5c6d-4955-b057-42d5653b1f8c","system_id":"levelo_inurba_marseille","lat":43.275028,"lon":5.424534,"is_reserved":false,"is_disabled":false,"rental_uris":{"android":"levelo://app?vid=af6bc09a-5c6d-4955-b057-42d5653b1f8c","ios":"levelo://app?vid=af6bc09a-5c6d-4955-b057-42d5653b1f8c"},"vehicle_type_id":"4","last_reported":1702631246,"current_range_meters":20800,"station_id":"ce4bhn92rcd13ifvqgrg","pricing_plan_id":"free"},{"bike_id":"831280d8-21d2-40e8-9483-f2c9825c8ecc","system_id":"levelo_inurba_marseille","lat":43.27492,"lon":5.42462,"is_reserved":false,"is_disabled":false,"rental_uris":{"android":"levelo://app?vid=831280d8-21d2-40e8-9483-f2c9825c8ecc","ios":"levelo://app?vid=831280d8-21d2-40e8-9483-f2c9825c8ecc"},"vehicle_type_id":"4","last_reported":1702631246,"current_range_meters":12800,"station_id":"ce4bhn92rcd13ifvqgrg","pricing_plan_id":"free"},{"bike_id":"14257a08-986b-4cfe-87f5-c5070bc0123b","system_id":"levelo_inurba_marseille","lat":43.258224,"lon":5.394369,"is_reserved":false,"is_disabled":false,"rental_uris":{"android":"levelo://app?vid=14257a08-986b-4cfe-87f5-c5070bc0123b","ios":"levelo://app?vid=14257a08-986b-4cfe-87f5-c5070bc0123b"},"vehicle_type_id":"4","last_reported":1702631246,"current_range_meters":28800,"station_id":"ce4bhip2rcd13ifvqft0","pricing_plan_id":"free"},{"bike_id":"35426eb5-e00b-46a9-9756-0fc1e6a55ee9","system_id":"levelo_inurba_marseille","lat":43.254947,"lon":5.376454,"is_reserved":false,"is_disabled":false,"rental_uris":{"android":"levelo://app?vid=35426eb5-e00b-46a9-9756-0fc1e6a55ee9","ios":"levelo://app?vid=35426eb5-e00b-46a9-9756-0fc1e6a55ee9"},"vehicle_type_id":"4","last_reported":1702631246,"current_range_meters":24400,"station_id":"ce4bhh12rcd13ifvqff0","pricing_plan_id":"free"},