{"last_updated":1713499716,"ttl":30,"version":"2.2","data":{"bikes":[{"bike_id":"1e362e2e-b494-4507-bace-5f64afbc16a8","system_id":"levelo_inurba_marseille","lat":43.31341,"lon":5.367098,"is_reserved":false,"is_disabled":false,"rental_uris":{"android":"levelo://app?vid=1e362e2e-b494-4507-bace-5f64afbc16a8","ios":"levelo://app?vid=1e362e2e-b494-4507-bace-5f64afbc16a8"},"vehicle_type_id":"4","last_reported":1713499716,"current_range_meters":28000,"station_id":"ce4bgr92rcd13ifvqc6g","pricing_plan_id":"cebpf4jnsgd1na2vs0mg"},{"bike_id":"f8665d24-98ba-403d-9b33-272f5f2d629d","system_id":"levelo_inurba_marseille","lat":43.31341,"lon":5.367098,"is_reserved":false,"is_disabled":false,"rental_uris":{"android":"levelo://app?vid=f8665d24-98ba-403d-9b33-272f5f2d629d","ios":"levelo://app?vid=f8665d24-98ba-403d-9b33-272f5f2d629d"},"vehicle_type_id":"4","last_reported":1713499716,"current_range_meters":20800,"station_id":"ce4bgr92rcd13ifvqc6g","pricing_plan_id":"cebpf4jnsgd1na2vs0mg"},{"bike_id":"a3b84c99-7367-4071-a6b6-4b0f24f41008","system_id":"levelo_inurba_marseille","lat":43.312239,"lon":5.368562,"is_reserved":false,"is_disabled":false,"rental_uris":{"android":"levelo://app?vid=a3b84c99-7367-4071-a6b6-4b0f24f41008","ios":"levelo://app?vid=a3b84c99-7367-4071-a6b6-4b0f24f41008"},"vehicle_type_id":"4","last_reported":1713499716,"current_range_meters":23200,"station_id":"ce4bgl92rcd13ifvqbq0","pricing_plan_id":"cebpf4jnsgd1na2vs0mg"},{"bike_id":"8bc8a6f6-e0e0-4068-92e5-74b4df4d2a64","system_id":"levelo_inurba_marseille","lat":43.312239,"lon":5.368562,"is_reserved":false,"is_disabled":false,"rental_uris":{"android":"levelo://app?vid=8bc8a6f6-e0e0-4068-92e5-74b4df4d2a64","ios":"levelo://app?vid=8bc8a6f6-e0e0-4068-92e5-74b4df4d2a64"},"vehicle_type_id":"4","last_reported":1713499716,"current_range_meters":24800,"station_id":"ce4bgl92rcd13ifvqbq0","pricing_plan_id":"cebpf4jnsgd1na2vs0mg"},{"bike_id":"70ccafe4-4210-4fab-b89e-7099eb28b9c0","system_id":"levelo_inurba_marseille","lat":43.312239,"lon":5.368562,"is_reserved":false,"is_disabled":false,"rental_uris":{"android":"levelo://app?vid=70ccafe4-4210-4fab-b89e-7099eb28b9c0","ios":"levelo://app?vid=70ccafe4-4210-4fab-b89e-7099eb28b9c0"},"vehicle_type_id":"4","last_reported":1713499716,"current_range_meters":22000,"station_id":"ce4bgl92rcd13ifvqbq0","pricing_plan_id":"cebpf4jnsgd1na2vs0mg"},{"bike_id":"2ad73ef2-225e-4fc4-9a76-94fbe5d03717","system_id":"levelo_inurba_marseille","lat":43.312239,"lon":5.368562,"is_reserved":false,"is_disabled":false,"rental_uris":{"android":"levelo://app?vid=2ad73ef2-225e-4fc4-9a76-94fbe5d03717","ios":"levelo://app?vid=2ad73ef2-225e-4fc4-9a76-94fbe5d03717"},"vehicle_type_id":"4","last_reported":1713499716,"current_range_meters":17600,"station_id":"ce4bgl92rcd13ifvqbq0","pricing_plan_id":"cebpf4jnsgd1na2vs0mg"},{"bike_id":"b648e9db-8012-494a-afb9-698c27862972","system_id":"levelo_inurba_marseille","lat":43.305989,"lon":5.37225,"is_reserved":false,"is_disabled":false,"rental_uris":{"android":"levelo://app?vid=b648e9db-8012-494a-afb9-698c27862972","ios":"levelo://app?vid=b648e9db-8012-494a-afb9-698c27862972"},"vehicle_type_id":"4","last_reported":1713499716,"current_range_meters":23600,"station_id":"ce4bgqh2rcd13ifvqc4g","pricing_plan_id":"cebpf4jnsgd1na2vs0mg"},{"bike_id":"247d7c96-209a-4cae-b34a-a837c2392daa","system_id":"levelo_inurba_marseille","lat":43.309076,"lon":5.368465,"is_reserved":false,"is_disabled":false,"rental_uris":{"android":"levelo://app?vid=247d7c96-209a-4cae-b34a-a837c2392daa","ios":"levelo://app?vid=247d7c96-209a-4cae-b34a-a837c2392daa"},"vehicle_type_id":"4","last_reported":1713499716,"current_range_meters":26800,"station_id":"ce4bgn92rcd13ifvqbvg","pricing_plan_id":"cebpf4jnsgd1na2vs0mg"},{"bike_id":"7a76ac97-9ab4-48ee-a466-9be8d7b9f7b6","system_id":"levelo_inurba_marseille","lat":43.31325,"lon":5.37259,"is_reserved":false,"is_disabled":false,"rental_uris":{"android":"levelo://app?vid=7a76ac97-9ab4-48ee-a466-9be8d7b9f7b6","ios":"levelo://app?vid=7a76ac97-9ab4-48ee-a466-9be8d7b9f7b6"},"vehicle_type_id":"4","last_reported":1713499716,"current_range_meters":7200,"station_id":"","pricing_plan_id":"cebpf4jnsgd1na2vs0mg"},{"bike_id":"f60ed17c-a277-4183-9c04-cac214fa5e4d","system_id":"levelo_inurba_marseille","lat":43.314811,"lon":5.373103,"is_reserved":false,"is_disabled":false,"rental_uris":{"android":"levelo://app?vid=f60ed17c-a277-4183-9c04-cac214fa5e4d","ios":"levelo://app?vid=f60ed17c-a277-4183-9c04-cac214fa5e4d"},"vehicle_type_id":"4","last_reported":1713499716,"current_range_meters":22000,"station_id":"ce4bgt12rcd13ifvqcd0","pricing_plan_id":"cebpf4jnsgd1na2vs0mg"},{"bike_id":"50bc1573-c3d7-41ae-9527-3b95c57f1bcb","system_id":"levelo_inurba_marseille","lat":43.314811,"lon":5.373103,"is_reserved":false,"is_disabled":false,"rental_uris":{"android":"levelo://app?vid=50bc1573-c3d7-41ae-9527-3b95c57f1bcb","ios":"levelo://app?vid=50bc1573-c3d7-41ae-9527-3b95c57f1bcb"},"vehicle_type_id":"4","last_reported":1713499716,"current_range_meters":27200,"station_id":"ce4bgt12rcd13ifvqcd0","pricing_plan_id":"cebpf4jnsgd1na2vs0mg"},{"bike_id":"2b4280f5-2618-4b0e-8802-3758ac786921","system_id":"levelo_inurba_marseille","lat":43.314811,"lon":5.373104,"is_reserved":false,"is_disabled":false,"rental_uris":{"android":"levelo://app?vid=2b4280f5-2618-4b0e-8802-3758ac786921","ios":"levelo://app?vid=2b4280f5-2618-4b0e-8802-3758ac786921"},"vehicle_type_id":"4","last_reported":1713499716,"current_range_meters":31200,"station_id":"ce4bgt12rcd13ifvqcd0","pricing_plan_id":"cebpf4jnsgd1na2vs0mg"},{"bike_id":"50189802-791f-40f8-b7a7-a290055a36cc","system_id":"levelo_inurba_marseille","lat":43.314811,"lon":5.373104,"is_reserved":false,"is_disabled":false,"rental_uris":{"android":"levelo://app?vid=50189802-791f-40f8-b7a7-a290055a36cc","ios":"levelo://app?vid=50189802-791f-40f8-b7a7-a290055a36cc"},"vehicle_type_id":"4","last_reported":1713499716,"current_range_meters":18000,"station_id":"ce4bgt12rcd13ifvqcd0","pricing_plan_id":"cebpf4jnsgd1na2vs0mg"},{"bike_id":"d154406d-bbc3-4a09-a759-0f4bec096209","system_id":"levelo_inurba_marseille","lat":43.314811,"lon":5.373104,"is_reserved":false,"is_disabled":false,"rental_uris":{"android":"levelo://app?vid=d154406d-bbc3-4a09-a759-0f4bec096209","ios":"levelo://app?vid=d154406d-bbc3-4a09-a759-0f4bec096209"},"vehicle_type_id":"4","last_reported":1713499716,"current_range_meters":12000,"station_id":"ce4bgt12rcd13ifvqcd0","pricing_plan_id":"cebpf4jnsgd1na2vs0mg"},{"bike_id":"5c966f9c-b81d-4e5a-9b23-4f02031cc95f","system_id":"levelo_inurba_marseille","lat":43.309034,"lon":5.371783,"is_reserved":false,"is_disabled":false,"rental_uris":{"android":"levelo://app?vid=5c966f9c-b81d-4e5a-9b23-4f02031cc95f","ios":"levelo://app?vid=5c966f9c-b81d-4e5a-9b23-4f02031cc95f"},"vehicle_type_id":"4","last_reported":1713499716,"current_range_meters":29600,"station_id":"ce4bguh2rcd13ifvqckg","pricing_plan_id":"cebpf4jnsgd1na2vs0mg"},{"bike_id":"cb8e0c4e-c845-418a-abbc-5591097572e3","system_id":"levelo_inurba_marseille","lat":43.309034,"lon":5.371783,"is_reserved":false,"is_disabled":false,"rental_uris":{"android":"levelo://app?vid=cb8e0c4e-c845-418a-abbc-5591097572e3","ios":"levelo://app?vid=cb8e0c4e-c845-418a-abbc-5591097572e3"},"vehicle_type_id":"4","last_reported":1713499716,"current_range_meters":16800,"station_id":"ce4bguh2rcd13ifvqckg","pricing_plan_id":"cebpf4jnsgd1na2vs0mg"},{"bike_id":"0ba9ae79-8121-4d01-91a0-77f1eb62a725","system_id":"levelo_inurba_marseille","lat":43.30537,"lon":5.367345,"is_reserved":false,"is_disabled":false,"rental_uris":{"android":"levelo://app?vid=0ba9ae79-8121-4d01-91a0-77f1eb62a725","ios":"levelo://app?vid=0ba9ae79-8121-4d01-91a0-77f1eb62a725"},"vehicle_type_id":"4","last_reported":1713499716,"current_range_meters":18400,"station_id":"ce4bgrp2rcd13ifvqc9g","pricing_plan_id":"cebpf4jnsgd1na2vs0mg"},{"bike_id":"52f22b5a-486d-4c62-a4ac-137bfb2f235e","system_id":"levelo_inurba_marseille","lat":43.30554,"lon":5.36534,"is_reserved":false,"is_disabled":false,"rental_uris":{"android":"levelo://app?vid=52f22b5a-486d-4c62-a4ac-137bfb2f235e","ios":"levelo://app?vid=52f22b5a-486d-4c62-a4ac-137bfb2f235e"},"vehicle_type_id":"4","last_reported":1713499716,"current_range_meters":27200,"station_id":"","pricing_plan_id":"cebpf4jnsgd1na2vs0mg"},{"bike_id":"800fa11c-7be7-414d-9c48-5c65ccd5b240","system_id":"levelo_inurba_marseille","lat":43.305492,"lon":5.36538,"is_reserved":false,"is_disabled":false,"rental_uris":{"android":"levelo://app?vid=800fa11c-7be7-414d-9c48-5c65ccd5b240","ios":"levelo://app?vid=800fa11c-7be7-414d-9c48-5c65ccd5b240"},"vehicle_type_id":"4","last_reported":1713499716,"current_range_meters":11200,"station_id":"ce4bgs12rcd13ifvqcag","pricing_plan_id":"cebpf4jnsgd1na2vs0mg"},{"bike_id":"df3264fb-f8df-430b-92c8-7d92a8373d37","system_id":"levelo_inurba_marseille","lat":43.305989,"lon":5.37225,"is_reserved":false,"is_disabled":false,"rental_uris":{"android":"levelo://app?vid=df3264fb-f8df-430b-92c8-7d92a8373d37","ios":"levelo://app?vid=df3264fb-f8df-430b-92c8-7d92a8373d37"},"vehicle_type_id":"4","last_reported":1713499716,"current_range_meters":16000,"station_id":"ce4bgqh2rcd13ifvqc4g","pricing_plan_id":"cebpf4jnsgd1na2vs0mg"},{"bike_id":"be0cfda4-e176-42ab-9c33-6a2b386e7c0b","system_id":"levelo_inurba_marseille","lat":43.305989,"lon":5.37225,"is_reserved":false,"is_disabled":false,"rental_uris":{"android":"levelo://app?vid=be0cfda4-e176-42ab-9c33-6a2b386e7c0b","ios":"levelo://app?vid=be0cfda4-e176-42ab-9c33-6a2b386e7c0b"},"vehicle_type_id":"4","last_reported":1713499716,"current_range_meters":30800,"station_id":"ce4bgqh2rcd13ifvqc4g","pricing_plan_id":"cebpf4jnsgd1na2vs0mg"},{"bike_id":"77b67ce4-781c-4a92-9f57-692a272d1234","system_id":"levelo_inurba_marseille","lat":43.305989,"lon":5.37225,"is_reserved":false,"is_disabled":false,"rental_uris":{"android":"levelo://app?vid=77b67ce4-781c-4a92-9f57-692a272d1234","ios":"levelo://app?vid=77b67ce4-781c-4a92-9f57-692a272d1234"},"vehicle_type_id":"4","last_reported":1713499716,"current_range_meters":24000,"station_id":"ce4bgqh2rcd13ifvqc4g","pricing_plan_id":"cebpf4jnsgd1na2vs0mg"},{"bike_id":"5b759b3e-d204-4b49-822d-ac1bd87ffe51","system_id":"levelo_inurba_marseille","lat":43.311125,"lon":5.377624,"is_reserved":false,"is_disabled":false,"rental_uris":{"android":"levelo://app?vid=5b759b3e-d204-4b49-822d-ac1bd87ffe51","ios":"levelo://app?vid=5b759b3e-d204-4b49-822d-ac1bd87ffe51"},"vehicle_type_id":"4","last_reported":1713499716,"current_range_meters":18800,"station_id":"ce4bgt92rcd13ifvqcg0","pricing_plan_id":"cebpf4jnsgd1na2vs0mg"},{"bike_id":"fde41e4e-620e-4acf-9427-80dfa6cf75d9","system_id":"levelo_inurba_marseille","lat":43.311125,"lon":5.377624,"is_reserved":false,"is_disabled":false,"rental_uris":{"android":"levelo://app?vid=fde41e4e-620e-4acf-9427-80dfa6cf75d9","ios":"levelo://app?vid=fde41e4e-620e-4acf-9427-80dfa6cf75d9"},"vehicle_type_id":"4","last_reported":1713499716,"current_range_meters":17600,"station_id":"ce4bgt92rcd13ifvqcg0","pricing_plan_id":"cebpf4jnsgd1na2vs0mg"},{"bike_id":"cf9b0453-d898-428a-b164-f4d75f1c8c29","system_id":"levelo_inurba_marseille","lat":43.311125,"lon":5.377624,"is_reserved":false,"is_disabled":false,"rental_uris":{"android":"levelo://app?vid=cf9b0453-d898-428a-b164-f4d75f1c8c29","ios":"levelo://app?vid=cf9b0453-d898-428a-b164-f4d75f1c8c29"},"vehicle_type_id":"4","last_reported":1713499716,"current_range_meters":4800,"station_id":"ce4bgt92rcd13ifvqcg0","pricing_plan_id":"cebpf4jnsgd1na2vs0mg"},{"bike_id":"cb9cfbff-9f24-4671-b6f8-df4d3f5e85d3","system_id":"levelo_inurba_marseille","lat":43.311125,"lon":5.377624,"is_reserved":false,"is_disabled":false,"rental_uris":{"android":"levelo://app?vid=cb9cfbff-9f24-4671-b6f8-df4d3f5e85d3","ios":"levelo://app?vid=cb9cfbff-9f24-4671-b6f8-df4d3f5e85d3"},"vehicle_type_id":"4","last_reported":1713499716,"current_range_meters":30400,"station_id":"ce4bgt92rcd13ifvqcg0","pricing_plan_id":"cebpf4jnsgd1na2vs0mg"},{"bike_id":"305946af-844d-4a9e-9773-e4ba67e718b6","system_id":"levelo_inurba_marseille","lat":43.311125,"lon":5.377624,"is_reserved":false,"is_disabled":false,"rental_uris":{"android":"levelo://app?vid=305946af-844d-4a9e-9773-e4ba67e718b6","ios":"levelo://app?vid=305946af-844d-4a9e-9773-e4ba67e718b6"},"vehicle_type_id":"4","last_reported":1713499716,"current_range_meters":31200,"station_id":"ce4bgt92rcd13ifvqcg0","pricing_plan_id":"cebpf4jnsgd1na2vs0mg"},{"bike_id":"8be27e18-859d-44be-97e4-95e71dc53203","system_id":"levelo_inurba_marseille","lat":43.311125,"lon":5.377624,"is_reserved":false,"is_disabled":false,"rental_uris":{"android":"levelo://app?vid=8be27e18-859d-44be-97e4-95e71dc53203","ios":"levelo://app?vid=8be27e18-859d-44be-97e4-95e71dc53203"},"vehicle_type_id":"4","last_reported":1713499716,"current_range_meters":25600,"station_id":"ce4bgt92rcd13ifvqcg0","pricing_plan_id":"cebpf4jnsgd1na2vs0mg"},{"bike_id":"7db68d2f-874e-4880-b00b-ad159a1dd4ba","system_id":"levelo_inurba_marseille","lat":43.311125,"lon":5.377624,"is_reserved":false,"is_disabled":false,"rental_uris":{"android":"levelo://app?vid=7db68d2f-874e-4880-b00b-ad159a1dd4ba","ios":"levelo://app?vid=7db68d2f-874e-4880-b00b-ad159a1dd4ba"},"vehicle_type_id":"4","last_reported":1713499716,"current_range_meters":7200,"station_id":"ce4bgt92rcd13ifvqcg0","pricing_plan_id":"cebpf4jnsgd1na2vs0mg"},{"bike_id":"451eb6ac-fba6-4aa3-933b-d923b6d19651","system_id":"levelo_inurba_marseille","lat":43.311131,"lon":5.377651,"is_reserved":false,"is_disabled":false,"rental_uris":{"android":"levelo://app?vid=451eb6ac-fba6-4aa3-933b-d923b6d19651","ios":"levelo://app?vid=451eb6ac-fba6-4aa3-933b-d923b6d19651"},"vehicle_type_id":"4","last_reported":1713499716,"current_range_meters":23600,"station_id":"ce4bgt92rcd13ifvqcg0","pricing_plan_id":"cebpf4jnsgd1na2vs0mg"},{"bike_id":"aa25f722-b4f5-4d39-927b-93021b89886f","system_id":"levelo_inurba_marseille","lat":43.311125,"lon":5.377624,"is_reserved":false,"is_disabled":false,"rental_uris":{"android":"levelo://app?vid=aa25f722-b4f5-4d39-927b-93021b89886f","ios":"levelo://app?vid=aa25f722-b4f5-4d39-927b-93021b89886f"},"vehicle_type_id":"4","last_reported":1713499716,"current_range_meters":28000,"station_id":"ce4bgt92rcd13ifvqcg0","pricing_plan_id":"cebpf4jnsgd1na2vs0mg"},{"bike_id":"00d61058-96e8-4875-b182-57548f0c7884","system_id":"levelo_inurba_marseille","lat":43.307945,"lon":5.376487,"is_reserved":false,"is_disabled":false,"rental_uris":{"android":"levelo://app?vid=00d61058-96e8-4875-b182-57548f0c7884","ios":"levelo://app?vid=00d61058-96e8-4875-b182-57548f0c7884"},"vehicle_type_id":"4","last_reported":1713499716,"current_range_meters":17200,"station_id":"ce4bgv92rcd13ifvqcq0","pricing_plan_id":"cebpf4jnsgd1na2vs0mg"},{"bike_id":"1e98b804-f2e3-414c-a66c-62e9627f32ae","system_id":"levelo_inurba_marseille","lat":43.311434,"lon":5.378464,"is_reserved":false,"is_disabled":false,"rental_uris":{"android":"levelo://app?vid=1e98b804-f2e3-414c-a66c-62e9627f32ae","ios":"levelo://app?vid=1e98b804-f2e3-414c-a66c-62e9627f32ae"},"vehicle_type_id":"4","last_reported":1713499716,"current_range_meters":13600,"station_id":"","pricing_plan_id":"cebpf4jnsgd1na2vs0mg"},{"bike_id":"f391454f-238d-4f53-9421-b28b9773a544","system_id":"levelo_inurba_marseille","lat":43.307945,"lon":5.376487,"is_reserved":false,"is_disabled":false,"rental_uris":{"android":"levelo://app?vid=f391454f-238d-4f53-9421-b28b9773a544","ios":"levelo://app?vid=f391454f-238d-4f53-9421-b28b9773a544"},"vehicle_type_id":"4","last_reported":1713499716,"current_range_meters":17600,"station_id":"ce4bgv92rcd13ifvqcq0","pricing_plan_id":"cebpf4jnsgd1na2vs0mg"},{"bike_id":"a1e652f1-cf41-4a9a-97cf-9447fcb73fbf","system_id":"levelo_inurba_marseille","lat":43.307945,"lon":5.376487,"is_reserved":false,"is_disabled":false,"rental_uris":{"android":"levelo://app?vid=a1e652f1-cf41-4a9a-97cf-9447fcb73fbf","ios":"levelo://app?vid=a1e652f1-cf41-4a9a-97cf-9447fcb73fbf"},"vehicle_type_id":"4","last_reported":1713499716,"current_range_meters":31200,"station_id":"ce4bgv92rcd13ifvqcq0","pricing_plan_id":"cebpf4jnsgd1na2vs0mg"},{"bike_id":"01ecf71d-bcf2-487e-94ec-6b1555bc0309","system_id":"levelo_inurba_marseille","lat":43.307945,"lon":5.376487,"is_reserved":false,"is_disabled":false,"rental_uris":{"android":"levelo://app?vid=01ecf71d-bcf2-487e-94ec-6b1555bc0309","ios":"levelo://app?vid=01ecf71d-bcf2-487e-94ec-6b1555bc0309"},"vehicle_type_id":"4","last_reported":1713499716,"current_range_meters":30400,"station_id":"ce4bgv92rcd13ifvqcq0","pricing_plan_id":"cebpf4jnsgd1na2vs0mg"},{"bike_id":"80332089-e2a4-4cfb-b33d-1b1baf9f8a82","system_id":"levelo_inurba_marseille","lat":43.307945,"lon":5.376487,"is_reserved":false,"is_disabled":false,"rental_uris":{"android":"levelo://app?vid=80332089-e2a4-4cfb-b33d-1b1baf9f8a82","ios":"levelo://app?vid=80332089-e2a4-4cfb-b33d-1b1baf9f8a82"},"vehicle_type_id":"4","last_reported":1713499716,"current_range_meters":4800,"station_id":"ce4bgv92rcd13ifvqcq0","pricing_plan_id":"cebpf4jnsgd1na2vs0mg"},{"bike_id":"c4baf763-d655-4aa5-ac73-429ad62f6f25","system_id":"levelo_inurba_marseille","lat":43.307945,"lon":5.376487,"is_reserved":false,"is_disabled":false,"rental_uris":{"android":"levelo://app?vid=c4baf763-d655-4aa5-ac73-429ad62f6f25","ios":"levelo://app?vid=c4baf763-d655-4aa5-ac73-429ad62f6f25"},"vehicle_type_id":"4","last_reported":1713499716,"current_range_meters":31200,"station_id":"ce4bgv92rcd13ifvqcq0","pricing_plan_id":"cebpf4jnsgd1na2vs0mg"},{"bike_id":"15ef113d-7a51-490f-9801-14d4d8b93d9d","system_id":"levelo_inurba_marseille","lat":43.307945,"lon":5.376487,"is_reserved":false,"is_disabled":false,"rental_uris":{"android":"levelo://app?vid=15ef113d-7a51-490f-9801-14d4d8b93d9d","ios":"levelo://app?vid=15ef113d-7a51-490f-9801-14d4d8b93d9d"},"vehicle_type_id":"4","last_reported":1713499716,"current_range_meters":29600,"station_id":"ce4bgv92rcd13ifvqcq0","pricing_plan_id":"cebpf4jnsgd1na2vs0mg"},{"bike_id":"fa3eb7a6-3dd1-461d-8059-5cf6064f14c7","system_id":"levelo_inurba_marseille","lat":43.307945,"lon":5.376487,"is_reserved":false,"is_disabled":false,"rental_uris":{"android":"levelo://app?vid=fa3eb7a6-3dd1-461d-8059-5cf6064f14c7","ios":"levelo://app?vid=fa3eb7a6-3dd1-461d-8059-5cf6064f14c7"},"vehicle_type_id":"4","last_reported":1713499716,"current_range_meters":8800,"station_id":"ce4bgv92rcd13ifvqcq0","pricing_plan_id":"cebpf4jnsgd1na2vs0mg"},{"bike_id":"34ecc14e-9ec6-4d8a-a7cb-203733287578","system_id":"levelo_inurba_marseille","lat":43.307945,"lon":5.376487,"is_reserved":false,"is_disabled":false,"rental_uris":{"android":"levelo://app?vid=34ecc14e-9ec6-4d8a-a7cb-203733287578","ios":"levelo://app?vid=34ecc14e-9ec6-4d8a-a7cb-203733287578"},"vehicle_type_id":"4","last_reported":1713499716,"current_range_meters":16400,"station_id":"ce4bgv92rcd13ifvqcq0","pricing_plan_id":"cebpf4jnsgd1na2vs0mg"},{"bike_id":"7cb0d0d6-aa5a-4fde-87d3-0e8fba8b7960","system_id":"levelo_inurba_marseille","lat":43.317075,"lon":5.377367,"is_reserved":false,"is_disabled":false,"rental_uris":{"android":"levelo://app?vid=7cb0d0d6-aa5a-4fde-87d3-0e8fba8b7960","ios":"levelo://app?vid=7cb0d0d6-aa5a-4fde-87d3-0e8fba8b7960"},"vehicle_type_id":"4","last_reported":1713499716,"current_range_meters":27600,"station_id":"ce4bgth2rcd13ifvqch0","pricing_plan_id":"cebpf4jnsgd1na2vs0mg"},{"bike_id":"c1c835ec-835f-4436-bd0f-65dd0f887688","system_id":"levelo_inurba_marseille","lat":43.317041,"lon":5.377518,"is_reserved":false,"is_disabled":false,"rental_uris":{"android":"levelo://app?vid=c1c835ec-835f-4436-bd0f-65dd0f887688","ios":"levelo://app?vid=c1c835ec-835f-4436-bd0f-65dd0f887688"},"vehicle_type_id":"4","last_reported":1713499716,"current_range_meters":17600,"station_id":"ce4bgth2rcd13ifvqch0","pricing_plan_id":"cebpf4jnsgd1na2vs0mg"},{"bike_id":"ace213ca-51ed-48eb-96a9-acc08ce3b2c7","system_id":"levelo_inurba_marseille","lat":43.317075,"lon":5.377367,"is_reserved":false,"is_disabled":false,"rental_uris":{"android":"levelo://app?vid=ace213ca-51ed-48eb-96a9-acc08ce3b2c7","ios":"levelo://app?vid=ace213ca-51ed-48eb-96a9-acc08ce3b2c7"},"vehicle_type_id":"4","last_reported":1713499716,"current_range_meters":27600,"station_id":"ce4bgth2rcd13ifvqch0","pricing_plan_id":"cebpf4jnsgd1na2vs0mg"},{"bike_id":"a7a821df-9106-4876-bcbb-9fdb00920793","system_id":"levelo_inurba_marseille","lat":43.317075,"lon":5.377367,"is_reserved":false,"is_disabled":false,"rental_uris":{"android":"levelo://app?vid=a7a821df-9106-4876-bcbb-9fdb00920793","ios":"levelo://app?vid=a7a821df-9106-4876-bcbb-9fdb00920793"},"vehicle_type_id":"4","last_reported":1713499716,"current_range_meters":31200,"station_id":"ce4bgth2rcd13ifvqch0","pricing_plan_id":"cebpf4jnsgd1na2vs0mg"},{"bike_id":"696c56ae-8b86-41cc-861b-4bf81fb0366f","system_id":"levelo_inurba_marseille","lat":43.303046,"lon":5.368981,"is_reserved":false,"is_disabled":false,"rental_uris":{"android":"levelo://app?vid=696c56ae-8b86-41cc-861b-4bf81fb0366f","ios":"levelo://app?vid=696c56ae-8b86-41cc-861b-4bf81fb0366f"},"vehicle_type_id":"4","last_reported":1713499716,"current_range_meters":28800,"station_id":"ce4bgqh2rcd13ifvqc5g","pricing_plan_id":"cebpf4jnsgd1na2vs0mg"},{"bike_id":"a4eed081-40bd-400b-889b-c14c46526dbe","system_id":"levelo_inurba_marseille","lat":43.30304,"lon":5.368987,"is_reserved":false,"is_disabled":false,"rental_uris":{"android":"levelo://app?vid=a4eed081-40bd-400b-889b-c14c46526dbe","ios":"levelo://app?vid=a4eed081-40bd-400b-889b-c14c46526dbe"},"vehicle_type_id":"4","last_reported":1713499716,"current_range_meters":20800,"station_id":"ce4bgqh2rcd13ifvqc5g","pricing_plan_id":"cebpf4jnsgd1na2vs0mg"},{"bike_id":"3dc9462e-6c55-46ba-8307-58613c515e6c","system_id":"levelo_inurba_marseille","lat":43.30304,"lon":5.368987,"is_reserved":false,"is_disabled":false,"rental_uris":{"android":"levelo://app?vid=3dc9462e-6c55-46ba-8307-58613c515e6c","ios":"levelo://app?vid=3dc9462e-6c55-46ba-8307-58613c515e6c"},"vehicle_type_id":"4","last_reported":1713499716,"current_range_meters":19200,"station_id":"ce4bgqh2rcd13ifvqc5g","pricing_plan_id":"cebpf4jnsgd1na2vs0mg"},{"bike_id":"62fe697f-13e0-4543-be9e-5c9455f2dab9","system_id":"levelo_inurba_marseille","lat":43.30304,"lon":5.368987,"is_reserved":false,"is_disabled":false,"rental_uris":{"android":"levelo://app?vid=62fe697f-13e0-4543-be9e-5c9455f2dab9","ios":"levelo://app?vid=62fe697f-13e0-4543-be9e-5c9455f2dab9"},"vehicle_type_id":"4","last_reported":1713499716,"current_range_meters":28800,"station_id":"ce4bgqh2rcd13ifvqc5g","pricing_plan_id":"cebpf4jnsgd1na2vs0mg"},{"bike_id":"b73d753d-ef9c-48b7-96f1-a02da014fb2c","system_id":"levelo_inurba_marseille","lat":43.315289,"lon":5.380349,"is_reserved":false,"is_disabled":false,"rental_uris":{"android":"levelo://app?vid=b73d753d-ef9c-48b7-96f1-a02da014fb2c","ios":"levelo://app?vid=b73d753d-ef9c-48b7-96f1-a02da014fb2c"},"vehicle_type_id":"4","last_reported":1713499716,"current_range_meters":25200,"station_id":"ce4bhsp2rcd13ifvqi50","pricing_plan_id":"cebpf4jnsgd1na2vs0mg"},{"bike_id":"8b5aab36-b533-4693-843a-71d98a93457f","system_id":"levelo_inurba_marseille","lat":43.315289,"lon":5.380349,"is_reserved":false,"is_disabled":false,"rental_uris":{"android":"levelo://app?vid=8b5aab36-b533-4693-843a-71d98a93457f","ios":"levelo://app?vid=8b5aab36-b533-4693-843a-71d98a93457f"},"vehicle_type_id":"4","last_reported":1713499716,"current_range_meters":0,"station_id":"ce4bhsp2rcd13ifvqi50","pricing_plan_id":"cebpf4jnsgd1na2vs0mg"},{"bike_id":"a11d3b88-71d9-4c23-978c-1a9ef5cbf771","system_id":"levelo_inurba_marseille","lat":43.315289,"lon":5.380349,"is_reserved":false,"is_disabled":false,"rental_uris":{"android":"levelo://app?vid=a11d3b88-71d9-4c23-978c-1a9ef5cbf771","ios":"levelo://app?vid=a11d3b88-71d9-4c23-978c-1a9ef5cbf771"},"vehicle_type_id":"4","last_reported":1713499716,"current_range_meters":31200,"station_id":"ce4bhsp2rcd13ifvqi50","pricing_plan_id":"cebpf4jnsgd1na2vs0mg"},{"bike_id":"b3498faa-c092-4542-b67d-78ed2043dd55","system_id":"levelo_inurba_marseille","lat":43.301939,"lon":5.366286,"is_reserved":false,"is_disabled":false,"rental_uris":{"android":"levelo://app?vid=b3498faa-c092-4542-b67d-78ed2043dd55","ios":"levelo://app?vid=b3498faa-c092-4542-b67d-78ed2043dd55"},"vehicle_type_id":"4","last_reported":1713499716,"current_range_meters":28000,"station_id":"ce4bgrh2rcd13ifvqc8g","pricing_plan_id":"cebpf4jnsgd1na2vs0mg"},{"bike_id":"70957b53-9317-4a5e-bc4c-bfa7612e45f9","system_id":"levelo_inurba_marseille","lat":43.308012,"lon":5.381511,"is_reserved":false,"is_disabled":false,"rental_uris":{"android":"levelo://app?vid=70957b53-9317-4a5e-bc4c-bfa7612e45f9","ios":"levelo://app?vid=70957b53-9317-4a5e-bc4c-bfa7612e45f9"},"vehicle_type_id":"4","last_reported":1713499716,"current_range_meters":29200,"station_id":"ce4bgt12rcd13ifvqce0","pricing_plan_id":"cebpf4jnsgd1na2vs0mg"},{"bike_id":"2f343ec0-a258-4419-a0fe-f93367730417","system_id":"levelo_inurba_marseille","lat":43.308012,"lon":5.381511,"is_reserved":false,"is_disabled":false,"rental_uris":{"android":"levelo://app?vid=2f343ec0-a258-4419-a0fe-f93367730417","ios":"levelo://app?vid=2f343ec0-a258-4419-a0fe-f93367730417"},"vehicle_type_id":"4","last_reported":1713499716,"current_range_meters":17200,"station_id":"ce4bgt12rcd13ifvqce0","pricing_plan_id":"cebpf4jnsgd1na2vs0mg"},{"bike_id":"21da0e92-7366-4013-bef7-375e0b943768","system_id":"levelo_inurba_marseille","lat":43.308012,"lon":5.381511,"is_reserved":false,"is_disabled":false,"rental_uris":{"android":"levelo://app?vid=21da0e92-7366-4013-bef7-375e0b943768","ios":"levelo://app?vid=21da0e92-7366-4013-bef7-375e0b943768"},"vehicle_type_id":"4","last_reported":1713499716,"current_range_meters":30000,"station_id":"ce4bgt12rcd13ifvqce0","pricing_plan_id":"cebpf4jnsgd1na2vs0mg"},{"bike_id":"00fd65bc-84d4-4b28-9489-2b8170275767","system_id":"levelo_inurba_marseille","lat":43.308012,"lon":5.381511,"is_reserved":false,"is_disabled":false,"rental_uris":{"android":"levelo://app?vid=00fd65bc-84d4-4b28-9489-2b8170275767","ios":"levelo://app?vid=00fd65bc-84d4-4b28-9489-2b8170275767"},"vehicle_type_id":"4","last_reported":1713499716,"current_range_meters":25200,"station_id":"ce4bgt12rcd13ifvqce0","pricing_plan_id":"cebpf4jnsgd1na2vs0mg"},{"bike_id":"6e29440b-a031-4cfa-a7d3-059f7b67cabd","system_id":"levelo_inurba_marseille","lat":43.308012,"lon":5.381511,"is_reserved":false,"is_disabled":false,"rental_uris":{"android":"levelo://app?vid=6e29440b-a031-4cfa-a7d3-059f7b67cabd","ios":"levelo://app?vid=6e29440b-a031-4cfa-a7d3-059f7b67cabd"},"vehicle_type_id":"4","last_reported":1713499716,"current_range_meters":31200,"station_id":"ce4bgt12rcd13ifvqce0","pricing_plan_id":"cebpf4jnsgd1na2vs0mg"},{"bike_id":"61df002b-9dde-449d-b589-6b551754c32a","system_id":"levelo_inurba_marseille","lat":43.308012,"lon":5.381511,"is_reserved":false,"is_disabled":false,"rental_uris":{"android":"levelo://app?vid=61df002b-9dde-449d-b589-6b551754c32a","ios":"levelo://app?vid=61df002b-9dde-449d-b589-6b551754c32a"},"vehicle_type_id":"4","last_reported":1713499716,"current_range_meters":29600,"station_id":"ce4bgt12rcd13ifvqce0","pricing_plan_id":"cebpf4jnsgd1na2vs0mg"},{"bike_id":"a2ee988e-f31d-4894-a4a6-81e7400433bb","system_id":"levelo_inurba_marseille","lat":43.308012,"lon":5.381511,"is_reserved":false,"is_disabled":false,"rental_uris":{"android":"levelo://app?vid=a2ee988e-f31d-4894-a4a6-81e7400433bb","ios":"levelo://app?vid=a2ee988e-f31d-4894-a4a6-81e7400433bb"},"vehicle_type_id":"4","last_reported":1713499716,"current_range_meters":31200,"station_id":"ce4bgt12rcd13ifvqce0","pricing_plan_id":"cebpf4jnsgd1na2vs0mg"},{"bike_id":"d75eb838-deb9-4215-b1db-b843cdefd2ac","system_id":"levelo_inurba_marseille","lat":43.304606,"lon":5.379026,"is_reserved":false,"is_disabled":false,"rental_uris":{"android":"levelo://app?vid=d75eb838-deb9-4215-b1db-b843cdefd2ac","ios":"levelo://app?vid=d75eb838-deb9-4215-b1db-b843cdefd2ac"},"vehicle_type_id":"4","last_reported":1713499716,"current_range_meters":31600,"station_id":"ce4bgup2rcd13ifvqcn0","pricing_plan_id":"cebpf4jnsgd1na2vs0mg"},{"bike_id":"cd0765e7-4de4-4959-89b9-c715fbfb3592","system_id":"levelo_inurba_marseille","lat":43.304606,"lon":5.379026,"is_reserved":false,"is_disabled":false,"rental_uris":{"android":"levelo://app?vid=cd0765e7-4de4-4959-89b9-c715fbfb3592","ios":"levelo://app?vid=cd0765e7-4de4-4959-89b9-c715fbfb3592"},"vehicle_type_id":"4","last_reported":1713499716,"current_range_meters":27600,"station_id":"ce4bgup2rcd13ifvqcn0","pricing_plan_id":"cebpf4jnsgd1na2vs0mg"},{"bike_id":"3f787415-8c0b-4e66-96b6-da0dc68dd85d","system_id":"levelo_inurba_marseille","lat":43.304606,"lon":5.379026,"is_reserved":false,"is_disabled":false,"rental_uris":{"android":"levelo://app?vid=3f787415-8c0b-4e66-96b6-da0dc68dd85d","ios":"levelo://app?vid=3f787415-8c0b-4e66-96b6-da0dc68dd85d"},"vehicle_type_id":"4","last_reported":1713499716,"current_range_meters":25600,"station_id":"ce4bgup2rcd13ifvqcn0","pricing_plan_id":"cebpf4jnsgd1na2vs0mg"},{"bike_id":"17a6db20-1ce3-49a7-ad16-7cb6cc82e134","system_id":"levelo_inurba_marseille","lat":43.304606,"lon":5.379026,"is_reserved":false,"is_disabled":false,"rental_uris":{"android":"levelo://app?vid=17a6db20-1ce3-49a7-ad16-7cb6cc82e134","ios":"levelo://app?vid=17a6db20-1ce3-49a7-ad16-7cb6cc82e134"},"vehicle_type_id":"4","last_reported":1713499716,"current_range_meters":21200,"station_id":"ce4bgup2rcd13ifvqcn0","pricing_plan_id":"cebpf4jnsgd1na2vs0mg"},{"bike_id":"6e7a37f7-496a-4f36-8986-66adc8e47240","system_id":"levelo_inurba_marseille","lat":43.304606,"lon":5.379026,"is_reserved":false,"is_disabled":false,"rental_uris":{"android":"levelo://app?vid=6e7a37f7-496a-4f36-8986-66adc8e47240","ios":"levelo://app?vid=6e7a37f7-496a-4f36-8986-66adc8e47240"},"vehicle_type_id":"4","last_reported":1713499716,"current_range_meters":22800,"station_id":"ce4bgup2rcd13ifvqcn0","pricing_plan_id":"cebpf4jnsgd1na2vs0mg"},{"bike_id":"3415174d-0917-4b35-9e36-4502164b1faa","system_id":"levelo_inurba_marseille","lat":43.304606,"lon":5.379026,"is_reserved":false,"is_disabled":false,"rental_uris":{"android":"levelo://app?vid=3415174d-0917-4b35-9e36-4502164b1faa","ios":"levelo://app?vid=3415174d-0917-4b35-9e36-4502164b1faa"},"vehicle_type_id":"4","last_reported":1713499716,"current_range_meters":30400,"station_id":"ce4bgup2rcd13ifvqcn0","pricing_plan_id":"cebpf4jnsgd1na2vs0mg"},{"bike_id":"fb15bcce-8d6a-4393-aea5-7ac50a5ac346","system_id":"levelo_inurba_marseille","lat":43.304606,"lon":5.379026,"is_reserved":false,"is_disabled":false,"rental_uris":{"android":"levelo://app?vid=fb15bcce-8d6a-4393-aea5-7ac50a5ac346","ios":"levelo://app?vid=fb15bcce-8d6a-4393-aea5-7ac50a5ac346"},"vehicle_type_id":"4","last_reported":1713499716,"current_range_meters":15600,"station_id":"ce4bgup2rcd13ifvqcn0","pricing_plan_id":"cebpf4jnsgd1na2vs0mg"},{"bike_id":"6a9568eb-e27d-4552-88ff-4281d5cd2666","system_id":"levelo_inurba_marseille","lat":43.304606,"lon":5.379026,"is_reserved":false,"is_disabled":false,"rental_uris":{"android":"levelo://app?vid=6a9568eb-e27d-4552-88ff-4281d5cd2666","ios":"levelo://app?vid=6a9568eb-e27d-4552-88ff-4281d5cd2666"},"vehicle_type_id":"4","last_reported":1713499716,"current_range_meters":27600,"station_id":"ce4bgup2rcd13ifvqcn0","pricing_plan_id":"cebpf4jnsgd1na2vs0mg"},{"bike_id":"0ba68f97-118c-4d06-9ce7-9db076e887a0","system_id":"levelo_inurba_marseille","lat":43.324771,"lon":5.36557,"is_reserved":false,"is_disabled":false,"rental_uris":{"android":"levelo://app?vid=0ba68f97-118c-4d06-9ce7-9db076e887a0","ios":"levelo://app?vid=0ba68f97-118c-4d06-9ce7-9db076e887a0"},"vehicle_type_id":"4","last_reported":1713499716,"current_range_meters":11600,"station_id":"ce4bhs12rcd13ifvqhvg","pricing_plan_id":"cebpf4jnsgd1na2vs0mg"},{"bike_id":"67c0a679-4ba4-4dec-921c-29a7b8ee08a9","system_id":"levelo_inurba_marseille","lat":43.324771,"lon":5.36557,"is_reserved":false,"is_disabled":false,"rental_uris":{"android":"levelo://app?vid=67c0a679-4ba4-4dec-921c-29a7b8ee08a9","ios":"levelo://app?vid=67c0a679-4ba4-4dec-921c-29a7b8ee08a9"},"vehicle_type_id":"4","last_reported":1713499716,"current_range_meters":31200,"station_id":"ce4bhs12rcd13ifvqhvg","pricing_plan_id":"cebpf4jnsgd1na2vs0mg"},{"bike_id":"59293647-f51b-4d3e-b83f-ba3d48abe4d6","system_id":"levelo_inurba_marseille","lat":43.324771,"lon":5.36557,"is_reserved":false,"is_disabled":false,"rental_uris":{"android":"levelo://app?vid=59293647-f51b-4d3e-b83f-ba3d48abe4d6","ios":"levelo://app?vid=59293647-f51b-4d3e-b83f-ba3d48abe4d6"},"vehicle_type_id":"4","last_reported":1713499716,"current_range_meters":12800,"station_id":"ce4bhs12rcd13ifvqhvg","pricing_plan_id":"cebpf4jnsgd1na2vs0mg"},{"bike_id":"20cdabc8-7062-4e5b-9b01-564462e00e49","system_id":"levelo_inurba_marseille","lat":43.324771,"lon":5.36557,"is_reserved":false,"is_disabled":false,"rental_uris":{"android":"levelo://app?vid=20cdabc8-7062-4e5b-9b01-564462e00e49","ios":"levelo://app?vid=20cdabc8-7062-4e5b-9b01-564462e00e49"},"vehicle_type_id":"4","last_reported":1713499716,"current_range_meters":20000,"station_id":"ce4bhs12rcd13ifvqhvg","pricing_plan_id":"cebpf4jnsgd1na2vs0mg"},{"bike_id":"c6f567ee-0599-4f42-9899-d208a90bcb4c","system_id":"levelo_inurba_marseille","lat":43.324771,"lon":5.36557,"is_reserved":false,"is_disabled":false,"rental_uris":{"android":"levelo://app?vid=c6f567ee-0599-4f42-9899-d208a90bcb4c","ios":"levelo://app?vid=c6f567ee-0599-4f42-9899-d208a90bcb4c"},"vehicle_type_id":"4","last_reported":1713499716,"current_range_meters":16400,"station_id":"ce4bhs12rcd13ifvqhvg","pricing_plan_id":"cebpf4jnsgd1na2vs0mg"},{"bike_id":"f341dd44-cc3d-43b1-9ecb-fb92649de668","system_id":"levelo_inurba_marseille","lat":43.310804,"lon":5.38359,"is_reserved":false,"is_disabled":false,"rental_uris":{"android":"levelo://app?vid=f341dd44-cc3d-43b1-9ecb-fb92649de668","ios":"levelo://app?vid=f341dd44-cc3d-43b1-9ecb-fb92649de668"},"vehicle_type_id":"4","last_reported":1713499716,"current_range_meters":23200,"station_id":"ce4bgv92rcd13ifvqcr0","pricing_plan_id":"cebpf4jnsgd1na2vs0mg"},{"bike_id":"e13e6892-ddbd-402e-abc8-53194bbd8f56","system_id":"levelo_inurba_marseille","lat":43.310729,"lon":5.383491,"is_reserved":false,"is_disabled":false,"rental_uris":{"android":"levelo://app?vid=e13e6892-ddbd-402e-abc8-53194bbd8f56","ios":"levelo://app?vid=e13e6892-ddbd-402e-abc8-53194bbd8f56"},"vehicle_type_id":"4","last_reported":1713499716,"current_range_meters":7600,"station_id":"ce4bgv92rcd13ifvqcr0","pricing_plan_id":"cebpf4jnsgd1na2vs0mg"},{"bike_id":"3bc34be1-2b8a-46e2-92bc-89ddd9d65b99","system_id":"levelo_inurba_marseille","lat":43.310765,"lon":5.383506,"is_reserved":false,"is_disabled":false,"rental_uris":{"android":"levelo://app?vid=3bc34be1-2b8a-46e2-92bc-89ddd9d65b99","ios":"levelo://app?vid=3bc34be1-2b8a-46e2-92bc-89ddd9d65b99"},"vehicle_type_id":"4","last_reported":1713499716,"current_range_meters":31200,"station_id":"ce4bgv92rcd13ifvqcr0","pricing_plan_id":"cebpf4jnsgd1na2vs0mg"},{"bike_id":"12e35fa6-3eeb-488d-8dd6-82c87296695c","system_id":"levelo_inurba_marseille","lat":43.31069,"lon":5.38349,"is_reserved":false,"is_disabled":false,"rental_uris":{"android":"levelo://app?vid=12e35fa6-3eeb-488d-8dd6-82c87296695c","ios":"levelo://app?vid=12e35fa6-3eeb-488d-8dd6-82c87296695c"},"vehicle_type_id":"4","last_reported":1713499716,"current_range_meters":19200,"station_id":"ce4bgv92rcd13ifvqcr0","pricing_plan_id":"cebpf4jnsgd1na2vs0mg"},{"bike_id":"f2c21e52-d06b-4837-9593-92066daf4a6b","system_id":"levelo_inurba_marseille","lat":43.3107,"lon":5.3835,"is_reserved":false,"is_disabled":false,"rental_uris":{"android":"levelo://app?vid=f2c21e52-d06b-4837-9593-92066daf4a6b","ios":"levelo://app?vid=f2c21e52-d06b-4837-9593-92066daf4a6b"},"vehicle_type_id":"4","last_reported":1713499716,"current_range_meters":21200,"station_id":"ce4bgv92rcd13ifvqcr0","pricing_plan_id":"cebpf4jnsgd1na2vs0mg"},{"bike_id":"d1a459cd-9002-40f1-a251-bf1ea1a3955c","system_id":"levelo_inurba_marseille","lat":43.31081,"lon":5.383531,"is_reserved":false,"is_disabled":false,"rental_uris":{"android":"levelo://app?vid=d1a459cd-9002-40f1-a251-bf1ea1a3955c","ios":"levelo://app?vid=d1a459cd-9002-40f1-a251-bf1ea1a3955c"},"vehicle_type_id":"4","last_reported":1713499716,"current_range_meters":19600,"station_id":"ce4bgv92rcd13ifvqcr0","pricing_plan_id":"cebpf4jnsgd1na2vs0mg"},{"bike_id":"0187298c-1cd3-4e38-8eb2-c8130f4b8355","system_id":"levelo_inurba_marseille","lat":43.310733,"lon":5.383522,"is_reserved":false,"is_disabled":false,"rental_uris":{"android":"levelo://app?vid=0187298c-1cd3-4e38-8eb2-c8130f4b8355","ios":"levelo://app?vid=0187298c-1cd3-4e38-8eb2-c8130f4b8355"},"vehicle_type_id":"4","last_reported":1713499716,"current_range_meters":31200,"station_id":"ce4bgv92rcd13ifvqcr0","pricing_plan_id":"cebpf4jnsgd1na2vs0mg"},{"bike_id":"546bc751-dffd-4a76-b222-1dba3c2ff2f2","system_id":"levelo_inurba_marseille","lat":43.31072,"lon":5.38352,"is_reserved":false,"is_disabled":false,"rental_uris":{"android":"levelo://app?vid=546bc751-dffd-4a76-b222-1dba3c2ff2f2","ios":"levelo://app?vid=546bc751-dffd-4a76-b222-1dba3c2ff2f2"},"vehicle_type_id":"4","last_reported":1713499716,"current_range_meters":4400,"station_id":"ce4bgv92rcd13ifvqcr0","pricing_plan_id":"cebpf4jnsgd1na2vs0mg"},{"bike_id":"e97abebc-3160-4d66-a4e5-ccdd90914a85","system_id":"levelo_inurba_marseille","lat":43.31071,"lon":5.38352,"is_reserved":false,"is_disabled":false,"rental_uris":{"android":"levelo://app?vid=e97abebc-3160-4d66-a4e5-ccdd90914a85","ios":"levelo://app?vid=e97abebc-3160-4d66-a4e5-ccdd90914a85"},"vehicle_type_id":"4","last_reported":1713499716,"current_range_meters":16000,"station_id":"ce4bgv92rcd13ifvqcr0","pricing_plan_id":"cebpf4jnsgd1na2vs0mg"},{"bike_id":"4042be98-d823-4315-a140-7fce380accfb","system_id":"levelo_inurba_marseille","lat":43.310679,"lon":5.383523,"is_reserved":false,"is_disabled":false,"rental_uris":{"android":"levelo://app?vid=4042be98-d823-4315-a140-7fce380accfb","ios":"levelo://app?vid=4042be98-d823-4315-a140-7fce380accfb"},"vehicle_type_id":"4","last_reported":1713499716,"current_range_meters":14400,"station_id":"ce4bgv92rcd13ifvqcr0","pricing_plan_id":"cebpf4jnsgd1na2vs0mg"},{"bike_id":"6ec3f472-c1fd-4674-9a20-cd6875aeae3d","system_id":"levelo_inurba_marseille","lat":43.310692,"lon":5.383559,"is_reserved":false,"is_disabled":false,"rental_uris":{"android":"levelo://app?vid=6ec3f472-c1fd-4674-9a20-cd6875aeae3d","ios":"levelo://app?vid=6ec3f472-c1fd-4674-9a20-cd6875aeae3d"},"vehicle_type_id":"4","last_reported":1713499716,"current_range_meters":31200,"station_id":"ce4bgv92rcd13ifvqcr0","pricing_plan_id":"cebpf4jnsgd1na2vs0mg"},{"bike_id":"ee81afe6-3051-446f-946e-1420cb19c63a","system_id":"levelo_inurba_marseille","lat":43.31075,"lon":5.38358,"is_reserved":false,"is_disabled":false,"rental_uris":{"android":"levelo://app?vid=ee81afe6-3051-446f-946e-1420cb19c63a","ios":"levelo://app?vid=ee81afe6-3051-446f-946e-1420cb19c63a"},"vehicle_type_id":"4","last_reported":1713499716,"current_range_meters":31200,"station_id":"ce4bgv92rcd13ifvqcr0","pricing_plan_id":"cebpf4jnsgd1na2vs0mg"},{"bike_id":"4bec112d-a4f0-4359-aa60-b36b9e79676b","system_id":"levelo_inurba_marseille","lat":43.310804,"lon":5.38359,"is_reserved":false,"is_disabled":false,"rental_uris":{"android":"levelo://app?vid=4bec112d-a4f0-4359-aa60-b36b9e79676b","ios":"levelo://app?vid=4bec112d-a4f0-4359-aa60-b36b9e79676b"},"vehicle_type_id":"4","last_reported":1713499716,"current_range_meters":16800,"station_id":"ce4bgv92rcd13ifvqcr0","pricing_plan_id":"cebpf4jnsgd1na2vs0mg"},{"bike_id":"ca0d954e-180f-4073-b1dd-e5a96bf33814","system_id":"levelo_inurba_marseille","lat":43.310804,"lon":5.38359,"is_reserved":false,"is_disabled":false,"rental_uris":{"android":"levelo://app?vid=ca0d954e-180f-4073-b1dd-e5a96bf33814","ios":"levelo://app?vid=ca0d954e-180f-4073-b1dd-e5a96bf33814"},"vehicle_type_id":"4","last_reported":1713499716,"current_range_meters":31200,"station_id":"ce4bgv92rcd13ifvqcr0","pricing_plan_id":"cebpf4jnsgd1na2vs0mg"},{"bike_id":"ecde23b1-c532-4cc6-92f0-9f51ee652885","system_id":"levelo_inurba_marseille","lat":43.310683,"lon":5.38358,"is_reserved":false,"is_disabled":false,"rental_uris":{"android":"levelo://app?vid=ecde23b1-c532-4cc6-92f0-9f51ee652885","ios":"levelo://app?vid=ecde23b1-c532-4cc6-92f0-9f51ee652885"},"vehicle_type_id":"4","last_reported":1713499716,"current_range_meters":8400,"station_id":"ce4bgv92rcd13ifvqcr0","pricing_plan_id":"cebpf4jnsgd1na2vs0mg"},{"bike_id":"5cc9358a-7d6c-48a3-b1c5-b6fd16c7ec97","system_id":"levelo_inurba_marseille","lat":43.304606,"lon":5.379026,"is_reserved":false,"is_disabled":false,"rental_uris":{"android":"levelo://app?vid=5cc9358a-7d6c-48a3-b1c5-b6fd16c7ec97","ios":"levelo://app?vid=5cc9358a-7d6c-48a3-b1c5-b6fd16c7ec97"},"vehicle_type_id":"4","last_reported":1713499716,"current_range_meters":19200,"station_id":"ce4bgup2rcd13ifvqcn0","pricing_plan_id":"cebpf4jnsgd1na2vs0mg"},{"bike_id":"4f336a3d-c768-4a3a-952e-ecbf2fea283c","system_id":"levelo_inurba_marseille","lat":43.302784,"lon":5.377158,"is_reserved":false,"is_disabled":false,"rental_uris":{"android":"levelo://app?vid=4f336a3d-c768-4a3a-952e-ecbf2fea283c","ios":"levelo://app?vid=4f336a3d-c768-4a3a-952e-ecbf2fea283c"},"vehicle_type_id":"4","last_reported":1713499716,"current_range_meters":27600,"station_id":"ce4bguh2rcd13ifvqcj0","pricing_plan_id":"cebpf4jnsgd1na2vs0mg"},{"bike_id":"b2429c45-c266-4966-96e6-8aa3767702da","system_id":"levelo_inurba_marseille","lat":43.30143,"lon":5.37413,"is_reserved":false,"is_disabled":false,"rental_uris":{"android":"levelo://app?vid=b2429c45-c266-4966-96e6-8aa3767702da","ios":"levelo://app?vid=b2429c45-c266-4966-96e6-8aa3767702da"},"vehicle_type_id":"4","last_reported":1713499716,"current_range_meters":25200,"station_id":"ce4bgs92rcd13ifvqcc0","pricing_plan_id":"cebpf4jnsgd1na2vs0mg"},{"bike_id":"5e0422c4-4db2-4cd5-8ec6-f1a5f73617e2","system_id":"levelo_inurba_marseille","lat":43.305488,"lon":5.380915,"is_reserved":false,"is_disabled":false,"rental_uris":{"android":"levelo://app?vid=5e0422c4-4db2-4cd5-8ec6-f1a5f73617e2","ios":"levelo://app?vid=5e0422c4-4db2-4cd5-8ec6-f1a5f73617e2"},"vehicle_type_id":"4","last_reported":1713499716,"current_range_meters":11600,"station_id":"","pricing_plan_id":"cebpf4jnsgd1na2vs0mg"},{"bike_id":"317cfddd-64dc-45bb-b8a5-a01d11ccb762","system_id":"levelo_inurba_marseille","lat":43.305584,"lon":5.381401,"is_reserved":false,"is_disabled":false,"rental_uris":{"android":"levelo://app?vid=317cfddd-64dc-45bb-b8a5-a01d11ccb762","ios":"levelo://app?vid=317cfddd-64dc-45bb-b8a5-a01d11ccb762"},"vehicle_type_id":"4","last_reported":1713499716,"current_range_meters":3600,"station_id":"","pricing_plan_id":"cebpf4jnsgd1na2vs0mg"},{"bike_id":"7b8ab0e9-2ec8-4267-af32-2c610dd2f122","system_id":"levelo_inurba_marseille","lat":43.319928,"lon":5.381394,"is_reserved":false,"is_disabled":false,"rental_uris":{"android":"levelo://app?vid=7b8ab0e9-2ec8-4267-af32-2c610dd2f122","ios":"levelo://app?vid=7b8ab0e9-2ec8-4267-af32-2c610dd2f122"},"vehicle_type_id":"4","last_reported":1713499716,"current_range_meters":10400,"station_id":"ce4bhr12rcd13ifvqhpg","pricing_plan_id":"cebpf4jnsgd1na2vs0mg"},{"bike_id":"5cc8ed36-14a8-4dd0-8b42-33b8e937edf9","system_id":"levelo_inurba_marseille","lat":43.319935,"lon":5.381699,"is_reserved":false,"is_disabled":false,"rental_uris":{"android":"levelo://app?vid=5cc8ed36-14a8-4dd0-8b42-33b8e937edf9","ios":"levelo://app?vid=5cc8ed36-14a8-4dd0-8b42-33b8e937edf9"},"vehicle_type_id":"4","last_reported":1713499716,"current_range_meters":30800,"station_id":"ce4bhr12rcd13ifvqhpg","pricing_plan_id":"cebpf4jnsgd1na2vs0mg"},{"bike_id":"d212c281-3522-420a-b06f-b80966290c73","system_id":"levelo_inurba_marseille","lat":43.319935,"lon":5.381699,"is_reserved":false,"is_disabled":false,"rental_uris":{"android":"levelo://app?vid=d212c281-3522-420a-b06f-b80966290c73","ios":"levelo://app?vid=d212c281-3522-420a-b06f-b80966290c73"},"vehicle_type_id":"4","last_reported":1713499716,"current_range_meters":17600,"station_id":"ce4bhr12rcd13ifvqhpg","pricing_plan_id":"cebpf4jnsgd1na2vs0mg"},{"bike_id":"334e3407-4f9b-4b57-a5ef-39033f25d948","system_id":"levelo_inurba_marseille","lat":43.319935,"lon":5.381699,"is_reserved":false,"is_disabled":false,"rental_uris":{"android":"levelo://app?vid=334e3407-4f9b-4b57-a5ef-39033f25d948","ios":"levelo://app?vid=334e3407-4f9b-4b57-a5ef-39033f25d948"},"vehicle_type_id":"4","last_reported":1713499716,"current_range_meters":14000,"station_id":"ce4bhr12rcd13ifvqhpg","pricing_plan_id":"cebpf4jnsgd1na2vs0mg"},{"bike_id":"fa414f19-e308-4902-9f3d-06e115d6ed6c","system_id":"levelo_inurba_marseille","lat":43.319935,"lon":5.381699,"is_reserved":false,"is_disabled":false,"rental_uris":{"android":"levelo://app?vid=fa414f19-e308-4902-9f3d-06e115d6ed6c","ios":"levelo://app?vid=fa414f19-e308-4902-9f3d-06e115d6ed6c"},"vehicle_type_id":"4","last_reported":1713499716,"current_range_meters":26000,"station_id":"ce4bhr12rcd13ifvqhpg","pricing_plan_id":"cebpf4jnsgd1na2vs0mg"},{"bike_id":"555684bf-957a-464d-94d2-91ce131925b5","system_id":"levelo_inurba_marseille","lat":43.319935,"lon":5.381699,"is_reserved":false,"is_disabled":false,"rental_uris":{"android":"levelo://app?vid=555684bf-957a-464d-94d2-91ce131925b5","ios":"levelo://app?vid=555684bf-957a-464d-94d2-91ce131925b5"},"vehicle_type_id":"4","last_reported":1713499716,"current_range_meters":24800,"station_id":"ce4bhr12rcd13ifvqhpg","pricing_plan_id":"cebpf4jnsgd1na2vs0mg"},{"bike_id":"de921362-b395-4619-ba3b-315c464bd095","system_id":"levelo_inurba_marseille","lat":43.320027,"lon":5.381447,"is_reserved":false,"is_disabled":false,"rental_uris":{"android":"levelo://app?vid=de921362-b395-4619-ba3b-315c464bd095","ios":"levelo://app?vid=de921362-b395-4619-ba3b-315c464bd095"},"vehicle_type_id":"4","last_reported":1713499716,"current_range_meters":29600,"station_id":"ce4bhr12rcd13ifvqhpg","pricing_plan_id":"cebpf4jnsgd1na2vs0mg"},{"bike_id":"30d617ff-4f74-4992-b3e5-455e6c9e9129","system_id":"levelo_inurba_marseille","lat":43.319935,"lon":5.381699,"is_reserved":false,"is_disabled":false,"rental_uris":{"android":"levelo://app?vid=30d617ff-4f74-4992-b3e5-455e6c9e9129","ios":"levelo://app?vid=30d617ff-4f74-4992-b3e5-455e6c9e9129"},"vehicle_type_id":"4","last_reported":1713499716,"current_range_meters":27600,"station_id":"ce4bhr12rcd13ifvqhpg","pricing_plan_id":"cebpf4jnsgd1na2vs0mg"},{"bike_id":"b81b1e3e-2172-4dfd-8720-aafb0057bf12","system_id":"levelo_inurba_marseille","lat":43.319935,"lon":5.381699,"is_reserved":false,"is_disabled":false,"rental_uris":{"android":"levelo://app?vid=b81b1e3e-2172-4dfd-8720-aafb0057bf12","ios":"levelo://app?vid=b81b1e3e-2172-4dfd-8720-aafb0057bf12"},"vehicle_type_id":"4","last_reported":1713499716,"current_range_meters":24800,"station_id":"ce4bhr12rcd13ifvqhpg","pricing_plan_id":"cebpf4jnsgd1na2vs0mg"},{"bike_id":"f21714ec-9551-43f9-a56c-82220eebf5eb","system_id":"levelo_inurba_marseille","lat":43.313614,"lon":5.384852,"is_reserved":false,"is_disabled":false,"rental_uris":{"android":"levelo://app?vid=f21714ec-9551-43f9-a56c-82220eebf5eb","ios":"levelo://app?vid=f21714ec-9551-43f9-a56c-82220eebf5eb"},"vehicle_type_id":"4","last_reported":1713499716,"current_range_meters":14400,"station_id":"ce4bgt92rcd13ifvqcf0","pricing_plan_id":"cebpf4jnsgd1na2vs0mg"},{"bike_id":"b645bddc-aa1a-4cb0-888c-e39df0b51d1b","system_id":"levelo_inurba_marseille","lat":43.313571,"lon":5.384829,"is_reserved":false,"is_disabled":false,"rental_uris":{"android":"levelo://app?vid=b645bddc-aa1a-4cb0-888c-e39df0b51d1b","ios":"levelo://app?vid=b645bddc-aa1a-4cb0-888c-e39df0b51d1b"},"vehicle_type_id":"4","last_reported":1713499716,"current_range_meters":19200,"station_id":"ce4bgt92rcd13ifvqcf0","pricing_plan_id":"cebpf4jnsgd1na2vs0mg"},{"bike_id":"cee7b1f5-e694-47b3-b0d4-b7bbd1de2a85","system_id":"levelo_inurba_marseille","lat":43.313571,"lon":5.384829,"is_reserved":false,"is_disabled":false,"rental_uris":{"android":"levelo://app?vid=cee7b1f5-e694-47b3-b0d4-b7bbd1de2a85","ios":"levelo://app?vid=cee7b1f5-e694-47b3-b0d4-b7bbd1de2a85"},"vehicle_type_id":"4","last_reported":1713499716,"current_range_meters":31200,"station_id":"ce4bgt92rcd13ifvqcf0","pricing_plan_id":"cebpf4jnsgd1na2vs0mg"},{"bike_id":"2a374bd2-ea5d-4136-bd52-85da232e0dea","system_id":"levelo_inurba_marseille","lat":43.313681,"lon":5.38492,"is_reserved":false,"is_disabled":false,"rental_uris":{"android":"levelo://app?vid=2a374bd2-ea5d-4136-bd52-85da232e0dea","ios":"levelo://app?vid=2a374bd2-ea5d-4136-bd52-85da232e0dea"},"vehicle_type_id":"4","last_reported":1713499716,"current_range_meters":12000,"station_id":"ce4bgt92rcd13ifvqcf0","pricing_plan_id":"cebpf4jnsgd1na2vs0mg"},{"bike_id":"d18b76bc-2ce2-43f8-9d06-041f3b4e6943","system_id":"levelo_inurba_marseille","lat":43.313657,"lon":5.384929,"is_reserved":false,"is_disabled":false,"rental_uris":{"android":"levelo://app?vid=d18b76bc-2ce2-43f8-9d06-041f3b4e6943","ios":"levelo://app?vid=d18b76bc-2ce2-43f8-9d06-041f3b4e6943"},"vehicle_type_id":"4","last_reported":1713499716,"current_range_meters":1200,"station_id":"ce4bgt92rcd13ifvqcf0","pricing_plan_id":"cebpf4jnsgd1na2vs0mg"},{"bike_id":"41d32d56-32e9-47bc-8de6-9a436c97f92f","system_id":"levelo_inurba_marseille","lat":43.313571,"lon":5.384829,"is_reserved":false,"is_disabled":false,"rental_uris":{"android":"levelo://app?vid=41d32d56-32e9-47bc-8de6-9a436c97f92f","ios":"levelo://app?vid=41d32d56-32e9-47bc-8de6-9a436c97f92f"},"vehicle_type_id":"4","last_reported":1713499716,"current_range_meters":18800,"station_id":"ce4bgt92rcd13ifvqcf0","pricing_plan_id":"cebpf4jnsgd1na2vs0mg"},{"bike_id":"611be1fe-d626-4c7a-b38d-a5dec47787b7","system_id":"levelo_inurba_marseille","lat":43.313571,"lon":5.384829,"is_reserved":false,"is_disabled":false,"rental_uris":{"android":"levelo://app?vid=611be1fe-d626-4c7a-b38d-a5dec47787b7","ios":"levelo://app?vid=611be1fe-d626-4c7a-b38d-a5dec47787b7"},"vehicle_type_id":"4","last_reported":1713499716,"current_range_meters":31200,"station_id":"ce4bgt92rcd13ifvqcf0","pricing_plan_id":"cebpf4jnsgd1na2vs0mg"},{"bike_id":"92088fb9-6287-4819-87e7-d73ff8381701","system_id":"levelo_inurba_marseille","lat":43.313708,"lon":5.384928,"is_reserved":false,"is_disabled":false,"rental_uris":{"android":"levelo://app?vid=92088fb9-6287-4819-87e7-d73ff8381701","ios":"levelo://app?vid=92088fb9-6287-4819-87e7-d73ff8381701"},"vehicle_type_id":"4","last_reported":1713499716,"current_range_meters":15200,"station_id":"ce4bgt92rcd13ifvqcf0","pricing_plan_id":"cebpf4jnsgd1na2vs0mg"},{"bike_id":"0f0a4db7-209f-4ee1-9fab-b924caa68490","system_id":"levelo_inurba_marseille","lat":43.313571,"lon":5.384829,"is_reserved":false,"is_disabled":false,"rental_uris":{"android":"levelo://app?vid=0f0a4db7-209f-4ee1-9fab-b924caa68490","ios":"levelo://app?vid=0f0a4db7-209f-4ee1-9fab-b924caa68490"},"vehicle_type_id":"4","last_reported":1713499716,"current_range_meters":31200,"station_id":"ce4bgt92rcd13ifvqcf0","pricing_plan_id":"cebpf4jnsgd1na2vs0mg"},{"bike_id":"4dfe2593-4cd2-46ba-8ccf-d10d3746ca55","system_id":"levelo_inurba_marseille","lat":43.313571,"lon":5.384829,"is_reserved":false,"is_disabled":false,"rental_uris":{"android":"levelo://app?vid=4dfe2593-4cd2-46ba-8ccf-d10d3746ca55","ios":"levelo://app?vid=4dfe2593-4cd2-46ba-8ccf-d10d3746ca55"},"vehicle_type_id":"4","last_reported":1713499716,"current_range_meters":31200,"station_id":"ce4bgt92rcd13ifvqcf0","pricing_plan_id":"cebpf4jnsgd1na2vs0mg"},{"bike_id":"11b881dd-a8a5-434e-9631-2e4bb06930d8","system_id":"levelo_inurba_marseille","lat":43.299209,"lon":5.365547,"is_reserved":false,"is_disabled":false,"rental_uris":{"android":"levelo://app?vid=11b881dd-a8a5-434e-9631-2e4bb06930d8","ios":"levelo://app?vid=11b881dd-a8a5-434e-9631-2e4bb06930d8"},"vehicle_type_id":"4","last_reported":1713499716,"current_range_meters":25200,"station_id":"ce4bgm92rcd13ifvqbr0","pricing_plan_id":"cebpf4jnsgd1na2vs0mg"},{"bike_id":"79b1484c-7ca2-4a8d-b15b-2987062d3cb2","system_id":"levelo_inurba_marseille","lat":43.300151,"lon":5.37659,"is_reserved":false,"is_disabled":false,"rental_uris":{"android":"levelo://app?vid=79b1484c-7ca2-4a8d-b15b-2987062d3cb2","ios":"levelo://app?vid=79b1484c-7ca2-4a8d-b15b-2987062d3cb2"},"vehicle_type_id":"4","last_reported":1713499716,"current_range_meters":18000,"station_id":"","pricing_plan_id":"cebpf4jnsgd1na2vs0mg"},{"bike_id":"b0bccd7c-a342-467e-9aeb-5d0a933252d7","system_id":"levelo_inurba_marseille","lat":43.298433,"lon":5.362774,"is_reserved":false,"is_disabled":false,"rental_uris":{"android":"levelo://app?vid=b0bccd7c-a342-467e-9aeb-5d0a933252d7","ios":"levelo://app?vid=b0bccd7c-a342-467e-9aeb-5d0a933252d7"},"vehicle_type_id":"4","last_reported":1713499716,"current_range_meters":22800,"station_id":"ce4bgpp2rcd13ifvqc3g","pricing_plan_id":"cebpf4jnsgd1na2vs0mg"},{"bike_id":"02296778-7675-4dc7-8afe-c1af80109b02","system_id":"levelo_inurba_marseille","lat":43.305364,"lon":5.384119,"is_reserved":false,"is_disabled":false,"rental_uris":{"android":"levelo://app?vid=02296778-7675-4dc7-8afe-c1af80109b02","ios":"levelo://app?vid=02296778-7675-4dc7-8afe-c1af80109b02"},"vehicle_type_id":"4","last_reported":1713499716,"current_range_meters":31200,"station_id":"ce4bgg92rcd13ifvqb30","pricing_plan_id":"cebpf4jnsgd1na2vs0mg"},{"bike_id":"0045615c-8043-474c-a417-868b946a08c6","system_id":"levelo_inurba_marseille","lat":43.311816,"lon":5.387093,"is_reserved":false,"is_disabled":false,"rental_uris":{"android":"levelo://app?vid=0045615c-8043-474c-a417-868b946a08c6","ios":"levelo://app?vid=0045615c-8043-474c-a417-868b946a08c6"},"vehicle_type_id":"4","last_reported":1713499716,"current_range_meters":31200,"station_id":"ce4bgv12rcd13ifvqcp0","pricing_plan_id":"cebpf4jnsgd1na2vs0mg"},{"bike_id":"c11c6dc1-ef7b-4cc6-b57d-612a8802bdd4","system_id":"levelo_inurba_marseille","lat":43.311634,"lon":5.387098,"is_reserved":false,"is_disabled":false,"rental_uris":{"android":"levelo://app?vid=c11c6dc1-ef7b-4cc6-b57d-612a8802bdd4","ios":"levelo://app?vid=c11c6dc1-ef7b-4cc6-b57d-612a8802bdd4"},"vehicle_type_id":"4","last_reported":1713499716,"current_range_meters":16800,"station_id":"ce4bgv12rcd13ifvqcp0","pricing_plan_id":"cebpf4jnsgd1na2vs0mg"},{"bike_id":"eed48fd0-2fb4-4ee4-953d-8621b6e6a6fa","system_id":"levelo_inurba_marseille","lat":43.31165,"lon":5.38711,"is_reserved":false,"is_disabled":false,"rental_uris":{"android":"levelo://app?vid=eed48fd0-2fb4-4ee4-953d-8621b6e6a6fa","ios":"levelo://app?vid=eed48fd0-2fb4-4ee4-953d-8621b6e6a6fa"},"vehicle_type_id":"4","last_reported":1713499716,"current_range_meters":14800,"station_id":"ce4bgv12rcd13ifvqcp0","pricing_plan_id":"cebpf4jnsgd1na2vs0mg"},{"bike_id":"a96e6409-d016-48b2-8495-d444c9ebda61","system_id":"levelo_inurba_marseille","lat":43.311662,"lon":5.387158,"is_reserved":false,"is_disabled":false,"rental_uris":{"android":"levelo://app?vid=a96e6409-d016-48b2-8495-d444c9ebda61","ios":"levelo://app?vid=a96e6409-d016-48b2-8495-d444c9ebda61"},"vehicle_type_id":"4","last_reported":1713499716,"current_range_meters":2400,"station_id":"ce4bgv12rcd13ifvqcp0","pricing_plan_id":"cebpf4jnsgd1na2vs0mg"},{"bike_id":"42fdb3fa-8b8c-4e22-8277-3f5a100589d5","system_id":"levelo_inurba_marseille","lat":43.31163,"lon":5.38719,"is_reserved":false,"is_disabled":false,"rental_uris":{"android":"levelo://app?vid=42fdb3fa-8b8c-4e22-8277-3f5a100589d5","ios":"levelo://app?vid=42fdb3fa-8b8c-4e22-8277-3f5a100589d5"},"vehicle_type_id":"4","last_reported":1713499716,"current_range_meters":31200,"station_id":"ce4bgv12rcd13ifvqcp0","pricing_plan_id":"cebpf4jnsgd1na2vs0mg"},{"bike_id":"038cff58-38dd-44a8-af0c-da3dfbfebb80","system_id":"levelo_inurba_marseille","lat":43.311684,"lon":5.387204,"is_reserved":false,"is_disabled":false,"rental_uris":{"android":"levelo://app?vid=038cff58-38dd-44a8-af0c-da3dfbfebb80","ios":"levelo://app?vid=038cff58-38dd-44a8-af0c-da3dfbfebb80"},"vehicle_type_id":"4","last_reported":1713499716,"current_range_meters":19600,"station_id":"ce4bgv12rcd13ifvqcp0","pricing_plan_id":"cebpf4jnsgd1na2vs0mg"},{"bike_id":"bb882010-1faa-43b7-ab54-91907fde9fb5","system_id":"levelo_inurba_marseille","lat":43.297794,"lon":5.370888,"is_reserved":false,"is_disabled":false,"rental_uris":{"android":"levelo://app?vid=bb882010-1faa-43b7-ab54-91907fde9fb5","ios":"levelo://app?vid=bb882010-1faa-43b7-ab54-91907fde9fb5"},"vehicle_type_id":"4","last_reported":1713499716,"current_range_meters":11200,"station_id":"ce4bgop2rcd13ifvqc1g","pricing_plan_id":"cebpf4jnsgd1na2vs0mg"},{"bike_id":"963544ad-160a-451a-97f3-761c7882bb74","system_id":"levelo_inurba_marseille","lat":43.297794,"lon":5.370888,"is_reserved":false,"is_disabled":false,"rental_uris":{"android":"levelo://app?vid=963544ad-160a-451a-97f3-761c7882bb74","ios":"levelo://app?vid=963544ad-160a-451a-97f3-761c7882bb74"},"vehicle_type_id":"4","last_reported":1713499716,"current_range_meters":23600,"station_id":"ce4bgop2rcd13ifvqc1g","pricing_plan_id":"cebpf4jnsgd1na2vs0mg"},{"bike_id":"883157e0-5651-4584-9a52-1838fc0209bd","system_id":"levelo_inurba_marseille","lat":43.297774,"lon":5.370875,"is_reserved":false,"is_disabled":false,"rental_uris":{"android":"levelo://app?vid=883157e0-5651-4584-9a52-1838fc0209bd","ios":"levelo://app?vid=883157e0-5651-4584-9a52-1838fc0209bd"},"vehicle_type_id":"4","last_reported":1713499716,"current_range_meters":28000,"station_id":"ce4bgop2rcd13ifvqc1g","pricing_plan_id":"cebpf4jnsgd1na2vs0mg"},{"bike_id":"09a2f88f-4c0b-4000-aa64-c38e13b13b83","system_id":"levelo_inurba_marseille","lat":43.322872,"lon":5.382756,"is_reserved":false,"is_disabled":false,"rental_uris":{"android":"levelo://app?vid=09a2f88f-4c0b-4000-aa64-c38e13b13b83","ios":"levelo://app?vid=09a2f88f-4c0b-4000-aa64-c38e13b13b83"},"vehicle_type_id":"4","last_reported":1713499716,"current_range_meters":31200,"station_id":"ce4bhr12rcd13ifvqhqg","pricing_plan_id":"cebpf4jnsgd1na2vs0mg"},{"bike_id":"7a784be2-ed58-4804-9a29-205d13f5a83e","system_id":"levelo_inurba_marseille","lat":43.322872,"lon":5.382756,"is_reserved":false,"is_disabled":false,"rental_uris":{"android":"levelo://app?vid=7a784be2-ed58-4804-9a29-205d13f5a83e","ios":"levelo://app?vid=7a784be2-ed58-4804-9a29-205d13f5a83e"},"vehicle_type_id":"4","last_reported":1713499716,"current_range_meters":31200,"station_id":"ce4bhr12rcd13ifvqhqg","pricing_plan_id":"cebpf4jnsgd1na2vs0mg"},{"bike_id":"59c296c1-c1af-4a71-9e20-fa9c7f8757f9","system_id":"levelo_inurba_marseille","lat":43.322872,"lon":5.382756,"is_reserved":false,"is_disabled":false,"rental_uris":{"android":"levelo://app?vid=59c296c1-c1af-4a71-9e20-fa9c7f8757f9","ios":"levelo://app?vid=59c296c1-c1af-4a71-9e20-fa9c7f8757f9"},"vehicle_type_id":"4","last_reported":1713499716,"current_range_meters":31200,"station_id":"ce4bhr12rcd13ifvqhqg","pricing_plan_id":"cebpf4jnsgd1na2vs0mg"},{"bike_id":"c7781376-2aa0-4941-aab6-d191d5a8fcb8","system_id":"levelo_inurba_marseille","lat":43.322872,"lon":5.382756,"is_reserved":false,"is_disabled":false,"rental_uris":{"android":"levelo://app?vid=c7781376-2aa0-4941-aab6-d191d5a8fcb8","ios":"levelo://app?vid=c7781376-2aa0-4941-aab6-d191d5a8fcb8"},"vehicle_type_id":"4","last_reported":1713499716,"current_range_meters":15600,"station_id":"ce4bhr12rcd13ifvqhqg","pricing_plan_id":"cebpf4jnsgd1na2vs0mg"},{"bike_id":"c1c913df-b844-406e-83f7-dff5f43f7dc5","system_id":"levelo_inurba_marseille","lat":43.322872,"lon":5.382756,"is_reserved":false,"is_disabled":false,"rental_uris":{"android":"levelo://app?vid=c1c913df-b844-406e-83f7-dff5f43f7dc5","ios":"levelo://app?vid=c1c913df-b844-406e-83f7-dff5f43f7dc5"},"vehicle_type_id":"4","last_reported":1713499716,"current_range_meters":31200,"station_id":"ce4bhr12rcd13ifvqhqg","pricing_plan_id":"cebpf4jnsgd1na2vs0mg"},{"bike_id":"aa38acc2-91cb-407c-ac8c-05b08cc96e3e","system_id":"levelo_inurba_marseille","lat":43.322872,"lon":5.382756,"is_reserved":false,"is_disabled":false,"rental_uris":{"android":"levelo://app?vid=aa38acc2-91cb-407c-ac8c-05b08cc96e3e","ios":"levelo://app?vid=aa38acc2-91cb-407c-ac8c-05b08cc96e3e"},"vehicle_type_id":"4","last_reported":1713499716,"current_range_meters":30800,"station_id":"ce4bhr12rcd13ifvqhqg","pricing_plan_id":"cebpf4jnsgd1na2vs0mg"},{"bike_id":"5859569b-9a17-435b-8a19-2614d72c1b89","system_id":"levelo_inurba_marseille","lat":43.322872,"lon":5.382756,"is_reserved":false,"is_disabled":false,"rental_uris":{"android":"levelo://app?vid=5859569b-9a17-435b-8a19-2614d72c1b89","ios":"levelo://app?vid=5859569b-9a17-435b-8a19-2614d72c1b89"},"vehicle_type_id":"4","last_reported":1713499716,"current_range_meters":26800,"station_id":"ce4bhr12rcd13ifvqhqg","pricing_plan_id":"cebpf4jnsgd1na2vs0mg"},{"bike_id":"29ac2387-88e9-4cc9-9824-37ecec461686","system_id":"levelo_inurba_marseille","lat":43.322872,"lon":5.382756,"is_reserved":false,"is_disabled":false,"rental_uris":{"android":"levelo://app?vid=29ac2387-88e9-4cc9-9824-37ecec461686","ios":"levelo://app?vid=29ac2387-88e9-4cc9-9824-37ecec461686"},"vehicle_type_id":"4","last_reported":1713499716,"current_range_meters":30000,"station_id":"ce4bhr12rcd13ifvqhqg","pricing_plan_id":"cebpf4jnsgd1na2vs0mg"},{"bike_id":"3a777aae-0d2a-4638-8c09-6f1de81534e0","system_id":"levelo_inurba_marseille","lat":43.322872,"lon":5.382756,"is_reserved":false,"is_disabled":false,"rental_uris":{"android":"levelo://app?vid=3a777aae-0d2a-4638-8c09-6f1de81534e0","ios":"levelo://app?vid=3a777aae-0d2a-4638-8c09-6f1de81534e0"},"vehicle_type_id":"4","last_reported":1713499716,"current_range_meters":28400,"station_id":"ce4bhr12rcd13ifvqhqg","pricing_plan_id":"cebpf4jnsgd1na2vs0mg"},{"bike_id":"e5df68f6-b1ff-4d0a-b7e9-c02ca9b8210e","system_id":"levelo_inurba_marseille","lat":43.322872,"lon":5.382756,"is_reserved":false,"is_disabled":false,"rental_uris":{"android":"levelo://app?vid=e5df68f6-b1ff-4d0a-b7e9-c02ca9b8210e","ios":"levelo://app?vid=e5df68f6-b1ff-4d0a-b7e9-c02ca9b8210e"},"vehicle_type_id":"4","last_reported":1713499716,"current_range_meters":31200,"station_id":"ce4bhr12rcd13ifvqhqg","pricing_plan_id":"cebpf4jnsgd1na2vs0mg"},{"bike_id":"22259f3b-4f7c-41fc-a4c5-2946813903e0","system_id":"levelo_inurba_marseille","lat":43.297794,"lon":5.370888,"is_reserved":false,"is_disabled":false,"rental_uris":{"android":"levelo://app?vid=22259f3b-4f7c-41fc-a4c5-2946813903e0","ios":"levelo://app?vid=22259f3b-4f7c-41fc-a4c5-2946813903e0"},"vehicle_type_id":"4","last_reported":1713499716,"current_range_meters":17200,"station_id":"ce4bgop2rcd13ifvqc1g","pricing_plan_id":"cebpf4jnsgd1na2vs0mg"},{"bike_id":"2b73ff5c-b1cc-49c2-b817-d80d0491f07f","system_id":"levelo_inurba_marseille","lat":43.297163,"lon":5.365866,"is_reserved":false,"is_disabled":false,"rental_uris":{"android":"levelo://app?vid=2b73ff5c-b1cc-49c2-b817-d80d0491f07f","ios":"levelo://app?vid=2b73ff5c-b1cc-49c2-b817-d80d0491f07f"},"vehicle_type_id":"4","last_reported":1713499716,"current_range_meters":28000,"station_id":"ce4bgn12rcd13ifvqbt0","pricing_plan_id":"cebpf4jnsgd1na2vs0mg"},{"bike_id":"e2440d5c-3dec-4086-af8c-45642188354a","system_id":"levelo_inurba_marseille","lat":43.297163,"lon":5.365866,"is_reserved":false,"is_disabled":false,"rental_uris":{"android":"levelo://app?vid=e2440d5c-3dec-4086-af8c-45642188354a","ios":"levelo://app?vid=e2440d5c-3dec-4086-af8c-45642188354a"},"vehicle_type_id":"4","last_reported":1713499716,"current_range_meters":23600,"station_id":"ce4bgn12rcd13ifvqbt0","pricing_plan_id":"cebpf4jnsgd1na2vs0mg"},{"bike_id":"2e57c3b1-3707-4bf2-a16e-c4ef140f4a82","system_id":"levelo_inurba_marseille","lat":43.297163,"lon":5.365866,"is_reserved":false,"is_disabled":false,"rental_uris":{"android":"levelo://app?vid=2e57c3b1-3707-4bf2-a16e-c4ef140f4a82","ios":"levelo://app?vid=2e57c3b1-3707-4bf2-a16e-c4ef140f4a82"},"vehicle_type_id":"4","last_reported":1713499716,"current_range_meters":25200,"station_id":"ce4bgn12rcd13ifvqbt0","pricing_plan_id":"cebpf4jnsgd1na2vs0mg"},{"bike_id":"0bef586f-af84-4bb4-85ea-0db0bfaca4f4","system_id":"levelo_inurba_marseille","lat":43.297163,"lon":5.365866,"is_reserved":false,"is_disabled":false,"rental_uris":{"android":"levelo://app?vid=0bef586f-af84-4bb4-85ea-0db0bfaca4f4","ios":"levelo://app?vid=0bef586f-af84-4bb4-85ea-0db0bfaca4f4"},"vehicle_type_id":"4","last_reported":1713499716,"current_range_meters":19600,"station_id":"ce4bgn12rcd13ifvqbt0","pricing_plan_id":"cebpf4jnsgd1na2vs0mg"},{"bike_id":"766fa743-5ddd-4076-b94f-1dbdb7fccb46","system_id":"levelo_inurba_marseille","lat":43.297163,"lon":5.365866,"is_reserved":false,"is_disabled":false,"rental_uris":{"android":"levelo://app?vid=766fa743-5ddd-4076-b94f-1dbdb7fccb46","ios":"levelo://app?vid=766fa743-5ddd-4076-b94f-1dbdb7fccb46"},"vehicle_type_id":"4","last_reported":1713499716,"current_range_meters":26000,"station_id":"ce4bgn12rcd13ifvqbt0","pricing_plan_id":"cebpf4jnsgd1na2vs0mg"},{"bike_id":"ae8bdbc1-9772-448d-bad5-5bb87de0da5c","system_id":"levelo_inurba_marseille","lat":43.31515,"lon":5.38912,"is_reserved":false,"is_disabled":false,"rental_uris":{"android":"levelo://app?vid=ae8bdbc1-9772-448d-bad5-5bb87de0da5c","ios":"levelo://app?vid=ae8bdbc1-9772-448d-bad5-5bb87de0da5c"},"vehicle_type_id":"4","last_reported":1713499716,"current_range_meters":31200,"station_id":"","pricing_plan_id":"cebpf4jnsgd1na2vs0mg"},{"bike_id":"44607009-b4bb-4591-aa24-2c318a795da8","system_id":"levelo_inurba_marseille","lat":43.29694,"lon":5.37312,"is_reserved":false,"is_disabled":false,"rental_uris":{"android":"levelo://app?vid=44607009-b4bb-4591-aa24-2c318a795da8","ios":"levelo://app?vid=44607009-b4bb-4591-aa24-2c318a795da8"},"vehicle_type_id":"4","last_reported":1713499716,"current_range_meters":400,"station_id":"","pricing_plan_id":"cebpf4jnsgd1na2vs0mg"},{"bike_id":"9ae2a437-2094-4a78-bda3-646e1adfac95","system_id":"levelo_inurba_marseille","lat":43.2968,"lon":5.37291,"is_reserved":false,"is_disabled":false,"rental_uris":{"android":"levelo://app?vid=9ae2a437-2094-4a78-bda3-646e1adfac95","ios":"levelo://app?vid=9ae2a437-2094-4a78-bda3-646e1adfac95"},"vehicle_type_id":"4","last_reported":1713499716,"current_range_meters":23600,"station_id":"ce4bgk12rcd13ifvqbj0","pricing_plan_id":"cebpf4jnsgd1na2vs0mg"},{"bike_id":"a53078a7-2144-4fdb-a75f-8e59b1148255","system_id":"levelo_inurba_marseille","lat":43.2968,"lon":5.37291,"is_reserved":false,"is_disabled":false,"rental_uris":{"android":"levelo://app?vid=a53078a7-2144-4fdb-a75f-8e59b1148255","ios":"levelo://app?vid=a53078a7-2144-4fdb-a75f-8e59b1148255"},"vehicle_type_id":"4","last_reported":1713499716,"current_range_meters":27200,"station_id":"ce4bgk12rcd13ifvqbj0","pricing_plan_id":"cebpf4jnsgd1na2vs0mg"},{"bike_id":"34655ae9-f3eb-4b18-a01c-ee51496a94a7","system_id":"levelo_inurba_marseille","lat":43.309589,"lon":5.390258,"is_reserved":false,"is_disabled":false,"rental_uris":{"android":"levelo://app?vid=34655ae9-f3eb-4b18-a01c-ee51496a94a7","ios":"levelo://app?vid=34655ae9-f3eb-4b18-a01c-ee51496a94a7"},"vehicle_type_id":"4","last_reported":1713499716,"current_range_meters":30800,"station_id":"ce4bgup2rcd13ifvqco0","pricing_plan_id":"cebpf4jnsgd1na2vs0mg"},{"bike_id":"42fe2e47-7d7c-46d6-b4da-0e439bcf6d5e","system_id":"levelo_inurba_marseille","lat":43.299028,"lon":5.381509,"is_reserved":false,"is_disabled":false,"rental_uris":{"android":"levelo://app?vid=42fe2e47-7d7c-46d6-b4da-0e439bcf6d5e","ios":"levelo://app?vid=42fe2e47-7d7c-46d6-b4da-0e439bcf6d5e"},"vehicle_type_id":"4","last_reported":1713499716,"current_range_meters":26000,"station_id":"ce4bgj12rcd13ifvqbc0","pricing_plan_id":"cebpf4jnsgd1na2vs0mg"},{"bike_id":"94f4ae72-d9c4-4e9f-9e85-6ee9c3254fa7","system_id":"levelo_inurba_marseille","lat":43.299028,"lon":5.381509,"is_reserved":false,"is_disabled":false,"rental_uris":{"android":"levelo://app?vid=94f4ae72-d9c4-4e9f-9e85-6ee9c3254fa7","ios":"levelo://app?vid=94f4ae72-d9c4-4e9f-9e85-6ee9c3254fa7"},"vehicle_type_id":"4","last_reported":1713499716,"current_range_meters":13600,"station_id":"ce4bgj12rcd13ifvqbc0","pricing_plan_id":"cebpf4jnsgd1na2vs0mg"},{"bike_id":"d39d7e31-a64c-4748-affe-acae15ce0b08","system_id":"levelo_inurba_marseille","lat":43.309589,"lon":5.390258,"is_reserved":false,"is_disabled":false,"rental_uris":{"android":"levelo://app?vid=d39d7e31-a64c-4748-affe-acae15ce0b08","ios":"levelo://app?vid=d39d7e31-a64c-4748-affe-acae15ce0b08"},"vehicle_type_id":"4","last_reported":1713499716,"current_range_meters":29600,"station_id":"ce4bgup2rcd13ifvqco0","pricing_plan_id":"cebpf4jnsgd1na2vs0mg"},{"bike_id":"7427ca9b-c6cd-4d4d-87b8-bc00cbe7476c","system_id":"levelo_inurba_marseille","lat":43.309589,"lon":5.390258,"is_reserved":false,"is_disabled":false,"rental_uris":{"android":"levelo://app?vid=7427ca9b-c6cd-4d4d-87b8-bc00cbe7476c","ios":"levelo://app?vid=7427ca9b-c6cd-4d4d-87b8-bc00cbe7476c"},"vehicle_type_id":"4","last_reported":1713499716,"current_range_meters":30000,"station_id":"ce4bgup2rcd13ifvqco0","pricing_plan_id":"cebpf4jnsgd1na2vs0mg"},{"bike_id":"4fad7110-0d7a-4535-a2a2-13460455b9d7","system_id":"levelo_inurba_marseille","lat":43.309589,"lon":5.390258,"is_reserved":false,"is_disabled":false,"rental_uris":{"android":"levelo://app?vid=4fad7110-0d7a-4535-a2a2-13460455b9d7","ios":"levelo://app?vid=4fad7110-0d7a-4535-a2a2-13460455b9d7"},"vehicle_type_id":"4","last_reported":1713499716,"current_range_meters":30400,"station_id":"ce4bgup2rcd13ifvqco0","pricing_plan_id":"cebpf4jnsgd1na2vs0mg"},{"bike_id":"e44c6f50-9e49-406e-a69c-2105219b8a69","system_id":"levelo_inurba_marseille","lat":43.309553,"lon":5.390446,"is_reserved":false,"is_disabled":false,"rental_uris":{"android":"levelo://app?vid=e44c6f50-9e49-406e-a69c-2105219b8a69","ios":"levelo://app?vid=e44c6f50-9e49-406e-a69c-2105219b8a69"},"vehicle_type_id":"4","last_reported":1713499716,"current_range_meters":31600,"station_id":"ce4bgup2rcd13ifvqco0","pricing_plan_id":"cebpf4jnsgd1na2vs0mg"},{"bike_id":"afa73ef1-8ec8-44f4-a398-cf029fa01e4b","system_id":"levelo_inurba_marseille","lat":43.309589,"lon":5.390258,"is_reserved":false,"is_disabled":false,"rental_uris":{"android":"levelo://app?vid=afa73ef1-8ec8-44f4-a398-cf029fa01e4b","ios":"levelo://app?vid=afa73ef1-8ec8-44f4-a398-cf029fa01e4b"},"vehicle_type_id":"4","last_reported":1713499716,"current_range_meters":28000,"station_id":"ce4bgup2rcd13ifvqco0","pricing_plan_id":"cebpf4jnsgd1na2vs0mg"},{"bike_id":"de7353cf-ef18-4032-99ab-d101f5c16730","system_id":"levelo_inurba_marseille","lat":43.317678,"lon":5.390012,"is_reserved":false,"is_disabled":false,"rental_uris":{"android":"levelo://app?vid=de7353cf-ef18-4032-99ab-d101f5c16730","ios":"levelo://app?vid=de7353cf-ef18-4032-99ab-d101f5c16730"},"vehicle_type_id":"4","last_reported":1713499716,"current_range_meters":23600,"station_id":"ce4bhqp2rcd13ifvqhng","pricing_plan_id":"cebpf4jnsgd1na2vs0mg"},{"bike_id":"7bd66363-1a97-4246-99be-e0517b7b0cee","system_id":"levelo_inurba_marseille","lat":43.317557,"lon":5.390173,"is_reserved":false,"is_disabled":false,"rental_uris":{"android":"levelo://app?vid=7bd66363-1a97-4246-99be-e0517b7b0cee","ios":"levelo://app?vid=7bd66363-1a97-4246-99be-e0517b7b0cee"},"vehicle_type_id":"4","last_reported":1713499716,"current_range_meters":27600,"station_id":"ce4bhqp2rcd13ifvqhng","pricing_plan_id":"cebpf4jnsgd1na2vs0mg"},{"bike_id":"f0b5764c-1366-49ff-a8b0-db506e028453","system_id":"levelo_inurba_marseille","lat":43.317601,"lon":5.390129,"is_reserved":false,"is_disabled":false,"rental_uris":{"android":"levelo://app?vid=f0b5764c-1366-49ff-a8b0-db506e028453","ios":"levelo://app?vid=f0b5764c-1366-49ff-a8b0-db506e028453"},"vehicle_type_id":"4","last_reported":1713499716,"current_range_meters":2400,"station_id":"ce4bhqp2rcd13ifvqhng","pricing_plan_id":"cebpf4jnsgd1na2vs0mg"},{"bike_id":"c0fef991-4e0e-48ca-ba53-012e93a4cc9a","system_id":"levelo_inurba_marseille","lat":43.317557,"lon":5.390173,"is_reserved":false,"is_disabled":false,"rental_uris":{"android":"levelo://app?vid=c0fef991-4e0e-48ca-ba53-012e93a4cc9a","ios":"levelo://app?vid=c0fef991-4e0e-48ca-ba53-012e93a4cc9a"},"vehicle_type_id":"4","last_reported":1713499716,"current_range_meters":17600,"station_id":"ce4bhqp2rcd13ifvqhng","pricing_plan_id":"cebpf4jnsgd1na2vs0mg"},{"bike_id":"a54bf4a5-77b6-464e-a2ee-bc1f3277316c","system_id":"levelo_inurba_marseille","lat":43.317557,"lon":5.390173,"is_reserved":false,"is_disabled":false,"rental_uris":{"android":"levelo://app?vid=a54bf4a5-77b6-464e-a2ee-bc1f3277316c","ios":"levelo://app?vid=a54bf4a5-77b6-464e-a2ee-bc1f3277316c"},"vehicle_type_id":"4","last_reported":1713499716,"current_range_meters":27200,"station_id":"ce4bhqp2rcd13ifvqhng","pricing_plan_id":"cebpf4jnsgd1na2vs0mg"},{"bike_id":"4e61995a-72d9-4d67-b619-6ab31bf0bac8","system_id":"levelo_inurba_marseille","lat":43.298037,"lon":5.381066,"is_reserved":false,"is_disabled":false,"rental_uris":{"android":"levelo://app?vid=4e61995a-72d9-4d67-b619-6ab31bf0bac8","ios":"levelo://app?vid=4e61995a-72d9-4d67-b619-6ab31bf0bac8"},"vehicle_type_id":"4","last_reported":1713499716,"current_range_meters":26400,"station_id":"ce4bgip2rcd13ifvqbb0","pricing_plan_id":"cebpf4jnsgd1na2vs0mg"},{"bike_id":"fafc2dfa-e90f-4b7b-a689-0a30ebaa7a9d","system_id":"levelo_inurba_marseille","lat":43.304274,"lon":5.388873,"is_reserved":false,"is_disabled":false,"rental_uris":{"android":"levelo://app?vid=fafc2dfa-e90f-4b7b-a689-0a30ebaa7a9d","ios":"levelo://app?vid=fafc2dfa-e90f-4b7b-a689-0a30ebaa7a9d"},"vehicle_type_id":"4","last_reported":1713499716,"current_range_meters":31200,"station_id":"ce4bgk12rcd13ifvqbi0","pricing_plan_id":"cebpf4jnsgd1na2vs0mg"},{"bike_id":"ab4a4cad-4752-4155-a82e-2a7989bf5929","system_id":"levelo_inurba_marseille","lat":43.298037,"lon":5.381066,"is_reserved":false,"is_disabled":false,"rental_uris":{"android":"levelo://app?vid=ab4a4cad-4752-4155-a82e-2a7989bf5929","ios":"levelo://app?vid=ab4a4cad-4752-4155-a82e-2a7989bf5929"},"vehicle_type_id":"4","last_reported":1713499716,"current_range_meters":29600,"station_id":"ce4bgip2rcd13ifvqbb0","pricing_plan_id":"cebpf4jnsgd1na2vs0mg"},{"bike_id":"a3745656-c4ca-4e60-ae41-f8c26aeb3a66","system_id":"levelo_inurba_marseille","lat":43.304278,"lon":5.388868,"is_reserved":false,"is_disabled":false,"rental_uris":{"android":"levelo://app?vid=a3745656-c4ca-4e60-ae41-f8c26aeb3a66","ios":"levelo://app?vid=a3745656-c4ca-4e60-ae41-f8c26aeb3a66"},"vehicle_type_id":"4","last_reported":1713499716,"current_range_meters":13600,"station_id":"ce4bgk12rcd13ifvqbi0","pricing_plan_id":"cebpf4jnsgd1na2vs0mg"},{"bike_id":"9a94751a-7ff3-42bb-8a7e-6788aeda0509","system_id":"levelo_inurba_marseille","lat":43.298037,"lon":5.381066,"is_reserved":false,"is_disabled":false,"rental_uris":{"android":"levelo://app?vid=9a94751a-7ff3-42bb-8a7e-6788aeda0509","ios":"levelo://app?vid=9a94751a-7ff3-42bb-8a7e-6788aeda0509"},"vehicle_type_id":"4","last_reported":1713499716,"current_range_meters":8800,"station_id":"ce4bgip2rcd13ifvqbb0","pricing_plan_id":"cebpf4jnsgd1na2vs0mg"},{"bike_id":"a419a5cf-a5ca-4834-ac90-51d3bb5a6707","system_id":"levelo_inurba_marseille","lat":43.304278,"lon":5.388868,"is_reserved":false,"is_disabled":false,"rental_uris":{"android":"levelo://app?vid=a419a5cf-a5ca-4834-ac90-51d3bb5a6707","ios":"levelo://app?vid=a419a5cf-a5ca-4834-ac90-51d3bb5a6707"},"vehicle_type_id":"4","last_reported":1713499716,"current_range_meters":26400,"station_id":"ce4bgk12rcd13ifvqbi0","pricing_plan_id":"cebpf4jnsgd1na2vs0mg"},{"bike_id":"3bd72c26-ade9-4bc7-9903-df693ae38b2b","system_id":"levelo_inurba_marseille","lat":43.298037,"lon":5.381066,"is_reserved":false,"is_disabled":false,"rental_uris":{"android":"levelo://app?vid=3bd72c26-ade9-4bc7-9903-df693ae38b2b","ios":"levelo://app?vid=3bd72c26-ade9-4bc7-9903-df693ae38b2b"},"vehicle_type_id":"4","last_reported":1713499716,"current_range_meters":16000,"station_id":"ce4bgip2rcd13ifvqbb0","pricing_plan_id":"cebpf4jnsgd1na2vs0mg"},{"bike_id":"eee213c1-7593-424d-a64c-c6703cdd621f","system_id":"levelo_inurba_marseille","lat":43.304274,"lon":5.388873,"is_reserved":false,"is_disabled":false,"rental_uris":{"android":"levelo://app?vid=eee213c1-7593-424d-a64c-c6703cdd621f","ios":"levelo://app?vid=eee213c1-7593-424d-a64c-c6703cdd621f"},"vehicle_type_id":"4","last_reported":1713499716,"current_range_meters":7200,"station_id":"ce4bgk12rcd13ifvqbi0","pricing_plan_id":"cebpf4jnsgd1na2vs0mg"},{"bike_id":"adbcd73e-ccb5-4d16-a851-45d53b0d769c","system_id":"levelo_inurba_marseille","lat":43.304274,"lon":5.388873,"is_reserved":false,"is_disabled":false,"rental_uris":{"android":"levelo://app?vid=adbcd73e-ccb5-4d16-a851-45d53b0d769c","ios":"levelo://app?vid=adbcd73e-ccb5-4d16-a851-45d53b0d769c"},"vehicle_type_id":"4","last_reported":1713499716,"current_range_meters":21600,"station_id":"ce4bgk12rcd13ifvqbi0","pricing_plan_id":"cebpf4jnsgd1na2vs0mg"},{"bike_id":"9dda23e1-4fe4-4c09-b6d3-30970c7766c3","system_id":"levelo_inurba_marseille","lat":43.304274,"lon":5.388873,"is_reserved":false,"is_disabled":false,"rental_uris":{"android":"levelo://app?vid=9dda23e1-4fe4-4c09-b6d3-30970c7766c3","ios":"levelo://app?vid=9dda23e1-4fe4-4c09-b6d3-30970c7766c3"},"vehicle_type_id":"4","last_reported":1713499716,"current_range_meters":24800,"station_id":"ce4bgk12rcd13ifvqbi0","pricing_plan_id":"cebpf4jnsgd1na2vs0mg"},{"bike_id":"1975f2aa-5cab-48c3-ab95-6be4c1267276","system_id":"levelo_inurba_marseille","lat":43.298037,"lon":5.381066,"is_reserved":false,"is_disabled":false,"rental_uris":{"android":"levelo://app?vid=1975f2aa-5cab-48c3-ab95-6be4c1267276","ios":"levelo://app?vid=1975f2aa-5cab-48c3-ab95-6be4c1267276"},"vehicle_type_id":"4","last_reported":1713499716,"current_range_meters":30000,"station_id":"ce4bgip2rcd13ifvqbb0","pricing_plan_id":"cebpf4jnsgd1na2vs0mg"},{"bike_id":"e3e82f08-b4e1-46d0-b718-f33f44bd13ed","system_id":"levelo_inurba_marseille","lat":43.298037,"lon":5.381066,"is_reserved":false,"is_disabled":false,"rental_uris":{"android":"levelo://app?vid=e3e82f08-b4e1-46d0-b718-f33f44bd13ed","ios":"levelo://app?vid=e3e82f08-b4e1-46d0-b718-f33f44bd13ed"},"vehicle_type_id":"4","last_reported":1713499716,"current_range_meters":20800,"station_id":"ce4bgip2rcd13ifvqbb0","pricing_plan_id":"cebpf4jnsgd1na2vs0mg"},{"bike_id":"90fb5620-9681-4240-a604-f19dcaebfb7e","system_id":"levelo_inurba_marseille","lat":43.296277,"lon":5.377108,"is_reserved":false,"is_disabled":false,"rental_uris":{"android":"levelo://app?vid=90fb5620-9681-4240-a604-f19dcaebfb7e","ios":"levelo://app?vid=90fb5620-9681-4240-a604-f19dcaebfb7e"},"vehicle_type_id":"4","last_reported":1713499716,"current_range_meters":28800,"station_id":"ce4bgi92rcd13ifvqb90","pricing_plan_id":"cebpf4jnsgd1na2vs0mg"},{"bike_id":"72945cfe-7dbc-4c77-adcc-9a17f3876e72","system_id":"levelo_inurba_marseille","lat":43.299707,"lon":5.384859,"is_reserved":false,"is_disabled":false,"rental_uris":{"android":"levelo://app?vid=72945cfe-7dbc-4c77-adcc-9a17f3876e72","ios":"levelo://app?vid=72945cfe-7dbc-4c77-adcc-9a17f3876e72"},"vehicle_type_id":"4","last_reported":1713499716,"current_range_meters":20000,"station_id":"ce4bgj92rcd13ifvqbd0","pricing_plan_id":"cebpf4jnsgd1na2vs0mg"},{"bike_id":"4be78ef6-4c65-489d-9807-e3260256c3f2","system_id":"levelo_inurba_marseille","lat":43.299717,"lon":5.384845,"is_reserved":false,"is_disabled":false,"rental_uris":{"android":"levelo://app?vid=4be78ef6-4c65-489d-9807-e3260256c3f2","ios":"levelo://app?vid=4be78ef6-4c65-489d-9807-e3260256c3f2"},"vehicle_type_id":"4","last_reported":1713499716,"current_range_meters":20400,"station_id":"ce4bgj92rcd13ifvqbd0","pricing_plan_id":"cebpf4jnsgd1na2vs0mg"},{"bike_id":"43217c64-2fcb-4a57-a4ed-8271809fa57d","system_id":"levelo_inurba_marseille","lat":43.299717,"lon":5.384845,"is_reserved":false,"is_disabled":false,"rental_uris":{"android":"levelo://app?vid=43217c64-2fcb-4a57-a4ed-8271809fa57d","ios":"levelo://app?vid=43217c64-2fcb-4a57-a4ed-8271809fa57d"},"vehicle_type_id":"4","last_reported":1713499716,"current_range_meters":31200,"station_id":"ce4bgj92rcd13ifvqbd0","pricing_plan_id":"cebpf4jnsgd1na2vs0mg"},{"bike_id":"ababb836-a1ff-4815-bf17-4cd8d3a35d8b","system_id":"levelo_inurba_marseille","lat":43.32353,"lon":5.38886,"is_reserved":false,"is_disabled":false,"rental_uris":{"android":"levelo://app?vid=ababb836-a1ff-4815-bf17-4cd8d3a35d8b","ios":"levelo://app?vid=ababb836-a1ff-4815-bf17-4cd8d3a35d8b"},"vehicle_type_id":"4","last_reported":1713499716,"current_range_meters":26000,"station_id":"ce4bhqp2rcd13ifvqhog","pricing_plan_id":"cebpf4jnsgd1na2vs0mg"},{"bike_id":"62664093-5621-4a64-8035-912e8aa6d650","system_id":"levelo_inurba_marseille","lat":43.323607,"lon":5.388798,"is_reserved":false,"is_disabled":false,"rental_uris":{"android":"levelo://app?vid=62664093-5621-4a64-8035-912e8aa6d650","ios":"levelo://app?vid=62664093-5621-4a64-8035-912e8aa6d650"},"vehicle_type_id":"4","last_reported":1713499716,"current_range_meters":14000,"station_id":"ce4bhqp2rcd13ifvqhog","pricing_plan_id":"cebpf4jnsgd1na2vs0mg"},{"bike_id":"18932b7c-40de-4059-87ad-d2ba24c06a76","system_id":"levelo_inurba_marseille","lat":43.323563,"lon":5.388853,"is_reserved":false,"is_disabled":false,"rental_uris":{"android":"levelo://app?vid=18932b7c-40de-4059-87ad-d2ba24c06a76","ios":"levelo://app?vid=18932b7c-40de-4059-87ad-d2ba24c06a76"},"vehicle_type_id":"4","last_reported":1713499716,"current_range_meters":10400,"station_id":"ce4bhqp2rcd13ifvqhog","pricing_plan_id":"cebpf4jnsgd1na2vs0mg"},{"bike_id":"d5e2c2be-0e81-4de5-a72b-de510e6c7980","system_id":"levelo_inurba_marseille","lat":43.32364,"lon":5.38879,"is_reserved":false,"is_disabled":false,"rental_uris":{"android":"levelo://app?vid=d5e2c2be-0e81-4de5-a72b-de510e6c7980","ios":"levelo://app?vid=d5e2c2be-0e81-4de5-a72b-de510e6c7980"},"vehicle_type_id":"4","last_reported":1713499716,"current_range_meters":12400,"station_id":"ce4bhqp2rcd13ifvqhog","pricing_plan_id":"cebpf4jnsgd1na2vs0mg"},{"bike_id":"144fef58-d10f-45bb-aa6f-e051c1c7686f","system_id":"levelo_inurba_marseille","lat":43.323668,"lon":5.388781,"is_reserved":false,"is_disabled":false,"rental_uris":{"android":"levelo://app?vid=144fef58-d10f-45bb-aa6f-e051c1c7686f","ios":"levelo://app?vid=144fef58-d10f-45bb-aa6f-e051c1c7686f"},"vehicle_type_id":"4","last_reported":1713499716,"current_range_meters":18000,"station_id":"ce4bhqp2rcd13ifvqhog","pricing_plan_id":"cebpf4jnsgd1na2vs0mg"},{"bike_id":"0e83587b-cb8e-49ab-8d6c-529220ef3352","system_id":"levelo_inurba_marseille","lat":43.32367,"lon":5.388836,"is_reserved":false,"is_disabled":false,"rental_uris":{"android":"levelo://app?vid=0e83587b-cb8e-49ab-8d6c-529220ef3352","ios":"levelo://app?vid=0e83587b-cb8e-49ab-8d6c-529220ef3352"},"vehicle_type_id":"4","last_reported":1713499716,"current_range_meters":18000,"station_id":"ce4bhqp2rcd13ifvqhog","pricing_plan_id":"cebpf4jnsgd1na2vs0mg"},{"bike_id":"31d5f663-5a15-4dd8-b412-dec0d3961f5f","system_id":"levelo_inurba_marseille","lat":43.32367,"lon":5.388799,"is_reserved":false,"is_disabled":false,"rental_uris":{"android":"levelo://app?vid=31d5f663-5a15-4dd8-b412-dec0d3961f5f","ios":"levelo://app?vid=31d5f663-5a15-4dd8-b412-dec0d3961f5f"},"vehicle_type_id":"4","last_reported":1713499716,"current_range_meters":31200,"station_id":"ce4bhqp2rcd13ifvqhog","pricing_plan_id":"cebpf4jnsgd1na2vs0mg"},{"bike_id":"0a1db4f6-8f65-4e89-abc0-7e2a1d6bc918","system_id":"levelo_inurba_marseille","lat":43.32368,"lon":5.38879,"is_reserved":false,"is_disabled":false,"rental_uris":{"android":"levelo://app?vid=0a1db4f6-8f65-4e89-abc0-7e2a1d6bc918","ios":"levelo://app?vid=0a1db4f6-8f65-4e89-abc0-7e2a1d6bc918"},"vehicle_type_id":"4","last_reported":1713499716,"current_range_meters":15200,"station_id":"ce4bhqp2rcd13ifvqhog","pricing_plan_id":"cebpf4jnsgd1na2vs0mg"},{"bike_id":"1262b9bf-a996-4483-9df9-ccca2ea9aeaa","system_id":"levelo_inurba_marseille","lat":43.32367,"lon":5.388836,"is_reserved":false,"is_disabled":false,"rental_uris":{"android":"levelo://app?vid=1262b9bf-a996-4483-9df9-ccca2ea9aeaa","ios":"levelo://app?vid=1262b9bf-a996-4483-9df9-ccca2ea9aeaa"},"vehicle_type_id":"4","last_reported":1713499716,"current_range_meters":31200,"station_id":"ce4bhqp2rcd13ifvqhog","pricing_plan_id":"cebpf4jnsgd1na2vs0mg"},{"bike_id":"9e682dcd-9073-4ad9-b9c9-6406e7f00e51","system_id":"levelo_inurba_marseille","lat":43.32367,"lon":5.388836,"is_reserved":false,"is_disabled":false,"rental_uris":{"android":"levelo://app?vid=9e682dcd-9073-4ad9-b9c9-6406e7f00e51","ios":"levelo://app?vid=9e682dcd-9073-4ad9-b9c9-6406e7f00e51"},"vehicle_type_id":"4","last_reported":1713499716,"current_range_meters":16800,"station_id":"ce4bhqp2rcd13ifvqhog","pricing_plan_id":"cebpf4jnsgd1na2vs0mg"},{"bike_id":"e12e816d-876d-4b5c-8978-1c8160de6ac5","system_id":"levelo_inurba_marseille","lat":43.32366,"lon":5.38887,"is_reserved":false,"is_disabled":false,"rental_uris":{"android":"levelo://app?vid=e12e816d-876d-4b5c-8978-1c8160de6ac5","ios":"levelo://app?vid=e12e816d-876d-4b5c-8978-1c8160de6ac5"},"vehicle_type_id":"4","last_reported":1713499716,"current_range_meters":24000,"station_id":"ce4bhqp2rcd13ifvqhog","pricing_plan_id":"cebpf4jnsgd1na2vs0mg"},{"bike_id":"6bfaab4d-6e3a-4340-8b03-7fd6dfe3ed56","system_id":"levelo_inurba_marseille","lat":43.32367,"lon":5.388836,"is_reserved":false,"is_disabled":false,"rental_uris":{"android":"levelo://app?vid=6bfaab4d-6e3a-4340-8b03-7fd6dfe3ed56","ios":"levelo://app?vid=6bfaab4d-6e3a-4340-8b03-7fd6dfe3ed56"},"vehicle_type_id":"4","last_reported":1713499716,"current_range_meters":30000,"station_id":"ce4bhqp2rcd13ifvqhog","pricing_plan_id":"cebpf4jnsgd1na2vs0mg"},{"bike_id":"01d6876f-6b02-4639-8681-12458429f3f4","system_id":"levelo_inurba_marseille","lat":43.32367,"lon":5.388836,"is_reserved":false,"is_disabled":false,"rental_uris":{"android":"levelo://app?vid=01d6876f-6b02-4639-8681-12458429f3f4","ios":"levelo://app?vid=01d6876f-6b02-4639-8681-12458429f3f4"},"vehicle_type_id":"4","last_reported":1713499716,"current_range_meters":22800,"station_id":"ce4bhqp2rcd13ifvqhog","pricing_plan_id":"cebpf4jnsgd1na2vs0mg"},{"bike_id":"fcf153d0-15d0-4299-8440-72a986e69167","system_id":"levelo_inurba_marseille","lat":43.32367,"lon":5.388836,"is_reserved":false,"is_disabled":false,"rental_uris":{"android":"levelo://app?vid=fcf153d0-15d0-4299-8440-72a986e69167","ios":"levelo://app?vid=fcf153d0-15d0-4299-8440-72a986e69167"},"vehicle_type_id":"4","last_reported":1713499716,"current_range_meters":31200,"station_id":"ce4bhqp2rcd13ifvqhog","pricing_plan_id":"cebpf4jnsgd1na2vs0mg"},{"bike_id":"ec3b84dd-a863-4f78-aeb0-dee9498f4259","system_id":"levelo_inurba_marseille","lat":43.32367,"lon":5.388836,"is_reserved":false,"is_disabled":false,"rental_uris":{"android":"levelo://app?vid=ec3b84dd-a863-4f78-aeb0-dee9498f4259","ios":"levelo://app?vid=ec3b84dd-a863-4f78-aeb0-dee9498f4259"},"vehicle_type_id":"4","last_reported":1713499716,"current_range_meters":19200,"station_id":"ce4bhqp2rcd13ifvqhog","pricing_plan_id":"cebpf4jnsgd1na2vs0mg"},{"bike_id":"2955d361-97c2-437c-b944-77bd6392813f","system_id":"levelo_inurba_marseille","lat":43.323658,"lon":5.388907,"is_reserved":false,"is_disabled":false,"rental_uris":{"android":"levelo://app?vid=2955d361-97c2-437c-b944-77bd6392813f","ios":"levelo://app?vid=2955d361-97c2-437c-b944-77bd6392813f"},"vehicle_type_id":"4","last_reported":1713499716,"current_range_meters":18800,"station_id":"ce4bhqp2rcd13ifvqhog","pricing_plan_id":"cebpf4jnsgd1na2vs0mg"},{"bike_id":"e8f862e5-ac47-4fec-b766-49e83494b40d","system_id":"levelo_inurba_marseille","lat":43.29602,"lon":5.381084,"is_reserved":false,"is_disabled":false,"rental_uris":{"android":"levelo://app?vid=e8f862e5-ac47-4fec-b766-49e83494b40d","ios":"levelo://app?vid=e8f862e5-ac47-4fec-b766-49e83494b40d"},"vehicle_type_id":"4","last_reported":1713499716,"current_range_meters":28400,"station_id":"ce4bgl12rcd13ifvqbo0","pricing_plan_id":"cebpf4jnsgd1na2vs0mg"},{"bike_id":"0453ada7-02b3-4083-b15b-b757527ff5f8","system_id":"levelo_inurba_marseille","lat":43.32395,"lon":5.38933,"is_reserved":false,"is_disabled":false,"rental_uris":{"android":"levelo://app?vid=0453ada7-02b3-4083-b15b-b757527ff5f8","ios":"levelo://app?vid=0453ada7-02b3-4083-b15b-b757527ff5f8"},"vehicle_type_id":"4","last_reported":1713499716,"current_range_meters":12800,"station_id":"ce4bhqp2rcd13ifvqhog","pricing_plan_id":"cebpf4jnsgd1na2vs0mg"},{"bike_id":"2d07ee53-bfba-4ce0-995f-edf0288aab29","system_id":"levelo_inurba_marseille","lat":43.29602,"lon":5.381084,"is_reserved":false,"is_disabled":false,"rental_uris":{"android":"levelo://app?vid=2d07ee53-bfba-4ce0-995f-edf0288aab29","ios":"levelo://app?vid=2d07ee53-bfba-4ce0-995f-edf0288aab29"},"vehicle_type_id":"4","last_reported":1713499716,"current_range_meters":26800,"station_id":"ce4bgl12rcd13ifvqbo0","pricing_plan_id":"cebpf4jnsgd1na2vs0mg"},{"bike_id":"82fc3a0a-232e-4409-b959-4d093a9c4337","system_id":"levelo_inurba_marseille","lat":43.29269,"lon":5.368455,"is_reserved":false,"is_disabled":false,"rental_uris":{"android":"levelo://app?vid=82fc3a0a-232e-4409-b959-4d093a9c4337","ios":"levelo://app?vid=82fc3a0a-232e-4409-b959-4d093a9c4337"},"vehicle_type_id":"4","last_reported":1713499716,"current_range_meters":30800,"station_id":"ce4bhbp2rcd13ifvqesg","pricing_plan_id":"cebpf4jnsgd1na2vs0mg"},{"bike_id":"daeb27ab-8e89-4d19-8326-6e37f49eb178","system_id":"levelo_inurba_marseille","lat":43.305994,"lon":5.393687,"is_reserved":false,"is_disabled":false,"rental_uris":{"android":"levelo://app?vid=daeb27ab-8e89-4d19-8326-6e37f49eb178","ios":"levelo://app?vid=daeb27ab-8e89-4d19-8326-6e37f49eb178"},"vehicle_type_id":"4","last_reported":1713499716,"current_range_meters":26000,"station_id":"ce4bh0p2rcd13ifvqd80","pricing_plan_id":"cebpf4jnsgd1na2vs0mg"},{"bike_id":"336db35d-c779-4706-8b50-070badbdb166","system_id":"levelo_inurba_marseille","lat":43.293009,"lon":5.374584,"is_reserved":false,"is_disabled":false,"rental_uris":{"android":"levelo://app?vid=336db35d-c779-4706-8b50-070badbdb166","ios":"levelo://app?vid=336db35d-c779-4706-8b50-070badbdb166"},"vehicle_type_id":"4","last_reported":1713499716,"current_range_meters":28000,"station_id":"ce4bgi12rcd13ifvqb70","pricing_plan_id":"cebpf4jnsgd1na2vs0mg"},{"bike_id":"969f2013-c66c-461d-98e1-bff3760ccb7e","system_id":"levelo_inurba_marseille","lat":43.302992,"lon":5.392136,"is_reserved":false,"is_disabled":false,"rental_uris":{"android":"levelo://app?vid=969f2013-c66c-461d-98e1-bff3760ccb7e","ios":"levelo://app?vid=969f2013-c66c-461d-98e1-bff3760ccb7e"},"vehicle_type_id":"4","last_reported":1713499716,"current_range_meters":29600,"station_id":"ce4bgkh2rcd13ifvqbk0","pricing_plan_id":"cebpf4jnsgd1na2vs0mg"},{"bike_id":"f1540e1f-80c9-4d53-a54d-1a66bb56eda8","system_id":"levelo_inurba_marseille","lat":43.303002,"lon":5.392142,"is_reserved":false,"is_disabled":false,"rental_uris":{"android":"levelo://app?vid=f1540e1f-80c9-4d53-a54d-1a66bb56eda8","ios":"levelo://app?vid=f1540e1f-80c9-4d53-a54d-1a66bb56eda8"},"vehicle_type_id":"4","last_reported":1713499716,"current_range_meters":26800,"station_id":"ce4bgkh2rcd13ifvqbk0","pricing_plan_id":"cebpf4jnsgd1na2vs0mg"},{"bike_id":"46708e77-9560-410e-b610-19ffdbbc4e8c","system_id":"levelo_inurba_marseille","lat":43.302996,"lon":5.392054,"is_reserved":false,"is_disabled":false,"rental_uris":{"android":"levelo://app?vid=46708e77-9560-410e-b610-19ffdbbc4e8c","ios":"levelo://app?vid=46708e77-9560-410e-b610-19ffdbbc4e8c"},"vehicle_type_id":"4","last_reported":1713499716,"current_range_meters":28400,"station_id":"ce4bgkh2rcd13ifvqbk0","pricing_plan_id":"cebpf4jnsgd1na2vs0mg"},{"bike_id":"1c81298f-5ad4-4f5e-8c6f-cb7c677ad3f5","system_id":"levelo_inurba_marseille","lat":43.303002,"lon":5.392142,"is_reserved":false,"is_disabled":false,"rental_uris":{"android":"levelo://app?vid=1c81298f-5ad4-4f5e-8c6f-cb7c677ad3f5","ios":"levelo://app?vid=1c81298f-5ad4-4f5e-8c6f-cb7c677ad3f5"},"vehicle_type_id":"4","last_reported":1713499716,"current_range_meters":12800,"station_id":"ce4bgkh2rcd13ifvqbk0","pricing_plan_id":"cebpf4jnsgd1na2vs0mg"},{"bike_id":"f36f6da4-4580-4857-8188-f6ce8c6f8c33","system_id":"levelo_inurba_marseille","lat":43.2936,"lon":5.37835,"is_reserved":false,"is_disabled":false,"rental_uris":{"android":"levelo://app?vid=f36f6da4-4580-4857-8188-f6ce8c6f8c33","ios":"levelo://app?vid=f36f6da4-4580-4857-8188-f6ce8c6f8c33"},"vehicle_type_id":"4","last_reported":1713499716,"current_range_meters":28000,"station_id":"ce4bgjh2rcd13ifvqbf0","pricing_plan_id":"cebpf4jnsgd1na2vs0mg"},{"bike_id":"562934dd-1791-4f9e-831a-eb309796e6ca","system_id":"levelo_inurba_marseille","lat":43.293711,"lon":5.378526,"is_reserved":false,"is_disabled":false,"rental_uris":{"android":"levelo://app?vid=562934dd-1791-4f9e-831a-eb309796e6ca","ios":"levelo://app?vid=562934dd-1791-4f9e-831a-eb309796e6ca"},"vehicle_type_id":"4","last_reported":1713499716,"current_range_meters":4800,"station_id":"ce4bgjh2rcd13ifvqbf0","pricing_plan_id":"cebpf4jnsgd1na2vs0mg"},{"bike_id":"9e104b6c-ec51-48bd-a542-dabc8007941a","system_id":"levelo_inurba_marseille","lat":43.2936,"lon":5.37835,"is_reserved":false,"is_disabled":false,"rental_uris":{"android":"levelo://app?vid=9e104b6c-ec51-48bd-a542-dabc8007941a","ios":"levelo://app?vid=9e104b6c-ec51-48bd-a542-dabc8007941a"},"vehicle_type_id":"4","last_reported":1713499716,"current_range_meters":27200,"station_id":"ce4bgjh2rcd13ifvqbf0","pricing_plan_id":"cebpf4jnsgd1na2vs0mg"},{"bike_id":"980f7da8-4cbe-4226-b078-820564f80b5a","system_id":"levelo_inurba_marseille","lat":43.2936,"lon":5.37835,"is_reserved":false,"is_disabled":false,"rental_uris":{"android":"levelo://app?vid=980f7da8-4cbe-4226-b078-820564f80b5a","ios":"levelo://app?vid=980f7da8-4cbe-4226-b078-820564f80b5a"},"vehicle_type_id":"4","last_reported":1713499716,"current_range_meters":28000,"station_id":"ce4bgjh2rcd13ifvqbf0","pricing_plan_id":"cebpf4jnsgd1na2vs0mg"},{"bike_id":"369a7132-715e-44ea-91af-441358274274","system_id":"levelo_inurba_marseille","lat":43.2936,"lon":5.37835,"is_reserved":false,"is_disabled":false,"rental_uris":{"android":"levelo://app?vid=369a7132-715e-44ea-91af-441358274274","ios":"levelo://app?vid=369a7132-715e-44ea-91af-441358274274"},"vehicle_type_id":"4","last_reported":1713499716,"current_range_meters":30000,"station_id":"ce4bgjh2rcd13ifvqbf0","pricing_plan_id":"cebpf4jnsgd1na2vs0mg"},{"bike_id":"e90d5081-eae5-458f-b169-cf160315d3e5","system_id":"levelo_inurba_marseille","lat":43.292268,"lon":5.360696,"is_reserved":false,"is_disabled":false,"rental_uris":{"android":"levelo://app?vid=e90d5081-eae5-458f-b169-cf160315d3e5","ios":"levelo://app?vid=e90d5081-eae5-458f-b169-cf160315d3e5"},"vehicle_type_id":"4","last_reported":1713499716,"current_range_meters":12000,"station_id":"","pricing_plan_id":"cebpf4jnsgd1na2vs0mg"},{"bike_id":"cd82088e-bcd7-4b8d-954c-6e4fbf74b0d1","system_id":"levelo_inurba_marseille","lat":43.292311,"lon":5.360731,"is_reserved":false,"is_disabled":false,"rental_uris":{"android":"levelo://app?vid=cd82088e-bcd7-4b8d-954c-6e4fbf74b0d1","ios":"levelo://app?vid=cd82088e-bcd7-4b8d-954c-6e4fbf74b0d1"},"vehicle_type_id":"4","last_reported":1713499716,"current_range_meters":11600,"station_id":"ce4bhbh2rcd13ifvqeqg","pricing_plan_id":"cebpf4jnsgd1na2vs0mg"},{"bike_id":"dcfb9140-37a8-4670-ac86-5dadc26b9d0a","system_id":"levelo_inurba_marseille","lat":43.292311,"lon":5.360731,"is_reserved":false,"is_disabled":false,"rental_uris":{"android":"levelo://app?vid=dcfb9140-37a8-4670-ac86-5dadc26b9d0a","ios":"levelo://app?vid=dcfb9140-37a8-4670-ac86-5dadc26b9d0a"},"vehicle_type_id":"4","last_reported":1713499716,"current_range_meters":31200,"station_id":"ce4bhbh2rcd13ifvqeqg","pricing_plan_id":"cebpf4jnsgd1na2vs0mg"},{"bike_id":"fe423ab0-1d1d-45ec-b941-b9223e31913e","system_id":"levelo_inurba_marseille","lat":43.30085,"lon":5.390856,"is_reserved":false,"is_disabled":false,"rental_uris":{"android":"levelo://app?vid=fe423ab0-1d1d-45ec-b941-b9223e31913e","ios":"levelo://app?vid=fe423ab0-1d1d-45ec-b941-b9223e31913e"},"vehicle_type_id":"4","last_reported":1713499716,"current_range_meters":27200,"station_id":"ce4bh192rcd13ifvqdb0","pricing_plan_id":"cebpf4jnsgd1na2vs0mg"},{"bike_id":"981383f8-2b35-41fa-81b6-4435b218b654","system_id":"levelo_inurba_marseille","lat":43.298766,"lon":5.389066,"is_reserved":false,"is_disabled":false,"rental_uris":{"android":"levelo://app?vid=981383f8-2b35-41fa-81b6-4435b218b654","ios":"levelo://app?vid=981383f8-2b35-41fa-81b6-4435b218b654"},"vehicle_type_id":"4","last_reported":1713499716,"current_range_meters":15600,"station_id":"ce4bh392rcd13ifvqdl0","pricing_plan_id":"cebpf4jnsgd1na2vs0mg"},{"bike_id":"5b600f59-ded7-48cc-8d51-96b1945c25e6","system_id":"levelo_inurba_marseille","lat":43.309047,"lon":5.396551,"is_reserved":false,"is_disabled":false,"rental_uris":{"android":"levelo://app?vid=5b600f59-ded7-48cc-8d51-96b1945c25e6","ios":"levelo://app?vid=5b600f59-ded7-48cc-8d51-96b1945c25e6"},"vehicle_type_id":"4","last_reported":1713499716,"current_range_meters":30000,"station_id":"ce4bh012rcd13ifvqcv0","pricing_plan_id":"cebpf4jnsgd1na2vs0mg"},{"bike_id":"58a3de05-9fae-4f57-bf49-464041ff567b","system_id":"levelo_inurba_marseille","lat":43.309047,"lon":5.396551,"is_reserved":false,"is_disabled":false,"rental_uris":{"android":"levelo://app?vid=58a3de05-9fae-4f57-bf49-464041ff567b","ios":"levelo://app?vid=58a3de05-9fae-4f57-bf49-464041ff567b"},"vehicle_type_id":"4","last_reported":1713499716,"current_range_meters":24800,"station_id":"ce4bh012rcd13ifvqcv0","pricing_plan_id":"cebpf4jnsgd1na2vs0mg"},{"bike_id":"942d9e2a-6aec-49bd-a6f0-f168bfe651f7","system_id":"levelo_inurba_marseille","lat":43.309038,"lon":5.396546,"is_reserved":false,"is_disabled":false,"rental_uris":{"android":"levelo://app?vid=942d9e2a-6aec-49bd-a6f0-f168bfe651f7","ios":"levelo://app?vid=942d9e2a-6aec-49bd-a6f0-f168bfe651f7"},"vehicle_type_id":"4","last_reported":1713499716,"current_range_meters":14800,"station_id":"ce4bh012rcd13ifvqcv0","pricing_plan_id":"cebpf4jnsgd1na2vs0mg"},{"bike_id":"5eb94b60-eb9b-47f3-a171-5ec3153fed61","system_id":"levelo_inurba_marseille","lat":43.309047,"lon":5.396551,"is_reserved":false,"is_disabled":false,"rental_uris":{"android":"levelo://app?vid=5eb94b60-eb9b-47f3-a171-5ec3153fed61","ios":"levelo://app?vid=5eb94b60-eb9b-47f3-a171-5ec3153fed61"},"vehicle_type_id":"4","last_reported":1713499716,"current_range_meters":26800,"station_id":"ce4bh012rcd13ifvqcv0","pricing_plan_id":"cebpf4jnsgd1na2vs0mg"},{"bike_id":"5476489f-1fd0-48e5-9972-f96561facd7a","system_id":"levelo_inurba_marseille","lat":43.309047,"lon":5.396551,"is_reserved":false,"is_disabled":false,"rental_uris":{"android":"levelo://app?vid=5476489f-1fd0-48e5-9972-f96561facd7a","ios":"levelo://app?vid=5476489f-1fd0-48e5-9972-f96561facd7a"},"vehicle_type_id":"4","last_reported":1713499716,"current_range_meters":26400,"station_id":"ce4bh012rcd13ifvqcv0","pricing_plan_id":"cebpf4jnsgd1na2vs0mg"},{"bike_id":"1ff65f47-567f-4430-8e95-d8077f7c9bc0","system_id":"levelo_inurba_marseille","lat":43.309038,"lon":5.396546,"is_reserved":false,"is_disabled":false,"rental_uris":{"android":"levelo://app?vid=1ff65f47-567f-4430-8e95-d8077f7c9bc0","ios":"levelo://app?vid=1ff65f47-567f-4430-8e95-d8077f7c9bc0"},"vehicle_type_id":"4","last_reported":1713499716,"current_range_meters":31200,"station_id":"ce4bh012rcd13ifvqcv0","pricing_plan_id":"cebpf4jnsgd1na2vs0mg"},{"bike_id":"d05199e7-7f59-423e-a268-b5253ea07bd9","system_id":"levelo_inurba_marseille","lat":43.291994,"lon":5.357886,"is_reserved":false,"is_disabled":false,"rental_uris":{"android":"levelo://app?vid=d05199e7-7f59-423e-a268-b5253ea07bd9","ios":"levelo://app?vid=d05199e7-7f59-423e-a268-b5253ea07bd9"},"vehicle_type_id":"4","last_reported":1713499716,"current_range_meters":28400,"station_id":"ce4bhb12rcd13ifvqel0","pricing_plan_id":"cebpf4jnsgd1na2vs0mg"},{"bike_id":"02d5ede8-e224-4846-8faf-fb26748cf005","system_id":"levelo_inurba_marseille","lat":43.309697,"lon":5.396612,"is_reserved":false,"is_disabled":false,"rental_uris":{"android":"levelo://app?vid=02d5ede8-e224-4846-8faf-fb26748cf005","ios":"levelo://app?vid=02d5ede8-e224-4846-8faf-fb26748cf005"},"vehicle_type_id":"4","last_reported":1713499716,"current_range_meters":4400,"station_id":"","pricing_plan_id":"cebpf4jnsgd1na2vs0mg"},