{"last_updated":1700068006,"ttl":30,"version":"2.2","data":{"bikes":[{"bike_id":"a460a55e-9645-4ae8-adc1-11643ac68240","system_id":"levelo_inurba_marseille","lat":43.312239,"lon":5.368562,"is_reserved":false,"is_disabled":false,"rental_uris":{"android":"levelo://app?vid=a460a55e-9645-4ae8-adc1-11643ac68240","ios":"levelo://app?vid=a460a55e-9645-4ae8-adc1-11643ac68240"},"vehicle_type_id":"4","last_reported":1700068006,"current_range_meters":0,"station_id":"ce4bgl92rcd13ifvqbq0","pricing_plan_id":"free"},{"bike_id":"1f0b8a77-b1f0-48b2-986b-4e9f2b25aea4","system_id":"levelo_inurba_marseille","lat":43.31134,"lon":5.36765,"is_reserved":false,"is_disabled":false,"rental_uris":{"android":"levelo://app?vid=1f0b8a77-b1f0-48b2-986b-4e9f2b25aea4","ios":"levelo://app?vid=1f0b8a77-b1f0-48b2-986b-4e9f2b25aea4"},"vehicle_type_id":"4","last_reported":1700068006,"current_range_meters":0,"station_id":"","pricing_plan_id":"free"},{"bike_id":"943dfc2f-eec4-44b8-ae3a-bf8f278b58c3","system_id":"levelo_inurba_marseille","lat":43.311498,"lon":5.368836,"is_reserved":false,"is_disabled":false,"rental_uris":{"android":"levelo://app?vid=943dfc2f-eec4-44b8-ae3a-bf8f278b58c3","ios":"levelo://app?vid=943dfc2f-eec4-44b8-ae3a-bf8f278b58c3"},"vehicle_type_id":"4","last_reported":1700068006,"current_range_meters":13600,"station_id":"","pricing_plan_id":"free"},{"bike_id":"2c6cd848-b1bb-4776-9b5c-64caaf0803b9","system_id":"levelo_inurba_marseille","lat":43.30973,"lon":5.36835,"is_reserved":false,"is_disabled":false,"rental_uris":{"android":"levelo://app?vid=2c6cd848-b1bb-4776-9b5c-64caaf0803b9","ios":"levelo://app?vid=2c6cd848-b1bb-4776-9b5c-64caaf0803b9"},"vehicle_type_id":"4","last_reported":1700068006,"current_range_meters":21600,"station_id":"","pricing_plan_id":"free"},{"bike_id":"6d707fd5-98bd-452a-a0ef-85f6d2720088","system_id":"levelo_inurba_marseille","lat":43.309076,"lon":5.368465,"is_reserved":false,"is_disabled":false,"rental_uris":{"android":"levelo://app?vid=6d707fd5-98bd-452a-a0ef-85f6d2720088","ios":"levelo://app?vid=6d707fd5-98bd-452a-a0ef-85f6d2720088"},"vehicle_type_id":"4","last_reported":1700068006,"current_range_meters":2800,"station_id":"ce4bgn92rcd13ifvqbvg","pricing_plan_id":"free"},{"bike_id":"981dd138-ade2-4320-ae3d-8e3fe29bb2de","system_id":"levelo_inurba_marseille","lat":43.31493,"lon":5.37315,"is_reserved":false,"is_disabled":false,"rental_uris":{"android":"levelo://app?vid=981dd138-ade2-4320-ae3d-8e3fe29bb2de","ios":"levelo://app?vid=981dd138-ade2-4320-ae3d-8e3fe29bb2de"},"vehicle_type_id":"4","last_reported":1700068006,"current_range_meters":1600,"station_id":"ce4bgt12rcd13ifvqcd0","pricing_plan_id":"free"},{"bike_id":"3475d204-43b6-43d9-b615-ca1d0d58200e","system_id":"levelo_inurba_marseille","lat":43.30679,"lon":5.3679,"is_reserved":false,"is_disabled":false,"rental_uris":{"android":"levelo://app?vid=3475d204-43b6-43d9-b615-ca1d0d58200e","ios":"levelo://app?vid=3475d204-43b6-43d9-b615-ca1d0d58200e"},"vehicle_type_id":"4","last_reported":1700068006,"current_range_meters":25600,"station_id":"","pricing_plan_id":"free"},{"bike_id":"abd32df8-099a-41f8-8890-79297206911e","system_id":"levelo_inurba_marseille","lat":43.31313,"lon":5.37614,"is_reserved":false,"is_disabled":false,"rental_uris":{"android":"levelo://app?vid=abd32df8-099a-41f8-8890-79297206911e","ios":"levelo://app?vid=abd32df8-099a-41f8-8890-79297206911e"},"vehicle_type_id":"4","last_reported":1700068006,"current_range_meters":18400,"station_id":"","pricing_plan_id":"free"},{"bike_id":"69d016a5-d6e6-44f7-bbbc-2a1a2aad7318","system_id":"levelo_inurba_marseille","lat":43.31409,"lon":5.37635,"is_reserved":false,"is_disabled":false,"rental_uris":{"android":"levelo://app?vid=69d016a5-d6e6-44f7-bbbc-2a1a2aad7318","ios":"levelo://app?vid=69d016a5-d6e6-44f7-bbbc-2a1a2aad7318"},"vehicle_type_id":"4","last_reported":1700068006,"current_range_meters":8400,"station_id":"","pricing_plan_id":"free"},{"bike_id":"7c0ed821-23e4-46c6-af26-de164d785537","system_id":"levelo_inurba_marseille","lat":43.271388,"lon":5.409269,"is_reserved":false,"is_disabled":false,"rental_uris":{"android":"levelo://app?vid=7c0ed821-23e4-46c6-af26-de164d785537","ios":"levelo://app?vid=7c0ed821-23e4-46c6-af26-de164d785537"},"vehicle_type_id":"4","last_reported":1700068006,"current_range_meters":21200,"station_id":"ce4bhl12rcd13ifvqgf0","pricing_plan_id":"free"},{"bike_id":"9c30cece-8a00-44fc-b221-9d94c1be1898","system_id":"levelo_inurba_marseille","lat":43.305989,"lon":5.37225,"is_reserved":false,"is_disabled":false,"rental_uris":{"android":"levelo://app?vid=9c30cece-8a00-44fc-b221-9d94c1be1898","ios":"levelo://app?vid=9c30cece-8a00-44fc-b221-9d94c1be1898"},"vehicle_type_id":"4","last_reported":1700068006,"current_range_meters":7200,"station_id":"ce4bgqh2rcd13ifvqc4g","pricing_plan_id":"free"},{"bike_id":"38f6d51e-3a2c-4802-8bf6-4cd5dd5b97b4","system_id":"levelo_inurba_marseille","lat":43.308193,"lon":5.37661,"is_reserved":false,"is_disabled":false,"rental_uris":{"android":"levelo://app?vid=38f6d51e-3a2c-4802-8bf6-4cd5dd5b97b4","ios":"levelo://app?vid=38f6d51e-3a2c-4802-8bf6-4cd5dd5b97b4"},"vehicle_type_id":"4","last_reported":1700068006,"current_range_meters":18800,"station_id":"ce4bgv92rcd13ifvqcq0","pricing_plan_id":"free"},{"bike_id":"57053367-5328-4d78-8951-737f56b37ed9","system_id":"levelo_inurba_marseille","lat":43.319924,"lon":5.373389,"is_reserved":false,"is_disabled":false,"rental_uris":{"android":"levelo://app?vid=57053367-5328-4d78-8951-737f56b37ed9","ios":"levelo://app?vid=57053367-5328-4d78-8951-737f56b37ed9"},"vehicle_type_id":"4","last_reported":1700068006,"current_range_meters":2800,"station_id":"","pricing_plan_id":"free"},{"bike_id":"1901c0d3-a411-4f8b-8b4f-d2f2ddb78123","system_id":"levelo_inurba_marseille","lat":43.31802,"lon":5.37808,"is_reserved":false,"is_disabled":false,"rental_uris":{"android":"levelo://app?vid=1901c0d3-a411-4f8b-8b4f-d2f2ddb78123","ios":"levelo://app?vid=1901c0d3-a411-4f8b-8b4f-d2f2ddb78123"},"vehicle_type_id":"4","last_reported":1700068006,"current_range_meters":10000,"station_id":"","pricing_plan_id":"free"},{"bike_id":"dd3bad96-8d0e-49c1-af17-51e47726d5ae","system_id":"levelo_inurba_marseille","lat":43.303189,"lon":5.371045,"is_reserved":false,"is_disabled":false,"rental_uris":{"android":"levelo://app?vid=dd3bad96-8d0e-49c1-af17-51e47726d5ae","ios":"levelo://app?vid=dd3bad96-8d0e-49c1-af17-51e47726d5ae"},"vehicle_type_id":"4","last_reported":1700068006,"current_range_meters":0,"station_id":"","pricing_plan_id":"free"},{"bike_id":"8bc0cd65-32cf-4767-98c1-7226217d7957","system_id":"levelo_inurba_marseille","lat":43.31535,"lon":5.38034,"is_reserved":false,"is_disabled":false,"rental_uris":{"android":"levelo://app?vid=8bc0cd65-32cf-4767-98c1-7226217d7957","ios":"levelo://app?vid=8bc0cd65-32cf-4767-98c1-7226217d7957"},"vehicle_type_id":"4","last_reported":1700068006,"current_range_meters":0,"station_id":"ce4bhsp2rcd13ifvqi50","pricing_plan_id":"free"},{"bike_id":"9fcd7e15-dabb-4815-8b72-0f51af94b637","system_id":"levelo_inurba_marseille","lat":43.301815,"lon":5.366245,"is_reserved":false,"is_disabled":false,"rental_uris":{"android":"levelo://app?vid=9fcd7e15-dabb-4815-8b72-0f51af94b637","ios":"levelo://app?vid=9fcd7e15-dabb-4815-8b72-0f51af94b637"},"vehicle_type_id":"4","last_reported":1700068006,"current_range_meters":0,"station_id":"ce4bgrh2rcd13ifvqc8g","pricing_plan_id":"free"},{"bike_id":"38bec0c6-e55b-4591-8335-c77bd3381af4","system_id":"levelo_inurba_marseille","lat":43.304606,"lon":5.379026,"is_reserved":false,"is_disabled":false,"rental_uris":{"android":"levelo://app?vid=38bec0c6-e55b-4591-8335-c77bd3381af4","ios":"levelo://app?vid=38bec0c6-e55b-4591-8335-c77bd3381af4"},"vehicle_type_id":"4","last_reported":1700068006,"current_range_meters":5600,"station_id":"ce4bgup2rcd13ifvqcn0","pricing_plan_id":"free"},{"bike_id":"a1a84403-ca2b-42eb-b322-5b691009ac8b","system_id":"levelo_inurba_marseille","lat":43.32478,"lon":5.36582,"is_reserved":false,"is_disabled":false,"rental_uris":{"android":"levelo://app?vid=a1a84403-ca2b-42eb-b322-5b691009ac8b","ios":"levelo://app?vid=a1a84403-ca2b-42eb-b322-5b691009ac8b"},"vehicle_type_id":"4","last_reported":1700068006,"current_range_meters":22000,"station_id":"ce4bhs12rcd13ifvqhvg","pricing_plan_id":"free"},{"bike_id":"2636b84e-368a-48e1-a8ba-5e01378dfb7f","system_id":"levelo_inurba_marseille","lat":43.324771,"lon":5.36557,"is_reserved":false,"is_disabled":false,"rental_uris":{"android":"levelo://app?vid=2636b84e-368a-48e1-a8ba-5e01378dfb7f","ios":"levelo://app?vid=2636b84e-368a-48e1-a8ba-5e01378dfb7f"},"vehicle_type_id":"4","last_reported":1700068006,"current_range_meters":0,"station_id":"ce4bhs12rcd13ifvqhvg","pricing_plan_id":"free"},{"bike_id":"404c3230-3c2e-4a23-a6df-cbc4b2affab9","system_id":"levelo_inurba_marseille","lat":43.324778,"lon":5.365636,"is_reserved":false,"is_disabled":false,"rental_uris":{"android":"levelo://app?vid=404c3230-3c2e-4a23-a6df-cbc4b2affab9","ios":"levelo://app?vid=404c3230-3c2e-4a23-a6df-cbc4b2affab9"},"vehicle_type_id":"4","last_reported":1700068006,"current_range_meters":18000,"station_id":"ce4bhs12rcd13ifvqhvg","pricing_plan_id":"free"},{"bike_id":"49e406d9-6eec-4a5a-a8fc-15fd2b8aa347","system_id":"levelo_inurba_marseille","lat":43.301966,"lon":5.375873,"is_reserved":false,"is_disabled":false,"rental_uris":{"android":"levelo://app?vid=49e406d9-6eec-4a5a-a8fc-15fd2b8aa347","ios":"levelo://app?vid=49e406d9-6eec-4a5a-a8fc-15fd2b8aa347"},"vehicle_type_id":"4","last_reported":1700068006,"current_range_meters":0,"station_id":"","pricing_plan_id":"free"},{"bike_id":"69166d53-ec8e-4a0a-864c-7a29f7650dd8","system_id":"levelo_inurba_marseille","lat":43.321153,"lon":5.380105,"is_reserved":false,"is_disabled":false,"rental_uris":{"android":"levelo://app?vid=69166d53-ec8e-4a0a-864c-7a29f7650dd8","ios":"levelo://app?vid=69166d53-ec8e-4a0a-864c-7a29f7650dd8"},"vehicle_type_id":"4","last_reported":1700068006,"current_range_meters":0,"station_id":"","pricing_plan_id":"free"},{"bike_id":"05151f8e-1e6a-48a0-a00e-742aa721842b","system_id":"levelo_inurba_marseille","lat":43.319935,"lon":5.381699,"is_reserved":false,"is_disabled":false,"rental_uris":{"android":"levelo://app?vid=05151f8e-1e6a-48a0-a00e-742aa721842b","ios":"levelo://app?vid=05151f8e-1e6a-48a0-a00e-742aa721842b"},"vehicle_type_id":"4","last_reported":1700068006,"current_range_meters":3200,"station_id":"ce4bhr12rcd13ifvqhpg","pricing_plan_id":"free"},{"bike_id":"58da851b-b723-4fbf-872a-9f45fe46eac4","system_id":"levelo_inurba_marseille","lat":43.313571,"lon":5.384829,"is_reserved":false,"is_disabled":false,"rental_uris":{"android":"levelo://app?vid=58da851b-b723-4fbf-872a-9f45fe46eac4","ios":"levelo://app?vid=58da851b-b723-4fbf-872a-9f45fe46eac4"},"vehicle_type_id":"4","last_reported":1700068006,"current_range_meters":20800,"station_id":"ce4bgt92rcd13ifvqcf0","pricing_plan_id":"free"},{"bike_id":"64bec167-92a9-4b8d-bbf7-000021ed629a","system_id":"levelo_inurba_marseille","lat":43.31355,"lon":5.38503,"is_reserved":false,"is_disabled":false,"rental_uris":{"android":"levelo://app?vid=64bec167-92a9-4b8d-bbf7-000021ed629a","ios":"levelo://app?vid=64bec167-92a9-4b8d-bbf7-000021ed629a"},"vehicle_type_id":"4","last_reported":1700068006,"current_range_meters":8000,"station_id":"ce4bgt92rcd13ifvqcf0","pricing_plan_id":"free"},{"bike_id":"abe4b790-ebe4-428f-a67f-914127550613","system_id":"levelo_inurba_marseille","lat":43.299222,"lon":5.365554,"is_reserved":false,"is_disabled":false,"rental_uris":{"android":"levelo://app?vid=abe4b790-ebe4-428f-a67f-914127550613","ios":"levelo://app?vid=abe4b790-ebe4-428f-a67f-914127550613"},"vehicle_type_id":"4","last_reported":1700068006,"current_range_meters":12400,"station_id":"ce4bgm92rcd13ifvqbr0","pricing_plan_id":"free"},{"bike_id":"b5163b5c-ee11-472e-afa1-65fa112def4a","system_id":"levelo_inurba_marseille","lat":43.299724,"lon":5.371829,"is_reserved":false,"is_disabled":false,"rental_uris":{"android":"levelo://app?vid=b5163b5c-ee11-472e-afa1-65fa112def4a","ios":"levelo://app?vid=b5163b5c-ee11-472e-afa1-65fa112def4a"},"vehicle_type_id":"4","last_reported":1700068006,"current_range_meters":4000,"station_id":"ce4bgr92rcd13ifvqc7g","pricing_plan_id":"free"},{"bike_id":"5da9dea2-bd9f-4746-b637-56e44ea9e587","system_id":"levelo_inurba_marseille","lat":43.298489,"lon":5.362942,"is_reserved":false,"is_disabled":false,"rental_uris":{"android":"levelo://app?vid=5da9dea2-bd9f-4746-b637-56e44ea9e587","ios":"levelo://app?vid=5da9dea2-bd9f-4746-b637-56e44ea9e587"},"vehicle_type_id":"4","last_reported":1700068006,"current_range_meters":8800,"station_id":"ce4bgpp2rcd13ifvqc3g","pricing_plan_id":"free"},{"bike_id":"8950f55a-e75d-4fac-9a7c-f529bc0580a5","system_id":"levelo_inurba_marseille","lat":43.320464,"lon":5.384144,"is_reserved":false,"is_disabled":false,"rental_uris":{"android":"levelo://app?vid=8950f55a-e75d-4fac-9a7c-f529bc0580a5","ios":"levelo://app?vid=8950f55a-e75d-4fac-9a7c-f529bc0580a5"},"vehicle_type_id":"4","last_reported":1700068006,"current_range_meters":0,"station_id":"","pricing_plan_id":"free"},{"bike_id":"a131e6b5-c88b-45e6-a7c9-9c545afe3ba3","system_id":"levelo_inurba_marseille","lat":43.311722,"lon":5.387247,"is_reserved":false,"is_disabled":false,"rental_uris":{"android":"levelo://app?vid=a131e6b5-c88b-45e6-a7c9-9c545afe3ba3","ios":"levelo://app?vid=a131e6b5-c88b-45e6-a7c9-9c545afe3ba3"},"vehicle_type_id":"4","last_reported":1700068006,"current_range_meters":2800,"station_id":"ce4bgv12rcd13ifvqcp0","pricing_plan_id":"free"},{"bike_id":"ca48fec2-2ebc-4e6c-afb6-42b67d47253b","system_id":"levelo_inurba_marseille","lat":43.311722,"lon":5.387247,"is_reserved":false,"is_disabled":false,"rental_uris":{"android":"levelo://app?vid=ca48fec2-2ebc-4e6c-afb6-42b67d47253b","ios":"levelo://app?vid=ca48fec2-2ebc-4e6c-afb6-42b67d47253b"},"vehicle_type_id":"4","last_reported":1700068006,"current_range_meters":30000,"station_id":"ce4bgv12rcd13ifvqcp0","pricing_plan_id":"free"},{"bike_id":"11e3798d-819e-4732-9fa0-f73aa470be29","system_id":"levelo_inurba_marseille","lat":43.32801,"lon":5.36685,"is_reserved":false,"is_disabled":false,"rental_uris":{"android":"levelo://app?vid=11e3798d-819e-4732-9fa0-f73aa470be29","ios":"levelo://app?vid=11e3798d-819e-4732-9fa0-f73aa470be29"},"vehicle_type_id":"4","last_reported":1700068006,"current_range_meters":19600,"station_id":"ce4bhs92rcd13ifvqi0g","pricing_plan_id":"free"},{"bike_id":"42819578-4e2c-4ecc-b9a4-d47c076020b9","system_id":"levelo_inurba_marseille","lat":43.32828,"lon":5.36689,"is_reserved":false,"is_disabled":false,"rental_uris":{"android":"levelo://app?vid=42819578-4e2c-4ecc-b9a4-d47c076020b9","ios":"levelo://app?vid=42819578-4e2c-4ecc-b9a4-d47c076020b9"},"vehicle_type_id":"4","last_reported":1700068006,"current_range_meters":10400,"station_id":"ce4bhs92rcd13ifvqi0g","pricing_plan_id":"free"},{"bike_id":"0454b3fa-84e7-421d-bae3-76a5e09f8f3b","system_id":"levelo_inurba_marseille","lat":43.322872,"lon":5.382756,"is_reserved":false,"is_disabled":false,"rental_uris":{"android":"levelo://app?vid=0454b3fa-84e7-421d-bae3-76a5e09f8f3b","ios":"levelo://app?vid=0454b3fa-84e7-421d-bae3-76a5e09f8f3b"},"vehicle_type_id":"4","last_reported":1700068006,"current_range_meters":14800,"station_id":"ce4bhr12rcd13ifvqhqg","pricing_plan_id":"free"},{"bike_id":"bc3894c1-4e86-4b59-a654-edb5e8ab93b0","system_id":"levelo_inurba_marseille","lat":43.29703,"lon":5.36613,"is_reserved":false,"is_disabled":false,"rental_uris":{"android":"levelo://app?vid=bc3894c1-4e86-4b59-a654-edb5e8ab93b0","ios":"levelo://app?vid=bc3894c1-4e86-4b59-a654-edb5e8ab93b0"},"vehicle_type_id":"4","last_reported":1700068006,"current_range_meters":19200,"station_id":"ce4bgn12rcd13ifvqbt0","pricing_plan_id":"free"},{"bike_id":"e489b949-c854-4a63-9df5-d2f0a250dc81","system_id":"levelo_inurba_marseille","lat":43.297163,"lon":5.365866,"is_reserved":false,"is_disabled":false,"rental_uris":{"android":"levelo://app?vid=e489b949-c854-4a63-9df5-d2f0a250dc81","ios":"levelo://app?vid=e489b949-c854-4a63-9df5-d2f0a250dc81"},"vehicle_type_id":"4","last_reported":1700068006,"current_range_meters":0,"station_id":"ce4bgn12rcd13ifvqbt0","pricing_plan_id":"free"},{"bike_id":"30e106e2-10bc-4c9e-acb1-5abbbaea925c","system_id":"levelo_inurba_marseille","lat":43.31439,"lon":5.38892,"is_reserved":false,"is_disabled":false,"rental_uris":{"android":"levelo://app?vid=30e106e2-10bc-4c9e-acb1-5abbbaea925c","ios":"levelo://app?vid=30e106e2-10bc-4c9e-acb1-5abbbaea925c"},"vehicle_type_id":"4","last_reported":1700068006,"current_range_meters":5600,"station_id":"","pricing_plan_id":"free"},{"bike_id":"a0072282-7ed9-4358-8ed5-0cbea05e530f","system_id":"levelo_inurba_marseille","lat":43.317493,"lon":5.388447,"is_reserved":false,"is_disabled":false,"rental_uris":{"android":"levelo://app?vid=a0072282-7ed9-4358-8ed5-0cbea05e530f","ios":"levelo://app?vid=a0072282-7ed9-4358-8ed5-0cbea05e530f"},"vehicle_type_id":"4","last_reported":1700068006,"current_range_meters":5200,"station_id":"","pricing_plan_id":"free"},{"bike_id":"c12f2b59-0c99-437a-8c42-201aaa787c94","system_id":"levelo_inurba_marseille","lat":43.2968,"lon":5.37291,"is_reserved":false,"is_disabled":false,"rental_uris":{"android":"levelo://app?vid=c12f2b59-0c99-437a-8c42-201aaa787c94","ios":"levelo://app?vid=c12f2b59-0c99-437a-8c42-201aaa787c94"},"vehicle_type_id":"4","last_reported":1700068006,"current_range_meters":16000,"station_id":"ce4bgk12rcd13ifvqbj0","pricing_plan_id":"free"},{"bike_id":"d447991a-59b4-4778-a190-7d2b0920a414","system_id":"levelo_inurba_marseille","lat":43.32215,"lon":5.38613,"is_reserved":false,"is_disabled":false,"rental_uris":{"android":"levelo://app?vid=d447991a-59b4-4778-a190-7d2b0920a414","ios":"levelo://app?vid=d447991a-59b4-4778-a190-7d2b0920a414"},"vehicle_type_id":"4","last_reported":1700068006,"current_range_meters":4800,"station_id":"","pricing_plan_id":"free"},{"bike_id":"65b85084-082b-4748-b86a-00cad2723012","system_id":"levelo_inurba_marseille","lat":43.296129,"lon":5.370777,"is_reserved":false,"is_disabled":false,"rental_uris":{"android":"levelo://app?vid=65b85084-082b-4748-b86a-00cad2723012","ios":"levelo://app?vid=65b85084-082b-4748-b86a-00cad2723012"},"vehicle_type_id":"4","last_reported":1700068006,"current_range_meters":31200,"station_id":"ce4bgnh2rcd13ifvqc0g","pricing_plan_id":"free"},{"bike_id":"c21d0c99-699d-42f3-b2d0-69fe65841211","system_id":"levelo_inurba_marseille","lat":43.296129,"lon":5.370777,"is_reserved":false,"is_disabled":false,"rental_uris":{"android":"levelo://app?vid=c21d0c99-699d-42f3-b2d0-69fe65841211","ios":"levelo://app?vid=c21d0c99-699d-42f3-b2d0-69fe65841211"},"vehicle_type_id":"4","last_reported":1700068006,"current_range_meters":25200,"station_id":"ce4bgnh2rcd13ifvqc0g","pricing_plan_id":"free"},{"bike_id":"d2dced52-b7fb-4d11-ad33-56be009e3364","system_id":"levelo_inurba_marseille","lat":43.322003,"lon":5.387777,"is_reserved":false,"is_disabled":false,"rental_uris":{"android":"levelo://app?vid=d2dced52-b7fb-4d11-ad33-56be009e3364","ios":"levelo://app?vid=d2dced52-b7fb-4d11-ad33-56be009e3364"},"vehicle_type_id":"4","last_reported":1700068006,"current_range_meters":26400,"station_id":"","pricing_plan_id":"free"},{"bike_id":"14d14475-fc41-48ad-8f15-b6dfc1374026","system_id":"levelo_inurba_marseille","lat":43.295748,"lon":5.37522,"is_reserved":false,"is_disabled":false,"rental_uris":{"android":"levelo://app?vid=14d14475-fc41-48ad-8f15-b6dfc1374026","ios":"levelo://app?vid=14d14475-fc41-48ad-8f15-b6dfc1374026"},"vehicle_type_id":"4","last_reported":1700068006,"current_range_meters":0,"station_id":"ce4bgh92rcd13ifvqb50","pricing_plan_id":"free"},{"bike_id":"4eef38cc-64cf-4f4d-8d5b-99bd9d3b1b37","system_id":"levelo_inurba_marseille","lat":43.295748,"lon":5.37522,"is_reserved":false,"is_disabled":false,"rental_uris":{"android":"levelo://app?vid=4eef38cc-64cf-4f4d-8d5b-99bd9d3b1b37","ios":"levelo://app?vid=4eef38cc-64cf-4f4d-8d5b-99bd9d3b1b37"},"vehicle_type_id":"4","last_reported":1700068006,"current_range_meters":28400,"station_id":"ce4bgh92rcd13ifvqb50","pricing_plan_id":"free"},{"bike_id":"6388e0db-743d-4e5f-876b-41ca2e2e092d","system_id":"levelo_inurba_marseille","lat":43.30114,"lon":5.38624,"is_reserved":false,"is_disabled":false,"rental_uris":{"android":"levelo://app?vid=6388e0db-743d-4e5f-876b-41ca2e2e092d","ios":"levelo://app?vid=6388e0db-743d-4e5f-876b-41ca2e2e092d"},"vehicle_type_id":"4","last_reported":1700068006,"current_range_meters":20800,"station_id":"","pricing_plan_id":"free"},{"bike_id":"9df8e44a-b76e-4553-8d53-33e4e470124b","system_id":"levelo_inurba_marseille","lat":43.295279,"lon":5.375048,"is_reserved":false,"is_disabled":false,"rental_uris":{"android":"levelo://app?vid=9df8e44a-b76e-4553-8d53-33e4e470124b","ios":"levelo://app?vid=9df8e44a-b76e-4553-8d53-33e4e470124b"},"vehicle_type_id":"4","last_reported":1700068006,"current_range_meters":14400,"station_id":"ce4bgkp2rcd13ifvqbmg","pricing_plan_id":"free"},{"bike_id":"3e3e92fe-39b7-4933-99ff-3747b28b5d69","system_id":"levelo_inurba_marseille","lat":43.328306,"lon":5.380009,"is_reserved":false,"is_disabled":false,"rental_uris":{"android":"levelo://app?vid=3e3e92fe-39b7-4933-99ff-3747b28b5d69","ios":"levelo://app?vid=3e3e92fe-39b7-4933-99ff-3747b28b5d69"},"vehicle_type_id":"4","last_reported":1700068006,"current_range_meters":11200,"station_id":"","pricing_plan_id":"free"},{"bike_id":"40e02fe1-6b82-43bb-9d6c-2987fef03107","system_id":"levelo_inurba_marseille","lat":43.28856,"lon":5.358371,"is_reserved":false,"is_disabled":false,"rental_uris":{"android":"levelo://app?vid=40e02fe1-6b82-43bb-9d6c-2987fef03107","ios":"levelo://app?vid=40e02fe1-6b82-43bb-9d6c-2987fef03107"},"vehicle_type_id":"4","last_reported":1700068006,"current_range_meters":0,"station_id":"ce4bhb12rcd13ifvqem0","pricing_plan_id":"free"},{"bike_id":"b773e9ac-3fce-4440-b16e-4bf7207a661e","system_id":"levelo_inurba_marseille","lat":43.32364,"lon":5.38887,"is_reserved":false,"is_disabled":false,"rental_uris":{"android":"levelo://app?vid=b773e9ac-3fce-4440-b16e-4bf7207a661e","ios":"levelo://app?vid=b773e9ac-3fce-4440-b16e-4bf7207a661e"},"vehicle_type_id":"4","last_reported":1700068006,"current_range_meters":6400,"station_id":"ce4bhqp2rcd13ifvqhog","pricing_plan_id":"free"},{"bike_id":"ab8cf31d-ce7c-4757-b439-b3c9e05ba89b","system_id":"levelo_inurba_marseille","lat":43.305405,"lon":5.39232,"is_reserved":false,"is_disabled":false,"rental_uris":{"android":"levelo://app?vid=ab8cf31d-ce7c-4757-b439-b3c9e05ba89b","ios":"levelo://app?vid=ab8cf31d-ce7c-4757-b439-b3c9e05ba89b"},"vehicle_type_id":"4","last_reported":1700068006,"current_range_meters":17600,"station_id":"","pricing_plan_id":"free"},{"bike_id":"ffe19691-246e-4607-9d44-c9796e7f6be9","system_id":"levelo_inurba_marseille","lat":43.303002,"lon":5.392142,"is_reserved":false,"is_disabled":false,"rental_uris":{"android":"levelo://app?vid=ffe19691-246e-4607-9d44-c9796e7f6be9","ios":"levelo://app?vid=ffe19691-246e-4607-9d44-c9796e7f6be9"},"vehicle_type_id":"4","last_reported":1700068006,"current_range_meters":11200,"station_id":"ce4bgkh2rcd13ifvqbk0","pricing_plan_id":"free"},{"bike_id":"3755b796-46d6-418b-8f5c-eeed9b4f6d41","system_id":"levelo_inurba_marseille","lat":43.3052,"lon":5.39345,"is_reserved":false,"is_disabled":false,"rental_uris":{"android":"levelo://app?vid=3755b796-46d6-418b-8f5c-eeed9b4f6d41","ios":"levelo://app?vid=3755b796-46d6-418b-8f5c-eeed9b4f6d41"},"vehicle_type_id":"4","last_reported":1700068006,"current_range_meters":24800,"station_id":"","pricing_plan_id":"free"},{"bike_id":"05bdc652-d000-4525-b18e-1d6dde47226f","system_id":"levelo_inurba_marseille","lat":43.292311,"lon":5.360731,"is_reserved":false,"is_disabled":false,"rental_uris":{"android":"levelo://app?vid=05bdc652-d000-4525-b18e-1d6dde47226f","ios":"levelo://app?vid=05bdc652-d000-4525-b18e-1d6dde47226f"},"vehicle_type_id":"4","last_reported":1700068006,"current_range_meters":24000,"station_id":"ce4bhbh2rcd13ifvqeqg","pricing_plan_id":"free"},{"bike_id":"a010d7c0-44a0-446d-a190-cba08c521880","system_id":"levelo_inurba_marseille","lat":43.2923,"lon":5.360887,"is_reserved":false,"is_disabled":false,"rental_uris":{"android":"levelo://app?vid=a010d7c0-44a0-446d-a190-cba08c521880","ios":"levelo://app?vid=a010d7c0-44a0-446d-a190-cba08c521880"},"vehicle_type_id":"4","last_reported":1700068006,"current_range_meters":27600,"station_id":"ce4bhbh2rcd13ifvqeqg","pricing_plan_id":"free"},{"bike_id":"e7408fd8-e1ec-4129-a0f6-93ce96ebbf13","system_id":"levelo_inurba_marseille","lat":43.29229,"lon":5.36074,"is_reserved":false,"is_disabled":false,"rental_uris":{"android":"levelo://app?vid=e7408fd8-e1ec-4129-a0f6-93ce96ebbf13","ios":"levelo://app?vid=e7408fd8-e1ec-4129-a0f6-93ce96ebbf13"},"vehicle_type_id":"4","last_reported":1700068006,"current_range_meters":16000,"station_id":"ce4bhbh2rcd13ifvqeqg","pricing_plan_id":"free"},{"bike_id":"231eff90-8328-4caa-a6c5-023eda06a753","system_id":"levelo_inurba_marseille","lat":43.300852,"lon":5.390859,"is_reserved":false,"is_disabled":false,"rental_uris":{"android":"levelo://app?vid=231eff90-8328-4caa-a6c5-023eda06a753","ios":"levelo://app?vid=231eff90-8328-4caa-a6c5-023eda06a753"},"vehicle_type_id":"4","last_reported":1700068006,"current_range_meters":7200,"station_id":"ce4bh192rcd13ifvqdb0","pricing_plan_id":"free"},{"bike_id":"beba76c3-35ff-4243-b5e2-cea793c22cdd","system_id":"levelo_inurba_marseille","lat":43.300879,"lon":5.390922,"is_reserved":false,"is_disabled":false,"rental_uris":{"android":"levelo://app?vid=beba76c3-35ff-4243-b5e2-cea793c22cdd","ios":"levelo://app?vid=beba76c3-35ff-4243-b5e2-cea793c22cdd"},"vehicle_type_id":"4","last_reported":1700068006,"current_range_meters":12000,"station_id":"","pricing_plan_id":"free"},{"bike_id":"0da7682f-3dad-435a-98f6-25e058e3f332","system_id":"levelo_inurba_marseille","lat":43.298764,"lon":5.388973,"is_reserved":false,"is_disabled":false,"rental_uris":{"android":"levelo://app?vid=0da7682f-3dad-435a-98f6-25e058e3f332","ios":"levelo://app?vid=0da7682f-3dad-435a-98f6-25e058e3f332"},"vehicle_type_id":"4","last_reported":1700068006,"current_range_meters":0,"station_id":"ce4bh392rcd13ifvqdl0","pricing_plan_id":"free"},{"bike_id":"f291c37e-b59e-4a56-873c-161c6797e784","system_id":"levelo_inurba_marseille","lat":43.291671,"lon":5.371575,"is_reserved":false,"is_disabled":false,"rental_uris":{"android":"levelo://app?vid=f291c37e-b59e-4a56-873c-161c6797e784","ios":"levelo://app?vid=f291c37e-b59e-4a56-873c-161c6797e784"},"vehicle_type_id":"4","last_reported":1700068006,"current_range_meters":0,"station_id":"ce4bha92rcd13ifvqeh0","pricing_plan_id":"free"},{"bike_id":"42744d0f-1796-49ad-8616-ad6edbff276c","system_id":"levelo_inurba_marseille","lat":43.291946,"lon":5.357891,"is_reserved":false,"is_disabled":false,"rental_uris":{"android":"levelo://app?vid=42744d0f-1796-49ad-8616-ad6edbff276c","ios":"levelo://app?vid=42744d0f-1796-49ad-8616-ad6edbff276c"},"vehicle_type_id":"4","last_reported":1700068006,"current_range_meters":31200,"station_id":"ce4bhb12rcd13ifvqel0","pricing_plan_id":"free"},{"bike_id":"0e64650f-6ecc-444d-9eca-8b26a8ade762","system_id":"levelo_inurba_marseille","lat":43.313291,"lon":5.396838,"is_reserved":false,"is_disabled":false,"rental_uris":{"android":"levelo://app?vid=0e64650f-6ecc-444d-9eca-8b26a8ade762","ios":"levelo://app?vid=0e64650f-6ecc-444d-9eca-8b26a8ade762"},"vehicle_type_id":"4","last_reported":1700068006,"current_range_meters":11600,"station_id":"ce4bgvp2rcd13ifvqcu0","pricing_plan_id":"free"},{"bike_id":"9f8aea69-3e38-42ae-b0cd-c364787e69ca","system_id":"levelo_inurba_marseille","lat":43.309047,"lon":5.396551,"is_reserved":false,"is_disabled":false,"rental_uris":{"android":"levelo://app?vid=9f8aea69-3e38-42ae-b0cd-c364787e69ca","ios":"levelo://app?vid=9f8aea69-3e38-42ae-b0cd-c364787e69ca"},"vehicle_type_id":"4","last_reported":1700068006,"current_range_meters":15600,"station_id":"ce4bh012rcd13ifvqcv0","pricing_plan_id":"free"},{"bike_id":"2f57624d-afda-427c-b887-30b089a2f724","system_id":"levelo_inurba_marseille","lat":43.309038,"lon":5.396546,"is_reserved":false,"is_disabled":false,"rental_uris":{"android":"levelo://app?vid=2f57624d-afda-427c-b887-30b089a2f724","ios":"levelo://app?vid=2f57624d-afda-427c-b887-30b089a2f724"},"vehicle_type_id":"4","last_reported":1700068006,"current_range_meters":26000,"station_id":"ce4bh012rcd13ifvqcv0","pricing_plan_id":"free"},{"bike_id":"334847b9-52f3-4acf-af98-19979b9cfb1a","system_id":"levelo_inurba_marseille","lat":43.309038,"lon":5.396546,"is_reserved":false,"is_disabled":false,"rental_uris":{"android":"levelo://app?vid=334847b9-52f3-4acf-af98-19979b9cfb1a","ios":"levelo://app?vid=334847b9-52f3-4acf-af98-19979b9cfb1a"},"vehicle_type_id":"4","last_reported":1700068006,"current_range_meters":6000,"station_id":"ce4bh012rcd13ifvqcv0","pricing_plan_id":"free"},{"bike_id":"69a23dd1-742c-43b0-8b01-0e42b503a322","system_id":"levelo_inurba_marseille","lat":43.309047,"lon":5.396551,"is_reserved":false,"is_disabled":false,"rental_uris":{"android":"levelo://app?vid=69a23dd1-742c-43b0-8b01-0e42b503a322","ios":"levelo://app?vid=69a23dd1-742c-43b0-8b01-0e42b503a322"},"vehicle_type_id":"4","last_reported":1700068006,"current_range_meters":1200,"station_id":"ce4bh012rcd13ifvqcv0","pricing_plan_id":"free"},{"bike_id":"0920290e-0821-445b-accf-b875b9099654","system_id":"levelo_inurba_marseille","lat":43.29529,"lon":5.385581,"is_reserved":false,"is_disabled":false,"rental_uris":{"android":"levelo://app?vid=0920290e-0821-445b-accf-b875b9099654","ios":"levelo://app?vid=0920290e-0821-445b-accf-b875b9099654"},"vehicle_type_id":"4","last_reported":1700068006,"current_range_meters":4400,"station_id":"ce4bgih2rcd13ifvqba0","pricing_plan_id":"free"},{"bike_id":"499559e9-f54e-49ca-b177-7bed81f24837","system_id":"levelo_inurba_marseille","lat":43.29529,"lon":5.385581,"is_reserved":false,"is_disabled":false,"rental_uris":{"android":"levelo://app?vid=499559e9-f54e-49ca-b177-7bed81f24837","ios":"levelo://app?vid=499559e9-f54e-49ca-b177-7bed81f24837"},"vehicle_type_id":"4","last_reported":1700068006,"current_range_meters":6800,"station_id":"ce4bgih2rcd13ifvqba0","pricing_plan_id":"free"},{"bike_id":"babc58e0-e3f7-4f99-8946-645f3cfc9897","system_id":"levelo_inurba_marseille","lat":43.29529,"lon":5.385581,"is_reserved":false,"is_disabled":false,"rental_uris":{"android":"levelo://app?vid=babc58e0-e3f7-4f99-8946-645f3cfc9897","ios":"levelo://app?vid=babc58e0-e3f7-4f99-8946-645f3cfc9897"},"vehicle_type_id":"4","last_reported":1700068006,"current_range_meters":27200,"station_id":"ce4bgih2rcd13ifvqba0","pricing_plan_id":"free"},{"bike_id":"3709fc0e-a328-4be4-9687-5ad4f29176a6","system_id":"levelo_inurba_marseille","lat":43.29529,"lon":5.385581,"is_reserved":false,"is_disabled":false,"rental_uris":{"android":"levelo://app?vid=3709fc0e-a328-4be4-9687-5ad4f29176a6","ios":"levelo://app?vid=3709fc0e-a328-4be4-9687-5ad4f29176a6"},"vehicle_type_id":"4","last_reported":1700068006,"current_range_meters":11600,"station_id":"ce4bgih2rcd13ifvqba0","pricing_plan_id":"free"},{"bike_id":"710fa57e-8889-4b78-8c9d-7cfdac3d8243","system_id":"levelo_inurba_marseille","lat":43.29529,"lon":5.385581,"is_reserved":false,"is_disabled":false,"rental_uris":{"android":"levelo://app?vid=710fa57e-8889-4b78-8c9d-7cfdac3d8243","ios":"levelo://app?vid=710fa57e-8889-4b78-8c9d-7cfdac3d8243"},"vehicle_type_id":"4","last_reported":1700068006,"current_range_meters":0,"station_id":"ce4bgih2rcd13ifvqba0","pricing_plan_id":"free"},{"bike_id":"152edd17-4e93-4a3b-bfde-423ff3c23df0","system_id":"levelo_inurba_marseille","lat":43.29529,"lon":5.385581,"is_reserved":false,"is_disabled":false,"rental_uris":{"android":"levelo://app?vid=152edd17-4e93-4a3b-bfde-423ff3c23df0","ios":"levelo://app?vid=152edd17-4e93-4a3b-bfde-423ff3c23df0"},"vehicle_type_id":"4","last_reported":1700068006,"current_range_meters":0,"station_id":"ce4bgih2rcd13ifvqba0","pricing_plan_id":"free"},{"bike_id":"7c987101-4819-491d-8fe8-64026e963b65","system_id":"levelo_inurba_marseille","lat":43.290779,"lon":5.371482,"is_reserved":false,"is_disabled":false,"rental_uris":{"android":"levelo://app?vid=7c987101-4819-491d-8fe8-64026e963b65","ios":"levelo://app?vid=7c987101-4819-491d-8fe8-64026e963b65"},"vehicle_type_id":"4","last_reported":1700068006,"current_range_meters":22000,"station_id":"ce4bh5p2rcd13ifvqe4g","pricing_plan_id":"free"},{"bike_id":"722772e5-0477-4a5a-9818-1f42a8eeffa8","system_id":"levelo_inurba_marseille","lat":43.29067,"lon":5.37164,"is_reserved":false,"is_disabled":false,"rental_uris":{"android":"levelo://app?vid=722772e5-0477-4a5a-9818-1f42a8eeffa8","ios":"levelo://app?vid=722772e5-0477-4a5a-9818-1f42a8eeffa8"},"vehicle_type_id":"4","last_reported":1700068006,"current_range_meters":4800,"station_id":"ce4bh5p2rcd13ifvqe4g","pricing_plan_id":"free"},{"bike_id":"a53328c9-b7a0-413d-9c85-b81db630198a","system_id":"levelo_inurba_marseille","lat":43.30208,"lon":5.39463,"is_reserved":false,"is_disabled":false,"rental_uris":{"android":"levelo://app?vid=a53328c9-b7a0-413d-9c85-b81db630198a","ios":"levelo://app?vid=a53328c9-b7a0-413d-9c85-b81db630198a"},"vehicle_type_id":"4","last_reported":1700068006,"current_range_meters":0,"station_id":"ce4bh0p2rcd13ifvqd70","pricing_plan_id":"free"},{"bike_id":"e94b5c6c-db76-4555-9712-16d47d2ec356","system_id":"levelo_inurba_marseille","lat":43.289184,"lon":5.366408,"is_reserved":false,"is_disabled":false,"rental_uris":{"android":"levelo://app?vid=e94b5c6c-db76-4555-9712-16d47d2ec356","ios":"levelo://app?vid=e94b5c6c-db76-4555-9712-16d47d2ec356"},"vehicle_type_id":"4","last_reported":1700068006,"current_range_meters":18800,"station_id":"ce4bhap2rcd13ifvqek0","pricing_plan_id":"free"},{"bike_id":"e0660092-981e-48f5-8cae-448a6bb63435","system_id":"levelo_inurba_marseille","lat":43.294153,"lon":5.386305,"is_reserved":false,"is_disabled":false,"rental_uris":{"android":"levelo://app?vid=e0660092-981e-48f5-8cae-448a6bb63435","ios":"levelo://app?vid=e0660092-981e-48f5-8cae-448a6bb63435"},"vehicle_type_id":"4","last_reported":1700068006,"current_range_meters":6800,"station_id":"ce4bh2h2rcd13ifvqdh0","pricing_plan_id":"free"},{"bike_id":"a135dedb-9d4d-43c5-8e75-31c37537d200","system_id":"levelo_inurba_marseille","lat":43.29417,"lon":5.38626,"is_reserved":false,"is_disabled":false,"rental_uris":{"android":"levelo://app?vid=a135dedb-9d4d-43c5-8e75-31c37537d200","ios":"levelo://app?vid=a135dedb-9d4d-43c5-8e75-31c37537d200"},"vehicle_type_id":"4","last_reported":1700068006,"current_range_meters":27600,"station_id":"ce4bh2h2rcd13ifvqdh0","pricing_plan_id":"free"},{"bike_id":"21ad61c6-cc5a-4022-ace4-0ebddadbe7cb","system_id":"levelo_inurba_marseille","lat":43.294153,"lon":5.386305,"is_reserved":false,"is_disabled":false,"rental_uris":{"android":"levelo://app?vid=21ad61c6-cc5a-4022-ace4-0ebddadbe7cb","ios":"levelo://app?vid=21ad61c6-cc5a-4022-ace4-0ebddadbe7cb"},"vehicle_type_id":"4","last_reported":1700068006,"current_range_meters":30400,"station_id":"ce4bh2h2rcd13ifvqdh0","pricing_plan_id":"free"},{"bike_id":"17903e3b-b3be-4a9a-8b3f-9ce34c61a6c0","system_id":"levelo_inurba_marseille","lat":43.29419,"lon":5.38631,"is_reserved":false,"is_disabled":false,"rental_uris":{"android":"levelo://app?vid=17903e3b-b3be-4a9a-8b3f-9ce34c61a6c0","ios":"levelo://app?vid=17903e3b-b3be-4a9a-8b3f-9ce34c61a6c0"},"vehicle_type_id":"4","last_reported":1700068006,"current_range_meters":0,"station_id":"ce4bh2h2rcd13ifvqdh0","pricing_plan_id":"free"},{"bike_id":"be0b22e1-65ee-4f43-aaf5-07a412c3ad23","system_id":"levelo_inurba_marseille","lat":43.289184,"lon":5.366408,"is_reserved":false,"is_disabled":false,"rental_uris":{"android":"levelo://app?vid=be0b22e1-65ee-4f43-aaf5-07a412c3ad23","ios":"levelo://app?vid=be0b22e1-65ee-4f43-aaf5-07a412c3ad23"},"vehicle_type_id":"4","last_reported":1700068006,"current_range_meters":30400,"station_id":"ce4bhap2rcd13ifvqek0","pricing_plan_id":"free"},{"bike_id":"e8d1f0b6-58d1-4574-92ce-7f4ff79c04a7","system_id":"levelo_inurba_marseille","lat":43.289184,"lon":5.366408,"is_reserved":false,"is_disabled":false,"rental_uris":{"android":"levelo://app?vid=e8d1f0b6-58d1-4574-92ce-7f4ff79c04a7","ios":"levelo://app?vid=e8d1f0b6-58d1-4574-92ce-7f4ff79c04a7"},"vehicle_type_id":"4","last_reported":1700068006,"current_range_meters":31600,"station_id":"ce4bhap2rcd13ifvqek0","pricing_plan_id":"free"},{"bike_id":"821399ca-0ec8-454d-995a-653a249a944b","system_id":"levelo_inurba_marseille","lat":43.28947,"lon":5.36406,"is_reserved":false,"is_disabled":false,"rental_uris":{"android":"levelo://app?vid=821399ca-0ec8-454d-995a-653a249a944b","ios":"levelo://app?vid=821399ca-0ec8-454d-995a-653a249a944b"},"vehicle_type_id":"4","last_reported":1700068006,"current_range_meters":20000,"station_id":"ce4bhc92rcd13ifvqetg","pricing_plan_id":"free"},{"bike_id":"30203fb2-cb93-48d8-98f1-22f8a63f8a46","system_id":"levelo_inurba_marseille","lat":43.289374,"lon":5.366414,"is_reserved":false,"is_disabled":false,"rental_uris":{"android":"levelo://app?vid=30203fb2-cb93-48d8-98f1-22f8a63f8a46","ios":"levelo://app?vid=30203fb2-cb93-48d8-98f1-22f8a63f8a46"},"vehicle_type_id":"4","last_reported":1700068006,"current_range_meters":14400,"station_id":"ce4bhap2rcd13ifvqek0","pricing_plan_id":"free"},{"bike_id":"a46c9e99-1027-45a0-85a8-8eb9252f8e25","system_id":"levelo_inurba_marseille","lat":43.289184,"lon":5.366408,"is_reserved":false,"is_disabled":false,"rental_uris":{"android":"levelo://app?vid=a46c9e99-1027-45a0-85a8-8eb9252f8e25","ios":"levelo://app?vid=a46c9e99-1027-45a0-85a8-8eb9252f8e25"},"vehicle_type_id":"4","last_reported":1700068006,"current_range_meters":20400,"station_id":"ce4bhap2rcd13ifvqek0","pricing_plan_id":"free"},{"bike_id":"6114123d-87d1-4874-b845-7bcb73206d46","system_id":"levelo_inurba_marseille","lat":43.28935,"lon":5.36636,"is_reserved":false,"is_disabled":false,"rental_uris":{"android":"levelo://app?vid=6114123d-87d1-4874-b845-7bcb73206d46","ios":"levelo://app?vid=6114123d-87d1-4874-b845-7bcb73206d46"},"vehicle_type_id":"4","last_reported":1700068006,"current_range_meters":12000,"station_id":"ce4bhap2rcd13ifvqek0","pricing_plan_id":"free"},{"bike_id":"cc3f76d0-1fe4-44ea-ac9a-ed76baf5e727","system_id":"levelo_inurba_marseille","lat":43.289184,"lon":5.366408,"is_reserved":false,"is_disabled":false,"rental_uris":{"android":"levelo://app?vid=cc3f76d0-1fe4-44ea-ac9a-ed76baf5e727","ios":"levelo://app?vid=cc3f76d0-1fe4-44ea-ac9a-ed76baf5e727"},"vehicle_type_id":"4","last_reported":1700068006,"current_range_meters":30400,"station_id":"ce4bhap2rcd13ifvqek0","pricing_plan_id":"free"},{"bike_id":"b2d85cc6-c2f0-4f42-ba5c-d44b3679227d","system_id":"levelo_inurba_marseille","lat":43.289468,"lon":5.363719,"is_reserved":false,"is_disabled":false,"rental_uris":{"android":"levelo://app?vid=b2d85cc6-c2f0-4f42-ba5c-d44b3679227d","ios":"levelo://app?vid=b2d85cc6-c2f0-4f42-ba5c-d44b3679227d"},"vehicle_type_id":"4","last_reported":1700068006,"current_range_meters":0,"station_id":"ce4bhc92rcd13ifvqetg","pricing_plan_id":"free"},{"bike_id":"b750a548-a059-4dc2-95ec-ddffdb925e31","system_id":"levelo_inurba_marseille","lat":43.289468,"lon":5.363719,"is_reserved":false,"is_disabled":false,"rental_uris":{"android":"levelo://app?vid=b750a548-a059-4dc2-95ec-ddffdb925e31","ios":"levelo://app?vid=b750a548-a059-4dc2-95ec-ddffdb925e31"},"vehicle_type_id":"4","last_reported":1700068006,"current_range_meters":5200,"station_id":"ce4bhc92rcd13ifvqetg","pricing_plan_id":"free"},{"bike_id":"050c52c2-e396-4778-a1f0-a58b32cbbca5","system_id":"levelo_inurba_marseille","lat":43.304296,"lon":5.397513,"is_reserved":false,"is_disabled":false,"rental_uris":{"android":"levelo://app?vid=050c52c2-e396-4778-a1f0-a58b32cbbca5","ios":"levelo://app?vid=050c52c2-e396-4778-a1f0-a58b32cbbca5"},"vehicle_type_id":"4","last_reported":1700068006,"current_range_meters":21600,"station_id":"ce4bh092rcd13ifvqd20","pricing_plan_id":"free"},{"bike_id":"6b721cd9-9ba0-4c89-8a70-15da853bc052","system_id":"levelo_inurba_marseille","lat":43.33039,"lon":5.38924,"is_reserved":false,"is_disabled":false,"rental_uris":{"android":"levelo://app?vid=6b721cd9-9ba0-4c89-8a70-15da853bc052","ios":"levelo://app?vid=6b721cd9-9ba0-4c89-8a70-15da853bc052"},"vehicle_type_id":"4","last_reported":1700068006,"current_range_meters":4400,"station_id":"ce4bhr92rcd13ifvqhrg","pricing_plan_id":"free"},{"bike_id":"b44439eb-d84b-462f-88fc-a930f3383ab1","system_id":"levelo_inurba_marseille","lat":43.2979,"lon":5.39344,"is_reserved":false,"is_disabled":false,"rental_uris":{"android":"levelo://app?vid=b44439eb-d84b-462f-88fc-a930f3383ab1","ios":"levelo://app?vid=b44439eb-d84b-462f-88fc-a930f3383ab1"},"vehicle_type_id":"4","last_reported":1700068006,"current_range_meters":20800,"station_id":"chh1huq6cuj3fo74tm60","pricing_plan_id":"free"},{"bike_id":"3d50bb94-f417-4070-9e3f-7817aecdab3e","system_id":"levelo_inurba_marseille","lat":43.2978,"lon":5.3934,"is_reserved":false,"is_disabled":false,"rental_uris":{"android":"levelo://app?vid=3d50bb94-f417-4070-9e3f-7817aecdab3e","ios":"levelo://app?vid=3d50bb94-f417-4070-9e3f-7817aecdab3e"},"vehicle_type_id":"4","last_reported":1700068006,"current_range_meters":19600,"station_id":"chh1huq6cuj3fo74tm60","pricing_plan_id":"free"},{"bike_id":"a57c9669-7fbd-4678-99a9-a17785c2e4fa","system_id":"levelo_inurba_marseille","lat":43.29783,"lon":5.39347,"is_reserved":false,"is_disabled":false,"rental_uris":{"android":"levelo://app?vid=a57c9669-7fbd-4678-99a9-a17785c2e4fa","ios":"levelo://app?vid=a57c9669-7fbd-4678-99a9-a17785c2e4fa"},"vehicle_type_id":"4","last_reported":1700068006,"current_range_meters":0,"station_id":"chh1huq6cuj3fo74tm60","pricing_plan_id":"free"},{"bike_id":"8ba15662-0ffe-4863-88f6-32d658113f67","system_id":"levelo_inurba_marseille","lat":43.295169,"lon":5.390426,"is_reserved":false,"is_disabled":false,"rental_uris":{"android":"levelo://app?vid=8ba15662-0ffe-4863-88f6-32d658113f67","ios":"levelo://app?vid=8ba15662-0ffe-4863-88f6-32d658113f67"},"vehicle_type_id":"4","last_reported":1700068006,"current_range_meters":10800,"station_id":"ce4bh3p2rcd13ifvqdp0","pricing_plan_id":"free"},{"bike_id":"38f9b98a-76ae-411e-bba2-02214dea2a49","system_id":"levelo_inurba_marseille","lat":43.289741,"lon":5.378306,"is_reserved":false,"is_disabled":false,"rental_uris":{"android":"levelo://app?vid=38f9b98a-76ae-411e-bba2-02214dea2a49","ios":"levelo://app?vid=38f9b98a-76ae-411e-bba2-02214dea2a49"},"vehicle_type_id":"4","last_reported":1700068006,"current_range_meters":0,"station_id":"ce4bh9p2rcd13ifvqed0","pricing_plan_id":"free"},{"bike_id":"e44a6034-b203-4dfe-966c-16aa5fe8c471","system_id":"levelo_inurba_marseille","lat":43.33059,"lon":5.39056,"is_reserved":false,"is_disabled":false,"rental_uris":{"android":"levelo://app?vid=e44a6034-b203-4dfe-966c-16aa5fe8c471","ios":"levelo://app?vid=e44a6034-b203-4dfe-966c-16aa5fe8c471"},"vehicle_type_id":"4","last_reported":1700068006,"current_range_meters":4800,"station_id":"","pricing_plan_id":"free"},{"bike_id":"7a1356b5-2437-4bfa-bb34-cf55b7f00bb1","system_id":"levelo_inurba_marseille","lat":43.33063,"lon":5.39051,"is_reserved":false,"is_disabled":false,"rental_uris":{"android":"levelo://app?vid=7a1356b5-2437-4bfa-bb34-cf55b7f00bb1","ios":"levelo://app?vid=7a1356b5-2437-4bfa-bb34-cf55b7f00bb1"},"vehicle_type_id":"4","last_reported":1700068006,"current_range_meters":0,"station_id":"","pricing_plan_id":"free"},{"bike_id":"67ffd28a-0325-489b-a10f-d90500122751","system_id":"levelo_inurba_marseille","lat":43.28856,"lon":5.358371,"is_reserved":false,"is_disabled":false,"rental_uris":{"android":"levelo://app?vid=67ffd28a-0325-489b-a10f-d90500122751","ios":"levelo://app?vid=67ffd28a-0325-489b-a10f-d90500122751"},"vehicle_type_id":"4","last_reported":1700068006,"current_range_meters":31200,"station_id":"ce4bhb12rcd13ifvqem0","pricing_plan_id":"free"},{"bike_id":"ae385202-abda-4721-a8e5-94665e21346c","system_id":"levelo_inurba_marseille","lat":43.3374,"lon":5.37454,"is_reserved":false,"is_disabled":false,"rental_uris":{"android":"levelo://app?vid=ae385202-abda-4721-a8e5-94665e21346c","ios":"levelo://app?vid=ae385202-abda-4721-a8e5-94665e21346c"},"vehicle_type_id":"4","last_reported":1700068006,"current_range_meters":28000,"station_id":"","pricing_plan_id":"free"},{"bike_id":"a6cdc3e1-c01e-49d8-ab2f-6cbdd90784fc","system_id":"levelo_inurba_marseille","lat":43.33746,"lon":5.37445,"is_reserved":false,"is_disabled":false,"rental_uris":{"android":"levelo://app?vid=a6cdc3e1-c01e-49d8-ab2f-6cbdd90784fc","ios":"levelo://app?vid=a6cdc3e1-c01e-49d8-ab2f-6cbdd90784fc"},"vehicle_type_id":"4","last_reported":1700068006,"current_range_meters":31200,"station_id":"","pricing_plan_id":"free"},{"bike_id":"5a4a7940-3261-42bc-b088-d40228e22cff","system_id":"levelo_inurba_marseille","lat":43.337454,"lon":5.374511,"is_reserved":false,"is_disabled":false,"rental_uris":{"android":"levelo://app?vid=5a4a7940-3261-42bc-b088-d40228e22cff","ios":"levelo://app?vid=5a4a7940-3261-42bc-b088-d40228e22cff"},"vehicle_type_id":"4","last_reported":1700068006,"current_range_meters":30800,"station_id":"","pricing_plan_id":"free"},{"bike_id":"e0f7a715-8c59-443d-a1a3-ee8e4bdcd88b","system_id":"levelo_inurba_marseille","lat":43.33746,"lon":5.37465,"is_reserved":false,"is_disabled":false,"rental_uris":{"android":"levelo://app?vid=e0f7a715-8c59-443d-a1a3-ee8e4bdcd88b","ios":"levelo://app?vid=e0f7a715-8c59-443d-a1a3-ee8e4bdcd88b"},"vehicle_type_id":"4","last_reported":1700068006,"current_range_meters":0,"station_id":"","pricing_plan_id":"free"},{"bike_id":"cab8dc33-c47b-458e-bbf2-564875739714","system_id":"levelo_inurba_marseille","lat":43.33749,"lon":5.37447,"is_reserved":false,"is_disabled":false,"rental_uris":{"android":"levelo://app?vid=cab8dc33-c47b-458e-bbf2-564875739714","ios":"levelo://app?vid=cab8dc33-c47b-458e-bbf2-564875739714"},"vehicle_type_id":"4","last_reported":1700068006,"current_range_meters":29600,"station_id":"","pricing_plan_id":"free"},{"bike_id":"2e7e8351-1e64-4ccd-934d-24f6fc70e808","system_id":"levelo_inurba_marseille","lat":43.337483,"lon":5.374663,"is_reserved":false,"is_disabled":false,"rental_uris":{"android":"levelo://app?vid=2e7e8351-1e64-4ccd-934d-24f6fc70e808","ios":"levelo://app?vid=2e7e8351-1e64-4ccd-934d-24f6fc70e808"},"vehicle_type_id":"4","last_reported":1700068006,"current_range_meters":31200,"station_id":"","pricing_plan_id":"free"},{"bike_id":"9ce589f1-bd0c-4304-887f-2af4b1d56117","system_id":"levelo_inurba_marseille","lat":43.337528,"lon":5.374482,"is_reserved":false,"is_disabled":false,"rental_uris":{"android":"levelo://app?vid=9ce589f1-bd0c-4304-887f-2af4b1d56117","ios":"levelo://app?vid=9ce589f1-bd0c-4304-887f-2af4b1d56117"},"vehicle_type_id":"4","last_reported":1700068006,"current_range_meters":30800,"station_id":"","pricing_plan_id":"free"},{"bike_id":"c7dea2df-1228-44a7-8701-30d62adfa0c4","system_id":"levelo_inurba_marseille","lat":43.330627,"lon":5.391847,"is_reserved":false,"is_disabled":false,"rental_uris":{"android":"levelo://app?vid=c7dea2df-1228-44a7-8701-30d62adfa0c4","ios":"levelo://app?vid=c7dea2df-1228-44a7-8701-30d62adfa0c4"},"vehicle_type_id":"4","last_reported":1700068006,"current_range_meters":16400,"station_id":"","pricing_plan_id":"free"},{"bike_id":"bf7a57a3-82ca-43e9-8fe5-c28ec60a087f","system_id":"levelo_inurba_marseille","lat":43.30642,"lon":5.401031,"is_reserved":false,"is_disabled":false,"rental_uris":{"android":"levelo://app?vid=bf7a57a3-82ca-43e9-8fe5-c28ec60a087f","ios":"levelo://app?vid=bf7a57a3-82ca-43e9-8fe5-c28ec60a087f"},"vehicle_type_id":"4","last_reported":1700068006,"current_range_meters":0,"station_id":"ce4bh112rcd13ifvqda0","pricing_plan_id":"free"},{"bike_id":"b3c9c4be-3d07-4b9e-befe-e9e43dc5621d","system_id":"levelo_inurba_marseille","lat":43.301117,"lon":5.398795,"is_reserved":false,"is_disabled":false,"rental_uris":{"android":"levelo://app?vid=b3c9c4be-3d07-4b9e-befe-e9e43dc5621d","ios":"levelo://app?vid=b3c9c4be-3d07-4b9e-befe-e9e43dc5621d"},"vehicle_type_id":"4","last_reported":1700068006,"current_range_meters":24800,"station_id":"ce4bh0h2rcd13ifvqd40","pricing_plan_id":"free"},{"bike_id":"9286ac0d-6d48-4e4b-8881-471e6d3920c2","system_id":"levelo_inurba_marseille","lat":43.298506,"lon":5.396598,"is_reserved":false,"is_disabled":false,"rental_uris":{"android":"levelo://app?vid=9286ac0d-6d48-4e4b-8881-471e6d3920c2","ios":"levelo://app?vid=9286ac0d-6d48-4e4b-8881-471e6d3920c2"},"vehicle_type_id":"4","last_reported":1700068006,"current_range_meters":0,"station_id":"","pricing_plan_id":"free"},{"bike_id":"f57d0ee8-b341-4fd4-aac4-e124c58fbcb1","system_id":"levelo_inurba_marseille","lat":43.28727,"lon":5.36078,"is_reserved":false,"is_disabled":false,"rental_uris":{"android":"levelo://app?vid=f57d0ee8-b341-4fd4-aac4-e124c58fbcb1","ios":"levelo://app?vid=f57d0ee8-b341-4fd4-aac4-e124c58fbcb1"},"vehicle_type_id":"4","last_reported":1700068006,"current_range_meters":22000,"station_id":"cki0cbj6b192h4jlfktg","pricing_plan_id":"free"},{"bike_id":"efb3539f-babf-44f8-8855-eaf29a4a8b29","system_id":"levelo_inurba_marseille","lat":43.28727,"lon":5.36078,"is_reserved":false,"is_disabled":false,"rental_uris":{"android":"levelo://app?vid=efb3539f-babf-44f8-8855-eaf29a4a8b29","ios":"levelo://app?vid=efb3539f-babf-44f8-8855-eaf29a4a8b29"},"vehicle_type_id":"4","last_reported":1700068006,"current_range_meters":28800,"station_id":"cki0cbj6b192h4jlfktg","pricing_plan_id":"free"},{"bike_id":"bf5a908c-28e7-4ce9-a52f-e55f95e1bdce","system_id":"levelo_inurba_marseille","lat":43.298681,"lon":5.397225,"is_reserved":false,"is_disabled":false,"rental_uris":{"android":"levelo://app?vid=bf5a908c-28e7-4ce9-a52f-e55f95e1bdce","ios":"levelo://app?vid=bf5a908c-28e7-4ce9-a52f-e55f95e1bdce"},"vehicle_type_id":"4","last_reported":1700068006,"current_range_meters":14800,"station_id":"ce4bh0h2rcd13ifvqd50","pricing_plan_id":"free"},{"bike_id":"5dd6a5d0-8e5d-42c7-bdfa-580e4d2ceafa","system_id":"levelo_inurba_marseille","lat":43.286591,"lon":5.363346,"is_reserved":false,"is_disabled":false,"rental_uris":{"android":"levelo://app?vid=5dd6a5d0-8e5d-42c7-bdfa-580e4d2ceafa","ios":"levelo://app?vid=5dd6a5d0-8e5d-42c7-bdfa-580e4d2ceafa"},"vehicle_type_id":"4","last_reported":1700068006,"current_range_meters":31600,"station_id":"ce4bhah2rcd13ifvqej0","pricing_plan_id":"free"},{"bike_id":"cc547bed-3e04-46b3-b566-6c101d46af58","system_id":"levelo_inurba_marseille","lat":43.286591,"lon":5.363346,"is_reserved":false,"is_disabled":false,"rental_uris":{"android":"levelo://app?vid=cc547bed-3e04-46b3-b566-6c101d46af58","ios":"levelo://app?vid=cc547bed-3e04-46b3-b566-6c101d46af58"},"vehicle_type_id":"4","last_reported":1700068006,"current_range_meters":21600,"station_id":"ce4bhah2rcd13ifvqej0","pricing_plan_id":"free"},{"bike_id":"3d5eb136-f646-4bfe-909c-fc3e33eeffe8","system_id":"levelo_inurba_marseille","lat":43.286961,"lon":5.373785,"is_reserved":false,"is_disabled":false,"rental_uris":{"android":"levelo://app?vid=3d5eb136-f646-4bfe-909c-fc3e33eeffe8","ios":"levelo://app?vid=3d5eb136-f646-4bfe-909c-fc3e33eeffe8"},"vehicle_type_id":"4","last_reported":1700068006,"current_range_meters":0,"station_id":"ce4bh3p2rcd13ifvqdq0","pricing_plan_id":"free"},{"bike_id":"0b980fa4-fa51-4ceb-b71f-4d6ab892cfff","system_id":"levelo_inurba_marseille","lat":43.28668,"lon":5.36355,"is_reserved":false,"is_disabled":false,"rental_uris":{"android":"levelo://app?vid=0b980fa4-fa51-4ceb-b71f-4d6ab892cfff","ios":"levelo://app?vid=0b980fa4-fa51-4ceb-b71f-4d6ab892cfff"},"vehicle_type_id":"4","last_reported":1700068006,"current_range_meters":18000,"station_id":"ce4bhah2rcd13ifvqej0","pricing_plan_id":"free"},{"bike_id":"b848fdc4-9284-4e51-902b-f605dc5ae975","system_id":"levelo_inurba_marseille","lat":43.286591,"lon":5.363346,"is_reserved":false,"is_disabled":false,"rental_uris":{"android":"levelo://app?vid=b848fdc4-9284-4e51-902b-f605dc5ae975","ios":"levelo://app?vid=b848fdc4-9284-4e51-902b-f605dc5ae975"},"vehicle_type_id":"4","last_reported":1700068006,"current_range_meters":17600,"station_id":"ce4bhah2rcd13ifvqej0","pricing_plan_id":"free"},{"bike_id":"3cbf78fa-7513-4c7f-93ce-7667cb9b1d8f","system_id":"levelo_inurba_marseille","lat":43.298681,"lon":5.397225,"is_reserved":false,"is_disabled":false,"rental_uris":{"android":"levelo://app?vid=3cbf78fa-7513-4c7f-93ce-7667cb9b1d8f","ios":"levelo://app?vid=3cbf78fa-7513-4c7f-93ce-7667cb9b1d8f"},"vehicle_type_id":"4","last_reported":1700068006,"current_range_meters":9200,"station_id":"ce4bh0h2rcd13ifvqd50","pricing_plan_id":"free"},{"bike_id":"f2550485-4fc6-4b66-901d-3fa5bb610a95","system_id":"levelo_inurba_marseille","lat":43.286961,"lon":5.373785,"is_reserved":false,"is_disabled":false,"rental_uris":{"android":"levelo://app?vid=f2550485-4fc6-4b66-901d-3fa5bb610a95","ios":"levelo://app?vid=f2550485-4fc6-4b66-901d-3fa5bb610a95"},"vehicle_type_id":"4","last_reported":1700068006,"current_range_meters":0,"station_id":"ce4bh3p2rcd13ifvqdq0","pricing_plan_id":"free"},{"bike_id":"3946ee70-18ef-490b-96f4-9ecbc6615dfd","system_id":"levelo_inurba_marseille","lat":43.286593,"lon":5.363346,"is_reserved":false,"is_disabled":false,"rental_uris":{"android":"levelo://app?vid=3946ee70-18ef-490b-96f4-9ecbc6615dfd","ios":"levelo://app?vid=3946ee70-18ef-490b-96f4-9ecbc6615dfd"},"vehicle_type_id":"4","last_reported":1700068006,"current_range_meters":15200,"station_id":"ce4bhah2rcd13ifvqej0","pricing_plan_id":"free"},{"bike_id":"fa9b051d-83d0-4416-8b10-02acceb3bdb1","system_id":"levelo_inurba_marseille","lat":43.286591,"lon":5.363346,"is_reserved":false,"is_disabled":false,"rental_uris":{"android":"levelo://app?vid=fa9b051d-83d0-4416-8b10-02acceb3bdb1","ios":"levelo://app?vid=fa9b051d-83d0-4416-8b10-02acceb3bdb1"},"vehicle_type_id":"4","last_reported":1700068006,"current_range_meters":22000,"station_id":"ce4bhah2rcd13ifvqej0","pricing_plan_id":"free"},{"bike_id":"4f19788e-fe7c-4c8e-a698-7499d6aac137","system_id":"levelo_inurba_marseille","lat":43.28691,"lon":5.37389,"is_reserved":false,"is_disabled":false,"rental_uris":{"android":"levelo://app?vid=4f19788e-fe7c-4c8e-a698-7499d6aac137","ios":"levelo://app?vid=4f19788e-fe7c-4c8e-a698-7499d6aac137"},"vehicle_type_id":"4","last_reported":1700068006,"current_range_meters":0,"station_id":"ce4bh3p2rcd13ifvqdq0","pricing_plan_id":"free"},{"bike_id":"015ec3ed-4569-455b-b10e-2f6942f224cf","system_id":"levelo_inurba_marseille","lat":43.295196,"lon":5.39397,"is_reserved":false,"is_disabled":false,"rental_uris":{"android":"levelo://app?vid=015ec3ed-4569-455b-b10e-2f6942f224cf","ios":"levelo://app?vid=015ec3ed-4569-455b-b10e-2f6942f224cf"},"vehicle_type_id":"4","last_reported":1700068006,"current_range_meters":12000,"station_id":"ce4bh292rcd13ifvqdf0","pricing_plan_id":"free"},{"bike_id":"decda532-ee47-491a-b546-b21ef125eed6","system_id":"levelo_inurba_marseille","lat":43.289354,"lon":5.383916,"is_reserved":false,"is_disabled":false,"rental_uris":{"android":"levelo://app?vid=decda532-ee47-491a-b546-b21ef125eed6","ios":"levelo://app?vid=decda532-ee47-491a-b546-b21ef125eed6"},"vehicle_type_id":"4","last_reported":1700068006,"current_range_meters":13200,"station_id":"ce4bh612rcd13ifvqe6g","pricing_plan_id":"free"},{"bike_id":"af35d67c-d562-4f38-8c4d-569a4af76b5f","system_id":"levelo_inurba_marseille","lat":43.29507,"lon":5.39404,"is_reserved":false,"is_disabled":false,"rental_uris":{"android":"levelo://app?vid=af35d67c-d562-4f38-8c4d-569a4af76b5f","ios":"levelo://app?vid=af35d67c-d562-4f38-8c4d-569a4af76b5f"},"vehicle_type_id":"4","last_reported":1700068006,"current_range_meters":0,"station_id":"ce4bh292rcd13ifvqdf0","pricing_plan_id":"free"},{"bike_id":"2872ed18-6c68-44c6-91dd-ae861fbf89e7","system_id":"levelo_inurba_marseille","lat":43.29022,"lon":5.386323,"is_reserved":false,"is_disabled":false,"rental_uris":{"android":"levelo://app?vid=2872ed18-6c68-44c6-91dd-ae861fbf89e7","ios":"levelo://app?vid=2872ed18-6c68-44c6-91dd-ae861fbf89e7"},"vehicle_type_id":"4","last_reported":1700068006,"current_range_meters":14000,"station_id":"","pricing_plan_id":"free"},{"bike_id":"65d8698e-7540-41c7-b846-2f07c102f064","system_id":"levelo_inurba_marseille","lat":43.286039,"lon":5.370679,"is_reserved":false,"is_disabled":false,"rental_uris":{"android":"levelo://app?vid=65d8698e-7540-41c7-b846-2f07c102f064","ios":"levelo://app?vid=65d8698e-7540-41c7-b846-2f07c102f064"},"vehicle_type_id":"4","last_reported":1700068006,"current_range_meters":24800,"station_id":"ce4bht12rcd13ifvqi60","pricing_plan_id":"free"},{"bike_id":"6daa1f1a-ac30-4b55-8934-d8a6ea95a7c5","system_id":"levelo_inurba_marseille","lat":43.286039,"lon":5.370681,"is_reserved":false,"is_disabled":false,"rental_uris":{"android":"levelo://app?vid=6daa1f1a-ac30-4b55-8934-d8a6ea95a7c5","ios":"levelo://app?vid=6daa1f1a-ac30-4b55-8934-d8a6ea95a7c5"},"vehicle_type_id":"4","last_reported":1700068006,"current_range_meters":18800,"station_id":"ce4bht12rcd13ifvqi60","pricing_plan_id":"free"},{"bike_id":"81fab998-3842-43bf-8982-d067e8083f78","system_id":"levelo_inurba_marseille","lat":43.286039,"lon":5.370681,"is_reserved":false,"is_disabled":false,"rental_uris":{"android":"levelo://app?vid=81fab998-3842-43bf-8982-d067e8083f78","ios":"levelo://app?vid=81fab998-3842-43bf-8982-d067e8083f78"},"vehicle_type_id":"4","last_reported":1700068006,"current_range_meters":14000,"station_id":"ce4bht12rcd13ifvqi60","pricing_plan_id":"free"},{"bike_id":"03526a13-0e45-4479-9e98-ebd78bda378a","system_id":"levelo_inurba_marseille","lat":43.291994,"lon":5.392907,"is_reserved":false,"is_disabled":false,"rental_uris":{"android":"levelo://app?vid=03526a13-0e45-4479-9e98-ebd78bda378a","ios":"levelo://app?vid=03526a13-0e45-4479-9e98-ebd78bda378a"},"vehicle_type_id":"4","last_reported":1700068006,"current_range_meters":800,"station_id":"ce4bh192rcd13ifvqdd0","pricing_plan_id":"free"},{"bike_id":"3bef46ac-fd1d-4041-b9c4-e3851ca5a277","system_id":"levelo_inurba_marseille","lat":43.291994,"lon":5.392907,"is_reserved":false,"is_disabled":false,"rental_uris":{"android":"levelo://app?vid=3bef46ac-fd1d-4041-b9c4-e3851ca5a277","ios":"levelo://app?vid=3bef46ac-fd1d-4041-b9c4-e3851ca5a277"},"vehicle_type_id":"4","last_reported":1700068006,"current_range_meters":12000,"station_id":"ce4bh192rcd13ifvqdd0","pricing_plan_id":"free"},{"bike_id":"2b50a904-48d7-4f50-b8c8-1c73e3fbbe6c","system_id":"levelo_inurba_marseille","lat":43.28456,"lon":5.35899,"is_reserved":false,"is_disabled":false,"rental_uris":{"android":"levelo://app?vid=2b50a904-48d7-4f50-b8c8-1c73e3fbbe6c","ios":"levelo://app?vid=2b50a904-48d7-4f50-b8c8-1c73e3fbbe6c"},"vehicle_type_id":"4","last_reported":1700068006,"current_range_meters":30000,"station_id":"ce4bhah2rcd13ifvqei0","pricing_plan_id":"free"},{"bike_id":"7a21c231-c2ee-4a84-982c-30b37410e9d0","system_id":"levelo_inurba_marseille","lat":43.28457,"lon":5.35889,"is_reserved":false,"is_disabled":false,"rental_uris":{"android":"levelo://app?vid=7a21c231-c2ee-4a84-982c-30b37410e9d0","ios":"levelo://app?vid=7a21c231-c2ee-4a84-982c-30b37410e9d0"},"vehicle_type_id":"4","last_reported":1700068006,"current_range_meters":24000,"station_id":"ce4bhah2rcd13ifvqei0","pricing_plan_id":"free"},{"bike_id":"37225cad-2f9c-4cab-a4af-f03ed4293acd","system_id":"levelo_inurba_marseille","lat":43.294314,"lon":5.397498,"is_reserved":false,"is_disabled":false,"rental_uris":{"android":"levelo://app?vid=37225cad-2f9c-4cab-a4af-f03ed4293acd","ios":"levelo://app?vid=37225cad-2f9c-4cab-a4af-f03ed4293acd"},"vehicle_type_id":"4","last_reported":1700068006,"current_range_meters":21600,"station_id":"ce4bh3h2rcd13ifvqdo0","pricing_plan_id":"free"},{"bike_id":"ae596328-e9ec-4e76-90e8-adbf31d5a463","system_id":"levelo_inurba_marseille","lat":43.294314,"lon":5.397498,"is_reserved":false,"is_disabled":false,"rental_uris":{"android":"levelo://app?vid=ae596328-e9ec-4e76-90e8-adbf31d5a463","ios":"levelo://app?vid=ae596328-e9ec-4e76-90e8-adbf31d5a463"},"vehicle_type_id":"4","last_reported":1700068006,"current_range_meters":9600,"station_id":"ce4bh3h2rcd13ifvqdo0","pricing_plan_id":"free"},{"bike_id":"943e3921-5d3a-471a-bd92-3fd749392d23","system_id":"levelo_inurba_marseille","lat":43.294314,"lon":5.397498,"is_reserved":false,"is_disabled":false,"rental_uris":{"android":"levelo://app?vid=943e3921-5d3a-471a-bd92-3fd749392d23","ios":"levelo://app?vid=943e3921-5d3a-471a-bd92-3fd749392d23"},"vehicle_type_id":"4","last_reported":1700068006,"current_range_meters":18000,"station_id":"ce4bh3h2rcd13ifvqdo0","pricing_plan_id":"free"},{"bike_id":"3d128383-ffb9-497a-aa76-0999bd3afe4b","system_id":"levelo_inurba_marseille","lat":43.286595,"lon":5.386795,"is_reserved":false,"is_disabled":false,"rental_uris":{"android":"levelo://app?vid=3d128383-ffb9-497a-aa76-0999bd3afe4b","ios":"levelo://app?vid=3d128383-ffb9-497a-aa76-0999bd3afe4b"},"vehicle_type_id":"4","last_reported":1700068006,"current_range_meters":22000,"station_id":"ce4bh492rcd13ifvqdug","pricing_plan_id":"free"},{"bike_id":"3529ce18-44ed-42ae-8cef-7123934219b1","system_id":"levelo_inurba_marseille","lat":43.284793,"lon":5.384113,"is_reserved":false,"is_disabled":false,"rental_uris":{"android":"levelo://app?vid=3529ce18-44ed-42ae-8cef-7123934219b1","ios":"levelo://app?vid=3529ce18-44ed-42ae-8cef-7123934219b1"},"vehicle_type_id":"4","last_reported":1700068006,"current_range_meters":0,"station_id":"ce4bh512rcd13ifvqe3g","pricing_plan_id":"free"},{"bike_id":"11bc00d4-d8fc-4def-b1e5-846d8fca4fd6","system_id":"levelo_inurba_marseille","lat":43.288501,"lon":5.393087,"is_reserved":false,"is_disabled":false,"rental_uris":{"android":"levelo://app?vid=11bc00d4-d8fc-4def-b1e5-846d8fca4fd6","ios":"levelo://app?vid=11bc00d4-d8fc-4def-b1e5-846d8fca4fd6"},"vehicle_type_id":"4","last_reported":1700068006,"current_range_meters":8400,"station_id":"ce4bh2p2rcd13ifvqdi0","pricing_plan_id":"free"},{"bike_id":"d3dd3e3d-57b0-4c9e-949f-fddd56c2349c","system_id":"levelo_inurba_marseille","lat":43.32521,"lon":5.40575,"is_reserved":false,"is_disabled":false,"rental_uris":{"android":"levelo://app?vid=d3dd3e3d-57b0-4c9e-949f-fddd56c2349c","ios":"levelo://app?vid=d3dd3e3d-57b0-4c9e-949f-fddd56c2349c"},"vehicle_type_id":"4","last_reported":1700068006,"current_range_meters":13200,"station_id":"","pricing_plan_id":"free"},{"bike_id":"bab4fa3d-f4ad-4614-9a4d-25d0c5431ac3","system_id":"levelo_inurba_marseille","lat":43.283498,"lon":5.380948,"is_reserved":false,"is_disabled":false,"rental_uris":{"android":"levelo://app?vid=bab4fa3d-f4ad-4614-9a4d-25d0c5431ac3","ios":"levelo://app?vid=bab4fa3d-f4ad-4614-9a4d-25d0c5431ac3"},"vehicle_type_id":"4","last_reported":1700068006,"current_range_meters":800,"station_id":"ce4bh412rcd13ifvqdr0","pricing_plan_id":"free"},{"bike_id":"62cdea6f-43e9-46ac-a57d-a9037b3e4ddb","system_id":"levelo_inurba_marseille","lat":43.325233,"lon":5.406063,"is_reserved":false,"is_disabled":false,"rental_uris":{"android":"levelo://app?vid=62cdea6f-43e9-46ac-a57d-a9037b3e4ddb","ios":"levelo://app?vid=62cdea6f-43e9-46ac-a57d-a9037b3e4ddb"},"vehicle_type_id":"4","last_reported":1700068006,"current_range_meters":8400,"station_id":"","pricing_plan_id":"free"},{"bike_id":"e19d229f-4223-4451-87a5-74eaafab341c","system_id":"levelo_inurba_marseille","lat":43.28419,"lon":5.38434,"is_reserved":false,"is_disabled":false,"rental_uris":{"android":"levelo://app?vid=e19d229f-4223-4451-87a5-74eaafab341c","ios":"levelo://app?vid=e19d229f-4223-4451-87a5-74eaafab341c"},"vehicle_type_id":"4","last_reported":1700068006,"current_range_meters":0,"station_id":"","pricing_plan_id":"free"},{"bike_id":"08f83c6f-8d69-4679-b6c4-d5e9051aa4d8","system_id":"levelo_inurba_marseille","lat":43.292724,"lon":5.401131,"is_reserved":false,"is_disabled":false,"rental_uris":{"android":"levelo://app?vid=08f83c6f-8d69-4679-b6c4-d5e9051aa4d8","ios":"levelo://app?vid=08f83c6f-8d69-4679-b6c4-d5e9051aa4d8"},"vehicle_type_id":"4","last_reported":1700068006,"current_range_meters":27600,"station_id":"ce4bh312rcd13ifvqdk0","pricing_plan_id":"free"},{"bike_id":"cbb27533-f279-4e23-8ef4-4c624f8e2ec8","system_id":"levelo_inurba_marseille","lat":43.292724,"lon":5.401131,"is_reserved":false,"is_disabled":false,"rental_uris":{"android":"levelo://app?vid=cbb27533-f279-4e23-8ef4-4c624f8e2ec8","ios":"levelo://app?vid=cbb27533-f279-4e23-8ef4-4c624f8e2ec8"},"vehicle_type_id":"4","last_reported":1700068006,"current_range_meters":8800,"station_id":"ce4bh312rcd13ifvqdk0","pricing_plan_id":"free"},{"bike_id":"9555eacc-d581-47f5-85a6-1d7343f567bb","system_id":"levelo_inurba_marseille","lat":43.334608,"lon":5.39922,"is_reserved":false,"is_disabled":false,"rental_uris":{"android":"levelo://app?vid=9555eacc-d581-47f5-85a6-1d7343f567bb","ios":"levelo://app?vid=9555eacc-d581-47f5-85a6-1d7343f567bb"},"vehicle_type_id":"4","last_reported":1700068006,"current_range_meters":6000,"station_id":"","pricing_plan_id":"free"},{"bike_id":"be474a80-387c-4d3e-9e5b-bc8b095990a4","system_id":"levelo_inurba_marseille","lat":43.292648,"lon":5.401458,"is_reserved":false,"is_disabled":false,"rental_uris":{"android":"levelo://app?vid=be474a80-387c-4d3e-9e5b-bc8b095990a4","ios":"levelo://app?vid=be474a80-387c-4d3e-9e5b-bc8b095990a4"},"vehicle_type_id":"4","last_reported":1700068006,"current_range_meters":31200,"station_id":"ce4bh312rcd13ifvqdk0","pricing_plan_id":"free"},{"bike_id":"184f1291-e618-4076-8bf7-e7f9e74c9789","system_id":"levelo_inurba_marseille","lat":43.282744,"lon":5.350533,"is_reserved":false,"is_disabled":false,"rental_uris":{"android":"levelo://app?vid=184f1291-e618-4076-8bf7-e7f9e74c9789","ios":"levelo://app?vid=184f1291-e618-4076-8bf7-e7f9e74c9789"},"vehicle_type_id":"4","last_reported":1700068006,"current_range_meters":10400,"station_id":"ce4bhbp2rcd13ifvqerg","pricing_plan_id":"free"},{"bike_id":"b5d29f14-316b-4f01-8d53-ad631ae69b5e","system_id":"levelo_inurba_marseille","lat":43.296337,"lon":5.40595,"is_reserved":false,"is_disabled":false,"rental_uris":{"android":"levelo://app?vid=b5d29f14-316b-4f01-8d53-ad631ae69b5e","ios":"levelo://app?vid=b5d29f14-316b-4f01-8d53-ad631ae69b5e"},"vehicle_type_id":"4","last_reported":1700068006,"current_range_meters":5600,"station_id":"","pricing_plan_id":"free"},{"bike_id":"cf29d17b-4e3e-4bce-9625-0e2b3516b073","system_id":"levelo_inurba_marseille","lat":43.296263,"lon":5.40601,"is_reserved":false,"is_disabled":false,"rental_uris":{"android":"levelo://app?vid=cf29d17b-4e3e-4bce-9625-0e2b3516b073","ios":"levelo://app?vid=cf29d17b-4e3e-4bce-9625-0e2b3516b073"},"vehicle_type_id":"4","last_reported":1700068006,"current_range_meters":0,"station_id":"ce4bh0h2rcd13ifvqd60","pricing_plan_id":"free"},{"bike_id":"ccf9b17e-2fb6-47d5-b5cb-73ea08fcb6e5","system_id":"levelo_inurba_marseille","lat":43.28575,"lon":5.39498,"is_reserved":false,"is_disabled":false,"rental_uris":{"android":"levelo://app?vid=ccf9b17e-2fb6-47d5-b5cb-73ea08fcb6e5","ios":"levelo://app?vid=ccf9b17e-2fb6-47d5-b5cb-73ea08fcb6e5"},"vehicle_type_id":"4","last_reported":1700068006,"current_range_meters":12000,"station_id":"ce4bh292rcd13ifvqdg0","pricing_plan_id":"free"},{"bike_id":"f0ef042d-6ae6-4c35-aa7c-5c69c60b8bb2","system_id":"levelo_inurba_marseille","lat":43.32663,"lon":5.40952,"is_reserved":false,"is_disabled":false,"rental_uris":{"android":"levelo://app?vid=f0ef042d-6ae6-4c35-aa7c-5c69c60b8bb2","ios":"levelo://app?vid=f0ef042d-6ae6-4c35-aa7c-5c69c60b8bb2"},"vehicle_type_id":"4","last_reported":1700068006,"current_range_meters":8000,"station_id":"ce4bhpp2rcd13ifvqhgg","pricing_plan_id":"free"},{"bike_id":"70feab42-4ed5-4ad7-b66c-195c7ad6da62","system_id":"levelo_inurba_marseille","lat":43.3042,"lon":5.4128,"is_reserved":false,"is_disabled":false,"rental_uris":{"android":"levelo://app?vid=70feab42-4ed5-4ad7-b66c-195c7ad6da62","ios":"levelo://app?vid=70feab42-4ed5-4ad7-b66c-195c7ad6da62"},"vehicle_type_id":"4","last_reported":1700068006,"current_range_meters":13600,"station_id":"ce4bhop2rcd13ifvqh8g","pricing_plan_id":"free"},{"bike_id":"17232e07-97e0-4f66-8bb2-4b0f9d330d4d","system_id":"levelo_inurba_marseille","lat":43.3042,"lon":5.41285,"is_reserved":false,"is_disabled":false,"rental_uris":{"android":"levelo://app?vid=17232e07-97e0-4f66-8bb2-4b0f9d330d4d","ios":"levelo://app?vid=17232e07-97e0-4f66-8bb2-4b0f9d330d4d"},"vehicle_type_id":"4","last_reported":1700068006,"current_range_meters":0,"station_id":"ce4bhop2rcd13ifvqh8g","pricing_plan_id":"free"},{"bike_id":"b1388aa1-d599-4dd9-be4b-ffddaf149f1b","system_id":"levelo_inurba_marseille","lat":43.287154,"lon":5.399979,"is_reserved":false,"is_disabled":false,"rental_uris":{"android":"levelo://app?vid=b1388aa1-d599-4dd9-be4b-ffddaf149f1b","ios":"levelo://app?vid=b1388aa1-d599-4dd9-be4b-ffddaf149f1b"},"vehicle_type_id":"4","last_reported":1700068006,"current_range_meters":26800,"station_id":"ce4bho92rcd13ifvqh3g","pricing_plan_id":"free"},{"bike_id":"ebe44dfa-b188-4a01-92b9-3a3370f115c0","system_id":"levelo_inurba_marseille","lat":43.287154,"lon":5.399979,"is_reserved":false,"is_disabled":false,"rental_uris":{"android":"levelo://app?vid=ebe44dfa-b188-4a01-92b9-3a3370f115c0","ios":"levelo://app?vid=ebe44dfa-b188-4a01-92b9-3a3370f115c0"},"vehicle_type_id":"4","last_reported":1700068006,"current_range_meters":12400,"station_id":"ce4bho92rcd13ifvqh3g","pricing_plan_id":"free"},{"bike_id":"feca28d2-7019-4e39-96be-d7938cc29597","system_id":"levelo_inurba_marseille","lat":43.32435,"lon":5.4137,"is_reserved":false,"is_disabled":false,"rental_uris":{"android":"levelo://app?vid=feca28d2-7019-4e39-96be-d7938cc29597","ios":"levelo://app?vid=feca28d2-7019-4e39-96be-d7938cc29597"},"vehicle_type_id":"4","last_reported":1700068006,"current_range_meters":5600,"station_id":"","pricing_plan_id":"free"},{"bike_id":"da6d0dc1-4502-4066-ad66-1f39224d1cef","system_id":"levelo_inurba_marseille","lat":43.29968,"lon":5.41327,"is_reserved":false,"is_disabled":false,"rental_uris":{"android":"levelo://app?vid=da6d0dc1-4502-4066-ad66-1f39224d1cef","ios":"levelo://app?vid=da6d0dc1-4502-4066-ad66-1f39224d1cef"},"vehicle_type_id":"4","last_reported":1700068006,"current_range_meters":6800,"station_id":"ce4bhp12rcd13ifvqh9g","pricing_plan_id":"free"},{"bike_id":"1069fbf2-3b46-465e-8519-1f936ae2e718","system_id":"levelo_inurba_marseille","lat":43.292571,"lon":5.409107,"is_reserved":false,"is_disabled":false,"rental_uris":{"android":"levelo://app?vid=1069fbf2-3b46-465e-8519-1f936ae2e718","ios":"levelo://app?vid=1069fbf2-3b46-465e-8519-1f936ae2e718"},"vehicle_type_id":"4","last_reported":1700068006,"current_range_meters":10800,"station_id":"ce4bh192rcd13ifvqdc0","pricing_plan_id":"free"},{"bike_id":"0ea4c3f2-b496-4cf1-8604-369600daca8c","system_id":"levelo_inurba_marseille","lat":43.27618,"lon":5.361009,"is_reserved":false,"is_disabled":false,"rental_uris":{"android":"levelo://app?vid=0ea4c3f2-b496-4cf1-8604-369600daca8c","ios":"levelo://app?vid=0ea4c3f2-b496-4cf1-8604-369600daca8c"},"vehicle_type_id":"4","last_reported":1700068006,"current_range_meters":24400,"station_id":"ce4bgj92rcd13ifvqbe0","pricing_plan_id":"free"},{"bike_id":"78313f07-b628-486f-b4fe-83bb790e2f13","system_id":"levelo_inurba_marseille","lat":43.32531,"lon":5.41586,"is_reserved":false,"is_disabled":false,"rental_uris":{"android":"levelo://app?vid=78313f07-b628-486f-b4fe-83bb790e2f13","ios":"levelo://app?vid=78313f07-b628-486f-b4fe-83bb790e2f13"},"vehicle_type_id":"4","last_reported":1700068006,"current_range_meters":11600,"station_id":"","pricing_plan_id":"free"},{"bike_id":"2dc37161-a7fb-45ff-a335-41ec0839f8c0","system_id":"levelo_inurba_marseille","lat":43.28086,"lon":5.39662,"is_reserved":false,"is_disabled":false,"rental_uris":{"android":"levelo://app?vid=2dc37161-a7fb-45ff-a335-41ec0839f8c0","ios":"levelo://app?vid=2dc37161-a7fb-45ff-a335-41ec0839f8c0"},"vehicle_type_id":"4","last_reported":1700068006,"current_range_meters":28400,"station_id":"ce4bho12rcd13ifvqh2g","pricing_plan_id":"free"},{"bike_id":"46b83890-32e2-4428-b8d4-4684de6524dc","system_id":"levelo_inurba_marseille","lat":43.280784,"lon":5.396622,"is_reserved":false,"is_disabled":false,"rental_uris":{"android":"levelo://app?vid=46b83890-32e2-4428-b8d4-4684de6524dc","ios":"levelo://app?vid=46b83890-32e2-4428-b8d4-4684de6524dc"},"vehicle_type_id":"4","last_reported":1700068006,"current_range_meters":21600,"station_id":"ce4bho12rcd13ifvqh2g","pricing_plan_id":"free"},{"bike_id":"30d3dc1d-e070-4ad5-93e0-25e1c07475dd","system_id":"levelo_inurba_marseille","lat":43.280784,"lon":5.396622,"is_reserved":false,"is_disabled":false,"rental_uris":{"android":"levelo://app?vid=30d3dc1d-e070-4ad5-93e0-25e1c07475dd","ios":"levelo://app?vid=30d3dc1d-e070-4ad5-93e0-25e1c07475dd"},"vehicle_type_id":"4","last_reported":1700068006,"current_range_meters":24400,"station_id":"ce4bho12rcd13ifvqh2g","pricing_plan_id":"free"},{"bike_id":"f41ed599-0d52-4b18-82ae-fb2ca59c0476","system_id":"levelo_inurba_marseille","lat":43.28603,"lon":5.40527,"is_reserved":false,"is_disabled":false,"rental_uris":{"android":"levelo://app?vid=f41ed599-0d52-4b18-82ae-fb2ca59c0476","ios":"levelo://app?vid=f41ed599-0d52-4b18-82ae-fb2ca59c0476"},"vehicle_type_id":"4","last_reported":1700068006,"current_range_meters":4000,"station_id":"","pricing_plan_id":"free"},{"bike_id":"21ecede9-5dec-45f6-80d0-f385923cd189","system_id":"levelo_inurba_marseille","lat":43.273613,"lon":5.362705,"is_reserved":false,"is_disabled":false,"rental_uris":{"android":"levelo://app?vid=21ecede9-5dec-45f6-80d0-f385923cd189","ios":"levelo://app?vid=21ecede9-5dec-45f6-80d0-f385923cd189"},"vehicle_type_id":"4","last_reported":1700068006,"current_range_meters":29600,"station_id":"ce4bhbh2rcd13ifvqeo0","pricing_plan_id":"free"},{"bike_id":"e5c73532-c9e2-464e-aaee-3a691bb6e5e9","system_id":"levelo_inurba_marseille","lat":43.275625,"lon":5.384392,"is_reserved":false,"is_disabled":false,"rental_uris":{"android":"levelo://app?vid=e5c73532-c9e2-464e-aaee-3a691bb6e5e9","ios":"levelo://app?vid=e5c73532-c9e2-464e-aaee-3a691bb6e5e9"},"vehicle_type_id":"4","last_reported":1700068006,"current_range_meters":13200,"station_id":"ce4bhh92rcd13ifvqfi0","pricing_plan_id":"free"},{"bike_id":"e97c3345-c3d6-458a-984d-81d5bc0ec9d0","system_id":"levelo_inurba_marseille","lat":43.276771,"lon":5.388799,"is_reserved":false,"is_disabled":false,"rental_uris":{"android":"levelo://app?vid=e97c3345-c3d6-458a-984d-81d5bc0ec9d0","ios":"levelo://app?vid=e97c3345-c3d6-458a-984d-81d5bc0ec9d0"},"vehicle_type_id":"4","last_reported":1700068006,"current_range_meters":4000,"station_id":"ce4bhi12rcd13ifvqfo0","pricing_plan_id":"free"},{"bike_id":"160e1be7-8241-49f9-ae87-88b401ab217d","system_id":"levelo_inurba_marseille","lat":43.275625,"lon":5.384392,"is_reserved":false,"is_disabled":false,"rental_uris":{"android":"levelo://app?vid=160e1be7-8241-49f9-ae87-88b401ab217d","ios":"levelo://app?vid=160e1be7-8241-49f9-ae87-88b401ab217d"},"vehicle_type_id":"4","last_reported":1700068006,"current_range_meters":800,"station_id":"ce4bhh92rcd13ifvqfi0","pricing_plan_id":"free"},{"bike_id":"9907f8d9-ed21-41c0-92e8-6aece4ce210b","system_id":"levelo_inurba_marseille","lat":43.279952,"lon":5.400085,"is_reserved":false,"is_disabled":false,"rental_uris":{"android":"levelo://app?vid=9907f8d9-ed21-41c0-92e8-6aece4ce210b","ios":"levelo://app?vid=9907f8d9-ed21-41c0-92e8-6aece4ce210b"},"vehicle_type_id":"4","last_reported":1700068006,"current_range_meters":8000,"station_id":"ce4bho92rcd13ifvqh4g","pricing_plan_id":"free"},{"bike_id":"2b9f178e-a5f7-4505-9f92-d094e221e347","system_id":"levelo_inurba_marseille","lat":43.279952,"lon":5.400085,"is_reserved":false,"is_disabled":false,"rental_uris":{"android":"levelo://app?vid=2b9f178e-a5f7-4505-9f92-d094e221e347","ios":"levelo://app?vid=2b9f178e-a5f7-4505-9f92-d094e221e347"},"vehicle_type_id":"4","last_reported":1700068006,"current_range_meters":14000,"station_id":"ce4bho92rcd13ifvqh4g","pricing_plan_id":"free"},{"bike_id":"c3bfe7f9-d931-4fee-a272-14e813f0aeaf","system_id":"levelo_inurba_marseille","lat":43.27999,"lon":5.40012,"is_reserved":false,"is_disabled":false,"rental_uris":{"android":"levelo://app?vid=c3bfe7f9-d931-4fee-a272-14e813f0aeaf","ios":"levelo://app?vid=c3bfe7f9-d931-4fee-a272-14e813f0aeaf"},"vehicle_type_id":"4","last_reported":1700068006,"current_range_meters":31200,"station_id":"ce4bho92rcd13ifvqh4g","pricing_plan_id":"free"},{"bike_id":"ecf2c7e5-99ac-4089-b61c-f7fc7be5dc80","system_id":"levelo_inurba_marseille","lat":43.279952,"lon":5.400085,"is_reserved":false,"is_disabled":false,"rental_uris":{"android":"levelo://app?vid=ecf2c7e5-99ac-4089-b61c-f7fc7be5dc80","ios":"levelo://app?vid=ecf2c7e5-99ac-4089-b61c-f7fc7be5dc80"},"vehicle_type_id":"4","last_reported":1700068006,"current_range_meters":10800,"station_id":"ce4bho92rcd13ifvqh4g","pricing_plan_id":"free"},{"bike_id":"2f18d1aa-abf7-4c6c-a808-c4e6c4cf8447","system_id":"levelo_inurba_marseille","lat":43.279952,"lon":5.400085,"is_reserved":false,"is_disabled":false,"rental_uris":{"android":"levelo://app?vid=2f18d1aa-abf7-4c6c-a808-c4e6c4cf8447","ios":"levelo://app?vid=2f18d1aa-abf7-4c6c-a808-c4e6c4cf8447"},"vehicle_type_id":"4","last_reported":1700068006,"current_range_meters":31600,"station_id":"ce4bho92rcd13ifvqh4g","pricing_plan_id":"free"},{"bike_id":"24411628-53c3-48ab-b547-b63770c5057b","system_id":"levelo_inurba_marseille","lat":43.317121,"lon":5.423936,"is_reserved":false,"is_disabled":false,"rental_uris":{"android":"levelo://app?vid=24411628-53c3-48ab-b547-b63770c5057b","ios":"levelo://app?vid=24411628-53c3-48ab-b547-b63770c5057b"},"vehicle_type_id":"4","last_reported":1700068006,"current_range_meters":23600,"station_id":"ce4bhp92rcd13ifvqhbg","pricing_plan_id":"free"},{"bike_id":"1fe4e3fe-b492-4ddd-a77e-c38f0234369b","system_id":"levelo_inurba_marseille","lat":43.317121,"lon":5.423936,"is_reserved":false,"is_disabled":false,"rental_uris":{"android":"levelo://app?vid=1fe4e3fe-b492-4ddd-a77e-c38f0234369b","ios":"levelo://app?vid=1fe4e3fe-b492-4ddd-a77e-c38f0234369b"},"vehicle_type_id":"4","last_reported":1700068006,"current_range_meters":8800,"station_id":"ce4bhp92rcd13ifvqhbg","pricing_plan_id":"free"},{"bike_id":"5b788a71-3502-430a-8ded-aa2240048367","system_id":"levelo_inurba_marseille","lat":43.340804,"lon":5.410219,"is_reserved":false,"is_disabled":false,"rental_uris":{"android":"levelo://app?vid=5b788a71-3502-430a-8ded-aa2240048367","ios":"levelo://app?vid=5b788a71-3502-430a-8ded-aa2240048367"},"vehicle_type_id":"4","last_reported":1700068006,"current_range_meters":3600,"station_id":"ce4bhqh2rcd13ifvqhlg","pricing_plan_id":"free"},{"bike_id":"95d0dd87-2c57-4b0e-b968-633ccfad588a","system_id":"levelo_inurba_marseille","lat":43.273129,"lon":5.390725,"is_reserved":false,"is_disabled":false,"rental_uris":{"android":"levelo://app?vid=95d0dd87-2c57-4b0e-b968-633ccfad588a","ios":"levelo://app?vid=95d0dd87-2c57-4b0e-b968-633ccfad588a"},"vehicle_type_id":"4","last_reported":1700068006,"current_range_meters":26000,"station_id":"ce4bhgp2rcd13ifvqfe0","pricing_plan_id":"free"},{"bike_id":"7c60dc62-1a4a-4bb9-97cd-5d2f46bcdf99","system_id":"levelo_inurba_marseille","lat":43.273125,"lon":5.390731,"is_reserved":false,"is_disabled":false,"rental_uris":{"android":"levelo://app?vid=7c60dc62-1a4a-4bb9-97cd-5d2f46bcdf99","ios":"levelo://app?vid=7c60dc62-1a4a-4bb9-97cd-5d2f46bcdf99"},"vehicle_type_id":"4","last_reported":1700068006,"current_range_meters":0,"station_id":"ce4bhgp2rcd13ifvqfe0","pricing_plan_id":"free"},{"bike_id":"c0fb9bac-4073-484f-ae3d-a965ad3a6727","system_id":"levelo_inurba_marseille","lat":43.272124,"lon":5.391768,"is_reserved":false,"is_disabled":false,"rental_uris":{"android":"levelo://app?vid=c0fb9bac-4073-484f-ae3d-a965ad3a6727","ios":"levelo://app?vid=c0fb9bac-4073-484f-ae3d-a965ad3a6727"},"vehicle_type_id":"4","last_reported":1700068006,"current_range_meters":6400,"station_id":"ce4bhhp2rcd13ifvqfm0","pricing_plan_id":"free"},{"bike_id":"8627fcc7-16a3-4c2d-89de-10119debd484","system_id":"levelo_inurba_marseille","lat":43.272124,"lon":5.391768,"is_reserved":false,"is_disabled":false,"rental_uris":{"android":"levelo://app?vid=8627fcc7-16a3-4c2d-89de-10119debd484","ios":"levelo://app?vid=8627fcc7-16a3-4c2d-89de-10119debd484"},"vehicle_type_id":"4","last_reported":1700068006,"current_range_meters":11600,"station_id":"ce4bhhp2rcd13ifvqfm0","pricing_plan_id":"free"},{"bike_id":"1c3b157a-49fc-4b50-a43d-bc0239aa9500","system_id":"levelo_inurba_marseille","lat":43.272116,"lon":5.391747,"is_reserved":false,"is_disabled":false,"rental_uris":{"android":"levelo://app?vid=1c3b157a-49fc-4b50-a43d-bc0239aa9500","ios":"levelo://app?vid=1c3b157a-49fc-4b50-a43d-bc0239aa9500"},"vehicle_type_id":"4","last_reported":1700068006,"current_range_meters":15600,"station_id":"ce4bhhp2rcd13ifvqfm0","pricing_plan_id":"free"},{"bike_id":"f0ed4531-078e-42fb-a007-3ed80505eb54","system_id":"levelo_inurba_marseille","lat":43.272155,"lon":5.392575,"is_reserved":false,"is_disabled":false,"rental_uris":{"android":"levelo://app?vid=f0ed4531-078e-42fb-a007-3ed80505eb54","ios":"levelo://app?vid=f0ed4531-078e-42fb-a007-3ed80505eb54"},"vehicle_type_id":"4","last_reported":1700068006,"current_range_meters":13200,"station_id":"","pricing_plan_id":"free"},{"bike_id":"fe139271-7817-4645-9ec4-f7eee743e805","system_id":"levelo_inurba_marseille","lat":43.27218,"lon":5.39276,"is_reserved":false,"is_disabled":false,"rental_uris":{"android":"levelo://app?vid=fe139271-7817-4645-9ec4-f7eee743e805","ios":"levelo://app?vid=fe139271-7817-4645-9ec4-f7eee743e805"},"vehicle_type_id":"4","last_reported":1700068006,"current_range_meters":400,"station_id":"","pricing_plan_id":"free"},{"bike_id":"fe75077d-42bf-43ae-8fa2-44109df3d40a","system_id":"levelo_inurba_marseille","lat":43.27203,"lon":5.39295,"is_reserved":false,"is_disabled":false,"rental_uris":{"android":"levelo://app?vid=fe75077d-42bf-43ae-8fa2-44109df3d40a","ios":"levelo://app?vid=fe75077d-42bf-43ae-8fa2-44109df3d40a"},"vehicle_type_id":"4","last_reported":1700068006,"current_range_meters":3200,"station_id":"","pricing_plan_id":"free"},{"bike_id":"d55516b0-70a5-40d8-80f2-3936cc124f2b","system_id":"levelo_inurba_marseille","lat":43.279465,"lon":5.410561,"is_reserved":false,"is_disabled":false,"rental_uris":{"android":"levelo://app?vid=d55516b0-70a5-40d8-80f2-3936cc124f2b","ios":"levelo://app?vid=d55516b0-70a5-40d8-80f2-3936cc124f2b"},"vehicle_type_id":"4","last_reported":1700068006,"current_range_meters":9600,"station_id":"ce4bhnp2rcd13ifvqh0g","pricing_plan_id":"free"},{"bike_id":"8b553a04-fa5e-4885-98a4-ec535e478a1d","system_id":"levelo_inurba_marseille","lat":43.279407,"lon":5.410377,"is_reserved":false,"is_disabled":false,"rental_uris":{"android":"levelo://app?vid=8b553a04-fa5e-4885-98a4-ec535e478a1d","ios":"levelo://app?vid=8b553a04-fa5e-4885-98a4-ec535e478a1d"},"vehicle_type_id":"4","last_reported":1700068006,"current_range_meters":25600,"station_id":"ce4bhnp2rcd13ifvqh0g","pricing_plan_id":"free"},{"bike_id":"04d4bdf8-3eb3-4fc3-9bab-b8c3c2fd0e93","system_id":"levelo_inurba_marseille","lat":43.279465,"lon":5.410561,"is_reserved":false,"is_disabled":false,"rental_uris":{"android":"levelo://app?vid=04d4bdf8-3eb3-4fc3-9bab-b8c3c2fd0e93","ios":"levelo://app?vid=04d4bdf8-3eb3-4fc3-9bab-b8c3c2fd0e93"},"vehicle_type_id":"4","last_reported":1700068006,"current_range_meters":1600,"station_id":"ce4bhnp2rcd13ifvqh0g","pricing_plan_id":"free"},{"bike_id":"98c51b08-820c-4da2-a1f9-f89b93571396","system_id":"levelo_inurba_marseille","lat":43.26861,"lon":5.38873,"is_reserved":false,"is_disabled":false,"rental_uris":{"android":"levelo://app?vid=98c51b08-820c-4da2-a1f9-f89b93571396","ios":"levelo://app?vid=98c51b08-820c-4da2-a1f9-f89b93571396"},"vehicle_type_id":"4","last_reported":1700068006,"current_range_meters":0,"station_id":"","pricing_plan_id":"free"},{"bike_id":"6c750fbd-6ae1-4390-b8d9-4e8f69b1b78f","system_id":"levelo_inurba_marseille","lat":43.27906,"lon":5.41222,"is_reserved":false,"is_disabled":false,"rental_uris":{"android":"levelo://app?vid=6c750fbd-6ae1-4390-b8d9-4e8f69b1b78f","ios":"levelo://app?vid=6c750fbd-6ae1-4390-b8d9-4e8f69b1b78f"},"vehicle_type_id":"4","last_reported":1700068006,"current_range_meters":12400,"station_id":"","pricing_plan_id":"free"},{"bike_id":"983fd4b5-74bc-4c27-8100-243c320cbcfd","system_id":"levelo_inurba_marseille","lat":43.26555,"lon":5.37288,"is_reserved":false,"is_disabled":false,"rental_uris":{"android":"levelo://app?vid=983fd4b5-74bc-4c27-8100-243c320cbcfd","ios":"levelo://app?vid=983fd4b5-74bc-4c27-8100-243c320cbcfd"},"vehicle_type_id":"4","last_reported":1700068006,"current_range_meters":20800,"station_id":"ce4bhg12rcd13ifvqf70","pricing_plan_id":"free"},{"bike_id":"c660395f-0433-4654-9cc8-f4e76d8d1ab6","system_id":"levelo_inurba_marseille","lat":43.265714,"lon":5.372891,"is_reserved":false,"is_disabled":false,"rental_uris":{"android":"levelo://app?vid=c660395f-0433-4654-9cc8-f4e76d8d1ab6","ios":"levelo://app?vid=c660395f-0433-4654-9cc8-f4e76d8d1ab6"},"vehicle_type_id":"4","last_reported":1700068006,"current_range_meters":800,"station_id":"ce4bhg12rcd13ifvqf70","pricing_plan_id":"free"},{"bike_id":"34cdc29b-4df6-447e-b279-16a711b40fb7","system_id":"levelo_inurba_marseille","lat":43.265714,"lon":5.372891,"is_reserved":false,"is_disabled":false,"rental_uris":{"android":"levelo://app?vid=34cdc29b-4df6-447e-b279-16a711b40fb7","ios":"levelo://app?vid=34cdc29b-4df6-447e-b279-16a711b40fb7"},"vehicle_type_id":"4","last_reported":1700068006,"current_range_meters":21200,"station_id":"ce4bhg12rcd13ifvqf70","pricing_plan_id":"free"},{"bike_id":"3a887211-e431-4e51-9edc-f482b873e34f","system_id":"levelo_inurba_marseille","lat":43.317104,"lon":5.436818,"is_reserved":false,"is_disabled":false,"rental_uris":{"android":"levelo://app?vid=3a887211-e431-4e51-9edc-f482b873e34f","ios":"levelo://app?vid=3a887211-e431-4e51-9edc-f482b873e34f"},"vehicle_type_id":"4","last_reported":1700068006,"current_range_meters":28800,"station_id":"ce4bhp92rcd13ifvqhcg","pricing_plan_id":"free"},{"bike_id":"8eaad017-9d1d-405b-aa36-50d2de75173c","system_id":"levelo_inurba_marseille","lat":43.308051,"lon":5.43527,"is_reserved":false,"is_disabled":false,"rental_uris":{"android":"levelo://app?vid=8eaad017-9d1d-405b-aa36-50d2de75173c","ios":"levelo://app?vid=8eaad017-9d1d-405b-aa36-50d2de75173c"},"vehicle_type_id":"4","last_reported":1700068006,"current_range_meters":31200,"station_id":"ce4bhph2rcd13ifvqheg","pricing_plan_id":"free"},{"bike_id":"5b4b8914-62fc-48b3-8882-92ef90ebbe30","system_id":"levelo_inurba_marseille","lat":43.2657,"lon":5.38996,"is_reserved":false,"is_disabled":false,"rental_uris":{"android":"levelo://app?vid=5b4b8914-62fc-48b3-8882-92ef90ebbe30","ios":"levelo://app?vid=5b4b8914-62fc-48b3-8882-92ef90ebbe30"},"vehicle_type_id":"4","last_reported":1700068006,"current_range_meters":0,"station_id":"ce4bhe12rcd13ifvqf30","pricing_plan_id":"free"},{"bike_id":"9acfaae3-43a9-4bca-a014-136630df2fb2","system_id":"levelo_inurba_marseille","lat":43.30798,"lon":5.435271,"is_reserved":false,"is_disabled":false,"rental_uris":{"android":"levelo://app?vid=9acfaae3-43a9-4bca-a014-136630df2fb2","ios":"levelo://app?vid=9acfaae3-43a9-4bca-a014-136630df2fb2"},"vehicle_type_id":"4","last_reported":1700068006,"current_range_meters":22000,"station_id":"","pricing_plan_id":"free"},{"bike_id":"038ab9d9-121a-4c2b-8acc-60693a5bd26e","system_id":"levelo_inurba_marseille","lat":43.308051,"lon":5.43527,"is_reserved":false,"is_disabled":false,"rental_uris":{"android":"levelo://app?vid=038ab9d9-121a-4c2b-8acc-60693a5bd26e","ios":"levelo://app?vid=038ab9d9-121a-4c2b-8acc-60693a5bd26e"},"vehicle_type_id":"4","last_reported":1700068006,"current_range_meters":31600,"station_id":"ce4bhph2rcd13ifvqheg","pricing_plan_id":"free"},{"bike_id":"d465377c-938d-4c00-bbba-9681ee56957d","system_id":"levelo_inurba_marseille","lat":43.308051,"lon":5.43527,"is_reserved":false,"is_disabled":false,"rental_uris":{"android":"levelo://app?vid=d465377c-938d-4c00-bbba-9681ee56957d","ios":"levelo://app?vid=d465377c-938d-4c00-bbba-9681ee56957d"},"vehicle_type_id":"4","last_reported":1700068006,"current_range_meters":5600,"station_id":"ce4bhph2rcd13ifvqheg","pricing_plan_id":"free"},{"bike_id":"acf9951d-c9fd-41a8-86fb-fe1eea83b9e4","system_id":"levelo_inurba_marseille","lat":43.293009,"lon":5.374584,"is_reserved":false,"is_disabled":false,"rental_uris":{"android":"levelo://app?vid=acf9951d-c9fd-41a8-86fb-fe1eea83b9e4","ios":"levelo://app?vid=acf9951d-c9fd-41a8-86fb-fe1eea83b9e4"},"vehicle_type_id":"4","last_reported":1700068006,"current_range_meters":14800,"station_id":"ce4bgi12rcd13ifvqb70","pricing_plan_id":"free"},{"bike_id":"3e97fc8d-e09c-4100-a648-c20b3cc89d63","system_id":"levelo_inurba_marseille","lat":43.317104,"lon":5.436818,"is_reserved":false,"is_disabled":false,"rental_uris":{"android":"levelo://app?vid=3e97fc8d-e09c-4100-a648-c20b3cc89d63","ios":"levelo://app?vid=3e97fc8d-e09c-4100-a648-c20b3cc89d63"},"vehicle_type_id":"4","last_reported":1700068006,"current_range_meters":32000,"station_id":"ce4bhp92rcd13ifvqhcg","pricing_plan_id":"free"},{"bike_id":"04898ffe-f7ac-4cdd-83d3-48ad96463975","system_id":"levelo_inurba_marseille","lat":43.31713,"lon":5.43708,"is_reserved":false,"is_disabled":false,"rental_uris":{"android":"levelo://app?vid=04898ffe-f7ac-4cdd-83d3-48ad96463975","ios":"levelo://app?vid=04898ffe-f7ac-4cdd-83d3-48ad96463975"},"vehicle_type_id":"4","last_reported":1700068006,"current_range_meters":10400,"station_id":"ce4bhp92rcd13ifvqhcg","pricing_plan_id":"free"},{"bike_id":"d270b276-e0af-4511-91f8-88f04759edee","system_id":"levelo_inurba_marseille","lat":43.317113,"lon":5.437097,"is_reserved":false,"is_disabled":false,"rental_uris":{"android":"levelo://app?vid=d270b276-e0af-4511-91f8-88f04759edee","ios":"levelo://app?vid=d270b276-e0af-4511-91f8-88f04759edee"},"vehicle_type_id":"4","last_reported":1700068006,"current_range_meters":8400,"station_id":"ce4bhp92rcd13ifvqhcg","pricing_plan_id":"free"},{"bike_id":"d5aa9470-68b1-4736-9bc2-052748510032","system_id":"levelo_inurba_marseille","lat":43.271368,"lon":5.40928,"is_reserved":false,"is_disabled":false,"rental_uris":{"android":"levelo://app?vid=d5aa9470-68b1-4736-9bc2-052748510032","ios":"levelo://app?vid=d5aa9470-68b1-4736-9bc2-052748510032"},"vehicle_type_id":"4","last_reported":1700068006,"current_range_meters":20000,"station_id":"ce4bhl12rcd13ifvqgf0","pricing_plan_id":"free"},{"bike_id":"3d9d59bc-6658-4ba0-b542-84a43186f551","system_id":"levelo_inurba_marseille","lat":43.267959,"lon":5.402685,"is_reserved":false,"is_disabled":false,"rental_uris":{"android":"levelo://app?vid=3d9d59bc-6658-4ba0-b542-84a43186f551","ios":"levelo://app?vid=3d9d59bc-6658-4ba0-b542-84a43186f551"},"vehicle_type_id":"4","last_reported":1700068006,"current_range_meters":0,"station_id":"ce501612rcd8frsf0b60","pricing_plan_id":"free"},{"bike_id":"425ba38a-4651-485a-b5e9-39c798b08dce","system_id":"levelo_inurba_marseille","lat":43.267959,"lon":5.402685,"is_reserved":false,"is_disabled":false,"rental_uris":{"android":"levelo://app?vid=425ba38a-4651-485a-b5e9-39c798b08dce","ios":"levelo://app?vid=425ba38a-4651-485a-b5e9-39c798b08dce"},"vehicle_type_id":"4","last_reported":1700068006,"current_range_meters":24400,"station_id":"ce501612rcd8frsf0b60","pricing_plan_id":"free"},{"bike_id":"297644e6-c6cb-43e9-9c79-a5e5723cca31","system_id":"levelo_inurba_marseille","lat":43.267959,"lon":5.402685,"is_reserved":false,"is_disabled":false,"rental_uris":{"android":"levelo://app?vid=297644e6-c6cb-43e9-9c79-a5e5723cca31","ios":"levelo://app?vid=297644e6-c6cb-43e9-9c79-a5e5723cca31"},"vehicle_type_id":"4","last_reported":1700068006,"current_range_meters":31200,"station_id":"ce501612rcd8frsf0b60","pricing_plan_id":"free"},{"bike_id":"d5dc88bb-7fb5-40b4-9ee0-4baf6ea3f118","system_id":"levelo_inurba_marseille","lat":43.260219,"lon":5.37546,"is_reserved":false,"is_disabled":false,"rental_uris":{"android":"levelo://app?vid=d5dc88bb-7fb5-40b4-9ee0-4baf6ea3f118","ios":"levelo://app?vid=d5dc88bb-7fb5-40b4-9ee0-4baf6ea3f118"},"vehicle_type_id":"4","last_reported":1700068006,"current_range_meters":24800,"station_id":"ce4bhgh2rcd13ifvqfa0","pricing_plan_id":"free"},{"bike_id":"4f6880f4-3164-4fc2-9cf7-3c1358040f10","system_id":"levelo_inurba_marseille","lat":43.290501,"lon":5.433305,"is_reserved":false,"is_disabled":false,"rental_uris":{"android":"levelo://app?vid=4f6880f4-3164-4fc2-9cf7-3c1358040f10","ios":"levelo://app?vid=4f6880f4-3164-4fc2-9cf7-3c1358040f10"},"vehicle_type_id":"4","last_reported":1700068006,"current_range_meters":3600,"station_id":"","pricing_plan_id":"free"},{"bike_id":"4e8ae814-13b0-4a67-8f76-4b948b30cf1b","system_id":"levelo_inurba_marseille","lat":43.281548,"lon":5.42643,"is_reserved":false,"is_disabled":false,"rental_uris":{"android":"levelo://app?vid=4e8ae814-13b0-4a67-8f76-4b948b30cf1b","ios":"levelo://app?vid=4e8ae814-13b0-4a67-8f76-4b948b30cf1b"},"vehicle_type_id":"4","last_reported":1700068006,"current_range_meters":31600,"station_id":"ce4bhnh2rcd13ifvqgug","pricing_plan_id":"free"},{"bike_id":"066eb165-4eea-4884-ba15-8cb5591385f4","system_id":"levelo_inurba_marseille","lat":43.281548,"lon":5.42643,"is_reserved":false,"is_disabled":false,"rental_uris":{"android":"levelo://app?vid=066eb165-4eea-4884-ba15-8cb5591385f4","ios":"levelo://app?vid=066eb165-4eea-4884-ba15-8cb5591385f4"},"vehicle_type_id":"4","last_reported":1700068006,"current_range_meters":14800,"station_id":"ce4bhnh2rcd13ifvqgug","pricing_plan_id":"free"},{"bike_id":"ecefa913-9564-4968-9cf3-a0b69668e4a6","system_id":"levelo_inurba_marseille","lat":43.281548,"lon":5.42643,"is_reserved":false,"is_disabled":false,"rental_uris":{"android":"levelo://app?vid=ecefa913-9564-4968-9cf3-a0b69668e4a6","ios":"levelo://app?vid=ecefa913-9564-4968-9cf3-a0b69668e4a6"},"vehicle_type_id":"4","last_reported":1700068006,"current_range_meters":31200,"station_id":"ce4bhnh2rcd13ifvqgug","pricing_plan_id":"free"},{"bike_id":"41903fa5-cde5-4cad-ae98-db6409f6648d","system_id":"levelo_inurba_marseille","lat":43.281548,"lon":5.42643,"is_reserved":false,"is_disabled":false,"rental_uris":{"android":"levelo://app?vid=41903fa5-cde5-4cad-ae98-db6409f6648d","ios":"levelo://app?vid=41903fa5-cde5-4cad-ae98-db6409f6648d"},"vehicle_type_id":"4","last_reported":1700068006,"current_range_meters":16800,"station_id":"ce4bhnh2rcd13ifvqgug","pricing_plan_id":"free"},{"bike_id":"3a381410-0924-4adc-b07f-f44694b619d7","system_id":"levelo_inurba_marseille","lat":43.2607,"lon":5.393983,"is_reserved":false,"is_disabled":false,"rental_uris":{"android":"levelo://app?vid=3a381410-0924-4adc-b07f-f44694b619d7","ios":"levelo://app?vid=3a381410-0924-4adc-b07f-f44694b619d7"},"vehicle_type_id":"4","last_reported":1700068006,"current_range_meters":16800,"station_id":"ce4bhh92rcd13ifvqfj0","pricing_plan_id":"free"},{"bike_id":"80684e9c-52a9-40f7-9f09-8d09cef5756f","system_id":"levelo_inurba_marseille","lat":43.2607,"lon":5.393983,"is_reserved":false,"is_disabled":false,"rental_uris":{"android":"levelo://app?vid=80684e9c-52a9-40f7-9f09-8d09cef5756f","ios":"levelo://app?vid=80684e9c-52a9-40f7-9f09-8d09cef5756f"},"vehicle_type_id":"4","last_reported":1700068006,"current_range_meters":27600,"station_id":"ce4bhh92rcd13ifvqfj0","pricing_plan_id":"free"},{"bike_id":"a6fdf993-e777-478b-806e-c1fb9844717c","system_id":"levelo_inurba_marseille","lat":43.275028,"lon":5.424534,"is_reserved":false,"is_disabled":false,"rental_uris":{"android":"levelo://app?vid=a6fdf993-e777-478b-806e-c1fb9844717c","ios":"levelo://app?vid=a6fdf993-e777-478b-806e-c1fb9844717c"},"vehicle_type_id":"4","last_reported":1700068006,"current_range_meters":18800,"station_id":"ce4bhn92rcd13ifvqgrg","pricing_plan_id":"free"},{"bike_id":"7d9af47c-4c42-4460-991f-006fd9eaa19f","system_id":"levelo_inurba_marseille","lat":43.26091,"lon":5.39764,"is_reserved":false,"is_disabled":false,"rental_uris":{"android":"levelo://app?vid=7d9af47c-4c42-4460-991f-006fd9eaa19f","ios":"levelo://app?vid=7d9af47c-4c42-4460-991f-006fd9eaa19f"},"vehicle_type_id":"4","last_reported":1700068006,"current_range_meters":19200,"station_id":"ce4bhi12rcd13ifvqfq0","pricing_plan_id":"free"},{"bike_id":"9d0f7680-201b-4b8d-913d-5bd8402310ce","system_id":"levelo_inurba_marseille","lat":43.260909,"lon":5.397591,"is_reserved":false,"is_disabled":false,"rental_uris":{"android":"levelo://app?vid=9d0f7680-201b-4b8d-913d-5bd8402310ce","ios":"levelo://app?vid=9d0f7680-201b-4b8d-913d-5bd8402310ce"},"vehicle_type_id":"4","last_reported":1700068006,"current_range_meters":14400,"station_id":"ce4bhi12rcd13ifvqfq0","pricing_plan_id":"free"},{"bike_id":"c7758cb2-2a45-4f89-aa5c-0e391d845c76","system_id":"levelo_inurba_marseille","lat":43.317104,"lon":5.436818,"is_reserved":false,"is_disabled":false,"rental_uris":{"android":"levelo://app?vid=c7758cb2-2a45-4f89-aa5c-0e391d845c76","ios":"levelo://app?vid=c7758cb2-2a45-4f89-aa5c-0e391d845c76"},"vehicle_type_id":"4","last_reported":1700068006,"current_range_meters":0,"station_id":"ce4bhp92rcd13ifvqhcg","pricing_plan_id":"free"},{"bike_id":"e3504171-152f-4ecc-aaff-fa4759ccaf0f","system_id":"levelo_inurba_marseille","lat":43.25579,"lon":5.38226,"is_reserved":false,"is_disabled":false,"rental_uris":{"android":"levelo://app?vid=e3504171-152f-4ecc-aaff-fa4759ccaf0f","ios":"levelo://app?vid=e3504171-152f-4ecc-aaff-fa4759ccaf0f"},"vehicle_type_id":"4","last_reported":1700068006,"current_range_meters":13200,"station_id":"ce4bhih2rcd13ifvqfs0","pricing_plan_id":"free"},{"bike_id":"218c9d66-e4e7-4830-8ba5-e05ec98a878d","system_id":"levelo_inurba_marseille","lat":43.25579,"lon":5.38229,"is_reserved":false,"is_disabled":false,"rental_uris":{"android":"levelo://app?vid=218c9d66-e4e7-4830-8ba5-e05ec98a878d","ios":"levelo://app?vid=218c9d66-e4e7-4830-8ba5-e05ec98a878d"},"vehicle_type_id":"4","last_reported":1700068006,"current_range_meters":0,"station_id":"ce4bhih2rcd13ifvqfs0","pricing_plan_id":"free"},{"bike_id":"8d1f0307-2f4c-437d-a035-c56bd770a285","system_id":"levelo_inurba_marseille","lat":43.25577,"lon":5.38226,"is_reserved":false,"is_disabled":false,"rental_uris":{"android":"levelo://app?vid=8d1f0307-2f4c-437d-a035-c56bd770a285","ios":"levelo://app?vid=8d1f0307-2f4c-437d-a035-c56bd770a285"},"vehicle_type_id":"4","last_reported":1700068006,"current_range_meters":15600,"station_id":"ce4bhih2rcd13ifvqfs0","pricing_plan_id":"free"},{"bike_id":"08be0b8c-8eef-49fc-ab9e-e0a2b04c5bae","system_id":"levelo_inurba_marseille","lat":43.254945,"lon":5.376454,"is_reserved":false,"is_disabled":false,"rental_uris":{"android":"levelo://app?vid=08be0b8c-8eef-49fc-ab9e-e0a2b04c5bae","ios":"levelo://app?vid=08be0b8c-8eef-49fc-ab9e-e0a2b04c5bae"},"vehicle_type_id":"4","last_reported":1700068006,"current_range_meters":10800,"station_id":"ce4bhh12rcd13ifvqff0","pricing_plan_id":"free"},{"bike_id":"2aa6c4b1-a67d-43b7-9eb1-fe5b5bec91bf","system_id":"levelo_inurba_marseille","lat":43.33404,"lon":5.44209,"is_reserved":false,"is_disabled":false,"rental_uris":{"android":"levelo://app?vid=2aa6c4b1-a67d-43b7-9eb1-fe5b5bec91bf","ios":"levelo://app?vid=2aa6c4b1-a67d-43b7-9eb1-fe5b5bec91bf"},"vehicle_type_id":"4","last_reported":1700068006,"current_range_meters":800,"station_id":"","pricing_plan_id":"free"},{"bike_id":"1fd31c5e-4cc5-446f-bc47-c01f36f6fd00","system_id":"levelo_inurba_marseille","lat":43.2479,"lon":5.374457,"is_reserved":false,"is_disabled":false,"rental_uris":{"android":"levelo://app?vid=1fd31c5e-4cc5-446f-bc47-c01f36f6fd00","ios":"levelo://app?vid=1fd31c5e-4cc5-446f-bc47-c01f36f6fd00"},"vehicle_type_id":"4","last_reported":1700068006,"current_range_meters":24000,"station_id":"ce4bhgh2rcd13ifvqfb0","pricing_plan_id":"free"},{"bike_id":"a8e55dc1-ce9b-4888-a868-97ef1e6a40a2","system_id":"levelo_inurba_marseille","lat":43.250009,"lon":5.389195,"is_reserved":false,"is_disabled":false,"rental_uris":{"android":"levelo://app?vid=a8e55dc1-ce9b-4888-a868-97ef1e6a40a2","ios":"levelo://app?vid=a8e55dc1-ce9b-4888-a868-97ef1e6a40a2"},"vehicle_type_id":"4","last_reported":1700068006,"current_range_meters":23600,"station_id":"ce4bhgp2rcd13ifvqfd0","pricing_plan_id":"free"},{"bike_id":"f6cc8385-0c88-4f4b-bf11-da8fc97667ae","system_id":"levelo_inurba_marseille","lat":43.2479,"lon":5.374457,"is_reserved":false,"is_disabled":false,"rental_uris":{"android":"levelo://app?vid=f6cc8385-0c88-4f4b-bf11-da8fc97667ae","ios":"levelo://app?vid=f6cc8385-0c88-4f4b-bf11-da8fc97667ae"},