{"last_updated":1745950482,"ttl":60,"version":"2.2","data":{"bikes":[{"bike_id":"eacf72d9-dfba-4a20-8c51-7789449e4d82","system_id":"levelo_inurba_marseille","lat":43.29208,"lon":5.39334,"is_reserved":false,"is_disabled":true,"rental_uris":{"android":"levelo://app?vid=eacf72d9-dfba-4a20-8c51-7789449e4d82","ios":"levelo://app?vid=eacf72d9-dfba-4a20-8c51-7789449e4d82"},"vehicle_type_id":"4","last_reported":1745950482,"current_range_meters":2800,"station_id":"ce4bh192rcd13ifvqdd0","pricing_plan_id":"cebpf4jnsgd1na2vs0mg"},{"bike_id":"75a7ae79-e274-4df9-b45a-a75aca2c757a","system_id":"levelo_inurba_marseille","lat":43.262052,"lon":5.379314,"is_reserved":false,"is_disabled":false,"rental_uris":{"android":"levelo://app?vid=75a7ae79-e274-4df9-b45a-a75aca2c757a","ios":"levelo://app?vid=75a7ae79-e274-4df9-b45a-a75aca2c757a"},"vehicle_type_id":"4","last_reported":1745950482,"current_range_meters":2800,"station_id":"ce4bhjp2rcd13ifvqg90","pricing_plan_id":"cebpf4jnsgd1na2vs0mg"},{"bike_id":"027e9674-0e35-405b-83ba-26c4fa5922ae","system_id":"levelo_inurba_marseille","lat":43.29627,"lon":5.40603,"is_reserved":false,"is_disabled":false,"rental_uris":{"android":"levelo://app?vid=027e9674-0e35-405b-83ba-26c4fa5922ae","ios":"levelo://app?vid=027e9674-0e35-405b-83ba-26c4fa5922ae"},"vehicle_type_id":"4","last_reported":1745950482,"current_range_meters":2800,"station_id":"ce4bh0h2rcd13ifvqd60","pricing_plan_id":"cebpf4jnsgd1na2vs0mg"},{"bike_id":"cb16a49c-2f4d-442b-b1fa-e0e79fa9f685","system_id":"levelo_inurba_marseille","lat":43.30795,"lon":5.3765,"is_reserved":false,"is_disabled":false,"rental_uris":{"android":"levelo://app?vid=cb16a49c-2f4d-442b-b1fa-e0e79fa9f685","ios":"levelo://app?vid=cb16a49c-2f4d-442b-b1fa-e0e79fa9f685"},"vehicle_type_id":"4","last_reported":1745950482,"current_range_meters":2800,"station_id":"","pricing_plan_id":"cebpf4jnsgd1na2vs0mg"},{"bike_id":"aad31b60-0af0-43e1-a0d7-4961a590a7dc","system_id":"levelo_inurba_marseille","lat":43.28928,"lon":5.38398,"is_reserved":false,"is_disabled":false,"rental_uris":{"android":"levelo://app?vid=aad31b60-0af0-43e1-a0d7-4961a590a7dc","ios":"levelo://app?vid=aad31b60-0af0-43e1-a0d7-4961a590a7dc"},"vehicle_type_id":"4","last_reported":1745950482,"current_range_meters":2800,"station_id":"ce4bh612rcd13ifvqe6g","pricing_plan_id":"cebpf4jnsgd1na2vs0mg"},{"bike_id":"3d123f57-403c-4188-947a-d738d25cf357","system_id":"levelo_inurba_marseille","lat":43.28412,"lon":5.34993,"is_reserved":false,"is_disabled":false,"rental_uris":{"android":"levelo://app?vid=3d123f57-403c-4188-947a-d738d25cf357","ios":"levelo://app?vid=3d123f57-403c-4188-947a-d738d25cf357"},"vehicle_type_id":"4","last_reported":1745950482,"current_range_meters":2800,"station_id":"ce4bhbh2rcd13ifvqepg","pricing_plan_id":"cebpf4jnsgd1na2vs0mg"},{"bike_id":"ab9101a4-a608-439e-8a02-a2989b15a370","system_id":"levelo_inurba_marseille","lat":43.30137,"lon":5.38778,"is_reserved":false,"is_disabled":false,"rental_uris":{"android":"levelo://app?vid=ab9101a4-a608-439e-8a02-a2989b15a370","ios":"levelo://app?vid=ab9101a4-a608-439e-8a02-a2989b15a370"},"vehicle_type_id":"4","last_reported":1745950482,"current_range_meters":2800,"station_id":"ce4bghh2rcd13ifvqb60","pricing_plan_id":"cebpf4jnsgd1na2vs0mg"},{"bike_id":"0bdaf666-fc99-4b7f-abe1-1d3ee62fc8f3","system_id":"levelo_inurba_marseille","lat":43.29041,"lon":5.39958,"is_reserved":false,"is_disabled":false,"rental_uris":{"android":"levelo://app?vid=0bdaf666-fc99-4b7f-abe1-1d3ee62fc8f3","ios":"levelo://app?vid=0bdaf666-fc99-4b7f-abe1-1d3ee62fc8f3"},"vehicle_type_id":"4","last_reported":1745950482,"current_range_meters":2800,"station_id":"ce4bh392rcd13ifvqdm0","pricing_plan_id":"cebpf4jnsgd1na2vs0mg"},{"bike_id":"a4c8a335-745b-4d95-97e0-7bac3cb18549","system_id":"levelo_inurba_marseille","lat":43.28112,"lon":5.39836,"is_reserved":false,"is_disabled":false,"rental_uris":{"android":"levelo://app?vid=a4c8a335-745b-4d95-97e0-7bac3cb18549","ios":"levelo://app?vid=a4c8a335-745b-4d95-97e0-7bac3cb18549"},"vehicle_type_id":"4","last_reported":1745950482,"current_range_meters":2800,"station_id":"","pricing_plan_id":"cebpf4jnsgd1na2vs0mg"},{"bike_id":"e288c1b9-de3d-40c0-ac27-e03c9556d880","system_id":"levelo_inurba_marseille","lat":43.292542,"lon":5.409137,"is_reserved":false,"is_disabled":true,"rental_uris":{"android":"levelo://app?vid=e288c1b9-de3d-40c0-ac27-e03c9556d880","ios":"levelo://app?vid=e288c1b9-de3d-40c0-ac27-e03c9556d880"},"vehicle_type_id":"4","last_reported":1745950482,"current_range_meters":3200,"station_id":"ce4bh192rcd13ifvqdc0","pricing_plan_id":"cebpf4jnsgd1na2vs0mg"},{"bike_id":"2e3c97e6-39ba-4161-bdd7-7f54fc79f324","system_id":"levelo_inurba_marseille","lat":43.27918,"lon":5.39592,"is_reserved":false,"is_disabled":false,"rental_uris":{"android":"levelo://app?vid=2e3c97e6-39ba-4161-bdd7-7f54fc79f324","ios":"levelo://app?vid=2e3c97e6-39ba-4161-bdd7-7f54fc79f324"},"vehicle_type_id":"4","last_reported":1745950482,"current_range_meters":3200,"station_id":"ce4bhf92rcd13ifvqf40","pricing_plan_id":"cebpf4jnsgd1na2vs0mg"},{"bike_id":"c139b040-7976-433e-98cf-19eb77cdf64a","system_id":"levelo_inurba_marseille","lat":43.25493,"lon":5.37643,"is_reserved":false,"is_disabled":false,"rental_uris":{"android":"levelo://app?vid=c139b040-7976-433e-98cf-19eb77cdf64a","ios":"levelo://app?vid=c139b040-7976-433e-98cf-19eb77cdf64a"},"vehicle_type_id":"4","last_reported":1745950482,"current_range_meters":3200,"station_id":"ce4bhh12rcd13ifvqff0","pricing_plan_id":"cebpf4jnsgd1na2vs0mg"},{"bike_id":"b476949a-4bf6-4ef1-8629-ebd1b746aef8","system_id":"levelo_inurba_marseille","lat":43.29754,"lon":5.36556,"is_reserved":false,"is_disabled":false,"rental_uris":{"android":"levelo://app?vid=b476949a-4bf6-4ef1-8629-ebd1b746aef8","ios":"levelo://app?vid=b476949a-4bf6-4ef1-8629-ebd1b746aef8"},"vehicle_type_id":"4","last_reported":1745950482,"current_range_meters":1600,"station_id":"ce4bgn12rcd13ifvqbt0","pricing_plan_id":"cebpf4jnsgd1na2vs0mg"},{"bike_id":"c5d91790-fc9a-4f9b-89a8-8a0b3c192596","system_id":"levelo_inurba_marseille","lat":43.3149,"lon":5.37307,"is_reserved":false,"is_disabled":false,"rental_uris":{"android":"levelo://app?vid=c5d91790-fc9a-4f9b-89a8-8a0b3c192596","ios":"levelo://app?vid=c5d91790-fc9a-4f9b-89a8-8a0b3c192596"},"vehicle_type_id":"4","last_reported":1745950482,"current_range_meters":6000,"station_id":"ce4bgt12rcd13ifvqcd0","pricing_plan_id":"cebpf4jnsgd1na2vs0mg"},{"bike_id":"b1040775-cdbd-4461-a120-155006f740eb","system_id":"levelo_inurba_marseille","lat":43.21189,"lon":5.3508,"is_reserved":false,"is_disabled":false,"rental_uris":{"android":"levelo://app?vid=b1040775-cdbd-4461-a120-155006f740eb","ios":"levelo://app?vid=b1040775-cdbd-4461-a120-155006f740eb"},"vehicle_type_id":"4","last_reported":1745950482,"current_range_meters":3600,"station_id":"st_cvj6sg6p6f1abm77japg","pricing_plan_id":"cebpf4jnsgd1na2vs0mg"},{"bike_id":"a7d18e16-49bf-4595-8de6-b23f1fc76922","system_id":"levelo_inurba_marseille","lat":43.27561,"lon":5.38417,"is_reserved":false,"is_disabled":false,"rental_uris":{"android":"levelo://app?vid=a7d18e16-49bf-4595-8de6-b23f1fc76922","ios":"levelo://app?vid=a7d18e16-49bf-4595-8de6-b23f1fc76922"},"vehicle_type_id":"4","last_reported":1745950482,"current_range_meters":3600,"station_id":"ce4bhh92rcd13ifvqfi0","pricing_plan_id":"cebpf4jnsgd1na2vs0mg"},{"bike_id":"6d3b3883-816b-4afe-b2a9-13be7838183a","system_id":"levelo_inurba_marseille","lat":43.30326,"lon":5.40449,"is_reserved":false,"is_disabled":false,"rental_uris":{"android":"levelo://app?vid=6d3b3883-816b-4afe-b2a9-13be7838183a","ios":"levelo://app?vid=6d3b3883-816b-4afe-b2a9-13be7838183a"},"vehicle_type_id":"4","last_reported":1745950482,"current_range_meters":3600,"station_id":"ce4bh012rcd13ifvqd10","pricing_plan_id":"cebpf4jnsgd1na2vs0mg"},{"bike_id":"33498e61-ae36-4f52-85c9-21518dacc9a6","system_id":"levelo_inurba_marseille","lat":43.29027,"lon":5.38653,"is_reserved":false,"is_disabled":false,"rental_uris":{"android":"levelo://app?vid=33498e61-ae36-4f52-85c9-21518dacc9a6","ios":"levelo://app?vid=33498e61-ae36-4f52-85c9-21518dacc9a6"},"vehicle_type_id":"4","last_reported":1745950482,"current_range_meters":3600,"station_id":"ce4bh4p2rcd13ifvqe0g","pricing_plan_id":"cebpf4jnsgd1na2vs0mg"},{"bike_id":"a1ad50f2-87ca-4f04-91f9-8da38eb02c1a","system_id":"levelo_inurba_marseille","lat":43.29872,"lon":5.39727,"is_reserved":false,"is_disabled":false,"rental_uris":{"android":"levelo://app?vid=a1ad50f2-87ca-4f04-91f9-8da38eb02c1a","ios":"levelo://app?vid=a1ad50f2-87ca-4f04-91f9-8da38eb02c1a"},"vehicle_type_id":"4","last_reported":1745950482,"current_range_meters":3600,"station_id":"ce4bh0h2rcd13ifvqd50","pricing_plan_id":"cebpf4jnsgd1na2vs0mg"},{"bike_id":"3975392c-4b3c-491d-8f40-00f73bb2a8a5","system_id":"levelo_inurba_marseille","lat":43.29725,"lon":5.37652,"is_reserved":false,"is_disabled":true,"rental_uris":{"android":"levelo://app?vid=3975392c-4b3c-491d-8f40-00f73bb2a8a5","ios":"levelo://app?vid=3975392c-4b3c-491d-8f40-00f73bb2a8a5"},"vehicle_type_id":"4","last_reported":1745950482,"current_range_meters":4000,"station_id":"ce4bgkh2rcd13ifvqbl0","pricing_plan_id":"cebpf4jnsgd1na2vs0mg"},{"bike_id":"2dd55316-3b47-4ad7-930a-9ff3cf6c1df8","system_id":"levelo_inurba_marseille","lat":43.24176,"lon":5.39728,"is_reserved":false,"is_disabled":false,"rental_uris":{"android":"levelo://app?vid=2dd55316-3b47-4ad7-930a-9ff3cf6c1df8","ios":"levelo://app?vid=2dd55316-3b47-4ad7-930a-9ff3cf6c1df8"},"vehicle_type_id":"4","last_reported":1745950482,"current_range_meters":4000,"station_id":"ce4bhn12rcd13ifvqgpg","pricing_plan_id":"cebpf4jnsgd1na2vs0mg"},{"bike_id":"90ac1d91-48a6-44ec-bc48-0f7febcc7c10","system_id":"levelo_inurba_marseille","lat":43.3027,"lon":5.37703,"is_reserved":false,"is_disabled":false,"rental_uris":{"android":"levelo://app?vid=90ac1d91-48a6-44ec-bc48-0f7febcc7c10","ios":"levelo://app?vid=90ac1d91-48a6-44ec-bc48-0f7febcc7c10"},"vehicle_type_id":"4","last_reported":1745950482,"current_range_meters":3600,"station_id":"ce4bguh2rcd13ifvqcj0","pricing_plan_id":"cebpf4jnsgd1na2vs0mg"},{"bike_id":"1dae67a4-982f-4082-9872-cdfd63c93ec8","system_id":"levelo_inurba_marseille","lat":43.30881,"lon":5.39639,"is_reserved":false,"is_disabled":false,"rental_uris":{"android":"levelo://app?vid=1dae67a4-982f-4082-9872-cdfd63c93ec8","ios":"levelo://app?vid=1dae67a4-982f-4082-9872-cdfd63c93ec8"},"vehicle_type_id":"4","last_reported":1745950482,"current_range_meters":4000,"station_id":"ce4bh012rcd13ifvqcv0","pricing_plan_id":"cebpf4jnsgd1na2vs0mg"},{"bike_id":"2f30abe4-121e-4b65-a631-ce3d0d117f05","system_id":"levelo_inurba_marseille","lat":43.295258,"lon":5.385424,"is_reserved":false,"is_disabled":false,"rental_uris":{"android":"levelo://app?vid=2f30abe4-121e-4b65-a631-ce3d0d117f05","ios":"levelo://app?vid=2f30abe4-121e-4b65-a631-ce3d0d117f05"},"vehicle_type_id":"4","last_reported":1745950482,"current_range_meters":4000,"station_id":"ce4bgih2rcd13ifvqba0","pricing_plan_id":"cebpf4jnsgd1na2vs0mg"},{"bike_id":"26deac1f-c435-40bc-9469-9ae0b266bb77","system_id":"levelo_inurba_marseille","lat":43.30194,"lon":5.3848,"is_reserved":false,"is_disabled":false,"rental_uris":{"android":"levelo://app?vid=26deac1f-c435-40bc-9469-9ae0b266bb77","ios":"levelo://app?vid=26deac1f-c435-40bc-9469-9ae0b266bb77"},"vehicle_type_id":"4","last_reported":1745950482,"current_range_meters":4000,"station_id":"","pricing_plan_id":"cebpf4jnsgd1na2vs0mg"},{"bike_id":"dfbe8267-ef64-4154-84cf-5ced1a9b2ac5","system_id":"levelo_inurba_marseille","lat":43.25499,"lon":5.37646,"is_reserved":false,"is_disabled":false,"rental_uris":{"android":"levelo://app?vid=dfbe8267-ef64-4154-84cf-5ced1a9b2ac5","ios":"levelo://app?vid=dfbe8267-ef64-4154-84cf-5ced1a9b2ac5"},"vehicle_type_id":"4","last_reported":1745950482,"current_range_meters":4000,"station_id":"ce4bhh12rcd13ifvqff0","pricing_plan_id":"cebpf4jnsgd1na2vs0mg"},{"bike_id":"b7193a7a-882e-48a4-99a8-3227966fa9b2","system_id":"levelo_inurba_marseille","lat":43.29279,"lon":5.40118,"is_reserved":false,"is_disabled":false,"rental_uris":{"android":"levelo://app?vid=b7193a7a-882e-48a4-99a8-3227966fa9b2","ios":"levelo://app?vid=b7193a7a-882e-48a4-99a8-3227966fa9b2"},"vehicle_type_id":"4","last_reported":1745950482,"current_range_meters":4000,"station_id":"ce4bh312rcd13ifvqdk0","pricing_plan_id":"cebpf4jnsgd1na2vs0mg"},{"bike_id":"a6c3bf3e-2cc3-4f89-8b05-fb9066be1a33","system_id":"levelo_inurba_marseille","lat":43.296201,"lon":5.377255,"is_reserved":false,"is_disabled":false,"rental_uris":{"android":"levelo://app?vid=a6c3bf3e-2cc3-4f89-8b05-fb9066be1a33","ios":"levelo://app?vid=a6c3bf3e-2cc3-4f89-8b05-fb9066be1a33"},"vehicle_type_id":"4","last_reported":1745950482,"current_range_meters":4400,"station_id":"ce4bgi92rcd13ifvqb90","pricing_plan_id":"cebpf4jnsgd1na2vs0mg"},{"bike_id":"11bd00f0-142f-4a1f-b059-c5c2b26da490","system_id":"levelo_inurba_marseille","lat":43.26959,"lon":5.38631,"is_reserved":false,"is_disabled":false,"rental_uris":{"android":"levelo://app?vid=11bd00f0-142f-4a1f-b059-c5c2b26da490","ios":"levelo://app?vid=11bd00f0-142f-4a1f-b059-c5c2b26da490"},"vehicle_type_id":"4","last_reported":1745950482,"current_range_meters":4400,"station_id":"ce4bhh92rcd13ifvqfh0","pricing_plan_id":"cebpf4jnsgd1na2vs0mg"},{"bike_id":"ff9dc173-ab51-4374-95e9-f82085ef9042","system_id":"levelo_inurba_marseille","lat":43.30589,"lon":5.39362,"is_reserved":false,"is_disabled":false,"rental_uris":{"android":"levelo://app?vid=ff9dc173-ab51-4374-95e9-f82085ef9042","ios":"levelo://app?vid=ff9dc173-ab51-4374-95e9-f82085ef9042"},"vehicle_type_id":"4","last_reported":1745950482,"current_range_meters":4400,"station_id":"ce4bh0p2rcd13ifvqd80","pricing_plan_id":"cebpf4jnsgd1na2vs0mg"},{"bike_id":"cf380c1e-39c1-42f7-a34f-573b7b5f66ed","system_id":"levelo_inurba_marseille","lat":43.317177,"lon":5.423927,"is_reserved":false,"is_disabled":false,"rental_uris":{"android":"levelo://app?vid=cf380c1e-39c1-42f7-a34f-573b7b5f66ed","ios":"levelo://app?vid=cf380c1e-39c1-42f7-a34f-573b7b5f66ed"},"vehicle_type_id":"4","last_reported":1745950482,"current_range_meters":4400,"station_id":"ce4bhp92rcd13ifvqhbg","pricing_plan_id":"cebpf4jnsgd1na2vs0mg"},{"bike_id":"9c0d74db-522c-4571-87e1-79a7489b1575","system_id":"levelo_inurba_marseille","lat":43.27416,"lon":5.39412,"is_reserved":false,"is_disabled":false,"rental_uris":{"android":"levelo://app?vid=9c0d74db-522c-4571-87e1-79a7489b1575","ios":"levelo://app?vid=9c0d74db-522c-4571-87e1-79a7489b1575"},"vehicle_type_id":"4","last_reported":1745950482,"current_range_meters":4400,"station_id":"ce4bhdp2rcd13ifvqf20","pricing_plan_id":"cebpf4jnsgd1na2vs0mg"},{"bike_id":"ad206b5d-c5c2-455a-9da0-43d9199d9df0","system_id":"levelo_inurba_marseille","lat":43.306083,"lon":5.372415,"is_reserved":false,"is_disabled":false,"rental_uris":{"android":"levelo://app?vid=ad206b5d-c5c2-455a-9da0-43d9199d9df0","ios":"levelo://app?vid=ad206b5d-c5c2-455a-9da0-43d9199d9df0"},"vehicle_type_id":"4","last_reported":1745950482,"current_range_meters":4400,"station_id":"ce4bgqh2rcd13ifvqc4g","pricing_plan_id":"cebpf4jnsgd1na2vs0mg"},{"bike_id":"48b34b8b-82cb-40f1-8142-c9bd54f201ff","system_id":"levelo_inurba_marseille","lat":43.30642,"lon":5.40103,"is_reserved":false,"is_disabled":false,"rental_uris":{"android":"levelo://app?vid=48b34b8b-82cb-40f1-8142-c9bd54f201ff","ios":"levelo://app?vid=48b34b8b-82cb-40f1-8142-c9bd54f201ff"},"vehicle_type_id":"4","last_reported":1745950482,"current_range_meters":6800,"station_id":"ce4bh112rcd13ifvqda0","pricing_plan_id":"cebpf4jnsgd1na2vs0mg"},{"bike_id":"3efdb511-6811-4754-8853-4a1af7a362d2","system_id":"levelo_inurba_marseille","lat":43.30246,"lon":5.40045,"is_reserved":false,"is_disabled":false,"rental_uris":{"android":"levelo://app?vid=3efdb511-6811-4754-8853-4a1af7a362d2","ios":"levelo://app?vid=3efdb511-6811-4754-8853-4a1af7a362d2"},"vehicle_type_id":"4","last_reported":1745950482,"current_range_meters":4800,"station_id":"ce4bgvh2rcd13ifvqcs0","pricing_plan_id":"cebpf4jnsgd1na2vs0mg"},{"bike_id":"8e129a8e-0fb5-497a-99df-0ef140d4a120","system_id":"levelo_inurba_marseille","lat":43.28415,"lon":5.35003,"is_reserved":false,"is_disabled":false,"rental_uris":{"android":"levelo://app?vid=8e129a8e-0fb5-497a-99df-0ef140d4a120","ios":"levelo://app?vid=8e129a8e-0fb5-497a-99df-0ef140d4a120"},"vehicle_type_id":"4","last_reported":1745950482,"current_range_meters":4800,"station_id":"ce4bhbh2rcd13ifvqepg","pricing_plan_id":"cebpf4jnsgd1na2vs0mg"},{"bike_id":"ab37ea09-27fd-4b6a-aa46-7cf3b6580cbb","system_id":"levelo_inurba_marseille","lat":43.29036,"lon":5.3996,"is_reserved":false,"is_disabled":false,"rental_uris":{"android":"levelo://app?vid=ab37ea09-27fd-4b6a-aa46-7cf3b6580cbb","ios":"levelo://app?vid=ab37ea09-27fd-4b6a-aa46-7cf3b6580cbb"},"vehicle_type_id":"4","last_reported":1745950482,"current_range_meters":4800,"station_id":"ce4bh392rcd13ifvqdm0","pricing_plan_id":"cebpf4jnsgd1na2vs0mg"},{"bike_id":"412d630c-25c9-4fe6-8c48-fda2c85ad64a","system_id":"levelo_inurba_marseille","lat":43.29596,"lon":5.37703,"is_reserved":false,"is_disabled":true,"rental_uris":{"android":"levelo://app?vid=412d630c-25c9-4fe6-8c48-fda2c85ad64a","ios":"levelo://app?vid=412d630c-25c9-4fe6-8c48-fda2c85ad64a"},"vehicle_type_id":"4","last_reported":1745950482,"current_range_meters":4800,"station_id":"ce4bgi92rcd13ifvqb90","pricing_plan_id":"cebpf4jnsgd1na2vs0mg"},{"bike_id":"fd56dd89-7261-45e8-936e-2d7edc970d89","system_id":"levelo_inurba_marseille","lat":43.34136,"lon":5.409,"is_reserved":false,"is_disabled":false,"rental_uris":{"android":"levelo://app?vid=fd56dd89-7261-45e8-936e-2d7edc970d89","ios":"levelo://app?vid=fd56dd89-7261-45e8-936e-2d7edc970d89"},"vehicle_type_id":"4","last_reported":1745950482,"current_range_meters":4800,"station_id":"ce4bhqh2rcd13ifvqhlg","pricing_plan_id":"cebpf4jnsgd1na2vs0mg"},{"bike_id":"115347b6-725f-487f-bed9-ac9ca2ea04a6","system_id":"levelo_inurba_marseille","lat":43.29519,"lon":5.37514,"is_reserved":false,"is_disabled":false,"rental_uris":{"android":"levelo://app?vid=115347b6-725f-487f-bed9-ac9ca2ea04a6","ios":"levelo://app?vid=115347b6-725f-487f-bed9-ac9ca2ea04a6"},"vehicle_type_id":"4","last_reported":1745950482,"current_range_meters":6800,"station_id":"ce4bgkp2rcd13ifvqbmg","pricing_plan_id":"cebpf4jnsgd1na2vs0mg"},{"bike_id":"b0d756e9-aab1-4fab-b93c-04652fd99f9d","system_id":"levelo_inurba_marseille","lat":43.31107,"lon":5.37776,"is_reserved":false,"is_disabled":false,"rental_uris":{"android":"levelo://app?vid=b0d756e9-aab1-4fab-b93c-04652fd99f9d","ios":"levelo://app?vid=b0d756e9-aab1-4fab-b93c-04652fd99f9d"},"vehicle_type_id":"4","last_reported":1745950482,"current_range_meters":4800,"station_id":"ce4bgt92rcd13ifvqcg0","pricing_plan_id":"cebpf4jnsgd1na2vs0mg"},{"bike_id":"a927ad15-b129-4085-9072-8cc54f2c8cf2","system_id":"levelo_inurba_marseille","lat":43.321055,"lon":5.367817,"is_reserved":false,"is_disabled":false,"rental_uris":{"android":"levelo://app?vid=a927ad15-b129-4085-9072-8cc54f2c8cf2","ios":"levelo://app?vid=a927ad15-b129-4085-9072-8cc54f2c8cf2"},"vehicle_type_id":"4","last_reported":1745950482,"current_range_meters":4800,"station_id":"","pricing_plan_id":"cebpf4jnsgd1na2vs0mg"},{"bike_id":"af4f0c69-e62d-4155-b1d1-a67b45271ae1","system_id":"levelo_inurba_marseille","lat":43.24753,"lon":5.41168,"is_reserved":false,"is_disabled":false,"rental_uris":{"android":"levelo://app?vid=af4f0c69-e62d-4155-b1d1-a67b45271ae1","ios":"levelo://app?vid=af4f0c69-e62d-4155-b1d1-a67b45271ae1"},"vehicle_type_id":"4","last_reported":1745950482,"current_range_meters":5600,"station_id":"","pricing_plan_id":"cebpf4jnsgd1na2vs0mg"},{"bike_id":"677c3d11-108f-4b8b-8733-8eca7bc89702","system_id":"levelo_inurba_marseille","lat":43.3373,"lon":5.39189,"is_reserved":false,"is_disabled":false,"rental_uris":{"android":"levelo://app?vid=677c3d11-108f-4b8b-8733-8eca7bc89702","ios":"levelo://app?vid=677c3d11-108f-4b8b-8733-8eca7bc89702"},"vehicle_type_id":"4","last_reported":1745950482,"current_range_meters":5600,"station_id":"ce4bhr92rcd13ifvqhsg","pricing_plan_id":"cebpf4jnsgd1na2vs0mg"},{"bike_id":"110d42e0-e455-49c3-ba2f-a13b1f51573a","system_id":"levelo_inurba_marseille","lat":43.29628,"lon":5.4118,"is_reserved":false,"is_disabled":false,"rental_uris":{"android":"levelo://app?vid=110d42e0-e455-49c3-ba2f-a13b1f51573a","ios":"levelo://app?vid=110d42e0-e455-49c3-ba2f-a13b1f51573a"},"vehicle_type_id":"4","last_reported":1745950482,"current_range_meters":5600,"station_id":"","pricing_plan_id":"cebpf4jnsgd1na2vs0mg"},{"bike_id":"38cf1bdb-e9fd-4627-b9ea-3bcb5e3665b9","system_id":"levelo_inurba_marseille","lat":43.30207,"lon":5.39475,"is_reserved":false,"is_disabled":false,"rental_uris":{"android":"levelo://app?vid=38cf1bdb-e9fd-4627-b9ea-3bcb5e3665b9","ios":"levelo://app?vid=38cf1bdb-e9fd-4627-b9ea-3bcb5e3665b9"},"vehicle_type_id":"4","last_reported":1745950482,"current_range_meters":5600,"station_id":"ce4bh0p2rcd13ifvqd70","pricing_plan_id":"cebpf4jnsgd1na2vs0mg"},{"bike_id":"c8432441-2250-4cda-a79a-55215d89e419","system_id":"levelo_inurba_marseille","lat":43.29211,"lon":5.36909,"is_reserved":false,"is_disabled":false,"rental_uris":{"android":"levelo://app?vid=c8432441-2250-4cda-a79a-55215d89e419","ios":"levelo://app?vid=c8432441-2250-4cda-a79a-55215d89e419"},"vehicle_type_id":"4","last_reported":1745950482,"current_range_meters":5600,"station_id":"","pricing_plan_id":"cebpf4jnsgd1na2vs0mg"},{"bike_id":"1f739055-8148-4574-abff-98a1f2db48ac","system_id":"levelo_inurba_marseille","lat":43.291884,"lon":5.357914,"is_reserved":false,"is_disabled":true,"rental_uris":{"android":"levelo://app?vid=1f739055-8148-4574-abff-98a1f2db48ac","ios":"levelo://app?vid=1f739055-8148-4574-abff-98a1f2db48ac"},"vehicle_type_id":"4","last_reported":1745950482,"current_range_meters":5600,"station_id":"ce4bhb12rcd13ifvqel0","pricing_plan_id":"cebpf4jnsgd1na2vs0mg"},{"bike_id":"183e169a-4ea3-4df3-bd75-40a627ebe0ff","system_id":"levelo_inurba_marseille","lat":43.32026,"lon":5.38168,"is_reserved":false,"is_disabled":false,"rental_uris":{"android":"levelo://app?vid=183e169a-4ea3-4df3-bd75-40a627ebe0ff","ios":"levelo://app?vid=183e169a-4ea3-4df3-bd75-40a627ebe0ff"},"vehicle_type_id":"4","last_reported":1745950482,"current_range_meters":5600,"station_id":"ce4bhr12rcd13ifvqhpg","pricing_plan_id":"cebpf4jnsgd1na2vs0mg"},{"bike_id":"ba4b387e-42ef-4de4-b490-ffa81e22df0b","system_id":"levelo_inurba_marseille","lat":43.27811,"lon":5.4071,"is_reserved":false,"is_disabled":false,"rental_uris":{"android":"levelo://app?vid=ba4b387e-42ef-4de4-b490-ffa81e22df0b","ios":"levelo://app?vid=ba4b387e-42ef-4de4-b490-ffa81e22df0b"},"vehicle_type_id":"4","last_reported":1745950482,"current_range_meters":5600,"station_id":"ce4bhnh2rcd13ifvqgtg","pricing_plan_id":"cebpf4jnsgd1na2vs0mg"},{"bike_id":"9fa451a1-2375-4fa8-aec4-f1014bc86682","system_id":"levelo_inurba_marseille","lat":43.28622,"lon":5.35105,"is_reserved":false,"is_disabled":false,"rental_uris":{"android":"levelo://app?vid=9fa451a1-2375-4fa8-aec4-f1014bc86682","ios":"levelo://app?vid=9fa451a1-2375-4fa8-aec4-f1014bc86682"},"vehicle_type_id":"4","last_reported":1745950482,"current_range_meters":5600,"station_id":"ce4bhch2rcd13ifvqeug","pricing_plan_id":"cebpf4jnsgd1na2vs0mg"},{"bike_id":"90eff5c4-c585-49a8-8954-da7abd63bb17","system_id":"levelo_inurba_marseille","lat":43.29257,"lon":5.37621,"is_reserved":false,"is_disabled":false,"rental_uris":{"android":"levelo://app?vid=90eff5c4-c585-49a8-8954-da7abd63bb17","ios":"levelo://app?vid=90eff5c4-c585-49a8-8954-da7abd63bb17"},"vehicle_type_id":"4","last_reported":1745950482,"current_range_meters":6000,"station_id":"ce4bgi12rcd13ifvqb80","pricing_plan_id":"cebpf4jnsgd1na2vs0mg"},{"bike_id":"25286433-d529-45ad-8c3a-533b2544026f","system_id":"levelo_inurba_marseille","lat":43.239569,"lon":5.366096,"is_reserved":false,"is_disabled":false,"rental_uris":{"android":"levelo://app?vid=25286433-d529-45ad-8c3a-533b2544026f","ios":"levelo://app?vid=25286433-d529-45ad-8c3a-533b2544026f"},"vehicle_type_id":"4","last_reported":1745950482,"current_range_meters":6000,"station_id":"ce4bhi12rcd13ifvqfp0","pricing_plan_id":"cebpf4jnsgd1na2vs0mg"},{"bike_id":"b01cbeff-8157-416f-a4f0-9990745aa5ff","system_id":"levelo_inurba_marseille","lat":43.2804,"lon":5.36942,"is_reserved":false,"is_disabled":false,"rental_uris":{"android":"levelo://app?vid=b01cbeff-8157-416f-a4f0-9990745aa5ff","ios":"levelo://app?vid=b01cbeff-8157-416f-a4f0-9990745aa5ff"},"vehicle_type_id":"4","last_reported":1745950482,"current_range_meters":6000,"station_id":"ce4bha12rcd13ifvqef0","pricing_plan_id":"cebpf4jnsgd1na2vs0mg"},{"bike_id":"0b53b896-dd05-4b17-b933-de5ac81cba52","system_id":"levelo_inurba_marseille","lat":43.2694,"lon":5.40245,"is_reserved":false,"is_disabled":false,"rental_uris":{"android":"levelo://app?vid=0b53b896-dd05-4b17-b933-de5ac81cba52","ios":"levelo://app?vid=0b53b896-dd05-4b17-b933-de5ac81cba52"},"vehicle_type_id":"4","last_reported":1745950482,"current_range_meters":11200,"station_id":"cjm6bp8fraef2m0cb0m0","pricing_plan_id":"cebpf4jnsgd1na2vs0mg"},{"bike_id":"d8d80a03-5865-4a22-bd30-bbd0280ae7af","system_id":"levelo_inurba_marseille","lat":43.28689,"lon":5.37386,"is_reserved":false,"is_disabled":false,"rental_uris":{"android":"levelo://app?vid=d8d80a03-5865-4a22-bd30-bbd0280ae7af","ios":"levelo://app?vid=d8d80a03-5865-4a22-bd30-bbd0280ae7af"},"vehicle_type_id":"4","last_reported":1745950482,"current_range_meters":6000,"station_id":"ce4bh3p2rcd13ifvqdq0","pricing_plan_id":"cebpf4jnsgd1na2vs0mg"},{"bike_id":"89e058ca-1906-4cb7-9b2e-6cc245e8659b","system_id":"levelo_inurba_marseille","lat":43.26201,"lon":5.37931,"is_reserved":false,"is_disabled":false,"rental_uris":{"android":"levelo://app?vid=89e058ca-1906-4cb7-9b2e-6cc245e8659b","ios":"levelo://app?vid=89e058ca-1906-4cb7-9b2e-6cc245e8659b"},"vehicle_type_id":"4","last_reported":1745950482,"current_range_meters":6000,"station_id":"ce4bhjp2rcd13ifvqg90","pricing_plan_id":"cebpf4jnsgd1na2vs0mg"},{"bike_id":"c2a5b975-8b23-468b-a841-b81f24edfe7a","system_id":"levelo_inurba_marseille","lat":43.24392,"lon":5.37049,"is_reserved":false,"is_disabled":true,"rental_uris":{"android":"levelo://app?vid=c2a5b975-8b23-468b-a841-b81f24edfe7a","ios":"levelo://app?vid=c2a5b975-8b23-468b-a841-b81f24edfe7a"},"vehicle_type_id":"4","last_reported":1745950482,"current_range_meters":6000,"station_id":"ce4bhhh2rcd13ifvqfk0","pricing_plan_id":"cebpf4jnsgd1na2vs0mg"},{"bike_id":"0b236336-3271-494a-adf2-b5c8a77dcc83","system_id":"levelo_inurba_marseille","lat":43.31215,"lon":5.36843,"is_reserved":false,"is_disabled":false,"rental_uris":{"android":"levelo://app?vid=0b236336-3271-494a-adf2-b5c8a77dcc83","ios":"levelo://app?vid=0b236336-3271-494a-adf2-b5c8a77dcc83"},"vehicle_type_id":"4","last_reported":1745950482,"current_range_meters":5600,"station_id":"ce4bgl92rcd13ifvqbq0","pricing_plan_id":"cebpf4jnsgd1na2vs0mg"},{"bike_id":"775481df-05c4-4f0e-8a67-b66aedbeddcf","system_id":"levelo_inurba_marseille","lat":43.24189,"lon":5.39717,"is_reserved":false,"is_disabled":false,"rental_uris":{"android":"levelo://app?vid=775481df-05c4-4f0e-8a67-b66aedbeddcf","ios":"levelo://app?vid=775481df-05c4-4f0e-8a67-b66aedbeddcf"},"vehicle_type_id":"4","last_reported":1745950482,"current_range_meters":6400,"station_id":"ce4bhn12rcd13ifvqgpg","pricing_plan_id":"cebpf4jnsgd1na2vs0mg"},{"bike_id":"905dcb85-40c5-4ad8-8a68-758e7aa300aa","system_id":"levelo_inurba_marseille","lat":43.2987,"lon":5.39728,"is_reserved":false,"is_disabled":false,"rental_uris":{"android":"levelo://app?vid=905dcb85-40c5-4ad8-8a68-758e7aa300aa","ios":"levelo://app?vid=905dcb85-40c5-4ad8-8a68-758e7aa300aa"},"vehicle_type_id":"4","last_reported":1745950482,"current_range_meters":6400,"station_id":"ce4bh0h2rcd13ifvqd50","pricing_plan_id":"cebpf4jnsgd1na2vs0mg"},{"bike_id":"7252eff1-997e-4e6f-9c64-d9697b001d8f","system_id":"levelo_inurba_marseille","lat":43.27373,"lon":5.36256,"is_reserved":false,"is_disabled":false,"rental_uris":{"android":"levelo://app?vid=7252eff1-997e-4e6f-9c64-d9697b001d8f","ios":"levelo://app?vid=7252eff1-997e-4e6f-9c64-d9697b001d8f"},"vehicle_type_id":"4","last_reported":1745950482,"current_range_meters":6000,"station_id":"ce4bhbh2rcd13ifvqeo0","pricing_plan_id":"cebpf4jnsgd1na2vs0mg"},{"bike_id":"acb1cd24-f2a4-44b9-bef4-9151cce66c2a","system_id":"levelo_inurba_marseille","lat":43.24661,"lon":5.38169,"is_reserved":false,"is_disabled":false,"rental_uris":{"android":"levelo://app?vid=acb1cd24-f2a4-44b9-bef4-9151cce66c2a","ios":"levelo://app?vid=acb1cd24-f2a4-44b9-bef4-9151cce66c2a"},"vehicle_type_id":"4","last_reported":1745950482,"current_range_meters":6400,"station_id":"ce4bhih2rcd13ifvqfr0","pricing_plan_id":"cebpf4jnsgd1na2vs0mg"},{"bike_id":"bafa5097-1425-46ef-8ac7-401959d21fa8","system_id":"levelo_inurba_marseille","lat":43.2871,"lon":5.37957,"is_reserved":false,"is_disabled":true,"rental_uris":{"android":"levelo://app?vid=bafa5097-1425-46ef-8ac7-401959d21fa8","ios":"levelo://app?vid=bafa5097-1425-46ef-8ac7-401959d21fa8"},"vehicle_type_id":"4","last_reported":1745950482,"current_range_meters":6400,"station_id":"ce4bh9p2rcd13ifvqec0","pricing_plan_id":"cebpf4jnsgd1na2vs0mg"},{"bike_id":"4e173d32-57d8-4f84-ad51-c4d2b44abb92","system_id":"levelo_inurba_marseille","lat":43.29263,"lon":5.38421,"is_reserved":false,"is_disabled":false,"rental_uris":{"android":"levelo://app?vid=4e173d32-57d8-4f84-ad51-c4d2b44abb92","ios":"levelo://app?vid=4e173d32-57d8-4f84-ad51-c4d2b44abb92"},"vehicle_type_id":"4","last_reported":1745950482,"current_range_meters":6400,"station_id":"ce4bh692rcd13ifvqea0","pricing_plan_id":"cebpf4jnsgd1na2vs0mg"},{"bike_id":"b0251ae7-0231-402c-b967-4851c723d74c","system_id":"levelo_inurba_marseille","lat":43.29868,"lon":5.3973,"is_reserved":false,"is_disabled":false,"rental_uris":{"android":"levelo://app?vid=b0251ae7-0231-402c-b967-4851c723d74c","ios":"levelo://app?vid=b0251ae7-0231-402c-b967-4851c723d74c"},"vehicle_type_id":"4","last_reported":1745950482,"current_range_meters":6800,"station_id":"ce4bh0h2rcd13ifvqd50","pricing_plan_id":"cebpf4jnsgd1na2vs0mg"},{"bike_id":"c196b5ef-3439-4607-9e5b-d86184593f04","system_id":"levelo_inurba_marseille","lat":43.24658,"lon":5.38157,"is_reserved":false,"is_disabled":false,"rental_uris":{"android":"levelo://app?vid=c196b5ef-3439-4607-9e5b-d86184593f04","ios":"levelo://app?vid=c196b5ef-3439-4607-9e5b-d86184593f04"},"vehicle_type_id":"4","last_reported":1745950482,"current_range_meters":6800,"station_id":"ce4bhih2rcd13ifvqfr0","pricing_plan_id":"cebpf4jnsgd1na2vs0mg"},{"bike_id":"b1aaa5ea-360b-495d-983b-a293f3512c07","system_id":"levelo_inurba_marseille","lat":43.30145,"lon":5.39883,"is_reserved":false,"is_disabled":false,"rental_uris":{"android":"levelo://app?vid=b1aaa5ea-360b-495d-983b-a293f3512c07","ios":"levelo://app?vid=b1aaa5ea-360b-495d-983b-a293f3512c07"},"vehicle_type_id":"4","last_reported":1745950482,"current_range_meters":6800,"station_id":"ce4bh0h2rcd13ifvqd40","pricing_plan_id":"cebpf4jnsgd1na2vs0mg"},{"bike_id":"c847c66a-5d4b-43a0-b8ce-3c816716271e","system_id":"levelo_inurba_marseille","lat":43.28957,"lon":5.35612,"is_reserved":false,"is_disabled":true,"rental_uris":{"android":"levelo://app?vid=c847c66a-5d4b-43a0-b8ce-3c816716271e","ios":"levelo://app?vid=c847c66a-5d4b-43a0-b8ce-3c816716271e"},"vehicle_type_id":"4","last_reported":1745950482,"current_range_meters":6800,"station_id":"ce4bhb92rcd13ifvqen0","pricing_plan_id":"cebpf4jnsgd1na2vs0mg"},{"bike_id":"37249fe8-6858-4cbf-b9d8-49fccabf34d4","system_id":"levelo_inurba_marseille","lat":43.29624,"lon":5.40589,"is_reserved":false,"is_disabled":false,"rental_uris":{"android":"levelo://app?vid=37249fe8-6858-4cbf-b9d8-49fccabf34d4","ios":"levelo://app?vid=37249fe8-6858-4cbf-b9d8-49fccabf34d4"},"vehicle_type_id":"4","last_reported":1745950482,"current_range_meters":6800,"station_id":"ce4bh0h2rcd13ifvqd60","pricing_plan_id":"cebpf4jnsgd1na2vs0mg"},{"bike_id":"21eeb8e3-14ca-47a8-968f-00eea2f7a7a7","system_id":"levelo_inurba_marseille","lat":43.272117,"lon":5.391732,"is_reserved":false,"is_disabled":false,"rental_uris":{"android":"levelo://app?vid=21eeb8e3-14ca-47a8-968f-00eea2f7a7a7","ios":"levelo://app?vid=21eeb8e3-14ca-47a8-968f-00eea2f7a7a7"},"vehicle_type_id":"4","last_reported":1745950482,"current_range_meters":6400,"station_id":"ce4bhhp2rcd13ifvqfm0","pricing_plan_id":"cebpf4jnsgd1na2vs0mg"},{"bike_id":"178a2f16-368b-42c4-8c46-20156c18568f","system_id":"levelo_inurba_marseille","lat":43.29165,"lon":5.37159,"is_reserved":false,"is_disabled":false,"rental_uris":{"android":"levelo://app?vid=178a2f16-368b-42c4-8c46-20156c18568f","ios":"levelo://app?vid=178a2f16-368b-42c4-8c46-20156c18568f"},"vehicle_type_id":"4","last_reported":1745950482,"current_range_meters":6400,"station_id":"ce4bha92rcd13ifvqeh0","pricing_plan_id":"cebpf4jnsgd1na2vs0mg"},{"bike_id":"d329ae21-e678-40c5-8e9b-49f00be5906a","system_id":"levelo_inurba_marseille","lat":43.2408,"lon":5.37752,"is_reserved":false,"is_disabled":false,"rental_uris":{"android":"levelo://app?vid=d329ae21-e678-40c5-8e9b-49f00be5906a","ios":"levelo://app?vid=d329ae21-e678-40c5-8e9b-49f00be5906a"},"vehicle_type_id":"4","last_reported":1745950482,"current_range_meters":7200,"station_id":"ce4bhnp2rcd13ifvqgvg","pricing_plan_id":"cebpf4jnsgd1na2vs0mg"},{"bike_id":"90194dfe-bc71-44aa-a646-ec9d7daf2bfe","system_id":"levelo_inurba_marseille","lat":43.26805,"lon":5.4026,"is_reserved":false,"is_disabled":false,"rental_uris":{"android":"levelo://app?vid=90194dfe-bc71-44aa-a646-ec9d7daf2bfe","ios":"levelo://app?vid=90194dfe-bc71-44aa-a646-ec9d7daf2bfe"},"vehicle_type_id":"4","last_reported":1745950482,"current_range_meters":8000,"station_id":"ce501612rcd8frsf0b60","pricing_plan_id":"cebpf4jnsgd1na2vs0mg"},{"bike_id":"b0152e99-01c5-4186-8b9e-1d5454f9bb15","system_id":"levelo_inurba_marseille","lat":43.26801,"lon":5.40256,"is_reserved":false,"is_disabled":false,"rental_uris":{"android":"levelo://app?vid=b0152e99-01c5-4186-8b9e-1d5454f9bb15","ios":"levelo://app?vid=b0152e99-01c5-4186-8b9e-1d5454f9bb15"},"vehicle_type_id":"4","last_reported":1745950482,"current_range_meters":8000,"station_id":"ce501612rcd8frsf0b60","pricing_plan_id":"cebpf4jnsgd1na2vs0mg"},{"bike_id":"e5b4b90d-e268-4de2-98f4-f6d0513f8801","system_id":"levelo_inurba_marseille","lat":43.26558,"lon":5.42201,"is_reserved":false,"is_disabled":false,"rental_uris":{"android":"levelo://app?vid=e5b4b90d-e268-4de2-98f4-f6d0513f8801","ios":"levelo://app?vid=e5b4b90d-e268-4de2-98f4-f6d0513f8801"},"vehicle_type_id":"4","last_reported":1745950482,"current_range_meters":8000,"station_id":"","pricing_plan_id":"cebpf4jnsgd1na2vs0mg"},{"bike_id":"39afa6d3-6997-44d2-9ee4-3b7bcc0067fc","system_id":"levelo_inurba_marseille","lat":43.29294,"lon":5.37465,"is_reserved":false,"is_disabled":false,"rental_uris":{"android":"levelo://app?vid=39afa6d3-6997-44d2-9ee4-3b7bcc0067fc","ios":"levelo://app?vid=39afa6d3-6997-44d2-9ee4-3b7bcc0067fc"},"vehicle_type_id":"4","last_reported":1745950482,"current_range_meters":8000,"station_id":"ce4bgi12rcd13ifvqb70","pricing_plan_id":"cebpf4jnsgd1na2vs0mg"},{"bike_id":"c481a4ad-a355-46cc-a716-d84c9f00bd5e","system_id":"levelo_inurba_marseille","lat":43.2681,"lon":5.40262,"is_reserved":false,"is_disabled":false,"rental_uris":{"android":"levelo://app?vid=c481a4ad-a355-46cc-a716-d84c9f00bd5e","ios":"levelo://app?vid=c481a4ad-a355-46cc-a716-d84c9f00bd5e"},"vehicle_type_id":"4","last_reported":1745950482,"current_range_meters":8400,"station_id":"ce501612rcd8frsf0b60","pricing_plan_id":"cebpf4jnsgd1na2vs0mg"},{"bike_id":"de8cd051-349b-4ec1-87be-ce7e6d2af007","system_id":"levelo_inurba_marseille","lat":43.29276,"lon":5.40112,"is_reserved":false,"is_disabled":false,"rental_uris":{"android":"levelo://app?vid=de8cd051-349b-4ec1-87be-ce7e6d2af007","ios":"levelo://app?vid=de8cd051-349b-4ec1-87be-ce7e6d2af007"},"vehicle_type_id":"4","last_reported":1745950482,"current_range_meters":8400,"station_id":"ce4bh312rcd13ifvqdk0","pricing_plan_id":"cebpf4jnsgd1na2vs0mg"},{"bike_id":"caecb5e9-5094-4513-954c-617abe5faf1d","system_id":"levelo_inurba_marseille","lat":43.28427,"lon":5.34998,"is_reserved":false,"is_disabled":true,"rental_uris":{"android":"levelo://app?vid=caecb5e9-5094-4513-954c-617abe5faf1d","ios":"levelo://app?vid=caecb5e9-5094-4513-954c-617abe5faf1d"},"vehicle_type_id":"4","last_reported":1745950482,"current_range_meters":8400,"station_id":"ce4bhbh2rcd13ifvqepg","pricing_plan_id":"cebpf4jnsgd1na2vs0mg"},{"bike_id":"5bfe1845-7bf0-4793-be89-0bd02e7ff967","system_id":"levelo_inurba_marseille","lat":43.26557,"lon":5.3728,"is_reserved":false,"is_disabled":false,"rental_uris":{"android":"levelo://app?vid=5bfe1845-7bf0-4793-be89-0bd02e7ff967","ios":"levelo://app?vid=5bfe1845-7bf0-4793-be89-0bd02e7ff967"},"vehicle_type_id":"4","last_reported":1745950482,"current_range_meters":8400,"station_id":"ce4bhg12rcd13ifvqf70","pricing_plan_id":"cebpf4jnsgd1na2vs0mg"},{"bike_id":"f1a46dd9-ec48-42da-9eb7-1cca11c6e74a","system_id":"levelo_inurba_marseille","lat":43.337157,"lon":5.39183,"is_reserved":false,"is_disabled":false,"rental_uris":{"android":"levelo://app?vid=f1a46dd9-ec48-42da-9eb7-1cca11c6e74a","ios":"levelo://app?vid=f1a46dd9-ec48-42da-9eb7-1cca11c6e74a"},"vehicle_type_id":"4","last_reported":1745950482,"current_range_meters":8400,"station_id":"ce4bhr92rcd13ifvqhsg","pricing_plan_id":"cebpf4jnsgd1na2vs0mg"},{"bike_id":"736f6171-a67f-46e8-8d30-72fe2b02967b","system_id":"levelo_inurba_marseille","lat":43.24165,"lon":5.36399,"is_reserved":false,"is_disabled":false,"rental_uris":{"android":"levelo://app?vid=736f6171-a67f-46e8-8d30-72fe2b02967b","ios":"levelo://app?vid=736f6171-a67f-46e8-8d30-72fe2b02967b"},"vehicle_type_id":"4","last_reported":1745950482,"current_range_meters":8400,"station_id":"cpo36qri1sfpv3e86is0","pricing_plan_id":"cebpf4jnsgd1na2vs0mg"},{"bike_id":"f5aded10-0e57-483a-af65-7debf0e75a48","system_id":"levelo_inurba_marseille","lat":43.327123,"lon":5.39242,"is_reserved":false,"is_disabled":false,"rental_uris":{"android":"levelo://app?vid=f5aded10-0e57-483a-af65-7debf0e75a48","ios":"levelo://app?vid=f5aded10-0e57-483a-af65-7debf0e75a48"},"vehicle_type_id":"4","last_reported":1745950482,"current_range_meters":8400,"station_id":"","pricing_plan_id":"cebpf4jnsgd1na2vs0mg"},{"bike_id":"7497e739-0c50-4aa1-9f39-dfb008e37b83","system_id":"levelo_inurba_marseille","lat":43.30957,"lon":5.37144,"is_reserved":false,"is_disabled":false,"rental_uris":{"android":"levelo://app?vid=7497e739-0c50-4aa1-9f39-dfb008e37b83","ios":"levelo://app?vid=7497e739-0c50-4aa1-9f39-dfb008e37b83"},"vehicle_type_id":"4","last_reported":1745950482,"current_range_meters":8400,"station_id":"","pricing_plan_id":"cebpf4jnsgd1na2vs0mg"},{"bike_id":"40cd9c09-5d6c-4b2c-a5ec-3d25d8f86287","system_id":"levelo_inurba_marseille","lat":43.25084,"lon":5.39519,"is_reserved":false,"is_disabled":false,"rental_uris":{"android":"levelo://app?vid=40cd9c09-5d6c-4b2c-a5ec-3d25d8f86287","ios":"levelo://app?vid=40cd9c09-5d6c-4b2c-a5ec-3d25d8f86287"},"vehicle_type_id":"4","last_reported":1745950482,"current_range_meters":8800,"station_id":"ce4bhm12rcd13ifvqgkg","pricing_plan_id":"cebpf4jnsgd1na2vs0mg"},{"bike_id":"5487cfa7-d85a-4dd0-91e5-849050d291ba","system_id":"levelo_inurba_marseille","lat":43.31171,"lon":5.38724,"is_reserved":false,"is_disabled":false,"rental_uris":{"android":"levelo://app?vid=5487cfa7-d85a-4dd0-91e5-849050d291ba","ios":"levelo://app?vid=5487cfa7-d85a-4dd0-91e5-849050d291ba"},"vehicle_type_id":"4","last_reported":1745950482,"current_range_meters":9200,"station_id":"ce4bgv12rcd13ifvqcp0","pricing_plan_id":"cebpf4jnsgd1na2vs0mg"},{"bike_id":"2925466d-9f8c-4293-8855-ecfef67d3b30","system_id":"levelo_inurba_marseille","lat":43.30089,"lon":5.39065,"is_reserved":false,"is_disabled":false,"rental_uris":{"android":"levelo://app?vid=2925466d-9f8c-4293-8855-ecfef67d3b30","ios":"levelo://app?vid=2925466d-9f8c-4293-8855-ecfef67d3b30"},"vehicle_type_id":"4","last_reported":1745950482,"current_range_meters":8800,"station_id":"ce4bh192rcd13ifvqdb0","pricing_plan_id":"cebpf4jnsgd1na2vs0mg"},{"bike_id":"675f622c-7d55-4692-8fa9-36cb9fe77410","system_id":"levelo_inurba_marseille","lat":43.3032,"lon":5.40434,"is_reserved":false,"is_disabled":false,"rental_uris":{"android":"levelo://app?vid=675f622c-7d55-4692-8fa9-36cb9fe77410","ios":"levelo://app?vid=675f622c-7d55-4692-8fa9-36cb9fe77410"},"vehicle_type_id":"4","last_reported":1745950482,"current_range_meters":8800,"station_id":"ce4bh012rcd13ifvqd10","pricing_plan_id":"cebpf4jnsgd1na2vs0mg"},{"bike_id":"c7d4ca92-020f-4c6f-815a-ddc6fdf77b1f","system_id":"levelo_inurba_marseille","lat":43.23471,"lon":5.38049,"is_reserved":false,"is_disabled":false,"rental_uris":{"android":"levelo://app?vid=c7d4ca92-020f-4c6f-815a-ddc6fdf77b1f","ios":"levelo://app?vid=c7d4ca92-020f-4c6f-815a-ddc6fdf77b1f"},"vehicle_type_id":"4","last_reported":1745950482,"current_range_meters":8800,"station_id":"","pricing_plan_id":"cebpf4jnsgd1na2vs0mg"},{"bike_id":"1f8c9edf-ca87-4cd3-8eb4-bc4c5c97700c","system_id":"levelo_inurba_marseille","lat":43.27069,"lon":5.4229,"is_reserved":false,"is_disabled":false,"rental_uris":{"android":"levelo://app?vid=1f8c9edf-ca87-4cd3-8eb4-bc4c5c97700c","ios":"levelo://app?vid=1f8c9edf-ca87-4cd3-8eb4-bc4c5c97700c"},"vehicle_type_id":"4","last_reported":1745950482,"current_range_meters":12800,"station_id":"ce4bhk92rcd13ifvqgb0","pricing_plan_id":"cebpf4jnsgd1na2vs0mg"},{"bike_id":"609bbfb9-7b6d-42b4-a3da-b87354a768cf","system_id":"levelo_inurba_marseille","lat":43.28931,"lon":5.39619,"is_reserved":false,"is_disabled":false,"rental_uris":{"android":"levelo://app?vid=609bbfb9-7b6d-42b4-a3da-b87354a768cf","ios":"levelo://app?vid=609bbfb9-7b6d-42b4-a3da-b87354a768cf"},"vehicle_type_id":"4","last_reported":1745950482,"current_range_meters":8800,"station_id":"ce4bh3h2rcd13ifvqdn0","pricing_plan_id":"cebpf4jnsgd1na2vs0mg"},{"bike_id":"1e2be9f1-8c93-4fa7-b758-afd17c19027f","system_id":"levelo_inurba_marseille","lat":43.28862,"lon":5.35849,"is_reserved":false,"is_disabled":false,"rental_uris":{"android":"levelo://app?vid=1e2be9f1-8c93-4fa7-b758-afd17c19027f","ios":"levelo://app?vid=1e2be9f1-8c93-4fa7-b758-afd17c19027f"},"vehicle_type_id":"4","last_reported":1745950482,"current_range_meters":9200,"station_id":"ce4bhb12rcd13ifvqem0","pricing_plan_id":"cebpf4jnsgd1na2vs0mg"},{"bike_id":"732fbe27-3522-4e81-8f80-8544dfe3bf9e","system_id":"levelo_inurba_marseille","lat":43.32041,"lon":5.41543,"is_reserved":false,"is_disabled":false,"rental_uris":{"android":"levelo://app?vid=732fbe27-3522-4e81-8f80-8544dfe3bf9e","ios":"levelo://app?vid=732fbe27-3522-4e81-8f80-8544dfe3bf9e"},"vehicle_type_id":"4","last_reported":1745950482,"current_range_meters":9200,"station_id":"ce4bhq92rcd13ifvqhkg","pricing_plan_id":"cebpf4jnsgd1na2vs0mg"},{"bike_id":"f7601eeb-c46e-489f-a317-022ca819c5ae","system_id":"levelo_inurba_marseille","lat":43.273613,"lon":5.362463,"is_reserved":false,"is_disabled":false,"rental_uris":{"android":"levelo://app?vid=f7601eeb-c46e-489f-a317-022ca819c5ae","ios":"levelo://app?vid=f7601eeb-c46e-489f-a317-022ca819c5ae"},"vehicle_type_id":"4","last_reported":1745950482,"current_range_meters":9200,"station_id":"ce4bhbh2rcd13ifvqeo0","pricing_plan_id":"cebpf4jnsgd1na2vs0mg"},{"bike_id":"8b883e1e-1354-44e8-82e3-245331ec502e","system_id":"levelo_inurba_marseille","lat":43.308068,"lon":5.435193,"is_reserved":false,"is_disabled":false,"rental_uris":{"android":"levelo://app?vid=8b883e1e-1354-44e8-82e3-245331ec502e","ios":"levelo://app?vid=8b883e1e-1354-44e8-82e3-245331ec502e"},"vehicle_type_id":"4","last_reported":1745950482,"current_range_meters":9200,"station_id":"ce4bhph2rcd13ifvqheg","pricing_plan_id":"cebpf4jnsgd1na2vs0mg"},{"bike_id":"32eb6ec8-aa11-4f7e-9f24-e98841321896","system_id":"levelo_inurba_marseille","lat":43.25863,"lon":5.39897,"is_reserved":false,"is_disabled":false,"rental_uris":{"android":"levelo://app?vid=32eb6ec8-aa11-4f7e-9f24-e98841321896","ios":"levelo://app?vid=32eb6ec8-aa11-4f7e-9f24-e98841321896"},"vehicle_type_id":"4","last_reported":1745950482,"current_range_meters":8800,"station_id":"ce4bhl92rcd13ifvqghg","pricing_plan_id":"cebpf4jnsgd1na2vs0mg"},{"bike_id":"b96f21bb-69d8-4cbf-b464-f36a8f53d6e0","system_id":"levelo_inurba_marseille","lat":43.26025,"lon":5.4176,"is_reserved":false,"is_disabled":false,"rental_uris":{"android":"levelo://app?vid=b96f21bb-69d8-4cbf-b464-f36a8f53d6e0","ios":"levelo://app?vid=b96f21bb-69d8-4cbf-b464-f36a8f53d6e0"},"vehicle_type_id":"4","last_reported":1745950482,"current_range_meters":9200,"station_id":"","pricing_plan_id":"cebpf4jnsgd1na2vs0mg"},{"bike_id":"cbda7c2d-8f39-4af3-8ea6-71807b3b4b25","system_id":"levelo_inurba_marseille","lat":43.30137,"lon":5.38784,"is_reserved":false,"is_disabled":false,"rental_uris":{"android":"levelo://app?vid=cbda7c2d-8f39-4af3-8ea6-71807b3b4b25","ios":"levelo://app?vid=cbda7c2d-8f39-4af3-8ea6-71807b3b4b25"},"vehicle_type_id":"4","last_reported":1745950482,"current_range_meters":8800,"station_id":"ce4bghh2rcd13ifvqb60","pricing_plan_id":"cebpf4jnsgd1na2vs0mg"},{"bike_id":"6bc5786b-239c-4786-86d9-1995ba452aac","system_id":"levelo_inurba_marseille","lat":43.288303,"lon":5.393019,"is_reserved":false,"is_disabled":false,"rental_uris":{"android":"levelo://app?vid=6bc5786b-239c-4786-86d9-1995ba452aac","ios":"levelo://app?vid=6bc5786b-239c-4786-86d9-1995ba452aac"},"vehicle_type_id":"4","last_reported":1745950482,"current_range_meters":13600,"station_id":"ce4bh392rcd13ifvqdm0","pricing_plan_id":"cebpf4jnsgd1na2vs0mg"},{"bike_id":"b78b2f99-98cf-4609-80ca-bb99937c5dc3","system_id":"levelo_inurba_marseille","lat":43.30133,"lon":5.38773,"is_reserved":false,"is_disabled":false,"rental_uris":{"android":"levelo://app?vid=b78b2f99-98cf-4609-80ca-bb99937c5dc3","ios":"levelo://app?vid=b78b2f99-98cf-4609-80ca-bb99937c5dc3"},"vehicle_type_id":"4","last_reported":1745950482,"current_range_meters":9200,"station_id":"ce4bghh2rcd13ifvqb60","pricing_plan_id":"cebpf4jnsgd1na2vs0mg"},{"bike_id":"7cb5cf69-00e5-4e8d-9279-54814f876b11","system_id":"levelo_inurba_marseille","lat":43.28166,"lon":5.44322,"is_reserved":false,"is_disabled":false,"rental_uris":{"android":"levelo://app?vid=7cb5cf69-00e5-4e8d-9279-54814f876b11","ios":"levelo://app?vid=7cb5cf69-00e5-4e8d-9279-54814f876b11"},"vehicle_type_id":"4","last_reported":1745950482,"current_range_meters":9600,"station_id":"","pricing_plan_id":"cebpf4jnsgd1na2vs0mg"},{"bike_id":"6430b1bc-9c3c-45e6-bdd3-2537d717f555","system_id":"levelo_inurba_marseille","lat":43.31684,"lon":5.40483,"is_reserved":false,"is_disabled":false,"rental_uris":{"android":"levelo://app?vid=6430b1bc-9c3c-45e6-bdd3-2537d717f555","ios":"levelo://app?vid=6430b1bc-9c3c-45e6-bdd3-2537d717f555"},"vehicle_type_id":"4","last_reported":1745950482,"current_range_meters":9600,"station_id":"ce4bh012rcd13ifvqd00","pricing_plan_id":"cebpf4jnsgd1na2vs0mg"},{"bike_id":"5836a6ba-325a-41e2-92c0-3359d340dd3d","system_id":"levelo_inurba_marseille","lat":43.29199,"lon":5.35786,"is_reserved":false,"is_disabled":true,"rental_uris":{"android":"levelo://app?vid=5836a6ba-325a-41e2-92c0-3359d340dd3d","ios":"levelo://app?vid=5836a6ba-325a-41e2-92c0-3359d340dd3d"},"vehicle_type_id":"4","last_reported":1745950482,"current_range_meters":9600,"station_id":"ce4bhb12rcd13ifvqel0","pricing_plan_id":"cebpf4jnsgd1na2vs0mg"},{"bike_id":"556211a0-6eaf-4c61-9f60-1d6b9fea75fc","system_id":"levelo_inurba_marseille","lat":43.27321,"lon":5.39077,"is_reserved":false,"is_disabled":false,"rental_uris":{"android":"levelo://app?vid=556211a0-6eaf-4c61-9f60-1d6b9fea75fc","ios":"levelo://app?vid=556211a0-6eaf-4c61-9f60-1d6b9fea75fc"},"vehicle_type_id":"4","last_reported":1745950482,"current_range_meters":9600,"station_id":"ce4bhgp2rcd13ifvqfe0","pricing_plan_id":"cebpf4jnsgd1na2vs0mg"},{"bike_id":"5b991949-2d2a-4020-b20a-fdc736cf8301","system_id":"levelo_inurba_marseille","lat":43.29412,"lon":5.38603,"is_reserved":false,"is_disabled":false,"rental_uris":{"android":"levelo://app?vid=5b991949-2d2a-4020-b20a-fdc736cf8301","ios":"levelo://app?vid=5b991949-2d2a-4020-b20a-fdc736cf8301"},"vehicle_type_id":"4","last_reported":1745950482,"current_range_meters":9600,"station_id":"ce4bh2h2rcd13ifvqdh0","pricing_plan_id":"cebpf4jnsgd1na2vs0mg"},{"bike_id":"5ade9168-66ce-4fca-9009-6753aa91703e","system_id":"levelo_inurba_marseille","lat":43.2943,"lon":5.39763,"is_reserved":false,"is_disabled":false,"rental_uris":{"android":"levelo://app?vid=5ade9168-66ce-4fca-9009-6753aa91703e","ios":"levelo://app?vid=5ade9168-66ce-4fca-9009-6753aa91703e"},"vehicle_type_id":"4","last_reported":1745950482,"current_range_meters":9600,"station_id":"ce4bh3h2rcd13ifvqdo0","pricing_plan_id":"cebpf4jnsgd1na2vs0mg"},{"bike_id":"85b2f30e-7366-4169-b03e-d83e75acca12","system_id":"levelo_inurba_marseille","lat":43.30086,"lon":5.39079,"is_reserved":false,"is_disabled":false,"rental_uris":{"android":"levelo://app?vid=85b2f30e-7366-4169-b03e-d83e75acca12","ios":"levelo://app?vid=85b2f30e-7366-4169-b03e-d83e75acca12"},"vehicle_type_id":"4","last_reported":1745950482,"current_range_meters":9200,"station_id":"ce4bh192rcd13ifvqdb0","pricing_plan_id":"cebpf4jnsgd1na2vs0mg"},{"bike_id":"0d9d1194-6968-4ee2-b7a3-fc7f1f23ffce","system_id":"levelo_inurba_marseille","lat":43.27367,"lon":5.3625,"is_reserved":false,"is_disabled":false,"rental_uris":{"android":"levelo://app?vid=0d9d1194-6968-4ee2-b7a3-fc7f1f23ffce","ios":"levelo://app?vid=0d9d1194-6968-4ee2-b7a3-fc7f1f23ffce"},"vehicle_type_id":"4","last_reported":1745950482,"current_range_meters":10000,"station_id":"ce4bhbh2rcd13ifvqeo0","pricing_plan_id":"cebpf4jnsgd1na2vs0mg"},{"bike_id":"28894e81-ede6-4351-84e3-e6b48081a345","system_id":"levelo_inurba_marseille","lat":43.33461,"lon":5.39997,"is_reserved":false,"is_disabled":false,"rental_uris":{"android":"levelo://app?vid=28894e81-ede6-4351-84e3-e6b48081a345","ios":"levelo://app?vid=28894e81-ede6-4351-84e3-e6b48081a345"},"vehicle_type_id":"4","last_reported":1745950482,"current_range_meters":10000,"station_id":"","pricing_plan_id":"cebpf4jnsgd1na2vs0mg"},{"bike_id":"58e3571b-987b-4e4d-bd2c-1cf88f60fc6b","system_id":"levelo_inurba_marseille","lat":43.25501,"lon":5.37649,"is_reserved":false,"is_disabled":false,"rental_uris":{"android":"levelo://app?vid=58e3571b-987b-4e4d-bd2c-1cf88f60fc6b","ios":"levelo://app?vid=58e3571b-987b-4e4d-bd2c-1cf88f60fc6b"},"vehicle_type_id":"4","last_reported":1745950482,"current_range_meters":10000,"station_id":"ce4bhh12rcd13ifvqff0","pricing_plan_id":"cebpf4jnsgd1na2vs0mg"},{"bike_id":"5eebf6c3-f2c9-441b-89f1-1a46e8e47179","system_id":"levelo_inurba_marseille","lat":43.23794,"lon":5.3617,"is_reserved":false,"is_disabled":false,"rental_uris":{"android":"levelo://app?vid=5eebf6c3-f2c9-441b-89f1-1a46e8e47179","ios":"levelo://app?vid=5eebf6c3-f2c9-441b-89f1-1a46e8e47179"},"vehicle_type_id":"4","last_reported":1745950482,"current_range_meters":10000,"station_id":"","pricing_plan_id":"cebpf4jnsgd1na2vs0mg"},{"bike_id":"9ce5ee92-af77-4d08-b91d-50368cebe3eb","system_id":"levelo_inurba_marseille","lat":43.30088,"lon":5.39069,"is_reserved":false,"is_disabled":false,"rental_uris":{"android":"levelo://app?vid=9ce5ee92-af77-4d08-b91d-50368cebe3eb","ios":"levelo://app?vid=9ce5ee92-af77-4d08-b91d-50368cebe3eb"},"vehicle_type_id":"4","last_reported":1745950482,"current_range_meters":9600,"station_id":"ce4bh192rcd13ifvqdb0","pricing_plan_id":"cebpf4jnsgd1na2vs0mg"},{"bike_id":"561b2f84-08e7-4121-bad8-f7a2a19f1511","system_id":"levelo_inurba_marseille","lat":43.28073,"lon":5.39623,"is_reserved":false,"is_disabled":false,"rental_uris":{"android":"levelo://app?vid=561b2f84-08e7-4121-bad8-f7a2a19f1511","ios":"levelo://app?vid=561b2f84-08e7-4121-bad8-f7a2a19f1511"},"vehicle_type_id":"4","last_reported":1745950482,"current_range_meters":10000,"station_id":"ce4bho12rcd13ifvqh2g","pricing_plan_id":"cebpf4jnsgd1na2vs0mg"},{"bike_id":"1e2125e8-1ef7-4c96-ae95-711f7965b412","system_id":"levelo_inurba_marseille","lat":43.28648,"lon":5.35087,"is_reserved":false,"is_disabled":false,"rental_uris":{"android":"levelo://app?vid=1e2125e8-1ef7-4c96-ae95-711f7965b412","ios":"levelo://app?vid=1e2125e8-1ef7-4c96-ae95-711f7965b412"},"vehicle_type_id":"4","last_reported":1745950482,"current_range_meters":10000,"station_id":"ce4bhch2rcd13ifvqeug","pricing_plan_id":"cebpf4jnsgd1na2vs0mg"},{"bike_id":"4b5c4e8b-e9a2-4bca-a9e3-1d64c843cee3","system_id":"levelo_inurba_marseille","lat":43.28153,"lon":5.42643,"is_reserved":false,"is_disabled":false,"rental_uris":{"android":"levelo://app?vid=4b5c4e8b-e9a2-4bca-a9e3-1d64c843cee3","ios":"levelo://app?vid=4b5c4e8b-e9a2-4bca-a9e3-1d64c843cee3"},"vehicle_type_id":"4","last_reported":1745950482,"current_range_meters":9600,"station_id":"ce4bhnh2rcd13ifvqgug","pricing_plan_id":"cebpf4jnsgd1na2vs0mg"},{"bike_id":"b22575d1-cdd9-4d28-a4a1-f26639bb2814","system_id":"levelo_inurba_marseille","lat":43.29893,"lon":5.39728,"is_reserved":false,"is_disabled":false,"rental_uris":{"android":"levelo://app?vid=b22575d1-cdd9-4d28-a4a1-f26639bb2814","ios":"levelo://app?vid=b22575d1-cdd9-4d28-a4a1-f26639bb2814"},"vehicle_type_id":"4","last_reported":1745950482,"current_range_meters":10000,"station_id":"ce4bh0h2rcd13ifvqd50","pricing_plan_id":"cebpf4jnsgd1na2vs0mg"},{"bike_id":"140f7be3-726c-41cd-aa20-2bedd4ddf2bb","system_id":"levelo_inurba_marseille","lat":43.29528,"lon":5.38535,"is_reserved":false,"is_disabled":false,"rental_uris":{"android":"levelo://app?vid=140f7be3-726c-41cd-aa20-2bedd4ddf2bb","ios":"levelo://app?vid=140f7be3-726c-41cd-aa20-2bedd4ddf2bb"},"vehicle_type_id":"4","last_reported":1745950482,"current_range_meters":10800,"station_id":"ce4bgih2rcd13ifvqba0","pricing_plan_id":"cebpf4jnsgd1na2vs0mg"},{"bike_id":"4607ed47-f695-4e8d-9e2b-ae8a1b8170e1","system_id":"levelo_inurba_marseille","lat":43.31711,"lon":5.43704,"is_reserved":false,"is_disabled":false,"rental_uris":{"android":"levelo://app?vid=4607ed47-f695-4e8d-9e2b-ae8a1b8170e1","ios":"levelo://app?vid=4607ed47-f695-4e8d-9e2b-ae8a1b8170e1"},"vehicle_type_id":"4","last_reported":1745950482,"current_range_meters":10800,"station_id":"ce4bhp92rcd13ifvqhcg","pricing_plan_id":"cebpf4jnsgd1na2vs0mg"},{"bike_id":"8a9b54c3-faf4-482f-a1b9-3d2434f4fe86","system_id":"levelo_inurba_marseille","lat":43.29307,"lon":5.37179,"is_reserved":false,"is_disabled":false,"rental_uris":{"android":"levelo://app?vid=8a9b54c3-faf4-482f-a1b9-3d2434f4fe86","ios":"levelo://app?vid=8a9b54c3-faf4-482f-a1b9-3d2434f4fe86"},"vehicle_type_id":"4","last_reported":1745950482,"current_range_meters":10800,"station_id":"ce4bgh92rcd13ifvqb40","pricing_plan_id":"cebpf4jnsgd1na2vs0mg"},{"bike_id":"e239d039-e789-433b-b3d3-f06537108c02","system_id":"levelo_inurba_marseille","lat":43.28859,"lon":5.39314,"is_reserved":false,"is_disabled":false,"rental_uris":{"android":"levelo://app?vid=e239d039-e789-433b-b3d3-f06537108c02","ios":"levelo://app?vid=e239d039-e789-433b-b3d3-f06537108c02"},"vehicle_type_id":"4","last_reported":1745950482,"current_range_meters":10800,"station_id":"ce4bh2p2rcd13ifvqdi0","pricing_plan_id":"cebpf4jnsgd1na2vs0mg"},{"bike_id":"7e469c8a-775f-4847-9272-15ede451fc0b","system_id":"levelo_inurba_marseille","lat":43.27377,"lon":5.36252,"is_reserved":false,"is_disabled":false,"rental_uris":{"android":"levelo://app?vid=7e469c8a-775f-4847-9272-15ede451fc0b","ios":"levelo://app?vid=7e469c8a-775f-4847-9272-15ede451fc0b"},"vehicle_type_id":"4","last_reported":1745950482,"current_range_meters":10800,"station_id":"ce4bhbh2rcd13ifvqeo0","pricing_plan_id":"cebpf4jnsgd1na2vs0mg"},{"bike_id":"bcbdece9-18a4-4ced-8494-9c131639e5f6","system_id":"levelo_inurba_marseille","lat":43.2612,"lon":5.41478,"is_reserved":false,"is_disabled":false,"rental_uris":{"android":"levelo://app?vid=bcbdece9-18a4-4ced-8494-9c131639e5f6","ios":"levelo://app?vid=bcbdece9-18a4-4ced-8494-9c131639e5f6"},"vehicle_type_id":"4","last_reported":1745950482,"current_range_meters":10800,"station_id":"","pricing_plan_id":"cebpf4jnsgd1na2vs0mg"},{"bike_id":"c94ae869-e2cf-49a7-a842-715220df1e7b","system_id":"levelo_inurba_marseille","lat":43.30636,"lon":5.40082,"is_reserved":false,"is_disabled":false,"rental_uris":{"android":"levelo://app?vid=c94ae869-e2cf-49a7-a842-715220df1e7b","ios":"levelo://app?vid=c94ae869-e2cf-49a7-a842-715220df1e7b"},"vehicle_type_id":"4","last_reported":1745950482,"current_range_meters":10800,"station_id":"ce4bh112rcd13ifvqda0","pricing_plan_id":"cebpf4jnsgd1na2vs0mg"},{"bike_id":"33f7f3aa-ffb1-443b-8bef-ae839935be0a","system_id":"levelo_inurba_marseille","lat":43.2862,"lon":5.35093,"is_reserved":false,"is_disabled":false,"rental_uris":{"android":"levelo://app?vid=33f7f3aa-ffb1-443b-8bef-ae839935be0a","ios":"levelo://app?vid=33f7f3aa-ffb1-443b-8bef-ae839935be0a"},"vehicle_type_id":"4","last_reported":1745950482,"current_range_meters":10800,"station_id":"ce4bhch2rcd13ifvqeug","pricing_plan_id":"cebpf4jnsgd1na2vs0mg"},{"bike_id":"1be6b8de-5ed4-4d8a-9cd6-aeff3b5c0661","system_id":"levelo_inurba_marseille","lat":43.28983,"lon":5.37832,"is_reserved":false,"is_disabled":true,"rental_uris":{"android":"levelo://app?vid=1be6b8de-5ed4-4d8a-9cd6-aeff3b5c0661","ios":"levelo://app?vid=1be6b8de-5ed4-4d8a-9cd6-aeff3b5c0661"},"vehicle_type_id":"4","last_reported":1745950482,"current_range_meters":11200,"station_id":"ce4bh9p2rcd13ifvqed0","pricing_plan_id":"cebpf4jnsgd1na2vs0mg"},{"bike_id":"8fcbd657-a49b-4b8f-8fc0-d3ac116d7bc1","system_id":"levelo_inurba_marseille","lat":43.30134,"lon":5.38778,"is_reserved":false,"is_disabled":false,"rental_uris":{"android":"levelo://app?vid=8fcbd657-a49b-4b8f-8fc0-d3ac116d7bc1","ios":"levelo://app?vid=8fcbd657-a49b-4b8f-8fc0-d3ac116d7bc1"},"vehicle_type_id":"4","last_reported":1745950482,"current_range_meters":11600,"station_id":"ce4bghh2rcd13ifvqb60","pricing_plan_id":"cebpf4jnsgd1na2vs0mg"},{"bike_id":"c8d60d19-03a3-4b4e-87b6-99f9ac00d02d","system_id":"levelo_inurba_marseille","lat":43.24661,"lon":5.38157,"is_reserved":false,"is_disabled":false,"rental_uris":{"android":"levelo://app?vid=c8d60d19-03a3-4b4e-87b6-99f9ac00d02d","ios":"levelo://app?vid=c8d60d19-03a3-4b4e-87b6-99f9ac00d02d"},"vehicle_type_id":"4","last_reported":1745950482,"current_range_meters":11600,"station_id":"ce4bhih2rcd13ifvqfr0","pricing_plan_id":"cebpf4jnsgd1na2vs0mg"},{"bike_id":"f6afadf8-e6ff-4c7a-8692-5caf68fd0b71","system_id":"levelo_inurba_marseille","lat":43.22927,"lon":5.35394,"is_reserved":false,"is_disabled":true,"rental_uris":{"android":"levelo://app?vid=f6afadf8-e6ff-4c7a-8692-5caf68fd0b71","ios":"levelo://app?vid=f6afadf8-e6ff-4c7a-8692-5caf68fd0b71"},"vehicle_type_id":"4","last_reported":1745950482,"current_range_meters":11600,"station_id":"cpo3532slgdg3j2ikp40","pricing_plan_id":"cebpf4jnsgd1na2vs0mg"},{"bike_id":"c527bbef-e696-4ef5-8ede-927e5803cf67","system_id":"levelo_inurba_marseille","lat":43.28612,"lon":5.35101,"is_reserved":false,"is_disabled":false,"rental_uris":{"android":"levelo://app?vid=c527bbef-e696-4ef5-8ede-927e5803cf67","ios":"levelo://app?vid=c527bbef-e696-4ef5-8ede-927e5803cf67"},"vehicle_type_id":"4","last_reported":1745950482,"current_range_meters":12000,"station_id":"ce4bhch2rcd13ifvqeug","pricing_plan_id":"cebpf4jnsgd1na2vs0mg"},{"bike_id":"b7033eb9-5033-40e6-b520-8c38702c1fc6","system_id":"levelo_inurba_marseille","lat":43.28942,"lon":5.36398,"is_reserved":false,"is_disabled":false,"rental_uris":{"android":"levelo://app?vid=b7033eb9-5033-40e6-b520-8c38702c1fc6","ios":"levelo://app?vid=b7033eb9-5033-40e6-b520-8c38702c1fc6"},"vehicle_type_id":"4","last_reported":1745950482,"current_range_meters":11200,"station_id":"ce4bhc92rcd13ifvqetg","pricing_plan_id":"cebpf4jnsgd1na2vs0mg"},{"bike_id":"06b23fcf-d155-46c0-acd2-5b59645454ea","system_id":"levelo_inurba_marseille","lat":43.28471,"lon":5.38438,"is_reserved":false,"is_disabled":true,"rental_uris":{"android":"levelo://app?vid=06b23fcf-d155-46c0-acd2-5b59645454ea","ios":"levelo://app?vid=06b23fcf-d155-46c0-acd2-5b59645454ea"},"vehicle_type_id":"4","last_reported":1745950482,"current_range_meters":12000,"station_id":"ce4bh512rcd13ifvqe3g","pricing_plan_id":"cebpf4jnsgd1na2vs0mg"},{"bike_id":"24874d25-6733-4544-ad71-9df2fa772748","system_id":"levelo_inurba_marseille","lat":43.286095,"lon":5.35107,"is_reserved":false,"is_disabled":false,"rental_uris":{"android":"levelo://app?vid=24874d25-6733-4544-ad71-9df2fa772748","ios":"levelo://app?vid=24874d25-6733-4544-ad71-9df2fa772748"},"vehicle_type_id":"4","last_reported":1745950482,"current_range_meters":12000,"station_id":"ce4bhch2rcd13ifvqeug","pricing_plan_id":"cebpf4jnsgd1na2vs0mg"},{"bike_id":"77c59250-8359-4942-8c07-a9c82964e824","system_id":"levelo_inurba_marseille","lat":43.2849,"lon":5.35882,"is_reserved":false,"is_disabled":true,"rental_uris":{"android":"levelo://app?vid=77c59250-8359-4942-8c07-a9c82964e824","ios":"levelo://app?vid=77c59250-8359-4942-8c07-a9c82964e824"},"vehicle_type_id":"4","last_reported":1745950482,"current_range_meters":12000,"station_id":"ce4bhah2rcd13ifvqei0","pricing_plan_id":"cebpf4jnsgd1na2vs0mg"},{"bike_id":"0638fd89-62cd-45f6-8a59-ad6356267d31","system_id":"levelo_inurba_marseille","lat":43.28419,"lon":5.34989,"is_reserved":false,"is_disabled":false,"rental_uris":{"android":"levelo://app?vid=0638fd89-62cd-45f6-8a59-ad6356267d31","ios":"levelo://app?vid=0638fd89-62cd-45f6-8a59-ad6356267d31"},"vehicle_type_id":"4","last_reported":1745950482,"current_range_meters":12000,"station_id":"ce4bhbh2rcd13ifvqepg","pricing_plan_id":"cebpf4jnsgd1na2vs0mg"},{"bike_id":"eaf2d4f6-a598-482e-a210-9c5102554d38","system_id":"levelo_inurba_marseille","lat":43.27423,"lon":5.39422,"is_reserved":false,"is_disabled":false,"rental_uris":{"android":"levelo://app?vid=eaf2d4f6-a598-482e-a210-9c5102554d38","ios":"levelo://app?vid=eaf2d4f6-a598-482e-a210-9c5102554d38"},"vehicle_type_id":"4","last_reported":1745950482,"current_range_meters":11600,"station_id":"ce4bhdp2rcd13ifvqf20","pricing_plan_id":"cebpf4jnsgd1na2vs0mg"},{"bike_id":"07d1be92-ba24-4925-8051-e4f0bf4e6b44","system_id":"levelo_inurba_marseille","lat":43.24805,"lon":5.37456,"is_reserved":false,"is_disabled":false,"rental_uris":{"android":"levelo://app?vid=07d1be92-ba24-4925-8051-e4f0bf4e6b44","ios":"levelo://app?vid=07d1be92-ba24-4925-8051-e4f0bf4e6b44"},"vehicle_type_id":"4","last_reported":1745950482,"current_range_meters":12000,"station_id":"ce4bhgh2rcd13ifvqfb0","pricing_plan_id":"cebpf4jnsgd1na2vs0mg"},{"bike_id":"1c6e2801-d406-4688-a913-a775da6b0f13","system_id":"levelo_inurba_marseille","lat":43.22928,"lon":5.35374,"is_reserved":false,"is_disabled":false,"rental_uris":{"android":"levelo://app?vid=1c6e2801-d406-4688-a913-a775da6b0f13","ios":"levelo://app?vid=1c6e2801-d406-4688-a913-a775da6b0f13"},"vehicle_type_id":"4","last_reported":1745950482,"current_range_meters":12000,"station_id":"cpo3532slgdg3j2ikp40","pricing_plan_id":"cebpf4jnsgd1na2vs0mg"},{"bike_id":"34b898ae-5e99-4b38-989d-4d18110becfe","system_id":"levelo_inurba_marseille","lat":43.2893,"lon":5.38394,"is_reserved":false,"is_disabled":false,"rental_uris":{"android":"levelo://app?vid=34b898ae-5e99-4b38-989d-4d18110becfe","ios":"levelo://app?vid=34b898ae-5e99-4b38-989d-4d18110becfe"},"vehicle_type_id":"4","last_reported":1745950482,"current_range_meters":12400,"station_id":"ce4bh612rcd13ifvqe6g","pricing_plan_id":"cebpf4jnsgd1na2vs0mg"},{"bike_id":"ec894e34-9ac6-4ee9-9552-9e9772533c7d","system_id":"levelo_inurba_marseille","lat":43.29983,"lon":5.38507,"is_reserved":false,"is_disabled":false,"rental_uris":{"android":"levelo://app?vid=ec894e34-9ac6-4ee9-9552-9e9772533c7d","ios":"levelo://app?vid=ec894e34-9ac6-4ee9-9552-9e9772533c7d"},"vehicle_type_id":"4","last_reported":1745950482,"current_range_meters":12400,"station_id":"ce4bgj92rcd13ifvqbd0","pricing_plan_id":"cebpf4jnsgd1na2vs0mg"},{"bike_id":"8adb7d9a-e728-409a-96e3-e59baffd82ce","system_id":"levelo_inurba_marseille","lat":43.292712,"lon":5.38445,"is_reserved":false,"is_disabled":false,"rental_uris":{"android":"levelo://app?vid=8adb7d9a-e728-409a-96e3-e59baffd82ce","ios":"levelo://app?vid=8adb7d9a-e728-409a-96e3-e59baffd82ce"},"vehicle_type_id":"4","last_reported":1745950482,"current_range_meters":12400,"station_id":"ce4bh0h2rcd13ifvqd50","pricing_plan_id":"cebpf4jnsgd1na2vs0mg"},{"bike_id":"e27c9434-7cad-426a-accf-7de8131c5123","system_id":"levelo_inurba_marseille","lat":43.28634,"lon":5.35094,"is_reserved":false,"is_disabled":false,"rental_uris":{"android":"levelo://app?vid=e27c9434-7cad-426a-accf-7de8131c5123","ios":"levelo://app?vid=e27c9434-7cad-426a-accf-7de8131c5123"},"vehicle_type_id":"4","last_reported":1745950482,"current_range_meters":12400,"station_id":"ce4bhch2rcd13ifvqeug","pricing_plan_id":"cebpf4jnsgd1na2vs0mg"},{"bike_id":"1d20f6b1-0e9a-4517-977b-a4ca455de4b9","system_id":"levelo_inurba_marseille","lat":43.29258,"lon":5.38433,"is_reserved":false,"is_disabled":false,"rental_uris":{"android":"levelo://app?vid=1d20f6b1-0e9a-4517-977b-a4ca455de4b9","ios":"levelo://app?vid=1d20f6b1-0e9a-4517-977b-a4ca455de4b9"},"vehicle_type_id":"4","last_reported":1745950482,"current_range_meters":12400,"station_id":"ce4bh692rcd13ifvqea0","pricing_plan_id":"cebpf4jnsgd1na2vs0mg"},{"bike_id":"489415b8-9254-45c1-b00c-e7554d56755c","system_id":"levelo_inurba_marseille","lat":43.24546,"lon":5.41179,"is_reserved":false,"is_disabled":false,"rental_uris":{"android":"levelo://app?vid=489415b8-9254-45c1-b00c-e7554d56755c","ios":"levelo://app?vid=489415b8-9254-45c1-b00c-e7554d56755c"},"vehicle_type_id":"4","last_reported":1745950482,"current_range_meters":12800,"station_id":"","pricing_plan_id":"cebpf4jnsgd1na2vs0mg"},{"bike_id":"3ae641eb-772b-47f4-9c6f-a55115e8b3d3","system_id":"levelo_inurba_marseille","lat":43.29179,"lon":5.35777,"is_reserved":false,"is_disabled":true,"rental_uris":{"android":"levelo://app?vid=3ae641eb-772b-47f4-9c6f-a55115e8b3d3","ios":"levelo://app?vid=3ae641eb-772b-47f4-9c6f-a55115e8b3d3"},"vehicle_type_id":"4","last_reported":1745950482,"current_range_meters":12800,"station_id":"ce4bhb12rcd13ifvqel0","pricing_plan_id":"cebpf4jnsgd1na2vs0mg"},{"bike_id":"358165f5-584c-4c30-9537-ca0b7d4446bc","system_id":"levelo_inurba_marseille","lat":43.22925,"lon":5.35384,"is_reserved":false,"is_disabled":false,"rental_uris":{"android":"levelo://app?vid=358165f5-584c-4c30-9537-ca0b7d4446bc","ios":"levelo://app?vid=358165f5-584c-4c30-9537-ca0b7d4446bc"},"vehicle_type_id":"4","last_reported":1745950482,"current_range_meters":12800,"station_id":"cpo3532slgdg3j2ikp40","pricing_plan_id":"cebpf4jnsgd1na2vs0mg"},{"bike_id":"e4ee179f-d577-4c2b-a8d4-b52ea92af9ba","system_id":"levelo_inurba_marseille","lat":43.27378,"lon":5.36255,"is_reserved":false,"is_disabled":false,"rental_uris":{"android":"levelo://app?vid=e4ee179f-d577-4c2b-a8d4-b52ea92af9ba","ios":"levelo://app?vid=e4ee179f-d577-4c2b-a8d4-b52ea92af9ba"},"vehicle_type_id":"4","last_reported":1745950482,"current_range_meters":12800,"station_id":"ce4bhbh2rcd13ifvqeo0","pricing_plan_id":"cebpf4jnsgd1na2vs0mg"},{"bike_id":"07edfd45-c3fa-4b57-b865-cf1bf9963264","system_id":"levelo_inurba_marseille","lat":43.23384,"lon":5.36416,"is_reserved":false,"is_disabled":false,"rental_uris":{"android":"levelo://app?vid=07edfd45-c3fa-4b57-b865-cf1bf9963264","ios":"levelo://app?vid=07edfd45-c3fa-4b57-b865-cf1bf9963264"},"vehicle_type_id":"4","last_reported":1745950482,"current_range_meters":12800,"station_id":"","pricing_plan_id":"cebpf4jnsgd1na2vs0mg"},{"bike_id":"071a671b-fb53-468b-ba8f-96ef79b57233","system_id":"levelo_inurba_marseille","lat":43.32356,"lon":5.36672,"is_reserved":false,"is_disabled":false,"rental_uris":{"android":"levelo://app?vid=071a671b-fb53-468b-ba8f-96ef79b57233","ios":"levelo://app?vid=071a671b-fb53-468b-ba8f-96ef79b57233"},"vehicle_type_id":"4","last_reported":1745950482,"current_range_meters":12800,"station_id":"","pricing_plan_id":"cebpf4jnsgd1na2vs0mg"},{"bike_id":"0e2c9c73-c273-4398-a5c4-2bd0ccd0ff1c","system_id":"levelo_inurba_marseille","lat":43.28935,"lon":5.36647,"is_reserved":false,"is_disabled":false,"rental_uris":{"android":"levelo://app?vid=0e2c9c73-c273-4398-a5c4-2bd0ccd0ff1c","ios":"levelo://app?vid=0e2c9c73-c273-4398-a5c4-2bd0ccd0ff1c"},"vehicle_type_id":"4","last_reported":1745950482,"current_range_meters":12800,"station_id":"ce4bhap2rcd13ifvqek0","pricing_plan_id":"cebpf4jnsgd1na2vs0mg"},{"bike_id":"c5e5dde2-45a1-41b7-aaa5-f9186c1dd6ce","system_id":"levelo_inurba_marseille","lat":43.27564,"lon":5.38424,"is_reserved":false,"is_disabled":false,"rental_uris":{"android":"levelo://app?vid=c5e5dde2-45a1-41b7-aaa5-f9186c1dd6ce","ios":"levelo://app?vid=c5e5dde2-45a1-41b7-aaa5-f9186c1dd6ce"},"vehicle_type_id":"4","last_reported":1745950482,"current_range_meters":12800,"station_id":"ce4bhh92rcd13ifvqfi0","pricing_plan_id":"cebpf4jnsgd1na2vs0mg"},{"bike_id":"c8eaf37c-b100-4d18-8e88-97be3cedc118","system_id":"levelo_inurba_marseille","lat":43.27176,"lon":5.40996,"is_reserved":false,"is_disabled":false,"rental_uris":{"android":"levelo://app?vid=c8eaf37c-b100-4d18-8e88-97be3cedc118","ios":"levelo://app?vid=c8eaf37c-b100-4d18-8e88-97be3cedc118"},"vehicle_type_id":"4","last_reported":1745950482,"current_range_meters":12800,"station_id":"ce4bhl12rcd13ifvqgf0","pricing_plan_id":"cebpf4jnsgd1na2vs0mg"},{"bike_id":"3a9bd96a-1d84-454e-b55b-a4ef583e3749","system_id":"levelo_inurba_marseille","lat":43.266946,"lon":5.382581,"is_reserved":false,"is_disabled":true,"rental_uris":{"android":"levelo://app?vid=3a9bd96a-1d84-454e-b55b-a4ef583e3749","ios":"levelo://app?vid=3a9bd96a-1d84-454e-b55b-a4ef583e3749"},"vehicle_type_id":"4","last_reported":1745950482,"current_range_meters":13600,"station_id":"ce4bhg92rcd13ifvqf90","pricing_plan_id":"cebpf4jnsgd1na2vs0mg"},{"bike_id":"2b01d62e-170d-4ab4-9b5e-f578190efb7b","system_id":"levelo_inurba_marseille","lat":43.29,"lon":5.35617,"is_reserved":false,"is_disabled":false,"rental_uris":{"android":"levelo://app?vid=2b01d62e-170d-4ab4-9b5e-f578190efb7b","ios":"levelo://app?vid=2b01d62e-170d-4ab4-9b5e-f578190efb7b"},"vehicle_type_id":"4","last_reported":1745950482,"current_range_meters":13600,"station_id":"ce4bhb92rcd13ifvqen0","pricing_plan_id":"cebpf4jnsgd1na2vs0mg"},{"bike_id":"28a604ef-98c1-4aff-ab31-a10d3a8eae96","system_id":"levelo_inurba_marseille","lat":43.29556,"lon":5.37497,"is_reserved":false,"is_disabled":true,"rental_uris":{"android":"levelo://app?vid=28a604ef-98c1-4aff-ab31-a10d3a8eae96","ios":"levelo://app?vid=28a604ef-98c1-4aff-ab31-a10d3a8eae96"},"vehicle_type_id":"4","last_reported":1745950482,"current_range_meters":13600,"station_id":"ce4bgh92rcd13ifvqb50","pricing_plan_id":"cebpf4jnsgd1na2vs0mg"},{"bike_id":"ddf42e2f-5ba3-456f-b6b9-71a4fb220f7c","system_id":"levelo_inurba_marseille","lat":43.217569,"lon":5.346015,"is_reserved":false,"is_disabled":false,"rental_uris":{"android":"levelo://app?vid=ddf42e2f-5ba3-456f-b6b9-71a4fb220f7c","ios":"levelo://app?vid=ddf42e2f-5ba3-456f-b6b9-71a4fb220f7c"},"vehicle_type_id":"4","last_reported":1745950482,"current_range_meters":14000,"station_id":"st_cvj6r9ubvosntc0bgbag","pricing_plan_id":"cebpf4jnsgd1na2vs0mg"},{"bike_id":"1fda508a-5b8a-4b06-ad0a-a2cf4c01c9a4","system_id":"levelo_inurba_marseille","lat":43.303523,"lon":5.418817,"is_reserved":false,"is_disabled":false,"rental_uris":{"android":"levelo://app?vid=1fda508a-5b8a-4b06-ad0a-a2cf4c01c9a4","ios":"levelo://app?vid=1fda508a-5b8a-4b06-ad0a-a2cf4c01c9a4"},"vehicle_type_id":"4","last_reported":1745950482,"current_range_meters":14000,"station_id":"ce4bhop2rcd13ifvqh7g","pricing_plan_id":"cebpf4jnsgd1na2vs0mg"},{"bike_id":"3da4f807-a9a7-4e80-80cc-47afecae7882","system_id":"levelo_inurba_marseille","lat":43.28023,"lon":5.39953,"is_reserved":false,"is_disabled":false,"rental_uris":{"android":"levelo://app?vid=3da4f807-a9a7-4e80-80cc-47afecae7882","ios":"levelo://app?vid=3da4f807-a9a7-4e80-80cc-47afecae7882"},"vehicle_type_id":"4","last_reported":1745950482,"current_range_meters":14000,"station_id":"","pricing_plan_id":"cebpf4jnsgd1na2vs0mg"},{"bike_id":"1cb3da76-f497-49e4-a8a6-5a0629444d60","system_id":"levelo_inurba_marseille","lat":43.29915,"lon":5.36738,"is_reserved":false,"is_disabled":false,"rental_uris":{"android":"levelo://app?vid=1cb3da76-f497-49e4-a8a6-5a0629444d60","ios":"levelo://app?vid=1cb3da76-f497-49e4-a8a6-5a0629444d60"},"vehicle_type_id":"4","last_reported":1745950482,"current_range_meters":14000,"station_id":"","pricing_plan_id":"cebpf4jnsgd1na2vs0mg"},{"bike_id":"fe0c4d1a-9874-47df-b868-a5e70081d8ce","system_id":"levelo_inurba_marseille","lat":43.22928,"lon":5.35406,"is_reserved":false,"is_disabled":false,"rental_uris":{"android":"levelo://app?vid=fe0c4d1a-9874-47df-b868-a5e70081d8ce","ios":"levelo://app?vid=fe0c4d1a-9874-47df-b868-a5e70081d8ce"},"vehicle_type_id":"4","last_reported":1745950482,"current_range_meters":14000,"station_id":"cpo3532slgdg3j2ikp40","pricing_plan_id":"cebpf4jnsgd1na2vs0mg"},{"bike_id":"329dc633-f4af-4c63-8fb1-99bd39adf709","system_id":"levelo_inurba_marseille","lat":43.292264,"lon":5.36079,"is_reserved":false,"is_disabled":false,"rental_uris":{"android":"levelo://app?vid=329dc633-f4af-4c63-8fb1-99bd39adf709","ios":"levelo://app?vid=329dc633-f4af-4c63-8fb1-99bd39adf709"},"vehicle_type_id":"4","last_reported":1745950482,"current_range_meters":13600,"station_id":"ce4bhbh2rcd13ifvqeqg","pricing_plan_id":"cebpf4jnsgd1na2vs0mg"},{"bike_id":"e694de60-09f4-4b04-8040-75dbcbb70375","system_id":"levelo_inurba_marseille","lat":43.28614,"lon":5.35102,"is_reserved":false,"is_disabled":false,"rental_uris":{"android":"levelo://app?vid=e694de60-09f4-4b04-8040-75dbcbb70375","ios":"levelo://app?vid=e694de60-09f4-4b04-8040-75dbcbb70375"},"vehicle_type_id":"4","last_reported":1745950482,"current_range_meters":14400,"station_id":"ce4bhch2rcd13ifvqeug","pricing_plan_id":"cebpf4jnsgd1na2vs0mg"},{"bike_id":"11d5d43a-e812-47f7-b832-2e1a60e860f7","system_id":"levelo_inurba_marseille","lat":43.27401,"lon":5.3627,"is_reserved":false,"is_disabled":false,"rental_uris":{"android":"levelo://app?vid=11d5d43a-e812-47f7-b832-2e1a60e860f7","ios":"levelo://app?vid=11d5d43a-e812-47f7-b832-2e1a60e860f7"},"vehicle_type_id":"4","last_reported":1745950482,"current_range_meters":14400,"station_id":"ce4bhbh2rcd13ifvqeo0","pricing_plan_id":"cebpf4jnsgd1na2vs0mg"},{"bike_id":"95efc045-e5ec-4568-a67f-d53379634633","system_id":"levelo_inurba_marseille","lat":43.31527,"lon":5.38047,"is_reserved":false,"is_disabled":false,"rental_uris":{"android":"levelo://app?vid=95efc045-e5ec-4568-a67f-d53379634633","ios":"levelo://app?vid=95efc045-e5ec-4568-a67f-d53379634633"},"vehicle_type_id":"4","last_reported":1745950482,"current_range_meters":14400,"station_id":"ce4bhsp2rcd13ifvqi50","pricing_plan_id":"cebpf4jnsgd1na2vs0mg"},{"bike_id":"fd661b75-ab7d-4136-96e7-6a1bab65f7b3","system_id":"levelo_inurba_marseille","lat":43.27634,"lon":5.36108,"is_reserved":false,"is_disabled":false,"rental_uris":{"android":"levelo://app?vid=fd661b75-ab7d-4136-96e7-6a1bab65f7b3","ios":"levelo://app?vid=fd661b75-ab7d-4136-96e7-6a1bab65f7b3"},"vehicle_type_id":"4","last_reported":1745950482,"current_range_meters":14400,"station_id":"ce4bgj92rcd13ifvqbe0","pricing_plan_id":"cebpf4jnsgd1na2vs0mg"},{"bike_id":"dcb0b990-89f9-495c-a9c1-10b17ae39667","system_id":"levelo_inurba_marseille","lat":43.23466,"lon":5.38043,"is_reserved":false,"is_disabled":false,"rental_uris":{"android":"levelo://app?vid=dcb0b990-89f9-495c-a9c1-10b17ae39667","ios":"levelo://app?vid=dcb0b990-89f9-495c-a9c1-10b17ae39667"},"vehicle_type_id":"4","last_reported":1745950482,"current_range_meters":14800,"station_id":"","pricing_plan_id":"cebpf4jnsgd1na2vs0mg"},{"bike_id":"6d1c5eaf-041b-4e46-be6f-e55c97ecb5cb","system_id":"levelo_inurba_marseille","lat":43.32001,"lon":5.38124,"is_reserved":false,"is_disabled":false,"rental_uris":{"android":"levelo://app?vid=6d1c5eaf-041b-4e46-be6f-e55c97ecb5cb","ios":"levelo://app?vid=6d1c5eaf-041b-4e46-be6f-e55c97ecb5cb"},"vehicle_type_id":"4","last_reported":1745950482,"current_range_meters":14800,"station_id":"ce4bhr12rcd13ifvqhpg","pricing_plan_id":"cebpf4jnsgd1na2vs0mg"},{"bike_id":"118ce26e-e787-4c01-a1ed-76d79e322150","system_id":"levelo_inurba_marseille","lat":43.32289,"lon":5.38278,"is_reserved":false,"is_disabled":false,"rental_uris":{"android":"levelo://app?vid=118ce26e-e787-4c01-a1ed-76d79e322150","ios":"levelo://app?vid=118ce26e-e787-4c01-a1ed-76d79e322150"},"vehicle_type_id":"4","last_reported":1745950482,"current_range_meters":14800,"station_id":"ce4bhr12rcd13ifvqhqg","pricing_plan_id":"cebpf4jnsgd1na2vs0mg"},{"bike_id":"1f1c9b93-f62e-4e46-9f11-54dc378fd4e6","system_id":"levelo_inurba_marseille","lat":43.30128,"lon":5.39862,"is_reserved":false,"is_disabled":false,"rental_uris":{"android":"levelo://app?vid=1f1c9b93-f62e-4e46-9f11-54dc378fd4e6","ios":"levelo://app?vid=1f1c9b93-f62e-4e46-9f11-54dc378fd4e6"},"vehicle_type_id":"4","last_reported":1745950482,"current_range_meters":15200,"station_id":"ce4bh0h2rcd13ifvqd40","pricing_plan_id":"cebpf4jnsgd1na2vs0mg"},{"bike_id":"c92edab6-3b22-45e9-b4be-1e71d0cc045b","system_id":"levelo_inurba_marseille","lat":43.2738,"lon":5.36253,"is_reserved":false,"is_disabled":false,"rental_uris":{"android":"levelo://app?vid=c92edab6-3b22-45e9-b4be-1e71d0cc045b","ios":"levelo://app?vid=c92edab6-3b22-45e9-b4be-1e71d0cc045b"},"vehicle_type_id":"4","last_reported":1745950482,"current_range_meters":16000,"station_id":"ce4bhbh2rcd13ifvqeo0","pricing_plan_id":"cebpf4jnsgd1na2vs0mg"},{"bike_id":"9c70cade-9c13-4146-8c73-cac7eca23c7e","system_id":"levelo_inurba_marseille","lat":43.31124,"lon":5.3776,"is_reserved":false,"is_disabled":false,"rental_uris":{"android":"levelo://app?vid=9c70cade-9c13-4146-8c73-cac7eca23c7e","ios":"levelo://app?vid=9c70cade-9c13-4146-8c73-cac7eca23c7e"},"vehicle_type_id":"4","last_reported":1745950482,"current_range_meters":15200,"station_id":"ce4bgt92rcd13ifvqcg0","pricing_plan_id":"cebpf4jnsgd1na2vs0mg"},{"bike_id":"648195b4-3c40-435d-90ce-a6518b1aaf99","system_id":"levelo_inurba_marseille","lat":43.27996,"lon":5.40023,"is_reserved":false,"is_disabled":false,"rental_uris":{"android":"levelo://app?vid=648195b4-3c40-435d-90ce-a6518b1aaf99","ios":"levelo://app?vid=648195b4-3c40-435d-90ce-a6518b1aaf99"},"vehicle_type_id":"4","last_reported":1745950482,"current_range_meters":16000,"station_id":"ce4bho92rcd13ifvqh4g","pricing_plan_id":"cebpf4jnsgd1na2vs0mg"},{"bike_id":"66ba2ff0-678b-48a1-b1f2-aeac7815822b","system_id":"levelo_inurba_marseille","lat":43.29366,"lon":5.37845,"is_reserved":false,"is_disabled":false,"rental_uris":{"android":"levelo://app?vid=66ba2ff0-678b-48a1-b1f2-aeac7815822b","ios":"levelo://app?vid=66ba2ff0-678b-48a1-b1f2-aeac7815822b"},"vehicle_type_id":"4","last_reported":1745950482,"current_range_meters":16800,"station_id":"","pricing_plan_id":"cebpf4jnsgd1na2vs0mg"},{"bike_id":"2f2ee64f-49ef-489b-ae79-fba23835c12d","system_id":"levelo_inurba_marseille","lat":43.2863,"lon":5.35096,"is_reserved":false,"is_disabled":false,"rental_uris":{"android":"levelo://app?vid=2f2ee64f-49ef-489b-ae79-fba23835c12d","ios":"levelo://app?vid=2f2ee64f-49ef-489b-ae79-fba23835c12d"},"vehicle_type_id":"4","last_reported":1745950482,"current_range_meters":16400,"station_id":"ce4bhch2rcd13ifvqeug","pricing_plan_id":"cebpf4jnsgd1na2vs0mg"},{"bike_id":"19bc52c3-74db-454f-9839-b056878a7608","system_id":"levelo_inurba_marseille","lat":43.266936,"lon":5.382745,"is_reserved":false,"is_disabled":true,"rental_uris":{"android":"levelo://app?vid=19bc52c3-74db-454f-9839-b056878a7608","ios":"levelo://app?vid=19bc52c3-74db-454f-9839-b056878a7608"},"vehicle_type_id":"4","last_reported":1745950482,"current_range_meters":16400,"station_id":"ce4bhg92rcd13ifvqf90","pricing_plan_id":"cebpf4jnsgd1na2vs0mg"},{"bike_id":"16eba406-e50e-46c0-a46f-2eed336582b5","system_id":"levelo_inurba_marseille","lat":43.28941,"lon":5.39624,"is_reserved":false,"is_disabled":false,"rental_uris":{"android":"levelo://app?vid=16eba406-e50e-46c0-a46f-2eed336582b5","ios":"levelo://app?vid=16eba406-e50e-46c0-a46f-2eed336582b5"},"vehicle_type_id":"4","last_reported":1745950482,"current_range_meters":17600,"station_id":"ce4bh3h2rcd13ifvqdn0","pricing_plan_id":"cebpf4jnsgd1na2vs0mg"},{"bike_id":"fb0daf1a-cefa-40b9-a6f4-b2612f0cf23f","system_id":"levelo_inurba_marseille","lat":43.26227,"lon":5.4045,"is_reserved":false,"is_disabled":false,"rental_uris":{"android":"levelo://app?vid=fb0daf1a-cefa-40b9-a6f4-b2612f0cf23f","ios":"levelo://app?vid=fb0daf1a-cefa-40b9-a6f4-b2612f0cf23f"},"vehicle_type_id":"4","last_reported":1745950482,"current_range_meters":16400,"station_id":"ce4bhmh2rcd13ifvqgmg","pricing_plan_id":"cebpf4jnsgd1na2vs0mg"},{"bike_id":"6063b592-e3f0-44fd-a98b-c39437a34669","system_id":"levelo_inurba_marseille","lat":43.27626,"lon":5.36103,"is_reserved":false,"is_disabled":false,"rental_uris":{"android":"levelo://app?vid=6063b592-e3f0-44fd-a98b-c39437a34669","ios":"levelo://app?vid=6063b592-e3f0-44fd-a98b-c39437a34669"},"vehicle_type_id":"4","last_reported":1745950482,"current_range_meters":16800,"station_id":"ce4bgj92rcd13ifvqbe0","pricing_plan_id":"cebpf4jnsgd1na2vs0mg"},{"bike_id":"18823f07-22c6-41a0-840b-43c1804447b7","system_id":"levelo_inurba_marseille","lat":43.28621,"lon":5.35099,"is_reserved":false,"is_disabled":false,"rental_uris":{"android":"levelo://app?vid=18823f07-22c6-41a0-840b-43c1804447b7","ios":"levelo://app?vid=18823f07-22c6-41a0-840b-43c1804447b7"},"vehicle_type_id":"4","last_reported":1745950482,"current_range_meters":16800,"station_id":"ce4bhch2rcd13ifvqeug","pricing_plan_id":"cebpf4jnsgd1na2vs0mg"},{"bike_id":"8ac5aea9-9c32-4c13-921e-cf9d85281f30","system_id":"levelo_inurba_marseille","lat":43.2707,"lon":5.42278,"is_reserved":false,"is_disabled":false,"rental_uris":{"android":"levelo://app?vid=8ac5aea9-9c32-4c13-921e-cf9d85281f30","ios":"levelo://app?vid=8ac5aea9-9c32-4c13-921e-cf9d85281f30"},"vehicle_type_id":"4","last_reported":1745950482,"current_range_meters":14000,"station_id":"ce4bhk92rcd13ifvqgb0","pricing_plan_id":"cebpf4jnsgd1na2vs0mg"},{"bike_id":"b0ae2015-ff9d-4b20-ab88-4d18a9f88568","system_id":"levelo_inurba_marseille","lat":43.31681,"lon":5.40467,"is_reserved":false,"is_disabled":false,"rental_uris":{"android":"levelo://app?vid=b0ae2015-ff9d-4b20-ab88-4d18a9f88568","ios":"levelo://app?vid=b0ae2015-ff9d-4b20-ab88-4d18a9f88568"},"vehicle_type_id":"4","last_reported":1745950482,"current_range_meters":16800,"station_id":"ce4bh012rcd13ifvqd00","pricing_plan_id":"cebpf4jnsgd1na2vs0mg"},{"bike_id":"ac5bebcc-7db3-406b-a289-37feae9c0e98","system_id":"levelo_inurba_marseille","lat":43.29258,"lon":5.40888,"is_reserved":false,"is_disabled":false,"rental_uris":{"android":"levelo://app?vid=ac5bebcc-7db3-406b-a289-37feae9c0e98","ios":"levelo://app?vid=ac5bebcc-7db3-406b-a289-37feae9c0e98"},"vehicle_type_id":"4","last_reported":1745950482,"current_range_meters":16800,"station_id":"ce4bh192rcd13ifvqdc0","pricing_plan_id":"cebpf4jnsgd1na2vs0mg"},{"bike_id":"142b21fe-e15a-4a65-b770-44381c311d71","system_id":"levelo_inurba_marseille","lat":43.31326,"lon":5.39688,"is_reserved":false,"is_disabled":false,"rental_uris":{"android":"levelo://app?vid=142b21fe-e15a-4a65-b770-44381c311d71","ios":"levelo://app?vid=142b21fe-e15a-4a65-b770-44381c311d71"},"vehicle_type_id":"4","last_reported":1745950482,"current_range_meters":16800,"station_id":"ce4bgvp2rcd13ifvqcu0","pricing_plan_id":"cebpf4jnsgd1na2vs0mg"},{"bike_id":"e5e92a64-e709-4b1a-a9b1-cbffe85789ca","system_id":"levelo_inurba_marseille","lat":43.25538,"lon":5.3813,"is_reserved":false,"is_disabled":false,"rental_uris":{"android":"levelo://app?vid=e5e92a64-e709-4b1a-a9b1-cbffe85789ca","ios":"levelo://app?vid=e5e92a64-e709-4b1a-a9b1-cbffe85789ca"},"vehicle_type_id":"4","last_reported":1745950482,"current_range_meters":16800,"station_id":"","pricing_plan_id":"cebpf4jnsgd1na2vs0mg"},{"bike_id":"83eca8a2-a156-4200-a975-8566f03ac419","system_id":"levelo_inurba_marseille","lat":43.29277,"lon":5.40113,"is_reserved":false,"is_disabled":false,"rental_uris":{"android":"levelo://app?vid=83eca8a2-a156-4200-a975-8566f03ac419","ios":"levelo://app?vid=83eca8a2-a156-4200-a975-8566f03ac419"},"vehicle_type_id":"4","last_reported":1745950482,"current_range_meters":17200,"station_id":"ce4bh312rcd13ifvqdk0","pricing_plan_id":"cebpf4jnsgd1na2vs0mg"},{"bike_id":"4fda502e-8180-4eb2-97e5-6521d9824005","system_id":"levelo_inurba_marseille","lat":43.30397,"lon":5.381277,"is_reserved":false,"is_disabled":false,"rental_uris":{"android":"levelo://app?vid=4fda502e-8180-4eb2-97e5-6521d9824005","ios":"levelo://app?vid=4fda502e-8180-4eb2-97e5-6521d9824005"},"vehicle_type_id":"4","last_reported":1745950482,"current_range_meters":17200,"station_id":"","pricing_plan_id":"cebpf4jnsgd1na2vs0mg"},{"bike_id":"1f21c82b-2d07-4a2b-80e9-88313c74849b","system_id":"levelo_inurba_marseille","lat":43.31531,"lon":5.38036,"is_reserved":false,"is_disabled":false,"rental_uris":{"android":"levelo://app?vid=1f21c82b-2d07-4a2b-80e9-88313c74849b","ios":"levelo://app?vid=1f21c82b-2d07-4a2b-80e9-88313c74849b"},"vehicle_type_id":"4","last_reported":1745950482,"current_range_meters":17200,"station_id":"ce4bhsp2rcd13ifvqi50","pricing_plan_id":"cebpf4jnsgd1na2vs0mg"},{"bike_id":"920192e3-1852-4c38-a6a2-770caab973ac","system_id":"levelo_inurba_marseille","lat":43.23185,"lon":5.3998,"is_reserved":false,"is_disabled":false,"rental_uris":{"android":"levelo://app?vid=920192e3-1852-4c38-a6a2-770caab973ac","ios":"levelo://app?vid=920192e3-1852-4c38-a6a2-770caab973ac"},"vehicle_type_id":"4","last_reported":1745950482,"current_range_meters":17200,"station_id":"ce4bhn12rcd13ifvqgqg","pricing_plan_id":"cebpf4jnsgd1na2vs0mg"},{"bike_id":"2ea88097-f637-48c0-834a-65258344bb71","system_id":"levelo_inurba_marseille","lat":43.28939,"lon":5.36628,"is_reserved":false,"is_disabled":false,"rental_uris":{"android":"levelo://app?vid=2ea88097-f637-48c0-834a-65258344bb71","ios":"levelo://app?vid=2ea88097-f637-48c0-834a-65258344bb71"},"vehicle_type_id":"4","last_reported":1745950482,"current_range_meters":17200,"station_id":"ce4bhap2rcd13ifvqek0","pricing_plan_id":"cebpf4jnsgd1na2vs0mg"},{"bike_id":"a3985f59-fd97-4afa-8291-7cd6045ca270","system_id":"levelo_inurba_marseille","lat":43.324806,"lon":5.36558,"is_reserved":false,"is_disabled":false,"rental_uris":{"android":"levelo://app?vid=a3985f59-fd97-4afa-8291-7cd6045ca270","ios":"levelo://app?vid=a3985f59-fd97-4afa-8291-7cd6045ca270"},"vehicle_type_id":"4","last_reported":1745950482,"current_range_meters":17200,"station_id":"ce4bhs12rcd13ifvqhvg","pricing_plan_id":"cebpf4jnsgd1na2vs0mg"},{"bike_id":"23339fd9-c5d1-476a-8395-7e4192578dde","system_id":"levelo_inurba_marseille","lat":43.29277,"lon":5.38438,"is_reserved":false,"is_disabled":false,"rental_uris":{"android":"levelo://app?vid=23339fd9-c5d1-476a-8395-7e4192578dde","ios":"levelo://app?vid=23339fd9-c5d1-476a-8395-7e4192578dde"},"vehicle_type_id":"4","last_reported":1745950482,"current_range_meters":17200,"station_id":"ce4bh692rcd13ifvqea0","pricing_plan_id":"cebpf4jnsgd1na2vs0mg"},{"bike_id":"455dfde0-ee00-4454-8173-fd4da0f209e8","system_id":"levelo_inurba_marseille","lat":43.27371,"lon":5.36259,"is_reserved":false,"is_disabled":false,"rental_uris":{"android":"levelo://app?vid=455dfde0-ee00-4454-8173-fd4da0f209e8","ios":"levelo://app?vid=455dfde0-ee00-4454-8173-fd4da0f209e8"},"vehicle_type_id":"4","last_reported":1745950482,"current_range_meters":17600,"station_id":"ce4bhbh2rcd13ifvqeo0","pricing_plan_id":"cebpf4jnsgd1na2vs0mg"},{"bike_id":"e5c9e410-09a2-4a8b-8618-7674c87d16f0","system_id":"levelo_inurba_marseille","lat":43.293045,"lon":5.374515,"is_reserved":false,"is_disabled":true,"rental_uris":{"android":"levelo://app?vid=e5c9e410-09a2-4a8b-8618-7674c87d16f0","ios":"levelo://app?vid=e5c9e410-09a2-4a8b-8618-7674c87d16f0"},"vehicle_type_id":"4","last_reported":1745950482,"current_range_meters":17600,"station_id":"ce4bgi12rcd13ifvqb70","pricing_plan_id":"cebpf4jnsgd1na2vs0mg"},{"bike_id":"043d9a52-cf92-4481-a357-08030b51462c","system_id":"levelo_inurba_marseille","lat":43.28614,"lon":5.35096,"is_reserved":false,"is_disabled":false,"rental_uris":{"android":"levelo://app?vid=043d9a52-cf92-4481-a357-08030b51462c","ios":"levelo://app?vid=043d9a52-cf92-4481-a357-08030b51462c"},"vehicle_type_id":"4","last_reported":1745950482,"current_range_meters":17600,"station_id":"ce4bhch2rcd13ifvqeug","pricing_plan_id":"cebpf4jnsgd1na2vs0mg"},{"bike_id":"fce2c520-92d3-4d18-810b-8d643fc15a1a","system_id":"levelo_inurba_marseille","lat":43.23066,"lon":5.35494,"is_reserved":false,"is_disabled":false,"rental_uris":{"android":"levelo://app?vid=fce2c520-92d3-4d18-810b-8d643fc15a1a","ios":"levelo://app?vid=fce2c520-92d3-4d18-810b-8d643fc15a1a"},"vehicle_type_id":"4","last_reported":1745950482,"current_range_meters":17600,"station_id":"cpo3342slgdg3j2ifvpg","pricing_plan_id":"cebpf4jnsgd1na2vs0mg"},{"bike_id":"0dd04adc-65fc-43ab-8302-2aa354c3de77","system_id":"levelo_inurba_marseille","lat":43.28415,"lon":5.37505,"is_reserved":false,"is_disabled":false,"rental_uris":{"android":"levelo://app?vid=0dd04adc-65fc-43ab-8302-2aa354c3de77","ios":"levelo://app?vid=0dd04adc-65fc-43ab-8302-2aa354c3de77"},"vehicle_type_id":"4","last_reported":1745950482,"current_range_meters":17600,"station_id":"ce4bh412rcd13ifvqds0","pricing_plan_id":"cebpf4jnsgd1na2vs0mg"},{"bike_id":"44b00a8d-24c0-4c7b-b220-961ce5597fd2","system_id":"levelo_inurba_marseille","lat":43.28654,"lon":5.35082,"is_reserved":false,"is_disabled":false,"rental_uris":{"android":"levelo://app?vid=44b00a8d-24c0-4c7b-b220-961ce5597fd2","ios":"levelo://app?vid=44b00a8d-24c0-4c7b-b220-961ce5597fd2"},"vehicle_type_id":"4","last_reported":1745950482,"current_range_meters":18000,"station_id":"ce4bhch2rcd13ifvqeug","pricing_plan_id":"cebpf4jnsgd1na2vs0mg"},{"bike_id":"d790bba5-0573-4c47-8999-23421e069bf8","system_id":"levelo_inurba_marseille","lat":43.239712,"lon":5.366329,"is_reserved":false,"is_disabled":false,"rental_uris":{"android":"levelo://app?vid=d790bba5-0573-4c47-8999-23421e069bf8","ios":"levelo://app?vid=d790bba5-0573-4c47-8999-23421e069bf8"},"vehicle_type_id":"4","last_reported":1745950482,"current_range_meters":18000,"station_id":"ce4bhi12rcd13ifvqfp0","pricing_plan_id":"cebpf4jnsgd1na2vs0mg"},{"bike_id":"c4cf83eb-7e0a-4f01-88e2-dc336428d801","system_id":"levelo_inurba_marseille","lat":43.29508,"lon":5.39039,"is_reserved":false,"is_disabled":false,"rental_uris":{"android":"levelo://app?vid=c4cf83eb-7e0a-4f01-88e2-dc336428d801","ios":"levelo://app?vid=c4cf83eb-7e0a-4f01-88e2-dc336428d801"},"vehicle_type_id":"4","last_reported":1745950482,"current_range_meters":18000,"station_id":"ce4bh3p2rcd13ifvqdp0","pricing_plan_id":"cebpf4jnsgd1na2vs0mg"},{"bike_id":"a5e26b2a-c7a7-4f15-a663-03fbb5ac820f","system_id":"levelo_inurba_marseille","lat":43.28417,"lon":5.34979,"is_reserved":false,"is_disabled":false,"rental_uris":{"android":"levelo://app?vid=a5e26b2a-c7a7-4f15-a663-03fbb5ac820f","ios":"levelo://app?vid=a5e26b2a-c7a7-4f15-a663-03fbb5ac820f"},"vehicle_type_id":"4","last_reported":1745950482,"current_range_meters":18000,"station_id":"ce4bhbh2rcd13ifvqepg","pricing_plan_id":"cebpf4jnsgd1na2vs0mg"},{"bike_id":"79ae15a5-b574-459a-a157-059b940ce52c","system_id":"levelo_inurba_marseille","lat":43.31722,"lon":5.43711,"is_reserved":false,"is_disabled":false,"rental_uris":{"android":"levelo://app?vid=79ae15a5-b574-459a-a157-059b940ce52c","ios":"levelo://app?vid=79ae15a5-b574-459a-a157-059b940ce52c"},"vehicle_type_id":"4","last_reported":1745950482,"current_range_meters":18000,"station_id":"ce4bhp92rcd13ifvqhcg","pricing_plan_id":"cebpf4jnsgd1na2vs0mg"},{"bike_id":"edb221b9-8ae6-40af-a72f-fa2100c0c634","system_id":"levelo_inurba_marseille","lat":43.28416,"lon":5.34992,"is_reserved":false,"is_disabled":false,"rental_uris":{"android":"levelo://app?vid=edb221b9-8ae6-40af-a72f-fa2100c0c634","ios":"levelo://app?vid=edb221b9-8ae6-40af-a72f-fa2100c0c634"},"vehicle_type_id":"4","last_reported":1745950482,"current_range_meters":18000,"station_id":"ce4bhbh2rcd13ifvqepg","pricing_plan_id":"cebpf4jnsgd1na2vs0mg"},{"bike_id":"404f8bb0-e61e-473d-84e3-ad9a44a44b05","system_id":"levelo_inurba_marseille","lat":43.284175,"lon":5.349887,"is_reserved":false,"is_disabled":false,"rental_uris":{"android":"levelo://app?vid=404f8bb0-e61e-473d-84e3-ad9a44a44b05","ios":"levelo://app?vid=404f8bb0-e61e-473d-84e3-ad9a44a44b05"},"vehicle_type_id":"4","last_reported":1745950482,"current_range_meters":18000,"station_id":"ce4bhbh2rcd13ifvqepg","pricing_plan_id":"cebpf4jnsgd1na2vs0mg"},{"bike_id":"ce7f52a2-f200-44cb-ae79-ab71b2484302","system_id":"levelo_inurba_marseille","lat":43.29292,"lon":5.37452,"is_reserved":false,"is_disabled":false,"rental_uris":{"android":"levelo://app?vid=ce7f52a2-f200-44cb-ae79-ab71b2484302","ios":"levelo://app?vid=ce7f52a2-f200-44cb-ae79-ab71b2484302"},"vehicle_type_id":"4","last_reported":1745950482,"current_range_meters":18000,"station_id":"ce4bgi12rcd13ifvqb70","pricing_plan_id":"cebpf4jnsgd1na2vs0mg"},{"bike_id":"d042cfc0-6603-4cb0-8fd0-aa2d541fe413","system_id":"levelo_inurba_marseille","lat":43.29867,"lon":5.39732,"is_reserved":false,"is_disabled":false,"rental_uris":{"android":"levelo://app?vid=d042cfc0-6603-4cb0-8fd0-aa2d541fe413","ios":"levelo://app?vid=d042cfc0-6603-4cb0-8fd0-aa2d541fe413"},"vehicle_type_id":"4","last_reported":1745950482,"current_range_meters":18800,"station_id":"ce4bh0h2rcd13ifvqd50","pricing_plan_id":"cebpf4jnsgd1na2vs0mg"},{"bike_id":"f0cdb3a8-c3ef-42fd-86fe-de18dc320686","system_id":"levelo_inurba_marseille","lat":43.31171,"lon":5.38719,"is_reserved":false,"is_disabled":false,"rental_uris":{"android":"levelo://app?vid=f0cdb3a8-c3ef-42fd-86fe-de18dc320686","ios":"levelo://app?vid=f0cdb3a8-c3ef-42fd-86fe-de18dc320686"},"vehicle_type_id":"4","last_reported":1745950482,"current_range_meters":18800,"station_id":"ce4bgv12rcd13ifvqcp0","pricing_plan_id":"cebpf4jnsgd1na2vs0mg"},{"bike_id":"86c2979e-8cf6-48ed-bdb1-835ff11e3adc","system_id":"levelo_inurba_marseille","lat":43.253897,"lon":5.418469,"is_reserved":false,"is_disabled":false,"rental_uris":{"android":"levelo://app?vid=86c2979e-8cf6-48ed-bdb1-835ff11e3adc","ios":"levelo://app?vid=86c2979e-8cf6-48ed-bdb1-835ff11e3adc"},"vehicle_type_id":"4","last_reported":1745950482,"current_range_meters":18800,"station_id":"","pricing_plan_id":"cebpf4jnsgd1na2vs0mg"},{"bike_id":"47c330ef-4e84-4037-9f7f-80bc008aca26","system_id":"levelo_inurba_marseille","lat":43.25083,"lon":5.39523,"is_reserved":false,"is_disabled":false,"rental_uris":{"android":"levelo://app?vid=47c330ef-4e84-4037-9f7f-80bc008aca26","ios":"levelo://app?vid=47c330ef-4e84-4037-9f7f-80bc008aca26"},"vehicle_type_id":"4","last_reported":1745950482,"current_range_meters":18800,"station_id":"ce4bhm12rcd13ifvqgkg","pricing_plan_id":"cebpf4jnsgd1na2vs0mg"},{"bike_id":"decce1a1-ebbf-452b-b681-e7e07c4a699a","system_id":"levelo_inurba_marseille","lat":43.29882,"lon":5.38905,"is_reserved":false,"is_disabled":false,"rental_uris":{"android":"levelo://app?vid=decce1a1-ebbf-452b-b681-e7e07c4a699a","ios":"levelo://app?vid=decce1a1-ebbf-452b-b681-e7e07c4a699a"},"vehicle_type_id":"4","last_reported":1745950482,"current_range_meters":18800,"station_id":"ce4bh392rcd13ifvqdl0","pricing_plan_id":"cebpf4jnsgd1na2vs0mg"},{"bike_id":"07eda918-2629-4031-ae59-1434926895d2","system_id":"levelo_inurba_marseille","lat":43.28455,"lon":5.3589,"is_reserved":false,"is_disabled":false,"rental_uris":{"android":"levelo://app?vid=07eda918-2629-4031-ae59-1434926895d2","ios":"levelo://app?vid=07eda918-2629-4031-ae59-1434926895d2"},"vehicle_type_id":"4","last_reported":1745950482,"current_range_meters":18000,"station_id":"ce4bhah2rcd13ifvqei0","pricing_plan_id":"cebpf4jnsgd1na2vs0mg"},{"bike_id":"323448cf-ebdb-47fc-8151-8e4972e2bf31","system_id":"levelo_inurba_marseille","lat":43.28701,"lon":5.39983,"is_reserved":false,"is_disabled":false,"rental_uris":{"android":"levelo://app?vid=323448cf-ebdb-47fc-8151-8e4972e2bf31","ios":"levelo://app?vid=323448cf-ebdb-47fc-8151-8e4972e2bf31"},"vehicle_type_id":"4","last_reported":1745950482,"current_range_meters":19600,"station_id":"ce4bho92rcd13ifvqh3g","pricing_plan_id":"cebpf4jnsgd1na2vs0mg"},{"bike_id":"02a850b5-be15-4427-960c-23f3f07cc460","system_id":"levelo_inurba_marseille","lat":43.32366,"lon":5.36755,"is_reserved":false,"is_disabled":false,"rental_uris":{"android":"levelo://app?vid=02a850b5-be15-4427-960c-23f3f07cc460","ios":"levelo://app?vid=02a850b5-be15-4427-960c-23f3f07cc460"},"vehicle_type_id":"4","last_reported":1745950482,"current_range_meters":19200,"station_id":"ce4bhsh2rcd13ifvqi2g","pricing_plan_id":"cebpf4jnsgd1na2vs0mg"},{"bike_id":"637f17b1-a980-4bc5-993d-9a9de04fb5bf","system_id":"levelo_inurba_marseille","lat":43.31646,"lon":5.37037,"is_reserved":false,"is_disabled":false,"rental_uris":{"android":"levelo://app?vid=637f17b1-a980-4bc5-993d-9a9de04fb5bf","ios":"levelo://app?vid=637f17b1-a980-4bc5-993d-9a9de04fb5bf"},"vehicle_type_id":"4","last_reported":1745950482,"current_range_meters":19200,"station_id":"","pricing_plan_id":"cebpf4jnsgd1na2vs0mg"},{"bike_id":"a33a99f1-2499-4466-8a20-94e1db48d19e","system_id":"levelo_inurba_marseille","lat":43.284169,"lon":5.349911,"is_reserved":false,"is_disabled":false,"rental_uris":{"android":"levelo://app?vid=a33a99f1-2499-4466-8a20-94e1db48d19e","ios":"levelo://app?vid=a33a99f1-2499-4466-8a20-94e1db48d19e"},"vehicle_type_id":"4","last_reported":1745950482,"current_range_meters":19200,"station_id":"ce4bhbh2rcd13ifvqepg","pricing_plan_id":"cebpf4jnsgd1na2vs0mg"},{"bike_id":"c746d294-d77c-4a5a-a6f2-b8bd8f60008f","system_id":"levelo_inurba_marseille","lat":43.27944,"lon":5.41052,"is_reserved":false,"is_disabled":true,"rental_uris":{"android":"levelo://app?vid=c746d294-d77c-4a5a-a6f2-b8bd8f60008f","ios":"levelo://app?vid=c746d294-d77c-4a5a-a6f2-b8bd8f60008f"},"vehicle_type_id":"4","last_reported":1745950482,"current_range_meters":19200,"station_id":"ce4bhnp2rcd13ifvqh0g","pricing_plan_id":"cebpf4jnsgd1na2vs0mg"},{"bike_id":"9db1be37-d986-4e8e-bd19-3f6e74d6f969","system_id":"levelo_inurba_marseille","lat":43.30143,"lon":5.38067,"is_reserved":false,"is_disabled":false,"rental_uris":{"android":"levelo://app?vid=9db1be37-d986-4e8e-bd19-3f6e74d6f969","ios":"levelo://app?vid=9db1be37-d986-4e8e-bd19-3f6e74d6f969"},"vehicle_type_id":"4","last_reported":1745950482,"current_range_meters":19200,"station_id":"ce4bgjp2rcd13ifvqbh0","pricing_plan_id":"cebpf4jnsgd1na2vs0mg"},{"bike_id":"4c45bf92-9fd5-4f6b-8279-fbb76283325a","system_id":"levelo_inurba_marseille","lat":43.295295,"lon":5.385429,"is_reserved":false,"is_disabled":false,"rental_uris":{"android":"levelo://app?vid=4c45bf92-9fd5-4f6b-8279-fbb76283325a","ios":"levelo://app?vid=4c45bf92-9fd5-4f6b-8279-fbb76283325a"},"vehicle_type_id":"4","last_reported":1745950482,"current_range_meters":19600,"station_id":"","pricing_plan_id":"cebpf4jnsgd1na2vs0mg"},{"bike_id":"e5a50a82-b3e1-44fe-84e5-859c9a4f4b2a","system_id":"levelo_inurba_marseille","lat":43.28926,"lon":5.36631,"is_reserved":false,"is_disabled":false,"rental_uris":{"android":"levelo://app?vid=e5a50a82-b3e1-44fe-84e5-859c9a4f4b2a","ios":"levelo://app?vid=e5a50a82-b3e1-44fe-84e5-859c9a4f4b2a"},"vehicle_type_id":"4","last_reported":1745950482,"current_range_meters":19600,"station_id":"ce4bhap2rcd13ifvqek0","pricing_plan_id":"cebpf4jnsgd1na2vs0mg"},{"bike_id":"d24668ae-aa9d-4e6e-9740-2a9d1fdd6c9c","system_id":"levelo_inurba_marseille","lat":43.296443,"lon":5.38023,"is_reserved":false,"is_disabled":false,"rental_uris":{"android":"levelo://app?vid=d24668ae-aa9d-4e6e-9740-2a9d1fdd6c9c","ios":"levelo://app?vid=d24668ae-aa9d-4e6e-9740-2a9d1fdd6c9c"},"vehicle_type_id":"4","last_reported":1745950482,"current_range_meters":20000,"station_id":"","pricing_plan_id":"cebpf4jnsgd1na2vs0mg"},{"bike_id":"d625547a-39d5-4a84-9308-22d8214c7761","system_id":"levelo_inurba_marseille","lat":43.26201,"lon":5.3793,"is_reserved":false,"is_disabled":false,"rental_uris":{"android":"levelo://app?vid=d625547a-39d5-4a84-9308-22d8214c7761","ios":"levelo://app?vid=d625547a-39d5-4a84-9308-22d8214c7761"},"vehicle_type_id":"4","last_reported":1745950482,"current_range_meters":20000,"station_id":"ce4bhjp2rcd13ifvqg90","pricing_plan_id":"cebpf4jnsgd1na2vs0mg"},