{"last_updated":1705446434,"ttl":30,"version":"2.2","data":{"bikes":[{"bike_id":"b971be56-0d34-41af-a304-2ab17fe49619","system_id":"levelo_inurba_marseille","lat":43.313391,"lon":5.36706,"is_reserved":false,"is_disabled":false,"rental_uris":{"android":"levelo://app?vid=b971be56-0d34-41af-a304-2ab17fe49619","ios":"levelo://app?vid=b971be56-0d34-41af-a304-2ab17fe49619"},"vehicle_type_id":"4","last_reported":1705446434,"current_range_meters":6400,"station_id":"ce4bgr92rcd13ifvqc6g","pricing_plan_id":"free"},{"bike_id":"38a83f59-3752-4a81-9f1a-8a8607e5098a","system_id":"levelo_inurba_marseille","lat":43.313391,"lon":5.36706,"is_reserved":false,"is_disabled":false,"rental_uris":{"android":"levelo://app?vid=38a83f59-3752-4a81-9f1a-8a8607e5098a","ios":"levelo://app?vid=38a83f59-3752-4a81-9f1a-8a8607e5098a"},"vehicle_type_id":"4","last_reported":1705446434,"current_range_meters":23200,"station_id":"ce4bgr92rcd13ifvqc6g","pricing_plan_id":"free"},{"bike_id":"b583a396-5034-4f77-a306-795f95f6e1aa","system_id":"levelo_inurba_marseille","lat":43.313391,"lon":5.36706,"is_reserved":false,"is_disabled":false,"rental_uris":{"android":"levelo://app?vid=b583a396-5034-4f77-a306-795f95f6e1aa","ios":"levelo://app?vid=b583a396-5034-4f77-a306-795f95f6e1aa"},"vehicle_type_id":"4","last_reported":1705446434,"current_range_meters":21200,"station_id":"ce4bgr92rcd13ifvqc6g","pricing_plan_id":"free"},{"bike_id":"2710a938-40ee-49ce-8aa6-466fc2b681d9","system_id":"levelo_inurba_marseille","lat":43.31341,"lon":5.367098,"is_reserved":false,"is_disabled":false,"rental_uris":{"android":"levelo://app?vid=2710a938-40ee-49ce-8aa6-466fc2b681d9","ios":"levelo://app?vid=2710a938-40ee-49ce-8aa6-466fc2b681d9"},"vehicle_type_id":"4","last_reported":1705446434,"current_range_meters":30000,"station_id":"ce4bgr92rcd13ifvqc6g","pricing_plan_id":"free"},{"bike_id":"31aed91f-c3bd-4d17-9637-e12818ecfedf","system_id":"levelo_inurba_marseille","lat":43.312239,"lon":5.368562,"is_reserved":false,"is_disabled":false,"rental_uris":{"android":"levelo://app?vid=31aed91f-c3bd-4d17-9637-e12818ecfedf","ios":"levelo://app?vid=31aed91f-c3bd-4d17-9637-e12818ecfedf"},"vehicle_type_id":"4","last_reported":1705446434,"current_range_meters":21600,"station_id":"ce4bgl92rcd13ifvqbq0","pricing_plan_id":"free"},{"bike_id":"2a903b4d-2ad9-4f54-9760-e0d0b4003e39","system_id":"levelo_inurba_marseille","lat":43.309076,"lon":5.368465,"is_reserved":false,"is_disabled":false,"rental_uris":{"android":"levelo://app?vid=2a903b4d-2ad9-4f54-9760-e0d0b4003e39","ios":"levelo://app?vid=2a903b4d-2ad9-4f54-9760-e0d0b4003e39"},"vehicle_type_id":"4","last_reported":1705446434,"current_range_meters":30400,"station_id":"ce4bgn92rcd13ifvqbvg","pricing_plan_id":"free"},{"bike_id":"5fe4800b-0eaf-4868-9e8e-4278e2b0c286","system_id":"levelo_inurba_marseille","lat":43.309076,"lon":5.368465,"is_reserved":false,"is_disabled":false,"rental_uris":{"android":"levelo://app?vid=5fe4800b-0eaf-4868-9e8e-4278e2b0c286","ios":"levelo://app?vid=5fe4800b-0eaf-4868-9e8e-4278e2b0c286"},"vehicle_type_id":"4","last_reported":1705446434,"current_range_meters":22800,"station_id":"ce4bgn92rcd13ifvqbvg","pricing_plan_id":"free"},{"bike_id":"2751fe63-7b8e-4a23-aa70-8680c00ee2b6","system_id":"levelo_inurba_marseille","lat":43.310918,"lon":5.372738,"is_reserved":false,"is_disabled":false,"rental_uris":{"android":"levelo://app?vid=2751fe63-7b8e-4a23-aa70-8680c00ee2b6","ios":"levelo://app?vid=2751fe63-7b8e-4a23-aa70-8680c00ee2b6"},"vehicle_type_id":"4","last_reported":1705446434,"current_range_meters":1200,"station_id":"","pricing_plan_id":"free"},{"bike_id":"cecc1af2-b542-41f6-a86f-1f87a9853060","system_id":"levelo_inurba_marseille","lat":43.314811,"lon":5.373103,"is_reserved":false,"is_disabled":false,"rental_uris":{"android":"levelo://app?vid=cecc1af2-b542-41f6-a86f-1f87a9853060","ios":"levelo://app?vid=cecc1af2-b542-41f6-a86f-1f87a9853060"},"vehicle_type_id":"4","last_reported":1705446434,"current_range_meters":15600,"station_id":"ce4bgt12rcd13ifvqcd0","pricing_plan_id":"free"},{"bike_id":"9f3f5fe4-e126-40ff-9fa9-c456446da32b","system_id":"levelo_inurba_marseille","lat":43.314811,"lon":5.373103,"is_reserved":false,"is_disabled":false,"rental_uris":{"android":"levelo://app?vid=9f3f5fe4-e126-40ff-9fa9-c456446da32b","ios":"levelo://app?vid=9f3f5fe4-e126-40ff-9fa9-c456446da32b"},"vehicle_type_id":"4","last_reported":1705446434,"current_range_meters":26000,"station_id":"ce4bgt12rcd13ifvqcd0","pricing_plan_id":"free"},{"bike_id":"0e0efaa1-a573-4d25-8ff2-10ebbcd9b0e2","system_id":"levelo_inurba_marseille","lat":43.314811,"lon":5.373103,"is_reserved":false,"is_disabled":false,"rental_uris":{"android":"levelo://app?vid=0e0efaa1-a573-4d25-8ff2-10ebbcd9b0e2","ios":"levelo://app?vid=0e0efaa1-a573-4d25-8ff2-10ebbcd9b0e2"},"vehicle_type_id":"4","last_reported":1705446434,"current_range_meters":30400,"station_id":"ce4bgt12rcd13ifvqcd0","pricing_plan_id":"free"},{"bike_id":"5fedd836-33b8-4a5a-82c6-d62ecd16a62e","system_id":"levelo_inurba_marseille","lat":43.30894,"lon":5.371795,"is_reserved":false,"is_disabled":false,"rental_uris":{"android":"levelo://app?vid=5fedd836-33b8-4a5a-82c6-d62ecd16a62e","ios":"levelo://app?vid=5fedd836-33b8-4a5a-82c6-d62ecd16a62e"},"vehicle_type_id":"4","last_reported":1705446434,"current_range_meters":15200,"station_id":"ce4bguh2rcd13ifvqckg","pricing_plan_id":"free"},{"bike_id":"2269b57a-9d65-46df-a1c2-effc23c16afa","system_id":"levelo_inurba_marseille","lat":43.305714,"lon":5.365633,"is_reserved":false,"is_disabled":false,"rental_uris":{"android":"levelo://app?vid=2269b57a-9d65-46df-a1c2-effc23c16afa","ios":"levelo://app?vid=2269b57a-9d65-46df-a1c2-effc23c16afa"},"vehicle_type_id":"4","last_reported":1705446434,"current_range_meters":25200,"station_id":"ce4bgs12rcd13ifvqcag","pricing_plan_id":"free"},{"bike_id":"ed0176ef-2292-4caf-8008-313fc09ad931","system_id":"levelo_inurba_marseille","lat":43.306011,"lon":5.372088,"is_reserved":false,"is_disabled":false,"rental_uris":{"android":"levelo://app?vid=ed0176ef-2292-4caf-8008-313fc09ad931","ios":"levelo://app?vid=ed0176ef-2292-4caf-8008-313fc09ad931"},"vehicle_type_id":"4","last_reported":1705446434,"current_range_meters":2400,"station_id":"ce4bgqh2rcd13ifvqc4g","pricing_plan_id":"free"},{"bike_id":"943c8ad7-2846-4438-9a42-90fca827c65d","system_id":"levelo_inurba_marseille","lat":43.30607,"lon":5.37233,"is_reserved":false,"is_disabled":false,"rental_uris":{"android":"levelo://app?vid=943c8ad7-2846-4438-9a42-90fca827c65d","ios":"levelo://app?vid=943c8ad7-2846-4438-9a42-90fca827c65d"},"vehicle_type_id":"4","last_reported":1705446434,"current_range_meters":400,"station_id":"","pricing_plan_id":"free"},{"bike_id":"95d56360-ae3c-4d1a-a7eb-f0bf609f110f","system_id":"levelo_inurba_marseille","lat":43.305926,"lon":5.372129,"is_reserved":false,"is_disabled":false,"rental_uris":{"android":"levelo://app?vid=95d56360-ae3c-4d1a-a7eb-f0bf609f110f","ios":"levelo://app?vid=95d56360-ae3c-4d1a-a7eb-f0bf609f110f"},"vehicle_type_id":"4","last_reported":1705446434,"current_range_meters":9600,"station_id":"ce4bgqh2rcd13ifvqc4g","pricing_plan_id":"free"},{"bike_id":"94f02d51-1fe1-4475-9412-48cfd175831a","system_id":"levelo_inurba_marseille","lat":43.311223,"lon":5.377579,"is_reserved":false,"is_disabled":false,"rental_uris":{"android":"levelo://app?vid=94f02d51-1fe1-4475-9412-48cfd175831a","ios":"levelo://app?vid=94f02d51-1fe1-4475-9412-48cfd175831a"},"vehicle_type_id":"4","last_reported":1705446434,"current_range_meters":2400,"station_id":"ce4bgt92rcd13ifvqcg0","pricing_plan_id":"free"},{"bike_id":"c9c8b687-de58-4bd2-a820-5ba1f742a45f","system_id":"levelo_inurba_marseille","lat":43.311268,"lon":5.37763,"is_reserved":false,"is_disabled":false,"rental_uris":{"android":"levelo://app?vid=c9c8b687-de58-4bd2-a820-5ba1f742a45f","ios":"levelo://app?vid=c9c8b687-de58-4bd2-a820-5ba1f742a45f"},"vehicle_type_id":"4","last_reported":1705446434,"current_range_meters":7600,"station_id":"ce4bgt92rcd13ifvqcg0","pricing_plan_id":"free"},{"bike_id":"29de0205-2074-4d12-a979-af3a6c0b76b2","system_id":"levelo_inurba_marseille","lat":43.311251,"lon":5.377699,"is_reserved":false,"is_disabled":false,"rental_uris":{"android":"levelo://app?vid=29de0205-2074-4d12-a979-af3a6c0b76b2","ios":"levelo://app?vid=29de0205-2074-4d12-a979-af3a6c0b76b2"},"vehicle_type_id":"4","last_reported":1705446434,"current_range_meters":0,"station_id":"ce4bgt92rcd13ifvqcg0","pricing_plan_id":"free"},{"bike_id":"fd0809b1-323f-4145-8109-e2a7364931f2","system_id":"levelo_inurba_marseille","lat":43.311135,"lon":5.377675,"is_reserved":false,"is_disabled":false,"rental_uris":{"android":"levelo://app?vid=fd0809b1-323f-4145-8109-e2a7364931f2","ios":"levelo://app?vid=fd0809b1-323f-4145-8109-e2a7364931f2"},"vehicle_type_id":"4","last_reported":1705446434,"current_range_meters":16000,"station_id":"ce4bgt92rcd13ifvqcg0","pricing_plan_id":"free"},{"bike_id":"c880ff17-e905-4ba7-acf6-4d52e42e5dec","system_id":"levelo_inurba_marseille","lat":43.307945,"lon":5.376487,"is_reserved":false,"is_disabled":false,"rental_uris":{"android":"levelo://app?vid=c880ff17-e905-4ba7-acf6-4d52e42e5dec","ios":"levelo://app?vid=c880ff17-e905-4ba7-acf6-4d52e42e5dec"},"vehicle_type_id":"4","last_reported":1705446434,"current_range_meters":21200,"station_id":"ce4bgv92rcd13ifvqcq0","pricing_plan_id":"free"},{"bike_id":"c8c83f85-6e8f-460f-8798-a2ba590d5f56","system_id":"levelo_inurba_marseille","lat":43.307945,"lon":5.376487,"is_reserved":false,"is_disabled":false,"rental_uris":{"android":"levelo://app?vid=c8c83f85-6e8f-460f-8798-a2ba590d5f56","ios":"levelo://app?vid=c8c83f85-6e8f-460f-8798-a2ba590d5f56"},"vehicle_type_id":"4","last_reported":1705446434,"current_range_meters":14400,"station_id":"ce4bgv92rcd13ifvqcq0","pricing_plan_id":"free"},{"bike_id":"ffbc3f57-ad8b-4153-b5bd-2a5a9a0249c1","system_id":"levelo_inurba_marseille","lat":43.307945,"lon":5.376487,"is_reserved":false,"is_disabled":false,"rental_uris":{"android":"levelo://app?vid=ffbc3f57-ad8b-4153-b5bd-2a5a9a0249c1","ios":"levelo://app?vid=ffbc3f57-ad8b-4153-b5bd-2a5a9a0249c1"},"vehicle_type_id":"4","last_reported":1705446434,"current_range_meters":12000,"station_id":"ce4bgv92rcd13ifvqcq0","pricing_plan_id":"free"},{"bike_id":"0b29e6e1-965b-4443-86c2-1b81f6b3bedb","system_id":"levelo_inurba_marseille","lat":43.317075,"lon":5.377367,"is_reserved":false,"is_disabled":false,"rental_uris":{"android":"levelo://app?vid=0b29e6e1-965b-4443-86c2-1b81f6b3bedb","ios":"levelo://app?vid=0b29e6e1-965b-4443-86c2-1b81f6b3bedb"},"vehicle_type_id":"4","last_reported":1705446434,"current_range_meters":20800,"station_id":"ce4bgth2rcd13ifvqch0","pricing_plan_id":"free"},{"bike_id":"75462efd-035d-44bb-836b-50dd51e6bc51","system_id":"levelo_inurba_marseille","lat":43.30304,"lon":5.368987,"is_reserved":false,"is_disabled":false,"rental_uris":{"android":"levelo://app?vid=75462efd-035d-44bb-836b-50dd51e6bc51","ios":"levelo://app?vid=75462efd-035d-44bb-836b-50dd51e6bc51"},"vehicle_type_id":"4","last_reported":1705446434,"current_range_meters":24000,"station_id":"ce4bgqh2rcd13ifvqc5g","pricing_plan_id":"free"},{"bike_id":"f00c894c-6b8e-4449-919c-5026b541618c","system_id":"levelo_inurba_marseille","lat":43.31528,"lon":5.38028,"is_reserved":false,"is_disabled":false,"rental_uris":{"android":"levelo://app?vid=f00c894c-6b8e-4449-919c-5026b541618c","ios":"levelo://app?vid=f00c894c-6b8e-4449-919c-5026b541618c"},"vehicle_type_id":"4","last_reported":1705446434,"current_range_meters":22400,"station_id":"ce4bhsp2rcd13ifvqi50","pricing_plan_id":"free"},{"bike_id":"3141e676-95d7-4662-8b2d-9f190b643f7e","system_id":"levelo_inurba_marseille","lat":43.315357,"lon":5.3803,"is_reserved":false,"is_disabled":false,"rental_uris":{"android":"levelo://app?vid=3141e676-95d7-4662-8b2d-9f190b643f7e","ios":"levelo://app?vid=3141e676-95d7-4662-8b2d-9f190b643f7e"},"vehicle_type_id":"4","last_reported":1705446434,"current_range_meters":2400,"station_id":"ce4bhsp2rcd13ifvqi50","pricing_plan_id":"free"},{"bike_id":"d9afa6bf-273e-4a81-9be8-5adac3ab06c1","system_id":"levelo_inurba_marseille","lat":43.301939,"lon":5.366286,"is_reserved":false,"is_disabled":false,"rental_uris":{"android":"levelo://app?vid=d9afa6bf-273e-4a81-9be8-5adac3ab06c1","ios":"levelo://app?vid=d9afa6bf-273e-4a81-9be8-5adac3ab06c1"},"vehicle_type_id":"4","last_reported":1705446434,"current_range_meters":24400,"station_id":"ce4bgrh2rcd13ifvqc8g","pricing_plan_id":"free"},{"bike_id":"53851293-1c5f-451d-a9e8-ef17aca554d8","system_id":"levelo_inurba_marseille","lat":43.301939,"lon":5.366286,"is_reserved":false,"is_disabled":false,"rental_uris":{"android":"levelo://app?vid=53851293-1c5f-451d-a9e8-ef17aca554d8","ios":"levelo://app?vid=53851293-1c5f-451d-a9e8-ef17aca554d8"},"vehicle_type_id":"4","last_reported":1705446434,"current_range_meters":24800,"station_id":"ce4bgrh2rcd13ifvqc8g","pricing_plan_id":"free"},{"bike_id":"60a9d9c3-e631-4209-b143-23e1bbb7513e","system_id":"levelo_inurba_marseille","lat":43.308012,"lon":5.381511,"is_reserved":false,"is_disabled":false,"rental_uris":{"android":"levelo://app?vid=60a9d9c3-e631-4209-b143-23e1bbb7513e","ios":"levelo://app?vid=60a9d9c3-e631-4209-b143-23e1bbb7513e"},"vehicle_type_id":"4","last_reported":1705446434,"current_range_meters":24000,"station_id":"ce4bgt12rcd13ifvqce0","pricing_plan_id":"free"},{"bike_id":"49909fbd-4ba0-4bcb-900c-50564d5fa103","system_id":"levelo_inurba_marseille","lat":43.308012,"lon":5.381511,"is_reserved":false,"is_disabled":false,"rental_uris":{"android":"levelo://app?vid=49909fbd-4ba0-4bcb-900c-50564d5fa103","ios":"levelo://app?vid=49909fbd-4ba0-4bcb-900c-50564d5fa103"},"vehicle_type_id":"4","last_reported":1705446434,"current_range_meters":11600,"station_id":"ce4bgt12rcd13ifvqce0","pricing_plan_id":"free"},{"bike_id":"c95b35d5-27cb-4546-966e-af946a223ba4","system_id":"levelo_inurba_marseille","lat":43.308012,"lon":5.381511,"is_reserved":false,"is_disabled":false,"rental_uris":{"android":"levelo://app?vid=c95b35d5-27cb-4546-966e-af946a223ba4","ios":"levelo://app?vid=c95b35d5-27cb-4546-966e-af946a223ba4"},"vehicle_type_id":"4","last_reported":1705446434,"current_range_meters":18000,"station_id":"ce4bgt12rcd13ifvqce0","pricing_plan_id":"free"},{"bike_id":"aacc6f94-dc90-4dd7-b482-aaefeac1c72f","system_id":"levelo_inurba_marseille","lat":43.308012,"lon":5.381511,"is_reserved":false,"is_disabled":false,"rental_uris":{"android":"levelo://app?vid=aacc6f94-dc90-4dd7-b482-aaefeac1c72f","ios":"levelo://app?vid=aacc6f94-dc90-4dd7-b482-aaefeac1c72f"},"vehicle_type_id":"4","last_reported":1705446434,"current_range_meters":18800,"station_id":"ce4bgt12rcd13ifvqce0","pricing_plan_id":"free"},{"bike_id":"beb5f506-0e7a-49e1-a6d7-8389d3bfa60b","system_id":"levelo_inurba_marseille","lat":43.308012,"lon":5.381511,"is_reserved":false,"is_disabled":false,"rental_uris":{"android":"levelo://app?vid=beb5f506-0e7a-49e1-a6d7-8389d3bfa60b","ios":"levelo://app?vid=beb5f506-0e7a-49e1-a6d7-8389d3bfa60b"},"vehicle_type_id":"4","last_reported":1705446434,"current_range_meters":0,"station_id":"ce4bgt12rcd13ifvqce0","pricing_plan_id":"free"},{"bike_id":"e53ceb92-be11-486d-9cce-3c5b6cc74f1e","system_id":"levelo_inurba_marseille","lat":43.308012,"lon":5.381511,"is_reserved":false,"is_disabled":false,"rental_uris":{"android":"levelo://app?vid=e53ceb92-be11-486d-9cce-3c5b6cc74f1e","ios":"levelo://app?vid=e53ceb92-be11-486d-9cce-3c5b6cc74f1e"},"vehicle_type_id":"4","last_reported":1705446434,"current_range_meters":1200,"station_id":"ce4bgt12rcd13ifvqce0","pricing_plan_id":"free"},{"bike_id":"8e7245a1-c18d-4a98-86a7-77e2ce2a1296","system_id":"levelo_inurba_marseille","lat":43.304623,"lon":5.379033,"is_reserved":false,"is_disabled":false,"rental_uris":{"android":"levelo://app?vid=8e7245a1-c18d-4a98-86a7-77e2ce2a1296","ios":"levelo://app?vid=8e7245a1-c18d-4a98-86a7-77e2ce2a1296"},"vehicle_type_id":"4","last_reported":1705446434,"current_range_meters":0,"station_id":"ce4bgup2rcd13ifvqcn0","pricing_plan_id":"free"},{"bike_id":"61a6e069-1738-4fb4-914c-71544c263cb0","system_id":"levelo_inurba_marseille","lat":43.324771,"lon":5.36557,"is_reserved":false,"is_disabled":false,"rental_uris":{"android":"levelo://app?vid=61a6e069-1738-4fb4-914c-71544c263cb0","ios":"levelo://app?vid=61a6e069-1738-4fb4-914c-71544c263cb0"},"vehicle_type_id":"4","last_reported":1705446434,"current_range_meters":8800,"station_id":"ce4bhs12rcd13ifvqhvg","pricing_plan_id":"free"},{"bike_id":"b6665513-6ca2-42dc-9baf-3c5b43a49768","system_id":"levelo_inurba_marseille","lat":43.324771,"lon":5.36557,"is_reserved":false,"is_disabled":false,"rental_uris":{"android":"levelo://app?vid=b6665513-6ca2-42dc-9baf-3c5b43a49768","ios":"levelo://app?vid=b6665513-6ca2-42dc-9baf-3c5b43a49768"},"vehicle_type_id":"4","last_reported":1705446434,"current_range_meters":27600,"station_id":"ce4bhs12rcd13ifvqhvg","pricing_plan_id":"free"},{"bike_id":"46c6befd-1978-4025-b46c-362d658f43fa","system_id":"levelo_inurba_marseille","lat":43.324771,"lon":5.36557,"is_reserved":false,"is_disabled":false,"rental_uris":{"android":"levelo://app?vid=46c6befd-1978-4025-b46c-362d658f43fa","ios":"levelo://app?vid=46c6befd-1978-4025-b46c-362d658f43fa"},"vehicle_type_id":"4","last_reported":1705446434,"current_range_meters":29600,"station_id":"ce4bhs12rcd13ifvqhvg","pricing_plan_id":"free"},{"bike_id":"fa464119-3865-4d78-914a-9227a851e6df","system_id":"levelo_inurba_marseille","lat":43.324771,"lon":5.36557,"is_reserved":false,"is_disabled":false,"rental_uris":{"android":"levelo://app?vid=fa464119-3865-4d78-914a-9227a851e6df","ios":"levelo://app?vid=fa464119-3865-4d78-914a-9227a851e6df"},"vehicle_type_id":"4","last_reported":1705446434,"current_range_meters":18400,"station_id":"ce4bhs12rcd13ifvqhvg","pricing_plan_id":"free"},{"bike_id":"ce203f00-9b61-4792-a072-366e23c0f704","system_id":"levelo_inurba_marseille","lat":43.302801,"lon":5.376995,"is_reserved":false,"is_disabled":false,"rental_uris":{"android":"levelo://app?vid=ce203f00-9b61-4792-a072-366e23c0f704","ios":"levelo://app?vid=ce203f00-9b61-4792-a072-366e23c0f704"},"vehicle_type_id":"4","last_reported":1705446434,"current_range_meters":30000,"station_id":"","pricing_plan_id":"free"},{"bike_id":"5d5804c6-b11e-41b1-98f9-4d734fc4a1af","system_id":"levelo_inurba_marseille","lat":43.299028,"lon":5.381509,"is_reserved":false,"is_disabled":false,"rental_uris":{"android":"levelo://app?vid=5d5804c6-b11e-41b1-98f9-4d734fc4a1af","ios":"levelo://app?vid=5d5804c6-b11e-41b1-98f9-4d734fc4a1af"},"vehicle_type_id":"4","last_reported":1705446434,"current_range_meters":14800,"station_id":"ce4bgj12rcd13ifvqbc0","pricing_plan_id":"free"},{"bike_id":"108030ef-e04f-40d2-aca4-48abb3cb5aa3","system_id":"levelo_inurba_marseille","lat":43.319935,"lon":5.381699,"is_reserved":false,"is_disabled":false,"rental_uris":{"android":"levelo://app?vid=108030ef-e04f-40d2-aca4-48abb3cb5aa3","ios":"levelo://app?vid=108030ef-e04f-40d2-aca4-48abb3cb5aa3"},"vehicle_type_id":"4","last_reported":1705446434,"current_range_meters":10000,"station_id":"ce4bhr12rcd13ifvqhpg","pricing_plan_id":"free"},{"bike_id":"26fb0bd6-1ab7-43fe-824c-80f1a4097f4e","system_id":"levelo_inurba_marseille","lat":43.319935,"lon":5.381699,"is_reserved":false,"is_disabled":false,"rental_uris":{"android":"levelo://app?vid=26fb0bd6-1ab7-43fe-824c-80f1a4097f4e","ios":"levelo://app?vid=26fb0bd6-1ab7-43fe-824c-80f1a4097f4e"},"vehicle_type_id":"4","last_reported":1705446434,"current_range_meters":28800,"station_id":"ce4bhr12rcd13ifvqhpg","pricing_plan_id":"free"},{"bike_id":"8132332f-67fb-4b4d-b78d-90427948e058","system_id":"levelo_inurba_marseille","lat":43.319935,"lon":5.381699,"is_reserved":false,"is_disabled":false,"rental_uris":{"android":"levelo://app?vid=8132332f-67fb-4b4d-b78d-90427948e058","ios":"levelo://app?vid=8132332f-67fb-4b4d-b78d-90427948e058"},"vehicle_type_id":"4","last_reported":1705446434,"current_range_meters":18400,"station_id":"ce4bhr12rcd13ifvqhpg","pricing_plan_id":"free"},{"bike_id":"d2edba53-b6fb-4937-aa17-e4cc1be26aea","system_id":"levelo_inurba_marseille","lat":43.319935,"lon":5.381699,"is_reserved":false,"is_disabled":false,"rental_uris":{"android":"levelo://app?vid=d2edba53-b6fb-4937-aa17-e4cc1be26aea","ios":"levelo://app?vid=d2edba53-b6fb-4937-aa17-e4cc1be26aea"},"vehicle_type_id":"4","last_reported":1705446434,"current_range_meters":17600,"station_id":"ce4bhr12rcd13ifvqhpg","pricing_plan_id":"free"},{"bike_id":"1654e7b0-0af2-4f46-8e4a-b119b0d39473","system_id":"levelo_inurba_marseille","lat":43.319935,"lon":5.381699,"is_reserved":false,"is_disabled":false,"rental_uris":{"android":"levelo://app?vid=1654e7b0-0af2-4f46-8e4a-b119b0d39473","ios":"levelo://app?vid=1654e7b0-0af2-4f46-8e4a-b119b0d39473"},"vehicle_type_id":"4","last_reported":1705446434,"current_range_meters":10800,"station_id":"ce4bhr12rcd13ifvqhpg","pricing_plan_id":"free"},{"bike_id":"c98d78a3-68e6-4c31-9191-5f8d5879bbe0","system_id":"levelo_inurba_marseille","lat":43.319935,"lon":5.381699,"is_reserved":false,"is_disabled":false,"rental_uris":{"android":"levelo://app?vid=c98d78a3-68e6-4c31-9191-5f8d5879bbe0","ios":"levelo://app?vid=c98d78a3-68e6-4c31-9191-5f8d5879bbe0"},"vehicle_type_id":"4","last_reported":1705446434,"current_range_meters":18400,"station_id":"ce4bhr12rcd13ifvqhpg","pricing_plan_id":"free"},{"bike_id":"05e7bf18-c01a-4d0f-af28-ec5522fcca76","system_id":"levelo_inurba_marseille","lat":43.319935,"lon":5.381699,"is_reserved":false,"is_disabled":false,"rental_uris":{"android":"levelo://app?vid=05e7bf18-c01a-4d0f-af28-ec5522fcca76","ios":"levelo://app?vid=05e7bf18-c01a-4d0f-af28-ec5522fcca76"},"vehicle_type_id":"4","last_reported":1705446434,"current_range_meters":10400,"station_id":"ce4bhr12rcd13ifvqhpg","pricing_plan_id":"free"},{"bike_id":"2b2fa4c3-6513-4039-b4c7-d49a15fe0c7d","system_id":"levelo_inurba_marseille","lat":43.319935,"lon":5.381699,"is_reserved":false,"is_disabled":false,"rental_uris":{"android":"levelo://app?vid=2b2fa4c3-6513-4039-b4c7-d49a15fe0c7d","ios":"levelo://app?vid=2b2fa4c3-6513-4039-b4c7-d49a15fe0c7d"},"vehicle_type_id":"4","last_reported":1705446434,"current_range_meters":26000,"station_id":"ce4bhr12rcd13ifvqhpg","pricing_plan_id":"free"},{"bike_id":"589cd3c9-c75b-4069-a064-7b24d5d96c26","system_id":"levelo_inurba_marseille","lat":43.319935,"lon":5.381699,"is_reserved":false,"is_disabled":false,"rental_uris":{"android":"levelo://app?vid=589cd3c9-c75b-4069-a064-7b24d5d96c26","ios":"levelo://app?vid=589cd3c9-c75b-4069-a064-7b24d5d96c26"},"vehicle_type_id":"4","last_reported":1705446434,"current_range_meters":400,"station_id":"ce4bhr12rcd13ifvqhpg","pricing_plan_id":"free"},{"bike_id":"d05be7e6-caaa-4779-8fd5-fb8ec23c81a0","system_id":"levelo_inurba_marseille","lat":43.313571,"lon":5.384829,"is_reserved":false,"is_disabled":false,"rental_uris":{"android":"levelo://app?vid=d05be7e6-caaa-4779-8fd5-fb8ec23c81a0","ios":"levelo://app?vid=d05be7e6-caaa-4779-8fd5-fb8ec23c81a0"},"vehicle_type_id":"4","last_reported":1705446434,"current_range_meters":25600,"station_id":"ce4bgt92rcd13ifvqcf0","pricing_plan_id":"free"},{"bike_id":"d409e2d3-525d-441c-bea9-429fadeacb67","system_id":"levelo_inurba_marseille","lat":43.313571,"lon":5.384829,"is_reserved":false,"is_disabled":false,"rental_uris":{"android":"levelo://app?vid=d409e2d3-525d-441c-bea9-429fadeacb67","ios":"levelo://app?vid=d409e2d3-525d-441c-bea9-429fadeacb67"},"vehicle_type_id":"4","last_reported":1705446434,"current_range_meters":30000,"station_id":"ce4bgt92rcd13ifvqcf0","pricing_plan_id":"free"},{"bike_id":"98a0778f-e8cf-4d5d-ab26-5f5542599ec5","system_id":"levelo_inurba_marseille","lat":43.299432,"lon":5.365528,"is_reserved":false,"is_disabled":false,"rental_uris":{"android":"levelo://app?vid=98a0778f-e8cf-4d5d-ab26-5f5542599ec5","ios":"levelo://app?vid=98a0778f-e8cf-4d5d-ab26-5f5542599ec5"},"vehicle_type_id":"4","last_reported":1705446434,"current_range_meters":16000,"station_id":"ce4bgm92rcd13ifvqbr0","pricing_plan_id":"free"},{"bike_id":"82500e07-3cc7-450e-97a3-381ae4692746","system_id":"levelo_inurba_marseille","lat":43.299724,"lon":5.371829,"is_reserved":false,"is_disabled":false,"rental_uris":{"android":"levelo://app?vid=82500e07-3cc7-450e-97a3-381ae4692746","ios":"levelo://app?vid=82500e07-3cc7-450e-97a3-381ae4692746"},"vehicle_type_id":"4","last_reported":1705446434,"current_range_meters":28800,"station_id":"ce4bgr92rcd13ifvqc7g","pricing_plan_id":"free"},{"bike_id":"1d0b5427-c51a-4e6f-8185-4460f986a633","system_id":"levelo_inurba_marseille","lat":43.299724,"lon":5.371829,"is_reserved":false,"is_disabled":false,"rental_uris":{"android":"levelo://app?vid=1d0b5427-c51a-4e6f-8185-4460f986a633","ios":"levelo://app?vid=1d0b5427-c51a-4e6f-8185-4460f986a633"},"vehicle_type_id":"4","last_reported":1705446434,"current_range_meters":18000,"station_id":"ce4bgr92rcd13ifvqc7g","pricing_plan_id":"free"},{"bike_id":"e9d48811-0301-47f9-b209-35b2add686ad","system_id":"levelo_inurba_marseille","lat":43.299222,"lon":5.365554,"is_reserved":false,"is_disabled":false,"rental_uris":{"android":"levelo://app?vid=e9d48811-0301-47f9-b209-35b2add686ad","ios":"levelo://app?vid=e9d48811-0301-47f9-b209-35b2add686ad"},"vehicle_type_id":"4","last_reported":1705446434,"current_range_meters":27200,"station_id":"ce4bgm92rcd13ifvqbr0","pricing_plan_id":"free"},{"bike_id":"97d7720a-ac7b-4786-9fce-bf15545728ff","system_id":"levelo_inurba_marseille","lat":43.298433,"lon":5.362774,"is_reserved":false,"is_disabled":false,"rental_uris":{"android":"levelo://app?vid=97d7720a-ac7b-4786-9fce-bf15545728ff","ios":"levelo://app?vid=97d7720a-ac7b-4786-9fce-bf15545728ff"},"vehicle_type_id":"4","last_reported":1705446434,"current_range_meters":30800,"station_id":"ce4bgpp2rcd13ifvqc3g","pricing_plan_id":"free"},{"bike_id":"c98bda8c-0cc2-4bfd-9638-e2bb4b8c4b22","system_id":"levelo_inurba_marseille","lat":43.299243,"lon":5.37481,"is_reserved":false,"is_disabled":false,"rental_uris":{"android":"levelo://app?vid=c98bda8c-0cc2-4bfd-9638-e2bb4b8c4b22","ios":"levelo://app?vid=c98bda8c-0cc2-4bfd-9638-e2bb4b8c4b22"},"vehicle_type_id":"4","last_reported":1705446434,"current_range_meters":30800,"station_id":"ce4bgjh2rcd13ifvqbg0","pricing_plan_id":"free"},{"bike_id":"22322436-cfe4-4bf2-a1c5-1045f3c57ae0","system_id":"levelo_inurba_marseille","lat":43.299243,"lon":5.374807,"is_reserved":false,"is_disabled":false,"rental_uris":{"android":"levelo://app?vid=22322436-cfe4-4bf2-a1c5-1045f3c57ae0","ios":"levelo://app?vid=22322436-cfe4-4bf2-a1c5-1045f3c57ae0"},"vehicle_type_id":"4","last_reported":1705446434,"current_range_meters":21600,"station_id":"ce4bgjh2rcd13ifvqbg0","pricing_plan_id":"free"},{"bike_id":"fc2b5458-3cb2-4a1d-9421-81ec874af417","system_id":"levelo_inurba_marseille","lat":43.299243,"lon":5.37481,"is_reserved":false,"is_disabled":false,"rental_uris":{"android":"levelo://app?vid=fc2b5458-3cb2-4a1d-9421-81ec874af417","ios":"levelo://app?vid=fc2b5458-3cb2-4a1d-9421-81ec874af417"},"vehicle_type_id":"4","last_reported":1705446434,"current_range_meters":8000,"station_id":"ce4bgjh2rcd13ifvqbg0","pricing_plan_id":"free"},{"bike_id":"c711a778-5cc8-41a9-8750-9553e573f940","system_id":"levelo_inurba_marseille","lat":43.311722,"lon":5.387247,"is_reserved":false,"is_disabled":false,"rental_uris":{"android":"levelo://app?vid=c711a778-5cc8-41a9-8750-9553e573f940","ios":"levelo://app?vid=c711a778-5cc8-41a9-8750-9553e573f940"},"vehicle_type_id":"4","last_reported":1705446434,"current_range_meters":26800,"station_id":"ce4bgv12rcd13ifvqcp0","pricing_plan_id":"free"},{"bike_id":"74296dab-e24d-4a7f-8066-9808a0843eb4","system_id":"levelo_inurba_marseille","lat":43.311722,"lon":5.387247,"is_reserved":false,"is_disabled":false,"rental_uris":{"android":"levelo://app?vid=74296dab-e24d-4a7f-8066-9808a0843eb4","ios":"levelo://app?vid=74296dab-e24d-4a7f-8066-9808a0843eb4"},"vehicle_type_id":"4","last_reported":1705446434,"current_range_meters":27600,"station_id":"ce4bgv12rcd13ifvqcp0","pricing_plan_id":"free"},{"bike_id":"a0c26355-478d-42a5-b302-04a5a50a34a7","system_id":"levelo_inurba_marseille","lat":43.311722,"lon":5.387247,"is_reserved":false,"is_disabled":false,"rental_uris":{"android":"levelo://app?vid=a0c26355-478d-42a5-b302-04a5a50a34a7","ios":"levelo://app?vid=a0c26355-478d-42a5-b302-04a5a50a34a7"},"vehicle_type_id":"4","last_reported":1705446434,"current_range_meters":29600,"station_id":"ce4bgv12rcd13ifvqcp0","pricing_plan_id":"free"},{"bike_id":"908f71ba-886f-4a55-96d0-0aad0698663a","system_id":"levelo_inurba_marseille","lat":43.311722,"lon":5.387247,"is_reserved":false,"is_disabled":false,"rental_uris":{"android":"levelo://app?vid=908f71ba-886f-4a55-96d0-0aad0698663a","ios":"levelo://app?vid=908f71ba-886f-4a55-96d0-0aad0698663a"},"vehicle_type_id":"4","last_reported":1705446434,"current_range_meters":18800,"station_id":"ce4bgv12rcd13ifvqcp0","pricing_plan_id":"free"},{"bike_id":"b4d063b9-7dac-42ac-9925-fb0575f578dd","system_id":"levelo_inurba_marseille","lat":43.299243,"lon":5.37481,"is_reserved":false,"is_disabled":false,"rental_uris":{"android":"levelo://app?vid=b4d063b9-7dac-42ac-9925-fb0575f578dd","ios":"levelo://app?vid=b4d063b9-7dac-42ac-9925-fb0575f578dd"},"vehicle_type_id":"4","last_reported":1705446434,"current_range_meters":30800,"station_id":"ce4bgjh2rcd13ifvqbg0","pricing_plan_id":"free"},{"bike_id":"2645d508-20ed-45ed-9f66-11f1c6d49562","system_id":"levelo_inurba_marseille","lat":43.311722,"lon":5.387247,"is_reserved":false,"is_disabled":false,"rental_uris":{"android":"levelo://app?vid=2645d508-20ed-45ed-9f66-11f1c6d49562","ios":"levelo://app?vid=2645d508-20ed-45ed-9f66-11f1c6d49562"},"vehicle_type_id":"4","last_reported":1705446434,"current_range_meters":26000,"station_id":"ce4bgv12rcd13ifvqcp0","pricing_plan_id":"free"},{"bike_id":"9b4cf8d9-8697-49da-816f-b56aa5048f3e","system_id":"levelo_inurba_marseille","lat":43.311722,"lon":5.387247,"is_reserved":false,"is_disabled":false,"rental_uris":{"android":"levelo://app?vid=9b4cf8d9-8697-49da-816f-b56aa5048f3e","ios":"levelo://app?vid=9b4cf8d9-8697-49da-816f-b56aa5048f3e"},"vehicle_type_id":"4","last_reported":1705446434,"current_range_meters":1200,"station_id":"ce4bgv12rcd13ifvqcp0","pricing_plan_id":"free"},{"bike_id":"2a966552-e3d4-418c-b800-4338b1e8d1da","system_id":"levelo_inurba_marseille","lat":43.299243,"lon":5.374807,"is_reserved":false,"is_disabled":false,"rental_uris":{"android":"levelo://app?vid=2a966552-e3d4-418c-b800-4338b1e8d1da","ios":"levelo://app?vid=2a966552-e3d4-418c-b800-4338b1e8d1da"},"vehicle_type_id":"4","last_reported":1705446434,"current_range_meters":28000,"station_id":"ce4bgjh2rcd13ifvqbg0","pricing_plan_id":"free"},{"bike_id":"34c8b400-5074-46e3-aa02-f5d274dfaa4f","system_id":"levelo_inurba_marseille","lat":43.322882,"lon":5.3826,"is_reserved":false,"is_disabled":false,"rental_uris":{"android":"levelo://app?vid=34c8b400-5074-46e3-aa02-f5d274dfaa4f","ios":"levelo://app?vid=34c8b400-5074-46e3-aa02-f5d274dfaa4f"},"vehicle_type_id":"4","last_reported":1705446434,"current_range_meters":19200,"station_id":"ce4bhr12rcd13ifvqhqg","pricing_plan_id":"free"},{"bike_id":"0d666429-792d-477e-b03b-8d07152545bb","system_id":"levelo_inurba_marseille","lat":43.322882,"lon":5.38261,"is_reserved":false,"is_disabled":false,"rental_uris":{"android":"levelo://app?vid=0d666429-792d-477e-b03b-8d07152545bb","ios":"levelo://app?vid=0d666429-792d-477e-b03b-8d07152545bb"},"vehicle_type_id":"4","last_reported":1705446434,"current_range_meters":6800,"station_id":"ce4bhr12rcd13ifvqhqg","pricing_plan_id":"free"},{"bike_id":"f675b702-73f1-40c0-8188-e4784f2816f9","system_id":"levelo_inurba_marseille","lat":43.322872,"lon":5.382756,"is_reserved":false,"is_disabled":false,"rental_uris":{"android":"levelo://app?vid=f675b702-73f1-40c0-8188-e4784f2816f9","ios":"levelo://app?vid=f675b702-73f1-40c0-8188-e4784f2816f9"},"vehicle_type_id":"4","last_reported":1705446434,"current_range_meters":31200,"station_id":"ce4bhr12rcd13ifvqhqg","pricing_plan_id":"free"},{"bike_id":"f85a4350-761e-4ac5-924d-f795e652d954","system_id":"levelo_inurba_marseille","lat":43.322899,"lon":5.38264,"is_reserved":false,"is_disabled":false,"rental_uris":{"android":"levelo://app?vid=f85a4350-761e-4ac5-924d-f795e652d954","ios":"levelo://app?vid=f85a4350-761e-4ac5-924d-f795e652d954"},"vehicle_type_id":"4","last_reported":1705446434,"current_range_meters":800,"station_id":"ce4bhr12rcd13ifvqhqg","pricing_plan_id":"free"},{"bike_id":"98c634c7-bdbe-4fde-8a9e-66ae5ba58bf4","system_id":"levelo_inurba_marseille","lat":43.322872,"lon":5.382756,"is_reserved":false,"is_disabled":false,"rental_uris":{"android":"levelo://app?vid=98c634c7-bdbe-4fde-8a9e-66ae5ba58bf4","ios":"levelo://app?vid=98c634c7-bdbe-4fde-8a9e-66ae5ba58bf4"},"vehicle_type_id":"4","last_reported":1705446434,"current_range_meters":31200,"station_id":"ce4bhr12rcd13ifvqhqg","pricing_plan_id":"free"},{"bike_id":"c59e915a-05cb-49b2-8b19-dcae4465ebcc","system_id":"levelo_inurba_marseille","lat":43.32291,"lon":5.38266,"is_reserved":false,"is_disabled":false,"rental_uris":{"android":"levelo://app?vid=c59e915a-05cb-49b2-8b19-dcae4465ebcc","ios":"levelo://app?vid=c59e915a-05cb-49b2-8b19-dcae4465ebcc"},"vehicle_type_id":"4","last_reported":1705446434,"current_range_meters":0,"station_id":"ce4bhr12rcd13ifvqhqg","pricing_plan_id":"free"},{"bike_id":"26f91de3-6627-4706-9d59-9aefca0a07fd","system_id":"levelo_inurba_marseille","lat":43.322872,"lon":5.382756,"is_reserved":false,"is_disabled":false,"rental_uris":{"android":"levelo://app?vid=26f91de3-6627-4706-9d59-9aefca0a07fd","ios":"levelo://app?vid=26f91de3-6627-4706-9d59-9aefca0a07fd"},"vehicle_type_id":"4","last_reported":1705446434,"current_range_meters":30400,"station_id":"ce4bhr12rcd13ifvqhqg","pricing_plan_id":"free"},{"bike_id":"17ee7a8a-cd73-4eb8-b7e0-454634636574","system_id":"levelo_inurba_marseille","lat":43.322872,"lon":5.382756,"is_reserved":false,"is_disabled":false,"rental_uris":{"android":"levelo://app?vid=17ee7a8a-cd73-4eb8-b7e0-454634636574","ios":"levelo://app?vid=17ee7a8a-cd73-4eb8-b7e0-454634636574"},"vehicle_type_id":"4","last_reported":1705446434,"current_range_meters":24400,"station_id":"ce4bhr12rcd13ifvqhqg","pricing_plan_id":"free"},{"bike_id":"be5c14c2-d069-4824-b2b4-323fba6ab1b5","system_id":"levelo_inurba_marseille","lat":43.32822,"lon":5.36676,"is_reserved":false,"is_disabled":false,"rental_uris":{"android":"levelo://app?vid=be5c14c2-d069-4824-b2b4-323fba6ab1b5","ios":"levelo://app?vid=be5c14c2-d069-4824-b2b4-323fba6ab1b5"},"vehicle_type_id":"4","last_reported":1705446434,"current_range_meters":8000,"station_id":"ce4bhs92rcd13ifvqi0g","pricing_plan_id":"free"},{"bike_id":"eb82efee-7e46-4cef-a643-d731882b95f4","system_id":"levelo_inurba_marseille","lat":43.328225,"lon":5.366755,"is_reserved":false,"is_disabled":false,"rental_uris":{"android":"levelo://app?vid=eb82efee-7e46-4cef-a643-d731882b95f4","ios":"levelo://app?vid=eb82efee-7e46-4cef-a643-d731882b95f4"},"vehicle_type_id":"4","last_reported":1705446434,"current_range_meters":12800,"station_id":"ce4bhs92rcd13ifvqi0g","pricing_plan_id":"free"},{"bike_id":"ea0178f3-2c6b-4af6-b062-91b0b8dde1df","system_id":"levelo_inurba_marseille","lat":43.328251,"lon":5.366726,"is_reserved":false,"is_disabled":false,"rental_uris":{"android":"levelo://app?vid=ea0178f3-2c6b-4af6-b062-91b0b8dde1df","ios":"levelo://app?vid=ea0178f3-2c6b-4af6-b062-91b0b8dde1df"},"vehicle_type_id":"4","last_reported":1705446434,"current_range_meters":9200,"station_id":"ce4bhs92rcd13ifvqi0g","pricing_plan_id":"free"},{"bike_id":"85cedcff-9e9a-415d-8415-195178ea3cb7","system_id":"levelo_inurba_marseille","lat":43.328253,"lon":5.366788,"is_reserved":false,"is_disabled":false,"rental_uris":{"android":"levelo://app?vid=85cedcff-9e9a-415d-8415-195178ea3cb7","ios":"levelo://app?vid=85cedcff-9e9a-415d-8415-195178ea3cb7"},"vehicle_type_id":"4","last_reported":1705446434,"current_range_meters":23600,"station_id":"ce4bhs92rcd13ifvqi0g","pricing_plan_id":"free"},{"bike_id":"9cda7071-0b99-4f13-a66f-99ee8455accb","system_id":"levelo_inurba_marseille","lat":43.328259,"lon":5.366789,"is_reserved":false,"is_disabled":false,"rental_uris":{"android":"levelo://app?vid=9cda7071-0b99-4f13-a66f-99ee8455accb","ios":"levelo://app?vid=9cda7071-0b99-4f13-a66f-99ee8455accb"},"vehicle_type_id":"4","last_reported":1705446434,"current_range_meters":21200,"station_id":"ce4bhs92rcd13ifvqi0g","pricing_plan_id":"free"},{"bike_id":"88638e12-da12-4596-b7e2-600ab2f62219","system_id":"levelo_inurba_marseille","lat":43.328264,"lon":5.366749,"is_reserved":false,"is_disabled":false,"rental_uris":{"android":"levelo://app?vid=88638e12-da12-4596-b7e2-600ab2f62219","ios":"levelo://app?vid=88638e12-da12-4596-b7e2-600ab2f62219"},"vehicle_type_id":"4","last_reported":1705446434,"current_range_meters":13200,"station_id":"ce4bhs92rcd13ifvqi0g","pricing_plan_id":"free"},{"bike_id":"641739e6-19de-47df-9491-35da26c3c9da","system_id":"levelo_inurba_marseille","lat":43.328371,"lon":5.366909,"is_reserved":false,"is_disabled":false,"rental_uris":{"android":"levelo://app?vid=641739e6-19de-47df-9491-35da26c3c9da","ios":"levelo://app?vid=641739e6-19de-47df-9491-35da26c3c9da"},"vehicle_type_id":"4","last_reported":1705446434,"current_range_meters":4800,"station_id":"ce4bhs92rcd13ifvqi0g","pricing_plan_id":"free"},{"bike_id":"02f97db8-1e1e-4f38-89f3-11868234f7c3","system_id":"levelo_inurba_marseille","lat":43.32828,"lon":5.3668,"is_reserved":false,"is_disabled":false,"rental_uris":{"android":"levelo://app?vid=02f97db8-1e1e-4f38-89f3-11868234f7c3","ios":"levelo://app?vid=02f97db8-1e1e-4f38-89f3-11868234f7c3"},"vehicle_type_id":"4","last_reported":1705446434,"current_range_meters":20400,"station_id":"ce4bhs92rcd13ifvqi0g","pricing_plan_id":"free"},{"bike_id":"947a5c0b-0299-4cd2-aecd-5f351114aaf8","system_id":"levelo_inurba_marseille","lat":43.32828,"lon":5.36678,"is_reserved":false,"is_disabled":false,"rental_uris":{"android":"levelo://app?vid=947a5c0b-0299-4cd2-aecd-5f351114aaf8","ios":"levelo://app?vid=947a5c0b-0299-4cd2-aecd-5f351114aaf8"},"vehicle_type_id":"4","last_reported":1705446434,"current_range_meters":24400,"station_id":"ce4bhs92rcd13ifvqi0g","pricing_plan_id":"free"},{"bike_id":"6b4ea496-3016-42db-af64-ba8beb6e73fc","system_id":"levelo_inurba_marseille","lat":43.328371,"lon":5.366909,"is_reserved":false,"is_disabled":false,"rental_uris":{"android":"levelo://app?vid=6b4ea496-3016-42db-af64-ba8beb6e73fc","ios":"levelo://app?vid=6b4ea496-3016-42db-af64-ba8beb6e73fc"},"vehicle_type_id":"4","last_reported":1705446434,"current_range_meters":26800,"station_id":"ce4bhs92rcd13ifvqi0g","pricing_plan_id":"free"},{"bike_id":"db79623b-2d08-46cb-b464-e412386772a7","system_id":"levelo_inurba_marseille","lat":43.328281,"lon":5.366878,"is_reserved":false,"is_disabled":false,"rental_uris":{"android":"levelo://app?vid=db79623b-2d08-46cb-b464-e412386772a7","ios":"levelo://app?vid=db79623b-2d08-46cb-b464-e412386772a7"},"vehicle_type_id":"4","last_reported":1705446434,"current_range_meters":30800,"station_id":"ce4bhs92rcd13ifvqi0g","pricing_plan_id":"free"},{"bike_id":"09621f87-561a-4138-9bcf-5568c59432a9","system_id":"levelo_inurba_marseille","lat":43.328283,"lon":5.366774,"is_reserved":false,"is_disabled":false,"rental_uris":{"android":"levelo://app?vid=09621f87-561a-4138-9bcf-5568c59432a9","ios":"levelo://app?vid=09621f87-561a-4138-9bcf-5568c59432a9"},"vehicle_type_id":"4","last_reported":1705446434,"current_range_meters":3600,"station_id":"ce4bhs92rcd13ifvqi0g","pricing_plan_id":"free"},{"bike_id":"2b663035-f36a-41e0-9f1f-b9beb7d577bf","system_id":"levelo_inurba_marseille","lat":43.328293,"lon":5.366773,"is_reserved":false,"is_disabled":false,"rental_uris":{"android":"levelo://app?vid=2b663035-f36a-41e0-9f1f-b9beb7d577bf","ios":"levelo://app?vid=2b663035-f36a-41e0-9f1f-b9beb7d577bf"},"vehicle_type_id":"4","last_reported":1705446434,"current_range_meters":20400,"station_id":"ce4bhs92rcd13ifvqi0g","pricing_plan_id":"free"},{"bike_id":"8463d0da-e03a-4a02-8a84-4dd7b137838e","system_id":"levelo_inurba_marseille","lat":43.328302,"lon":5.366775,"is_reserved":false,"is_disabled":false,"rental_uris":{"android":"levelo://app?vid=8463d0da-e03a-4a02-8a84-4dd7b137838e","ios":"levelo://app?vid=8463d0da-e03a-4a02-8a84-4dd7b137838e"},"vehicle_type_id":"4","last_reported":1705446434,"current_range_meters":23200,"station_id":"ce4bhs92rcd13ifvqi0g","pricing_plan_id":"free"},{"bike_id":"de3d858c-9c4f-453c-a4b6-90937b5d77ce","system_id":"levelo_inurba_marseille","lat":43.32832,"lon":5.36679,"is_reserved":false,"is_disabled":false,"rental_uris":{"android":"levelo://app?vid=de3d858c-9c4f-453c-a4b6-90937b5d77ce","ios":"levelo://app?vid=de3d858c-9c4f-453c-a4b6-90937b5d77ce"},"vehicle_type_id":"4","last_reported":1705446434,"current_range_meters":25200,"station_id":"ce4bhs92rcd13ifvqi0g","pricing_plan_id":"free"},{"bike_id":"1782ad4d-7cbc-4ac0-af82-b65688e9d34c","system_id":"levelo_inurba_marseille","lat":43.328334,"lon":5.366762,"is_reserved":false,"is_disabled":false,"rental_uris":{"android":"levelo://app?vid=1782ad4d-7cbc-4ac0-af82-b65688e9d34c","ios":"levelo://app?vid=1782ad4d-7cbc-4ac0-af82-b65688e9d34c"},"vehicle_type_id":"4","last_reported":1705446434,"current_range_meters":28400,"station_id":"ce4bhs92rcd13ifvqi0g","pricing_plan_id":"free"},{"bike_id":"38082c03-fac1-44d3-a79f-5142b4a113a9","system_id":"levelo_inurba_marseille","lat":43.328373,"lon":5.366902,"is_reserved":false,"is_disabled":false,"rental_uris":{"android":"levelo://app?vid=38082c03-fac1-44d3-a79f-5142b4a113a9","ios":"levelo://app?vid=38082c03-fac1-44d3-a79f-5142b4a113a9"},"vehicle_type_id":"4","last_reported":1705446434,"current_range_meters":26000,"station_id":"ce4bhs92rcd13ifvqi0g","pricing_plan_id":"free"},{"bike_id":"d91bc121-ba03-4a79-af47-a3f48344b0c9","system_id":"levelo_inurba_marseille","lat":43.29594,"lon":5.3679,"is_reserved":false,"is_disabled":false,"rental_uris":{"android":"levelo://app?vid=d91bc121-ba03-4a79-af47-a3f48344b0c9","ios":"levelo://app?vid=d91bc121-ba03-4a79-af47-a3f48344b0c9"},"vehicle_type_id":"4","last_reported":1705446434,"current_range_meters":23200,"station_id":"ce4bgph2rcd13ifvqc2g","pricing_plan_id":"free"},{"bike_id":"f43b3655-fd1b-4ba6-b1c1-ab85ff28fd5a","system_id":"levelo_inurba_marseille","lat":43.29573,"lon":5.367355,"is_reserved":false,"is_disabled":false,"rental_uris":{"android":"levelo://app?vid=f43b3655-fd1b-4ba6-b1c1-ab85ff28fd5a","ios":"levelo://app?vid=f43b3655-fd1b-4ba6-b1c1-ab85ff28fd5a"},"vehicle_type_id":"4","last_reported":1705446434,"current_range_meters":25600,"station_id":"ce4bgph2rcd13ifvqc2g","pricing_plan_id":"free"},{"bike_id":"dec9af05-3341-4728-8611-946f1c39a499","system_id":"levelo_inurba_marseille","lat":43.297086,"lon":5.37693,"is_reserved":false,"is_disabled":false,"rental_uris":{"android":"levelo://app?vid=dec9af05-3341-4728-8611-946f1c39a499","ios":"levelo://app?vid=dec9af05-3341-4728-8611-946f1c39a499"},"vehicle_type_id":"4","last_reported":1705446434,"current_range_meters":12000,"station_id":"ce4bgkh2rcd13ifvqbl0","pricing_plan_id":"free"},{"bike_id":"469ecdc1-4019-4933-ab2f-e2a13ab0627a","system_id":"levelo_inurba_marseille","lat":43.309589,"lon":5.390258,"is_reserved":false,"is_disabled":false,"rental_uris":{"android":"levelo://app?vid=469ecdc1-4019-4933-ab2f-e2a13ab0627a","ios":"levelo://app?vid=469ecdc1-4019-4933-ab2f-e2a13ab0627a"},"vehicle_type_id":"4","last_reported":1705446434,"current_range_meters":20800,"station_id":"ce4bgup2rcd13ifvqco0","pricing_plan_id":"free"},{"bike_id":"8e0c1681-514e-4ed1-8e95-cdf6fa8cd770","system_id":"levelo_inurba_marseille","lat":43.309589,"lon":5.390258,"is_reserved":false,"is_disabled":false,"rental_uris":{"android":"levelo://app?vid=8e0c1681-514e-4ed1-8e95-cdf6fa8cd770","ios":"levelo://app?vid=8e0c1681-514e-4ed1-8e95-cdf6fa8cd770"},"vehicle_type_id":"4","last_reported":1705446434,"current_range_meters":28400,"station_id":"ce4bgup2rcd13ifvqco0","pricing_plan_id":"free"},{"bike_id":"5ce4947f-be27-46da-b8d7-0257a1577151","system_id":"levelo_inurba_marseille","lat":43.309589,"lon":5.390258,"is_reserved":false,"is_disabled":false,"rental_uris":{"android":"levelo://app?vid=5ce4947f-be27-46da-b8d7-0257a1577151","ios":"levelo://app?vid=5ce4947f-be27-46da-b8d7-0257a1577151"},"vehicle_type_id":"4","last_reported":1705446434,"current_range_meters":27600,"station_id":"ce4bgup2rcd13ifvqco0","pricing_plan_id":"free"},{"bike_id":"d3a15727-c286-4f90-832c-097a35f6e863","system_id":"levelo_inurba_marseille","lat":43.317557,"lon":5.390173,"is_reserved":false,"is_disabled":false,"rental_uris":{"android":"levelo://app?vid=d3a15727-c286-4f90-832c-097a35f6e863","ios":"levelo://app?vid=d3a15727-c286-4f90-832c-097a35f6e863"},"vehicle_type_id":"4","last_reported":1705446434,"current_range_meters":11200,"station_id":"ce4bhqp2rcd13ifvqhng","pricing_plan_id":"free"},{"bike_id":"f2e41f2d-f7b4-4cc3-b4e5-7c01fef1ed53","system_id":"levelo_inurba_marseille","lat":43.304274,"lon":5.388873,"is_reserved":false,"is_disabled":false,"rental_uris":{"android":"levelo://app?vid=f2e41f2d-f7b4-4cc3-b4e5-7c01fef1ed53","ios":"levelo://app?vid=f2e41f2d-f7b4-4cc3-b4e5-7c01fef1ed53"},"vehicle_type_id":"4","last_reported":1705446434,"current_range_meters":2000,"station_id":"ce4bgk12rcd13ifvqbi0","pricing_plan_id":"free"},{"bike_id":"00146bc0-ad72-43b6-8bb4-7dfc271c12c2","system_id":"levelo_inurba_marseille","lat":43.304278,"lon":5.388868,"is_reserved":false,"is_disabled":false,"rental_uris":{"android":"levelo://app?vid=00146bc0-ad72-43b6-8bb4-7dfc271c12c2","ios":"levelo://app?vid=00146bc0-ad72-43b6-8bb4-7dfc271c12c2"},"vehicle_type_id":"4","last_reported":1705446434,"current_range_meters":2800,"station_id":"ce4bgk12rcd13ifvqbi0","pricing_plan_id":"free"},{"bike_id":"7833d77e-e4f2-4e51-a418-bfdb82911ad5","system_id":"levelo_inurba_marseille","lat":43.304278,"lon":5.388868,"is_reserved":false,"is_disabled":false,"rental_uris":{"android":"levelo://app?vid=7833d77e-e4f2-4e51-a418-bfdb82911ad5","ios":"levelo://app?vid=7833d77e-e4f2-4e51-a418-bfdb82911ad5"},"vehicle_type_id":"4","last_reported":1705446434,"current_range_meters":2800,"station_id":"ce4bgk12rcd13ifvqbi0","pricing_plan_id":"free"},{"bike_id":"20255788-44dd-4b4f-adab-f897b34f620f","system_id":"levelo_inurba_marseille","lat":43.29787,"lon":5.38106,"is_reserved":false,"is_disabled":false,"rental_uris":{"android":"levelo://app?vid=20255788-44dd-4b4f-adab-f897b34f620f","ios":"levelo://app?vid=20255788-44dd-4b4f-adab-f897b34f620f"},"vehicle_type_id":"4","last_reported":1705446434,"current_range_meters":0,"station_id":"ce4bgip2rcd13ifvqbb0","pricing_plan_id":"free"},{"bike_id":"09cd9af3-b417-4fbd-abd8-76b9b319b221","system_id":"levelo_inurba_marseille","lat":43.295748,"lon":5.37522,"is_reserved":false,"is_disabled":false,"rental_uris":{"android":"levelo://app?vid=09cd9af3-b417-4fbd-abd8-76b9b319b221","ios":"levelo://app?vid=09cd9af3-b417-4fbd-abd8-76b9b319b221"},"vehicle_type_id":"4","last_reported":1705446434,"current_range_meters":0,"station_id":"ce4bgh92rcd13ifvqb50","pricing_plan_id":"free"},{"bike_id":"456e0d2b-e4df-4a16-9374-a4f6db95d362","system_id":"levelo_inurba_marseille","lat":43.299707,"lon":5.384859,"is_reserved":false,"is_disabled":false,"rental_uris":{"android":"levelo://app?vid=456e0d2b-e4df-4a16-9374-a4f6db95d362","ios":"levelo://app?vid=456e0d2b-e4df-4a16-9374-a4f6db95d362"},"vehicle_type_id":"4","last_reported":1705446434,"current_range_meters":7600,"station_id":"ce4bgj92rcd13ifvqbd0","pricing_plan_id":"free"},{"bike_id":"a4eeb908-619b-47fe-8e5b-c4c9538b360a","system_id":"levelo_inurba_marseille","lat":43.32364,"lon":5.38879,"is_reserved":false,"is_disabled":false,"rental_uris":{"android":"levelo://app?vid=a4eeb908-619b-47fe-8e5b-c4c9538b360a","ios":"levelo://app?vid=a4eeb908-619b-47fe-8e5b-c4c9538b360a"},"vehicle_type_id":"4","last_reported":1705446434,"current_range_meters":12400,"station_id":"ce4bhqp2rcd13ifvqhog","pricing_plan_id":"free"},{"bike_id":"f54d4002-50ab-4414-bd9c-7e948dcfd26e","system_id":"levelo_inurba_marseille","lat":43.32366,"lon":5.38879,"is_reserved":false,"is_disabled":false,"rental_uris":{"android":"levelo://app?vid=f54d4002-50ab-4414-bd9c-7e948dcfd26e","ios":"levelo://app?vid=f54d4002-50ab-4414-bd9c-7e948dcfd26e"},"vehicle_type_id":"4","last_reported":1705446434,"current_range_meters":9600,"station_id":"ce4bhqp2rcd13ifvqhog","pricing_plan_id":"free"},{"bike_id":"4ed8488a-f05c-4119-bfec-f892cce04e14","system_id":"levelo_inurba_marseille","lat":43.323664,"lon":5.388788,"is_reserved":false,"is_disabled":false,"rental_uris":{"android":"levelo://app?vid=4ed8488a-f05c-4119-bfec-f892cce04e14","ios":"levelo://app?vid=4ed8488a-f05c-4119-bfec-f892cce04e14"},"vehicle_type_id":"4","last_reported":1705446434,"current_range_meters":2400,"station_id":"ce4bhqp2rcd13ifvqhog","pricing_plan_id":"free"},{"bike_id":"4e1e9b11-3c6c-41ca-93a2-a6773594a990","system_id":"levelo_inurba_marseille","lat":43.32365,"lon":5.38881,"is_reserved":false,"is_disabled":false,"rental_uris":{"android":"levelo://app?vid=4e1e9b11-3c6c-41ca-93a2-a6773594a990","ios":"levelo://app?vid=4e1e9b11-3c6c-41ca-93a2-a6773594a990"},"vehicle_type_id":"4","last_reported":1705446434,"current_range_meters":3600,"station_id":"ce4bhqp2rcd13ifvqhog","pricing_plan_id":"free"},{"bike_id":"93a7541d-594c-4713-9c37-84d0b76dd655","system_id":"levelo_inurba_marseille","lat":43.32363,"lon":5.388845,"is_reserved":false,"is_disabled":false,"rental_uris":{"android":"levelo://app?vid=93a7541d-594c-4713-9c37-84d0b76dd655","ios":"levelo://app?vid=93a7541d-594c-4713-9c37-84d0b76dd655"},"vehicle_type_id":"4","last_reported":1705446434,"current_range_meters":22400,"station_id":"ce4bhqp2rcd13ifvqhog","pricing_plan_id":"free"},{"bike_id":"ae329723-b6cd-4f52-99af-83cccf370dd2","system_id":"levelo_inurba_marseille","lat":43.32364,"lon":5.38885,"is_reserved":false,"is_disabled":false,"rental_uris":{"android":"levelo://app?vid=ae329723-b6cd-4f52-99af-83cccf370dd2","ios":"levelo://app?vid=ae329723-b6cd-4f52-99af-83cccf370dd2"},"vehicle_type_id":"4","last_reported":1705446434,"current_range_meters":14000,"station_id":"ce4bhqp2rcd13ifvqhog","pricing_plan_id":"free"},{"bike_id":"48d01839-1c06-4604-a1d2-ae1f8bd3df35","system_id":"levelo_inurba_marseille","lat":43.32367,"lon":5.38884,"is_reserved":false,"is_disabled":false,"rental_uris":{"android":"levelo://app?vid=48d01839-1c06-4604-a1d2-ae1f8bd3df35","ios":"levelo://app?vid=48d01839-1c06-4604-a1d2-ae1f8bd3df35"},"vehicle_type_id":"4","last_reported":1705446434,"current_range_meters":19200,"station_id":"ce4bhqp2rcd13ifvqhog","pricing_plan_id":"free"},{"bike_id":"33788cc1-a778-45f8-be13-0999bc971653","system_id":"levelo_inurba_marseille","lat":43.323646,"lon":5.388866,"is_reserved":false,"is_disabled":false,"rental_uris":{"android":"levelo://app?vid=33788cc1-a778-45f8-be13-0999bc971653","ios":"levelo://app?vid=33788cc1-a778-45f8-be13-0999bc971653"},"vehicle_type_id":"4","last_reported":1705446434,"current_range_meters":27600,"station_id":"ce4bhqp2rcd13ifvqhog","pricing_plan_id":"free"},{"bike_id":"2ec4001f-5cf2-4614-bbfc-ffc6c5b765c3","system_id":"levelo_inurba_marseille","lat":43.32367,"lon":5.38889,"is_reserved":false,"is_disabled":false,"rental_uris":{"android":"levelo://app?vid=2ec4001f-5cf2-4614-bbfc-ffc6c5b765c3","ios":"levelo://app?vid=2ec4001f-5cf2-4614-bbfc-ffc6c5b765c3"},"vehicle_type_id":"4","last_reported":1705446434,"current_range_meters":27200,"station_id":"ce4bhqp2rcd13ifvqhog","pricing_plan_id":"free"},{"bike_id":"65200528-92c8-43dc-a28c-65f22643d5f6","system_id":"levelo_inurba_marseille","lat":43.32369,"lon":5.38889,"is_reserved":false,"is_disabled":false,"rental_uris":{"android":"levelo://app?vid=65200528-92c8-43dc-a28c-65f22643d5f6","ios":"levelo://app?vid=65200528-92c8-43dc-a28c-65f22643d5f6"},"vehicle_type_id":"4","last_reported":1705446434,"current_range_meters":13600,"station_id":"ce4bhqp2rcd13ifvqhog","pricing_plan_id":"free"},{"bike_id":"b7beb6a5-b030-4fe2-a25b-ee6b5b88bebb","system_id":"levelo_inurba_marseille","lat":43.323716,"lon":5.388882,"is_reserved":false,"is_disabled":false,"rental_uris":{"android":"levelo://app?vid=b7beb6a5-b030-4fe2-a25b-ee6b5b88bebb","ios":"levelo://app?vid=b7beb6a5-b030-4fe2-a25b-ee6b5b88bebb"},"vehicle_type_id":"4","last_reported":1705446434,"current_range_meters":1200,"station_id":"ce4bhqp2rcd13ifvqhog","pricing_plan_id":"free"},{"bike_id":"b24b736c-77db-4829-8e29-88903da9ba27","system_id":"levelo_inurba_marseille","lat":43.293259,"lon":5.371586,"is_reserved":false,"is_disabled":false,"rental_uris":{"android":"levelo://app?vid=b24b736c-77db-4829-8e29-88903da9ba27","ios":"levelo://app?vid=b24b736c-77db-4829-8e29-88903da9ba27"},"vehicle_type_id":"4","last_reported":1705446434,"current_range_meters":25200,"station_id":"ce4bgh92rcd13ifvqb40","pricing_plan_id":"free"},{"bike_id":"b6104873-fc7b-47d5-8daf-ce6f5eee2c5d","system_id":"levelo_inurba_marseille","lat":43.305994,"lon":5.393687,"is_reserved":false,"is_disabled":false,"rental_uris":{"android":"levelo://app?vid=b6104873-fc7b-47d5-8daf-ce6f5eee2c5d","ios":"levelo://app?vid=b6104873-fc7b-47d5-8daf-ce6f5eee2c5d"},"vehicle_type_id":"4","last_reported":1705446434,"current_range_meters":23600,"station_id":"ce4bh0p2rcd13ifvqd80","pricing_plan_id":"free"},{"bike_id":"7fb5f809-f036-4658-bc86-c45fb2c62f16","system_id":"levelo_inurba_marseille","lat":43.305994,"lon":5.393687,"is_reserved":false,"is_disabled":false,"rental_uris":{"android":"levelo://app?vid=7fb5f809-f036-4658-bc86-c45fb2c62f16","ios":"levelo://app?vid=7fb5f809-f036-4658-bc86-c45fb2c62f16"},"vehicle_type_id":"4","last_reported":1705446434,"current_range_meters":19600,"station_id":"ce4bh0p2rcd13ifvqd80","pricing_plan_id":"free"},{"bike_id":"25aaf322-9bcf-4cec-8b83-fd4a11079981","system_id":"levelo_inurba_marseille","lat":43.305994,"lon":5.393687,"is_reserved":false,"is_disabled":false,"rental_uris":{"android":"levelo://app?vid=25aaf322-9bcf-4cec-8b83-fd4a11079981","ios":"levelo://app?vid=25aaf322-9bcf-4cec-8b83-fd4a11079981"},"vehicle_type_id":"4","last_reported":1705446434,"current_range_meters":20800,"station_id":"ce4bh0p2rcd13ifvqd80","pricing_plan_id":"free"},{"bike_id":"0c15b5ad-a566-4af4-90b5-1b0d6240a353","system_id":"levelo_inurba_marseille","lat":43.30597,"lon":5.39362,"is_reserved":false,"is_disabled":false,"rental_uris":{"android":"levelo://app?vid=0c15b5ad-a566-4af4-90b5-1b0d6240a353","ios":"levelo://app?vid=0c15b5ad-a566-4af4-90b5-1b0d6240a353"},"vehicle_type_id":"4","last_reported":1705446434,"current_range_meters":18000,"station_id":"ce4bh0p2rcd13ifvqd80","pricing_plan_id":"free"},{"bike_id":"53690c36-3da0-41f7-9a06-7382477a78fe","system_id":"levelo_inurba_marseille","lat":43.302992,"lon":5.392136,"is_reserved":false,"is_disabled":false,"rental_uris":{"android":"levelo://app?vid=53690c36-3da0-41f7-9a06-7382477a78fe","ios":"levelo://app?vid=53690c36-3da0-41f7-9a06-7382477a78fe"},"vehicle_type_id":"4","last_reported":1705446434,"current_range_meters":25200,"station_id":"ce4bgkh2rcd13ifvqbk0","pricing_plan_id":"free"},{"bike_id":"de72f4b5-0361-4ae1-8142-fb96516c3820","system_id":"levelo_inurba_marseille","lat":43.303002,"lon":5.392142,"is_reserved":false,"is_disabled":false,"rental_uris":{"android":"levelo://app?vid=de72f4b5-0361-4ae1-8142-fb96516c3820","ios":"levelo://app?vid=de72f4b5-0361-4ae1-8142-fb96516c3820"},"vehicle_type_id":"4","last_reported":1705446434,"current_range_meters":15600,"station_id":"ce4bgkh2rcd13ifvqbk0","pricing_plan_id":"free"},{"bike_id":"69222ced-4681-4baf-ac5a-e2d24ab1cef4","system_id":"levelo_inurba_marseille","lat":43.2936,"lon":5.37835,"is_reserved":false,"is_disabled":false,"rental_uris":{"android":"levelo://app?vid=69222ced-4681-4baf-ac5a-e2d24ab1cef4","ios":"levelo://app?vid=69222ced-4681-4baf-ac5a-e2d24ab1cef4"},"vehicle_type_id":"4","last_reported":1705446434,"current_range_meters":22800,"station_id":"ce4bgjh2rcd13ifvqbf0","pricing_plan_id":"free"},{"bike_id":"c2dc5c82-bfc0-44f5-a6d5-ab43aabf9cba","system_id":"levelo_inurba_marseille","lat":43.30085,"lon":5.390856,"is_reserved":false,"is_disabled":false,"rental_uris":{"android":"levelo://app?vid=c2dc5c82-bfc0-44f5-a6d5-ab43aabf9cba","ios":"levelo://app?vid=c2dc5c82-bfc0-44f5-a6d5-ab43aabf9cba"},"vehicle_type_id":"4","last_reported":1705446434,"current_range_meters":27600,"station_id":"ce4bh192rcd13ifvqdb0","pricing_plan_id":"free"},{"bike_id":"27e90322-af52-4f6c-b749-7e4fb42ea08d","system_id":"levelo_inurba_marseille","lat":43.300852,"lon":5.390859,"is_reserved":false,"is_disabled":false,"rental_uris":{"android":"levelo://app?vid=27e90322-af52-4f6c-b749-7e4fb42ea08d","ios":"levelo://app?vid=27e90322-af52-4f6c-b749-7e4fb42ea08d"},"vehicle_type_id":"4","last_reported":1705446434,"current_range_meters":2000,"station_id":"ce4bh192rcd13ifvqdb0","pricing_plan_id":"free"},{"bike_id":"c85a0f41-c307-4c40-bdaa-07b162170895","system_id":"levelo_inurba_marseille","lat":43.30085,"lon":5.390856,"is_reserved":false,"is_disabled":false,"rental_uris":{"android":"levelo://app?vid=c85a0f41-c307-4c40-bdaa-07b162170895","ios":"levelo://app?vid=c85a0f41-c307-4c40-bdaa-07b162170895"},"vehicle_type_id":"4","last_reported":1705446434,"current_range_meters":24400,"station_id":"ce4bh192rcd13ifvqdb0","pricing_plan_id":"free"},{"bike_id":"8375cb35-49fc-4cbd-8a98-1da5fda5e313","system_id":"levelo_inurba_marseille","lat":43.298761,"lon":5.389053,"is_reserved":false,"is_disabled":false,"rental_uris":{"android":"levelo://app?vid=8375cb35-49fc-4cbd-8a98-1da5fda5e313","ios":"levelo://app?vid=8375cb35-49fc-4cbd-8a98-1da5fda5e313"},"vehicle_type_id":"4","last_reported":1705446434,"current_range_meters":10800,"station_id":"","pricing_plan_id":"free"},{"bike_id":"e4533126-6a51-4285-879d-7645d65234f6","system_id":"levelo_inurba_marseille","lat":43.291994,"lon":5.357886,"is_reserved":false,"is_disabled":false,"rental_uris":{"android":"levelo://app?vid=e4533126-6a51-4285-879d-7645d65234f6","ios":"levelo://app?vid=e4533126-6a51-4285-879d-7645d65234f6"},"vehicle_type_id":"4","last_reported":1705446434,"current_range_meters":27600,"station_id":"ce4bhb12rcd13ifvqel0","pricing_plan_id":"free"},{"bike_id":"1220882d-2e9a-465b-964b-0c23b039f824","system_id":"levelo_inurba_marseille","lat":43.309047,"lon":5.396551,"is_reserved":false,"is_disabled":false,"rental_uris":{"android":"levelo://app?vid=1220882d-2e9a-465b-964b-0c23b039f824","ios":"levelo://app?vid=1220882d-2e9a-465b-964b-0c23b039f824"},"vehicle_type_id":"4","last_reported":1705446434,"current_range_meters":8400,"station_id":"ce4bh012rcd13ifvqcv0","pricing_plan_id":"free"},{"bike_id":"b91ca71f-9878-4d2a-bbce-a2f84d2f8271","system_id":"levelo_inurba_marseille","lat":43.309047,"lon":5.396551,"is_reserved":false,"is_disabled":false,"rental_uris":{"android":"levelo://app?vid=b91ca71f-9878-4d2a-bbce-a2f84d2f8271","ios":"levelo://app?vid=b91ca71f-9878-4d2a-bbce-a2f84d2f8271"},"vehicle_type_id":"4","last_reported":1705446434,"current_range_meters":30400,"station_id":"ce4bh012rcd13ifvqcv0","pricing_plan_id":"free"},{"bike_id":"3d1f2c74-b51f-4816-8a9d-551478ee382a","system_id":"levelo_inurba_marseille","lat":43.309038,"lon":5.396546,"is_reserved":false,"is_disabled":false,"rental_uris":{"android":"levelo://app?vid=3d1f2c74-b51f-4816-8a9d-551478ee382a","ios":"levelo://app?vid=3d1f2c74-b51f-4816-8a9d-551478ee382a"},"vehicle_type_id":"4","last_reported":1705446434,"current_range_meters":5200,"station_id":"ce4bh012rcd13ifvqcv0","pricing_plan_id":"free"},{"bike_id":"19d12816-9bb0-429e-9f0a-3d3d80084153","system_id":"levelo_inurba_marseille","lat":43.309038,"lon":5.396546,"is_reserved":false,"is_disabled":false,"rental_uris":{"android":"levelo://app?vid=19d12816-9bb0-429e-9f0a-3d3d80084153","ios":"levelo://app?vid=19d12816-9bb0-429e-9f0a-3d3d80084153"},"vehicle_type_id":"4","last_reported":1705446434,"current_range_meters":26400,"station_id":"ce4bh012rcd13ifvqcv0","pricing_plan_id":"free"},{"bike_id":"3c0b5e41-3dcd-45d9-9fa6-ae3b47bf37c4","system_id":"levelo_inurba_marseille","lat":43.291994,"lon":5.357886,"is_reserved":false,"is_disabled":false,"rental_uris":{"android":"levelo://app?vid=3c0b5e41-3dcd-45d9-9fa6-ae3b47bf37c4","ios":"levelo://app?vid=3c0b5e41-3dcd-45d9-9fa6-ae3b47bf37c4"},"vehicle_type_id":"4","last_reported":1705446434,"current_range_meters":19200,"station_id":"ce4bhb12rcd13ifvqel0","pricing_plan_id":"free"},{"bike_id":"c26a96a8-b566-4152-9f34-d7a162cd557f","system_id":"levelo_inurba_marseille","lat":43.313291,"lon":5.396838,"is_reserved":false,"is_disabled":false,"rental_uris":{"android":"levelo://app?vid=c26a96a8-b566-4152-9f34-d7a162cd557f","ios":"levelo://app?vid=c26a96a8-b566-4152-9f34-d7a162cd557f"},"vehicle_type_id":"4","last_reported":1705446434,"current_range_meters":24800,"station_id":"ce4bgvp2rcd13ifvqcu0","pricing_plan_id":"free"},{"bike_id":"947affd4-4ffa-46e6-8cf5-cef7a0410c3f","system_id":"levelo_inurba_marseille","lat":43.309038,"lon":5.396546,"is_reserved":false,"is_disabled":false,"rental_uris":{"android":"levelo://app?vid=947affd4-4ffa-46e6-8cf5-cef7a0410c3f","ios":"levelo://app?vid=947affd4-4ffa-46e6-8cf5-cef7a0410c3f"},"vehicle_type_id":"4","last_reported":1705446434,"current_range_meters":21200,"station_id":"ce4bh012rcd13ifvqcv0","pricing_plan_id":"free"},{"bike_id":"d8335853-02f9-43e8-ab4d-d29a8e7121a1","system_id":"levelo_inurba_marseille","lat":43.309038,"lon":5.396546,"is_reserved":false,"is_disabled":false,"rental_uris":{"android":"levelo://app?vid=d8335853-02f9-43e8-ab4d-d29a8e7121a1","ios":"levelo://app?vid=d8335853-02f9-43e8-ab4d-d29a8e7121a1"},"vehicle_type_id":"4","last_reported":1705446434,"current_range_meters":4400,"station_id":"ce4bh012rcd13ifvqcv0","pricing_plan_id":"free"},{"bike_id":"f228ecbf-e691-4177-aeb0-0bae86b66cfb","system_id":"levelo_inurba_marseille","lat":43.313291,"lon":5.396838,"is_reserved":false,"is_disabled":false,"rental_uris":{"android":"levelo://app?vid=f228ecbf-e691-4177-aeb0-0bae86b66cfb","ios":"levelo://app?vid=f228ecbf-e691-4177-aeb0-0bae86b66cfb"},"vehicle_type_id":"4","last_reported":1705446434,"current_range_meters":21200,"station_id":"ce4bgvp2rcd13ifvqcu0","pricing_plan_id":"free"},{"bike_id":"5569cbd2-9bf2-4393-88a0-1e989251ac62","system_id":"levelo_inurba_marseille","lat":43.309047,"lon":5.396551,"is_reserved":false,"is_disabled":false,"rental_uris":{"android":"levelo://app?vid=5569cbd2-9bf2-4393-88a0-1e989251ac62","ios":"levelo://app?vid=5569cbd2-9bf2-4393-88a0-1e989251ac62"},"vehicle_type_id":"4","last_reported":1705446434,"current_range_meters":25600,"station_id":"ce4bh012rcd13ifvqcv0","pricing_plan_id":"free"},{"bike_id":"7c5a9ab3-456a-461b-84a8-7389ee74f612","system_id":"levelo_inurba_marseille","lat":43.313291,"lon":5.396838,"is_reserved":false,"is_disabled":false,"rental_uris":{"android":"levelo://app?vid=7c5a9ab3-456a-461b-84a8-7389ee74f612","ios":"levelo://app?vid=7c5a9ab3-456a-461b-84a8-7389ee74f612"},"vehicle_type_id":"4","last_reported":1705446434,"current_range_meters":15200,"station_id":"ce4bgvp2rcd13ifvqcu0","pricing_plan_id":"free"},{"bike_id":"c9ced1c5-9c12-4ac2-b822-25ba5aaf7eab","system_id":"levelo_inurba_marseille","lat":43.313291,"lon":5.396838,"is_reserved":false,"is_disabled":false,"rental_uris":{"android":"levelo://app?vid=c9ced1c5-9c12-4ac2-b822-25ba5aaf7eab","ios":"levelo://app?vid=c9ced1c5-9c12-4ac2-b822-25ba5aaf7eab"},"vehicle_type_id":"4","last_reported":1705446434,"current_range_meters":30000,"station_id":"ce4bgvp2rcd13ifvqcu0","pricing_plan_id":"free"},{"bike_id":"e503c6b0-b41c-49c4-88bb-9893af467514","system_id":"levelo_inurba_marseille","lat":43.309038,"lon":5.396546,"is_reserved":false,"is_disabled":false,"rental_uris":{"android":"levelo://app?vid=e503c6b0-b41c-49c4-88bb-9893af467514","ios":"levelo://app?vid=e503c6b0-b41c-49c4-88bb-9893af467514"},"vehicle_type_id":"4","last_reported":1705446434,"current_range_meters":19200,"station_id":"ce4bh012rcd13ifvqcv0","pricing_plan_id":"free"},{"bike_id":"001ba140-a1ca-49e2-9497-c8fcbab728b6","system_id":"levelo_inurba_marseille","lat":43.309047,"lon":5.396551,"is_reserved":false,"is_disabled":false,"rental_uris":{"android":"levelo://app?vid=001ba140-a1ca-49e2-9497-c8fcbab728b6","ios":"levelo://app?vid=001ba140-a1ca-49e2-9497-c8fcbab728b6"},"vehicle_type_id":"4","last_reported":1705446434,"current_range_meters":4400,"station_id":"ce4bh012rcd13ifvqcv0","pricing_plan_id":"free"},{"bike_id":"0fd8de78-b461-42d7-8983-47bd6bb2ea65","system_id":"levelo_inurba_marseille","lat":43.309038,"lon":5.396546,"is_reserved":false,"is_disabled":false,"rental_uris":{"android":"levelo://app?vid=0fd8de78-b461-42d7-8983-47bd6bb2ea65","ios":"levelo://app?vid=0fd8de78-b461-42d7-8983-47bd6bb2ea65"},"vehicle_type_id":"4","last_reported":1705446434,"current_range_meters":26400,"station_id":"ce4bh012rcd13ifvqcv0","pricing_plan_id":"free"},{"bike_id":"b225a3ae-1782-4db1-91eb-5fc7d93e799d","system_id":"levelo_inurba_marseille","lat":43.313291,"lon":5.396838,"is_reserved":false,"is_disabled":false,"rental_uris":{"android":"levelo://app?vid=b225a3ae-1782-4db1-91eb-5fc7d93e799d","ios":"levelo://app?vid=b225a3ae-1782-4db1-91eb-5fc7d93e799d"},"vehicle_type_id":"4","last_reported":1705446434,"current_range_meters":25600,"station_id":"ce4bgvp2rcd13ifvqcu0","pricing_plan_id":"free"},{"bike_id":"da6f93d4-c92b-410d-a36b-09db3d520cf7","system_id":"levelo_inurba_marseille","lat":43.313291,"lon":5.396838,"is_reserved":false,"is_disabled":false,"rental_uris":{"android":"levelo://app?vid=da6f93d4-c92b-410d-a36b-09db3d520cf7","ios":"levelo://app?vid=da6f93d4-c92b-410d-a36b-09db3d520cf7"},"vehicle_type_id":"4","last_reported":1705446434,"current_range_meters":16800,"station_id":"ce4bgvp2rcd13ifvqcu0","pricing_plan_id":"free"},{"bike_id":"512731c3-cfc7-4ab2-947d-62a4986c9d9b","system_id":"levelo_inurba_marseille","lat":43.309038,"lon":5.396546,"is_reserved":false,"is_disabled":false,"rental_uris":{"android":"levelo://app?vid=512731c3-cfc7-4ab2-947d-62a4986c9d9b","ios":"levelo://app?vid=512731c3-cfc7-4ab2-947d-62a4986c9d9b"},"vehicle_type_id":"4","last_reported":1705446434,"current_range_meters":29200,"station_id":"ce4bh012rcd13ifvqcv0","pricing_plan_id":"free"},{"bike_id":"ddca0dcc-d9d6-4be0-93ff-95130249ebb4","system_id":"levelo_inurba_marseille","lat":43.309047,"lon":5.396551,"is_reserved":false,"is_disabled":false,"rental_uris":{"android":"levelo://app?vid=ddca0dcc-d9d6-4be0-93ff-95130249ebb4","ios":"levelo://app?vid=ddca0dcc-d9d6-4be0-93ff-95130249ebb4"},"vehicle_type_id":"4","last_reported":1705446434,"current_range_meters":12000,"station_id":"ce4bh012rcd13ifvqcv0","pricing_plan_id":"free"},{"bike_id":"6a88a36b-a047-4aba-9ece-6a2b5ee01870","system_id":"levelo_inurba_marseille","lat":43.309038,"lon":5.396546,"is_reserved":false,"is_disabled":false,"rental_uris":{"android":"levelo://app?vid=6a88a36b-a047-4aba-9ece-6a2b5ee01870","ios":"levelo://app?vid=6a88a36b-a047-4aba-9ece-6a2b5ee01870"},"vehicle_type_id":"4","last_reported":1705446434,"current_range_meters":24000,"station_id":"ce4bh012rcd13ifvqcv0","pricing_plan_id":"free"},{"bike_id":"30c16a15-5173-41a7-b2ab-ce8a9d167fb7","system_id":"levelo_inurba_marseille","lat":43.302008,"lon":5.394694,"is_reserved":false,"is_disabled":false,"rental_uris":{"android":"levelo://app?vid=30c16a15-5173-41a7-b2ab-ce8a9d167fb7","ios":"levelo://app?vid=30c16a15-5173-41a7-b2ab-ce8a9d167fb7"},"vehicle_type_id":"4","last_reported":1705446434,"current_range_meters":0,"station_id":"ce4bh0p2rcd13ifvqd70","pricing_plan_id":"free"},{"bike_id":"3c09d25c-dc8f-4a2e-a952-8c805d8b12dc","system_id":"levelo_inurba_marseille","lat":43.302008,"lon":5.394694,"is_reserved":false,"is_disabled":false,"rental_uris":{"android":"levelo://app?vid=3c09d25c-dc8f-4a2e-a952-8c805d8b12dc","ios":"levelo://app?vid=3c09d25c-dc8f-4a2e-a952-8c805d8b12dc"},"vehicle_type_id":"4","last_reported":1705446434,"current_range_meters":0,"station_id":"ce4bh0p2rcd13ifvqd70","pricing_plan_id":"free"},{"bike_id":"9eb95b87-b2cf-4590-a50d-1e55140a3a72","system_id":"levelo_inurba_marseille","lat":43.290631,"lon":5.359244,"is_reserved":false,"is_disabled":false,"rental_uris":{"android":"levelo://app?vid=9eb95b87-b2cf-4590-a50d-1e55140a3a72","ios":"levelo://app?vid=9eb95b87-b2cf-4590-a50d-1e55140a3a72"},"vehicle_type_id":"4","last_reported":1705446434,"current_range_meters":31200,"station_id":"ce4bha92rcd13ifvqeg0","pricing_plan_id":"free"},{"bike_id":"ba6520d6-fa2f-4883-abd0-bff6ff9a043a","system_id":"levelo_inurba_marseille","lat":43.289468,"lon":5.363719,"is_reserved":false,"is_disabled":false,"rental_uris":{"android":"levelo://app?vid=ba6520d6-fa2f-4883-abd0-bff6ff9a043a","ios":"levelo://app?vid=ba6520d6-fa2f-4883-abd0-bff6ff9a043a"},"vehicle_type_id":"4","last_reported":1705446434,"current_range_meters":13200,"station_id":"ce4bhc92rcd13ifvqetg","pricing_plan_id":"free"},{"bike_id":"a0fbf13b-2e7a-49bb-975b-dfac325ef2b3","system_id":"levelo_inurba_marseille","lat":43.289468,"lon":5.363719,"is_reserved":false,"is_disabled":false,"rental_uris":{"android":"levelo://app?vid=a0fbf13b-2e7a-49bb-975b-dfac325ef2b3","ios":"levelo://app?vid=a0fbf13b-2e7a-49bb-975b-dfac325ef2b3"},"vehicle_type_id":"4","last_reported":1705446434,"current_range_meters":9600,"station_id":"ce4bhc92rcd13ifvqetg","pricing_plan_id":"free"},{"bike_id":"99eee253-8f49-4c21-b802-13e2034b2e8f","system_id":"levelo_inurba_marseille","lat":43.29417,"lon":5.38633,"is_reserved":false,"is_disabled":false,"rental_uris":{"android":"levelo://app?vid=99eee253-8f49-4c21-b802-13e2034b2e8f","ios":"levelo://app?vid=99eee253-8f49-4c21-b802-13e2034b2e8f"},"vehicle_type_id":"4","last_reported":1705446434,"current_range_meters":0,"station_id":"ce4bh2h2rcd13ifvqdh0","pricing_plan_id":"free"},{"bike_id":"6c25a591-0d65-4955-9d0c-223b95788ffd","system_id":"levelo_inurba_marseille","lat":43.289184,"lon":5.366408,"is_reserved":false,"is_disabled":false,"rental_uris":{"android":"levelo://app?vid=6c25a591-0d65-4955-9d0c-223b95788ffd","ios":"levelo://app?vid=6c25a591-0d65-4955-9d0c-223b95788ffd"},"vehicle_type_id":"4","last_reported":1705446434,"current_range_meters":19200,"station_id":"ce4bhap2rcd13ifvqek0","pricing_plan_id":"free"},{"bike_id":"9ce2fa38-9b9b-4a6c-a532-6fed718385ae","system_id":"levelo_inurba_marseille","lat":43.289391,"lon":5.366308,"is_reserved":false,"is_disabled":false,"rental_uris":{"android":"levelo://app?vid=9ce2fa38-9b9b-4a6c-a532-6fed718385ae","ios":"levelo://app?vid=9ce2fa38-9b9b-4a6c-a532-6fed718385ae"},"vehicle_type_id":"4","last_reported":1705446434,"current_range_meters":0,"station_id":"ce4bhap2rcd13ifvqek0","pricing_plan_id":"free"},{"bike_id":"aa8e78c8-a174-4214-afcb-0868cc80bdf2","system_id":"levelo_inurba_marseille","lat":43.289465,"lon":5.364049,"is_reserved":false,"is_disabled":false,"rental_uris":{"android":"levelo://app?vid=aa8e78c8-a174-4214-afcb-0868cc80bdf2","ios":"levelo://app?vid=aa8e78c8-a174-4214-afcb-0868cc80bdf2"},"vehicle_type_id":"4","last_reported":1705446434,"current_range_meters":3600,"station_id":"ce4bhc92rcd13ifvqetg","pricing_plan_id":"free"},{"bike_id":"f4e17b3b-8cf2-4bdf-970e-2b05008b2188","system_id":"levelo_inurba_marseille","lat":43.28936,"lon":5.36634,"is_reserved":false,"is_disabled":false,"rental_uris":{"android":"levelo://app?vid=f4e17b3b-8cf2-4bdf-970e-2b05008b2188","ios":"levelo://app?vid=f4e17b3b-8cf2-4bdf-970e-2b05008b2188"},"vehicle_type_id":"4","last_reported":1705446434,"current_range_meters":6400,"station_id":"ce4bhap2rcd13ifvqek0","pricing_plan_id":"free"},{"bike_id":"47bf443b-4ffb-4fa0-accf-f8ac65a25785","system_id":"levelo_inurba_marseille","lat":43.289468,"lon":5.363719,"is_reserved":false,"is_disabled":false,"rental_uris":{"android":"levelo://app?vid=47bf443b-4ffb-4fa0-accf-f8ac65a25785","ios":"levelo://app?vid=47bf443b-4ffb-4fa0-accf-f8ac65a25785"},"vehicle_type_id":"4","last_reported":1705446434,"current_range_meters":31200,"station_id":"ce4bhc92rcd13ifvqetg","pricing_plan_id":"free"},{"bike_id":"514ba7be-d8cd-462a-b50e-cbead39e13ca","system_id":"levelo_inurba_marseille","lat":43.289468,"lon":5.363719,"is_reserved":false,"is_disabled":false,"rental_uris":{"android":"levelo://app?vid=514ba7be-d8cd-462a-b50e-cbead39e13ca","ios":"levelo://app?vid=514ba7be-d8cd-462a-b50e-cbead39e13ca"},"vehicle_type_id":"4","last_reported":1705446434,"current_range_meters":28400,"station_id":"ce4bhc92rcd13ifvqetg","pricing_plan_id":"free"},{"bike_id":"db5db023-f774-4e5d-8e30-45fba03a245e","system_id":"levelo_inurba_marseille","lat":43.292723,"lon":5.384302,"is_reserved":false,"is_disabled":false,"rental_uris":{"android":"levelo://app?vid=db5db023-f774-4e5d-8e30-45fba03a245e","ios":"levelo://app?vid=db5db023-f774-4e5d-8e30-45fba03a245e"},"vehicle_type_id":"4","last_reported":1705446434,"current_range_meters":0,"station_id":"ce4bh692rcd13ifvqea0","pricing_plan_id":"free"},{"bike_id":"11c2c645-7ba1-4f66-a0df-44c3de62a72d","system_id":"levelo_inurba_marseille","lat":43.290122,"lon":5.356251,"is_reserved":false,"is_disabled":false,"rental_uris":{"android":"levelo://app?vid=11c2c645-7ba1-4f66-a0df-44c3de62a72d","ios":"levelo://app?vid=11c2c645-7ba1-4f66-a0df-44c3de62a72d"},"vehicle_type_id":"4","last_reported":1705446434,"current_range_meters":23600,"station_id":"","pricing_plan_id":"free"},{"bike_id":"a7eb26d4-37ee-43ee-adcb-ee135bf6f3a2","system_id":"levelo_inurba_marseille","lat":43.304697,"lon":5.39791,"is_reserved":false,"is_disabled":false,"rental_uris":{"android":"levelo://app?vid=a7eb26d4-37ee-43ee-adcb-ee135bf6f3a2","ios":"levelo://app?vid=a7eb26d4-37ee-43ee-adcb-ee135bf6f3a2"},"vehicle_type_id":"4","last_reported":1705446434,"current_range_meters":17600,"station_id":"","pricing_plan_id":"free"},{"bike_id":"6e8abd30-0cb8-4690-8b12-01632bedda0f","system_id":"levelo_inurba_marseille","lat":43.2901,"lon":5.35609,"is_reserved":false,"is_disabled":false,"rental_uris":{"android":"levelo://app?vid=6e8abd30-0cb8-4690-8b12-01632bedda0f","ios":"levelo://app?vid=6e8abd30-0cb8-4690-8b12-01632bedda0f"},"vehicle_type_id":"4","last_reported":1705446434,"current_range_meters":22400,"station_id":"ce4bhb92rcd13ifvqen0","pricing_plan_id":"free"},{"bike_id":"6f5917e2-158e-4459-bf15-32555ccdf1e1","system_id":"levelo_inurba_marseille","lat":43.290089,"lon":5.356112,"is_reserved":false,"is_disabled":false,"rental_uris":{"android":"levelo://app?vid=6f5917e2-158e-4459-bf15-32555ccdf1e1","ios":"levelo://app?vid=6f5917e2-158e-4459-bf15-32555ccdf1e1"},"vehicle_type_id":"4","last_reported":1705446434,"current_range_meters":27200,"station_id":"ce4bhb92rcd13ifvqen0","pricing_plan_id":"free"},{"bike_id":"aeb0357d-46be-4d4a-835b-64f4d2dd4d98","system_id":"levelo_inurba_marseille","lat":43.290103,"lon":5.356114,"is_reserved":false,"is_disabled":false,"rental_uris":{"android":"levelo://app?vid=aeb0357d-46be-4d4a-835b-64f4d2dd4d98","ios":"levelo://app?vid=aeb0357d-46be-4d4a-835b-64f4d2dd4d98"},"vehicle_type_id":"4","last_reported":1705446434,"current_range_meters":21600,"station_id":"ce4bhb92rcd13ifvqen0","pricing_plan_id":"free"},{"bike_id":"e9957a6f-5405-43fe-ac21-2aee4cf93ab0","system_id":"levelo_inurba_marseille","lat":43.290103,"lon":5.356114,"is_reserved":false,"is_disabled":false,"rental_uris":{"android":"levelo://app?vid=e9957a6f-5405-43fe-ac21-2aee4cf93ab0","ios":"levelo://app?vid=e9957a6f-5405-43fe-ac21-2aee4cf93ab0"},"vehicle_type_id":"4","last_reported":1705446434,"current_range_meters":12400,"station_id":"ce4bhb92rcd13ifvqen0","pricing_plan_id":"free"},{"bike_id":"816912d4-4fc0-4ec8-9397-4b3987ab1b14","system_id":"levelo_inurba_marseille","lat":43.290104,"lon":5.356111,"is_reserved":false,"is_disabled":false,"rental_uris":{"android":"levelo://app?vid=816912d4-4fc0-4ec8-9397-4b3987ab1b14","ios":"levelo://app?vid=816912d4-4fc0-4ec8-9397-4b3987ab1b14"},"vehicle_type_id":"4","last_reported":1705446434,"current_range_meters":22000,"station_id":"ce4bhb92rcd13ifvqen0","pricing_plan_id":"free"},{"bike_id":"fea471b6-9bcd-4a7c-882e-84b50eab0b16","system_id":"levelo_inurba_marseille","lat":43.290995,"lon":5.381361,"is_reserved":false,"is_disabled":false,"rental_uris":{"android":"levelo://app?vid=fea471b6-9bcd-4a7c-882e-84b50eab0b16","ios":"levelo://app?vid=fea471b6-9bcd-4a7c-882e-84b50eab0b16"},"vehicle_type_id":"4","last_reported":1705446434,"current_range_meters":12800,"station_id":"ce4bh512rcd13ifvqe2g","pricing_plan_id":"free"},{"bike_id":"8cec2b48-d2e1-482c-b2b3-2976ee612706","system_id":"levelo_inurba_marseille","lat":43.2979,"lon":5.393378,"is_reserved":false,"is_disabled":false,"rental_uris":{"android":"levelo://app?vid=8cec2b48-d2e1-482c-b2b3-2976ee612706","ios":"levelo://app?vid=8cec2b48-d2e1-482c-b2b3-2976ee612706"},"vehicle_type_id":"4","last_reported":1705446434,"current_range_meters":17600,"station_id":"chh1huq6cuj3fo74tm60","pricing_plan_id":"free"},{"bike_id":"9ed5fd63-f88f-4155-866e-489d7608feb2","system_id":"levelo_inurba_marseille","lat":43.297815,"lon":5.393548,"is_reserved":false,"is_disabled":false,"rental_uris":{"android":"levelo://app?vid=9ed5fd63-f88f-4155-866e-489d7608feb2","ios":"levelo://app?vid=9ed5fd63-f88f-4155-866e-489d7608feb2"},"vehicle_type_id":"4","last_reported":1705446434,"current_range_meters":21200,"station_id":"chh1huq6cuj3fo74tm60","pricing_plan_id":"free"},{"bike_id":"6f8d9a30-15c7-4217-978b-ced8df05fe05","system_id":"levelo_inurba_marseille","lat":43.297918,"lon":5.393425,"is_reserved":false,"is_disabled":false,"rental_uris":{"android":"levelo://app?vid=6f8d9a30-15c7-4217-978b-ced8df05fe05","ios":"levelo://app?vid=6f8d9a30-15c7-4217-978b-ced8df05fe05"},"vehicle_type_id":"4","last_reported":1705446434,"current_range_meters":20400,"station_id":"chh1huq6cuj3fo74tm60","pricing_plan_id":"free"},{"bike_id":"226bb269-1d10-4f64-bdf3-296d273ae135","system_id":"levelo_inurba_marseille","lat":43.330442,"lon":5.389148,"is_reserved":false,"is_disabled":false,"rental_uris":{"android":"levelo://app?vid=226bb269-1d10-4f64-bdf3-296d273ae135","ios":"levelo://app?vid=226bb269-1d10-4f64-bdf3-296d273ae135"},"vehicle_type_id":"4","last_reported":1705446434,"current_range_meters":0,"station_id":"ce4bhr92rcd13ifvqhrg","pricing_plan_id":"free"},{"bike_id":"e862abba-2e63-430a-8d1e-8211ff1f7372","system_id":"levelo_inurba_marseille","lat":43.295169,"lon":5.390426,"is_reserved":false,"is_disabled":false,"rental_uris":{"android":"levelo://app?vid=e862abba-2e63-430a-8d1e-8211ff1f7372","ios":"levelo://app?vid=e862abba-2e63-430a-8d1e-8211ff1f7372"},"vehicle_type_id":"4","last_reported":1705446434,"current_range_meters":9600,"station_id":"ce4bh3p2rcd13ifvqdp0","pricing_plan_id":"free"},{"bike_id":"272ef7d0-3302-4631-915d-5a1efc6075b7","system_id":"levelo_inurba_marseille","lat":43.295169,"lon":5.390426,"is_reserved":false,"is_disabled":false,"rental_uris":{"android":"levelo://app?vid=272ef7d0-3302-4631-915d-5a1efc6075b7","ios":"levelo://app?vid=272ef7d0-3302-4631-915d-5a1efc6075b7"},"vehicle_type_id":"4","last_reported":1705446434,"current_range_meters":21200,"station_id":"ce4bh3p2rcd13ifvqdp0","pricing_plan_id":"free"},{"bike_id":"504a6943-9d99-49e0-bdeb-5308b020f39b","system_id":"levelo_inurba_marseille","lat":43.330442,"lon":5.389148,"is_reserved":false,"is_disabled":false,"rental_uris":{"android":"levelo://app?vid=504a6943-9d99-49e0-bdeb-5308b020f39b","ios":"levelo://app?vid=504a6943-9d99-49e0-bdeb-5308b020f39b"},"vehicle_type_id":"4","last_reported":1705446434,"current_range_meters":21600,"station_id":"ce4bhr92rcd13ifvqhrg","pricing_plan_id":"free"},{"bike_id":"086dad79-ac46-498b-975d-f78e2e21fe06","system_id":"levelo_inurba_marseille","lat":43.33022,"lon":5.39044,"is_reserved":false,"is_disabled":false,"rental_uris":{"android":"levelo://app?vid=086dad79-ac46-498b-975d-f78e2e21fe06","ios":"levelo://app?vid=086dad79-ac46-498b-975d-f78e2e21fe06"},"vehicle_type_id":"4","last_reported":1705446434,"current_range_meters":0,"station_id":"ce4bhr92rcd13ifvqhrg","pricing_plan_id":"free"},{"bike_id":"0dbbe99a-758c-424d-b19f-cbaa18c32977","system_id":"levelo_inurba_marseille","lat":43.330442,"lon":5.389148,"is_reserved":false,"is_disabled":false,"rental_uris":{"android":"levelo://app?vid=0dbbe99a-758c-424d-b19f-cbaa18c32977","ios":"levelo://app?vid=0dbbe99a-758c-424d-b19f-cbaa18c32977"},"vehicle_type_id":"4","last_reported":1705446434,"current_range_meters":0,"station_id":"ce4bhr92rcd13ifvqhrg","pricing_plan_id":"free"},{"bike_id":"6b7717bf-2a62-429b-a9ad-5f32cd02edf4","system_id":"levelo_inurba_marseille","lat":43.295169,"lon":5.390426,"is_reserved":false,"is_disabled":false,"rental_uris":{"android":"levelo://app?vid=6b7717bf-2a62-429b-a9ad-5f32cd02edf4","ios":"levelo://app?vid=6b7717bf-2a62-429b-a9ad-5f32cd02edf4"},"vehicle_type_id":"4","last_reported":1705446434,"current_range_meters":15600,"station_id":"ce4bh3p2rcd13ifvqdp0","pricing_plan_id":"free"},{"bike_id":"d73440dc-c778-477a-ae11-26fe0bc647a0","system_id":"levelo_inurba_marseille","lat":43.28856,"lon":5.358371,"is_reserved":false,"is_disabled":false,"rental_uris":{"android":"levelo://app?vid=d73440dc-c778-477a-ae11-26fe0bc647a0","ios":"levelo://app?vid=d73440dc-c778-477a-ae11-26fe0bc647a0"},"vehicle_type_id":"4","last_reported":1705446434,"current_range_meters":31200,"station_id":"ce4bhb12rcd13ifvqem0","pricing_plan_id":"free"},{"bike_id":"1e61b843-c9e6-4324-a37a-7aa88910fab6","system_id":"levelo_inurba_marseille","lat":43.28856,"lon":5.358371,"is_reserved":false,"is_disabled":false,"rental_uris":{"android":"levelo://app?vid=1e61b843-c9e6-4324-a37a-7aa88910fab6","ios":"levelo://app?vid=1e61b843-c9e6-4324-a37a-7aa88910fab6"},"vehicle_type_id":"4","last_reported":1705446434,"current_range_meters":28000,"station_id":"ce4bhb12rcd13ifvqem0","pricing_plan_id":"free"},{"bike_id":"37140275-da9f-4786-9887-edc31b39e966","system_id":"levelo_inurba_marseille","lat":43.28845,"lon":5.3584,"is_reserved":false,"is_disabled":false,"rental_uris":{"android":"levelo://app?vid=37140275-da9f-4786-9887-edc31b39e966","ios":"levelo://app?vid=37140275-da9f-4786-9887-edc31b39e966"},"vehicle_type_id":"4","last_reported":1705446434,"current_range_meters":31200,"station_id":"ce4bhb12rcd13ifvqem0","pricing_plan_id":"free"},{"bike_id":"38c55fe5-bd8d-4b60-814e-b809437becfc","system_id":"levelo_inurba_marseille","lat":43.28856,"lon":5.358371,"is_reserved":false,"is_disabled":false,"rental_uris":{"android":"levelo://app?vid=38c55fe5-bd8d-4b60-814e-b809437becfc","ios":"levelo://app?vid=38c55fe5-bd8d-4b60-814e-b809437becfc"},"vehicle_type_id":"4","last_reported":1705446434,"current_range_meters":22800,"station_id":"ce4bhb12rcd13ifvqem0","pricing_plan_id":"free"},{"bike_id":"7c355491-6754-4b65-bc86-da0010edc411","system_id":"levelo_inurba_marseille","lat":43.28856,"lon":5.358371,"is_reserved":false,"is_disabled":false,"rental_uris":{"android":"levelo://app?vid=7c355491-6754-4b65-bc86-da0010edc411","ios":"levelo://app?vid=7c355491-6754-4b65-bc86-da0010edc411"},"vehicle_type_id":"4","last_reported":1705446434,"current_range_meters":20800,"station_id":"ce4bhb12rcd13ifvqem0","pricing_plan_id":"free"},{"bike_id":"5162eb63-1f57-4db1-bcce-79c260e6bc66","system_id":"levelo_inurba_marseille","lat":43.288295,"lon":5.358857,"is_reserved":false,"is_disabled":false,"rental_uris":{"android":"levelo://app?vid=5162eb63-1f57-4db1-bcce-79c260e6bc66","ios":"levelo://app?vid=5162eb63-1f57-4db1-bcce-79c260e6bc66"},"vehicle_type_id":"4","last_reported":1705446434,"current_range_meters":20400,"station_id":"ce4bhb12rcd13ifvqem0","pricing_plan_id":"free"},{"bike_id":"4968ad16-256c-48e5-bc8a-5c3c299d49d8","system_id":"levelo_inurba_marseille","lat":43.312609,"lon":5.401662,"is_reserved":false,"is_disabled":false,"rental_uris":{"android":"levelo://app?vid=4968ad16-256c-48e5-bc8a-5c3c299d49d8","ios":"levelo://app?vid=4968ad16-256c-48e5-bc8a-5c3c299d49d8"},"vehicle_type_id":"4","last_reported":1705446434,"current_range_meters":400,"station_id":"ce4bh092rcd13ifvqd30","pricing_plan_id":"free"},{"bike_id":"034a1c99-1b20-444e-b820-d600efc95777","system_id":"levelo_inurba_marseille","lat":43.312609,"lon":5.401662,"is_reserved":false,"is_disabled":false,"rental_uris":{"android":"levelo://app?vid=034a1c99-1b20-444e-b820-d600efc95777","ios":"levelo://app?vid=034a1c99-1b20-444e-b820-d600efc95777"},"vehicle_type_id":"4","last_reported":1705446434,"current_range_meters":8400,"station_id":"ce4bh092rcd13ifvqd30","pricing_plan_id":"free"},{"bike_id":"be909a74-cbac-48ae-bdb6-1ca9dcd23092","system_id":"levelo_inurba_marseille","lat":43.312609,"lon":5.401662,"is_reserved":false,"is_disabled":false,"rental_uris":{"android":"levelo://app?vid=be909a74-cbac-48ae-bdb6-1ca9dcd23092","ios":"levelo://app?vid=be909a74-cbac-48ae-bdb6-1ca9dcd23092"},"vehicle_type_id":"4","last_reported":1705446434,"current_range_meters":13200,"station_id":"ce4bh092rcd13ifvqd30","pricing_plan_id":"free"},{"bike_id":"7c15f66c-26cd-4814-85ba-37b06fc5fc0c","system_id":"levelo_inurba_marseille","lat":43.312609,"lon":5.401662,"is_reserved":false,"is_disabled":false,"rental_uris":{"android":"levelo://app?vid=7c15f66c-26cd-4814-85ba-37b06fc5fc0c","ios":"levelo://app?vid=7c15f66c-26cd-4814-85ba-37b06fc5fc0c"},"vehicle_type_id":"4","last_reported":1705446434,"current_range_meters":6000,"station_id":"ce4bh092rcd13ifvqd30","pricing_plan_id":"free"},{"bike_id":"e66bd384-83a2-44c3-8224-a805f8b6f353","system_id":"levelo_inurba_marseille","lat":43.30936,"lon":5.40137,"is_reserved":false,"is_disabled":false,"rental_uris":{"android":"levelo://app?vid=e66bd384-83a2-44c3-8224-a805f8b6f353","ios":"levelo://app?vid=e66bd384-83a2-44c3-8224-a805f8b6f353"},"vehicle_type_id":"4","last_reported":1705446434,"current_range_meters":21200,"station_id":"ce4bgvp2rcd13ifvqct0","pricing_plan_id":"free"},{"bike_id":"7d613584-5a3d-498b-af3b-a91e82351a9c","system_id":"levelo_inurba_marseille","lat":43.30933,"lon":5.40137,"is_reserved":false,"is_disabled":false,"rental_uris":{"android":"levelo://app?vid=7d613584-5a3d-498b-af3b-a91e82351a9c","ios":"levelo://app?vid=7d613584-5a3d-498b-af3b-a91e82351a9c"},"vehicle_type_id":"4","last_reported":1705446434,"current_range_meters":26800,"station_id":"ce4bgvp2rcd13ifvqct0","pricing_plan_id":"free"},{"bike_id":"2ffe6a10-8360-4eb3-8853-e5a93b2756e8","system_id":"levelo_inurba_marseille","lat":43.312826,"lon":5.401704,"is_reserved":false,"is_disabled":false,"rental_uris":{"android":"levelo://app?vid=2ffe6a10-8360-4eb3-8853-e5a93b2756e8","ios":"levelo://app?vid=2ffe6a10-8360-4eb3-8853-e5a93b2756e8"},"vehicle_type_id":"4","last_reported":1705446434,"current_range_meters":19600,"station_id":"ce4bh092rcd13ifvqd30","pricing_plan_id":"free"},{"bike_id":"2c654108-f3bf-462d-a5ab-344b0d6fb200","system_id":"levelo_inurba_marseille","lat":43.30932,"lon":5.40141,"is_reserved":false,"is_disabled":false,"rental_uris":{"android":"levelo://app?vid=2c654108-f3bf-462d-a5ab-344b0d6fb200","ios":"levelo://app?vid=2c654108-f3bf-462d-a5ab-344b0d6fb200"},"vehicle_type_id":"4","last_reported":1705446434,"current_range_meters":24400,"station_id":"ce4bgvp2rcd13ifvqct0","pricing_plan_id":"free"},{"bike_id":"704e138d-0d9a-4552-9752-b0b0c22c3776","system_id":"levelo_inurba_marseille","lat":43.309371,"lon":5.401449,"is_reserved":false,"is_disabled":false,"rental_uris":{"android":"levelo://app?vid=704e138d-0d9a-4552-9752-b0b0c22c3776","ios":"levelo://app?vid=704e138d-0d9a-4552-9752-b0b0c22c3776"},"vehicle_type_id":"4","last_reported":1705446434,"current_range_meters":20000,"station_id":"ce4bgvp2rcd13ifvqct0","pricing_plan_id":"free"},{"bike_id":"ed73fdde-305f-4fad-a002-7c4eaadf67e9","system_id":"levelo_inurba_marseille","lat":43.309371,"lon":5.401449,"is_reserved":false,"is_disabled":false,"rental_uris":{"android":"levelo://app?vid=ed73fdde-305f-4fad-a002-7c4eaadf67e9","ios":"levelo://app?vid=ed73fdde-305f-4fad-a002-7c4eaadf67e9"},"vehicle_type_id":"4","last_reported":1705446434,"current_range_meters":9200,"station_id":"ce4bgvp2rcd13ifvqct0","pricing_plan_id":"free"},{"bike_id":"1527ed7d-332e-45ad-88c6-5d904ebadb8a","system_id":"levelo_inurba_marseille","lat":43.309371,"lon":5.401449,"is_reserved":false,"is_disabled":false,"rental_uris":{"android":"levelo://app?vid=1527ed7d-332e-45ad-88c6-5d904ebadb8a","ios":"levelo://app?vid=1527ed7d-332e-45ad-88c6-5d904ebadb8a"},"vehicle_type_id":"4","last_reported":1705446434,"current_range_meters":17600,"station_id":"ce4bgvp2rcd13ifvqct0","pricing_plan_id":"free"},{"bike_id":"6987ba71-5098-416c-8c51-cd28d2ad9c75","system_id":"levelo_inurba_marseille","lat":43.309371,"lon":5.401449,"is_reserved":false,"is_disabled":false,"rental_uris":{"android":"levelo://app?vid=6987ba71-5098-416c-8c51-cd28d2ad9c75","ios":"levelo://app?vid=6987ba71-5098-416c-8c51-cd28d2ad9c75"},"vehicle_type_id":"4","last_reported":1705446434,"current_range_meters":21200,"station_id":"ce4bgvp2rcd13ifvqct0","pricing_plan_id":"free"},{"bike_id":"b3bbbd8c-fefe-497f-856b-63a38c08d7c8","system_id":"levelo_inurba_marseille","lat":43.309371,"lon":5.401449,"is_reserved":false,"is_disabled":false,"rental_uris":{"android":"levelo://app?vid=b3bbbd8c-fefe-497f-856b-63a38c08d7c8","ios":"levelo://app?vid=b3bbbd8c-fefe-497f-856b-63a38c08d7c8"},"vehicle_type_id":"4","last_reported":1705446434,"current_range_meters":6800,"station_id":"ce4bgvp2rcd13ifvqct0","pricing_plan_id":"free"},{"bike_id":"6d850afc-6c16-4237-b9da-e5b80e68c146","system_id":"levelo_inurba_marseille","lat":43.3093,"lon":5.40148,"is_reserved":false,"is_disabled":false,"rental_uris":{"android":"levelo://app?vid=6d850afc-6c16-4237-b9da-e5b80e68c146","ios":"levelo://app?vid=6d850afc-6c16-4237-b9da-e5b80e68c146"},"vehicle_type_id":"4","last_reported":1705446434,"current_range_meters":24800,"station_id":"ce4bgvp2rcd13ifvqct0","pricing_plan_id":"free"},{"bike_id":"c0fac3f3-ebcb-4e7c-8c4d-583a6e74f774","system_id":"levelo_inurba_marseille","lat":43.309371,"lon":5.401449,"is_reserved":false,"is_disabled":false,"rental_uris":{"android":"levelo://app?vid=c0fac3f3-ebcb-4e7c-8c4d-583a6e74f774","ios":"levelo://app?vid=c0fac3f3-ebcb-4e7c-8c4d-583a6e74f774"},"vehicle_type_id":"4","last_reported":1705446434,"current_range_meters":2800,"station_id":"ce4bgvp2rcd13ifvqct0","pricing_plan_id":"free"},{"bike_id":"a6a4c2ec-0058-4bbb-b438-5701ff314afc","system_id":"levelo_inurba_marseille","lat":43.30642,"lon":5.401031,"is_reserved":false,"is_disabled":false,"rental_uris":{"android":"levelo://app?vid=a6a4c2ec-0058-4bbb-b438-5701ff314afc","ios":"levelo://app?vid=a6a4c2ec-0058-4bbb-b438-5701ff314afc"},"vehicle_type_id":"4","last_reported":1705446434,"current_range_meters":28400,"station_id":"ce4bh112rcd13ifvqda0","pricing_plan_id":"free"},{"bike_id":"7e621f1d-ee29-4d4f-ac48-98955fa8e59b","system_id":"levelo_inurba_marseille","lat":43.30642,"lon":5.401031,"is_reserved":false,"is_disabled":false,"rental_uris":{"android":"levelo://app?vid=7e621f1d-ee29-4d4f-ac48-98955fa8e59b","ios":"levelo://app?vid=7e621f1d-ee29-4d4f-ac48-98955fa8e59b"},"vehicle_type_id":"4","last_reported":1705446434,"current_range_meters":7600,"station_id":"ce4bh112rcd13ifvqda0","pricing_plan_id":"free"},{"bike_id":"1f66c635-e7c5-4b91-b451-153c12c92c53","system_id":"levelo_inurba_marseille","lat":43.306412,"lon":5.401035,"is_reserved":false,"is_disabled":false,"rental_uris":{"android":"levelo://app?vid=1f66c635-e7c5-4b91-b451-153c12c92c53","ios":"levelo://app?vid=1f66c635-e7c5-4b91-b451-153c12c92c53"},"vehicle_type_id":"4","last_reported":1705446434,"current_range_meters":31200,"station_id":"ce4bh112rcd13ifvqda0","pricing_plan_id":"free"},{"bike_id":"381972fb-f51c-4647-b63f-419225ac72ef","system_id":"levelo_inurba_marseille","lat":43.306412,"lon":5.401035,"is_reserved":false,"is_disabled":false,"rental_uris":{"android":"levelo://app?vid=381972fb-f51c-4647-b63f-419225ac72ef","ios":"levelo://app?vid=381972fb-f51c-4647-b63f-419225ac72ef"},"vehicle_type_id":"4","last_reported":1705446434,"current_range_meters":7600,"station_id":"ce4bh112rcd13ifvqda0","pricing_plan_id":"free"},{"bike_id":"767d284b-5d08-4b5c-a31b-34b3e75291d0","system_id":"levelo_inurba_marseille","lat":43.301117,"lon":5.398795,"is_reserved":false,"is_disabled":false,"rental_uris":{"android":"levelo://app?vid=767d284b-5d08-4b5c-a31b-34b3e75291d0","ios":"levelo://app?vid=767d284b-5d08-4b5c-a31b-34b3e75291d0"},"vehicle_type_id":"4","last_reported":1705446434,"current_range_meters":0,"station_id":"ce4bh0h2rcd13ifvqd40","pricing_plan_id":"free"},{"bike_id":"76c7b0f6-d8f2-41cb-8967-89f268eb588d","system_id":"levelo_inurba_marseille","lat":43.30642,"lon":5.401031,"is_reserved":false,"is_disabled":false,"rental_uris":{"android":"levelo://app?vid=76c7b0f6-d8f2-41cb-8967-89f268eb588d","ios":"levelo://app?vid=76c7b0f6-d8f2-41cb-8967-89f268eb588d"},"vehicle_type_id":"4","last_reported":1705446434,"current_range_meters":16000,"station_id":"ce4bh112rcd13ifvqda0","pricing_plan_id":"free"},{"bike_id":"60aa1cff-e8c8-4fe1-97cc-6783fbf375d6","system_id":"levelo_inurba_marseille","lat":43.301117,"lon":5.398795,"is_reserved":false,"is_disabled":false,"rental_uris":{"android":"levelo://app?vid=60aa1cff-e8c8-4fe1-97cc-6783fbf375d6","ios":"levelo://app?vid=60aa1cff-e8c8-4fe1-97cc-6783fbf375d6"},"vehicle_type_id":"4","last_reported":1705446434,"current_range_meters":26000,"station_id":"ce4bh0h2rcd13ifvqd40","pricing_plan_id":"free"},{"bike_id":"80e884cf-0efe-45f3-9669-2f70e610eac9","system_id":"levelo_inurba_marseille","lat":43.301117,"lon":5.398795,"is_reserved":false,"is_disabled":false,"rental_uris":{"android":"levelo://app?vid=80e884cf-0efe-45f3-9669-2f70e610eac9","ios":"levelo://app?vid=80e884cf-0efe-45f3-9669-2f70e610eac9"},"vehicle_type_id":"4","last_reported":1705446434,"current_range_meters":25200,"station_id":"ce4bh0h2rcd13ifvqd40","pricing_plan_id":"free"},{"bike_id":"d3349fc2-f2d8-4600-b467-68b33f41db06","system_id":"levelo_inurba_marseille","lat":43.30139,"lon":5.398667,"is_reserved":false,"is_disabled":false,"rental_uris":{"android":"levelo://app?vid=d3349fc2-f2d8-4600-b467-68b33f41db06","ios":"levelo://app?vid=d3349fc2-f2d8-4600-b467-68b33f41db06"},"vehicle_type_id":"4","last_reported":1705446434,"current_range_meters":4800,"station_id":"ce4bh0h2rcd13ifvqd40","pricing_plan_id":"free"},{"bike_id":"f6c35de7-f33a-4251-a341-a1890e7c9944","system_id":"levelo_inurba_marseille","lat":43.28727,"lon":5.36078,"is_reserved":false,"is_disabled":false,"rental_uris":{"android":"levelo://app?vid=f6c35de7-f33a-4251-a341-a1890e7c9944","ios":"levelo://app?vid=f6c35de7-f33a-4251-a341-a1890e7c9944"},"vehicle_type_id":"4","last_reported":1705446434,"current_range_meters":2800,"station_id":"cki0cbj6b192h4jlfktg","pricing_plan_id":"free"},{"bike_id":"b250d6cc-ac95-4148-bb9c-058f86e5ac1b","system_id":"levelo_inurba_marseille","lat":43.30469,"lon":5.40061,"is_reserved":false,"is_disabled":false,"rental_uris":{"android":"levelo://app?vid=b250d6cc-ac95-4148-bb9c-058f86e5ac1b","ios":"levelo://app?vid=b250d6cc-ac95-4148-bb9c-058f86e5ac1b"},"vehicle_type_id":"4","last_reported":1705446434,"current_range_meters":22800,"station_id":"","pricing_plan_id":"free"},{"bike_id":"39f36516-97f1-4045-96c8-bbce33f58a4f","system_id":"levelo_inurba_marseille","lat":43.28727,"lon":5.36078,"is_reserved":false,"is_disabled":false,"rental_uris":{"android":"levelo://app?vid=39f36516-97f1-4045-96c8-bbce33f58a4f","ios":"levelo://app?vid=39f36516-97f1-4045-96c8-bbce33f58a4f"},"vehicle_type_id":"4","last_reported":1705446434,"current_range_meters":18400,"station_id":"cki0cbj6b192h4jlfktg","pricing_plan_id":"free"},{"bike_id":"f254f05f-6117-400f-acf4-a9fbe72b0e06","system_id":"levelo_inurba_marseille","lat":43.28727,"lon":5.36078,"is_reserved":false,"is_disabled":false,"rental_uris":{"android":"levelo://app?vid=f254f05f-6117-400f-acf4-a9fbe72b0e06","ios":"levelo://app?vid=f254f05f-6117-400f-acf4-a9fbe72b0e06"},"vehicle_type_id":"4","last_reported":1705446434,"current_range_meters":26000,"station_id":"cki0cbj6b192h4jlfktg","pricing_plan_id":"free"},{"bike_id":"ccb7ee15-ea60-4c4a-a47e-18b2445cd80e","system_id":"levelo_inurba_marseille","lat":43.28727,"lon":5.36078,"is_reserved":false,"is_disabled":false,"rental_uris":{"android":"levelo://app?vid=ccb7ee15-ea60-4c4a-a47e-18b2445cd80e","ios":"levelo://app?vid=ccb7ee15-ea60-4c4a-a47e-18b2445cd80e"},"vehicle_type_id":"4","last_reported":1705446434,"current_range_meters":20800,"station_id":"cki0cbj6b192h4jlfktg","pricing_plan_id":"free"},{"bike_id":"43dc09ad-f4c8-4937-810b-f453ccf62f71","system_id":"levelo_inurba_marseille","lat":43.28727,"lon":5.36078,"is_reserved":false,"is_disabled":false,"rental_uris":{"android":"levelo://app?vid=43dc09ad-f4c8-4937-810b-f453ccf62f71","ios":"levelo://app?vid=43dc09ad-f4c8-4937-810b-f453ccf62f71"},"vehicle_type_id":"4","last_reported":1705446434,"current_range_meters":24000,"station_id":"cki0cbj6b192h4jlfktg","pricing_plan_id":"free"},{"bike_id":"f66dcd2c-32e2-43e1-abbb-c6a857e36283","system_id":"levelo_inurba_marseille","lat":43.28727,"lon":5.36078,"is_reserved":false,"is_disabled":false,"rental_uris":{"android":"levelo://app?vid=f66dcd2c-32e2-43e1-abbb-c6a857e36283","ios":"levelo://app?vid=f66dcd2c-32e2-43e1-abbb-c6a857e36283"},"vehicle_type_id":"4","last_reported":1705446434,"current_range_meters":30000,"station_id":"cki0cbj6b192h4jlfktg","pricing_plan_id":"free"},{"bike_id":"1d191e2d-ac59-4e09-b9d2-091d4f9b9d46","system_id":"levelo_inurba_marseille","lat":43.28727,"lon":5.36078,"is_reserved":false,"is_disabled":false,"rental_uris":{"android":"levelo://app?vid=1d191e2d-ac59-4e09-b9d2-091d4f9b9d46","ios":"levelo://app?vid=1d191e2d-ac59-4e09-b9d2-091d4f9b9d46"},"vehicle_type_id":"4","last_reported":1705446434,"current_range_meters":29200,"station_id":"cki0cbj6b192h4jlfktg","pricing_plan_id":"free"},{"bike_id":"05226624-0d8d-465f-acfa-8aa753cb10dc","system_id":"levelo_inurba_marseille","lat":43.28727,"lon":5.36078,"is_reserved":false,"is_disabled":false,"rental_uris":{"android":"levelo://app?vid=05226624-0d8d-465f-acfa-8aa753cb10dc","ios":"levelo://app?vid=05226624-0d8d-465f-acfa-8aa753cb10dc"},"vehicle_type_id":"4","last_reported":1705446434,"current_range_meters":21200,"station_id":"cki0cbj6b192h4jlfktg","pricing_plan_id":"free"},{"bike_id":"98be3760-3616-46e3-a975-1a87b30d3273","system_id":"levelo_inurba_marseille","lat":43.28727,"lon":5.36078,"is_reserved":false,"is_disabled":false,"rental_uris":{"android":"levelo://app?vid=98be3760-3616-46e3-a975-1a87b30d3273","ios":"levelo://app?vid=98be3760-3616-46e3-a975-1a87b30d3273"},"vehicle_type_id":"4","last_reported":1705446434,"current_range_meters":19200,"station_id":"cki0cbj6b192h4jlfktg","pricing_plan_id":"free"},{"bike_id":"6b5bde50-f68e-4a9b-b836-946a7c2ba298","system_id":"levelo_inurba_marseille","lat":43.286961,"lon":5.373785,"is_reserved":false,"is_disabled":false,"rental_uris":{"android":"levelo://app?vid=6b5bde50-f68e-4a9b-b836-946a7c2ba298","ios":"levelo://app?vid=6b5bde50-f68e-4a9b-b836-946a7c2ba298"},"vehicle_type_id":"4","last_reported":1705446434,"current_range_meters":30800,"station_id":"ce4bh3p2rcd13ifvqdq0","pricing_plan_id":"free"},{"bike_id":"15754fb9-fd1b-494c-a9ed-a48041cf5e87","system_id":"levelo_inurba_marseille","lat":43.286961,"lon":5.373785,"is_reserved":false,"is_disabled":false,"rental_uris":{"android":"levelo://app?vid=15754fb9-fd1b-494c-a9ed-a48041cf5e87","ios":"levelo://app?vid=15754fb9-fd1b-494c-a9ed-a48041cf5e87"},"vehicle_type_id":"4","last_reported":1705446434,"current_range_meters":7600,"station_id":"ce4bh3p2rcd13ifvqdq0","pricing_plan_id":"free"},{"bike_id":"a9eac4ac-d4df-4c7e-91ea-543648c669e0","system_id":"levelo_inurba_marseille","lat":43.286961,"lon":5.373785,"is_reserved":false,"is_disabled":false,"rental_uris":{"android":"levelo://app?vid=a9eac4ac-d4df-4c7e-91ea-543648c669e0","ios":"levelo://app?vid=a9eac4ac-d4df-4c7e-91ea-543648c669e0"},"vehicle_type_id":"4","last_reported":1705446434,"current_range_meters":30400,"station_id":"ce4bh3p2rcd13ifvqdq0","pricing_plan_id":"free"},{"bike_id":"8d09bf97-0d58-44fc-a2d5-5d7c9a33e078","system_id":"levelo_inurba_marseille","lat":43.286591,"lon":5.363346,"is_reserved":false,"is_disabled":false,"rental_uris":{"android":"levelo://app?vid=8d09bf97-0d58-44fc-a2d5-5d7c9a33e078","ios":"levelo://app?vid=8d09bf97-0d58-44fc-a2d5-5d7c9a33e078"},"vehicle_type_id":"4","last_reported":1705446434,"current_range_meters":20800,"station_id":"ce4bhah2rcd13ifvqej0","pricing_plan_id":"free"},