{"last_updated":1739833683,"ttl":60,"version":"2.2","data":{"bikes":[{"bike_id":"4e7beed8-3f51-4c59-a37c-0ac46140a818","system_id":"levelo_inurba_marseille","lat":43.26951,"lon":5.38625,"is_reserved":false,"is_disabled":true,"rental_uris":{"android":"levelo://app?vid=4e7beed8-3f51-4c59-a37c-0ac46140a818","ios":"levelo://app?vid=4e7beed8-3f51-4c59-a37c-0ac46140a818"},"vehicle_type_id":"4","last_reported":1739833683,"current_range_meters":2800,"station_id":"","pricing_plan_id":"cebpf4jnsgd1na2vs0mg"},{"bike_id":"458f44e2-37dd-48dd-8470-babd18691b9c","system_id":"levelo_inurba_marseille","lat":43.24643,"lon":5.38891,"is_reserved":false,"is_disabled":true,"rental_uris":{"android":"levelo://app?vid=458f44e2-37dd-48dd-8470-babd18691b9c","ios":"levelo://app?vid=458f44e2-37dd-48dd-8470-babd18691b9c"},"vehicle_type_id":"4","last_reported":1739833683,"current_range_meters":3200,"station_id":"ce4bhg12rcd13ifvqf60","pricing_plan_id":"cebpf4jnsgd1na2vs0mg"},{"bike_id":"fdb4d625-32da-4d34-9480-3a0853efe45b","system_id":"levelo_inurba_marseille","lat":43.24151,"lon":5.39596,"is_reserved":false,"is_disabled":true,"rental_uris":{"android":"levelo://app?vid=fdb4d625-32da-4d34-9480-3a0853efe45b","ios":"levelo://app?vid=fdb4d625-32da-4d34-9480-3a0853efe45b"},"vehicle_type_id":"4","last_reported":1739833683,"current_range_meters":4000,"station_id":"ce4bhn12rcd13ifvqgpg","pricing_plan_id":"cebpf4jnsgd1na2vs0mg"},{"bike_id":"b87cb6a5-cf63-4b15-83a4-03a98611e72a","system_id":"levelo_inurba_marseille","lat":43.28136,"lon":5.44294,"is_reserved":false,"is_disabled":true,"rental_uris":{"android":"levelo://app?vid=b87cb6a5-cf63-4b15-83a4-03a98611e72a","ios":"levelo://app?vid=b87cb6a5-cf63-4b15-83a4-03a98611e72a"},"vehicle_type_id":"4","last_reported":1739833683,"current_range_meters":4000,"station_id":"ce4bhnh2rcd13ifvqgtg","pricing_plan_id":"cebpf4jnsgd1na2vs0mg"},{"bike_id":"6b21d320-52d0-422d-a96b-25dc166ffb72","system_id":"levelo_inurba_marseille","lat":43.30417,"lon":5.41279,"is_reserved":false,"is_disabled":true,"rental_uris":{"android":"levelo://app?vid=6b21d320-52d0-422d-a96b-25dc166ffb72","ios":"levelo://app?vid=6b21d320-52d0-422d-a96b-25dc166ffb72"},"vehicle_type_id":"4","last_reported":1739833683,"current_range_meters":4000,"station_id":"ce4bhop2rcd13ifvqh8g","pricing_plan_id":"cebpf4jnsgd1na2vs0mg"},{"bike_id":"d0e0a89a-0d81-4148-ba85-59442b59d06e","system_id":"levelo_inurba_marseille","lat":43.28622,"lon":5.35114,"is_reserved":false,"is_disabled":false,"rental_uris":{"android":"levelo://app?vid=d0e0a89a-0d81-4148-ba85-59442b59d06e","ios":"levelo://app?vid=d0e0a89a-0d81-4148-ba85-59442b59d06e"},"vehicle_type_id":"4","last_reported":1739833683,"current_range_meters":4400,"station_id":"","pricing_plan_id":"cebpf4jnsgd1na2vs0mg"},{"bike_id":"ccb57440-5632-455e-9366-0702ea1f768f","system_id":"levelo_inurba_marseille","lat":43.27907,"lon":5.38019,"is_reserved":false,"is_disabled":false,"rental_uris":{"android":"levelo://app?vid=ccb57440-5632-455e-9366-0702ea1f768f","ios":"levelo://app?vid=ccb57440-5632-455e-9366-0702ea1f768f"},"vehicle_type_id":"4","last_reported":1739833683,"current_range_meters":4400,"station_id":"ce4bhf92rcd13ifvqf50","pricing_plan_id":"cebpf4jnsgd1na2vs0mg"},{"bike_id":"cf253ce4-5f50-4486-b1ca-3ea2176638f7","system_id":"levelo_inurba_marseille","lat":43.28425,"lon":5.37545,"is_reserved":false,"is_disabled":false,"rental_uris":{"android":"levelo://app?vid=cf253ce4-5f50-4486-b1ca-3ea2176638f7","ios":"levelo://app?vid=cf253ce4-5f50-4486-b1ca-3ea2176638f7"},"vehicle_type_id":"4","last_reported":1739833683,"current_range_meters":4400,"station_id":"","pricing_plan_id":"cebpf4jnsgd1na2vs0mg"},{"bike_id":"328b503b-e779-4ea8-a25b-fe57bdb6b3ac","system_id":"levelo_inurba_marseille","lat":43.29534,"lon":5.39415,"is_reserved":false,"is_disabled":false,"rental_uris":{"android":"levelo://app?vid=328b503b-e779-4ea8-a25b-fe57bdb6b3ac","ios":"levelo://app?vid=328b503b-e779-4ea8-a25b-fe57bdb6b3ac"},"vehicle_type_id":"4","last_reported":1739833683,"current_range_meters":4800,"station_id":"ce4bh292rcd13ifvqdf0","pricing_plan_id":"cebpf4jnsgd1na2vs0mg"},{"bike_id":"1d6f5a5a-bf78-4d12-91e4-6dc8a2b7ed98","system_id":"levelo_inurba_marseille","lat":43.27492,"lon":5.42462,"is_reserved":false,"is_disabled":true,"rental_uris":{"android":"levelo://app?vid=1d6f5a5a-bf78-4d12-91e4-6dc8a2b7ed98","ios":"levelo://app?vid=1d6f5a5a-bf78-4d12-91e4-6dc8a2b7ed98"},"vehicle_type_id":"4","last_reported":1739833683,"current_range_meters":4800,"station_id":"ce4bhn92rcd13ifvqgrg","pricing_plan_id":"cebpf4jnsgd1na2vs0mg"},{"bike_id":"a4413d93-aceb-47df-9edf-870ce631380e","system_id":"levelo_inurba_marseille","lat":43.24395,"lon":5.37068,"is_reserved":false,"is_disabled":true,"rental_uris":{"android":"levelo://app?vid=a4413d93-aceb-47df-9edf-870ce631380e","ios":"levelo://app?vid=a4413d93-aceb-47df-9edf-870ce631380e"},"vehicle_type_id":"4","last_reported":1739833683,"current_range_meters":5600,"station_id":"ce4bhhh2rcd13ifvqfk0","pricing_plan_id":"cebpf4jnsgd1na2vs0mg"},{"bike_id":"ce61429a-686f-445d-80d9-4b10876ed4ef","system_id":"levelo_inurba_marseille","lat":43.337444,"lon":5.374475,"is_reserved":false,"is_disabled":true,"rental_uris":{"android":"levelo://app?vid=ce61429a-686f-445d-80d9-4b10876ed4ef","ios":"levelo://app?vid=ce61429a-686f-445d-80d9-4b10876ed4ef"},"vehicle_type_id":"4","last_reported":1739833683,"current_range_meters":5600,"station_id":"","pricing_plan_id":"cebpf4jnsgd1na2vs0mg"},{"bike_id":"b5d51719-c1bb-48d2-8389-d66332973310","system_id":"levelo_inurba_marseille","lat":43.23964,"lon":5.36627,"is_reserved":false,"is_disabled":true,"rental_uris":{"android":"levelo://app?vid=b5d51719-c1bb-48d2-8389-d66332973310","ios":"levelo://app?vid=b5d51719-c1bb-48d2-8389-d66332973310"},"vehicle_type_id":"4","last_reported":1739833683,"current_range_meters":6000,"station_id":"ce4bhi12rcd13ifvqfp0","pricing_plan_id":"cebpf4jnsgd1na2vs0mg"},{"bike_id":"3c3964f2-b9ed-4eb2-8b3d-aacd153bbab4","system_id":"levelo_inurba_marseille","lat":43.28032,"lon":5.36946,"is_reserved":false,"is_disabled":false,"rental_uris":{"android":"levelo://app?vid=3c3964f2-b9ed-4eb2-8b3d-aacd153bbab4","ios":"levelo://app?vid=3c3964f2-b9ed-4eb2-8b3d-aacd153bbab4"},"vehicle_type_id":"4","last_reported":1739833683,"current_range_meters":6000,"station_id":"ce4bha12rcd13ifvqef0","pricing_plan_id":"cebpf4jnsgd1na2vs0mg"},{"bike_id":"7119608b-2862-4402-8f59-c43fbf7e9dba","system_id":"levelo_inurba_marseille","lat":43.28838,"lon":5.3584,"is_reserved":false,"is_disabled":true,"rental_uris":{"android":"levelo://app?vid=7119608b-2862-4402-8f59-c43fbf7e9dba","ios":"levelo://app?vid=7119608b-2862-4402-8f59-c43fbf7e9dba"},"vehicle_type_id":"4","last_reported":1739833683,"current_range_meters":6000,"station_id":"ce4bhb12rcd13ifvqem0","pricing_plan_id":"cebpf4jnsgd1na2vs0mg"},{"bike_id":"8f2b0aef-e2a7-47a2-bfd4-c34d4ba0caca","system_id":"levelo_inurba_marseille","lat":43.28608,"lon":5.35123,"is_reserved":false,"is_disabled":false,"rental_uris":{"android":"levelo://app?vid=8f2b0aef-e2a7-47a2-bfd4-c34d4ba0caca","ios":"levelo://app?vid=8f2b0aef-e2a7-47a2-bfd4-c34d4ba0caca"},"vehicle_type_id":"4","last_reported":1739833683,"current_range_meters":6000,"station_id":"","pricing_plan_id":"cebpf4jnsgd1na2vs0mg"},{"bike_id":"96a96649-77a9-44c4-824f-d3e92f79f91f","system_id":"levelo_inurba_marseille","lat":43.239673,"lon":5.366288,"is_reserved":false,"is_disabled":false,"rental_uris":{"android":"levelo://app?vid=96a96649-77a9-44c4-824f-d3e92f79f91f","ios":"levelo://app?vid=96a96649-77a9-44c4-824f-d3e92f79f91f"},"vehicle_type_id":"4","last_reported":1739833683,"current_range_meters":6000,"station_id":"ce4bhi12rcd13ifvqfp0","pricing_plan_id":"cebpf4jnsgd1na2vs0mg"},{"bike_id":"7b326fa5-c792-4cff-b36c-76e8397f4934","system_id":"levelo_inurba_marseille","lat":43.28435,"lon":5.39191,"is_reserved":false,"is_disabled":false,"rental_uris":{"android":"levelo://app?vid=7b326fa5-c792-4cff-b36c-76e8397f4934","ios":"levelo://app?vid=7b326fa5-c792-4cff-b36c-76e8397f4934"},"vehicle_type_id":"4","last_reported":1739833683,"current_range_meters":6000,"station_id":"ce4bhoh2rcd13ifvqh5g","pricing_plan_id":"cebpf4jnsgd1na2vs0mg"},{"bike_id":"c4916927-7d10-4eb6-bf80-df6fa900d439","system_id":"levelo_inurba_marseille","lat":43.29551,"lon":5.42302,"is_reserved":false,"is_disabled":true,"rental_uris":{"android":"levelo://app?vid=c4916927-7d10-4eb6-bf80-df6fa900d439","ios":"levelo://app?vid=c4916927-7d10-4eb6-bf80-df6fa900d439"},"vehicle_type_id":"4","last_reported":1739833683,"current_range_meters":6000,"station_id":"ce4bhph2rcd13ifvqhdg","pricing_plan_id":"cebpf4jnsgd1na2vs0mg"},{"bike_id":"aac7ef75-6810-4e53-9da5-b36e43886f51","system_id":"levelo_inurba_marseille","lat":43.25121,"lon":5.4033,"is_reserved":false,"is_disabled":false,"rental_uris":{"android":"levelo://app?vid=aac7ef75-6810-4e53-9da5-b36e43886f51","ios":"levelo://app?vid=aac7ef75-6810-4e53-9da5-b36e43886f51"},"vehicle_type_id":"4","last_reported":1739833683,"current_range_meters":6000,"station_id":"ce4bhlh2rcd13ifvqgig","pricing_plan_id":"cebpf4jnsgd1na2vs0mg"},{"bike_id":"1ccb8148-d5a9-45e8-a79b-603264947ba2","system_id":"levelo_inurba_marseille","lat":43.22923,"lon":5.35384,"is_reserved":false,"is_disabled":false,"rental_uris":{"android":"levelo://app?vid=1ccb8148-d5a9-45e8-a79b-603264947ba2","ios":"levelo://app?vid=1ccb8148-d5a9-45e8-a79b-603264947ba2"},"vehicle_type_id":"4","last_reported":1739833683,"current_range_meters":6000,"station_id":"cpo3532slgdg3j2ikp40","pricing_plan_id":"cebpf4jnsgd1na2vs0mg"},{"bike_id":"f206266f-bb9f-443a-8521-7cc97a6d54b8","system_id":"levelo_inurba_marseille","lat":43.32709,"lon":5.39244,"is_reserved":false,"is_disabled":false,"rental_uris":{"android":"levelo://app?vid=f206266f-bb9f-443a-8521-7cc97a6d54b8","ios":"levelo://app?vid=f206266f-bb9f-443a-8521-7cc97a6d54b8"},"vehicle_type_id":"4","last_reported":1739833683,"current_range_meters":6000,"station_id":"","pricing_plan_id":"cebpf4jnsgd1na2vs0mg"},{"bike_id":"8c75056a-7815-4dc4-bac4-c86fcaddfb3c","system_id":"levelo_inurba_marseille","lat":43.248,"lon":5.37461,"is_reserved":false,"is_disabled":false,"rental_uris":{"android":"levelo://app?vid=8c75056a-7815-4dc4-bac4-c86fcaddfb3c","ios":"levelo://app?vid=8c75056a-7815-4dc4-bac4-c86fcaddfb3c"},"vehicle_type_id":"4","last_reported":1739833683,"current_range_meters":6000,"station_id":"ce4bhgh2rcd13ifvqfb0","pricing_plan_id":"cebpf4jnsgd1na2vs0mg"},{"bike_id":"54252a7c-5653-43b2-b4f1-43722b1aa404","system_id":"levelo_inurba_marseille","lat":43.25662,"lon":5.38277,"is_reserved":false,"is_disabled":false,"rental_uris":{"android":"levelo://app?vid=54252a7c-5653-43b2-b4f1-43722b1aa404","ios":"levelo://app?vid=54252a7c-5653-43b2-b4f1-43722b1aa404"},"vehicle_type_id":"4","last_reported":1739833683,"current_range_meters":6000,"station_id":"","pricing_plan_id":"cebpf4jnsgd1na2vs0mg"},{"bike_id":"926e1642-8b0d-4269-911f-e7668b60f23d","system_id":"levelo_inurba_marseille","lat":43.24805,"lon":5.37452,"is_reserved":false,"is_disabled":false,"rental_uris":{"android":"levelo://app?vid=926e1642-8b0d-4269-911f-e7668b60f23d","ios":"levelo://app?vid=926e1642-8b0d-4269-911f-e7668b60f23d"},"vehicle_type_id":"4","last_reported":1739833683,"current_range_meters":6000,"station_id":"","pricing_plan_id":"cebpf4jnsgd1na2vs0mg"},{"bike_id":"3a9a968d-dcc9-4ffb-90af-aadcb8469a1d","system_id":"levelo_inurba_marseille","lat":43.32244,"lon":5.3941,"is_reserved":false,"is_disabled":false,"rental_uris":{"android":"levelo://app?vid=3a9a968d-dcc9-4ffb-90af-aadcb8469a1d","ios":"levelo://app?vid=3a9a968d-dcc9-4ffb-90af-aadcb8469a1d"},"vehicle_type_id":"4","last_reported":1739833683,"current_range_meters":6400,"station_id":"","pricing_plan_id":"cebpf4jnsgd1na2vs0mg"},{"bike_id":"93063a57-0be5-406d-b121-bb3bc76c98fa","system_id":"levelo_inurba_marseille","lat":43.29599,"lon":5.38099,"is_reserved":false,"is_disabled":false,"rental_uris":{"android":"levelo://app?vid=93063a57-0be5-406d-b121-bb3bc76c98fa","ios":"levelo://app?vid=93063a57-0be5-406d-b121-bb3bc76c98fa"},"vehicle_type_id":"4","last_reported":1739833683,"current_range_meters":6400,"station_id":"ce4bgl12rcd13ifvqbo0","pricing_plan_id":"cebpf4jnsgd1na2vs0mg"},{"bike_id":"87391072-fcac-4aa4-a59a-70f85ae50cbe","system_id":"levelo_inurba_marseille","lat":43.24548,"lon":5.3955,"is_reserved":false,"is_disabled":false,"rental_uris":{"android":"levelo://app?vid=87391072-fcac-4aa4-a59a-70f85ae50cbe","ios":"levelo://app?vid=87391072-fcac-4aa4-a59a-70f85ae50cbe"},"vehicle_type_id":"4","last_reported":1739833683,"current_range_meters":6400,"station_id":"ce4bhlp2rcd13ifvqgjg","pricing_plan_id":"cebpf4jnsgd1na2vs0mg"},{"bike_id":"e2a40e08-4a05-4254-862b-b58cc14c7904","system_id":"levelo_inurba_marseille","lat":43.2509,"lon":5.39523,"is_reserved":false,"is_disabled":false,"rental_uris":{"android":"levelo://app?vid=e2a40e08-4a05-4254-862b-b58cc14c7904","ios":"levelo://app?vid=e2a40e08-4a05-4254-862b-b58cc14c7904"},"vehicle_type_id":"4","last_reported":1739833683,"current_range_meters":6800,"station_id":"ce4bhm12rcd13ifvqgkg","pricing_plan_id":"cebpf4jnsgd1na2vs0mg"},{"bike_id":"019a5c25-ca06-4329-8d04-0fd2f5d25e08","system_id":"levelo_inurba_marseille","lat":43.2758,"lon":5.38413,"is_reserved":false,"is_disabled":false,"rental_uris":{"android":"levelo://app?vid=019a5c25-ca06-4329-8d04-0fd2f5d25e08","ios":"levelo://app?vid=019a5c25-ca06-4329-8d04-0fd2f5d25e08"},"vehicle_type_id":"4","last_reported":1739833683,"current_range_meters":6800,"station_id":"ce4bhh92rcd13ifvqfi0","pricing_plan_id":"cebpf4jnsgd1na2vs0mg"},{"bike_id":"dae3a2b0-8c27-4fb9-870b-6a1bfd920a8b","system_id":"levelo_inurba_marseille","lat":43.273702,"lon":5.362574,"is_reserved":false,"is_disabled":false,"rental_uris":{"android":"levelo://app?vid=dae3a2b0-8c27-4fb9-870b-6a1bfd920a8b","ios":"levelo://app?vid=dae3a2b0-8c27-4fb9-870b-6a1bfd920a8b"},"vehicle_type_id":"4","last_reported":1739833683,"current_range_meters":6800,"station_id":"ce4bhbh2rcd13ifvqeo0","pricing_plan_id":"cebpf4jnsgd1na2vs0mg"},{"bike_id":"c60a4723-29b0-4abe-8008-c265a6f30e45","system_id":"levelo_inurba_marseille","lat":43.31121,"lon":5.37757,"is_reserved":false,"is_disabled":false,"rental_uris":{"android":"levelo://app?vid=c60a4723-29b0-4abe-8008-c265a6f30e45","ios":"levelo://app?vid=c60a4723-29b0-4abe-8008-c265a6f30e45"},"vehicle_type_id":"4","last_reported":1739833683,"current_range_meters":6800,"station_id":"ce4bgt92rcd13ifvqcg0","pricing_plan_id":"cebpf4jnsgd1na2vs0mg"},{"bike_id":"07fcfbbd-fc40-4726-bcce-bbc10c3cde69","system_id":"levelo_inurba_marseille","lat":43.28086,"lon":5.37951,"is_reserved":false,"is_disabled":false,"rental_uris":{"android":"levelo://app?vid=07fcfbbd-fc40-4726-bcce-bbc10c3cde69","ios":"levelo://app?vid=07fcfbbd-fc40-4726-bcce-bbc10c3cde69"},"vehicle_type_id":"4","last_reported":1739833683,"current_range_meters":7200,"station_id":"ce4bha12rcd13ifvqee0","pricing_plan_id":"cebpf4jnsgd1na2vs0mg"},{"bike_id":"246a1c68-46c2-4820-98cf-1a2de1ba1f55","system_id":"levelo_inurba_marseille","lat":43.27839,"lon":5.3921,"is_reserved":false,"is_disabled":false,"rental_uris":{"android":"levelo://app?vid=246a1c68-46c2-4820-98cf-1a2de1ba1f55","ios":"levelo://app?vid=246a1c68-46c2-4820-98cf-1a2de1ba1f55"},"vehicle_type_id":"4","last_reported":1739833683,"current_range_meters":7200,"station_id":"ce4bhjp2rcd13ifvqga0","pricing_plan_id":"cebpf4jnsgd1na2vs0mg"},{"bike_id":"cbe20c45-938f-40af-a879-ecc5b18a088b","system_id":"levelo_inurba_marseille","lat":43.28403,"lon":5.37522,"is_reserved":false,"is_disabled":false,"rental_uris":{"android":"levelo://app?vid=cbe20c45-938f-40af-a879-ecc5b18a088b","ios":"levelo://app?vid=cbe20c45-938f-40af-a879-ecc5b18a088b"},"vehicle_type_id":"4","last_reported":1739833683,"current_range_meters":7200,"station_id":"","pricing_plan_id":"cebpf4jnsgd1na2vs0mg"},{"bike_id":"719440cf-49d6-467d-83b4-f8177f30e991","system_id":"levelo_inurba_marseille","lat":43.2815,"lon":5.42652,"is_reserved":false,"is_disabled":false,"rental_uris":{"android":"levelo://app?vid=719440cf-49d6-467d-83b4-f8177f30e991","ios":"levelo://app?vid=719440cf-49d6-467d-83b4-f8177f30e991"},"vehicle_type_id":"4","last_reported":1739833683,"current_range_meters":7200,"station_id":"","pricing_plan_id":"cebpf4jnsgd1na2vs0mg"},{"bike_id":"9f72b035-42cd-4ed2-9def-93c83a040988","system_id":"levelo_inurba_marseille","lat":43.24075,"lon":5.37725,"is_reserved":false,"is_disabled":false,"rental_uris":{"android":"levelo://app?vid=9f72b035-42cd-4ed2-9def-93c83a040988","ios":"levelo://app?vid=9f72b035-42cd-4ed2-9def-93c83a040988"},"vehicle_type_id":"4","last_reported":1739833683,"current_range_meters":7200,"station_id":"ce4bhnp2rcd13ifvqgvg","pricing_plan_id":"cebpf4jnsgd1na2vs0mg"},{"bike_id":"2af45b9a-8c0d-4f01-a654-0c80764127bf","system_id":"levelo_inurba_marseille","lat":43.28724,"lon":5.361,"is_reserved":false,"is_disabled":true,"rental_uris":{"android":"levelo://app?vid=2af45b9a-8c0d-4f01-a654-0c80764127bf","ios":"levelo://app?vid=2af45b9a-8c0d-4f01-a654-0c80764127bf"},"vehicle_type_id":"4","last_reported":1739833683,"current_range_meters":7200,"station_id":"cki0cbj6b192h4jlfktg","pricing_plan_id":"cebpf4jnsgd1na2vs0mg"},{"bike_id":"2b278cf2-594f-4230-8154-882e1df047f2","system_id":"levelo_inurba_marseille","lat":43.24082,"lon":5.37718,"is_reserved":false,"is_disabled":false,"rental_uris":{"android":"levelo://app?vid=2b278cf2-594f-4230-8154-882e1df047f2","ios":"levelo://app?vid=2b278cf2-594f-4230-8154-882e1df047f2"},"vehicle_type_id":"4","last_reported":1739833683,"current_range_meters":7200,"station_id":"ce4bhnp2rcd13ifvqgvg","pricing_plan_id":"cebpf4jnsgd1na2vs0mg"},{"bike_id":"63aef240-75bd-43bb-9e36-adc7495b6b5e","system_id":"levelo_inurba_marseille","lat":43.28611,"lon":5.37059,"is_reserved":false,"is_disabled":false,"rental_uris":{"android":"levelo://app?vid=63aef240-75bd-43bb-9e36-adc7495b6b5e","ios":"levelo://app?vid=63aef240-75bd-43bb-9e36-adc7495b6b5e"},"vehicle_type_id":"4","last_reported":1739833683,"current_range_meters":7200,"station_id":"","pricing_plan_id":"cebpf4jnsgd1na2vs0mg"},{"bike_id":"96a8a8cd-63f3-4d1c-b2cb-f267c0071f42","system_id":"levelo_inurba_marseille","lat":43.24807,"lon":5.3745,"is_reserved":false,"is_disabled":false,"rental_uris":{"android":"levelo://app?vid=96a8a8cd-63f3-4d1c-b2cb-f267c0071f42","ios":"levelo://app?vid=96a8a8cd-63f3-4d1c-b2cb-f267c0071f42"},"vehicle_type_id":"4","last_reported":1739833683,"current_range_meters":7200,"station_id":"","pricing_plan_id":"cebpf4jnsgd1na2vs0mg"},{"bike_id":"1028d825-a809-400b-a433-b2f52b266986","system_id":"levelo_inurba_marseille","lat":43.30934,"lon":5.37884,"is_reserved":false,"is_disabled":false,"rental_uris":{"android":"levelo://app?vid=1028d825-a809-400b-a433-b2f52b266986","ios":"levelo://app?vid=1028d825-a809-400b-a433-b2f52b266986"},"vehicle_type_id":"4","last_reported":1739833683,"current_range_meters":7200,"station_id":"","pricing_plan_id":"cebpf4jnsgd1na2vs0mg"},{"bike_id":"b931d35e-1687-4f33-9bcc-4e72ae026eaa","system_id":"levelo_inurba_marseille","lat":43.30143,"lon":5.37419,"is_reserved":false,"is_disabled":false,"rental_uris":{"android":"levelo://app?vid=b931d35e-1687-4f33-9bcc-4e72ae026eaa","ios":"levelo://app?vid=b931d35e-1687-4f33-9bcc-4e72ae026eaa"},"vehicle_type_id":"4","last_reported":1739833683,"current_range_meters":8000,"station_id":"ce4bgs92rcd13ifvqcc0","pricing_plan_id":"cebpf4jnsgd1na2vs0mg"},{"bike_id":"646b9a14-fe5f-448a-8697-54c56436b9e1","system_id":"levelo_inurba_marseille","lat":43.30795,"lon":5.38157,"is_reserved":false,"is_disabled":false,"rental_uris":{"android":"levelo://app?vid=646b9a14-fe5f-448a-8697-54c56436b9e1","ios":"levelo://app?vid=646b9a14-fe5f-448a-8697-54c56436b9e1"},"vehicle_type_id":"4","last_reported":1739833683,"current_range_meters":8000,"station_id":"ce4bgt12rcd13ifvqce0","pricing_plan_id":"cebpf4jnsgd1na2vs0mg"},{"bike_id":"47b43428-baa8-4f17-b113-3f79a1469e0a","system_id":"levelo_inurba_marseille","lat":43.27947,"lon":5.41059,"is_reserved":false,"is_disabled":false,"rental_uris":{"android":"levelo://app?vid=47b43428-baa8-4f17-b113-3f79a1469e0a","ios":"levelo://app?vid=47b43428-baa8-4f17-b113-3f79a1469e0a"},"vehicle_type_id":"4","last_reported":1739833683,"current_range_meters":8000,"station_id":"ce4bhnp2rcd13ifvqh0g","pricing_plan_id":"cebpf4jnsgd1na2vs0mg"},{"bike_id":"2e5e89c3-0e0e-4cca-b25a-7707cb6d7c5d","system_id":"levelo_inurba_marseille","lat":43.276655,"lon":5.408428,"is_reserved":false,"is_disabled":false,"rental_uris":{"android":"levelo://app?vid=2e5e89c3-0e0e-4cca-b25a-7707cb6d7c5d","ios":"levelo://app?vid=2e5e89c3-0e0e-4cca-b25a-7707cb6d7c5d"},"vehicle_type_id":"4","last_reported":1739833683,"current_range_meters":8000,"station_id":"","pricing_plan_id":"cebpf4jnsgd1na2vs0mg"},{"bike_id":"01bec25a-ce9b-41ff-8b8e-4879fb269a23","system_id":"levelo_inurba_marseille","lat":43.24152,"lon":5.36413,"is_reserved":false,"is_disabled":false,"rental_uris":{"android":"levelo://app?vid=01bec25a-ce9b-41ff-8b8e-4879fb269a23","ios":"levelo://app?vid=01bec25a-ce9b-41ff-8b8e-4879fb269a23"},"vehicle_type_id":"4","last_reported":1739833683,"current_range_meters":8000,"station_id":"cpo36qri1sfpv3e86is0","pricing_plan_id":"cebpf4jnsgd1na2vs0mg"},{"bike_id":"0e100a33-eafb-4d74-bfcb-df30a048ca1f","system_id":"levelo_inurba_marseille","lat":43.25119,"lon":5.40323,"is_reserved":false,"is_disabled":false,"rental_uris":{"android":"levelo://app?vid=0e100a33-eafb-4d74-bfcb-df30a048ca1f","ios":"levelo://app?vid=0e100a33-eafb-4d74-bfcb-df30a048ca1f"},"vehicle_type_id":"4","last_reported":1739833683,"current_range_meters":8000,"station_id":"ce4bhlh2rcd13ifvqgig","pricing_plan_id":"cebpf4jnsgd1na2vs0mg"},{"bike_id":"d1232165-9df2-48f4-b7d4-58135c47c782","system_id":"levelo_inurba_marseille","lat":43.30931,"lon":5.39038,"is_reserved":false,"is_disabled":false,"rental_uris":{"android":"levelo://app?vid=d1232165-9df2-48f4-b7d4-58135c47c782","ios":"levelo://app?vid=d1232165-9df2-48f4-b7d4-58135c47c782"},"vehicle_type_id":"4","last_reported":1739833683,"current_range_meters":8000,"station_id":"ce4bgup2rcd13ifvqco0","pricing_plan_id":"cebpf4jnsgd1na2vs0mg"},{"bike_id":"fc404722-a79a-40d0-8e0a-e58382575551","system_id":"levelo_inurba_marseille","lat":43.27995,"lon":5.40023,"is_reserved":false,"is_disabled":false,"rental_uris":{"android":"levelo://app?vid=fc404722-a79a-40d0-8e0a-e58382575551","ios":"levelo://app?vid=fc404722-a79a-40d0-8e0a-e58382575551"},"vehicle_type_id":"4","last_reported":1739833683,"current_range_meters":8000,"station_id":"ce4bho92rcd13ifvqh4g","pricing_plan_id":"cebpf4jnsgd1na2vs0mg"},{"bike_id":"50fe64bb-2a63-41e4-a812-2d48128654a1","system_id":"levelo_inurba_marseille","lat":43.28427,"lon":5.35005,"is_reserved":false,"is_disabled":false,"rental_uris":{"android":"levelo://app?vid=50fe64bb-2a63-41e4-a812-2d48128654a1","ios":"levelo://app?vid=50fe64bb-2a63-41e4-a812-2d48128654a1"},"vehicle_type_id":"4","last_reported":1739833683,"current_range_meters":8400,"station_id":"ce4bhbh2rcd13ifvqepg","pricing_plan_id":"cebpf4jnsgd1na2vs0mg"},{"bike_id":"b2adfa86-5626-4c80-b6a4-718caf1b0c58","system_id":"levelo_inurba_marseille","lat":43.28626,"lon":5.35118,"is_reserved":false,"is_disabled":false,"rental_uris":{"android":"levelo://app?vid=b2adfa86-5626-4c80-b6a4-718caf1b0c58","ios":"levelo://app?vid=b2adfa86-5626-4c80-b6a4-718caf1b0c58"},"vehicle_type_id":"4","last_reported":1739833683,"current_range_meters":8400,"station_id":"","pricing_plan_id":"cebpf4jnsgd1na2vs0mg"},{"bike_id":"7529b7d3-3386-4c69-b82f-12a292d850ae","system_id":"levelo_inurba_marseille","lat":43.28212,"lon":5.41419,"is_reserved":false,"is_disabled":false,"rental_uris":{"android":"levelo://app?vid=7529b7d3-3386-4c69-b82f-12a292d850ae","ios":"levelo://app?vid=7529b7d3-3386-4c69-b82f-12a292d850ae"},"vehicle_type_id":"4","last_reported":1739833683,"current_range_meters":8400,"station_id":"ce4bhnp2rcd13ifvqh0g","pricing_plan_id":"cebpf4jnsgd1na2vs0mg"},{"bike_id":"8a49e737-2dba-437e-b0e4-c61d64b4fa11","system_id":"levelo_inurba_marseille","lat":43.24537,"lon":5.39522,"is_reserved":false,"is_disabled":false,"rental_uris":{"android":"levelo://app?vid=8a49e737-2dba-437e-b0e4-c61d64b4fa11","ios":"levelo://app?vid=8a49e737-2dba-437e-b0e4-c61d64b4fa11"},"vehicle_type_id":"4","last_reported":1739833683,"current_range_meters":8400,"station_id":"ce4bhlp2rcd13ifvqgjg","pricing_plan_id":"cebpf4jnsgd1na2vs0mg"},{"bike_id":"c28e63b6-945b-4731-bb7c-09f4796ee396","system_id":"levelo_inurba_marseille","lat":43.28419,"lon":5.34991,"is_reserved":false,"is_disabled":false,"rental_uris":{"android":"levelo://app?vid=c28e63b6-945b-4731-bb7c-09f4796ee396","ios":"levelo://app?vid=c28e63b6-945b-4731-bb7c-09f4796ee396"},"vehicle_type_id":"4","last_reported":1739833683,"current_range_meters":8400,"station_id":"ce4bhbh2rcd13ifvqepg","pricing_plan_id":"cebpf4jnsgd1na2vs0mg"},{"bike_id":"47b1e783-6c6c-40c4-bba3-257cb3bdbd7a","system_id":"levelo_inurba_marseille","lat":43.29613,"lon":5.38108,"is_reserved":false,"is_disabled":false,"rental_uris":{"android":"levelo://app?vid=47b1e783-6c6c-40c4-bba3-257cb3bdbd7a","ios":"levelo://app?vid=47b1e783-6c6c-40c4-bba3-257cb3bdbd7a"},"vehicle_type_id":"4","last_reported":1739833683,"current_range_meters":8400,"station_id":"","pricing_plan_id":"cebpf4jnsgd1na2vs0mg"},{"bike_id":"078e6a38-7f61-464b-9a68-a7888cd3f66c","system_id":"levelo_inurba_marseille","lat":43.29453,"lon":5.39742,"is_reserved":false,"is_disabled":false,"rental_uris":{"android":"levelo://app?vid=078e6a38-7f61-464b-9a68-a7888cd3f66c","ios":"levelo://app?vid=078e6a38-7f61-464b-9a68-a7888cd3f66c"},"vehicle_type_id":"4","last_reported":1739833683,"current_range_meters":8800,"station_id":"ce4bh3h2rcd13ifvqdo0","pricing_plan_id":"cebpf4jnsgd1na2vs0mg"},{"bike_id":"4c7fa70c-e0fb-4e98-8349-3dd589c1f692","system_id":"levelo_inurba_marseille","lat":43.25125,"lon":5.40305,"is_reserved":false,"is_disabled":false,"rental_uris":{"android":"levelo://app?vid=4c7fa70c-e0fb-4e98-8349-3dd589c1f692","ios":"levelo://app?vid=4c7fa70c-e0fb-4e98-8349-3dd589c1f692"},"vehicle_type_id":"4","last_reported":1739833683,"current_range_meters":8800,"station_id":"ce4bhlh2rcd13ifvqgig","pricing_plan_id":"cebpf4jnsgd1na2vs0mg"},{"bike_id":"951b4d3f-8001-4a07-94d2-7c087d9f5ec2","system_id":"levelo_inurba_marseille","lat":43.26074,"lon":5.39381,"is_reserved":false,"is_disabled":false,"rental_uris":{"android":"levelo://app?vid=951b4d3f-8001-4a07-94d2-7c087d9f5ec2","ios":"levelo://app?vid=951b4d3f-8001-4a07-94d2-7c087d9f5ec2"},"vehicle_type_id":"4","last_reported":1739833683,"current_range_meters":8800,"station_id":"ce4bhh92rcd13ifvqfj0","pricing_plan_id":"cebpf4jnsgd1na2vs0mg"},{"bike_id":"ec68a172-c88f-42fd-a5d1-2f2a5f2b2c75","system_id":"levelo_inurba_marseille","lat":43.28007,"lon":5.41665,"is_reserved":false,"is_disabled":false,"rental_uris":{"android":"levelo://app?vid=ec68a172-c88f-42fd-a5d1-2f2a5f2b2c75","ios":"levelo://app?vid=ec68a172-c88f-42fd-a5d1-2f2a5f2b2c75"},"vehicle_type_id":"4","last_reported":1739833683,"current_range_meters":8800,"station_id":"ce4bho12rcd13ifvqh1g","pricing_plan_id":"cebpf4jnsgd1na2vs0mg"},{"bike_id":"1fcb9397-93be-440e-af6d-647dc165d2c8","system_id":"levelo_inurba_marseille","lat":43.28359,"lon":5.3811,"is_reserved":false,"is_disabled":false,"rental_uris":{"android":"levelo://app?vid=1fcb9397-93be-440e-af6d-647dc165d2c8","ios":"levelo://app?vid=1fcb9397-93be-440e-af6d-647dc165d2c8"},"vehicle_type_id":"4","last_reported":1739833683,"current_range_meters":8800,"station_id":"ce4bh412rcd13ifvqdr0","pricing_plan_id":"cebpf4jnsgd1na2vs0mg"},{"bike_id":"cf88743b-ec29-46d2-8b88-961b886f8b2a","system_id":"levelo_inurba_marseille","lat":43.26592,"lon":5.39077,"is_reserved":false,"is_disabled":true,"rental_uris":{"android":"levelo://app?vid=cf88743b-ec29-46d2-8b88-961b886f8b2a","ios":"levelo://app?vid=cf88743b-ec29-46d2-8b88-961b886f8b2a"},"vehicle_type_id":"4","last_reported":1739833683,"current_range_meters":8800,"station_id":"ce4bhe12rcd13ifvqf30","pricing_plan_id":"cebpf4jnsgd1na2vs0mg"},{"bike_id":"d7f5a6fe-ccef-4fa8-9660-769eb9e2899e","system_id":"levelo_inurba_marseille","lat":43.23957,"lon":5.36642,"is_reserved":false,"is_disabled":false,"rental_uris":{"android":"levelo://app?vid=d7f5a6fe-ccef-4fa8-9660-769eb9e2899e","ios":"levelo://app?vid=d7f5a6fe-ccef-4fa8-9660-769eb9e2899e"},"vehicle_type_id":"4","last_reported":1739833683,"current_range_meters":8800,"station_id":"ce4bhi12rcd13ifvqfp0","pricing_plan_id":"cebpf4jnsgd1na2vs0mg"},{"bike_id":"98dafedc-f25b-409d-b3e2-803b47ffb900","system_id":"levelo_inurba_marseille","lat":43.24493,"lon":5.37256,"is_reserved":false,"is_disabled":false,"rental_uris":{"android":"levelo://app?vid=98dafedc-f25b-409d-b3e2-803b47ffb900","ios":"levelo://app?vid=98dafedc-f25b-409d-b3e2-803b47ffb900"},"vehicle_type_id":"4","last_reported":1739833683,"current_range_meters":8800,"station_id":"","pricing_plan_id":"cebpf4jnsgd1na2vs0mg"},{"bike_id":"eb7327fd-672e-4c19-a810-f4aa8a6d8207","system_id":"levelo_inurba_marseille","lat":43.30006,"lon":5.37369,"is_reserved":false,"is_disabled":false,"rental_uris":{"android":"levelo://app?vid=eb7327fd-672e-4c19-a810-f4aa8a6d8207","ios":"levelo://app?vid=eb7327fd-672e-4c19-a810-f4aa8a6d8207"},"vehicle_type_id":"4","last_reported":1739833683,"current_range_meters":9200,"station_id":"","pricing_plan_id":"cebpf4jnsgd1na2vs0mg"},{"bike_id":"975330f9-a307-4c9d-99a0-233b7aae6341","system_id":"levelo_inurba_marseille","lat":43.28399,"lon":5.37514,"is_reserved":false,"is_disabled":false,"rental_uris":{"android":"levelo://app?vid=975330f9-a307-4c9d-99a0-233b7aae6341","ios":"levelo://app?vid=975330f9-a307-4c9d-99a0-233b7aae6341"},"vehicle_type_id":"4","last_reported":1739833683,"current_range_meters":9200,"station_id":"ce4bh412rcd13ifvqds0","pricing_plan_id":"cebpf4jnsgd1na2vs0mg"},{"bike_id":"c72dd471-889d-41d7-939b-cdf433bd5acf","system_id":"levelo_inurba_marseille","lat":43.2622,"lon":5.37428,"is_reserved":false,"is_disabled":false,"rental_uris":{"android":"levelo://app?vid=c72dd471-889d-41d7-939b-cdf433bd5acf","ios":"levelo://app?vid=c72dd471-889d-41d7-939b-cdf433bd5acf"},"vehicle_type_id":"4","last_reported":1739833683,"current_range_meters":9200,"station_id":"ce4bhgp2rcd13ifvqfc0","pricing_plan_id":"cebpf4jnsgd1na2vs0mg"},{"bike_id":"8dbe617a-73bb-43b1-955a-f0b57c2f6fa2","system_id":"levelo_inurba_marseille","lat":43.27368,"lon":5.36254,"is_reserved":false,"is_disabled":false,"rental_uris":{"android":"levelo://app?vid=8dbe617a-73bb-43b1-955a-f0b57c2f6fa2","ios":"levelo://app?vid=8dbe617a-73bb-43b1-955a-f0b57c2f6fa2"},"vehicle_type_id":"4","last_reported":1739833683,"current_range_meters":9200,"station_id":"ce4bhbh2rcd13ifvqeo0","pricing_plan_id":"cebpf4jnsgd1na2vs0mg"},{"bike_id":"a0dfaaa5-2564-40a0-a720-c6022c8dbdf6","system_id":"levelo_inurba_marseille","lat":43.25507,"lon":5.3765,"is_reserved":false,"is_disabled":false,"rental_uris":{"android":"levelo://app?vid=a0dfaaa5-2564-40a0-a720-c6022c8dbdf6","ios":"levelo://app?vid=a0dfaaa5-2564-40a0-a720-c6022c8dbdf6"},"vehicle_type_id":"4","last_reported":1739833683,"current_range_meters":9600,"station_id":"ce4bhh12rcd13ifvqff0","pricing_plan_id":"cebpf4jnsgd1na2vs0mg"},{"bike_id":"708c6cb2-f903-4176-9f14-6ac706988f2a","system_id":"levelo_inurba_marseille","lat":43.27066,"lon":5.42275,"is_reserved":false,"is_disabled":false,"rental_uris":{"android":"levelo://app?vid=708c6cb2-f903-4176-9f14-6ac706988f2a","ios":"levelo://app?vid=708c6cb2-f903-4176-9f14-6ac706988f2a"},"vehicle_type_id":"4","last_reported":1739833683,"current_range_meters":9600,"station_id":"ce4bhk92rcd13ifvqgb0","pricing_plan_id":"cebpf4jnsgd1na2vs0mg"},{"bike_id":"b47411c6-8c7d-477c-8857-3de25b957c84","system_id":"levelo_inurba_marseille","lat":43.25089,"lon":5.39511,"is_reserved":false,"is_disabled":false,"rental_uris":{"android":"levelo://app?vid=b47411c6-8c7d-477c-8857-3de25b957c84","ios":"levelo://app?vid=b47411c6-8c7d-477c-8857-3de25b957c84"},"vehicle_type_id":"4","last_reported":1739833683,"current_range_meters":9600,"station_id":"ce4bhm12rcd13ifvqgkg","pricing_plan_id":"cebpf4jnsgd1na2vs0mg"},{"bike_id":"fc9896ce-1f52-403c-86a7-1678079c9523","system_id":"levelo_inurba_marseille","lat":43.28169,"lon":5.4422,"is_reserved":false,"is_disabled":false,"rental_uris":{"android":"levelo://app?vid=fc9896ce-1f52-403c-86a7-1678079c9523","ios":"levelo://app?vid=fc9896ce-1f52-403c-86a7-1678079c9523"},"vehicle_type_id":"4","last_reported":1739833683,"current_range_meters":9600,"station_id":"","pricing_plan_id":"cebpf4jnsgd1na2vs0mg"},{"bike_id":"63213ce8-ab3b-490e-8b8e-c1a55a68b2ca","system_id":"levelo_inurba_marseille","lat":43.2951,"lon":5.38198,"is_reserved":false,"is_disabled":true,"rental_uris":{"android":"levelo://app?vid=63213ce8-ab3b-490e-8b8e-c1a55a68b2ca","ios":"levelo://app?vid=63213ce8-ab3b-490e-8b8e-c1a55a68b2ca"},"vehicle_type_id":"4","last_reported":1739833683,"current_range_meters":9600,"station_id":"","pricing_plan_id":"cebpf4jnsgd1na2vs0mg"},{"bike_id":"016cfd0a-db26-49e4-abef-6c0ae9515915","system_id":"levelo_inurba_marseille","lat":43.32338,"lon":5.40612,"is_reserved":false,"is_disabled":false,"rental_uris":{"android":"levelo://app?vid=016cfd0a-db26-49e4-abef-6c0ae9515915","ios":"levelo://app?vid=016cfd0a-db26-49e4-abef-6c0ae9515915"},"vehicle_type_id":"4","last_reported":1739833683,"current_range_meters":10000,"station_id":"ce4bhq92rcd13ifvqhjg","pricing_plan_id":"cebpf4jnsgd1na2vs0mg"},{"bike_id":"811901b7-6a39-4b98-9209-f363e05c2482","system_id":"levelo_inurba_marseille","lat":43.28156,"lon":5.42634,"is_reserved":false,"is_disabled":false,"rental_uris":{"android":"levelo://app?vid=811901b7-6a39-4b98-9209-f363e05c2482","ios":"levelo://app?vid=811901b7-6a39-4b98-9209-f363e05c2482"},"vehicle_type_id":"4","last_reported":1739833683,"current_range_meters":10000,"station_id":"ce4bhnh2rcd13ifvqgug","pricing_plan_id":"cebpf4jnsgd1na2vs0mg"},{"bike_id":"6fddf1f6-1c8d-42ee-8ab3-6a8f9fa20ffa","system_id":"levelo_inurba_marseille","lat":43.24802,"lon":5.37462,"is_reserved":false,"is_disabled":false,"rental_uris":{"android":"levelo://app?vid=6fddf1f6-1c8d-42ee-8ab3-6a8f9fa20ffa","ios":"levelo://app?vid=6fddf1f6-1c8d-42ee-8ab3-6a8f9fa20ffa"},"vehicle_type_id":"4","last_reported":1739833683,"current_range_meters":10000,"station_id":"","pricing_plan_id":"cebpf4jnsgd1na2vs0mg"},{"bike_id":"6528e792-6c2b-41ab-b102-37d30001a0e7","system_id":"levelo_inurba_marseille","lat":43.27241,"lon":5.40062,"is_reserved":false,"is_disabled":false,"rental_uris":{"android":"levelo://app?vid=6528e792-6c2b-41ab-b102-37d30001a0e7","ios":"levelo://app?vid=6528e792-6c2b-41ab-b102-37d30001a0e7"},"vehicle_type_id":"4","last_reported":1739833683,"current_range_meters":10800,"station_id":"","pricing_plan_id":"cebpf4jnsgd1na2vs0mg"},{"bike_id":"6712a9e1-c428-4991-a16e-c35bd007885f","system_id":"levelo_inurba_marseille","lat":43.30212,"lon":5.39463,"is_reserved":false,"is_disabled":false,"rental_uris":{"android":"levelo://app?vid=6712a9e1-c428-4991-a16e-c35bd007885f","ios":"levelo://app?vid=6712a9e1-c428-4991-a16e-c35bd007885f"},"vehicle_type_id":"4","last_reported":1739833683,"current_range_meters":10800,"station_id":"ce4bh0p2rcd13ifvqd70","pricing_plan_id":"cebpf4jnsgd1na2vs0mg"},{"bike_id":"d34fb92a-af04-4ce4-bc7f-267fe4fe0f97","system_id":"levelo_inurba_marseille","lat":43.28406,"lon":5.34995,"is_reserved":false,"is_disabled":false,"rental_uris":{"android":"levelo://app?vid=d34fb92a-af04-4ce4-bc7f-267fe4fe0f97","ios":"levelo://app?vid=d34fb92a-af04-4ce4-bc7f-267fe4fe0f97"},"vehicle_type_id":"4","last_reported":1739833683,"current_range_meters":10800,"station_id":"ce4bhbh2rcd13ifvqepg","pricing_plan_id":"cebpf4jnsgd1na2vs0mg"},{"bike_id":"c8a43b30-3b03-476c-9691-acede197d3ef","system_id":"levelo_inurba_marseille","lat":43.27984,"lon":5.4167,"is_reserved":false,"is_disabled":false,"rental_uris":{"android":"levelo://app?vid=c8a43b30-3b03-476c-9691-acede197d3ef","ios":"levelo://app?vid=c8a43b30-3b03-476c-9691-acede197d3ef"},"vehicle_type_id":"4","last_reported":1739833683,"current_range_meters":10800,"station_id":"ce4bho12rcd13ifvqh1g","pricing_plan_id":"cebpf4jnsgd1na2vs0mg"},{"bike_id":"dcf310c5-15ca-498b-bf9c-cd6c77922408","system_id":"levelo_inurba_marseille","lat":43.23974,"lon":5.36618,"is_reserved":false,"is_disabled":false,"rental_uris":{"android":"levelo://app?vid=dcf310c5-15ca-498b-bf9c-cd6c77922408","ios":"levelo://app?vid=dcf310c5-15ca-498b-bf9c-cd6c77922408"},"vehicle_type_id":"4","last_reported":1739833683,"current_range_meters":10800,"station_id":"ce4bhi12rcd13ifvqfp0","pricing_plan_id":"cebpf4jnsgd1na2vs0mg"},{"bike_id":"b2040892-4686-4a0e-9f8f-88c5eb929b34","system_id":"levelo_inurba_marseille","lat":43.25559,"lon":5.38259,"is_reserved":false,"is_disabled":false,"rental_uris":{"android":"levelo://app?vid=b2040892-4686-4a0e-9f8f-88c5eb929b34","ios":"levelo://app?vid=b2040892-4686-4a0e-9f8f-88c5eb929b34"},"vehicle_type_id":"4","last_reported":1739833683,"current_range_meters":10800,"station_id":"ce4bhih2rcd13ifvqfs0","pricing_plan_id":"cebpf4jnsgd1na2vs0mg"},{"bike_id":"c26e96dc-85a8-4ab8-b7f9-a3ff579059ea","system_id":"levelo_inurba_marseille","lat":43.29957,"lon":5.36516,"is_reserved":false,"is_disabled":false,"rental_uris":{"android":"levelo://app?vid=c26e96dc-85a8-4ab8-b7f9-a3ff579059ea","ios":"levelo://app?vid=c26e96dc-85a8-4ab8-b7f9-a3ff579059ea"},"vehicle_type_id":"4","last_reported":1739833683,"current_range_meters":11200,"station_id":"","pricing_plan_id":"cebpf4jnsgd1na2vs0mg"},{"bike_id":"4e2b468f-8f4a-4d73-8517-62fa28d3fb4c","system_id":"levelo_inurba_marseille","lat":43.24805,"lon":5.37466,"is_reserved":false,"is_disabled":false,"rental_uris":{"android":"levelo://app?vid=4e2b468f-8f4a-4d73-8517-62fa28d3fb4c","ios":"levelo://app?vid=4e2b468f-8f4a-4d73-8517-62fa28d3fb4c"},"vehicle_type_id":"4","last_reported":1739833683,"current_range_meters":11200,"station_id":"ce4bhgh2rcd13ifvqfb0","pricing_plan_id":"cebpf4jnsgd1na2vs0mg"},{"bike_id":"d0991bf7-9c1b-4f88-947e-cca686a15eb6","system_id":"levelo_inurba_marseille","lat":43.24671,"lon":5.38155,"is_reserved":false,"is_disabled":false,"rental_uris":{"android":"levelo://app?vid=d0991bf7-9c1b-4f88-947e-cca686a15eb6","ios":"levelo://app?vid=d0991bf7-9c1b-4f88-947e-cca686a15eb6"},"vehicle_type_id":"4","last_reported":1739833683,"current_range_meters":11200,"station_id":"ce4bhih2rcd13ifvqfr0","pricing_plan_id":"cebpf4jnsgd1na2vs0mg"},{"bike_id":"983e2b89-c8bc-4dfc-9422-c71705605267","system_id":"levelo_inurba_marseille","lat":43.28693,"lon":5.37398,"is_reserved":false,"is_disabled":false,"rental_uris":{"android":"levelo://app?vid=983e2b89-c8bc-4dfc-9422-c71705605267","ios":"levelo://app?vid=983e2b89-c8bc-4dfc-9422-c71705605267"},"vehicle_type_id":"4","last_reported":1739833683,"current_range_meters":11200,"station_id":"ce4bh3p2rcd13ifvqdq0","pricing_plan_id":"cebpf4jnsgd1na2vs0mg"},{"bike_id":"8018eb22-ba1a-4d62-877d-b0737c61e859","system_id":"levelo_inurba_marseille","lat":43.25583,"lon":5.38221,"is_reserved":false,"is_disabled":true,"rental_uris":{"android":"levelo://app?vid=8018eb22-ba1a-4d62-877d-b0737c61e859","ios":"levelo://app?vid=8018eb22-ba1a-4d62-877d-b0737c61e859"},"vehicle_type_id":"4","last_reported":1739833683,"current_range_meters":11200,"station_id":"","pricing_plan_id":"cebpf4jnsgd1na2vs0mg"},{"bike_id":"bb8086c8-d5a8-4e72-8a04-f69b553428af","system_id":"levelo_inurba_marseille","lat":43.24999,"lon":5.38923,"is_reserved":false,"is_disabled":false,"rental_uris":{"android":"levelo://app?vid=bb8086c8-d5a8-4e72-8a04-f69b553428af","ios":"levelo://app?vid=bb8086c8-d5a8-4e72-8a04-f69b553428af"},"vehicle_type_id":"4","last_reported":1739833683,"current_range_meters":11200,"station_id":"ce4bhgp2rcd13ifvqfd0","pricing_plan_id":"cebpf4jnsgd1na2vs0mg"},{"bike_id":"e74fef04-4797-4a8d-83a6-0b69a0bb01fb","system_id":"levelo_inurba_marseille","lat":43.27942,"lon":5.41044,"is_reserved":false,"is_disabled":false,"rental_uris":{"android":"levelo://app?vid=e74fef04-4797-4a8d-83a6-0b69a0bb01fb","ios":"levelo://app?vid=e74fef04-4797-4a8d-83a6-0b69a0bb01fb"},"vehicle_type_id":"4","last_reported":1739833683,"current_range_meters":11200,"station_id":"ce4bhnp2rcd13ifvqh0g","pricing_plan_id":"cebpf4jnsgd1na2vs0mg"},{"bike_id":"51412dc6-c40f-4da4-a3a9-768c7d440222","system_id":"levelo_inurba_marseille","lat":43.28373,"lon":5.38667,"is_reserved":false,"is_disabled":false,"rental_uris":{"android":"levelo://app?vid=51412dc6-c40f-4da4-a3a9-768c7d440222","ios":"levelo://app?vid=51412dc6-c40f-4da4-a3a9-768c7d440222"},"vehicle_type_id":"4","last_reported":1739833683,"current_range_meters":11200,"station_id":"ce4bh492rcd13ifvqdvg","pricing_plan_id":"cebpf4jnsgd1na2vs0mg"},{"bike_id":"b64381ab-e3b5-42e1-be3c-9a64ed5aed1d","system_id":"levelo_inurba_marseille","lat":43.24081,"lon":5.37744,"is_reserved":false,"is_disabled":false,"rental_uris":{"android":"levelo://app?vid=b64381ab-e3b5-42e1-be3c-9a64ed5aed1d","ios":"levelo://app?vid=b64381ab-e3b5-42e1-be3c-9a64ed5aed1d"},"vehicle_type_id":"4","last_reported":1739833683,"current_range_meters":11200,"station_id":"ce4bhnp2rcd13ifvqgvg","pricing_plan_id":"cebpf4jnsgd1na2vs0mg"},{"bike_id":"020f9db3-6048-4a83-8c59-4acc533112c8","system_id":"levelo_inurba_marseille","lat":43.28158,"lon":5.42633,"is_reserved":false,"is_disabled":false,"rental_uris":{"android":"levelo://app?vid=020f9db3-6048-4a83-8c59-4acc533112c8","ios":"levelo://app?vid=020f9db3-6048-4a83-8c59-4acc533112c8"},"vehicle_type_id":"4","last_reported":1739833683,"current_range_meters":11200,"station_id":"ce4bhnh2rcd13ifvqgug","pricing_plan_id":"cebpf4jnsgd1na2vs0mg"},{"bike_id":"065da103-5596-40da-9ebb-6427584bf8a1","system_id":"levelo_inurba_marseille","lat":43.23148,"lon":5.43717,"is_reserved":false,"is_disabled":false,"rental_uris":{"android":"levelo://app?vid=065da103-5596-40da-9ebb-6427584bf8a1","ios":"levelo://app?vid=065da103-5596-40da-9ebb-6427584bf8a1"},"vehicle_type_id":"4","last_reported":1739833683,"current_range_meters":11200,"station_id":"ce4bhmp2rcd13ifvqgog","pricing_plan_id":"cebpf4jnsgd1na2vs0mg"},{"bike_id":"a59f27c6-62df-493a-9d0a-50dc150b2f85","system_id":"levelo_inurba_marseille","lat":43.28711,"lon":5.37941,"is_reserved":false,"is_disabled":false,"rental_uris":{"android":"levelo://app?vid=a59f27c6-62df-493a-9d0a-50dc150b2f85","ios":"levelo://app?vid=a59f27c6-62df-493a-9d0a-50dc150b2f85"},"vehicle_type_id":"4","last_reported":1739833683,"current_range_meters":11200,"station_id":"ce4bh9p2rcd13ifvqec0","pricing_plan_id":"cebpf4jnsgd1na2vs0mg"},{"bike_id":"eb7860fa-6757-40c8-9075-c63545ec536c","system_id":"levelo_inurba_marseille","lat":43.2746,"lon":5.43518,"is_reserved":false,"is_disabled":false,"rental_uris":{"android":"levelo://app?vid=eb7860fa-6757-40c8-9075-c63545ec536c","ios":"levelo://app?vid=eb7860fa-6757-40c8-9075-c63545ec536c"},"vehicle_type_id":"4","last_reported":1739833683,"current_range_meters":11600,"station_id":"","pricing_plan_id":"cebpf4jnsgd1na2vs0mg"},{"bike_id":"ac1e23b6-6388-4309-8d93-b1d35663f990","system_id":"levelo_inurba_marseille","lat":43.31068,"lon":5.38353,"is_reserved":false,"is_disabled":false,"rental_uris":{"android":"levelo://app?vid=ac1e23b6-6388-4309-8d93-b1d35663f990","ios":"levelo://app?vid=ac1e23b6-6388-4309-8d93-b1d35663f990"},"vehicle_type_id":"4","last_reported":1739833683,"current_range_meters":11600,"station_id":"ce4bgv92rcd13ifvqcr0","pricing_plan_id":"cebpf4jnsgd1na2vs0mg"},{"bike_id":"37e2f382-4e5f-4068-ac65-99779f2fa91a","system_id":"levelo_inurba_marseille","lat":43.31066,"lon":5.40091,"is_reserved":false,"is_disabled":false,"rental_uris":{"android":"levelo://app?vid=37e2f382-4e5f-4068-ac65-99779f2fa91a","ios":"levelo://app?vid=37e2f382-4e5f-4068-ac65-99779f2fa91a"},"vehicle_type_id":"4","last_reported":1739833683,"current_range_meters":11600,"station_id":"","pricing_plan_id":"cebpf4jnsgd1na2vs0mg"},{"bike_id":"21964b29-3452-4ba4-919e-80c8fd238b96","system_id":"levelo_inurba_marseille","lat":43.24648,"lon":5.389,"is_reserved":false,"is_disabled":false,"rental_uris":{"android":"levelo://app?vid=21964b29-3452-4ba4-919e-80c8fd238b96","ios":"levelo://app?vid=21964b29-3452-4ba4-919e-80c8fd238b96"},"vehicle_type_id":"4","last_reported":1739833683,"current_range_meters":11600,"station_id":"ce4bhg12rcd13ifvqf60","pricing_plan_id":"cebpf4jnsgd1na2vs0mg"},{"bike_id":"43e58a6d-2a17-41bb-bd75-661bed22a62b","system_id":"levelo_inurba_marseille","lat":43.31185,"lon":5.38719,"is_reserved":false,"is_disabled":false,"rental_uris":{"android":"levelo://app?vid=43e58a6d-2a17-41bb-bd75-661bed22a62b","ios":"levelo://app?vid=43e58a6d-2a17-41bb-bd75-661bed22a62b"},"vehicle_type_id":"4","last_reported":1739833683,"current_range_meters":12000,"station_id":"","pricing_plan_id":"cebpf4jnsgd1na2vs0mg"},{"bike_id":"65914679-748b-4181-ac3d-5cca76f00323","system_id":"levelo_inurba_marseille","lat":43.30435,"lon":5.38881,"is_reserved":false,"is_disabled":false,"rental_uris":{"android":"levelo://app?vid=65914679-748b-4181-ac3d-5cca76f00323","ios":"levelo://app?vid=65914679-748b-4181-ac3d-5cca76f00323"},"vehicle_type_id":"4","last_reported":1739833683,"current_range_meters":11600,"station_id":"ce4bgk12rcd13ifvqbi0","pricing_plan_id":"cebpf4jnsgd1na2vs0mg"},{"bike_id":"cb8372d6-bad2-4555-89ad-5b495afb0b59","system_id":"levelo_inurba_marseille","lat":43.24796,"lon":5.3748,"is_reserved":false,"is_disabled":false,"rental_uris":{"android":"levelo://app?vid=cb8372d6-bad2-4555-89ad-5b495afb0b59","ios":"levelo://app?vid=cb8372d6-bad2-4555-89ad-5b495afb0b59"},"vehicle_type_id":"4","last_reported":1739833683,"current_range_meters":12400,"station_id":"ce4bhgh2rcd13ifvqfb0","pricing_plan_id":"cebpf4jnsgd1na2vs0mg"},{"bike_id":"64627059-f94e-4aa2-a301-7dfa05f02d32","system_id":"levelo_inurba_marseille","lat":43.2884,"lon":5.35857,"is_reserved":false,"is_disabled":false,"rental_uris":{"android":"levelo://app?vid=64627059-f94e-4aa2-a301-7dfa05f02d32","ios":"levelo://app?vid=64627059-f94e-4aa2-a301-7dfa05f02d32"},"vehicle_type_id":"4","last_reported":1739833683,"current_range_meters":12400,"station_id":"ce4bhb12rcd13ifvqem0","pricing_plan_id":"cebpf4jnsgd1na2vs0mg"},{"bike_id":"c5c59f41-6de9-4286-8e47-0b749ef897bc","system_id":"levelo_inurba_marseille","lat":43.28625,"lon":5.35103,"is_reserved":false,"is_disabled":false,"rental_uris":{"android":"levelo://app?vid=c5c59f41-6de9-4286-8e47-0b749ef897bc","ios":"levelo://app?vid=c5c59f41-6de9-4286-8e47-0b749ef897bc"},"vehicle_type_id":"4","last_reported":1739833683,"current_range_meters":12400,"station_id":"ce4bhch2rcd13ifvqeug","pricing_plan_id":"cebpf4jnsgd1na2vs0mg"},{"bike_id":"b5f12192-8930-4405-9baa-728ef8f4fb2c","system_id":"levelo_inurba_marseille","lat":43.29045,"lon":5.35911,"is_reserved":false,"is_disabled":false,"rental_uris":{"android":"levelo://app?vid=b5f12192-8930-4405-9baa-728ef8f4fb2c","ios":"levelo://app?vid=b5f12192-8930-4405-9baa-728ef8f4fb2c"},"vehicle_type_id":"4","last_reported":1739833683,"current_range_meters":12800,"station_id":"","pricing_plan_id":"cebpf4jnsgd1na2vs0mg"},{"bike_id":"9084f880-c05c-41d9-962e-1ab7add2848e","system_id":"levelo_inurba_marseille","lat":43.2406,"lon":5.37753,"is_reserved":false,"is_disabled":false,"rental_uris":{"android":"levelo://app?vid=9084f880-c05c-41d9-962e-1ab7add2848e","ios":"levelo://app?vid=9084f880-c05c-41d9-962e-1ab7add2848e"},"vehicle_type_id":"4","last_reported":1739833683,"current_range_meters":12800,"station_id":"ce4bhnp2rcd13ifvqgvg","pricing_plan_id":"cebpf4jnsgd1na2vs0mg"},{"bike_id":"44f4612a-2167-4206-9bde-4bd81e8ddbcd","system_id":"levelo_inurba_marseille","lat":43.29187,"lon":5.39329,"is_reserved":false,"is_disabled":false,"rental_uris":{"android":"levelo://app?vid=44f4612a-2167-4206-9bde-4bd81e8ddbcd","ios":"levelo://app?vid=44f4612a-2167-4206-9bde-4bd81e8ddbcd"},"vehicle_type_id":"4","last_reported":1739833683,"current_range_meters":13600,"station_id":"ce4bh192rcd13ifvqdd0","pricing_plan_id":"cebpf4jnsgd1na2vs0mg"},{"bike_id":"6cea39d1-143a-437a-be7c-4155e2811eca","system_id":"levelo_inurba_marseille","lat":43.25083,"lon":5.39518,"is_reserved":false,"is_disabled":false,"rental_uris":{"android":"levelo://app?vid=6cea39d1-143a-437a-be7c-4155e2811eca","ios":"levelo://app?vid=6cea39d1-143a-437a-be7c-4155e2811eca"},"vehicle_type_id":"4","last_reported":1739833683,"current_range_meters":13600,"station_id":"ce4bhm12rcd13ifvqgkg","pricing_plan_id":"cebpf4jnsgd1na2vs0mg"},{"bike_id":"e57f9313-8443-49d5-820a-e3f0c205b6f2","system_id":"levelo_inurba_marseille","lat":43.24079,"lon":5.37773,"is_reserved":false,"is_disabled":false,"rental_uris":{"android":"levelo://app?vid=e57f9313-8443-49d5-820a-e3f0c205b6f2","ios":"levelo://app?vid=e57f9313-8443-49d5-820a-e3f0c205b6f2"},"vehicle_type_id":"4","last_reported":1739833683,"current_range_meters":13600,"station_id":"","pricing_plan_id":"cebpf4jnsgd1na2vs0mg"},{"bike_id":"f8e06fc7-00b7-4831-828e-752a95e98412","system_id":"levelo_inurba_marseille","lat":43.28865,"lon":5.35866,"is_reserved":false,"is_disabled":false,"rental_uris":{"android":"levelo://app?vid=f8e06fc7-00b7-4831-828e-752a95e98412","ios":"levelo://app?vid=f8e06fc7-00b7-4831-828e-752a95e98412"},"vehicle_type_id":"4","last_reported":1739833683,"current_range_meters":13600,"station_id":"ce4bhb12rcd13ifvqem0","pricing_plan_id":"cebpf4jnsgd1na2vs0mg"},{"bike_id":"7e1bcd16-719a-4da9-aa93-fa68923adaea","system_id":"levelo_inurba_marseille","lat":43.24078,"lon":5.37759,"is_reserved":false,"is_disabled":false,"rental_uris":{"android":"levelo://app?vid=7e1bcd16-719a-4da9-aa93-fa68923adaea","ios":"levelo://app?vid=7e1bcd16-719a-4da9-aa93-fa68923adaea"},"vehicle_type_id":"4","last_reported":1739833683,"current_range_meters":13600,"station_id":"ce4bhnp2rcd13ifvqgvg","pricing_plan_id":"cebpf4jnsgd1na2vs0mg"},{"bike_id":"80842653-0916-4e4e-96ac-1b8b526d2858","system_id":"levelo_inurba_marseille","lat":43.29278,"lon":5.40895,"is_reserved":false,"is_disabled":false,"rental_uris":{"android":"levelo://app?vid=80842653-0916-4e4e-96ac-1b8b526d2858","ios":"levelo://app?vid=80842653-0916-4e4e-96ac-1b8b526d2858"},"vehicle_type_id":"4","last_reported":1739833683,"current_range_meters":14000,"station_id":"","pricing_plan_id":"cebpf4jnsgd1na2vs0mg"},{"bike_id":"7c21b9af-ec8a-4973-bb0a-4c2cf86b4985","system_id":"levelo_inurba_marseille","lat":43.30591,"lon":5.39364,"is_reserved":false,"is_disabled":false,"rental_uris":{"android":"levelo://app?vid=7c21b9af-ec8a-4973-bb0a-4c2cf86b4985","ios":"levelo://app?vid=7c21b9af-ec8a-4973-bb0a-4c2cf86b4985"},"vehicle_type_id":"4","last_reported":1739833683,"current_range_meters":14000,"station_id":"ce4bh0p2rcd13ifvqd80","pricing_plan_id":"cebpf4jnsgd1na2vs0mg"},{"bike_id":"e70271b9-6da6-41aa-9025-850c7abf1379","system_id":"levelo_inurba_marseille","lat":43.27822,"lon":5.3921,"is_reserved":false,"is_disabled":false,"rental_uris":{"android":"levelo://app?vid=e70271b9-6da6-41aa-9025-850c7abf1379","ios":"levelo://app?vid=e70271b9-6da6-41aa-9025-850c7abf1379"},"vehicle_type_id":"4","last_reported":1739833683,"current_range_meters":14000,"station_id":"ce4bhjp2rcd13ifvqga0","pricing_plan_id":"cebpf4jnsgd1na2vs0mg"},{"bike_id":"be59961e-616b-4c75-97c4-c082d5d8fd20","system_id":"levelo_inurba_marseille","lat":43.24175,"lon":5.39733,"is_reserved":false,"is_disabled":false,"rental_uris":{"android":"levelo://app?vid=be59961e-616b-4c75-97c4-c082d5d8fd20","ios":"levelo://app?vid=be59961e-616b-4c75-97c4-c082d5d8fd20"},"vehicle_type_id":"4","last_reported":1739833683,"current_range_meters":14000,"station_id":"ce4bhn12rcd13ifvqgpg","pricing_plan_id":"cebpf4jnsgd1na2vs0mg"},{"bike_id":"c6d403ef-af42-41ae-9312-3a948449b260","system_id":"levelo_inurba_marseille","lat":43.27594,"lon":5.36126,"is_reserved":false,"is_disabled":false,"rental_uris":{"android":"levelo://app?vid=c6d403ef-af42-41ae-9312-3a948449b260","ios":"levelo://app?vid=c6d403ef-af42-41ae-9312-3a948449b260"},"vehicle_type_id":"4","last_reported":1739833683,"current_range_meters":14000,"station_id":"ce4bgj92rcd13ifvqbe0","pricing_plan_id":"cebpf4jnsgd1na2vs0mg"},{"bike_id":"b4f7951e-a8d9-4f42-b03f-b06ba82daa83","system_id":"levelo_inurba_marseille","lat":43.27177,"lon":5.41008,"is_reserved":false,"is_disabled":false,"rental_uris":{"android":"levelo://app?vid=b4f7951e-a8d9-4f42-b03f-b06ba82daa83","ios":"levelo://app?vid=b4f7951e-a8d9-4f42-b03f-b06ba82daa83"},"vehicle_type_id":"4","last_reported":1739833683,"current_range_meters":14400,"station_id":"ce4bhl12rcd13ifvqgf0","pricing_plan_id":"cebpf4jnsgd1na2vs0mg"},{"bike_id":"fa26596f-385b-467a-983c-09a503967e29","system_id":"levelo_inurba_marseille","lat":43.28268,"lon":5.35087,"is_reserved":false,"is_disabled":true,"rental_uris":{"android":"levelo://app?vid=fa26596f-385b-467a-983c-09a503967e29","ios":"levelo://app?vid=fa26596f-385b-467a-983c-09a503967e29"},"vehicle_type_id":"4","last_reported":1739833683,"current_range_meters":14400,"station_id":"ce4bhbp2rcd13ifvqerg","pricing_plan_id":"cebpf4jnsgd1na2vs0mg"},{"bike_id":"40e0ff68-3d1a-4432-8cb4-17c809915b0f","system_id":"levelo_inurba_marseille","lat":43.28725,"lon":5.36094,"is_reserved":false,"is_disabled":false,"rental_uris":{"android":"levelo://app?vid=40e0ff68-3d1a-4432-8cb4-17c809915b0f","ios":"levelo://app?vid=40e0ff68-3d1a-4432-8cb4-17c809915b0f"},"vehicle_type_id":"4","last_reported":1739833683,"current_range_meters":14400,"station_id":"cki0cbj6b192h4jlfktg","pricing_plan_id":"cebpf4jnsgd1na2vs0mg"},{"bike_id":"91bf3218-0a05-4226-acc9-b3131b7d5a8d","system_id":"levelo_inurba_marseille","lat":43.23958,"lon":5.36628,"is_reserved":false,"is_disabled":false,"rental_uris":{"android":"levelo://app?vid=91bf3218-0a05-4226-acc9-b3131b7d5a8d","ios":"levelo://app?vid=91bf3218-0a05-4226-acc9-b3131b7d5a8d"},"vehicle_type_id":"4","last_reported":1739833683,"current_range_meters":14800,"station_id":"ce4bhi12rcd13ifvqfp0","pricing_plan_id":"cebpf4jnsgd1na2vs0mg"},{"bike_id":"72cc0d3e-c2c3-4b8c-8154-405dd09f1fa3","system_id":"levelo_inurba_marseille","lat":43.23742,"lon":5.36439,"is_reserved":false,"is_disabled":false,"rental_uris":{"android":"levelo://app?vid=72cc0d3e-c2c3-4b8c-8154-405dd09f1fa3","ios":"levelo://app?vid=72cc0d3e-c2c3-4b8c-8154-405dd09f1fa3"},"vehicle_type_id":"4","last_reported":1739833683,"current_range_meters":14800,"station_id":"","pricing_plan_id":"cebpf4jnsgd1na2vs0mg"},{"bike_id":"2925d872-7877-4b1f-89a7-e112a91d35d3","system_id":"levelo_inurba_marseille","lat":43.28469,"lon":5.35898,"is_reserved":false,"is_disabled":true,"rental_uris":{"android":"levelo://app?vid=2925d872-7877-4b1f-89a7-e112a91d35d3","ios":"levelo://app?vid=2925d872-7877-4b1f-89a7-e112a91d35d3"},"vehicle_type_id":"4","last_reported":1739833683,"current_range_meters":14800,"station_id":"ce4bhah2rcd13ifvqei0","pricing_plan_id":"cebpf4jnsgd1na2vs0mg"},{"bike_id":"c46925fe-6da4-4769-9725-cdfac3858a5b","system_id":"levelo_inurba_marseille","lat":43.28615,"lon":5.37068,"is_reserved":false,"is_disabled":false,"rental_uris":{"android":"levelo://app?vid=c46925fe-6da4-4769-9725-cdfac3858a5b","ios":"levelo://app?vid=c46925fe-6da4-4769-9725-cdfac3858a5b"},"vehicle_type_id":"4","last_reported":1739833683,"current_range_meters":14800,"station_id":"ce4bht12rcd13ifvqi60","pricing_plan_id":"cebpf4jnsgd1na2vs0mg"},{"bike_id":"877c9515-ec19-4545-891f-f67d6cb983cc","system_id":"levelo_inurba_marseille","lat":43.26559,"lon":5.39006,"is_reserved":false,"is_disabled":false,"rental_uris":{"android":"levelo://app?vid=877c9515-ec19-4545-891f-f67d6cb983cc","ios":"levelo://app?vid=877c9515-ec19-4545-891f-f67d6cb983cc"},"vehicle_type_id":"4","last_reported":1739833683,"current_range_meters":14800,"station_id":"ce4bhe12rcd13ifvqf30","pricing_plan_id":"cebpf4jnsgd1na2vs0mg"},{"bike_id":"f0b1bcc6-ec25-4888-a3ae-f9cd133d3662","system_id":"levelo_inurba_marseille","lat":43.24646,"lon":5.38913,"is_reserved":false,"is_disabled":false,"rental_uris":{"android":"levelo://app?vid=f0b1bcc6-ec25-4888-a3ae-f9cd133d3662","ios":"levelo://app?vid=f0b1bcc6-ec25-4888-a3ae-f9cd133d3662"},"vehicle_type_id":"4","last_reported":1739833683,"current_range_meters":14800,"station_id":"ce4bhg12rcd13ifvqf60","pricing_plan_id":"cebpf4jnsgd1na2vs0mg"},{"bike_id":"772e5d73-e78f-47a1-9755-63448f7ea7a3","system_id":"levelo_inurba_marseille","lat":43.28693,"lon":5.37398,"is_reserved":false,"is_disabled":false,"rental_uris":{"android":"levelo://app?vid=772e5d73-e78f-47a1-9755-63448f7ea7a3","ios":"levelo://app?vid=772e5d73-e78f-47a1-9755-63448f7ea7a3"},"vehicle_type_id":"4","last_reported":1739833683,"current_range_meters":15200,"station_id":"ce4bh3p2rcd13ifvqdq0","pricing_plan_id":"cebpf4jnsgd1na2vs0mg"},{"bike_id":"1a593f97-80e0-4ab5-99e3-1042da8fe8d9","system_id":"levelo_inurba_marseille","lat":43.232,"lon":5.39978,"is_reserved":false,"is_disabled":false,"rental_uris":{"android":"levelo://app?vid=1a593f97-80e0-4ab5-99e3-1042da8fe8d9","ios":"levelo://app?vid=1a593f97-80e0-4ab5-99e3-1042da8fe8d9"},"vehicle_type_id":"4","last_reported":1739833683,"current_range_meters":15200,"station_id":"","pricing_plan_id":"cebpf4jnsgd1na2vs0mg"},{"bike_id":"6c60b5ea-0d16-45a8-aed9-718e51e279eb","system_id":"levelo_inurba_marseille","lat":43.30258,"lon":5.4006,"is_reserved":false,"is_disabled":false,"rental_uris":{"android":"levelo://app?vid=6c60b5ea-0d16-45a8-aed9-718e51e279eb","ios":"levelo://app?vid=6c60b5ea-0d16-45a8-aed9-718e51e279eb"},"vehicle_type_id":"4","last_reported":1739833683,"current_range_meters":16000,"station_id":"ce4bgvh2rcd13ifvqcs0","pricing_plan_id":"cebpf4jnsgd1na2vs0mg"},{"bike_id":"a799a60b-3c75-45fb-ac00-220d507c3482","system_id":"levelo_inurba_marseille","lat":43.248099,"lon":5.374561,"is_reserved":false,"is_disabled":false,"rental_uris":{"android":"levelo://app?vid=a799a60b-3c75-45fb-ac00-220d507c3482","ios":"levelo://app?vid=a799a60b-3c75-45fb-ac00-220d507c3482"},"vehicle_type_id":"4","last_reported":1739833683,"current_range_meters":16000,"station_id":"ce4bhgh2rcd13ifvqfb0","pricing_plan_id":"cebpf4jnsgd1na2vs0mg"},{"bike_id":"2859b8df-812c-4eb4-8e58-28e639fd742c","system_id":"levelo_inurba_marseille","lat":43.28681,"lon":5.38654,"is_reserved":false,"is_disabled":false,"rental_uris":{"android":"levelo://app?vid=2859b8df-812c-4eb4-8e58-28e639fd742c","ios":"levelo://app?vid=2859b8df-812c-4eb4-8e58-28e639fd742c"},"vehicle_type_id":"4","last_reported":1739833683,"current_range_meters":16000,"station_id":"ce4bh492rcd13ifvqdug","pricing_plan_id":"cebpf4jnsgd1na2vs0mg"},{"bike_id":"58a5c712-9d46-4329-afac-796b4051eca6","system_id":"levelo_inurba_marseille","lat":43.25024,"lon":5.38907,"is_reserved":false,"is_disabled":true,"rental_uris":{"android":"levelo://app?vid=58a5c712-9d46-4329-afac-796b4051eca6","ios":"levelo://app?vid=58a5c712-9d46-4329-afac-796b4051eca6"},"vehicle_type_id":"4","last_reported":1739833683,"current_range_meters":16000,"station_id":"ce4bhgp2rcd13ifvqfd0","pricing_plan_id":"cebpf4jnsgd1na2vs0mg"},{"bike_id":"1c4ab1c1-f8e5-4ceb-8507-e3b252ef908b","system_id":"levelo_inurba_marseille","lat":43.24166,"lon":5.36393,"is_reserved":false,"is_disabled":false,"rental_uris":{"android":"levelo://app?vid=1c4ab1c1-f8e5-4ceb-8507-e3b252ef908b","ios":"levelo://app?vid=1c4ab1c1-f8e5-4ceb-8507-e3b252ef908b"},"vehicle_type_id":"4","last_reported":1739833683,"current_range_meters":16000,"station_id":"cpo36qri1sfpv3e86is0","pricing_plan_id":"cebpf4jnsgd1na2vs0mg"},{"bike_id":"928d2fa3-3946-4b81-908c-c1af135f139b","system_id":"levelo_inurba_marseille","lat":43.28268,"lon":5.35082,"is_reserved":false,"is_disabled":false,"rental_uris":{"android":"levelo://app?vid=928d2fa3-3946-4b81-908c-c1af135f139b","ios":"levelo://app?vid=928d2fa3-3946-4b81-908c-c1af135f139b"},"vehicle_type_id":"4","last_reported":1739833683,"current_range_meters":16000,"station_id":"","pricing_plan_id":"cebpf4jnsgd1na2vs0mg"},{"bike_id":"e46ad52b-d861-4d04-a2c4-ea45df01633c","system_id":"levelo_inurba_marseille","lat":43.268,"lon":5.40267,"is_reserved":false,"is_disabled":true,"rental_uris":{"android":"levelo://app?vid=e46ad52b-d861-4d04-a2c4-ea45df01633c","ios":"levelo://app?vid=e46ad52b-d861-4d04-a2c4-ea45df01633c"},"vehicle_type_id":"4","last_reported":1739833683,"current_range_meters":16000,"station_id":"ce501612rcd8frsf0b60","pricing_plan_id":"cebpf4jnsgd1na2vs0mg"},{"bike_id":"36ecaa30-5ce5-49d4-8564-ee520df98b00","system_id":"levelo_inurba_marseille","lat":43.286133,"lon":5.384578,"is_reserved":false,"is_disabled":false,"rental_uris":{"android":"levelo://app?vid=36ecaa30-5ce5-49d4-8564-ee520df98b00","ios":"levelo://app?vid=36ecaa30-5ce5-49d4-8564-ee520df98b00"},"vehicle_type_id":"4","last_reported":1739833683,"current_range_meters":16000,"station_id":"ce4bh392rcd13ifvqdm0","pricing_plan_id":"cebpf4jnsgd1na2vs0mg"},{"bike_id":"5bbb7f83-b431-41d1-a01b-d66296a3996d","system_id":"levelo_inurba_marseille","lat":43.27916,"lon":5.3959,"is_reserved":false,"is_disabled":false,"rental_uris":{"android":"levelo://app?vid=5bbb7f83-b431-41d1-a01b-d66296a3996d","ios":"levelo://app?vid=5bbb7f83-b431-41d1-a01b-d66296a3996d"},"vehicle_type_id":"4","last_reported":1739833683,"current_range_meters":16000,"station_id":"ce4bhf92rcd13ifvqf40","pricing_plan_id":"cebpf4jnsgd1na2vs0mg"},{"bike_id":"bb4a3648-09cb-4cc2-9947-bf380533d03f","system_id":"levelo_inurba_marseille","lat":43.31681,"lon":5.37215,"is_reserved":false,"is_disabled":true,"rental_uris":{"android":"levelo://app?vid=bb4a3648-09cb-4cc2-9947-bf380533d03f","ios":"levelo://app?vid=bb4a3648-09cb-4cc2-9947-bf380533d03f"},"vehicle_type_id":"4","last_reported":1739833683,"current_range_meters":16000,"station_id":"","pricing_plan_id":"cebpf4jnsgd1na2vs0mg"},{"bike_id":"6e2304fb-f137-492b-9ea4-5dfc548d69fe","system_id":"levelo_inurba_marseille","lat":43.28966,"lon":5.37852,"is_reserved":false,"is_disabled":false,"rental_uris":{"android":"levelo://app?vid=6e2304fb-f137-492b-9ea4-5dfc548d69fe","ios":"levelo://app?vid=6e2304fb-f137-492b-9ea4-5dfc548d69fe"},"vehicle_type_id":"4","last_reported":1739833683,"current_range_meters":14000,"station_id":"ce4bh9p2rcd13ifvqed0","pricing_plan_id":"cebpf4jnsgd1na2vs0mg"},{"bike_id":"e493d32f-c7df-48a8-8644-e6c67b333882","system_id":"levelo_inurba_marseille","lat":43.30148,"lon":5.37123,"is_reserved":false,"is_disabled":false,"rental_uris":{"android":"levelo://app?vid=e493d32f-c7df-48a8-8644-e6c67b333882","ios":"levelo://app?vid=e493d32f-c7df-48a8-8644-e6c67b333882"},"vehicle_type_id":"4","last_reported":1739833683,"current_range_meters":16000,"station_id":"","pricing_plan_id":"cebpf4jnsgd1na2vs0mg"},{"bike_id":"a81f047e-2602-4d29-8821-508c11538471","system_id":"levelo_inurba_marseille","lat":43.22926,"lon":5.35383,"is_reserved":false,"is_disabled":false,"rental_uris":{"android":"levelo://app?vid=a81f047e-2602-4d29-8821-508c11538471","ios":"levelo://app?vid=a81f047e-2602-4d29-8821-508c11538471"},"vehicle_type_id":"4","last_reported":1739833683,"current_range_meters":16400,"station_id":"cpo3532slgdg3j2ikp40","pricing_plan_id":"cebpf4jnsgd1na2vs0mg"},{"bike_id":"a0d6d5a0-c616-4c50-b79e-af5849f07aae","system_id":"levelo_inurba_marseille","lat":43.30799,"lon":5.37201,"is_reserved":false,"is_disabled":false,"rental_uris":{"android":"levelo://app?vid=a0d6d5a0-c616-4c50-b79e-af5849f07aae","ios":"levelo://app?vid=a0d6d5a0-c616-4c50-b79e-af5849f07aae"},"vehicle_type_id":"4","last_reported":1739833683,"current_range_meters":16400,"station_id":"ce4bguh2rcd13ifvqckg","pricing_plan_id":"cebpf4jnsgd1na2vs0mg"},{"bike_id":"42c7cfa8-bce6-4834-be4f-e8fd7551245d","system_id":"levelo_inurba_marseille","lat":43.28601,"lon":5.42622,"is_reserved":false,"is_disabled":false,"rental_uris":{"android":"levelo://app?vid=42c7cfa8-bce6-4834-be4f-e8fd7551245d","ios":"levelo://app?vid=42c7cfa8-bce6-4834-be4f-e8fd7551245d"},"vehicle_type_id":"4","last_reported":1739833683,"current_range_meters":16400,"station_id":"","pricing_plan_id":"cebpf4jnsgd1na2vs0mg"},{"bike_id":"d1dec037-ee4c-4db9-a655-1087d8ee1f4f","system_id":"levelo_inurba_marseille","lat":43.28443,"lon":5.39154,"is_reserved":false,"is_disabled":true,"rental_uris":{"android":"levelo://app?vid=d1dec037-ee4c-4db9-a655-1087d8ee1f4f","ios":"levelo://app?vid=d1dec037-ee4c-4db9-a655-1087d8ee1f4f"},"vehicle_type_id":"4","last_reported":1739833683,"current_range_meters":16400,"station_id":"","pricing_plan_id":"cebpf4jnsgd1na2vs0mg"},{"bike_id":"127c050c-6151-462e-9b5c-e895e08ceb84","system_id":"levelo_inurba_marseille","lat":43.28464,"lon":5.35891,"is_reserved":false,"is_disabled":false,"rental_uris":{"android":"levelo://app?vid=127c050c-6151-462e-9b5c-e895e08ceb84","ios":"levelo://app?vid=127c050c-6151-462e-9b5c-e895e08ceb84"},"vehicle_type_id":"4","last_reported":1739833683,"current_range_meters":16400,"station_id":"ce4bhah2rcd13ifvqei0","pricing_plan_id":"cebpf4jnsgd1na2vs0mg"},{"bike_id":"0a73758c-a611-493c-b22b-86e31fb8ee4f","system_id":"levelo_inurba_marseille","lat":43.29976,"lon":5.37192,"is_reserved":false,"is_disabled":false,"rental_uris":{"android":"levelo://app?vid=0a73758c-a611-493c-b22b-86e31fb8ee4f","ios":"levelo://app?vid=0a73758c-a611-493c-b22b-86e31fb8ee4f"},"vehicle_type_id":"4","last_reported":1739833683,"current_range_meters":12400,"station_id":"ce4bgr92rcd13ifvqc7g","pricing_plan_id":"cebpf4jnsgd1na2vs0mg"},{"bike_id":"13d04d5d-290d-4173-8ffc-ecf064db517a","system_id":"levelo_inurba_marseille","lat":43.28615,"lon":5.35108,"is_reserved":false,"is_disabled":false,"rental_uris":{"android":"levelo://app?vid=13d04d5d-290d-4173-8ffc-ecf064db517a","ios":"levelo://app?vid=13d04d5d-290d-4173-8ffc-ecf064db517a"},"vehicle_type_id":"4","last_reported":1739833683,"current_range_meters":16400,"station_id":"ce4bhch2rcd13ifvqeug","pricing_plan_id":"cebpf4jnsgd1na2vs0mg"},{"bike_id":"c74b4dbc-e6ae-47cb-9ea7-91e74f12ab36","system_id":"levelo_inurba_marseille","lat":43.28372,"lon":5.38087,"is_reserved":false,"is_disabled":false,"rental_uris":{"android":"levelo://app?vid=c74b4dbc-e6ae-47cb-9ea7-91e74f12ab36","ios":"levelo://app?vid=c74b4dbc-e6ae-47cb-9ea7-91e74f12ab36"},"vehicle_type_id":"4","last_reported":1739833683,"current_range_meters":16400,"station_id":"ce4bh412rcd13ifvqdr0","pricing_plan_id":"cebpf4jnsgd1na2vs0mg"},{"bike_id":"19ec418f-048d-4957-8f67-4a7650363af3","system_id":"levelo_inurba_marseille","lat":43.30309,"lon":5.36879,"is_reserved":false,"is_disabled":false,"rental_uris":{"android":"levelo://app?vid=19ec418f-048d-4957-8f67-4a7650363af3","ios":"levelo://app?vid=19ec418f-048d-4957-8f67-4a7650363af3"},"vehicle_type_id":"4","last_reported":1739833683,"current_range_meters":16400,"station_id":"ce4bgqh2rcd13ifvqc5g","pricing_plan_id":"cebpf4jnsgd1na2vs0mg"},{"bike_id":"5fed333a-fea3-49c3-ac73-dff75f83da89","system_id":"levelo_inurba_marseille","lat":43.28398,"lon":5.37538,"is_reserved":false,"is_disabled":false,"rental_uris":{"android":"levelo://app?vid=5fed333a-fea3-49c3-ac73-dff75f83da89","ios":"levelo://app?vid=5fed333a-fea3-49c3-ac73-dff75f83da89"},"vehicle_type_id":"4","last_reported":1739833683,"current_range_meters":16400,"station_id":"ce4bh412rcd13ifvqds0","pricing_plan_id":"cebpf4jnsgd1na2vs0mg"},{"bike_id":"691852ea-1113-4c47-9853-b0165c35be16","system_id":"levelo_inurba_marseille","lat":43.28108,"lon":5.37873,"is_reserved":false,"is_disabled":false,"rental_uris":{"android":"levelo://app?vid=691852ea-1113-4c47-9853-b0165c35be16","ios":"levelo://app?vid=691852ea-1113-4c47-9853-b0165c35be16"},"vehicle_type_id":"4","last_reported":1739833683,"current_range_meters":16400,"station_id":"ce4bha12rcd13ifvqee0","pricing_plan_id":"cebpf4jnsgd1na2vs0mg"},{"bike_id":"56b8824d-058f-4d43-a8bb-74acbc9b2139","system_id":"levelo_inurba_marseille","lat":43.27965,"lon":5.3876,"is_reserved":false,"is_disabled":false,"rental_uris":{"android":"levelo://app?vid=56b8824d-058f-4d43-a8bb-74acbc9b2139","ios":"levelo://app?vid=56b8824d-058f-4d43-a8bb-74acbc9b2139"},"vehicle_type_id":"4","last_reported":1739833683,"current_range_meters":16400,"station_id":"ce4bhg12rcd13ifvqf80","pricing_plan_id":"cebpf4jnsgd1na2vs0mg"},{"bike_id":"cb943006-3d49-4d28-a996-061563694221","system_id":"levelo_inurba_marseille","lat":43.23965,"lon":5.36647,"is_reserved":false,"is_disabled":false,"rental_uris":{"android":"levelo://app?vid=cb943006-3d49-4d28-a996-061563694221","ios":"levelo://app?vid=cb943006-3d49-4d28-a996-061563694221"},"vehicle_type_id":"4","last_reported":1739833683,"current_range_meters":16800,"station_id":"ce4bhi12rcd13ifvqfp0","pricing_plan_id":"cebpf4jnsgd1na2vs0mg"},{"bike_id":"7f023477-9997-4f49-bfc7-cb9f41de7053","system_id":"levelo_inurba_marseille","lat":43.29851,"lon":5.36287,"is_reserved":false,"is_disabled":false,"rental_uris":{"android":"levelo://app?vid=7f023477-9997-4f49-bfc7-cb9f41de7053","ios":"levelo://app?vid=7f023477-9997-4f49-bfc7-cb9f41de7053"},"vehicle_type_id":"4","last_reported":1739833683,"current_range_meters":16800,"station_id":"","pricing_plan_id":"cebpf4jnsgd1na2vs0mg"},{"bike_id":"1cc4f750-6915-4431-b98d-9dbe28b56442","system_id":"levelo_inurba_marseille","lat":43.27573,"lon":5.38421,"is_reserved":false,"is_disabled":false,"rental_uris":{"android":"levelo://app?vid=1cc4f750-6915-4431-b98d-9dbe28b56442","ios":"levelo://app?vid=1cc4f750-6915-4431-b98d-9dbe28b56442"},"vehicle_type_id":"4","last_reported":1739833683,"current_range_meters":16800,"station_id":"ce4bhh92rcd13ifvqfi0","pricing_plan_id":"cebpf4jnsgd1na2vs0mg"},{"bike_id":"517accaf-312b-414c-bbbf-062ca0a8a787","system_id":"levelo_inurba_marseille","lat":43.297768,"lon":5.370938,"is_reserved":false,"is_disabled":false,"rental_uris":{"android":"levelo://app?vid=517accaf-312b-414c-bbbf-062ca0a8a787","ios":"levelo://app?vid=517accaf-312b-414c-bbbf-062ca0a8a787"},"vehicle_type_id":"4","last_reported":1739833683,"current_range_meters":19600,"station_id":"ce4bhap2rcd13ifvqek0","pricing_plan_id":"cebpf4jnsgd1na2vs0mg"},{"bike_id":"eccd8f50-0d44-405a-897c-7354c541adab","system_id":"levelo_inurba_marseille","lat":43.23193,"lon":5.3998,"is_reserved":false,"is_disabled":false,"rental_uris":{"android":"levelo://app?vid=eccd8f50-0d44-405a-897c-7354c541adab","ios":"levelo://app?vid=eccd8f50-0d44-405a-897c-7354c541adab"},"vehicle_type_id":"4","last_reported":1739833683,"current_range_meters":16800,"station_id":"ce4bhn12rcd13ifvqgqg","pricing_plan_id":"cebpf4jnsgd1na2vs0mg"},{"bike_id":"b6c8ef64-7a9f-4d03-8f6a-54b917e9c30f","system_id":"levelo_inurba_marseille","lat":43.28692,"lon":5.374,"is_reserved":false,"is_disabled":false,"rental_uris":{"android":"levelo://app?vid=b6c8ef64-7a9f-4d03-8f6a-54b917e9c30f","ios":"levelo://app?vid=b6c8ef64-7a9f-4d03-8f6a-54b917e9c30f"},"vehicle_type_id":"4","last_reported":1739833683,"current_range_meters":16800,"station_id":"ce4bh3p2rcd13ifvqdq0","pricing_plan_id":"cebpf4jnsgd1na2vs0mg"},{"bike_id":"6c96a73f-ff01-463f-bd8c-14885ee904b6","system_id":"levelo_inurba_marseille","lat":43.29075,"lon":5.35746,"is_reserved":false,"is_disabled":false,"rental_uris":{"android":"levelo://app?vid=6c96a73f-ff01-463f-bd8c-14885ee904b6","ios":"levelo://app?vid=6c96a73f-ff01-463f-bd8c-14885ee904b6"},"vehicle_type_id":"4","last_reported":1739833683,"current_range_meters":16800,"station_id":"ce4bhb92rcd13ifvqen0","pricing_plan_id":"cebpf4jnsgd1na2vs0mg"},{"bike_id":"a18d790d-07a5-49e7-9126-9be5347c108c","system_id":"levelo_inurba_marseille","lat":43.28259,"lon":5.3508,"is_reserved":false,"is_disabled":false,"rental_uris":{"android":"levelo://app?vid=a18d790d-07a5-49e7-9126-9be5347c108c","ios":"levelo://app?vid=a18d790d-07a5-49e7-9126-9be5347c108c"},"vehicle_type_id":"4","last_reported":1739833683,"current_range_meters":16800,"station_id":"ce4bhbp2rcd13ifvqerg","pricing_plan_id":"cebpf4jnsgd1na2vs0mg"},{"bike_id":"d4c6584d-44bd-4c47-83b2-1b8d5db3aaa7","system_id":"levelo_inurba_marseille","lat":43.3211,"lon":5.36776,"is_reserved":false,"is_disabled":false,"rental_uris":{"android":"levelo://app?vid=d4c6584d-44bd-4c47-83b2-1b8d5db3aaa7","ios":"levelo://app?vid=d4c6584d-44bd-4c47-83b2-1b8d5db3aaa7"},"vehicle_type_id":"4","last_reported":1739833683,"current_range_meters":16800,"station_id":"ce4bhrh2rcd13ifvqhug","pricing_plan_id":"cebpf4jnsgd1na2vs0mg"},{"bike_id":"c0bbfb62-faac-4bdc-ad49-21c384d9f883","system_id":"levelo_inurba_marseille","lat":43.27945,"lon":5.41034,"is_reserved":false,"is_disabled":false,"rental_uris":{"android":"levelo://app?vid=c0bbfb62-faac-4bdc-ad49-21c384d9f883","ios":"levelo://app?vid=c0bbfb62-faac-4bdc-ad49-21c384d9f883"},"vehicle_type_id":"4","last_reported":1739833683,"current_range_meters":17200,"station_id":"ce4bhnp2rcd13ifvqh0g","pricing_plan_id":"cebpf4jnsgd1na2vs0mg"},{"bike_id":"002df5f8-2406-4136-a995-9a4b811ce89d","system_id":"levelo_inurba_marseille","lat":43.26554,"lon":5.40874,"is_reserved":false,"is_disabled":false,"rental_uris":{"android":"levelo://app?vid=002df5f8-2406-4136-a995-9a4b811ce89d","ios":"levelo://app?vid=002df5f8-2406-4136-a995-9a4b811ce89d"},"vehicle_type_id":"4","last_reported":1739833683,"current_range_meters":17200,"station_id":"","pricing_plan_id":"cebpf4jnsgd1na2vs0mg"},{"bike_id":"87e4e3d9-887e-4f25-bf58-279367bc8327","system_id":"levelo_inurba_marseille","lat":43.30648,"lon":5.40113,"is_reserved":false,"is_disabled":true,"rental_uris":{"android":"levelo://app?vid=87e4e3d9-887e-4f25-bf58-279367bc8327","ios":"levelo://app?vid=87e4e3d9-887e-4f25-bf58-279367bc8327"},"vehicle_type_id":"4","last_reported":1739833683,"current_range_meters":17600,"station_id":"ce4bh112rcd13ifvqda0","pricing_plan_id":"cebpf4jnsgd1na2vs0mg"},{"bike_id":"407e5944-557a-481f-9c3c-c2024ce7925a","system_id":"levelo_inurba_marseille","lat":43.27612,"lon":5.36122,"is_reserved":false,"is_disabled":false,"rental_uris":{"android":"levelo://app?vid=407e5944-557a-481f-9c3c-c2024ce7925a","ios":"levelo://app?vid=407e5944-557a-481f-9c3c-c2024ce7925a"},"vehicle_type_id":"4","last_reported":1739833683,"current_range_meters":17600,"station_id":"","pricing_plan_id":"cebpf4jnsgd1na2vs0mg"},{"bike_id":"e480c57e-b127-443d-9f5e-fb55b44f3937","system_id":"levelo_inurba_marseille","lat":43.25102,"lon":5.39507,"is_reserved":false,"is_disabled":false,"rental_uris":{"android":"levelo://app?vid=e480c57e-b127-443d-9f5e-fb55b44f3937","ios":"levelo://app?vid=e480c57e-b127-443d-9f5e-fb55b44f3937"},"vehicle_type_id":"4","last_reported":1739833683,"current_range_meters":17600,"station_id":"ce4bhm12rcd13ifvqgkg","pricing_plan_id":"cebpf4jnsgd1na2vs0mg"},{"bike_id":"8796c4a1-cf69-4acb-819d-b56299eee9b7","system_id":"levelo_inurba_marseille","lat":43.33266,"lon":5.37906,"is_reserved":false,"is_disabled":false,"rental_uris":{"android":"levelo://app?vid=8796c4a1-cf69-4acb-819d-b56299eee9b7","ios":"levelo://app?vid=8796c4a1-cf69-4acb-819d-b56299eee9b7"},"vehicle_type_id":"4","last_reported":1739833683,"current_range_meters":17600,"station_id":"","pricing_plan_id":"cebpf4jnsgd1na2vs0mg"},{"bike_id":"20ffe942-2324-4c8a-8cb1-cd135ab9bcc3","system_id":"levelo_inurba_marseille","lat":43.28149,"lon":5.42645,"is_reserved":false,"is_disabled":false,"rental_uris":{"android":"levelo://app?vid=20ffe942-2324-4c8a-8cb1-cd135ab9bcc3","ios":"levelo://app?vid=20ffe942-2324-4c8a-8cb1-cd135ab9bcc3"},"vehicle_type_id":"4","last_reported":1739833683,"current_range_meters":17600,"station_id":"ce4bhnh2rcd13ifvqgug","pricing_plan_id":"cebpf4jnsgd1na2vs0mg"},{"bike_id":"efb6b4a0-de1c-4f69-bd8b-ff07ea46a8fd","system_id":"levelo_inurba_marseille","lat":43.28833,"lon":5.3583,"is_reserved":false,"is_disabled":false,"rental_uris":{"android":"levelo://app?vid=efb6b4a0-de1c-4f69-bd8b-ff07ea46a8fd","ios":"levelo://app?vid=efb6b4a0-de1c-4f69-bd8b-ff07ea46a8fd"},"vehicle_type_id":"4","last_reported":1739833683,"current_range_meters":17600,"station_id":"ce4bhb12rcd13ifvqem0","pricing_plan_id":"cebpf4jnsgd1na2vs0mg"},{"bike_id":"90017611-e2b1-401c-bcbf-f9d526ffc823","system_id":"levelo_inurba_marseille","lat":43.29357,"lon":5.38295,"is_reserved":false,"is_disabled":false,"rental_uris":{"android":"levelo://app?vid=90017611-e2b1-401c-bcbf-f9d526ffc823","ios":"levelo://app?vid=90017611-e2b1-401c-bcbf-f9d526ffc823"},"vehicle_type_id":"4","last_reported":1739833683,"current_range_meters":17600,"station_id":"","pricing_plan_id":"cebpf4jnsgd1na2vs0mg"},{"bike_id":"a5b070e8-7956-4e5f-9a24-b1e1cafe82c0","system_id":"levelo_inurba_marseille","lat":43.24064,"lon":5.3776,"is_reserved":false,"is_disabled":false,"rental_uris":{"android":"levelo://app?vid=a5b070e8-7956-4e5f-9a24-b1e1cafe82c0","ios":"levelo://app?vid=a5b070e8-7956-4e5f-9a24-b1e1cafe82c0"},"vehicle_type_id":"4","last_reported":1739833683,"current_range_meters":17600,"station_id":"ce4bhnp2rcd13ifvqgvg","pricing_plan_id":"cebpf4jnsgd1na2vs0mg"},{"bike_id":"5a840138-48f3-43a4-ab5d-aafad71de780","system_id":"levelo_inurba_marseille","lat":43.30778,"lon":5.37625,"is_reserved":false,"is_disabled":false,"rental_uris":{"android":"levelo://app?vid=5a840138-48f3-43a4-ab5d-aafad71de780","ios":"levelo://app?vid=5a840138-48f3-43a4-ab5d-aafad71de780"},"vehicle_type_id":"4","last_reported":1739833683,"current_range_meters":17600,"station_id":"ce4bgv92rcd13ifvqcq0","pricing_plan_id":"cebpf4jnsgd1na2vs0mg"},{"bike_id":"8c1b6425-35d6-48a7-8fa6-960133ec665f","system_id":"levelo_inurba_marseille","lat":43.28157,"lon":5.42625,"is_reserved":false,"is_disabled":false,"rental_uris":{"android":"levelo://app?vid=8c1b6425-35d6-48a7-8fa6-960133ec665f","ios":"levelo://app?vid=8c1b6425-35d6-48a7-8fa6-960133ec665f"},"vehicle_type_id":"4","last_reported":1739833683,"current_range_meters":18000,"station_id":"ce4bhnh2rcd13ifvqgug","pricing_plan_id":"cebpf4jnsgd1na2vs0mg"},{"bike_id":"25ea9eec-29d9-4063-8007-929ebb2d1ef2","system_id":"levelo_inurba_marseille","lat":43.255,"lon":5.37651,"is_reserved":false,"is_disabled":false,"rental_uris":{"android":"levelo://app?vid=25ea9eec-29d9-4063-8007-929ebb2d1ef2","ios":"levelo://app?vid=25ea9eec-29d9-4063-8007-929ebb2d1ef2"},"vehicle_type_id":"4","last_reported":1739833683,"current_range_meters":18000,"station_id":"ce4bhh12rcd13ifvqff0","pricing_plan_id":"cebpf4jnsgd1na2vs0mg"},{"bike_id":"f31467cf-8c81-4972-8598-137c33fe7a83","system_id":"levelo_inurba_marseille","lat":43.28843,"lon":5.35849,"is_reserved":false,"is_disabled":false,"rental_uris":{"android":"levelo://app?vid=f31467cf-8c81-4972-8598-137c33fe7a83","ios":"levelo://app?vid=f31467cf-8c81-4972-8598-137c33fe7a83"},"vehicle_type_id":"4","last_reported":1739833683,"current_range_meters":18000,"station_id":"ce4bhb12rcd13ifvqem0","pricing_plan_id":"cebpf4jnsgd1na2vs0mg"},{"bike_id":"c5ebbda0-b086-4fd8-9908-f0f3dfe0def0","system_id":"levelo_inurba_marseille","lat":43.3033,"lon":5.40429,"is_reserved":false,"is_disabled":false,"rental_uris":{"android":"levelo://app?vid=c5ebbda0-b086-4fd8-9908-f0f3dfe0def0","ios":"levelo://app?vid=c5ebbda0-b086-4fd8-9908-f0f3dfe0def0"},"vehicle_type_id":"4","last_reported":1739833683,"current_range_meters":17200,"station_id":"ce4bh012rcd13ifvqd10","pricing_plan_id":"cebpf4jnsgd1na2vs0mg"},{"bike_id":"1219795a-2bd4-4703-8c38-cae46b85c7e0","system_id":"levelo_inurba_marseille","lat":43.24988,"lon":5.38936,"is_reserved":false,"is_disabled":false,"rental_uris":{"android":"levelo://app?vid=1219795a-2bd4-4703-8c38-cae46b85c7e0","ios":"levelo://app?vid=1219795a-2bd4-4703-8c38-cae46b85c7e0"},"vehicle_type_id":"4","last_reported":1739833683,"current_range_meters":18800,"station_id":"ce4bhgp2rcd13ifvqfd0","pricing_plan_id":"cebpf4jnsgd1na2vs0mg"},{"bike_id":"4e5f052d-5d6a-4a68-bf1a-8f04f7f2d4cd","system_id":"levelo_inurba_marseille","lat":43.28402,"lon":5.37518,"is_reserved":false,"is_disabled":false,"rental_uris":{"android":"levelo://app?vid=4e5f052d-5d6a-4a68-bf1a-8f04f7f2d4cd","ios":"levelo://app?vid=4e5f052d-5d6a-4a68-bf1a-8f04f7f2d4cd"},"vehicle_type_id":"4","last_reported":1739833683,"current_range_meters":18800,"station_id":"ce4bh412rcd13ifvqds0","pricing_plan_id":"cebpf4jnsgd1na2vs0mg"},{"bike_id":"f1746a33-b4f0-4afe-8baa-499961d892e0","system_id":"levelo_inurba_marseille","lat":43.29778,"lon":5.37087,"is_reserved":false,"is_disabled":false,"rental_uris":{"android":"levelo://app?vid=f1746a33-b4f0-4afe-8baa-499961d892e0","ios":"levelo://app?vid=f1746a33-b4f0-4afe-8baa-499961d892e0"},"vehicle_type_id":"4","last_reported":1739833683,"current_range_meters":18800,"station_id":"ce4bgop2rcd13ifvqc1g","pricing_plan_id":"cebpf4jnsgd1na2vs0mg"},{"bike_id":"5c3e56f9-b7df-4b47-b1a7-e9fb85099b05","system_id":"levelo_inurba_marseille","lat":43.24537,"lon":5.39531,"is_reserved":false,"is_disabled":false,"rental_uris":{"android":"levelo://app?vid=5c3e56f9-b7df-4b47-b1a7-e9fb85099b05","ios":"levelo://app?vid=5c3e56f9-b7df-4b47-b1a7-e9fb85099b05"},"vehicle_type_id":"4","last_reported":1739833683,"current_range_meters":18800,"station_id":"ce4bhlp2rcd13ifvqgjg","pricing_plan_id":"cebpf4jnsgd1na2vs0mg"},{"bike_id":"85add7b6-bb92-4123-9a9a-94dfccb80c3b","system_id":"levelo_inurba_marseille","lat":43.25091,"lon":5.39516,"is_reserved":false,"is_disabled":false,"rental_uris":{"android":"levelo://app?vid=85add7b6-bb92-4123-9a9a-94dfccb80c3b","ios":"levelo://app?vid=85add7b6-bb92-4123-9a9a-94dfccb80c3b"},"vehicle_type_id":"4","last_reported":1739833683,"current_range_meters":18800,"station_id":"ce4bhm12rcd13ifvqgkg","pricing_plan_id":"cebpf4jnsgd1na2vs0mg"},{"bike_id":"397b80cf-cbf3-4f7e-9d00-ad56509053a2","system_id":"levelo_inurba_marseille","lat":43.29195,"lon":5.39786,"is_reserved":false,"is_disabled":false,"rental_uris":{"android":"levelo://app?vid=397b80cf-cbf3-4f7e-9d00-ad56509053a2","ios":"levelo://app?vid=397b80cf-cbf3-4f7e-9d00-ad56509053a2"},"vehicle_type_id":"4","last_reported":1739833683,"current_range_meters":18800,"station_id":"","pricing_plan_id":"cebpf4jnsgd1na2vs0mg"},{"bike_id":"c8487b94-6c0d-43d0-b1ab-4de3aeccfcae","system_id":"levelo_inurba_marseille","lat":43.27939,"lon":5.41038,"is_reserved":false,"is_disabled":false,"rental_uris":{"android":"levelo://app?vid=c8487b94-6c0d-43d0-b1ab-4de3aeccfcae","ios":"levelo://app?vid=c8487b94-6c0d-43d0-b1ab-4de3aeccfcae"},"vehicle_type_id":"4","last_reported":1739833683,"current_range_meters":18800,"station_id":"ce4bhnp2rcd13ifvqh0g","pricing_plan_id":"cebpf4jnsgd1na2vs0mg"},{"bike_id":"0c66f3a1-adda-4011-bd42-093663b554f9","system_id":"levelo_inurba_marseille","lat":43.3055,"lon":5.38423,"is_reserved":false,"is_disabled":false,"rental_uris":{"android":"levelo://app?vid=0c66f3a1-adda-4011-bd42-093663b554f9","ios":"levelo://app?vid=0c66f3a1-adda-4011-bd42-093663b554f9"},"vehicle_type_id":"4","last_reported":1739833683,"current_range_meters":17600,"station_id":"ce4bgg92rcd13ifvqb30","pricing_plan_id":"cebpf4jnsgd1na2vs0mg"},{"bike_id":"3a582d70-b23f-4aa8-bb69-d9d4a3eb0ba1","system_id":"levelo_inurba_marseille","lat":43.33716,"lon":5.39206,"is_reserved":false,"is_disabled":true,"rental_uris":{"android":"levelo://app?vid=3a582d70-b23f-4aa8-bb69-d9d4a3eb0ba1","ios":"levelo://app?vid=3a582d70-b23f-4aa8-bb69-d9d4a3eb0ba1"},"vehicle_type_id":"4","last_reported":1739833683,"current_range_meters":18800,"station_id":"ce4bhr92rcd13ifvqhsg","pricing_plan_id":"cebpf4jnsgd1na2vs0mg"},{"bike_id":"16d97193-4b63-4714-b515-ec82f2265c6c","system_id":"levelo_inurba_marseille","lat":43.26199,"lon":5.37457,"is_reserved":false,"is_disabled":false,"rental_uris":{"android":"levelo://app?vid=16d97193-4b63-4714-b515-ec82f2265c6c","ios":"levelo://app?vid=16d97193-4b63-4714-b515-ec82f2265c6c"},"vehicle_type_id":"4","last_reported":1739833683,"current_range_meters":18800,"station_id":"ce4bhgp2rcd13ifvqfc0","pricing_plan_id":"cebpf4jnsgd1na2vs0mg"},{"bike_id":"502f7d4c-b24e-4c63-a4a8-9ebc29217aa8","system_id":"levelo_inurba_marseille","lat":43.31283,"lon":5.40167,"is_reserved":false,"is_disabled":false,"rental_uris":{"android":"levelo://app?vid=502f7d4c-b24e-4c63-a4a8-9ebc29217aa8","ios":"levelo://app?vid=502f7d4c-b24e-4c63-a4a8-9ebc29217aa8"},"vehicle_type_id":"4","last_reported":1739833683,"current_range_meters":19200,"station_id":"","pricing_plan_id":"cebpf4jnsgd1na2vs0mg"},{"bike_id":"7d81ed17-28bd-4158-a1da-87c5a169f0a3","system_id":"levelo_inurba_marseille","lat":43.29262,"lon":5.40901,"is_reserved":false,"is_disabled":false,"rental_uris":{"android":"levelo://app?vid=7d81ed17-28bd-4158-a1da-87c5a169f0a3","ios":"levelo://app?vid=7d81ed17-28bd-4158-a1da-87c5a169f0a3"},"vehicle_type_id":"4","last_reported":1739833683,"current_range_meters":19200,"station_id":"ce4bh192rcd13ifvqdc0","pricing_plan_id":"cebpf4jnsgd1na2vs0mg"},{"bike_id":"1d63a175-89ef-49ff-9ead-dfe9ed6c22cf","system_id":"levelo_inurba_marseille","lat":43.24694,"lon":5.3944,"is_reserved":false,"is_disabled":false,"rental_uris":{"android":"levelo://app?vid=1d63a175-89ef-49ff-9ead-dfe9ed6c22cf","ios":"levelo://app?vid=1d63a175-89ef-49ff-9ead-dfe9ed6c22cf"},"vehicle_type_id":"4","last_reported":1739833683,"current_range_meters":19200,"station_id":"","pricing_plan_id":"cebpf4jnsgd1na2vs0mg"},{"bike_id":"a4d435d4-b98d-425c-9189-020312bcbeed","system_id":"levelo_inurba_marseille","lat":43.29057,"lon":5.35924,"is_reserved":false,"is_disabled":false,"rental_uris":{"android":"levelo://app?vid=a4d435d4-b98d-425c-9189-020312bcbeed","ios":"levelo://app?vid=a4d435d4-b98d-425c-9189-020312bcbeed"},"vehicle_type_id":"4","last_reported":1739833683,"current_range_meters":19200,"station_id":"ce4bha92rcd13ifvqeg0","pricing_plan_id":"cebpf4jnsgd1na2vs0mg"},{"bike_id":"17cbd5ff-e5ea-410d-8472-a5249454506a","system_id":"levelo_inurba_marseille","lat":43.302635,"lon":5.377236,"is_reserved":false,"is_disabled":false,"rental_uris":{"android":"levelo://app?vid=17cbd5ff-e5ea-410d-8472-a5249454506a","ios":"levelo://app?vid=17cbd5ff-e5ea-410d-8472-a5249454506a"},"vehicle_type_id":"4","last_reported":1739833683,"current_range_meters":18000,"station_id":"ce4bguh2rcd13ifvqcj0","pricing_plan_id":"cebpf4jnsgd1na2vs0mg"},{"bike_id":"7d2c7165-1f04-4bd7-a75e-2609b99ae28c","system_id":"levelo_inurba_marseille","lat":43.29993,"lon":5.37193,"is_reserved":false,"is_disabled":true,"rental_uris":{"android":"levelo://app?vid=7d2c7165-1f04-4bd7-a75e-2609b99ae28c","ios":"levelo://app?vid=7d2c7165-1f04-4bd7-a75e-2609b99ae28c"},"vehicle_type_id":"4","last_reported":1739833683,"current_range_meters":19200,"station_id":"ce4bgr92rcd13ifvqc7g","pricing_plan_id":"cebpf4jnsgd1na2vs0mg"},{"bike_id":"5626338a-4144-48ad-b662-8be5f9612acf","system_id":"levelo_inurba_marseille","lat":43.29262,"lon":5.40916,"is_reserved":false,"is_disabled":false,"rental_uris":{"android":"levelo://app?vid=5626338a-4144-48ad-b662-8be5f9612acf","ios":"levelo://app?vid=5626338a-4144-48ad-b662-8be5f9612acf"},"vehicle_type_id":"4","last_reported":1739833683,"current_range_meters":19200,"station_id":"ce4bh192rcd13ifvqdc0","pricing_plan_id":"cebpf4jnsgd1na2vs0mg"},{"bike_id":"ea29ffbb-e846-4f70-a39f-ce6b2ba8a6ac","system_id":"levelo_inurba_marseille","lat":43.30793,"lon":5.43533,"is_reserved":false,"is_disabled":false,"rental_uris":{"android":"levelo://app?vid=ea29ffbb-e846-4f70-a39f-ce6b2ba8a6ac","ios":"levelo://app?vid=ea29ffbb-e846-4f70-a39f-ce6b2ba8a6ac"},"vehicle_type_id":"4","last_reported":1739833683,"current_range_meters":18800,"station_id":"ce4bhph2rcd13ifvqheg","pricing_plan_id":"cebpf4jnsgd1na2vs0mg"},{"bike_id":"f0376bed-5806-4a78-89e0-cc8934556f71","system_id":"levelo_inurba_marseille","lat":43.30316,"lon":5.40444,"is_reserved":false,"is_disabled":false,"rental_uris":{"android":"levelo://app?vid=f0376bed-5806-4a78-89e0-cc8934556f71","ios":"levelo://app?vid=f0376bed-5806-4a78-89e0-cc8934556f71"},"vehicle_type_id":"4","last_reported":1739833683,"current_range_meters":19200,"station_id":"ce4bh012rcd13ifvqd10","pricing_plan_id":"cebpf4jnsgd1na2vs0mg"},{"bike_id":"f285e585-4b3f-4b0e-9560-55b6dc71fe40","system_id":"levelo_inurba_marseille","lat":43.29794,"lon":5.39338,"is_reserved":false,"is_disabled":false,"rental_uris":{"android":"levelo://app?vid=f285e585-4b3f-4b0e-9560-55b6dc71fe40","ios":"levelo://app?vid=f285e585-4b3f-4b0e-9560-55b6dc71fe40"},"vehicle_type_id":"4","last_reported":1739833683,"current_range_meters":19600,"station_id":"chh1huq6cuj3fo74tm60","pricing_plan_id":"cebpf4jnsgd1na2vs0mg"},{"bike_id":"6409755a-fd03-44d5-a145-e03400444358","system_id":"levelo_inurba_marseille","lat":43.27829,"lon":5.39201,"is_reserved":false,"is_disabled":false,"rental_uris":{"android":"levelo://app?vid=6409755a-fd03-44d5-a145-e03400444358","ios":"levelo://app?vid=6409755a-fd03-44d5-a145-e03400444358"},"vehicle_type_id":"4","last_reported":1739833683,"current_range_meters":19600,"station_id":"ce4bhjp2rcd13ifvqga0","pricing_plan_id":"cebpf4jnsgd1na2vs0mg"},{"bike_id":"77e62d4a-f1b5-4aee-a386-838d1d8b4506","system_id":"levelo_inurba_marseille","lat":43.28028,"lon":5.36946,"is_reserved":false,"is_disabled":false,"rental_uris":{"android":"levelo://app?vid=77e62d4a-f1b5-4aee-a386-838d1d8b4506","ios":"levelo://app?vid=77e62d4a-f1b5-4aee-a386-838d1d8b4506"},"vehicle_type_id":"4","last_reported":1739833683,"current_range_meters":19600,"station_id":"ce4bha12rcd13ifvqef0","pricing_plan_id":"cebpf4jnsgd1na2vs0mg"},{"bike_id":"cdb027a0-b875-4ada-92c3-2d2168720582","system_id":"levelo_inurba_marseille","lat":43.282781,"lon":5.350687,"is_reserved":false,"is_disabled":true,"rental_uris":{"android":"levelo://app?vid=cdb027a0-b875-4ada-92c3-2d2168720582","ios":"levelo://app?vid=cdb027a0-b875-4ada-92c3-2d2168720582"},"vehicle_type_id":"4","last_reported":1739833683,"current_range_meters":19600,"station_id":"ce4bhbp2rcd13ifvqerg","pricing_plan_id":"cebpf4jnsgd1na2vs0mg"},{"bike_id":"5e248458-69b7-4c60-810f-9a25d186e0cf","system_id":"levelo_inurba_marseille","lat":43.30246,"lon":5.400702,"is_reserved":false,"is_disabled":false,"rental_uris":{"android":"levelo://app?vid=5e248458-69b7-4c60-810f-9a25d186e0cf","ios":"levelo://app?vid=5e248458-69b7-4c60-810f-9a25d186e0cf"},"vehicle_type_id":"4","last_reported":1739833683,"current_range_meters":20000,"station_id":"ce4bgvh2rcd13ifvqcs0","pricing_plan_id":"cebpf4jnsgd1na2vs0mg"},{"bike_id":"7103b5c4-2da5-4946-b02f-1375157b7e36","system_id":"levelo_inurba_marseille","lat":43.24805,"lon":5.37479,"is_reserved":false,"is_disabled":false,"rental_uris":{"android":"levelo://app?vid=7103b5c4-2da5-4946-b02f-1375157b7e36","ios":"levelo://app?vid=7103b5c4-2da5-4946-b02f-1375157b7e36"},"vehicle_type_id":"4","last_reported":1739833683,"current_range_meters":20000,"station_id":"","pricing_plan_id":"cebpf4jnsgd1na2vs0mg"},{"bike_id":"baf6d894-ad10-49a9-b91a-24f60ad956f7","system_id":"levelo_inurba_marseille","lat":43.28997,"lon":5.42649,"is_reserved":false,"is_disabled":false,"rental_uris":{"android":"levelo://app?vid=baf6d894-ad10-49a9-b91a-24f60ad956f7","ios":"levelo://app?vid=baf6d894-ad10-49a9-b91a-24f60ad956f7"},"vehicle_type_id":"4","last_reported":1739833683,"current_range_meters":20000,"station_id":"","pricing_plan_id":"cebpf4jnsgd1na2vs0mg"},{"bike_id":"18db4d32-a343-4776-820a-3d1d833354c1","system_id":"levelo_inurba_marseille","lat":43.29258,"lon":5.40897,"is_reserved":false,"is_disabled":false,"rental_uris":{"android":"levelo://app?vid=18db4d32-a343-4776-820a-3d1d833354c1","ios":"levelo://app?vid=18db4d32-a343-4776-820a-3d1d833354c1"},"vehicle_type_id":"4","last_reported":1739833683,"current_range_meters":20000,"station_id":"ce4bh192rcd13ifvqdc0","pricing_plan_id":"cebpf4jnsgd1na2vs0mg"},{"bike_id":"3062fdbc-17da-471c-9fd8-7b40a1bb9c02","system_id":"levelo_inurba_marseille","lat":43.27835,"lon":5.39207,"is_reserved":false,"is_disabled":false,"rental_uris":{"android":"levelo://app?vid=3062fdbc-17da-471c-9fd8-7b40a1bb9c02","ios":"levelo://app?vid=3062fdbc-17da-471c-9fd8-7b40a1bb9c02"},"vehicle_type_id":"4","last_reported":1739833683,"current_range_meters":20000,"station_id":"ce4bhjp2rcd13ifvqga0","pricing_plan_id":"cebpf4jnsgd1na2vs0mg"},{"bike_id":"16ab03a8-2788-470a-a16c-cb2fa211fb37","system_id":"levelo_inurba_marseille","lat":43.26805,"lon":5.40255,"is_reserved":false,"is_disabled":false,"rental_uris":{"android":"levelo://app?vid=16ab03a8-2788-470a-a16c-cb2fa211fb37","ios":"levelo://app?vid=16ab03a8-2788-470a-a16c-cb2fa211fb37"},"vehicle_type_id":"4","last_reported":1739833683,"current_range_meters":20000,"station_id":"ce501612rcd8frsf0b60","pricing_plan_id":"cebpf4jnsgd1na2vs0mg"},{"bike_id":"30adf0cb-f474-41e7-b419-0c5e4bade5d0","system_id":"levelo_inurba_marseille","lat":43.30096,"lon":5.39098,"is_reserved":false,"is_disabled":false,"rental_uris":{"android":"levelo://app?vid=30adf0cb-f474-41e7-b419-0c5e4bade5d0","ios":"levelo://app?vid=30adf0cb-f474-41e7-b419-0c5e4bade5d0"},"vehicle_type_id":"4","last_reported":1739833683,"current_range_meters":20000,"station_id":"ce4bh192rcd13ifvqdb0","pricing_plan_id":"cebpf4jnsgd1na2vs0mg"},{"bike_id":"de706f48-fbd5-480b-89e7-6426eff1369f","system_id":"levelo_inurba_marseille","lat":43.27832,"lon":5.39209,"is_reserved":false,"is_disabled":false,"rental_uris":{"android":"levelo://app?vid=de706f48-fbd5-480b-89e7-6426eff1369f","ios":"levelo://app?vid=de706f48-fbd5-480b-89e7-6426eff1369f"},"vehicle_type_id":"4","last_reported":1739833683,"current_range_meters":20000,"station_id":"ce4bhjp2rcd13ifvqga0","pricing_plan_id":"cebpf4jnsgd1na2vs0mg"},{"bike_id":"3f7d3547-c33d-422a-92f5-1a25f44f3462","system_id":"levelo_inurba_marseille","lat":43.28418,"lon":5.37517,"is_reserved":false,"is_disabled":false,"rental_uris":{"android":"levelo://app?vid=3f7d3547-c33d-422a-92f5-1a25f44f3462","ios":"levelo://app?vid=3f7d3547-c33d-422a-92f5-1a25f44f3462"},"vehicle_type_id":"4","last_reported":1739833683,"current_range_meters":20000,"station_id":"ce4bh412rcd13ifvqds0","pricing_plan_id":"cebpf4jnsgd1na2vs0mg"},{"bike_id":"f77eb7d8-9434-4c05-861f-edd4244aaffc","system_id":"levelo_inurba_marseille","lat":43.25503,"lon":5.37658,"is_reserved":false,"is_disabled":false,"rental_uris":{"android":"levelo://app?vid=f77eb7d8-9434-4c05-861f-edd4244aaffc","ios":"levelo://app?vid=f77eb7d8-9434-4c05-861f-edd4244aaffc"},"vehicle_type_id":"4","last_reported":1739833683,"current_range_meters":20400,"station_id":"","pricing_plan_id":"cebpf4jnsgd1na2vs0mg"},{"bike_id":"8a368655-5133-49da-83fa-4b97774c2900","system_id":"levelo_inurba_marseille","lat":43.29266,"lon":5.40114,"is_reserved":false,"is_disabled":false,"rental_uris":{"android":"levelo://app?vid=8a368655-5133-49da-83fa-4b97774c2900","ios":"levelo://app?vid=8a368655-5133-49da-83fa-4b97774c2900"},"vehicle_type_id":"4","last_reported":1739833683,"current_range_meters":20400,"station_id":"ce4bh312rcd13ifvqdk0","pricing_plan_id":"cebpf4jnsgd1na2vs0mg"},{"bike_id":"795850c1-154b-40f0-b64c-d35acaa1861d","system_id":"levelo_inurba_marseille","lat":43.25001,"lon":5.38932,"is_reserved":false,"is_disabled":false,"rental_uris":{"android":"levelo://app?vid=795850c1-154b-40f0-b64c-d35acaa1861d","ios":"levelo://app?vid=795850c1-154b-40f0-b64c-d35acaa1861d"},"vehicle_type_id":"4","last_reported":1739833683,"current_range_meters":20400,"station_id":"ce4bhgp2rcd13ifvqfd0","pricing_plan_id":"cebpf4jnsgd1na2vs0mg"},{"bike_id":"c67fb496-8441-458a-af2d-8f07c087bdd0","system_id":"levelo_inurba_marseille","lat":43.241619,"lon":5.3639,"is_reserved":false,"is_disabled":false,"rental_uris":{"android":"levelo://app?vid=c67fb496-8441-458a-af2d-8f07c087bdd0","ios":"levelo://app?vid=c67fb496-8441-458a-af2d-8f07c087bdd0"},"vehicle_type_id":"4","last_reported":1739833683,"current_range_meters":20400,"station_id":"","pricing_plan_id":"cebpf4jnsgd1na2vs0mg"},{"bike_id":"ee82290d-c247-4de5-a5bd-9fe99d27af05","system_id":"levelo_inurba_marseille","lat":43.31482,"lon":5.3731,"is_reserved":false,"is_disabled":false,"rental_uris":{"android":"levelo://app?vid=ee82290d-c247-4de5-a5bd-9fe99d27af05","ios":"levelo://app?vid=ee82290d-c247-4de5-a5bd-9fe99d27af05"},"vehicle_type_id":"4","last_reported":1739833683,"current_range_meters":20400,"station_id":"ce4bgt12rcd13ifvqcd0","pricing_plan_id":"cebpf4jnsgd1na2vs0mg"},{"bike_id":"ba5afe26-0bfb-4ad0-8df5-66e335c20112","system_id":"levelo_inurba_marseille","lat":43.29028,"lon":5.3866,"is_reserved":false,"is_disabled":false,"rental_uris":{"android":"levelo://app?vid=ba5afe26-0bfb-4ad0-8df5-66e335c20112","ios":"levelo://app?vid=ba5afe26-0bfb-4ad0-8df5-66e335c20112"},"vehicle_type_id":"4","last_reported":1739833683,"current_range_meters":20400,"station_id":"ce4bh4p2rcd13ifvqe0g","pricing_plan_id":"cebpf4jnsgd1na2vs0mg"},{"bike_id":"fc971b16-bef3-4b6d-813c-ffc8ffa48842","system_id":"levelo_inurba_marseille","lat":43.2841,"lon":5.34986,"is_reserved":false,"is_disabled":false,"rental_uris":{"android":"levelo://app?vid=fc971b16-bef3-4b6d-813c-ffc8ffa48842","ios":"levelo://app?vid=fc971b16-bef3-4b6d-813c-ffc8ffa48842"},"vehicle_type_id":"4","last_reported":1739833683,"current_range_meters":20400,"station_id":"","pricing_plan_id":"cebpf4jnsgd1na2vs0mg"},{"bike_id":"adf03ceb-912c-4210-bd85-27ea29cecb0b","system_id":"levelo_inurba_marseille","lat":43.24172,"lon":5.36382,"is_reserved":false,"is_disabled":false,"rental_uris":{"android":"levelo://app?vid=adf03ceb-912c-4210-bd85-27ea29cecb0b","ios":"levelo://app?vid=adf03ceb-912c-4210-bd85-27ea29cecb0b"},"vehicle_type_id":"4","last_reported":1739833683,"current_range_meters":20800,"station_id":"cpo36qri1sfpv3e86is0","pricing_plan_id":"cebpf4jnsgd1na2vs0mg"},{"bike_id":"8bb362a7-136d-437c-9e85-b877952e9cf1","system_id":"levelo_inurba_marseille","lat":43.24658,"lon":5.38915,"is_reserved":false,"is_disabled":false,"rental_uris":{"android":"levelo://app?vid=8bb362a7-136d-437c-9e85-b877952e9cf1","ios":"levelo://app?vid=8bb362a7-136d-437c-9e85-b877952e9cf1"},"vehicle_type_id":"4","last_reported":1739833683,"current_range_meters":20800,"station_id":"ce4bhg12rcd13ifvqf60","pricing_plan_id":"cebpf4jnsgd1na2vs0mg"},{"bike_id":"eb715102-e1b0-444b-990c-d34ec49d64ad","system_id":"levelo_inurba_marseille","lat":43.24165,"lon":5.39726,"is_reserved":false,"is_disabled":false,"rental_uris":{"android":"levelo://app?vid=eb715102-e1b0-444b-990c-d34ec49d64ad","ios":"levelo://app?vid=eb715102-e1b0-444b-990c-d34ec49d64ad"},"vehicle_type_id":"4","last_reported":1739833683,"current_range_meters":20800,"station_id":"ce4bhn12rcd13ifvqgpg","pricing_plan_id":"cebpf4jnsgd1na2vs0mg"},{"bike_id":"d8c57d3f-3694-4b61-a356-9b5172d05933","system_id":"levelo_inurba_marseille","lat":43.28606,"lon":5.37062,"is_reserved":false,"is_disabled":false,"rental_uris":{"android":"levelo://app?vid=d8c57d3f-3694-4b61-a356-9b5172d05933","ios":"levelo://app?vid=d8c57d3f-3694-4b61-a356-9b5172d05933"},"vehicle_type_id":"4","last_reported":1739833683,"current_range_meters":20800,"station_id":"ce4bht12rcd13ifvqi60","pricing_plan_id":"cebpf4jnsgd1na2vs0mg"},{"bike_id":"cbf06652-cbca-4f8b-9b58-f1cbdbf8111d","system_id":"levelo_inurba_marseille","lat":43.28418,"lon":5.349773,"is_reserved":false,"is_disabled":false,"rental_uris":{"android":"levelo://app?vid=cbf06652-cbca-4f8b-9b58-f1cbdbf8111d","ios":"levelo://app?vid=cbf06652-cbca-4f8b-9b58-f1cbdbf8111d"},"vehicle_type_id":"4","last_reported":1739833683,"current_range_meters":20800,"station_id":"ce4bhbh2rcd13ifvqepg","pricing_plan_id":"cebpf4jnsgd1na2vs0mg"},{"bike_id":"7e1cc959-131e-4702-b4ca-d9b18cc60212","system_id":"levelo_inurba_marseille","lat":43.31997,"lon":5.38157,"is_reserved":false,"is_disabled":false,"rental_uris":{"android":"levelo://app?vid=7e1cc959-131e-4702-b4ca-d9b18cc60212","ios":"levelo://app?vid=7e1cc959-131e-4702-b4ca-d9b18cc60212"},"vehicle_type_id":"4","last_reported":1739833683,"current_range_meters":21600,"station_id":"ce4bhr12rcd13ifvqhpg","pricing_plan_id":"cebpf4jnsgd1na2vs0mg"},{"bike_id":"27699aeb-cf31-49d2-9725-2b2c33e5046b","system_id":"levelo_inurba_marseille","lat":43.28405,"lon":5.37518,"is_reserved":false,"is_disabled":false,"rental_uris":{"android":"levelo://app?vid=27699aeb-cf31-49d2-9725-2b2c33e5046b","ios":"levelo://app?vid=27699aeb-cf31-49d2-9725-2b2c33e5046b"},"vehicle_type_id":"4","last_reported":1739833683,"current_range_meters":21600,"station_id":"ce4bh412rcd13ifvqds0","pricing_plan_id":"cebpf4jnsgd1na2vs0mg"},{"bike_id":"db7f2d58-492d-4297-aa78-ce0ad99a0a74","system_id":"levelo_inurba_marseille","lat":43.25925,"lon":5.40884,"is_reserved":false,"is_disabled":false,"rental_uris":{"android":"levelo://app?vid=db7f2d58-492d-4297-aa78-ce0ad99a0a74","ios":"levelo://app?vid=db7f2d58-492d-4297-aa78-ce0ad99a0a74"},"vehicle_type_id":"4","last_reported":1739833683,"current_range_meters":21600,"station_id":"ce4bhb92rcd13ifvqen0","pricing_plan_id":"cebpf4jnsgd1na2vs0mg"},