{"last_updated":1740561009,"ttl":60,"version":"2.2","data":{"bikes":[{"bike_id":"5183519e-56f9-4aec-aa5b-3e58a617c414","system_id":"levelo_inurba_marseille","lat":43.25501,"lon":5.37648,"is_reserved":false,"is_disabled":false,"rental_uris":{"android":"levelo://app?vid=5183519e-56f9-4aec-aa5b-3e58a617c414","ios":"levelo://app?vid=5183519e-56f9-4aec-aa5b-3e58a617c414"},"vehicle_type_id":"4","last_reported":1740561009,"current_range_meters":2800,"station_id":"ce4bhh12rcd13ifvqff0","pricing_plan_id":"cebpf4jnsgd1na2vs0mg"},{"bike_id":"c39c0eb7-d8a9-4138-aa4d-47eb430a3071","system_id":"levelo_inurba_marseille","lat":43.28613,"lon":5.35105,"is_reserved":false,"is_disabled":false,"rental_uris":{"android":"levelo://app?vid=c39c0eb7-d8a9-4138-aa4d-47eb430a3071","ios":"levelo://app?vid=c39c0eb7-d8a9-4138-aa4d-47eb430a3071"},"vehicle_type_id":"4","last_reported":1740561009,"current_range_meters":2800,"station_id":"ce4bhch2rcd13ifvqeug","pricing_plan_id":"cebpf4jnsgd1na2vs0mg"},{"bike_id":"82f544c9-f86a-42dd-aedb-98df464a4767","system_id":"levelo_inurba_marseille","lat":43.29157,"lon":5.38288,"is_reserved":false,"is_disabled":false,"rental_uris":{"android":"levelo://app?vid=82f544c9-f86a-42dd-aedb-98df464a4767","ios":"levelo://app?vid=82f544c9-f86a-42dd-aedb-98df464a4767"},"vehicle_type_id":"4","last_reported":1740561009,"current_range_meters":3200,"station_id":"","pricing_plan_id":"cebpf4jnsgd1na2vs0mg"},{"bike_id":"a64baf0b-5109-477c-8e8c-0deb8b58e604","system_id":"levelo_inurba_marseille","lat":43.24078,"lon":5.37757,"is_reserved":false,"is_disabled":false,"rental_uris":{"android":"levelo://app?vid=a64baf0b-5109-477c-8e8c-0deb8b58e604","ios":"levelo://app?vid=a64baf0b-5109-477c-8e8c-0deb8b58e604"},"vehicle_type_id":"4","last_reported":1740561009,"current_range_meters":3200,"station_id":"ce4bhnp2rcd13ifvqgvg","pricing_plan_id":"cebpf4jnsgd1na2vs0mg"},{"bike_id":"62d15c4f-7042-4517-a997-e164d749d664","system_id":"levelo_inurba_marseille","lat":43.24557,"lon":5.39514,"is_reserved":false,"is_disabled":false,"rental_uris":{"android":"levelo://app?vid=62d15c4f-7042-4517-a997-e164d749d664","ios":"levelo://app?vid=62d15c4f-7042-4517-a997-e164d749d664"},"vehicle_type_id":"4","last_reported":1740561009,"current_range_meters":3200,"station_id":"ce4bhlp2rcd13ifvqgjg","pricing_plan_id":"cebpf4jnsgd1na2vs0mg"},{"bike_id":"6e4e00d8-0665-4eea-9970-9b04e7796995","system_id":"levelo_inurba_marseille","lat":43.24193,"lon":5.39723,"is_reserved":false,"is_disabled":false,"rental_uris":{"android":"levelo://app?vid=6e4e00d8-0665-4eea-9970-9b04e7796995","ios":"levelo://app?vid=6e4e00d8-0665-4eea-9970-9b04e7796995"},"vehicle_type_id":"4","last_reported":1740561009,"current_range_meters":3200,"station_id":"ce4bhn12rcd13ifvqgpg","pricing_plan_id":"cebpf4jnsgd1na2vs0mg"},{"bike_id":"a20f4f86-8a37-41be-bf41-963fa04395e3","system_id":"levelo_inurba_marseille","lat":43.29029,"lon":5.38628,"is_reserved":false,"is_disabled":true,"rental_uris":{"android":"levelo://app?vid=a20f4f86-8a37-41be-bf41-963fa04395e3","ios":"levelo://app?vid=a20f4f86-8a37-41be-bf41-963fa04395e3"},"vehicle_type_id":"4","last_reported":1740561009,"current_range_meters":3200,"station_id":"ce4bh4p2rcd13ifvqe0g","pricing_plan_id":"cebpf4jnsgd1na2vs0mg"},{"bike_id":"9728f3a2-27d3-4e15-bae5-973e3d6f10a8","system_id":"levelo_inurba_marseille","lat":43.30549,"lon":5.3653,"is_reserved":false,"is_disabled":false,"rental_uris":{"android":"levelo://app?vid=9728f3a2-27d3-4e15-bae5-973e3d6f10a8","ios":"levelo://app?vid=9728f3a2-27d3-4e15-bae5-973e3d6f10a8"},"vehicle_type_id":"4","last_reported":1740561009,"current_range_meters":3200,"station_id":"ce4bgs12rcd13ifvqcag","pricing_plan_id":"cebpf4jnsgd1na2vs0mg"},{"bike_id":"0a318165-f551-43bc-8710-166642330e44","system_id":"levelo_inurba_marseille","lat":43.24076,"lon":5.37754,"is_reserved":false,"is_disabled":false,"rental_uris":{"android":"levelo://app?vid=0a318165-f551-43bc-8710-166642330e44","ios":"levelo://app?vid=0a318165-f551-43bc-8710-166642330e44"},"vehicle_type_id":"4","last_reported":1740561009,"current_range_meters":3600,"station_id":"ce4bhnp2rcd13ifvqgvg","pricing_plan_id":"cebpf4jnsgd1na2vs0mg"},{"bike_id":"839b0c11-f496-4dc3-a9c8-d1d8bc485f62","system_id":"levelo_inurba_marseille","lat":43.2622,"lon":5.40447,"is_reserved":false,"is_disabled":false,"rental_uris":{"android":"levelo://app?vid=839b0c11-f496-4dc3-a9c8-d1d8bc485f62","ios":"levelo://app?vid=839b0c11-f496-4dc3-a9c8-d1d8bc485f62"},"vehicle_type_id":"4","last_reported":1740561009,"current_range_meters":2000,"station_id":"ce4bhmh2rcd13ifvqgmg","pricing_plan_id":"cebpf4jnsgd1na2vs0mg"},{"bike_id":"0ca81608-f491-428e-8676-572d859eb79c","system_id":"levelo_inurba_marseille","lat":43.23183,"lon":5.40003,"is_reserved":false,"is_disabled":false,"rental_uris":{"android":"levelo://app?vid=0ca81608-f491-428e-8676-572d859eb79c","ios":"levelo://app?vid=0ca81608-f491-428e-8676-572d859eb79c"},"vehicle_type_id":"4","last_reported":1740561009,"current_range_meters":4000,"station_id":"ce4bhn12rcd13ifvqgqg","pricing_plan_id":"cebpf4jnsgd1na2vs0mg"},{"bike_id":"f91778f1-2a01-499a-87c0-18a8cb31862b","system_id":"levelo_inurba_marseille","lat":43.28719,"lon":5.37948,"is_reserved":false,"is_disabled":false,"rental_uris":{"android":"levelo://app?vid=f91778f1-2a01-499a-87c0-18a8cb31862b","ios":"levelo://app?vid=f91778f1-2a01-499a-87c0-18a8cb31862b"},"vehicle_type_id":"4","last_reported":1740561009,"current_range_meters":4000,"station_id":"ce4bh9p2rcd13ifvqec0","pricing_plan_id":"cebpf4jnsgd1na2vs0mg"},{"bike_id":"6a2fbc9e-ae45-46d9-bfa6-f25f0d5d75d4","system_id":"levelo_inurba_marseille","lat":43.31339,"lon":5.36717,"is_reserved":false,"is_disabled":false,"rental_uris":{"android":"levelo://app?vid=6a2fbc9e-ae45-46d9-bfa6-f25f0d5d75d4","ios":"levelo://app?vid=6a2fbc9e-ae45-46d9-bfa6-f25f0d5d75d4"},"vehicle_type_id":"4","last_reported":1740561009,"current_range_meters":4000,"station_id":"ce4bgr92rcd13ifvqc6g","pricing_plan_id":"cebpf4jnsgd1na2vs0mg"},{"bike_id":"da634367-acad-40de-ac7c-eb1fe9e9f106","system_id":"levelo_inurba_marseille","lat":43.28693,"lon":5.37392,"is_reserved":false,"is_disabled":true,"rental_uris":{"android":"levelo://app?vid=da634367-acad-40de-ac7c-eb1fe9e9f106","ios":"levelo://app?vid=da634367-acad-40de-ac7c-eb1fe9e9f106"},"vehicle_type_id":"4","last_reported":1740561009,"current_range_meters":4400,"station_id":"ce4bh3p2rcd13ifvqdq0","pricing_plan_id":"cebpf4jnsgd1na2vs0mg"},{"bike_id":"0eefb61d-f53e-4495-9995-027d516c74e4","system_id":"levelo_inurba_marseille","lat":43.29295,"lon":5.37442,"is_reserved":false,"is_disabled":false,"rental_uris":{"android":"levelo://app?vid=0eefb61d-f53e-4495-9995-027d516c74e4","ios":"levelo://app?vid=0eefb61d-f53e-4495-9995-027d516c74e4"},"vehicle_type_id":"4","last_reported":1740561009,"current_range_meters":4400,"station_id":"ce4bgi12rcd13ifvqb70","pricing_plan_id":"cebpf4jnsgd1na2vs0mg"},{"bike_id":"9739c47d-b750-4abc-a233-cc0ead466f83","system_id":"levelo_inurba_marseille","lat":43.29673,"lon":5.37307,"is_reserved":false,"is_disabled":false,"rental_uris":{"android":"levelo://app?vid=9739c47d-b750-4abc-a233-cc0ead466f83","ios":"levelo://app?vid=9739c47d-b750-4abc-a233-cc0ead466f83"},"vehicle_type_id":"4","last_reported":1740561009,"current_range_meters":4400,"station_id":"ce4bgk12rcd13ifvqbj0","pricing_plan_id":"cebpf4jnsgd1na2vs0mg"},{"bike_id":"638d3d57-3aea-431d-a0b0-abb74d60ab91","system_id":"levelo_inurba_marseille","lat":43.26798,"lon":5.40266,"is_reserved":false,"is_disabled":false,"rental_uris":{"android":"levelo://app?vid=638d3d57-3aea-431d-a0b0-abb74d60ab91","ios":"levelo://app?vid=638d3d57-3aea-431d-a0b0-abb74d60ab91"},"vehicle_type_id":"4","last_reported":1740561009,"current_range_meters":4400,"station_id":"ce501612rcd8frsf0b60","pricing_plan_id":"cebpf4jnsgd1na2vs0mg"},{"bike_id":"b73fa94a-a8a2-40b2-82d0-91f38494aa07","system_id":"levelo_inurba_marseille","lat":43.31687,"lon":5.37719,"is_reserved":false,"is_disabled":false,"rental_uris":{"android":"levelo://app?vid=b73fa94a-a8a2-40b2-82d0-91f38494aa07","ios":"levelo://app?vid=b73fa94a-a8a2-40b2-82d0-91f38494aa07"},"vehicle_type_id":"4","last_reported":1740561009,"current_range_meters":4400,"station_id":"ce4bgth2rcd13ifvqch0","pricing_plan_id":"cebpf4jnsgd1na2vs0mg"},{"bike_id":"350be194-4e79-4159-9bea-ed21d1f9a68f","system_id":"levelo_inurba_marseille","lat":43.27494,"lon":5.42453,"is_reserved":false,"is_disabled":false,"rental_uris":{"android":"levelo://app?vid=350be194-4e79-4159-9bea-ed21d1f9a68f","ios":"levelo://app?vid=350be194-4e79-4159-9bea-ed21d1f9a68f"},"vehicle_type_id":"4","last_reported":1740561009,"current_range_meters":4800,"station_id":"ce4bhn92rcd13ifvqgrg","pricing_plan_id":"cebpf4jnsgd1na2vs0mg"},{"bike_id":"d07ffd06-2947-49e3-9c3c-4f279544d407","system_id":"levelo_inurba_marseille","lat":43.26193,"lon":5.37444,"is_reserved":false,"is_disabled":false,"rental_uris":{"android":"levelo://app?vid=d07ffd06-2947-49e3-9c3c-4f279544d407","ios":"levelo://app?vid=d07ffd06-2947-49e3-9c3c-4f279544d407"},"vehicle_type_id":"4","last_reported":1740561009,"current_range_meters":4400,"station_id":"ce4bhgp2rcd13ifvqfc0","pricing_plan_id":"cebpf4jnsgd1na2vs0mg"},{"bike_id":"19e76643-926c-42bb-bccf-07307db6da6f","system_id":"levelo_inurba_marseille","lat":43.24077,"lon":5.3776,"is_reserved":false,"is_disabled":false,"rental_uris":{"android":"levelo://app?vid=19e76643-926c-42bb-bccf-07307db6da6f","ios":"levelo://app?vid=19e76643-926c-42bb-bccf-07307db6da6f"},"vehicle_type_id":"4","last_reported":1740561009,"current_range_meters":4000,"station_id":"ce4bhnp2rcd13ifvqgvg","pricing_plan_id":"cebpf4jnsgd1na2vs0mg"},{"bike_id":"89be2b48-0a1f-4294-aa42-5f3eb290236e","system_id":"levelo_inurba_marseille","lat":43.28103,"lon":5.37848,"is_reserved":false,"is_disabled":false,"rental_uris":{"android":"levelo://app?vid=89be2b48-0a1f-4294-aa42-5f3eb290236e","ios":"levelo://app?vid=89be2b48-0a1f-4294-aa42-5f3eb290236e"},"vehicle_type_id":"4","last_reported":1740561009,"current_range_meters":4800,"station_id":"ce4bha12rcd13ifvqee0","pricing_plan_id":"cebpf4jnsgd1na2vs0mg"},{"bike_id":"e7b815cc-df06-4225-b4a6-c7bfd0557c54","system_id":"levelo_inurba_marseille","lat":43.25938,"lon":5.40905,"is_reserved":false,"is_disabled":false,"rental_uris":{"android":"levelo://app?vid=e7b815cc-df06-4225-b4a6-c7bfd0557c54","ios":"levelo://app?vid=e7b815cc-df06-4225-b4a6-c7bfd0557c54"},"vehicle_type_id":"4","last_reported":1740561009,"current_range_meters":4800,"station_id":"ce4bhm92rcd13ifvqglg","pricing_plan_id":"cebpf4jnsgd1na2vs0mg"},{"bike_id":"416122ca-c79a-496b-baf4-e72ba614b7da","system_id":"levelo_inurba_marseille","lat":43.30137,"lon":5.37442,"is_reserved":false,"is_disabled":false,"rental_uris":{"android":"levelo://app?vid=416122ca-c79a-496b-baf4-e72ba614b7da","ios":"levelo://app?vid=416122ca-c79a-496b-baf4-e72ba614b7da"},"vehicle_type_id":"4","last_reported":1740561009,"current_range_meters":4400,"station_id":"ce4bgs92rcd13ifvqcc0","pricing_plan_id":"cebpf4jnsgd1na2vs0mg"},{"bike_id":"b7081d9e-9125-4d2e-9a1d-ea4725f61fbb","system_id":"levelo_inurba_marseille","lat":43.26783,"lon":5.39429,"is_reserved":false,"is_disabled":false,"rental_uris":{"android":"levelo://app?vid=b7081d9e-9125-4d2e-9a1d-ea4725f61fbb","ios":"levelo://app?vid=b7081d9e-9125-4d2e-9a1d-ea4725f61fbb"},"vehicle_type_id":"4","last_reported":1740561009,"current_range_meters":4800,"station_id":"ce4bhh12rcd13ifvqfg0","pricing_plan_id":"cebpf4jnsgd1na2vs0mg"},{"bike_id":"cbb3e626-4da7-428e-aa2d-03e52e1e0b23","system_id":"levelo_inurba_marseille","lat":43.28282,"lon":5.35059,"is_reserved":false,"is_disabled":false,"rental_uris":{"android":"levelo://app?vid=cbb3e626-4da7-428e-aa2d-03e52e1e0b23","ios":"levelo://app?vid=cbb3e626-4da7-428e-aa2d-03e52e1e0b23"},"vehicle_type_id":"4","last_reported":1740561009,"current_range_meters":6000,"station_id":"ce4bhbp2rcd13ifvqerg","pricing_plan_id":"cebpf4jnsgd1na2vs0mg"},{"bike_id":"be8cabb2-9597-4ff0-812c-2a12b3c0fb8b","system_id":"levelo_inurba_marseille","lat":43.30525,"lon":5.36726,"is_reserved":false,"is_disabled":false,"rental_uris":{"android":"levelo://app?vid=be8cabb2-9597-4ff0-812c-2a12b3c0fb8b","ios":"levelo://app?vid=be8cabb2-9597-4ff0-812c-2a12b3c0fb8b"},"vehicle_type_id":"4","last_reported":1740561009,"current_range_meters":5600,"station_id":"ce4bgrp2rcd13ifvqc9g","pricing_plan_id":"cebpf4jnsgd1na2vs0mg"},{"bike_id":"252fce85-628b-4a5e-ac10-83a95c4db4fa","system_id":"levelo_inurba_marseille","lat":43.305417,"lon":5.36581,"is_reserved":false,"is_disabled":false,"rental_uris":{"android":"levelo://app?vid=252fce85-628b-4a5e-ac10-83a95c4db4fa","ios":"levelo://app?vid=252fce85-628b-4a5e-ac10-83a95c4db4fa"},"vehicle_type_id":"4","last_reported":1740561009,"current_range_meters":5600,"station_id":"ce4bgs12rcd13ifvqcag","pricing_plan_id":"cebpf4jnsgd1na2vs0mg"},{"bike_id":"3ea37c56-b314-4c02-bbef-be7d6d893474","system_id":"levelo_inurba_marseille","lat":43.30946,"lon":5.39037,"is_reserved":false,"is_disabled":false,"rental_uris":{"android":"levelo://app?vid=3ea37c56-b314-4c02-bbef-be7d6d893474","ios":"levelo://app?vid=3ea37c56-b314-4c02-bbef-be7d6d893474"},"vehicle_type_id":"4","last_reported":1740561009,"current_range_meters":5600,"station_id":"ce4bgup2rcd13ifvqco0","pricing_plan_id":"cebpf4jnsgd1na2vs0mg"},{"bike_id":"ad15a503-e243-4704-8cbb-77d92c75e1d9","system_id":"levelo_inurba_marseille","lat":43.28446,"lon":5.39201,"is_reserved":false,"is_disabled":true,"rental_uris":{"android":"levelo://app?vid=ad15a503-e243-4704-8cbb-77d92c75e1d9","ios":"levelo://app?vid=ad15a503-e243-4704-8cbb-77d92c75e1d9"},"vehicle_type_id":"4","last_reported":1740561009,"current_range_meters":5600,"station_id":"ce4bhoh2rcd13ifvqh5g","pricing_plan_id":"cebpf4jnsgd1na2vs0mg"},{"bike_id":"e07c4d3e-b317-4b10-b919-c6146de26647","system_id":"levelo_inurba_marseille","lat":43.325374,"lon":5.414265,"is_reserved":false,"is_disabled":false,"rental_uris":{"android":"levelo://app?vid=e07c4d3e-b317-4b10-b919-c6146de26647","ios":"levelo://app?vid=e07c4d3e-b317-4b10-b919-c6146de26647"},"vehicle_type_id":"4","last_reported":1740561009,"current_range_meters":5600,"station_id":"ce4bhq12rcd13ifvqhhg","pricing_plan_id":"cebpf4jnsgd1na2vs0mg"},{"bike_id":"1c8236a9-96fb-443c-bf9a-d26ed00cc14f","system_id":"levelo_inurba_marseille","lat":43.24684,"lon":5.38161,"is_reserved":false,"is_disabled":false,"rental_uris":{"android":"levelo://app?vid=1c8236a9-96fb-443c-bf9a-d26ed00cc14f","ios":"levelo://app?vid=1c8236a9-96fb-443c-bf9a-d26ed00cc14f"},"vehicle_type_id":"4","last_reported":1740561009,"current_range_meters":5600,"station_id":"ce4bhih2rcd13ifvqfr0","pricing_plan_id":"cebpf4jnsgd1na2vs0mg"},{"bike_id":"66613f8e-b400-438d-83dc-9aed1edc478d","system_id":"levelo_inurba_marseille","lat":43.28604,"lon":5.35121,"is_reserved":false,"is_disabled":false,"rental_uris":{"android":"levelo://app?vid=66613f8e-b400-438d-83dc-9aed1edc478d","ios":"levelo://app?vid=66613f8e-b400-438d-83dc-9aed1edc478d"},"vehicle_type_id":"4","last_reported":1740561009,"current_range_meters":6000,"station_id":"ce4bhch2rcd13ifvqeug","pricing_plan_id":"cebpf4jnsgd1na2vs0mg"},{"bike_id":"29d52238-28ae-4d3a-8da3-5a8ed7c6ea07","system_id":"levelo_inurba_marseille","lat":43.28365,"lon":5.381,"is_reserved":false,"is_disabled":false,"rental_uris":{"android":"levelo://app?vid=29d52238-28ae-4d3a-8da3-5a8ed7c6ea07","ios":"levelo://app?vid=29d52238-28ae-4d3a-8da3-5a8ed7c6ea07"},"vehicle_type_id":"4","last_reported":1740561009,"current_range_meters":5600,"station_id":"ce4bh412rcd13ifvqdr0","pricing_plan_id":"cebpf4jnsgd1na2vs0mg"},{"bike_id":"e08f588a-aedd-49d6-9575-79440695703e","system_id":"levelo_inurba_marseille","lat":43.293,"lon":5.37456,"is_reserved":false,"is_disabled":false,"rental_uris":{"android":"levelo://app?vid=e08f588a-aedd-49d6-9575-79440695703e","ios":"levelo://app?vid=e08f588a-aedd-49d6-9575-79440695703e"},"vehicle_type_id":"4","last_reported":1740561009,"current_range_meters":6000,"station_id":"ce4bgi12rcd13ifvqb70","pricing_plan_id":"cebpf4jnsgd1na2vs0mg"},{"bike_id":"b6eb1e76-a88a-437e-98c4-9a612de71195","system_id":"levelo_inurba_marseille","lat":43.23265,"lon":5.43807,"is_reserved":false,"is_disabled":false,"rental_uris":{"android":"levelo://app?vid=b6eb1e76-a88a-437e-98c4-9a612de71195","ios":"levelo://app?vid=b6eb1e76-a88a-437e-98c4-9a612de71195"},"vehicle_type_id":"4","last_reported":1740561009,"current_range_meters":6000,"station_id":"","pricing_plan_id":"cebpf4jnsgd1na2vs0mg"},{"bike_id":"f0f74fbc-eeb3-4967-b4b8-49d762bb5054","system_id":"levelo_inurba_marseille","lat":43.337444,"lon":5.374475,"is_reserved":false,"is_disabled":false,"rental_uris":{"android":"levelo://app?vid=f0f74fbc-eeb3-4967-b4b8-49d762bb5054","ios":"levelo://app?vid=f0f74fbc-eeb3-4967-b4b8-49d762bb5054"},"vehicle_type_id":"4","last_reported":1740561009,"current_range_meters":3600,"station_id":"","pricing_plan_id":"cebpf4jnsgd1na2vs0mg"},{"bike_id":"1fb0e46b-bdba-4a0b-8c63-b6e48236eaf3","system_id":"levelo_inurba_marseille","lat":43.31337,"lon":5.36715,"is_reserved":false,"is_disabled":false,"rental_uris":{"android":"levelo://app?vid=1fb0e46b-bdba-4a0b-8c63-b6e48236eaf3","ios":"levelo://app?vid=1fb0e46b-bdba-4a0b-8c63-b6e48236eaf3"},"vehicle_type_id":"4","last_reported":1740561009,"current_range_meters":6000,"station_id":"ce4bgr92rcd13ifvqc6g","pricing_plan_id":"cebpf4jnsgd1na2vs0mg"},{"bike_id":"3ecb5c1e-fdcd-4620-8ea5-a393e4f4cf28","system_id":"levelo_inurba_marseille","lat":43.25925,"lon":5.40901,"is_reserved":false,"is_disabled":false,"rental_uris":{"android":"levelo://app?vid=3ecb5c1e-fdcd-4620-8ea5-a393e4f4cf28","ios":"levelo://app?vid=3ecb5c1e-fdcd-4620-8ea5-a393e4f4cf28"},"vehicle_type_id":"4","last_reported":1740561009,"current_range_meters":6000,"station_id":"ce4bhm92rcd13ifvqglg","pricing_plan_id":"cebpf4jnsgd1na2vs0mg"},{"bike_id":"e3d71cbc-c200-4cf4-bd3c-8db524813567","system_id":"levelo_inurba_marseille","lat":43.28343,"lon":5.38117,"is_reserved":false,"is_disabled":false,"rental_uris":{"android":"levelo://app?vid=e3d71cbc-c200-4cf4-bd3c-8db524813567","ios":"levelo://app?vid=e3d71cbc-c200-4cf4-bd3c-8db524813567"},"vehicle_type_id":"4","last_reported":1740561009,"current_range_meters":6400,"station_id":"ce4bh412rcd13ifvqdr0","pricing_plan_id":"cebpf4jnsgd1na2vs0mg"},{"bike_id":"c206b190-f2b4-4b8b-9c9b-97c35630bf2b","system_id":"levelo_inurba_marseille","lat":43.30576,"lon":5.36694,"is_reserved":false,"is_disabled":false,"rental_uris":{"android":"levelo://app?vid=c206b190-f2b4-4b8b-9c9b-97c35630bf2b","ios":"levelo://app?vid=c206b190-f2b4-4b8b-9c9b-97c35630bf2b"},"vehicle_type_id":"4","last_reported":1740561009,"current_range_meters":6800,"station_id":"","pricing_plan_id":"cebpf4jnsgd1na2vs0mg"},{"bike_id":"030deb0d-a7d1-4ceb-9a55-dc487b76af21","system_id":"levelo_inurba_marseille","lat":43.27499,"lon":5.42451,"is_reserved":false,"is_disabled":false,"rental_uris":{"android":"levelo://app?vid=030deb0d-a7d1-4ceb-9a55-dc487b76af21","ios":"levelo://app?vid=030deb0d-a7d1-4ceb-9a55-dc487b76af21"},"vehicle_type_id":"4","last_reported":1740561009,"current_range_meters":7200,"station_id":"ce4bhn92rcd13ifvqgrg","pricing_plan_id":"cebpf4jnsgd1na2vs0mg"},{"bike_id":"58c6e842-50d3-44a9-9c2d-a4232cc4ff2b","system_id":"levelo_inurba_marseille","lat":43.30458,"lon":5.37906,"is_reserved":false,"is_disabled":false,"rental_uris":{"android":"levelo://app?vid=58c6e842-50d3-44a9-9c2d-a4232cc4ff2b","ios":"levelo://app?vid=58c6e842-50d3-44a9-9c2d-a4232cc4ff2b"},"vehicle_type_id":"4","last_reported":1740561009,"current_range_meters":400,"station_id":"ce4bgup2rcd13ifvqcn0","pricing_plan_id":"cebpf4jnsgd1na2vs0mg"},{"bike_id":"e4cd531c-53f6-497b-b684-69896df31ea1","system_id":"levelo_inurba_marseille","lat":43.23848,"lon":5.39725,"is_reserved":false,"is_disabled":false,"rental_uris":{"android":"levelo://app?vid=e4cd531c-53f6-497b-b684-69896df31ea1","ios":"levelo://app?vid=e4cd531c-53f6-497b-b684-69896df31ea1"},"vehicle_type_id":"4","last_reported":1740561009,"current_range_meters":6800,"station_id":"ce4bhn12rcd13ifvqgpg","pricing_plan_id":"cebpf4jnsgd1na2vs0mg"},{"bike_id":"c7d47453-8ff3-4d96-8463-71e1a5e80589","system_id":"levelo_inurba_marseille","lat":43.299716,"lon":5.413323,"is_reserved":false,"is_disabled":false,"rental_uris":{"android":"levelo://app?vid=c7d47453-8ff3-4d96-8463-71e1a5e80589","ios":"levelo://app?vid=c7d47453-8ff3-4d96-8463-71e1a5e80589"},"vehicle_type_id":"4","last_reported":1740561009,"current_range_meters":4000,"station_id":"ce4bhp12rcd13ifvqh9g","pricing_plan_id":"cebpf4jnsgd1na2vs0mg"},{"bike_id":"7c03f03a-b6f9-4a9c-af73-b452ea00a32a","system_id":"levelo_inurba_marseille","lat":43.31023,"lon":5.38305,"is_reserved":false,"is_disabled":false,"rental_uris":{"android":"levelo://app?vid=7c03f03a-b6f9-4a9c-af73-b452ea00a32a","ios":"levelo://app?vid=7c03f03a-b6f9-4a9c-af73-b452ea00a32a"},"vehicle_type_id":"4","last_reported":1740561009,"current_range_meters":7200,"station_id":"ce4bgv92rcd13ifvqcr0","pricing_plan_id":"cebpf4jnsgd1na2vs0mg"},{"bike_id":"4669b121-6e06-4449-9c5c-294e3531f7ce","system_id":"levelo_inurba_marseille","lat":43.31339,"lon":5.3672,"is_reserved":false,"is_disabled":false,"rental_uris":{"android":"levelo://app?vid=4669b121-6e06-4449-9c5c-294e3531f7ce","ios":"levelo://app?vid=4669b121-6e06-4449-9c5c-294e3531f7ce"},"vehicle_type_id":"4","last_reported":1740561009,"current_range_meters":7200,"station_id":"ce4bgr92rcd13ifvqc6g","pricing_plan_id":"cebpf4jnsgd1na2vs0mg"},{"bike_id":"41a82718-5578-41f7-be7c-4a36792814f7","system_id":"levelo_inurba_marseille","lat":43.250068,"lon":5.389178,"is_reserved":false,"is_disabled":false,"rental_uris":{"android":"levelo://app?vid=41a82718-5578-41f7-be7c-4a36792814f7","ios":"levelo://app?vid=41a82718-5578-41f7-be7c-4a36792814f7"},"vehicle_type_id":"4","last_reported":1740561009,"current_range_meters":7200,"station_id":"ce4bhgp2rcd13ifvqfd0","pricing_plan_id":"cebpf4jnsgd1na2vs0mg"},{"bike_id":"ae8a19c6-d644-4dc9-829e-8caf6b1d2af0","system_id":"levelo_inurba_marseille","lat":43.27205,"lon":5.39222,"is_reserved":false,"is_disabled":false,"rental_uris":{"android":"levelo://app?vid=ae8a19c6-d644-4dc9-829e-8caf6b1d2af0","ios":"levelo://app?vid=ae8a19c6-d644-4dc9-829e-8caf6b1d2af0"},"vehicle_type_id":"4","last_reported":1740561009,"current_range_meters":8400,"station_id":"ce4bhhp2rcd13ifvqfm0","pricing_plan_id":"cebpf4jnsgd1na2vs0mg"},{"bike_id":"7c45866a-bd99-4c12-9747-66203f12a96e","system_id":"levelo_inurba_marseille","lat":43.23136,"lon":5.35509,"is_reserved":false,"is_disabled":false,"rental_uris":{"android":"levelo://app?vid=7c45866a-bd99-4c12-9747-66203f12a96e","ios":"levelo://app?vid=7c45866a-bd99-4c12-9747-66203f12a96e"},"vehicle_type_id":"4","last_reported":1740561009,"current_range_meters":7200,"station_id":"","pricing_plan_id":"cebpf4jnsgd1na2vs0mg"},{"bike_id":"0d6943c3-cee4-48aa-aad4-9b0443d73981","system_id":"levelo_inurba_marseille","lat":43.2926,"lon":5.40914,"is_reserved":false,"is_disabled":false,"rental_uris":{"android":"levelo://app?vid=0d6943c3-cee4-48aa-aad4-9b0443d73981","ios":"levelo://app?vid=0d6943c3-cee4-48aa-aad4-9b0443d73981"},"vehicle_type_id":"4","last_reported":1740561009,"current_range_meters":7200,"station_id":"ce4bh192rcd13ifvqdc0","pricing_plan_id":"cebpf4jnsgd1na2vs0mg"},{"bike_id":"3d6d5f78-b986-40b1-955c-b9d9ef93d5f4","system_id":"levelo_inurba_marseille","lat":43.30968,"lon":5.39072,"is_reserved":false,"is_disabled":false,"rental_uris":{"android":"levelo://app?vid=3d6d5f78-b986-40b1-955c-b9d9ef93d5f4","ios":"levelo://app?vid=3d6d5f78-b986-40b1-955c-b9d9ef93d5f4"},"vehicle_type_id":"4","last_reported":1740561009,"current_range_meters":7200,"station_id":"ce4bgup2rcd13ifvqco0","pricing_plan_id":"cebpf4jnsgd1na2vs0mg"},{"bike_id":"64604e48-7463-4eb1-9c72-a67b9c58cd25","system_id":"levelo_inurba_marseille","lat":43.31386,"lon":5.36698,"is_reserved":false,"is_disabled":false,"rental_uris":{"android":"levelo://app?vid=64604e48-7463-4eb1-9c72-a67b9c58cd25","ios":"levelo://app?vid=64604e48-7463-4eb1-9c72-a67b9c58cd25"},"vehicle_type_id":"4","last_reported":1740561009,"current_range_meters":8000,"station_id":"ce4bgr92rcd13ifvqc6g","pricing_plan_id":"cebpf4jnsgd1na2vs0mg"},{"bike_id":"70656a71-7b5b-49e4-a2ca-c422d39a1205","system_id":"levelo_inurba_marseille","lat":43.27076,"lon":5.42265,"is_reserved":false,"is_disabled":false,"rental_uris":{"android":"levelo://app?vid=70656a71-7b5b-49e4-a2ca-c422d39a1205","ios":"levelo://app?vid=70656a71-7b5b-49e4-a2ca-c422d39a1205"},"vehicle_type_id":"4","last_reported":1740561009,"current_range_meters":8000,"station_id":"ce4bhk92rcd13ifvqgb0","pricing_plan_id":"cebpf4jnsgd1na2vs0mg"},{"bike_id":"1f8430a0-a831-441d-a382-be3bd24fffbf","system_id":"levelo_inurba_marseille","lat":43.281561,"lon":5.426426,"is_reserved":false,"is_disabled":false,"rental_uris":{"android":"levelo://app?vid=1f8430a0-a831-441d-a382-be3bd24fffbf","ios":"levelo://app?vid=1f8430a0-a831-441d-a382-be3bd24fffbf"},"vehicle_type_id":"4","last_reported":1740561009,"current_range_meters":8000,"station_id":"ce4bgh92rcd13ifvqb50","pricing_plan_id":"cebpf4jnsgd1na2vs0mg"},{"bike_id":"6e7dc168-d384-462a-9e48-e7eb22ec3d79","system_id":"levelo_inurba_marseille","lat":43.28276,"lon":5.35067,"is_reserved":false,"is_disabled":true,"rental_uris":{"android":"levelo://app?vid=6e7dc168-d384-462a-9e48-e7eb22ec3d79","ios":"levelo://app?vid=6e7dc168-d384-462a-9e48-e7eb22ec3d79"},"vehicle_type_id":"4","last_reported":1740561009,"current_range_meters":8000,"station_id":"ce4bhbp2rcd13ifvqerg","pricing_plan_id":"cebpf4jnsgd1na2vs0mg"},{"bike_id":"06743959-29e7-4ab7-9e1d-652a412c6725","system_id":"levelo_inurba_marseille","lat":43.26594,"lon":5.39023,"is_reserved":false,"is_disabled":false,"rental_uris":{"android":"levelo://app?vid=06743959-29e7-4ab7-9e1d-652a412c6725","ios":"levelo://app?vid=06743959-29e7-4ab7-9e1d-652a412c6725"},"vehicle_type_id":"4","last_reported":1740561009,"current_range_meters":8000,"station_id":"ce4bhe12rcd13ifvqf30","pricing_plan_id":"cebpf4jnsgd1na2vs0mg"},{"bike_id":"601d9d1a-b924-4349-8cfa-62d99997e8fb","system_id":"levelo_inurba_marseille","lat":43.23197,"lon":5.39991,"is_reserved":false,"is_disabled":false,"rental_uris":{"android":"levelo://app?vid=601d9d1a-b924-4349-8cfa-62d99997e8fb","ios":"levelo://app?vid=601d9d1a-b924-4349-8cfa-62d99997e8fb"},"vehicle_type_id":"4","last_reported":1740561009,"current_range_meters":8000,"station_id":"ce4bhn12rcd13ifvqgqg","pricing_plan_id":"cebpf4jnsgd1na2vs0mg"},{"bike_id":"cb2b7eff-33ef-4d18-aefb-a31bb1843587","system_id":"levelo_inurba_marseille","lat":43.31169,"lon":5.38726,"is_reserved":false,"is_disabled":false,"rental_uris":{"android":"levelo://app?vid=cb2b7eff-33ef-4d18-aefb-a31bb1843587","ios":"levelo://app?vid=cb2b7eff-33ef-4d18-aefb-a31bb1843587"},"vehicle_type_id":"4","last_reported":1740561009,"current_range_meters":8000,"station_id":"ce4bgv12rcd13ifvqcp0","pricing_plan_id":"cebpf4jnsgd1na2vs0mg"},{"bike_id":"fd27a87b-beed-48d0-9c1f-b1fb51341453","system_id":"levelo_inurba_marseille","lat":43.27624,"lon":5.36119,"is_reserved":false,"is_disabled":false,"rental_uris":{"android":"levelo://app?vid=fd27a87b-beed-48d0-9c1f-b1fb51341453","ios":"levelo://app?vid=fd27a87b-beed-48d0-9c1f-b1fb51341453"},"vehicle_type_id":"4","last_reported":1740561009,"current_range_meters":8000,"station_id":"ce4bgj92rcd13ifvqbe0","pricing_plan_id":"cebpf4jnsgd1na2vs0mg"},{"bike_id":"3ff97877-4a55-4663-9acd-eca55a48980c","system_id":"levelo_inurba_marseille","lat":43.2749,"lon":5.4246,"is_reserved":false,"is_disabled":false,"rental_uris":{"android":"levelo://app?vid=3ff97877-4a55-4663-9acd-eca55a48980c","ios":"levelo://app?vid=3ff97877-4a55-4663-9acd-eca55a48980c"},"vehicle_type_id":"4","last_reported":1740561009,"current_range_meters":8000,"station_id":"ce4bhn92rcd13ifvqgrg","pricing_plan_id":"cebpf4jnsgd1na2vs0mg"},{"bike_id":"c405406a-0919-45e3-83f8-567ea8622701","system_id":"levelo_inurba_marseille","lat":43.24176,"lon":5.39737,"is_reserved":false,"is_disabled":false,"rental_uris":{"android":"levelo://app?vid=c405406a-0919-45e3-83f8-567ea8622701","ios":"levelo://app?vid=c405406a-0919-45e3-83f8-567ea8622701"},"vehicle_type_id":"4","last_reported":1740561009,"current_range_meters":8000,"station_id":"ce4bhn12rcd13ifvqgpg","pricing_plan_id":"cebpf4jnsgd1na2vs0mg"},{"bike_id":"db3b94ae-fdec-481c-a029-9ee82e1773a4","system_id":"levelo_inurba_marseille","lat":43.30906,"lon":5.36854,"is_reserved":false,"is_disabled":false,"rental_uris":{"android":"levelo://app?vid=db3b94ae-fdec-481c-a029-9ee82e1773a4","ios":"levelo://app?vid=db3b94ae-fdec-481c-a029-9ee82e1773a4"},"vehicle_type_id":"4","last_reported":1740561009,"current_range_meters":8000,"station_id":"ce4bgn92rcd13ifvqbvg","pricing_plan_id":"cebpf4jnsgd1na2vs0mg"},{"bike_id":"fa0fd479-49df-47e5-9d21-fe77857465d8","system_id":"levelo_inurba_marseille","lat":43.23966,"lon":5.36632,"is_reserved":false,"is_disabled":false,"rental_uris":{"android":"levelo://app?vid=fa0fd479-49df-47e5-9d21-fe77857465d8","ios":"levelo://app?vid=fa0fd479-49df-47e5-9d21-fe77857465d8"},"vehicle_type_id":"4","last_reported":1740561009,"current_range_meters":8400,"station_id":"ce4bhi12rcd13ifvqfp0","pricing_plan_id":"cebpf4jnsgd1na2vs0mg"},{"bike_id":"fb1b6a95-134d-43c6-8cb7-75458d0b48c4","system_id":"levelo_inurba_marseille","lat":43.312968,"lon":5.390238,"is_reserved":false,"is_disabled":false,"rental_uris":{"android":"levelo://app?vid=fb1b6a95-134d-43c6-8cb7-75458d0b48c4","ios":"levelo://app?vid=fb1b6a95-134d-43c6-8cb7-75458d0b48c4"},"vehicle_type_id":"4","last_reported":1740561009,"current_range_meters":7200,"station_id":"ce4bh4p2rcd13ifvqe1g","pricing_plan_id":"cebpf4jnsgd1na2vs0mg"},{"bike_id":"091a5130-fe95-455d-813c-ef5f4d6aebea","system_id":"levelo_inurba_marseille","lat":43.24085,"lon":5.3777,"is_reserved":false,"is_disabled":false,"rental_uris":{"android":"levelo://app?vid=091a5130-fe95-455d-813c-ef5f4d6aebea","ios":"levelo://app?vid=091a5130-fe95-455d-813c-ef5f4d6aebea"},"vehicle_type_id":"4","last_reported":1740561009,"current_range_meters":8400,"station_id":"ce4bhnp2rcd13ifvqgvg","pricing_plan_id":"cebpf4jnsgd1na2vs0mg"},{"bike_id":"a41bdf08-e32d-40ba-9fbb-06b9421a8b4f","system_id":"levelo_inurba_marseille","lat":43.27319,"lon":5.39077,"is_reserved":false,"is_disabled":false,"rental_uris":{"android":"levelo://app?vid=a41bdf08-e32d-40ba-9fbb-06b9421a8b4f","ios":"levelo://app?vid=a41bdf08-e32d-40ba-9fbb-06b9421a8b4f"},"vehicle_type_id":"4","last_reported":1740561009,"current_range_meters":8400,"station_id":"ce4bhgp2rcd13ifvqfe0","pricing_plan_id":"cebpf4jnsgd1na2vs0mg"},{"bike_id":"e5c275a2-a964-47d8-9489-ed1126cf4cef","system_id":"levelo_inurba_marseille","lat":43.29643,"lon":5.3793,"is_reserved":false,"is_disabled":false,"rental_uris":{"android":"levelo://app?vid=e5c275a2-a964-47d8-9489-ed1126cf4cef","ios":"levelo://app?vid=e5c275a2-a964-47d8-9489-ed1126cf4cef"},"vehicle_type_id":"4","last_reported":1740561009,"current_range_meters":8400,"station_id":"","pricing_plan_id":"cebpf4jnsgd1na2vs0mg"},{"bike_id":"92ac9691-4056-4cc7-ad8e-c73afbf0d893","system_id":"levelo_inurba_marseille","lat":43.24064,"lon":5.37756,"is_reserved":false,"is_disabled":false,"rental_uris":{"android":"levelo://app?vid=92ac9691-4056-4cc7-ad8e-c73afbf0d893","ios":"levelo://app?vid=92ac9691-4056-4cc7-ad8e-c73afbf0d893"},"vehicle_type_id":"4","last_reported":1740561009,"current_range_meters":8400,"station_id":"ce4bhnp2rcd13ifvqgvg","pricing_plan_id":"cebpf4jnsgd1na2vs0mg"},{"bike_id":"0755804b-e938-4970-a1f5-1ee40c67f3e0","system_id":"levelo_inurba_marseille","lat":43.240721,"lon":5.377637,"is_reserved":false,"is_disabled":false,"rental_uris":{"android":"levelo://app?vid=0755804b-e938-4970-a1f5-1ee40c67f3e0","ios":"levelo://app?vid=0755804b-e938-4970-a1f5-1ee40c67f3e0"},"vehicle_type_id":"4","last_reported":1740561009,"current_range_meters":8400,"station_id":"ce4bhnp2rcd13ifvqgvg","pricing_plan_id":"cebpf4jnsgd1na2vs0mg"},{"bike_id":"884b0a74-7a88-4aca-b966-750cb3410e4b","system_id":"levelo_inurba_marseille","lat":43.27322,"lon":5.39071,"is_reserved":false,"is_disabled":false,"rental_uris":{"android":"levelo://app?vid=884b0a74-7a88-4aca-b966-750cb3410e4b","ios":"levelo://app?vid=884b0a74-7a88-4aca-b966-750cb3410e4b"},"vehicle_type_id":"4","last_reported":1740561009,"current_range_meters":8400,"station_id":"ce4bhgp2rcd13ifvqfe0","pricing_plan_id":"cebpf4jnsgd1na2vs0mg"},{"bike_id":"18100f5f-976c-4991-ac48-e468230de33d","system_id":"levelo_inurba_marseille","lat":43.27503,"lon":5.42473,"is_reserved":false,"is_disabled":false,"rental_uris":{"android":"levelo://app?vid=18100f5f-976c-4991-ac48-e468230de33d","ios":"levelo://app?vid=18100f5f-976c-4991-ac48-e468230de33d"},"vehicle_type_id":"4","last_reported":1740561009,"current_range_meters":8400,"station_id":"ce4bhn92rcd13ifvqgrg","pricing_plan_id":"cebpf4jnsgd1na2vs0mg"},{"bike_id":"a1ca3ad0-4f52-4569-bb87-4293f6934d8b","system_id":"levelo_inurba_marseille","lat":43.23213,"lon":5.35551,"is_reserved":false,"is_disabled":false,"rental_uris":{"android":"levelo://app?vid=a1ca3ad0-4f52-4569-bb87-4293f6934d8b","ios":"levelo://app?vid=a1ca3ad0-4f52-4569-bb87-4293f6934d8b"},"vehicle_type_id":"4","last_reported":1740561009,"current_range_meters":8400,"station_id":"ce4bhu92rcd13ifvqi70","pricing_plan_id":"cebpf4jnsgd1na2vs0mg"},{"bike_id":"8a347558-4d24-4798-bc0f-3e92792b691e","system_id":"levelo_inurba_marseille","lat":43.312179,"lon":5.368523,"is_reserved":false,"is_disabled":false,"rental_uris":{"android":"levelo://app?vid=8a347558-4d24-4798-bc0f-3e92792b691e","ios":"levelo://app?vid=8a347558-4d24-4798-bc0f-3e92792b691e"},"vehicle_type_id":"4","last_reported":1740561009,"current_range_meters":8400,"station_id":"ce4bgl92rcd13ifvqbq0","pricing_plan_id":"cebpf4jnsgd1na2vs0mg"},{"bike_id":"7af1ab52-65de-4b2f-ad37-6777d80b4ed1","system_id":"levelo_inurba_marseille","lat":43.29314,"lon":5.37183,"is_reserved":false,"is_disabled":false,"rental_uris":{"android":"levelo://app?vid=7af1ab52-65de-4b2f-ad37-6777d80b4ed1","ios":"levelo://app?vid=7af1ab52-65de-4b2f-ad37-6777d80b4ed1"},"vehicle_type_id":"4","last_reported":1740561009,"current_range_meters":8400,"station_id":"ce4bgh92rcd13ifvqb40","pricing_plan_id":"cebpf4jnsgd1na2vs0mg"},{"bike_id":"7455e86d-d264-4cef-bcb3-5f1b6c5e3629","system_id":"levelo_inurba_marseille","lat":43.28839,"lon":5.3932,"is_reserved":false,"is_disabled":false,"rental_uris":{"android":"levelo://app?vid=7455e86d-d264-4cef-bcb3-5f1b6c5e3629","ios":"levelo://app?vid=7455e86d-d264-4cef-bcb3-5f1b6c5e3629"},"vehicle_type_id":"4","last_reported":1740561009,"current_range_meters":8800,"station_id":"ce4bh2p2rcd13ifvqdi0","pricing_plan_id":"cebpf4jnsgd1na2vs0mg"},{"bike_id":"a807631f-b70f-46a8-b8e4-24d3684b48f5","system_id":"levelo_inurba_marseille","lat":43.30914,"lon":5.36853,"is_reserved":false,"is_disabled":false,"rental_uris":{"android":"levelo://app?vid=a807631f-b70f-46a8-b8e4-24d3684b48f5","ios":"levelo://app?vid=a807631f-b70f-46a8-b8e4-24d3684b48f5"},"vehicle_type_id":"4","last_reported":1740561009,"current_range_meters":8800,"station_id":"ce4bgn92rcd13ifvqbvg","pricing_plan_id":"cebpf4jnsgd1na2vs0mg"},{"bike_id":"93a75bc5-5494-4ab1-9c3f-d7183be2445f","system_id":"levelo_inurba_marseille","lat":43.29272,"lon":5.38435,"is_reserved":false,"is_disabled":false,"rental_uris":{"android":"levelo://app?vid=93a75bc5-5494-4ab1-9c3f-d7183be2445f","ios":"levelo://app?vid=93a75bc5-5494-4ab1-9c3f-d7183be2445f"},"vehicle_type_id":"4","last_reported":1740561009,"current_range_meters":10000,"station_id":"ce4bh692rcd13ifvqea0","pricing_plan_id":"cebpf4jnsgd1na2vs0mg"},{"bike_id":"5e51c786-3ebc-4393-8ece-91f8158141cd","system_id":"levelo_inurba_marseille","lat":43.24071,"lon":5.37778,"is_reserved":false,"is_disabled":false,"rental_uris":{"android":"levelo://app?vid=5e51c786-3ebc-4393-8ece-91f8158141cd","ios":"levelo://app?vid=5e51c786-3ebc-4393-8ece-91f8158141cd"},"vehicle_type_id":"4","last_reported":1740561009,"current_range_meters":8800,"station_id":"ce4bhnp2rcd13ifvqgvg","pricing_plan_id":"cebpf4jnsgd1na2vs0mg"},{"bike_id":"2d7fe260-ca98-4404-ab01-0e86bb72db9e","system_id":"levelo_inurba_marseille","lat":43.29746,"lon":5.37663,"is_reserved":false,"is_disabled":false,"rental_uris":{"android":"levelo://app?vid=2d7fe260-ca98-4404-ab01-0e86bb72db9e","ios":"levelo://app?vid=2d7fe260-ca98-4404-ab01-0e86bb72db9e"},"vehicle_type_id":"4","last_reported":1740561009,"current_range_meters":8800,"station_id":"ce4bgkh2rcd13ifvqbl0","pricing_plan_id":"cebpf4jnsgd1na2vs0mg"},{"bike_id":"9f6b1a57-8b18-4910-92c4-7c3c71b26e15","system_id":"levelo_inurba_marseille","lat":43.233523,"lon":5.360093,"is_reserved":false,"is_disabled":false,"rental_uris":{"android":"levelo://app?vid=9f6b1a57-8b18-4910-92c4-7c3c71b26e15","ios":"levelo://app?vid=9f6b1a57-8b18-4910-92c4-7c3c71b26e15"},"vehicle_type_id":"4","last_reported":1740561009,"current_range_meters":8800,"station_id":"","pricing_plan_id":"cebpf4jnsgd1na2vs0mg"},{"bike_id":"53ea8d78-c003-44dc-9f3f-23b519078b62","system_id":"levelo_inurba_marseille","lat":43.31346,"lon":5.36714,"is_reserved":false,"is_disabled":false,"rental_uris":{"android":"levelo://app?vid=53ea8d78-c003-44dc-9f3f-23b519078b62","ios":"levelo://app?vid=53ea8d78-c003-44dc-9f3f-23b519078b62"},"vehicle_type_id":"4","last_reported":1740561009,"current_range_meters":8800,"station_id":"ce4bgr92rcd13ifvqc6g","pricing_plan_id":"cebpf4jnsgd1na2vs0mg"},{"bike_id":"dcdfafc4-ad04-4f03-b713-a44cb5c77c53","system_id":"levelo_inurba_marseille","lat":43.2958,"lon":5.39967,"is_reserved":false,"is_disabled":true,"rental_uris":{"android":"levelo://app?vid=dcdfafc4-ad04-4f03-b713-a44cb5c77c53","ios":"levelo://app?vid=dcdfafc4-ad04-4f03-b713-a44cb5c77c53"},"vehicle_type_id":"4","last_reported":1740561009,"current_range_meters":10000,"station_id":"ce4bh312rcd13ifvqdj0","pricing_plan_id":"cebpf4jnsgd1na2vs0mg"},{"bike_id":"e23e248e-d18a-438a-a5e1-b44a8a27723f","system_id":"levelo_inurba_marseille","lat":43.30551,"lon":5.36536,"is_reserved":false,"is_disabled":false,"rental_uris":{"android":"levelo://app?vid=e23e248e-d18a-438a-a5e1-b44a8a27723f","ios":"levelo://app?vid=e23e248e-d18a-438a-a5e1-b44a8a27723f"},"vehicle_type_id":"4","last_reported":1740561009,"current_range_meters":8800,"station_id":"ce4bgs12rcd13ifvqcag","pricing_plan_id":"cebpf4jnsgd1na2vs0mg"},{"bike_id":"f5d8d05d-3632-43c8-8d3c-fa56bd5050e5","system_id":"levelo_inurba_marseille","lat":43.2988,"lon":5.39741,"is_reserved":false,"is_disabled":true,"rental_uris":{"android":"levelo://app?vid=f5d8d05d-3632-43c8-8d3c-fa56bd5050e5","ios":"levelo://app?vid=f5d8d05d-3632-43c8-8d3c-fa56bd5050e5"},"vehicle_type_id":"4","last_reported":1740561009,"current_range_meters":9200,"station_id":"ce4bh0h2rcd13ifvqd50","pricing_plan_id":"cebpf4jnsgd1na2vs0mg"},{"bike_id":"76ec9e61-d179-48d7-a2e2-2a6d97fad434","system_id":"levelo_inurba_marseille","lat":43.28423,"lon":5.35003,"is_reserved":false,"is_disabled":false,"rental_uris":{"android":"levelo://app?vid=76ec9e61-d179-48d7-a2e2-2a6d97fad434","ios":"levelo://app?vid=76ec9e61-d179-48d7-a2e2-2a6d97fad434"},"vehicle_type_id":"4","last_reported":1740561009,"current_range_meters":9200,"station_id":"ce4bhbh2rcd13ifvqepg","pricing_plan_id":"cebpf4jnsgd1na2vs0mg"},{"bike_id":"13301daf-0444-439c-90f5-309514bd90a4","system_id":"levelo_inurba_marseille","lat":43.31536,"lon":5.38023,"is_reserved":false,"is_disabled":false,"rental_uris":{"android":"levelo://app?vid=13301daf-0444-439c-90f5-309514bd90a4","ios":"levelo://app?vid=13301daf-0444-439c-90f5-309514bd90a4"},"vehicle_type_id":"4","last_reported":1740561009,"current_range_meters":9200,"station_id":"ce4bhsp2rcd13ifvqi50","pricing_plan_id":"cebpf4jnsgd1na2vs0mg"},{"bike_id":"53d5ec87-e6ba-4f62-b996-318e78dadae9","system_id":"levelo_inurba_marseille","lat":43.33603,"lon":5.41022,"is_reserved":false,"is_disabled":false,"rental_uris":{"android":"levelo://app?vid=53d5ec87-e6ba-4f62-b996-318e78dadae9","ios":"levelo://app?vid=53d5ec87-e6ba-4f62-b996-318e78dadae9"},"vehicle_type_id":"4","last_reported":1740561009,"current_range_meters":9200,"station_id":"ce4bhqh2rcd13ifvqhmg","pricing_plan_id":"cebpf4jnsgd1na2vs0mg"},{"bike_id":"88b52384-b6a3-474a-978f-7cedd3127205","system_id":"levelo_inurba_marseille","lat":43.29186,"lon":5.35803,"is_reserved":false,"is_disabled":false,"rental_uris":{"android":"levelo://app?vid=88b52384-b6a3-474a-978f-7cedd3127205","ios":"levelo://app?vid=88b52384-b6a3-474a-978f-7cedd3127205"},"vehicle_type_id":"4","last_reported":1740561009,"current_range_meters":9200,"station_id":"ce4bhb12rcd13ifvqel0","pricing_plan_id":"cebpf4jnsgd1na2vs0mg"},{"bike_id":"38f4356b-57d1-4563-bcc3-d6093e84aecd","system_id":"levelo_inurba_marseille","lat":43.31349,"lon":5.36722,"is_reserved":false,"is_disabled":false,"rental_uris":{"android":"levelo://app?vid=38f4356b-57d1-4563-bcc3-d6093e84aecd","ios":"levelo://app?vid=38f4356b-57d1-4563-bcc3-d6093e84aecd"},"vehicle_type_id":"4","last_reported":1740561009,"current_range_meters":19200,"station_id":"ce4bgr92rcd13ifvqc6g","pricing_plan_id":"cebpf4jnsgd1na2vs0mg"},{"bike_id":"e7234b8e-3807-4b4c-852c-4a3fe63998d8","system_id":"levelo_inurba_marseille","lat":43.2885,"lon":5.35853,"is_reserved":false,"is_disabled":false,"rental_uris":{"android":"levelo://app?vid=e7234b8e-3807-4b4c-852c-4a3fe63998d8","ios":"levelo://app?vid=e7234b8e-3807-4b4c-852c-4a3fe63998d8"},"vehicle_type_id":"4","last_reported":1740561009,"current_range_meters":9600,"station_id":"ce4bhb12rcd13ifvqem0","pricing_plan_id":"cebpf4jnsgd1na2vs0mg"},{"bike_id":"05f51bd6-bf8c-4b6c-ba2f-d7bf7cec3006","system_id":"levelo_inurba_marseille","lat":43.23188,"lon":5.35567,"is_reserved":false,"is_disabled":false,"rental_uris":{"android":"levelo://app?vid=05f51bd6-bf8c-4b6c-ba2f-d7bf7cec3006","ios":"levelo://app?vid=05f51bd6-bf8c-4b6c-ba2f-d7bf7cec3006"},"vehicle_type_id":"4","last_reported":1740561009,"current_range_meters":9600,"station_id":"ce4bhu92rcd13ifvqi70","pricing_plan_id":"cebpf4jnsgd1na2vs0mg"},{"bike_id":"6bde17a0-6e11-4413-bf1b-d6751ce7e53e","system_id":"levelo_inurba_marseille","lat":43.25501,"lon":5.37649,"is_reserved":false,"is_disabled":false,"rental_uris":{"android":"levelo://app?vid=6bde17a0-6e11-4413-bf1b-d6751ce7e53e","ios":"levelo://app?vid=6bde17a0-6e11-4413-bf1b-d6751ce7e53e"},"vehicle_type_id":"4","last_reported":1740561009,"current_range_meters":9600,"station_id":"ce4bhh12rcd13ifvqff0","pricing_plan_id":"cebpf4jnsgd1na2vs0mg"},{"bike_id":"c52acbad-9974-48d6-b92b-1d6c12a1b66d","system_id":"levelo_inurba_marseille","lat":43.2594,"lon":5.40907,"is_reserved":false,"is_disabled":false,"rental_uris":{"android":"levelo://app?vid=c52acbad-9974-48d6-b92b-1d6c12a1b66d","ios":"levelo://app?vid=c52acbad-9974-48d6-b92b-1d6c12a1b66d"},"vehicle_type_id":"4","last_reported":1740561009,"current_range_meters":10000,"station_id":"ce4bhm92rcd13ifvqglg","pricing_plan_id":"cebpf4jnsgd1na2vs0mg"},{"bike_id":"811a7f70-1a30-44a0-a39e-bd514bf03587","system_id":"levelo_inurba_marseille","lat":43.26568,"lon":5.3901,"is_reserved":false,"is_disabled":false,"rental_uris":{"android":"levelo://app?vid=811a7f70-1a30-44a0-a39e-bd514bf03587","ios":"levelo://app?vid=811a7f70-1a30-44a0-a39e-bd514bf03587"},"vehicle_type_id":"4","last_reported":1740561009,"current_range_meters":10000,"station_id":"ce4bhe12rcd13ifvqf30","pricing_plan_id":"cebpf4jnsgd1na2vs0mg"},{"bike_id":"f5232ca0-a0ea-4b65-9be9-c58c9ab586fb","system_id":"levelo_inurba_marseille","lat":43.28156,"lon":5.42636,"is_reserved":false,"is_disabled":false,"rental_uris":{"android":"levelo://app?vid=f5232ca0-a0ea-4b65-9be9-c58c9ab586fb","ios":"levelo://app?vid=f5232ca0-a0ea-4b65-9be9-c58c9ab586fb"},"vehicle_type_id":"4","last_reported":1740561009,"current_range_meters":10000,"station_id":"ce4bhnh2rcd13ifvqgug","pricing_plan_id":"cebpf4jnsgd1na2vs0mg"},{"bike_id":"1e76918f-7506-4ed1-9828-23c11b1ea0f7","system_id":"levelo_inurba_marseille","lat":43.29526,"lon":5.39038,"is_reserved":false,"is_disabled":false,"rental_uris":{"android":"levelo://app?vid=1e76918f-7506-4ed1-9828-23c11b1ea0f7","ios":"levelo://app?vid=1e76918f-7506-4ed1-9828-23c11b1ea0f7"},"vehicle_type_id":"4","last_reported":1740561009,"current_range_meters":10000,"station_id":"ce4bh3p2rcd13ifvqdp0","pricing_plan_id":"cebpf4jnsgd1na2vs0mg"},{"bike_id":"d369ff6c-bf31-4417-88b2-8e645dc45456","system_id":"levelo_inurba_marseille","lat":43.27072,"lon":5.42252,"is_reserved":false,"is_disabled":false,"rental_uris":{"android":"levelo://app?vid=d369ff6c-bf31-4417-88b2-8e645dc45456","ios":"levelo://app?vid=d369ff6c-bf31-4417-88b2-8e645dc45456"},"vehicle_type_id":"4","last_reported":1740561009,"current_range_meters":10000,"station_id":"ce4bhk92rcd13ifvqgb0","pricing_plan_id":"cebpf4jnsgd1na2vs0mg"},{"bike_id":"7c8aaa9b-e43a-43de-8b4f-a531a44d3724","system_id":"levelo_inurba_marseille","lat":43.27929,"lon":5.41056,"is_reserved":false,"is_disabled":false,"rental_uris":{"android":"levelo://app?vid=7c8aaa9b-e43a-43de-8b4f-a531a44d3724","ios":"levelo://app?vid=7c8aaa9b-e43a-43de-8b4f-a531a44d3724"},"vehicle_type_id":"4","last_reported":1740561009,"current_range_meters":10000,"station_id":"ce4bhnp2rcd13ifvqh0g","pricing_plan_id":"cebpf4jnsgd1na2vs0mg"},{"bike_id":"6b286004-f086-4023-9675-02a95f8e917b","system_id":"levelo_inurba_marseille","lat":43.30958,"lon":5.39028,"is_reserved":false,"is_disabled":true,"rental_uris":{"android":"levelo://app?vid=6b286004-f086-4023-9675-02a95f8e917b","ios":"levelo://app?vid=6b286004-f086-4023-9675-02a95f8e917b"},"vehicle_type_id":"4","last_reported":1740561009,"current_range_meters":10000,"station_id":"ce4bgup2rcd13ifvqco0","pricing_plan_id":"cebpf4jnsgd1na2vs0mg"},{"bike_id":"b007f058-4163-4bbe-ba13-50835769bd43","system_id":"levelo_inurba_marseille","lat":43.31713,"lon":5.43713,"is_reserved":false,"is_disabled":false,"rental_uris":{"android":"levelo://app?vid=b007f058-4163-4bbe-ba13-50835769bd43","ios":"levelo://app?vid=b007f058-4163-4bbe-ba13-50835769bd43"},"vehicle_type_id":"4","last_reported":1740561009,"current_range_meters":10000,"station_id":"ce4bhp92rcd13ifvqhcg","pricing_plan_id":"cebpf4jnsgd1na2vs0mg"},{"bike_id":"4bcee7f2-7a8a-43dd-853c-163df9362300","system_id":"levelo_inurba_marseille","lat":43.27978,"lon":5.39973,"is_reserved":false,"is_disabled":false,"rental_uris":{"android":"levelo://app?vid=4bcee7f2-7a8a-43dd-853c-163df9362300","ios":"levelo://app?vid=4bcee7f2-7a8a-43dd-853c-163df9362300"},"vehicle_type_id":"4","last_reported":1740561009,"current_range_meters":10000,"station_id":"ce4bho92rcd13ifvqh4g","pricing_plan_id":"cebpf4jnsgd1na2vs0mg"},{"bike_id":"0a1c232b-9f96-40a1-a4f1-63537d45ae21","system_id":"levelo_inurba_marseille","lat":43.27496,"lon":5.42456,"is_reserved":false,"is_disabled":false,"rental_uris":{"android":"levelo://app?vid=0a1c232b-9f96-40a1-a4f1-63537d45ae21","ios":"levelo://app?vid=0a1c232b-9f96-40a1-a4f1-63537d45ae21"},"vehicle_type_id":"4","last_reported":1740561009,"current_range_meters":10000,"station_id":"ce4bhn92rcd13ifvqgrg","pricing_plan_id":"cebpf4jnsgd1na2vs0mg"},{"bike_id":"85710084-a931-47e8-ab4c-1f19a337f065","system_id":"levelo_inurba_marseille","lat":43.29168,"lon":5.386,"is_reserved":false,"is_disabled":false,"rental_uris":{"android":"levelo://app?vid=85710084-a931-47e8-ab4c-1f19a337f065","ios":"levelo://app?vid=85710084-a931-47e8-ab4c-1f19a337f065"},"vehicle_type_id":"4","last_reported":1740561009,"current_range_meters":10800,"station_id":"","pricing_plan_id":"cebpf4jnsgd1na2vs0mg"},{"bike_id":"06f66f75-c84f-4aed-9792-8d1609f95dd5","system_id":"levelo_inurba_marseille","lat":43.30949,"lon":5.39039,"is_reserved":false,"is_disabled":false,"rental_uris":{"android":"levelo://app?vid=06f66f75-c84f-4aed-9792-8d1609f95dd5","ios":"levelo://app?vid=06f66f75-c84f-4aed-9792-8d1609f95dd5"},"vehicle_type_id":"4","last_reported":1740561009,"current_range_meters":10800,"station_id":"ce4bgup2rcd13ifvqco0","pricing_plan_id":"cebpf4jnsgd1na2vs0mg"},{"bike_id":"c432be32-f8c9-4640-a3ba-6fc9f0fc480b","system_id":"levelo_inurba_marseille","lat":43.29851,"lon":5.36288,"is_reserved":false,"is_disabled":false,"rental_uris":{"android":"levelo://app?vid=c432be32-f8c9-4640-a3ba-6fc9f0fc480b","ios":"levelo://app?vid=c432be32-f8c9-4640-a3ba-6fc9f0fc480b"},"vehicle_type_id":"4","last_reported":1740561009,"current_range_meters":10000,"station_id":"ce4bgpp2rcd13ifvqc3g","pricing_plan_id":"cebpf4jnsgd1na2vs0mg"},{"bike_id":"e9b47af2-e58b-49d5-9ce8-ec513a605c51","system_id":"levelo_inurba_marseille","lat":43.27206,"lon":5.39168,"is_reserved":false,"is_disabled":false,"rental_uris":{"android":"levelo://app?vid=e9b47af2-e58b-49d5-9ce8-ec513a605c51","ios":"levelo://app?vid=e9b47af2-e58b-49d5-9ce8-ec513a605c51"},"vehicle_type_id":"4","last_reported":1740561009,"current_range_meters":10000,"station_id":"ce4bhhp2rcd13ifvqfm0","pricing_plan_id":"cebpf4jnsgd1na2vs0mg"},{"bike_id":"b7e76cce-cd59-41fc-bddd-abd519a7d294","system_id":"levelo_inurba_marseille","lat":43.33785,"lon":5.37424,"is_reserved":false,"is_disabled":false,"rental_uris":{"android":"levelo://app?vid=b7e76cce-cd59-41fc-bddd-abd519a7d294","ios":"levelo://app?vid=b7e76cce-cd59-41fc-bddd-abd519a7d294"},"vehicle_type_id":"4","last_reported":1740561009,"current_range_meters":34000,"station_id":"","pricing_plan_id":"cebpf4jnsgd1na2vs0mg"},{"bike_id":"507cc0ef-334e-41d1-8083-ab2cc3f7c562","system_id":"levelo_inurba_marseille","lat":43.25012,"lon":5.38931,"is_reserved":false,"is_disabled":false,"rental_uris":{"android":"levelo://app?vid=507cc0ef-334e-41d1-8083-ab2cc3f7c562","ios":"levelo://app?vid=507cc0ef-334e-41d1-8083-ab2cc3f7c562"},"vehicle_type_id":"4","last_reported":1740561009,"current_range_meters":15200,"station_id":"ce4bhgp2rcd13ifvqfd0","pricing_plan_id":"cebpf4jnsgd1na2vs0mg"},{"bike_id":"b9ed78f3-03f2-4baa-b549-c94d0e0ca6a8","system_id":"levelo_inurba_marseille","lat":43.290291,"lon":5.38652,"is_reserved":false,"is_disabled":false,"rental_uris":{"android":"levelo://app?vid=b9ed78f3-03f2-4baa-b549-c94d0e0ca6a8","ios":"levelo://app?vid=b9ed78f3-03f2-4baa-b549-c94d0e0ca6a8"},"vehicle_type_id":"4","last_reported":1740561009,"current_range_meters":11200,"station_id":"ce4bgr92rcd13ifvqc6g","pricing_plan_id":"cebpf4jnsgd1na2vs0mg"},{"bike_id":"0b882bd0-0ae4-42e1-89d6-33a137f5f4a7","system_id":"levelo_inurba_marseille","lat":43.2619,"lon":5.37452,"is_reserved":false,"is_disabled":false,"rental_uris":{"android":"levelo://app?vid=0b882bd0-0ae4-42e1-89d6-33a137f5f4a7","ios":"levelo://app?vid=0b882bd0-0ae4-42e1-89d6-33a137f5f4a7"},"vehicle_type_id":"4","last_reported":1740561009,"current_range_meters":11200,"station_id":"ce4bhgp2rcd13ifvqfc0","pricing_plan_id":"cebpf4jnsgd1na2vs0mg"},{"bike_id":"4c4db0c0-9ce9-4158-b403-e3745c9c2ef4","system_id":"levelo_inurba_marseille","lat":43.29572,"lon":5.39974,"is_reserved":false,"is_disabled":false,"rental_uris":{"android":"levelo://app?vid=4c4db0c0-9ce9-4158-b403-e3745c9c2ef4","ios":"levelo://app?vid=4c4db0c0-9ce9-4158-b403-e3745c9c2ef4"},"vehicle_type_id":"4","last_reported":1740561009,"current_range_meters":11200,"station_id":"ce4bh312rcd13ifvqdj0","pricing_plan_id":"cebpf4jnsgd1na2vs0mg"},{"bike_id":"bce089a5-fef8-4dd4-99b0-59c44251461c","system_id":"levelo_inurba_marseille","lat":43.3092,"lon":5.36855,"is_reserved":false,"is_disabled":false,"rental_uris":{"android":"levelo://app?vid=bce089a5-fef8-4dd4-99b0-59c44251461c","ios":"levelo://app?vid=bce089a5-fef8-4dd4-99b0-59c44251461c"},"vehicle_type_id":"4","last_reported":1740561009,"current_range_meters":11200,"station_id":"ce4bgn92rcd13ifvqbvg","pricing_plan_id":"cebpf4jnsgd1na2vs0mg"},{"bike_id":"e83ddef4-3840-4ef5-86ca-a60880703287","system_id":"levelo_inurba_marseille","lat":43.29527,"lon":5.38556,"is_reserved":false,"is_disabled":false,"rental_uris":{"android":"levelo://app?vid=e83ddef4-3840-4ef5-86ca-a60880703287","ios":"levelo://app?vid=e83ddef4-3840-4ef5-86ca-a60880703287"},"vehicle_type_id":"4","last_reported":1740561009,"current_range_meters":10800,"station_id":"ce4bgih2rcd13ifvqba0","pricing_plan_id":"cebpf4jnsgd1na2vs0mg"},{"bike_id":"d0801915-0de0-4f9d-9726-750b42c06614","system_id":"levelo_inurba_marseille","lat":43.32112,"lon":5.36772,"is_reserved":false,"is_disabled":false,"rental_uris":{"android":"levelo://app?vid=d0801915-0de0-4f9d-9726-750b42c06614","ios":"levelo://app?vid=d0801915-0de0-4f9d-9726-750b42c06614"},"vehicle_type_id":"4","last_reported":1740561009,"current_range_meters":11200,"station_id":"ce4bhrh2rcd13ifvqhug","pricing_plan_id":"cebpf4jnsgd1na2vs0mg"},{"bike_id":"1a3f0a80-00db-4d1a-aedb-2fcec07a1a60","system_id":"levelo_inurba_marseille","lat":43.28114,"lon":5.37842,"is_reserved":false,"is_disabled":false,"rental_uris":{"android":"levelo://app?vid=1a3f0a80-00db-4d1a-aedb-2fcec07a1a60","ios":"levelo://app?vid=1a3f0a80-00db-4d1a-aedb-2fcec07a1a60"},"vehicle_type_id":"4","last_reported":1740561009,"current_range_meters":11600,"station_id":"ce4bha12rcd13ifvqee0","pricing_plan_id":"cebpf4jnsgd1na2vs0mg"},{"bike_id":"67ee95a1-160f-49c1-b11e-b3640680cd0d","system_id":"levelo_inurba_marseille","lat":43.32098,"lon":5.36787,"is_reserved":false,"is_disabled":false,"rental_uris":{"android":"levelo://app?vid=67ee95a1-160f-49c1-b11e-b3640680cd0d","ios":"levelo://app?vid=67ee95a1-160f-49c1-b11e-b3640680cd0d"},"vehicle_type_id":"4","last_reported":1740561009,"current_range_meters":11600,"station_id":"ce4bhrh2rcd13ifvqhug","pricing_plan_id":"cebpf4jnsgd1na2vs0mg"},{"bike_id":"7a3fd449-5c93-4720-8853-bffc0cab356e","system_id":"levelo_inurba_marseille","lat":43.297793,"lon":5.393397,"is_reserved":false,"is_disabled":false,"rental_uris":{"android":"levelo://app?vid=7a3fd449-5c93-4720-8853-bffc0cab356e","ios":"levelo://app?vid=7a3fd449-5c93-4720-8853-bffc0cab356e"},"vehicle_type_id":"4","last_reported":1740561009,"current_range_meters":11200,"station_id":"chh1huq6cuj3fo74tm60","pricing_plan_id":"cebpf4jnsgd1na2vs0mg"},{"bike_id":"ab15e866-1653-403c-b304-7cb40e7518fe","system_id":"levelo_inurba_marseille","lat":43.27174,"lon":5.40996,"is_reserved":false,"is_disabled":false,"rental_uris":{"android":"levelo://app?vid=ab15e866-1653-403c-b304-7cb40e7518fe","ios":"levelo://app?vid=ab15e866-1653-403c-b304-7cb40e7518fe"},"vehicle_type_id":"4","last_reported":1740561009,"current_range_meters":11600,"station_id":"ce4bhl12rcd13ifvqgf0","pricing_plan_id":"cebpf4jnsgd1na2vs0mg"},{"bike_id":"c69f57a8-6246-4756-b231-47fefc7508c5","system_id":"levelo_inurba_marseille","lat":43.29934,"lon":5.36562,"is_reserved":false,"is_disabled":false,"rental_uris":{"android":"levelo://app?vid=c69f57a8-6246-4756-b231-47fefc7508c5","ios":"levelo://app?vid=c69f57a8-6246-4756-b231-47fefc7508c5"},"vehicle_type_id":"4","last_reported":1740561009,"current_range_meters":11600,"station_id":"ce4bgm92rcd13ifvqbr0","pricing_plan_id":"cebpf4jnsgd1na2vs0mg"},{"bike_id":"63f21519-4931-46ab-8385-683dd1733f52","system_id":"levelo_inurba_marseille","lat":43.30148,"lon":5.37407,"is_reserved":false,"is_disabled":false,"rental_uris":{"android":"levelo://app?vid=63f21519-4931-46ab-8385-683dd1733f52","ios":"levelo://app?vid=63f21519-4931-46ab-8385-683dd1733f52"},"vehicle_type_id":"4","last_reported":1740561009,"current_range_meters":17600,"station_id":"ce4bgs92rcd13ifvqcc0","pricing_plan_id":"cebpf4jnsgd1na2vs0mg"},{"bike_id":"5dee255f-bbc2-45a5-911d-822e245a92f2","system_id":"levelo_inurba_marseille","lat":43.24177,"lon":5.39729,"is_reserved":false,"is_disabled":false,"rental_uris":{"android":"levelo://app?vid=5dee255f-bbc2-45a5-911d-822e245a92f2","ios":"levelo://app?vid=5dee255f-bbc2-45a5-911d-822e245a92f2"},"vehicle_type_id":"4","last_reported":1740561009,"current_range_meters":12800,"station_id":"ce4bhn12rcd13ifvqgpg","pricing_plan_id":"cebpf4jnsgd1na2vs0mg"},{"bike_id":"bdb7c72e-3f4d-47e6-8710-d4d08f8e94b1","system_id":"levelo_inurba_marseille","lat":43.28611,"lon":5.37055,"is_reserved":false,"is_disabled":false,"rental_uris":{"android":"levelo://app?vid=bdb7c72e-3f4d-47e6-8710-d4d08f8e94b1","ios":"levelo://app?vid=bdb7c72e-3f4d-47e6-8710-d4d08f8e94b1"},"vehicle_type_id":"4","last_reported":1740561009,"current_range_meters":3600,"station_id":"ce4bht12rcd13ifvqi60","pricing_plan_id":"cebpf4jnsgd1na2vs0mg"},{"bike_id":"d4d2079b-6fb6-429d-9474-3bc23391be3f","system_id":"levelo_inurba_marseille","lat":43.28101,"lon":5.37838,"is_reserved":false,"is_disabled":false,"rental_uris":{"android":"levelo://app?vid=d4d2079b-6fb6-429d-9474-3bc23391be3f","ios":"levelo://app?vid=d4d2079b-6fb6-429d-9474-3bc23391be3f"},"vehicle_type_id":"4","last_reported":1740561009,"current_range_meters":12000,"station_id":"ce4bha12rcd13ifvqee0","pricing_plan_id":"cebpf4jnsgd1na2vs0mg"},{"bike_id":"5a2d6a0d-ccf4-4d45-94c0-e44749526dcc","system_id":"levelo_inurba_marseille","lat":43.249878,"lon":5.389219,"is_reserved":false,"is_disabled":false,"rental_uris":{"android":"levelo://app?vid=5a2d6a0d-ccf4-4d45-94c0-e44749526dcc","ios":"levelo://app?vid=5a2d6a0d-ccf4-4d45-94c0-e44749526dcc"},"vehicle_type_id":"4","last_reported":1740561009,"current_range_meters":12400,"station_id":"ce4bhgp2rcd13ifvqfd0","pricing_plan_id":"cebpf4jnsgd1na2vs0mg"},{"bike_id":"4781fb11-d9db-4cd8-974c-942517d7cf68","system_id":"levelo_inurba_marseille","lat":43.27057,"lon":5.40259,"is_reserved":false,"is_disabled":false,"rental_uris":{"android":"levelo://app?vid=4781fb11-d9db-4cd8-974c-942517d7cf68","ios":"levelo://app?vid=4781fb11-d9db-4cd8-974c-942517d7cf68"},"vehicle_type_id":"4","last_reported":1740561009,"current_range_meters":13600,"station_id":"ce4bhk92rcd13ifvqgc0","pricing_plan_id":"cebpf4jnsgd1na2vs0mg"},{"bike_id":"995ecf18-00c2-4b2c-9ec0-8699b7324b4b","system_id":"levelo_inurba_marseille","lat":43.30946,"lon":5.39042,"is_reserved":false,"is_disabled":false,"rental_uris":{"android":"levelo://app?vid=995ecf18-00c2-4b2c-9ec0-8699b7324b4b","ios":"levelo://app?vid=995ecf18-00c2-4b2c-9ec0-8699b7324b4b"},"vehicle_type_id":"4","last_reported":1740561009,"current_range_meters":12400,"station_id":"ce4bgup2rcd13ifvqco0","pricing_plan_id":"cebpf4jnsgd1na2vs0mg"},{"bike_id":"081723c5-4cff-4b95-a86e-ad7585573a73","system_id":"levelo_inurba_marseille","lat":43.27375,"lon":5.36258,"is_reserved":false,"is_disabled":false,"rental_uris":{"android":"levelo://app?vid=081723c5-4cff-4b95-a86e-ad7585573a73","ios":"levelo://app?vid=081723c5-4cff-4b95-a86e-ad7585573a73"},"vehicle_type_id":"4","last_reported":1740561009,"current_range_meters":12400,"station_id":"ce4bhbh2rcd13ifvqeo0","pricing_plan_id":"cebpf4jnsgd1na2vs0mg"},{"bike_id":"10b28a6b-604b-41ed-9116-436f5ebf413b","system_id":"levelo_inurba_marseille","lat":43.309617,"lon":5.39048,"is_reserved":false,"is_disabled":false,"rental_uris":{"android":"levelo://app?vid=10b28a6b-604b-41ed-9116-436f5ebf413b","ios":"levelo://app?vid=10b28a6b-604b-41ed-9116-436f5ebf413b"},"vehicle_type_id":"4","last_reported":1740561009,"current_range_meters":12400,"station_id":"ce4bgup2rcd13ifvqco0","pricing_plan_id":"cebpf4jnsgd1na2vs0mg"},{"bike_id":"0439ee55-37b2-4ad6-a75c-e9520704c6ca","system_id":"levelo_inurba_marseille","lat":43.29911,"lon":5.37492,"is_reserved":false,"is_disabled":false,"rental_uris":{"android":"levelo://app?vid=0439ee55-37b2-4ad6-a75c-e9520704c6ca","ios":"levelo://app?vid=0439ee55-37b2-4ad6-a75c-e9520704c6ca"},"vehicle_type_id":"4","last_reported":1740561009,"current_range_meters":12800,"station_id":"ce4bgjh2rcd13ifvqbg0","pricing_plan_id":"cebpf4jnsgd1na2vs0mg"},{"bike_id":"91df6e5d-afa9-43b9-9d78-5051ed581821","system_id":"levelo_inurba_marseille","lat":43.29875,"lon":5.39754,"is_reserved":false,"is_disabled":false,"rental_uris":{"android":"levelo://app?vid=91df6e5d-afa9-43b9-9d78-5051ed581821","ios":"levelo://app?vid=91df6e5d-afa9-43b9-9d78-5051ed581821"},"vehicle_type_id":"4","last_reported":1740561009,"current_range_meters":12800,"station_id":"ce4bh0h2rcd13ifvqd50","pricing_plan_id":"cebpf4jnsgd1na2vs0mg"},{"bike_id":"0b2f5009-1e4e-4593-8abd-b74dc1937c26","system_id":"levelo_inurba_marseille","lat":43.23186,"lon":5.399927,"is_reserved":false,"is_disabled":false,"rental_uris":{"android":"levelo://app?vid=0b2f5009-1e4e-4593-8abd-b74dc1937c26","ios":"levelo://app?vid=0b2f5009-1e4e-4593-8abd-b74dc1937c26"},"vehicle_type_id":"4","last_reported":1740561009,"current_range_meters":12800,"station_id":"ce4bhn12rcd13ifvqgqg","pricing_plan_id":"cebpf4jnsgd1na2vs0mg"},{"bike_id":"6792f00f-9010-4f62-974b-95a21c302c11","system_id":"levelo_inurba_marseille","lat":43.28736,"lon":5.36084,"is_reserved":false,"is_disabled":false,"rental_uris":{"android":"levelo://app?vid=6792f00f-9010-4f62-974b-95a21c302c11","ios":"levelo://app?vid=6792f00f-9010-4f62-974b-95a21c302c11"},"vehicle_type_id":"4","last_reported":1740561009,"current_range_meters":12800,"station_id":"cki0cbj6b192h4jlfktg","pricing_plan_id":"cebpf4jnsgd1na2vs0mg"},{"bike_id":"a7ba41b2-dca7-4ece-a732-d1d3d5deb323","system_id":"levelo_inurba_marseille","lat":43.26682,"lon":5.38275,"is_reserved":false,"is_disabled":false,"rental_uris":{"android":"levelo://app?vid=a7ba41b2-dca7-4ece-a732-d1d3d5deb323","ios":"levelo://app?vid=a7ba41b2-dca7-4ece-a732-d1d3d5deb323"},"vehicle_type_id":"4","last_reported":1740561009,"current_range_meters":12800,"station_id":"ce4bhg92rcd13ifvqf90","pricing_plan_id":"cebpf4jnsgd1na2vs0mg"},{"bike_id":"ca28c05e-e0d3-4c8a-a0c4-6fee3fc9c288","system_id":"levelo_inurba_marseille","lat":43.28105,"lon":5.37838,"is_reserved":false,"is_disabled":false,"rental_uris":{"android":"levelo://app?vid=ca28c05e-e0d3-4c8a-a0c4-6fee3fc9c288","ios":"levelo://app?vid=ca28c05e-e0d3-4c8a-a0c4-6fee3fc9c288"},"vehicle_type_id":"4","last_reported":1740561009,"current_range_meters":12800,"station_id":"ce4bha12rcd13ifvqee0","pricing_plan_id":"cebpf4jnsgd1na2vs0mg"},{"bike_id":"b426a55b-6079-4410-bdcf-64a0360c349f","system_id":"levelo_inurba_marseille","lat":43.28423,"lon":5.34987,"is_reserved":false,"is_disabled":false,"rental_uris":{"android":"levelo://app?vid=b426a55b-6079-4410-bdcf-64a0360c349f","ios":"levelo://app?vid=b426a55b-6079-4410-bdcf-64a0360c349f"},"vehicle_type_id":"4","last_reported":1740561009,"current_range_meters":13600,"station_id":"ce4bhbh2rcd13ifvqepg","pricing_plan_id":"cebpf4jnsgd1na2vs0mg"},{"bike_id":"6544427c-4ad2-4d31-bf03-c4d17c5f3bfe","system_id":"levelo_inurba_marseille","lat":43.26956,"lon":5.3862,"is_reserved":false,"is_disabled":false,"rental_uris":{"android":"levelo://app?vid=6544427c-4ad2-4d31-bf03-c4d17c5f3bfe","ios":"levelo://app?vid=6544427c-4ad2-4d31-bf03-c4d17c5f3bfe"},"vehicle_type_id":"4","last_reported":1740561009,"current_range_meters":13600,"station_id":"ce4bhh92rcd13ifvqfh0","pricing_plan_id":"cebpf4jnsgd1na2vs0mg"},{"bike_id":"08c451e6-287b-4a75-8206-3b951482ba7c","system_id":"levelo_inurba_marseille","lat":43.28998,"lon":5.35621,"is_reserved":false,"is_disabled":false,"rental_uris":{"android":"levelo://app?vid=08c451e6-287b-4a75-8206-3b951482ba7c","ios":"levelo://app?vid=08c451e6-287b-4a75-8206-3b951482ba7c"},"vehicle_type_id":"4","last_reported":1740561009,"current_range_meters":13600,"station_id":"ce4bhb92rcd13ifvqen0","pricing_plan_id":"cebpf4jnsgd1na2vs0mg"},{"bike_id":"57023fbf-61ca-460e-85b9-db15eb745ed4","system_id":"levelo_inurba_marseille","lat":43.27497,"lon":5.42452,"is_reserved":false,"is_disabled":false,"rental_uris":{"android":"levelo://app?vid=57023fbf-61ca-460e-85b9-db15eb745ed4","ios":"levelo://app?vid=57023fbf-61ca-460e-85b9-db15eb745ed4"},"vehicle_type_id":"4","last_reported":1740561009,"current_range_meters":14000,"station_id":"ce4bhn92rcd13ifvqgrg","pricing_plan_id":"cebpf4jnsgd1na2vs0mg"},{"bike_id":"881fe04c-7c47-4397-a3e0-734edb9b4474","system_id":"levelo_inurba_marseille","lat":43.303186,"lon":5.396891,"is_reserved":false,"is_disabled":false,"rental_uris":{"android":"levelo://app?vid=881fe04c-7c47-4397-a3e0-734edb9b4474","ios":"levelo://app?vid=881fe04c-7c47-4397-a3e0-734edb9b4474"},"vehicle_type_id":"4","last_reported":1740561009,"current_range_meters":14000,"station_id":"ce4bh092rcd13ifvqd20","pricing_plan_id":"cebpf4jnsgd1na2vs0mg"},{"bike_id":"20e44d31-4584-43f7-a543-b509114c447c","system_id":"levelo_inurba_marseille","lat":43.27809,"lon":5.40707,"is_reserved":false,"is_disabled":false,"rental_uris":{"android":"levelo://app?vid=20e44d31-4584-43f7-a543-b509114c447c","ios":"levelo://app?vid=20e44d31-4584-43f7-a543-b509114c447c"},"vehicle_type_id":"4","last_reported":1740561009,"current_range_meters":14000,"station_id":"ce4bhnh2rcd13ifvqgtg","pricing_plan_id":"cebpf4jnsgd1na2vs0mg"},{"bike_id":"01d9fe91-6fa6-45f0-9abb-35766365737c","system_id":"levelo_inurba_marseille","lat":43.28944,"lon":5.36643,"is_reserved":false,"is_disabled":false,"rental_uris":{"android":"levelo://app?vid=01d9fe91-6fa6-45f0-9abb-35766365737c","ios":"levelo://app?vid=01d9fe91-6fa6-45f0-9abb-35766365737c"},"vehicle_type_id":"4","last_reported":1740561009,"current_range_meters":12800,"station_id":"ce4bhap2rcd13ifvqek0","pricing_plan_id":"cebpf4jnsgd1na2vs0mg"},{"bike_id":"ff45bc92-a356-4518-9172-8c75963bfa22","system_id":"levelo_inurba_marseille","lat":43.31229,"lon":5.36857,"is_reserved":false,"is_disabled":false,"rental_uris":{"android":"levelo://app?vid=ff45bc92-a356-4518-9172-8c75963bfa22","ios":"levelo://app?vid=ff45bc92-a356-4518-9172-8c75963bfa22"},"vehicle_type_id":"4","last_reported":1740561009,"current_range_meters":14000,"station_id":"ce4bgl92rcd13ifvqbq0","pricing_plan_id":"cebpf4jnsgd1na2vs0mg"},{"bike_id":"b8779f08-75d5-4e01-9cda-7c898988967c","system_id":"levelo_inurba_marseille","lat":43.25931,"lon":5.40903,"is_reserved":false,"is_disabled":false,"rental_uris":{"android":"levelo://app?vid=b8779f08-75d5-4e01-9cda-7c898988967c","ios":"levelo://app?vid=b8779f08-75d5-4e01-9cda-7c898988967c"},"vehicle_type_id":"4","last_reported":1740561009,"current_range_meters":14800,"station_id":"ce4bhm92rcd13ifvqglg","pricing_plan_id":"cebpf4jnsgd1na2vs0mg"},{"bike_id":"56c90c05-21dd-4258-af01-641c62e92e64","system_id":"levelo_inurba_marseille","lat":43.28649,"lon":5.35091,"is_reserved":false,"is_disabled":false,"rental_uris":{"android":"levelo://app?vid=56c90c05-21dd-4258-af01-641c62e92e64","ios":"levelo://app?vid=56c90c05-21dd-4258-af01-641c62e92e64"},"vehicle_type_id":"4","last_reported":1740561009,"current_range_meters":14400,"station_id":"ce4bhch2rcd13ifvqeug","pricing_plan_id":"cebpf4jnsgd1na2vs0mg"},{"bike_id":"e5384373-a9fc-4e60-a2bd-411d2c247cd2","system_id":"levelo_inurba_marseille","lat":43.29721,"lon":5.36611,"is_reserved":false,"is_disabled":false,"rental_uris":{"android":"levelo://app?vid=e5384373-a9fc-4e60-a2bd-411d2c247cd2","ios":"levelo://app?vid=e5384373-a9fc-4e60-a2bd-411d2c247cd2"},"vehicle_type_id":"4","last_reported":1740561009,"current_range_meters":14800,"station_id":"ce4bgn12rcd13ifvqbt0","pricing_plan_id":"cebpf4jnsgd1na2vs0mg"},{"bike_id":"ae22bd30-ab33-4463-8cd4-1fd39b5d41bc","system_id":"levelo_inurba_marseille","lat":43.3054,"lon":5.3652,"is_reserved":false,"is_disabled":false,"rental_uris":{"android":"levelo://app?vid=ae22bd30-ab33-4463-8cd4-1fd39b5d41bc","ios":"levelo://app?vid=ae22bd30-ab33-4463-8cd4-1fd39b5d41bc"},"vehicle_type_id":"4","last_reported":1740561009,"current_range_meters":14800,"station_id":"ce4bgs12rcd13ifvqcag","pricing_plan_id":"cebpf4jnsgd1na2vs0mg"},{"bike_id":"d5ef1571-c6b9-4f13-96ed-bfaef3f9a56f","system_id":"levelo_inurba_marseille","lat":43.28943,"lon":5.36385,"is_reserved":false,"is_disabled":true,"rental_uris":{"android":"levelo://app?vid=d5ef1571-c6b9-4f13-96ed-bfaef3f9a56f","ios":"levelo://app?vid=d5ef1571-c6b9-4f13-96ed-bfaef3f9a56f"},"vehicle_type_id":"4","last_reported":1740561009,"current_range_meters":15200,"station_id":"ce4bhc92rcd13ifvqetg","pricing_plan_id":"cebpf4jnsgd1na2vs0mg"},{"bike_id":"02028f5d-7181-4e7f-80ba-abb06cf96801","system_id":"levelo_inurba_marseille","lat":43.28409,"lon":5.34991,"is_reserved":false,"is_disabled":false,"rental_uris":{"android":"levelo://app?vid=02028f5d-7181-4e7f-80ba-abb06cf96801","ios":"levelo://app?vid=02028f5d-7181-4e7f-80ba-abb06cf96801"},"vehicle_type_id":"4","last_reported":1740561009,"current_range_meters":14800,"station_id":"ce4bhbh2rcd13ifvqepg","pricing_plan_id":"cebpf4jnsgd1na2vs0mg"},{"bike_id":"ad9571bc-5194-4f71-90ef-f1cb0835f36e","system_id":"levelo_inurba_marseille","lat":43.25496,"lon":5.3765,"is_reserved":false,"is_disabled":false,"rental_uris":{"android":"levelo://app?vid=ad9571bc-5194-4f71-90ef-f1cb0835f36e","ios":"levelo://app?vid=ad9571bc-5194-4f71-90ef-f1cb0835f36e"},"vehicle_type_id":"4","last_reported":1740561009,"current_range_meters":14800,"station_id":"ce4bhh12rcd13ifvqff0","pricing_plan_id":"cebpf4jnsgd1na2vs0mg"},{"bike_id":"733c85d2-107c-4071-b25a-599162e6b12c","system_id":"levelo_inurba_marseille","lat":43.29875,"lon":5.39738,"is_reserved":false,"is_disabled":false,"rental_uris":{"android":"levelo://app?vid=733c85d2-107c-4071-b25a-599162e6b12c","ios":"levelo://app?vid=733c85d2-107c-4071-b25a-599162e6b12c"},"vehicle_type_id":"4","last_reported":1740561009,"current_range_meters":14800,"station_id":"ce4bh0h2rcd13ifvqd50","pricing_plan_id":"cebpf4jnsgd1na2vs0mg"},{"bike_id":"1ca5b1d5-5a53-46dd-b1b2-e83fd71df428","system_id":"levelo_inurba_marseille","lat":43.27955,"lon":5.41063,"is_reserved":false,"is_disabled":false,"rental_uris":{"android":"levelo://app?vid=1ca5b1d5-5a53-46dd-b1b2-e83fd71df428","ios":"levelo://app?vid=1ca5b1d5-5a53-46dd-b1b2-e83fd71df428"},"vehicle_type_id":"4","last_reported":1740561009,"current_range_meters":15200,"station_id":"ce4bhnp2rcd13ifvqh0g","pricing_plan_id":"cebpf4jnsgd1na2vs0mg"},{"bike_id":"4a17589c-288a-4fe3-bcca-b67dceeddf97","system_id":"levelo_inurba_marseille","lat":43.25939,"lon":5.40909,"is_reserved":false,"is_disabled":false,"rental_uris":{"android":"levelo://app?vid=4a17589c-288a-4fe3-bcca-b67dceeddf97","ios":"levelo://app?vid=4a17589c-288a-4fe3-bcca-b67dceeddf97"},"vehicle_type_id":"4","last_reported":1740561009,"current_range_meters":15200,"station_id":"ce4bhm92rcd13ifvqglg","pricing_plan_id":"cebpf4jnsgd1na2vs0mg"},{"bike_id":"b3b7c115-575b-4239-8c18-44054db2acb7","system_id":"levelo_inurba_marseille","lat":43.29298,"lon":5.37444,"is_reserved":false,"is_disabled":false,"rental_uris":{"android":"levelo://app?vid=b3b7c115-575b-4239-8c18-44054db2acb7","ios":"levelo://app?vid=b3b7c115-575b-4239-8c18-44054db2acb7"},"vehicle_type_id":"4","last_reported":1740561009,"current_range_meters":15200,"station_id":"ce4bgi12rcd13ifvqb70","pricing_plan_id":"cebpf4jnsgd1na2vs0mg"},{"bike_id":"f66913d8-adc8-4497-b81a-8613461ae8a9","system_id":"levelo_inurba_marseille","lat":43.28435,"lon":5.34988,"is_reserved":false,"is_disabled":false,"rental_uris":{"android":"levelo://app?vid=f66913d8-adc8-4497-b81a-8613461ae8a9","ios":"levelo://app?vid=f66913d8-adc8-4497-b81a-8613461ae8a9"},"vehicle_type_id":"4","last_reported":1740561009,"current_range_meters":15200,"station_id":"ce4bhbh2rcd13ifvqepg","pricing_plan_id":"cebpf4jnsgd1na2vs0mg"},{"bike_id":"32dbdfc6-9a16-48f7-91d3-22f95b0ebdc9","system_id":"levelo_inurba_marseille","lat":43.29519,"lon":5.37518,"is_reserved":false,"is_disabled":false,"rental_uris":{"android":"levelo://app?vid=32dbdfc6-9a16-48f7-91d3-22f95b0ebdc9","ios":"levelo://app?vid=32dbdfc6-9a16-48f7-91d3-22f95b0ebdc9"},"vehicle_type_id":"4","last_reported":1740561009,"current_range_meters":15200,"station_id":"ce4bgh92rcd13ifvqb50","pricing_plan_id":"cebpf4jnsgd1na2vs0mg"},{"bike_id":"620faf8f-9860-4e84-b6cd-4559a0b9a89c","system_id":"levelo_inurba_marseille","lat":43.32499,"lon":5.36568,"is_reserved":false,"is_disabled":false,"rental_uris":{"android":"levelo://app?vid=620faf8f-9860-4e84-b6cd-4559a0b9a89c","ios":"levelo://app?vid=620faf8f-9860-4e84-b6cd-4559a0b9a89c"},"vehicle_type_id":"4","last_reported":1740561009,"current_range_meters":15200,"station_id":"ce4bhs12rcd13ifvqhvg","pricing_plan_id":"cebpf4jnsgd1na2vs0mg"},{"bike_id":"40bd775e-5ce3-4948-be2f-acfa8e48e7a0","system_id":"levelo_inurba_marseille","lat":43.2863,"lon":5.35114,"is_reserved":false,"is_disabled":false,"rental_uris":{"android":"levelo://app?vid=40bd775e-5ce3-4948-be2f-acfa8e48e7a0","ios":"levelo://app?vid=40bd775e-5ce3-4948-be2f-acfa8e48e7a0"},"vehicle_type_id":"4","last_reported":1740561009,"current_range_meters":15200,"station_id":"ce4bhch2rcd13ifvqeug","pricing_plan_id":"cebpf4jnsgd1na2vs0mg"},{"bike_id":"3c0f052b-e5ac-43f8-a755-509765b18a42","system_id":"levelo_inurba_marseille","lat":43.272103,"lon":5.391744,"is_reserved":false,"is_disabled":false,"rental_uris":{"android":"levelo://app?vid=3c0f052b-e5ac-43f8-a755-509765b18a42","ios":"levelo://app?vid=3c0f052b-e5ac-43f8-a755-509765b18a42"},"vehicle_type_id":"4","last_reported":1740561009,"current_range_meters":16000,"station_id":"ce4bhg92rcd13ifvqf90","pricing_plan_id":"cebpf4jnsgd1na2vs0mg"},{"bike_id":"25411262-23d1-41bb-a382-a545d4af1ec3","system_id":"levelo_inurba_marseille","lat":43.25109,"lon":5.40326,"is_reserved":false,"is_disabled":false,"rental_uris":{"android":"levelo://app?vid=25411262-23d1-41bb-a382-a545d4af1ec3","ios":"levelo://app?vid=25411262-23d1-41bb-a382-a545d4af1ec3"},"vehicle_type_id":"4","last_reported":1740561009,"current_range_meters":15200,"station_id":"ce4bhlh2rcd13ifvqgig","pricing_plan_id":"cebpf4jnsgd1na2vs0mg"},{"bike_id":"89b1eb9a-bf92-4582-a1f6-a976f7501c41","system_id":"levelo_inurba_marseille","lat":43.2962,"lon":5.37712,"is_reserved":false,"is_disabled":true,"rental_uris":{"android":"levelo://app?vid=89b1eb9a-bf92-4582-a1f6-a976f7501c41","ios":"levelo://app?vid=89b1eb9a-bf92-4582-a1f6-a976f7501c41"},"vehicle_type_id":"4","last_reported":1740561009,"current_range_meters":16000,"station_id":"ce4bgi92rcd13ifvqb90","pricing_plan_id":"cebpf4jnsgd1na2vs0mg"},{"bike_id":"01783c60-cdd4-4925-b30f-2f3020328abe","system_id":"levelo_inurba_marseille","lat":43.254791,"lon":5.376274,"is_reserved":false,"is_disabled":false,"rental_uris":{"android":"levelo://app?vid=01783c60-cdd4-4925-b30f-2f3020328abe","ios":"levelo://app?vid=01783c60-cdd4-4925-b30f-2f3020328abe"},"vehicle_type_id":"4","last_reported":1740561009,"current_range_meters":16000,"station_id":"ce4bha12rcd13ifvqef0","pricing_plan_id":"cebpf4jnsgd1na2vs0mg"},{"bike_id":"1972610d-ec3d-42a3-8bc3-9679416a653a","system_id":"levelo_inurba_marseille","lat":43.30958,"lon":5.39036,"is_reserved":false,"is_disabled":false,"rental_uris":{"android":"levelo://app?vid=1972610d-ec3d-42a3-8bc3-9679416a653a","ios":"levelo://app?vid=1972610d-ec3d-42a3-8bc3-9679416a653a"},"vehicle_type_id":"4","last_reported":1740561009,"current_range_meters":16000,"station_id":"ce4bgup2rcd13ifvqco0","pricing_plan_id":"cebpf4jnsgd1na2vs0mg"},{"bike_id":"672284c4-8a22-4ac3-8fe3-f31664c58913","system_id":"levelo_inurba_marseille","lat":43.28107,"lon":5.37832,"is_reserved":false,"is_disabled":false,"rental_uris":{"android":"levelo://app?vid=672284c4-8a22-4ac3-8fe3-f31664c58913","ios":"levelo://app?vid=672284c4-8a22-4ac3-8fe3-f31664c58913"},"vehicle_type_id":"4","last_reported":1740561009,"current_range_meters":16000,"station_id":"ce4bha12rcd13ifvqee0","pricing_plan_id":"cebpf4jnsgd1na2vs0mg"},{"bike_id":"b71bd6d6-170b-4d32-8019-0f5f4edcec6b","system_id":"levelo_inurba_marseille","lat":43.26781,"lon":5.39424,"is_reserved":false,"is_disabled":false,"rental_uris":{"android":"levelo://app?vid=b71bd6d6-170b-4d32-8019-0f5f4edcec6b","ios":"levelo://app?vid=b71bd6d6-170b-4d32-8019-0f5f4edcec6b"},"vehicle_type_id":"4","last_reported":1740561009,"current_range_meters":16000,"station_id":"ce4bhh12rcd13ifvqfg0","pricing_plan_id":"cebpf4jnsgd1na2vs0mg"},{"bike_id":"474cdf3b-0dd6-4cec-bf41-6146ab957ab7","system_id":"levelo_inurba_marseille","lat":43.337444,"lon":5.374475,"is_reserved":false,"is_disabled":false,"rental_uris":{"android":"levelo://app?vid=474cdf3b-0dd6-4cec-bf41-6146ab957ab7","ios":"levelo://app?vid=474cdf3b-0dd6-4cec-bf41-6146ab957ab7"},"vehicle_type_id":"4","last_reported":1740561009,"current_range_meters":16000,"station_id":"ce4bh0h2rcd13ifvqd50","pricing_plan_id":"cebpf4jnsgd1na2vs0mg"},{"bike_id":"3d0cfae3-d6fa-4ae2-b51a-09fe3f2713dd","system_id":"levelo_inurba_marseille","lat":43.29081,"lon":5.37181,"is_reserved":false,"is_disabled":false,"rental_uris":{"android":"levelo://app?vid=3d0cfae3-d6fa-4ae2-b51a-09fe3f2713dd","ios":"levelo://app?vid=3d0cfae3-d6fa-4ae2-b51a-09fe3f2713dd"},"vehicle_type_id":"4","last_reported":1740561009,"current_range_meters":15200,"station_id":"ce4bh5p2rcd13ifvqe4g","pricing_plan_id":"cebpf4jnsgd1na2vs0mg"},{"bike_id":"cc7c7ef5-e2e0-41ab-a774-6ee61deda0ba","system_id":"levelo_inurba_marseille","lat":43.3117,"lon":5.3873,"is_reserved":false,"is_disabled":false,"rental_uris":{"android":"levelo://app?vid=cc7c7ef5-e2e0-41ab-a774-6ee61deda0ba","ios":"levelo://app?vid=cc7c7ef5-e2e0-41ab-a774-6ee61deda0ba"},"vehicle_type_id":"4","last_reported":1740561009,"current_range_meters":15200,"station_id":"ce4bgv12rcd13ifvqcp0","pricing_plan_id":"cebpf4jnsgd1na2vs0mg"},{"bike_id":"73cc0fd1-b5b6-4198-82e0-228c9be7381c","system_id":"levelo_inurba_marseille","lat":43.26959,"lon":5.38629,"is_reserved":false,"is_disabled":false,"rental_uris":{"android":"levelo://app?vid=73cc0fd1-b5b6-4198-82e0-228c9be7381c","ios":"levelo://app?vid=73cc0fd1-b5b6-4198-82e0-228c9be7381c"},"vehicle_type_id":"4","last_reported":1740561009,"current_range_meters":16000,"station_id":"ce4bhh92rcd13ifvqfh0","pricing_plan_id":"cebpf4jnsgd1na2vs0mg"},{"bike_id":"7448c7c6-72ed-4c1c-9606-6d0770e476d8","system_id":"levelo_inurba_marseille","lat":43.29967,"lon":5.37179,"is_reserved":false,"is_disabled":false,"rental_uris":{"android":"levelo://app?vid=7448c7c6-72ed-4c1c-9606-6d0770e476d8","ios":"levelo://app?vid=7448c7c6-72ed-4c1c-9606-6d0770e476d8"},"vehicle_type_id":"4","last_reported":1740561009,"current_range_meters":16000,"station_id":"ce4bgr92rcd13ifvqc7g","pricing_plan_id":"cebpf4jnsgd1na2vs0mg"},{"bike_id":"0561577e-2525-455e-92b8-6da786fc4574","system_id":"levelo_inurba_marseille","lat":43.28156,"lon":5.42661,"is_reserved":false,"is_disabled":false,"rental_uris":{"android":"levelo://app?vid=0561577e-2525-455e-92b8-6da786fc4574","ios":"levelo://app?vid=0561577e-2525-455e-92b8-6da786fc4574"},"vehicle_type_id":"4","last_reported":1740561009,"current_range_meters":16000,"station_id":"ce4bhnh2rcd13ifvqgug","pricing_plan_id":"cebpf4jnsgd1na2vs0mg"},{"bike_id":"175fb134-3822-43e0-872e-60401631dc2c","system_id":"levelo_inurba_marseille","lat":43.24078,"lon":5.37759,"is_reserved":false,"is_disabled":false,"rental_uris":{"android":"levelo://app?vid=175fb134-3822-43e0-872e-60401631dc2c","ios":"levelo://app?vid=175fb134-3822-43e0-872e-60401631dc2c"},"vehicle_type_id":"4","last_reported":1740561009,"current_range_meters":16000,"station_id":"ce4bhnp2rcd13ifvqgvg","pricing_plan_id":"cebpf4jnsgd1na2vs0mg"},{"bike_id":"dc340825-e06e-40ac-ae46-973db298fabe","system_id":"levelo_inurba_marseille","lat":43.26675,"lon":5.38221,"is_reserved":false,"is_disabled":false,"rental_uris":{"android":"levelo://app?vid=dc340825-e06e-40ac-ae46-973db298fabe","ios":"levelo://app?vid=dc340825-e06e-40ac-ae46-973db298fabe"},"vehicle_type_id":"4","last_reported":1740561009,"current_range_meters":16400,"station_id":"ce4bhg92rcd13ifvqf90","pricing_plan_id":"cebpf4jnsgd1na2vs0mg"},{"bike_id":"41bcbd39-dc6c-4708-80c1-49116771c9e4","system_id":"levelo_inurba_marseille","lat":43.289414,"lon":5.366556,"is_reserved":false,"is_disabled":false,"rental_uris":{"android":"levelo://app?vid=41bcbd39-dc6c-4708-80c1-49116771c9e4","ios":"levelo://app?vid=41bcbd39-dc6c-4708-80c1-49116771c9e4"},"vehicle_type_id":"4","last_reported":1740561009,"current_range_meters":16000,"station_id":"ce4bhap2rcd13ifvqek0","pricing_plan_id":"cebpf4jnsgd1na2vs0mg"},{"bike_id":"f3c1842a-b552-4e04-b90a-c61f62f8a561","system_id":"levelo_inurba_marseille","lat":43.26189,"lon":5.37467,"is_reserved":false,"is_disabled":false,"rental_uris":{"android":"levelo://app?vid=f3c1842a-b552-4e04-b90a-c61f62f8a561","ios":"levelo://app?vid=f3c1842a-b552-4e04-b90a-c61f62f8a561"},"vehicle_type_id":"4","last_reported":1740561009,"current_range_meters":16400,"station_id":"ce4bhgp2rcd13ifvqfc0","pricing_plan_id":"cebpf4jnsgd1na2vs0mg"},{"bike_id":"43375c15-2ac3-415e-bf0d-5453f795f938","system_id":"levelo_inurba_marseille","lat":43.309529,"lon":5.390362,"is_reserved":false,"is_disabled":false,"rental_uris":{"android":"levelo://app?vid=43375c15-2ac3-415e-bf0d-5453f795f938","ios":"levelo://app?vid=43375c15-2ac3-415e-bf0d-5453f795f938"},"vehicle_type_id":"4","last_reported":1740561009,"current_range_meters":16000,"station_id":"ce4bgjp2rcd13ifvqbh0","pricing_plan_id":"cebpf4jnsgd1na2vs0mg"},{"bike_id":"0dbfe16e-a5c9-478b-92c2-21eecde69568","system_id":"levelo_inurba_marseille","lat":43.28851,"lon":5.39324,"is_reserved":false,"is_disabled":false,"rental_uris":{"android":"levelo://app?vid=0dbfe16e-a5c9-478b-92c2-21eecde69568","ios":"levelo://app?vid=0dbfe16e-a5c9-478b-92c2-21eecde69568"},"vehicle_type_id":"4","last_reported":1740561009,"current_range_meters":16400,"station_id":"ce4bh2p2rcd13ifvqdi0","pricing_plan_id":"cebpf4jnsgd1na2vs0mg"},{"bike_id":"af9da322-8a73-40b1-bc30-9bde4331cc08","system_id":"levelo_inurba_marseille","lat":43.29986,"lon":5.37185,"is_reserved":false,"is_disabled":false,"rental_uris":{"android":"levelo://app?vid=af9da322-8a73-40b1-bc30-9bde4331cc08","ios":"levelo://app?vid=af9da322-8a73-40b1-bc30-9bde4331cc08"},"vehicle_type_id":"4","last_reported":1740561009,"current_range_meters":16400,"station_id":"ce4bgr92rcd13ifvqc7g","pricing_plan_id":"cebpf4jnsgd1na2vs0mg"},{"bike_id":"dde4bb75-96fa-4181-9445-cd7388922872","system_id":"levelo_inurba_marseille","lat":43.30556,"lon":5.36692,"is_reserved":false,"is_disabled":false,"rental_uris":{"android":"levelo://app?vid=dde4bb75-96fa-4181-9445-cd7388922872","ios":"levelo://app?vid=dde4bb75-96fa-4181-9445-cd7388922872"},"vehicle_type_id":"4","last_reported":1740561009,"current_range_meters":16400,"station_id":"ce4bgrp2rcd13ifvqc9g","pricing_plan_id":"cebpf4jnsgd1na2vs0mg"},{"bike_id":"504ecfe8-fa9b-4636-9619-b03f323b8793","system_id":"levelo_inurba_marseille","lat":43.29713,"lon":5.37698,"is_reserved":false,"is_disabled":false,"rental_uris":{"android":"levelo://app?vid=504ecfe8-fa9b-4636-9619-b03f323b8793","ios":"levelo://app?vid=504ecfe8-fa9b-4636-9619-b03f323b8793"},"vehicle_type_id":"4","last_reported":1740561009,"current_range_meters":16400,"station_id":"ce4bgkh2rcd13ifvqbl0","pricing_plan_id":"cebpf4jnsgd1na2vs0mg"},{"bike_id":"7ac82a98-f2e6-4915-922a-da0a36222b9f","system_id":"levelo_inurba_marseille","lat":43.2591,"lon":5.40919,"is_reserved":false,"is_disabled":false,"rental_uris":{"android":"levelo://app?vid=7ac82a98-f2e6-4915-922a-da0a36222b9f","ios":"levelo://app?vid=7ac82a98-f2e6-4915-922a-da0a36222b9f"},"vehicle_type_id":"4","last_reported":1740561009,"current_range_meters":16400,"station_id":"ce4bhm92rcd13ifvqglg","pricing_plan_id":"cebpf4jnsgd1na2vs0mg"},{"bike_id":"9dc7e2d5-119c-4c57-96cd-7fcca21c9c6c","system_id":"levelo_inurba_marseille","lat":43.32479,"lon":5.36571,"is_reserved":false,"is_disabled":false,"rental_uris":{"android":"levelo://app?vid=9dc7e2d5-119c-4c57-96cd-7fcca21c9c6c","ios":"levelo://app?vid=9dc7e2d5-119c-4c57-96cd-7fcca21c9c6c"},"vehicle_type_id":"4","last_reported":1740561009,"current_range_meters":16400,"station_id":"ce4bhs12rcd13ifvqhvg","pricing_plan_id":"cebpf4jnsgd1na2vs0mg"},{"bike_id":"8d814be1-0a5b-427d-b58a-926a7a1415f0","system_id":"levelo_inurba_marseille","lat":43.240814,"lon":5.377495,"is_reserved":false,"is_disabled":false,"rental_uris":{"android":"levelo://app?vid=8d814be1-0a5b-427d-b58a-926a7a1415f0","ios":"levelo://app?vid=8d814be1-0a5b-427d-b58a-926a7a1415f0"},"vehicle_type_id":"4","last_reported":1740561009,"current_range_meters":16400,"station_id":"ce4bhih2rcd13ifvqfr0","pricing_plan_id":"cebpf4jnsgd1na2vs0mg"},{"bike_id":"3fefd632-ceb6-4e6f-ac3b-6af1be92e2b5","system_id":"levelo_inurba_marseille","lat":43.23183,"lon":5.4001,"is_reserved":false,"is_disabled":false,"rental_uris":{"android":"levelo://app?vid=3fefd632-ceb6-4e6f-ac3b-6af1be92e2b5","ios":"levelo://app?vid=3fefd632-ceb6-4e6f-ac3b-6af1be92e2b5"},"vehicle_type_id":"4","last_reported":1740561009,"current_range_meters":16400,"station_id":"ce4bhn12rcd13ifvqgqg","pricing_plan_id":"cebpf4jnsgd1na2vs0mg"},{"bike_id":"04b17830-3c9d-49a3-8254-3247c395e42f","system_id":"levelo_inurba_marseille","lat":43.32371,"lon":5.3889,"is_reserved":false,"is_disabled":false,"rental_uris":{"android":"levelo://app?vid=04b17830-3c9d-49a3-8254-3247c395e42f","ios":"levelo://app?vid=04b17830-3c9d-49a3-8254-3247c395e42f"},"vehicle_type_id":"4","last_reported":1740561009,"current_range_meters":16400,"station_id":"","pricing_plan_id":"cebpf4jnsgd1na2vs0mg"},{"bike_id":"b880d7e4-d526-4370-a8ca-ccc9630ef2cc","system_id":"levelo_inurba_marseille","lat":43.30969,"lon":5.39043,"is_reserved":false,"is_disabled":false,"rental_uris":{"android":"levelo://app?vid=b880d7e4-d526-4370-a8ca-ccc9630ef2cc","ios":"levelo://app?vid=b880d7e4-d526-4370-a8ca-ccc9630ef2cc"},"vehicle_type_id":"4","last_reported":1740561009,"current_range_meters":16400,"station_id":"ce4bgup2rcd13ifvqco0","pricing_plan_id":"cebpf4jnsgd1na2vs0mg"},{"bike_id":"0e02e91c-0d7a-41e4-9d58-37bd8f9106d1","system_id":"levelo_inurba_marseille","lat":43.24189,"lon":5.39703,"is_reserved":false,"is_disabled":false,"rental_uris":{"android":"levelo://app?vid=0e02e91c-0d7a-41e4-9d58-37bd8f9106d1","ios":"levelo://app?vid=0e02e91c-0d7a-41e4-9d58-37bd8f9106d1"},"vehicle_type_id":"4","last_reported":1740561009,"current_range_meters":16400,"station_id":"ce4bhn12rcd13ifvqgpg","pricing_plan_id":"cebpf4jnsgd1na2vs0mg"},{"bike_id":"b54c0c77-a568-4419-8a53-721954a3d5ef","system_id":"levelo_inurba_marseille","lat":43.27701,"lon":5.4154,"is_reserved":false,"is_disabled":false,"rental_uris":{"android":"levelo://app?vid=b54c0c77-a568-4419-8a53-721954a3d5ef","ios":"levelo://app?vid=b54c0c77-a568-4419-8a53-721954a3d5ef"},"vehicle_type_id":"4","last_reported":1740561009,"current_range_meters":16800,"station_id":"","pricing_plan_id":"cebpf4jnsgd1na2vs0mg"},{"bike_id":"aada47c6-4b3a-41ce-97dd-a63194114a19","system_id":"levelo_inurba_marseille","lat":43.31267,"lon":5.40181,"is_reserved":false,"is_disabled":true,"rental_uris":{"android":"levelo://app?vid=aada47c6-4b3a-41ce-97dd-a63194114a19","ios":"levelo://app?vid=aada47c6-4b3a-41ce-97dd-a63194114a19"},"vehicle_type_id":"4","last_reported":1740561009,"current_range_meters":16400,"station_id":"ce4bh092rcd13ifvqd30","pricing_plan_id":"cebpf4jnsgd1na2vs0mg"},{"bike_id":"17973595-0627-4cbe-be09-6d52168568c1","system_id":"levelo_inurba_marseille","lat":43.27836,"lon":5.40727,"is_reserved":false,"is_disabled":false,"rental_uris":{"android":"levelo://app?vid=17973595-0627-4cbe-be09-6d52168568c1","ios":"levelo://app?vid=17973595-0627-4cbe-be09-6d52168568c1"},"vehicle_type_id":"4","last_reported":1740561009,"current_range_meters":16400,"station_id":"ce4bhnh2rcd13ifvqgtg","pricing_plan_id":"cebpf4jnsgd1na2vs0mg"},{"bike_id":"19e4983d-b74d-4524-9c14-80fb6905f947","system_id":"levelo_inurba_marseille","lat":43.32105,"lon":5.36767,"is_reserved":false,"is_disabled":false,"rental_uris":{"android":"levelo://app?vid=19e4983d-b74d-4524-9c14-80fb6905f947","ios":"levelo://app?vid=19e4983d-b74d-4524-9c14-80fb6905f947"},"vehicle_type_id":"4","last_reported":1740561009,"current_range_meters":16400,"station_id":"ce4bhrh2rcd13ifvqhug","pricing_plan_id":"cebpf4jnsgd1na2vs0mg"},{"bike_id":"d0eed576-967a-4a22-90f0-1b8c0372f57a","system_id":"levelo_inurba_marseille","lat":43.250107,"lon":5.389191,"is_reserved":false,"is_disabled":false,"rental_uris":{"android":"levelo://app?vid=d0eed576-967a-4a22-90f0-1b8c0372f57a","ios":"levelo://app?vid=d0eed576-967a-4a22-90f0-1b8c0372f57a"},"vehicle_type_id":"4","last_reported":1740561009,"current_range_meters":16800,"station_id":"ce4bhgp2rcd13ifvqfd0","pricing_plan_id":"cebpf4jnsgd1na2vs0mg"},{"bike_id":"b8af5e00-cc59-4102-8d9a-341706ce36ca","system_id":"levelo_inurba_marseille","lat":43.26564,"lon":5.39006,"is_reserved":false,"is_disabled":false,"rental_uris":{"android":"levelo://app?vid=b8af5e00-cc59-4102-8d9a-341706ce36ca","ios":"levelo://app?vid=b8af5e00-cc59-4102-8d9a-341706ce36ca"},"vehicle_type_id":"4","last_reported":1740561009,"current_range_meters":16800,"station_id":"ce4bhe12rcd13ifvqf30","pricing_plan_id":"cebpf4jnsgd1na2vs0mg"},{"bike_id":"c653bffd-d711-4c0b-9be3-ba0ded1a55f8","system_id":"levelo_inurba_marseille","lat":43.27961,"lon":5.41033,"is_reserved":false,"is_disabled":false,"rental_uris":{"android":"levelo://app?vid=c653bffd-d711-4c0b-9be3-ba0ded1a55f8","ios":"levelo://app?vid=c653bffd-d711-4c0b-9be3-ba0ded1a55f8"},"vehicle_type_id":"4","last_reported":1740561009,"current_range_meters":16800,"station_id":"ce4bhnp2rcd13ifvqh0g","pricing_plan_id":"cebpf4jnsgd1na2vs0mg"},{"bike_id":"2c3593e7-2301-42c9-a3f6-8aed63ec9736","system_id":"levelo_inurba_marseille","lat":43.27912,"lon":5.39579,"is_reserved":false,"is_disabled":false,"rental_uris":{"android":"levelo://app?vid=2c3593e7-2301-42c9-a3f6-8aed63ec9736","ios":"levelo://app?vid=2c3593e7-2301-42c9-a3f6-8aed63ec9736"},"vehicle_type_id":"4","last_reported":1740561009,"current_range_meters":17600,"station_id":"ce4bhf92rcd13ifvqf40","pricing_plan_id":"cebpf4jnsgd1na2vs0mg"},{"bike_id":"76fdf9d3-5524-4c25-9632-1a312033a49a","system_id":"levelo_inurba_marseille","lat":43.29577,"lon":5.37517,"is_reserved":false,"is_disabled":false,"rental_uris":{"android":"levelo://app?vid=76fdf9d3-5524-4c25-9632-1a312033a49a","ios":"levelo://app?vid=76fdf9d3-5524-4c25-9632-1a312033a49a"},"vehicle_type_id":"4","last_reported":1740561009,"current_range_meters":16800,"station_id":"ce4bgh92rcd13ifvqb50","pricing_plan_id":"cebpf4jnsgd1na2vs0mg"},{"bike_id":"4a1ad47f-2773-4897-8cba-c67679113501","system_id":"levelo_inurba_marseille","lat":43.30526,"lon":5.36522,"is_reserved":false,"is_disabled":false,"rental_uris":{"android":"levelo://app?vid=4a1ad47f-2773-4897-8cba-c67679113501","ios":"levelo://app?vid=4a1ad47f-2773-4897-8cba-c67679113501"},"vehicle_type_id":"4","last_reported":1740561009,"current_range_meters":16800,"station_id":"ce4bgs12rcd13ifvqcag","pricing_plan_id":"cebpf4jnsgd1na2vs0mg"},{"bike_id":"658e10dc-9ec8-4c82-a86c-f0d37535b96d","system_id":"levelo_inurba_marseille","lat":43.23188,"lon":5.39995,"is_reserved":false,"is_disabled":false,"rental_uris":{"android":"levelo://app?vid=658e10dc-9ec8-4c82-a86c-f0d37535b96d","ios":"levelo://app?vid=658e10dc-9ec8-4c82-a86c-f0d37535b96d"},"vehicle_type_id":"4","last_reported":1740561009,"current_range_meters":16800,"station_id":"ce4bhn12rcd13ifvqgqg","pricing_plan_id":"cebpf4jnsgd1na2vs0mg"},{"bike_id":"ec93b1ef-29a7-4f33-9814-2d676efe237f","system_id":"levelo_inurba_marseille","lat":43.27053,"lon":5.40262,"is_reserved":false,"is_disabled":false,"rental_uris":{"android":"levelo://app?vid=ec93b1ef-29a7-4f33-9814-2d676efe237f","ios":"levelo://app?vid=ec93b1ef-29a7-4f33-9814-2d676efe237f"},"vehicle_type_id":"4","last_reported":1740561009,"current_range_meters":16800,"station_id":"ce4bhk92rcd13ifvqgc0","pricing_plan_id":"cebpf4jnsgd1na2vs0mg"},{"bike_id":"d8ef3c91-c4e2-4c8e-92b6-edcf891c5c15","system_id":"levelo_inurba_marseille","lat":43.3107,"lon":5.38369,"is_reserved":false,"is_disabled":false,"rental_uris":{"android":"levelo://app?vid=d8ef3c91-c4e2-4c8e-92b6-edcf891c5c15","ios":"levelo://app?vid=d8ef3c91-c4e2-4c8e-92b6-edcf891c5c15"},"vehicle_type_id":"4","last_reported":1740561009,"current_range_meters":17200,"station_id":"ce4bgv92rcd13ifvqcr0","pricing_plan_id":"cebpf4jnsgd1na2vs0mg"},{"bike_id":"7f5dbe42-da8b-47f5-9beb-ac4cf767c9c8","system_id":"levelo_inurba_marseille","lat":43.31329,"lon":5.36808,"is_reserved":false,"is_disabled":false,"rental_uris":{"android":"levelo://app?vid=7f5dbe42-da8b-47f5-9beb-ac4cf767c9c8","ios":"levelo://app?vid=7f5dbe42-da8b-47f5-9beb-ac4cf767c9c8"},"vehicle_type_id":"4","last_reported":1740561009,"current_range_meters":17200,"station_id":"ce4bgl92rcd13ifvqbq0","pricing_plan_id":"cebpf4jnsgd1na2vs0mg"},{"bike_id":"9c9b783e-fc43-40ea-9266-f1ccc50ef259","system_id":"levelo_inurba_marseille","lat":43.278149,"lon":5.4072,"is_reserved":false,"is_disabled":false,"rental_uris":{"android":"levelo://app?vid=9c9b783e-fc43-40ea-9266-f1ccc50ef259","ios":"levelo://app?vid=9c9b783e-fc43-40ea-9266-f1ccc50ef259"},"vehicle_type_id":"4","last_reported":1740561009,"current_range_meters":18800,"station_id":"ce4bhnh2rcd13ifvqgtg","pricing_plan_id":"cebpf4jnsgd1na2vs0mg"},{"bike_id":"245c9ee4-a552-4737-8cda-71747db953a0","system_id":"levelo_inurba_marseille","lat":43.25002,"lon":5.38918,"is_reserved":false,"is_disabled":true,"rental_uris":{"android":"levelo://app?vid=245c9ee4-a552-4737-8cda-71747db953a0","ios":"levelo://app?vid=245c9ee4-a552-4737-8cda-71747db953a0"},"vehicle_type_id":"4","last_reported":1740561009,"current_range_meters":18800,"station_id":"ce4bhgp2rcd13ifvqfd0","pricing_plan_id":"cebpf4jnsgd1na2vs0mg"},{"bike_id":"072059ca-b533-4201-a9d8-cc256662ae7d","system_id":"levelo_inurba_marseille","lat":43.23141,"lon":5.43726,"is_reserved":false,"is_disabled":false,"rental_uris":{"android":"levelo://app?vid=072059ca-b533-4201-a9d8-cc256662ae7d","ios":"levelo://app?vid=072059ca-b533-4201-a9d8-cc256662ae7d"},"vehicle_type_id":"4","last_reported":1740561009,"current_range_meters":17200,"station_id":"ce4bhmp2rcd13ifvqgog","pricing_plan_id":"cebpf4jnsgd1na2vs0mg"},{"bike_id":"c1f5384a-71a2-4dad-80de-d395c09980f5","system_id":"levelo_inurba_marseille","lat":43.31389,"lon":5.36694,"is_reserved":false,"is_disabled":false,"rental_uris":{"android":"levelo://app?vid=c1f5384a-71a2-4dad-80de-d395c09980f5","ios":"levelo://app?vid=c1f5384a-71a2-4dad-80de-d395c09980f5"},"vehicle_type_id":"4","last_reported":1740561009,"current_range_meters":18800,"station_id":"","pricing_plan_id":"cebpf4jnsgd1na2vs0mg"},{"bike_id":"d52621a7-0a55-4e5b-8a76-da13389902cc","system_id":"levelo_inurba_marseille","lat":43.25345,"lon":5.42596,"is_reserved":false,"is_disabled":false,"rental_uris":{"android":"levelo://app?vid=d52621a7-0a55-4e5b-8a76-da13389902cc","ios":"levelo://app?vid=d52621a7-0a55-4e5b-8a76-da13389902cc"},"vehicle_type_id":"4","last_reported":1740561009,"current_range_meters":17200,"station_id":"","pricing_plan_id":"cebpf4jnsgd1na2vs0mg"},{"bike_id":"d79740e8-2b58-4dab-9092-7c075618d6db","system_id":"levelo_inurba_marseille","lat":43.23194,"lon":5.39978,"is_reserved":false,"is_disabled":false,"rental_uris":{"android":"levelo://app?vid=d79740e8-2b58-4dab-9092-7c075618d6db","ios":"levelo://app?vid=d79740e8-2b58-4dab-9092-7c075618d6db"},"vehicle_type_id":"4","last_reported":1740561009,"current_range_meters":17200,"station_id":"ce4bhn12rcd13ifvqgqg","pricing_plan_id":"cebpf4jnsgd1na2vs0mg"},{"bike_id":"4f078033-1ccf-4cb1-8dc6-47fc9002c401","system_id":"levelo_inurba_marseille","lat":43.27506,"lon":5.42462,"is_reserved":false,"is_disabled":false,"rental_uris":{"android":"levelo://app?vid=4f078033-1ccf-4cb1-8dc6-47fc9002c401","ios":"levelo://app?vid=4f078033-1ccf-4cb1-8dc6-47fc9002c401"},"vehicle_type_id":"4","last_reported":1740561009,"current_range_meters":17200,"station_id":"ce4bhn92rcd13ifvqgrg","pricing_plan_id":"cebpf4jnsgd1na2vs0mg"},{"bike_id":"75886ce9-2965-4560-bc9c-0eb7160bbeed","system_id":"levelo_inurba_marseille","lat":43.24068,"lon":5.37794,"is_reserved":false,"is_disabled":false,"rental_uris":{"android":"levelo://app?vid=75886ce9-2965-4560-bc9c-0eb7160bbeed","ios":"levelo://app?vid=75886ce9-2965-4560-bc9c-0eb7160bbeed"},"vehicle_type_id":"4","last_reported":1740561009,"current_range_meters":17200,"station_id":"ce4bhnp2rcd13ifvqgvg","pricing_plan_id":"cebpf4jnsgd1na2vs0mg"},{"bike_id":"9eb63fb4-7dd1-4ed8-8c98-37f9165028cf","system_id":"levelo_inurba_marseille","lat":43.3176,"lon":5.39016,"is_reserved":false,"is_disabled":false,"rental_uris":{"android":"levelo://app?vid=9eb63fb4-7dd1-4ed8-8c98-37f9165028cf","ios":"levelo://app?vid=9eb63fb4-7dd1-4ed8-8c98-37f9165028cf"},"vehicle_type_id":"4","last_reported":1740561009,"current_range_meters":17600,"station_id":"ce4bhqp2rcd13ifvqhng","pricing_plan_id":"cebpf4jnsgd1na2vs0mg"},{"bike_id":"f35d6126-178c-4c08-8343-6bcc4ce94aad","system_id":"levelo_inurba_marseille","lat":43.24181,"lon":5.3973,"is_reserved":false,"is_disabled":false,"rental_uris":{"android":"levelo://app?vid=f35d6126-178c-4c08-8343-6bcc4ce94aad","ios":"levelo://app?vid=f35d6126-178c-4c08-8343-6bcc4ce94aad"},"vehicle_type_id":"4","last_reported":1740561009,"current_range_meters":17600,"station_id":"ce4bhn12rcd13ifvqgpg","pricing_plan_id":"cebpf4jnsgd1na2vs0mg"},{"bike_id":"7c2ac46c-f06f-4ddc-8135-c4348d55fa7b","system_id":"levelo_inurba_marseille","lat":43.32488,"lon":5.36566,"is_reserved":false,"is_disabled":false,"rental_uris":{"android":"levelo://app?vid=7c2ac46c-f06f-4ddc-8135-c4348d55fa7b","ios":"levelo://app?vid=7c2ac46c-f06f-4ddc-8135-c4348d55fa7b"},"vehicle_type_id":"4","last_reported":1740561009,"current_range_meters":17600,"station_id":"ce4bhs12rcd13ifvqhvg","pricing_plan_id":"cebpf4jnsgd1na2vs0mg"},{"bike_id":"f1de0992-68c7-4ed1-bdd1-630b39d23f3a","system_id":"levelo_inurba_marseille","lat":43.29296,"lon":5.37454,"is_reserved":false,"is_disabled":false,"rental_uris":{"android":"levelo://app?vid=f1de0992-68c7-4ed1-bdd1-630b39d23f3a","ios":"levelo://app?vid=f1de0992-68c7-4ed1-bdd1-630b39d23f3a"},"vehicle_type_id":"4","last_reported":1740561009,"current_range_meters":17600,"station_id":"ce4bgi12rcd13ifvqb70","pricing_plan_id":"cebpf4jnsgd1na2vs0mg"},{"bike_id":"c72b354a-7ac8-4b70-a688-e6c0ed969746","system_id":"levelo_inurba_marseille","lat":43.29311,"lon":5.37189,"is_reserved":false,"is_disabled":true,"rental_uris":{"android":"levelo://app?vid=c72b354a-7ac8-4b70-a688-e6c0ed969746","ios":"levelo://app?vid=c72b354a-7ac8-4b70-a688-e6c0ed969746"},"vehicle_type_id":"4","last_reported":1740561009,"current_range_meters":18000,"station_id":"ce4bgh92rcd13ifvqb40","pricing_plan_id":"cebpf4jnsgd1na2vs0mg"},{"bike_id":"13f1778f-e662-4fb9-a7f2-9a7d539aed57","system_id":"levelo_inurba_marseille","lat":43.29034,"lon":5.37564,"is_reserved":false,"is_disabled":false,"rental_uris":{"android":"levelo://app?vid=13f1778f-e662-4fb9-a7f2-9a7d539aed57","ios":"levelo://app?vid=13f1778f-e662-4fb9-a7f2-9a7d539aed57"},"vehicle_type_id":"4","last_reported":1740561009,"current_range_meters":18000,"station_id":"ce4bh692rcd13ifvqe90","pricing_plan_id":"cebpf4jnsgd1na2vs0mg"},{"bike_id":"7d99f3d8-234e-4d01-b370-daaf67258659","system_id":"levelo_inurba_marseille","lat":43.2705,"lon":5.40265,"is_reserved":false,"is_disabled":false,"rental_uris":{"android":"levelo://app?vid=7d99f3d8-234e-4d01-b370-daaf67258659","ios":"levelo://app?vid=7d99f3d8-234e-4d01-b370-daaf67258659"},"vehicle_type_id":"4","last_reported":1740561009,"current_range_meters":18000,"station_id":"ce4bhk92rcd13ifvqgc0","pricing_plan_id":"cebpf4jnsgd1na2vs0mg"},{"bike_id":"f9eed1e4-1895-44e2-8624-cc9551693ed5","system_id":"levelo_inurba_marseille","lat":43.2985,"lon":5.36291,"is_reserved":false,"is_disabled":false,"rental_uris":{"android":"levelo://app?vid=f9eed1e4-1895-44e2-8624-cc9551693ed5","ios":"levelo://app?vid=f9eed1e4-1895-44e2-8624-cc9551693ed5"},"vehicle_type_id":"4","last_reported":1740561009,"current_range_meters":18000,"station_id":"ce4bgpp2rcd13ifvqc3g","pricing_plan_id":"cebpf4jnsgd1na2vs0mg"},{"bike_id":"a567e915-6ada-49d9-8a11-d1ea39f71022","system_id":"levelo_inurba_marseille","lat":43.30535,"lon":5.36711,"is_reserved":false,"is_disabled":false,"rental_uris":{"android":"levelo://app?vid=a567e915-6ada-49d9-8a11-d1ea39f71022","ios":"levelo://app?vid=a567e915-6ada-49d9-8a11-d1ea39f71022"},"vehicle_type_id":"4","last_reported":1740561009,"current_range_meters":18000,"station_id":"ce4bgrp2rcd13ifvqc9g","pricing_plan_id":"cebpf4jnsgd1na2vs0mg"},{"bike_id":"9ef6abe4-77b0-4f5c-a72a-8df5ca1aec1c","system_id":"levelo_inurba_marseille","lat":43.2886,"lon":5.3585,"is_reserved":false,"is_disabled":false,"rental_uris":{"android":"levelo://app?vid=9ef6abe4-77b0-4f5c-a72a-8df5ca1aec1c","ios":"levelo://app?vid=9ef6abe4-77b0-4f5c-a72a-8df5ca1aec1c"},"vehicle_type_id":"4","last_reported":1740561009,"current_range_meters":18000,"station_id":"ce4bhb12rcd13ifvqem0","pricing_plan_id":"cebpf4jnsgd1na2vs0mg"},