{"last_updated":1743209395,"ttl":60,"version":"2.2","data":{"bikes":[{"bike_id":"080c4416-56f8-4952-846c-0bfbb6e949a0","system_id":"levelo_inurba_marseille","lat":43.30869,"lon":5.37184,"is_reserved":false,"is_disabled":false,"rental_uris":{"android":"levelo://app?vid=080c4416-56f8-4952-846c-0bfbb6e949a0","ios":"levelo://app?vid=080c4416-56f8-4952-846c-0bfbb6e949a0"},"vehicle_type_id":"4","last_reported":1743209395,"current_range_meters":2800,"station_id":"ce4bguh2rcd13ifvqckg","pricing_plan_id":"cebpf4jnsgd1na2vs0mg"},{"bike_id":"17d0f0fd-7393-435f-8cf7-a14f368eb591","system_id":"levelo_inurba_marseille","lat":43.29372,"lon":5.37864,"is_reserved":false,"is_disabled":true,"rental_uris":{"android":"levelo://app?vid=17d0f0fd-7393-435f-8cf7-a14f368eb591","ios":"levelo://app?vid=17d0f0fd-7393-435f-8cf7-a14f368eb591"},"vehicle_type_id":"4","last_reported":1743209395,"current_range_meters":2800,"station_id":"ce4bgjh2rcd13ifvqbf0","pricing_plan_id":"cebpf4jnsgd1na2vs0mg"},{"bike_id":"041bc8f6-795a-484a-b4df-d4b0d78ba814","system_id":"levelo_inurba_marseille","lat":43.29382,"lon":5.37859,"is_reserved":false,"is_disabled":false,"rental_uris":{"android":"levelo://app?vid=041bc8f6-795a-484a-b4df-d4b0d78ba814","ios":"levelo://app?vid=041bc8f6-795a-484a-b4df-d4b0d78ba814"},"vehicle_type_id":"4","last_reported":1743209395,"current_range_meters":2800,"station_id":"ce4bgjh2rcd13ifvqbf0","pricing_plan_id":"cebpf4jnsgd1na2vs0mg"},{"bike_id":"c76117a5-9c66-4bf3-8abd-eb75019fc03e","system_id":"levelo_inurba_marseille","lat":43.30955,"lon":5.39031,"is_reserved":false,"is_disabled":false,"rental_uris":{"android":"levelo://app?vid=c76117a5-9c66-4bf3-8abd-eb75019fc03e","ios":"levelo://app?vid=c76117a5-9c66-4bf3-8abd-eb75019fc03e"},"vehicle_type_id":"4","last_reported":1743209395,"current_range_meters":2800,"station_id":"ce4bgup2rcd13ifvqco0","pricing_plan_id":"cebpf4jnsgd1na2vs0mg"},{"bike_id":"5e722444-0918-434d-ae8e-3fa95ef9a0a9","system_id":"levelo_inurba_marseille","lat":43.27939,"lon":5.41427,"is_reserved":false,"is_disabled":false,"rental_uris":{"android":"levelo://app?vid=5e722444-0918-434d-ae8e-3fa95ef9a0a9","ios":"levelo://app?vid=5e722444-0918-434d-ae8e-3fa95ef9a0a9"},"vehicle_type_id":"4","last_reported":1743209395,"current_range_meters":2800,"station_id":"","pricing_plan_id":"cebpf4jnsgd1na2vs0mg"},{"bike_id":"c18155db-65c7-4d5a-8c5b-923eb75c675d","system_id":"levelo_inurba_marseille","lat":43.32101,"lon":5.36783,"is_reserved":false,"is_disabled":true,"rental_uris":{"android":"levelo://app?vid=c18155db-65c7-4d5a-8c5b-923eb75c675d","ios":"levelo://app?vid=c18155db-65c7-4d5a-8c5b-923eb75c675d"},"vehicle_type_id":"4","last_reported":1743209395,"current_range_meters":2800,"station_id":"ce4bhrh2rcd13ifvqhug","pricing_plan_id":"cebpf4jnsgd1na2vs0mg"},{"bike_id":"3fb8d9f6-b1b1-4ce6-b4fc-543178a5eec3","system_id":"levelo_inurba_marseille","lat":43.29425,"lon":5.38619,"is_reserved":false,"is_disabled":true,"rental_uris":{"android":"levelo://app?vid=3fb8d9f6-b1b1-4ce6-b4fc-543178a5eec3","ios":"levelo://app?vid=3fb8d9f6-b1b1-4ce6-b4fc-543178a5eec3"},"vehicle_type_id":"4","last_reported":1743209395,"current_range_meters":2800,"station_id":"ce4bh2h2rcd13ifvqdh0","pricing_plan_id":"cebpf4jnsgd1na2vs0mg"},{"bike_id":"fc73b961-d175-4242-baa0-45156294c8b3","system_id":"levelo_inurba_marseille","lat":43.28,"lon":5.442528,"is_reserved":false,"is_disabled":false,"rental_uris":{"android":"levelo://app?vid=fc73b961-d175-4242-baa0-45156294c8b3","ios":"levelo://app?vid=fc73b961-d175-4242-baa0-45156294c8b3"},"vehicle_type_id":"4","last_reported":1743209395,"current_range_meters":2800,"station_id":"","pricing_plan_id":"cebpf4jnsgd1na2vs0mg"},{"bike_id":"559208f2-88cc-4a51-b8f6-a7d37b248229","system_id":"levelo_inurba_marseille","lat":43.30928,"lon":5.40151,"is_reserved":false,"is_disabled":false,"rental_uris":{"android":"levelo://app?vid=559208f2-88cc-4a51-b8f6-a7d37b248229","ios":"levelo://app?vid=559208f2-88cc-4a51-b8f6-a7d37b248229"},"vehicle_type_id":"4","last_reported":1743209395,"current_range_meters":2800,"station_id":"ce4bgvp2rcd13ifvqct0","pricing_plan_id":"cebpf4jnsgd1na2vs0mg"},{"bike_id":"921c4121-b0ba-48f3-954b-9b9aa50e8ed0","system_id":"levelo_inurba_marseille","lat":43.31332,"lon":5.39707,"is_reserved":false,"is_disabled":false,"rental_uris":{"android":"levelo://app?vid=921c4121-b0ba-48f3-954b-9b9aa50e8ed0","ios":"levelo://app?vid=921c4121-b0ba-48f3-954b-9b9aa50e8ed0"},"vehicle_type_id":"4","last_reported":1743209395,"current_range_meters":3200,"station_id":"ce4bgvp2rcd13ifvqcu0","pricing_plan_id":"cebpf4jnsgd1na2vs0mg"},{"bike_id":"28821ff3-da17-4d16-8beb-0aacb03fdb3b","system_id":"levelo_inurba_marseille","lat":43.30602,"lon":5.37226,"is_reserved":false,"is_disabled":false,"rental_uris":{"android":"levelo://app?vid=28821ff3-da17-4d16-8beb-0aacb03fdb3b","ios":"levelo://app?vid=28821ff3-da17-4d16-8beb-0aacb03fdb3b"},"vehicle_type_id":"4","last_reported":1743209395,"current_range_meters":3200,"station_id":"ce4bgqh2rcd13ifvqc4g","pricing_plan_id":"cebpf4jnsgd1na2vs0mg"},{"bike_id":"6a6112e9-764e-4b68-8121-cda49ed9ec7c","system_id":"levelo_inurba_marseille","lat":43.2482,"lon":5.37463,"is_reserved":false,"is_disabled":false,"rental_uris":{"android":"levelo://app?vid=6a6112e9-764e-4b68-8121-cda49ed9ec7c","ios":"levelo://app?vid=6a6112e9-764e-4b68-8121-cda49ed9ec7c"},"vehicle_type_id":"4","last_reported":1743209395,"current_range_meters":3200,"station_id":"ce4bhgh2rcd13ifvqfb0","pricing_plan_id":"cebpf4jnsgd1na2vs0mg"},{"bike_id":"e0bd8552-eaef-4342-bdcd-1df755c00099","system_id":"levelo_inurba_marseille","lat":43.2619,"lon":5.42074,"is_reserved":false,"is_disabled":false,"rental_uris":{"android":"levelo://app?vid=e0bd8552-eaef-4342-bdcd-1df755c00099","ios":"levelo://app?vid=e0bd8552-eaef-4342-bdcd-1df755c00099"},"vehicle_type_id":"4","last_reported":1743209395,"current_range_meters":3600,"station_id":"","pricing_plan_id":"cebpf4jnsgd1na2vs0mg"},{"bike_id":"5644f5bc-5c52-42d3-99d6-109fd8240e10","system_id":"levelo_inurba_marseille","lat":43.28701,"lon":5.3998,"is_reserved":false,"is_disabled":false,"rental_uris":{"android":"levelo://app?vid=5644f5bc-5c52-42d3-99d6-109fd8240e10","ios":"levelo://app?vid=5644f5bc-5c52-42d3-99d6-109fd8240e10"},"vehicle_type_id":"4","last_reported":1743209395,"current_range_meters":3600,"station_id":"ce4bho92rcd13ifvqh3g","pricing_plan_id":"cebpf4jnsgd1na2vs0mg"},{"bike_id":"9108efae-73e9-412e-8196-cfca317be609","system_id":"levelo_inurba_marseille","lat":43.29314,"lon":5.3718,"is_reserved":false,"is_disabled":true,"rental_uris":{"android":"levelo://app?vid=9108efae-73e9-412e-8196-cfca317be609","ios":"levelo://app?vid=9108efae-73e9-412e-8196-cfca317be609"},"vehicle_type_id":"4","last_reported":1743209395,"current_range_meters":3600,"station_id":"ce4bgh92rcd13ifvqb40","pricing_plan_id":"cebpf4jnsgd1na2vs0mg"},{"bike_id":"f46eea1f-108d-4507-b3e2-89b39c0d15e7","system_id":"levelo_inurba_marseille","lat":43.32343,"lon":5.40623,"is_reserved":false,"is_disabled":false,"rental_uris":{"android":"levelo://app?vid=f46eea1f-108d-4507-b3e2-89b39c0d15e7","ios":"levelo://app?vid=f46eea1f-108d-4507-b3e2-89b39c0d15e7"},"vehicle_type_id":"4","last_reported":1743209395,"current_range_meters":3600,"station_id":"ce4bhq92rcd13ifvqhjg","pricing_plan_id":"cebpf4jnsgd1na2vs0mg"},{"bike_id":"df96520e-51af-443e-a727-2e65b75714f2","system_id":"levelo_inurba_marseille","lat":43.29257,"lon":5.40895,"is_reserved":false,"is_disabled":false,"rental_uris":{"android":"levelo://app?vid=df96520e-51af-443e-a727-2e65b75714f2","ios":"levelo://app?vid=df96520e-51af-443e-a727-2e65b75714f2"},"vehicle_type_id":"4","last_reported":1743209395,"current_range_meters":3600,"station_id":"ce4bh192rcd13ifvqdc0","pricing_plan_id":"cebpf4jnsgd1na2vs0mg"},{"bike_id":"8610c0a7-54e0-46b6-b97c-eb43fd27f9ca","system_id":"levelo_inurba_marseille","lat":43.29644,"lon":5.38019,"is_reserved":false,"is_disabled":false,"rental_uris":{"android":"levelo://app?vid=8610c0a7-54e0-46b6-b97c-eb43fd27f9ca","ios":"levelo://app?vid=8610c0a7-54e0-46b6-b97c-eb43fd27f9ca"},"vehicle_type_id":"4","last_reported":1743209395,"current_range_meters":3600,"station_id":"","pricing_plan_id":"cebpf4jnsgd1na2vs0mg"},{"bike_id":"12362f24-6d23-4ce7-afb7-084f8d5a8bfe","system_id":"levelo_inurba_marseille","lat":43.30426,"lon":5.39749,"is_reserved":false,"is_disabled":false,"rental_uris":{"android":"levelo://app?vid=12362f24-6d23-4ce7-afb7-084f8d5a8bfe","ios":"levelo://app?vid=12362f24-6d23-4ce7-afb7-084f8d5a8bfe"},"vehicle_type_id":"4","last_reported":1743209395,"current_range_meters":4000,"station_id":"ce4bh092rcd13ifvqd20","pricing_plan_id":"cebpf4jnsgd1na2vs0mg"},{"bike_id":"52803407-c6ec-45bb-be39-30b5c2f46387","system_id":"levelo_inurba_marseille","lat":43.28716,"lon":5.36082,"is_reserved":false,"is_disabled":false,"rental_uris":{"android":"levelo://app?vid=52803407-c6ec-45bb-be39-30b5c2f46387","ios":"levelo://app?vid=52803407-c6ec-45bb-be39-30b5c2f46387"},"vehicle_type_id":"4","last_reported":1743209395,"current_range_meters":4000,"station_id":"cki0cbj6b192h4jlfktg","pricing_plan_id":"cebpf4jnsgd1na2vs0mg"},{"bike_id":"9b6b5664-07f9-450e-a946-ff576f414882","system_id":"levelo_inurba_marseille","lat":43.27974,"lon":5.38589,"is_reserved":false,"is_disabled":false,"rental_uris":{"android":"levelo://app?vid=9b6b5664-07f9-450e-a946-ff576f414882","ios":"levelo://app?vid=9b6b5664-07f9-450e-a946-ff576f414882"},"vehicle_type_id":"4","last_reported":1743209395,"current_range_meters":4000,"station_id":"","pricing_plan_id":"cebpf4jnsgd1na2vs0mg"},{"bike_id":"70d616e3-8eca-4707-9218-38d2fbdccab2","system_id":"levelo_inurba_marseille","lat":43.29535,"lon":5.37504,"is_reserved":false,"is_disabled":true,"rental_uris":{"android":"levelo://app?vid=70d616e3-8eca-4707-9218-38d2fbdccab2","ios":"levelo://app?vid=70d616e3-8eca-4707-9218-38d2fbdccab2"},"vehicle_type_id":"4","last_reported":1743209395,"current_range_meters":4000,"station_id":"ce4bgkp2rcd13ifvqbmg","pricing_plan_id":"cebpf4jnsgd1na2vs0mg"},{"bike_id":"f9f691ee-1d4b-43f0-917e-b39b2781b560","system_id":"levelo_inurba_marseille","lat":43.30892,"lon":5.37197,"is_reserved":false,"is_disabled":false,"rental_uris":{"android":"levelo://app?vid=f9f691ee-1d4b-43f0-917e-b39b2781b560","ios":"levelo://app?vid=f9f691ee-1d4b-43f0-917e-b39b2781b560"},"vehicle_type_id":"4","last_reported":1743209395,"current_range_meters":4000,"station_id":"ce4bguh2rcd13ifvqckg","pricing_plan_id":"cebpf4jnsgd1na2vs0mg"},{"bike_id":"b53201dc-9476-4608-b029-c9ae750a5c5b","system_id":"levelo_inurba_marseille","lat":43.31373,"lon":5.38493,"is_reserved":false,"is_disabled":false,"rental_uris":{"android":"levelo://app?vid=b53201dc-9476-4608-b029-c9ae750a5c5b","ios":"levelo://app?vid=b53201dc-9476-4608-b029-c9ae750a5c5b"},"vehicle_type_id":"4","last_reported":1743209395,"current_range_meters":4000,"station_id":"ce4bgt92rcd13ifvqcf0","pricing_plan_id":"cebpf4jnsgd1na2vs0mg"},{"bike_id":"4035b94c-cde3-45e1-a2f2-dddbc5286c43","system_id":"levelo_inurba_marseille","lat":43.2716,"lon":5.3918,"is_reserved":false,"is_disabled":false,"rental_uris":{"android":"levelo://app?vid=4035b94c-cde3-45e1-a2f2-dddbc5286c43","ios":"levelo://app?vid=4035b94c-cde3-45e1-a2f2-dddbc5286c43"},"vehicle_type_id":"4","last_reported":1743209395,"current_range_meters":4000,"station_id":"","pricing_plan_id":"cebpf4jnsgd1na2vs0mg"},{"bike_id":"a567fdaa-96e6-4317-b3ac-4d7266af4aa1","system_id":"levelo_inurba_marseille","lat":43.29369,"lon":5.37857,"is_reserved":false,"is_disabled":false,"rental_uris":{"android":"levelo://app?vid=a567fdaa-96e6-4317-b3ac-4d7266af4aa1","ios":"levelo://app?vid=a567fdaa-96e6-4317-b3ac-4d7266af4aa1"},"vehicle_type_id":"4","last_reported":1743209395,"current_range_meters":4400,"station_id":"ce4bgjh2rcd13ifvqbf0","pricing_plan_id":"cebpf4jnsgd1na2vs0mg"},{"bike_id":"18f385d5-55a0-4397-af1e-02cd59dfb452","system_id":"levelo_inurba_marseille","lat":43.28932,"lon":5.36634,"is_reserved":false,"is_disabled":false,"rental_uris":{"android":"levelo://app?vid=18f385d5-55a0-4397-af1e-02cd59dfb452","ios":"levelo://app?vid=18f385d5-55a0-4397-af1e-02cd59dfb452"},"vehicle_type_id":"4","last_reported":1743209395,"current_range_meters":4400,"station_id":"ce4bhap2rcd13ifvqek0","pricing_plan_id":"cebpf4jnsgd1na2vs0mg"},{"bike_id":"c1b79616-fd0b-4274-9c94-02d22b44cdf4","system_id":"levelo_inurba_marseille","lat":43.29252,"lon":5.40893,"is_reserved":false,"is_disabled":false,"rental_uris":{"android":"levelo://app?vid=c1b79616-fd0b-4274-9c94-02d22b44cdf4","ios":"levelo://app?vid=c1b79616-fd0b-4274-9c94-02d22b44cdf4"},"vehicle_type_id":"4","last_reported":1743209395,"current_range_meters":4400,"station_id":"ce4bh192rcd13ifvqdc0","pricing_plan_id":"cebpf4jnsgd1na2vs0mg"},{"bike_id":"980ff761-ef4f-469b-8661-624f949ac9ec","system_id":"levelo_inurba_marseille","lat":43.25832,"lon":5.39453,"is_reserved":false,"is_disabled":false,"rental_uris":{"android":"levelo://app?vid=980ff761-ef4f-469b-8661-624f949ac9ec","ios":"levelo://app?vid=980ff761-ef4f-469b-8661-624f949ac9ec"},"vehicle_type_id":"4","last_reported":1743209395,"current_range_meters":4400,"station_id":"ce4bhip2rcd13ifvqft0","pricing_plan_id":"cebpf4jnsgd1na2vs0mg"},{"bike_id":"4a307bd1-41f2-46c0-9de7-9564c3065407","system_id":"levelo_inurba_marseille","lat":43.23201,"lon":5.39975,"is_reserved":false,"is_disabled":false,"rental_uris":{"android":"levelo://app?vid=4a307bd1-41f2-46c0-9de7-9564c3065407","ios":"levelo://app?vid=4a307bd1-41f2-46c0-9de7-9564c3065407"},"vehicle_type_id":"4","last_reported":1743209395,"current_range_meters":4400,"station_id":"ce4bhn12rcd13ifvqgqg","pricing_plan_id":"cebpf4jnsgd1na2vs0mg"},{"bike_id":"8306ff47-284b-460f-888b-6204683b7222","system_id":"levelo_inurba_marseille","lat":43.28729,"lon":5.36099,"is_reserved":false,"is_disabled":false,"rental_uris":{"android":"levelo://app?vid=8306ff47-284b-460f-888b-6204683b7222","ios":"levelo://app?vid=8306ff47-284b-460f-888b-6204683b7222"},"vehicle_type_id":"4","last_reported":1743209395,"current_range_meters":4400,"station_id":"cki0cbj6b192h4jlfktg","pricing_plan_id":"cebpf4jnsgd1na2vs0mg"},{"bike_id":"fb94d37c-a5f0-424c-9c95-a0f43cd760b8","system_id":"levelo_inurba_marseille","lat":43.30411,"lon":5.3972,"is_reserved":false,"is_disabled":true,"rental_uris":{"android":"levelo://app?vid=fb94d37c-a5f0-424c-9c95-a0f43cd760b8","ios":"levelo://app?vid=fb94d37c-a5f0-424c-9c95-a0f43cd760b8"},"vehicle_type_id":"4","last_reported":1743209395,"current_range_meters":4400,"station_id":"ce4bh092rcd13ifvqd20","pricing_plan_id":"cebpf4jnsgd1na2vs0mg"},{"bike_id":"fc8e8371-f4e9-4721-bc19-563801e389dc","system_id":"levelo_inurba_marseille","lat":43.337444,"lon":5.374475,"is_reserved":false,"is_disabled":false,"rental_uris":{"android":"levelo://app?vid=fc8e8371-f4e9-4721-bc19-563801e389dc","ios":"levelo://app?vid=fc8e8371-f4e9-4721-bc19-563801e389dc"},"vehicle_type_id":"4","last_reported":1743209395,"current_range_meters":4400,"station_id":"","pricing_plan_id":"cebpf4jnsgd1na2vs0mg"},{"bike_id":"19221227-42ec-4f4b-8f04-42a0818e22f5","system_id":"levelo_inurba_marseille","lat":43.32117,"lon":5.367718,"is_reserved":false,"is_disabled":true,"rental_uris":{"android":"levelo://app?vid=19221227-42ec-4f4b-8f04-42a0818e22f5","ios":"levelo://app?vid=19221227-42ec-4f4b-8f04-42a0818e22f5"},"vehicle_type_id":"4","last_reported":1743209395,"current_range_meters":4800,"station_id":"ce4bhrh2rcd13ifvqhug","pricing_plan_id":"cebpf4jnsgd1na2vs0mg"},{"bike_id":"67a1a2f2-eb76-40dd-b124-62581646fa46","system_id":"levelo_inurba_marseille","lat":43.28027,"lon":5.36937,"is_reserved":false,"is_disabled":false,"rental_uris":{"android":"levelo://app?vid=67a1a2f2-eb76-40dd-b124-62581646fa46","ios":"levelo://app?vid=67a1a2f2-eb76-40dd-b124-62581646fa46"},"vehicle_type_id":"4","last_reported":1743209395,"current_range_meters":4800,"station_id":"ce4bha12rcd13ifvqef0","pricing_plan_id":"cebpf4jnsgd1na2vs0mg"},{"bike_id":"c9a2064f-78e6-4184-ada0-261f78459528","system_id":"levelo_inurba_marseille","lat":43.286675,"lon":5.36362,"is_reserved":false,"is_disabled":false,"rental_uris":{"android":"levelo://app?vid=c9a2064f-78e6-4184-ada0-261f78459528","ios":"levelo://app?vid=c9a2064f-78e6-4184-ada0-261f78459528"},"vehicle_type_id":"4","last_reported":1743209395,"current_range_meters":5600,"station_id":"ce4bhah2rcd13ifvqej0","pricing_plan_id":"cebpf4jnsgd1na2vs0mg"},{"bike_id":"7fe9a38f-4d97-49ec-8db6-139f7c5ded5a","system_id":"levelo_inurba_marseille","lat":43.28948,"lon":5.36645,"is_reserved":false,"is_disabled":false,"rental_uris":{"android":"levelo://app?vid=7fe9a38f-4d97-49ec-8db6-139f7c5ded5a","ios":"levelo://app?vid=7fe9a38f-4d97-49ec-8db6-139f7c5ded5a"},"vehicle_type_id":"4","last_reported":1743209395,"current_range_meters":5600,"station_id":"ce4bhap2rcd13ifvqek0","pricing_plan_id":"cebpf4jnsgd1na2vs0mg"},{"bike_id":"4683a830-0b2b-444f-82b4-5dbb8534e1a5","system_id":"levelo_inurba_marseille","lat":43.31367,"lon":5.38522,"is_reserved":false,"is_disabled":false,"rental_uris":{"android":"levelo://app?vid=4683a830-0b2b-444f-82b4-5dbb8534e1a5","ios":"levelo://app?vid=4683a830-0b2b-444f-82b4-5dbb8534e1a5"},"vehicle_type_id":"4","last_reported":1743209395,"current_range_meters":5600,"station_id":"ce4bgt92rcd13ifvqcf0","pricing_plan_id":"cebpf4jnsgd1na2vs0mg"},{"bike_id":"c14a8fc7-e8db-45ab-b563-5fdd959cef0f","system_id":"levelo_inurba_marseille","lat":43.26032,"lon":5.41742,"is_reserved":false,"is_disabled":false,"rental_uris":{"android":"levelo://app?vid=c14a8fc7-e8db-45ab-b563-5fdd959cef0f","ios":"levelo://app?vid=c14a8fc7-e8db-45ab-b563-5fdd959cef0f"},"vehicle_type_id":"4","last_reported":1743209395,"current_range_meters":5600,"station_id":"","pricing_plan_id":"cebpf4jnsgd1na2vs0mg"},{"bike_id":"ef5311bd-b007-4991-a444-371f4153c946","system_id":"levelo_inurba_marseille","lat":43.30252,"lon":5.40074,"is_reserved":false,"is_disabled":false,"rental_uris":{"android":"levelo://app?vid=ef5311bd-b007-4991-a444-371f4153c946","ios":"levelo://app?vid=ef5311bd-b007-4991-a444-371f4153c946"},"vehicle_type_id":"4","last_reported":1743209395,"current_range_meters":6000,"station_id":"ce4bgvh2rcd13ifvqcs0","pricing_plan_id":"cebpf4jnsgd1na2vs0mg"},{"bike_id":"ddb3e057-8a1c-4f4a-8056-17b5b845e0b9","system_id":"levelo_inurba_marseille","lat":43.28112,"lon":5.3986,"is_reserved":false,"is_disabled":false,"rental_uris":{"android":"levelo://app?vid=ddb3e057-8a1c-4f4a-8056-17b5b845e0b9","ios":"levelo://app?vid=ddb3e057-8a1c-4f4a-8056-17b5b845e0b9"},"vehicle_type_id":"4","last_reported":1743209395,"current_range_meters":6000,"station_id":"","pricing_plan_id":"cebpf4jnsgd1na2vs0mg"},{"bike_id":"a43e5931-5a4e-4bcf-977d-45358e944f12","system_id":"levelo_inurba_marseille","lat":43.28028,"lon":5.36942,"is_reserved":false,"is_disabled":false,"rental_uris":{"android":"levelo://app?vid=a43e5931-5a4e-4bcf-977d-45358e944f12","ios":"levelo://app?vid=a43e5931-5a4e-4bcf-977d-45358e944f12"},"vehicle_type_id":"4","last_reported":1743209395,"current_range_meters":6000,"station_id":"ce4bha12rcd13ifvqef0","pricing_plan_id":"cebpf4jnsgd1na2vs0mg"},{"bike_id":"fd3421f3-9336-4d90-b616-c4936932ff9c","system_id":"levelo_inurba_marseille","lat":43.33021,"lon":5.39167,"is_reserved":false,"is_disabled":false,"rental_uris":{"android":"levelo://app?vid=fd3421f3-9336-4d90-b616-c4936932ff9c","ios":"levelo://app?vid=fd3421f3-9336-4d90-b616-c4936932ff9c"},"vehicle_type_id":"4","last_reported":1743209395,"current_range_meters":6000,"station_id":"","pricing_plan_id":"cebpf4jnsgd1na2vs0mg"},{"bike_id":"0ac88cdf-dd3a-494f-aaa5-2b24d1ce393f","system_id":"levelo_inurba_marseille","lat":43.23191,"lon":5.3556,"is_reserved":false,"is_disabled":false,"rental_uris":{"android":"levelo://app?vid=0ac88cdf-dd3a-494f-aaa5-2b24d1ce393f","ios":"levelo://app?vid=0ac88cdf-dd3a-494f-aaa5-2b24d1ce393f"},"vehicle_type_id":"4","last_reported":1743209395,"current_range_meters":6000,"station_id":"ce4bhu92rcd13ifvqi70","pricing_plan_id":"cebpf4jnsgd1na2vs0mg"},{"bike_id":"64f0ea86-1180-4755-95e1-3cbc9c8d4cf5","system_id":"levelo_inurba_marseille","lat":43.330131,"lon":5.438605,"is_reserved":false,"is_disabled":true,"rental_uris":{"android":"levelo://app?vid=64f0ea86-1180-4755-95e1-3cbc9c8d4cf5","ios":"levelo://app?vid=64f0ea86-1180-4755-95e1-3cbc9c8d4cf5"},"vehicle_type_id":"4","last_reported":1743209395,"current_range_meters":6000,"station_id":"","pricing_plan_id":"cebpf4jnsgd1na2vs0mg"},{"bike_id":"9e55eac6-bf42-400c-9297-f8b7f4b2a0e7","system_id":"levelo_inurba_marseille","lat":43.28698,"lon":5.39973,"is_reserved":false,"is_disabled":false,"rental_uris":{"android":"levelo://app?vid=9e55eac6-bf42-400c-9297-f8b7f4b2a0e7","ios":"levelo://app?vid=9e55eac6-bf42-400c-9297-f8b7f4b2a0e7"},"vehicle_type_id":"4","last_reported":1743209395,"current_range_meters":6000,"station_id":"ce4bho92rcd13ifvqh3g","pricing_plan_id":"cebpf4jnsgd1na2vs0mg"},{"bike_id":"a8378dcb-c63c-4ffe-9fb7-885a8f569a7a","system_id":"levelo_inurba_marseille","lat":43.23188,"lon":5.39976,"is_reserved":false,"is_disabled":false,"rental_uris":{"android":"levelo://app?vid=a8378dcb-c63c-4ffe-9fb7-885a8f569a7a","ios":"levelo://app?vid=a8378dcb-c63c-4ffe-9fb7-885a8f569a7a"},"vehicle_type_id":"4","last_reported":1743209395,"current_range_meters":6000,"station_id":"ce4bhn12rcd13ifvqgqg","pricing_plan_id":"cebpf4jnsgd1na2vs0mg"},{"bike_id":"5cb3da96-4a2a-4d0b-81a6-0e13f12738d5","system_id":"levelo_inurba_marseille","lat":43.29956,"lon":5.41315,"is_reserved":false,"is_disabled":false,"rental_uris":{"android":"levelo://app?vid=5cb3da96-4a2a-4d0b-81a6-0e13f12738d5","ios":"levelo://app?vid=5cb3da96-4a2a-4d0b-81a6-0e13f12738d5"},"vehicle_type_id":"4","last_reported":1743209395,"current_range_meters":6400,"station_id":"ce4bhp12rcd13ifvqh9g","pricing_plan_id":"cebpf4jnsgd1na2vs0mg"},{"bike_id":"961245ca-8d90-4d71-b735-61afea929100","system_id":"levelo_inurba_marseille","lat":43.24179,"lon":5.36391,"is_reserved":false,"is_disabled":false,"rental_uris":{"android":"levelo://app?vid=961245ca-8d90-4d71-b735-61afea929100","ios":"levelo://app?vid=961245ca-8d90-4d71-b735-61afea929100"},"vehicle_type_id":"4","last_reported":1743209395,"current_range_meters":6400,"station_id":"cpo36qri1sfpv3e86is0","pricing_plan_id":"cebpf4jnsgd1na2vs0mg"},{"bike_id":"14054c23-e1aa-4fb0-b7cc-6cf90b5fbd28","system_id":"levelo_inurba_marseille","lat":43.29782,"lon":5.38105,"is_reserved":false,"is_disabled":true,"rental_uris":{"android":"levelo://app?vid=14054c23-e1aa-4fb0-b7cc-6cf90b5fbd28","ios":"levelo://app?vid=14054c23-e1aa-4fb0-b7cc-6cf90b5fbd28"},"vehicle_type_id":"4","last_reported":1743209395,"current_range_meters":6400,"station_id":"ce4bgip2rcd13ifvqbb0","pricing_plan_id":"cebpf4jnsgd1na2vs0mg"},{"bike_id":"ec940620-2a09-4eae-aace-1a0a72b62180","system_id":"levelo_inurba_marseille","lat":43.30284,"lon":5.40062,"is_reserved":false,"is_disabled":false,"rental_uris":{"android":"levelo://app?vid=ec940620-2a09-4eae-aace-1a0a72b62180","ios":"levelo://app?vid=ec940620-2a09-4eae-aace-1a0a72b62180"},"vehicle_type_id":"4","last_reported":1743209395,"current_range_meters":6400,"station_id":"ce4bgvh2rcd13ifvqcs0","pricing_plan_id":"cebpf4jnsgd1na2vs0mg"},{"bike_id":"cd115686-8f4e-4fb1-81c7-4ea23d669c39","system_id":"levelo_inurba_marseille","lat":43.30259,"lon":5.40087,"is_reserved":false,"is_disabled":false,"rental_uris":{"android":"levelo://app?vid=cd115686-8f4e-4fb1-81c7-4ea23d669c39","ios":"levelo://app?vid=cd115686-8f4e-4fb1-81c7-4ea23d669c39"},"vehicle_type_id":"4","last_reported":1743209395,"current_range_meters":6400,"station_id":"ce4bgvh2rcd13ifvqcs0","pricing_plan_id":"cebpf4jnsgd1na2vs0mg"},{"bike_id":"d0c2ba62-325f-42ee-b4c5-fe6707aa69d7","system_id":"levelo_inurba_marseille","lat":43.24807,"lon":5.37462,"is_reserved":false,"is_disabled":false,"rental_uris":{"android":"levelo://app?vid=d0c2ba62-325f-42ee-b4c5-fe6707aa69d7","ios":"levelo://app?vid=d0c2ba62-325f-42ee-b4c5-fe6707aa69d7"},"vehicle_type_id":"4","last_reported":1743209395,"current_range_meters":6400,"station_id":"ce4bhgh2rcd13ifvqfb0","pricing_plan_id":"cebpf4jnsgd1na2vs0mg"},{"bike_id":"c74a2dc2-aa31-4c6d-ada8-0d28ee6aedb4","system_id":"levelo_inurba_marseille","lat":43.28422,"lon":5.34985,"is_reserved":false,"is_disabled":false,"rental_uris":{"android":"levelo://app?vid=c74a2dc2-aa31-4c6d-ada8-0d28ee6aedb4","ios":"levelo://app?vid=c74a2dc2-aa31-4c6d-ada8-0d28ee6aedb4"},"vehicle_type_id":"4","last_reported":1743209395,"current_range_meters":6400,"station_id":"ce4bhbh2rcd13ifvqepg","pricing_plan_id":"cebpf4jnsgd1na2vs0mg"},{"bike_id":"df02a453-94b4-4aa9-bf3d-9e6faffee098","system_id":"levelo_inurba_marseille","lat":43.28993,"lon":5.42587,"is_reserved":false,"is_disabled":false,"rental_uris":{"android":"levelo://app?vid=df02a453-94b4-4aa9-bf3d-9e6faffee098","ios":"levelo://app?vid=df02a453-94b4-4aa9-bf3d-9e6faffee098"},"vehicle_type_id":"4","last_reported":1743209395,"current_range_meters":6400,"station_id":"","pricing_plan_id":"cebpf4jnsgd1na2vs0mg"},{"bike_id":"4eaa6cd8-7808-4f78-9aaf-097dc658bd4b","system_id":"levelo_inurba_marseille","lat":43.25002,"lon":5.389252,"is_reserved":false,"is_disabled":false,"rental_uris":{"android":"levelo://app?vid=4eaa6cd8-7808-4f78-9aaf-097dc658bd4b","ios":"levelo://app?vid=4eaa6cd8-7808-4f78-9aaf-097dc658bd4b"},"vehicle_type_id":"4","last_reported":1743209395,"current_range_meters":6400,"station_id":"ce4bhgp2rcd13ifvqfd0","pricing_plan_id":"cebpf4jnsgd1na2vs0mg"},{"bike_id":"4deb4783-8cfd-4878-9232-6f4ec00fece7","system_id":"levelo_inurba_marseille","lat":43.30926,"lon":5.40143,"is_reserved":false,"is_disabled":false,"rental_uris":{"android":"levelo://app?vid=4deb4783-8cfd-4878-9232-6f4ec00fece7","ios":"levelo://app?vid=4deb4783-8cfd-4878-9232-6f4ec00fece7"},"vehicle_type_id":"4","last_reported":1743209395,"current_range_meters":6400,"station_id":"ce4bgvp2rcd13ifvqct0","pricing_plan_id":"cebpf4jnsgd1na2vs0mg"},{"bike_id":"5ce256d8-df5a-49ec-a9d7-d012197f7db8","system_id":"levelo_inurba_marseille","lat":43.29223,"lon":5.36061,"is_reserved":false,"is_disabled":false,"rental_uris":{"android":"levelo://app?vid=5ce256d8-df5a-49ec-a9d7-d012197f7db8","ios":"levelo://app?vid=5ce256d8-df5a-49ec-a9d7-d012197f7db8"},"vehicle_type_id":"4","last_reported":1743209395,"current_range_meters":6800,"station_id":"ce4bhbh2rcd13ifvqeqg","pricing_plan_id":"cebpf4jnsgd1na2vs0mg"},{"bike_id":"64614d85-14d6-4550-9679-122515eda3ee","system_id":"levelo_inurba_marseille","lat":43.26551,"lon":5.39037,"is_reserved":false,"is_disabled":false,"rental_uris":{"android":"levelo://app?vid=64614d85-14d6-4550-9679-122515eda3ee","ios":"levelo://app?vid=64614d85-14d6-4550-9679-122515eda3ee"},"vehicle_type_id":"4","last_reported":1743209395,"current_range_meters":6800,"station_id":"ce4bhe12rcd13ifvqf30","pricing_plan_id":"cebpf4jnsgd1na2vs0mg"},{"bike_id":"69d4a96e-aebb-48d7-9d81-4070f7503e98","system_id":"levelo_inurba_marseille","lat":43.30835,"lon":5.37398,"is_reserved":false,"is_disabled":false,"rental_uris":{"android":"levelo://app?vid=69d4a96e-aebb-48d7-9d81-4070f7503e98","ios":"levelo://app?vid=69d4a96e-aebb-48d7-9d81-4070f7503e98"},"vehicle_type_id":"4","last_reported":1743209395,"current_range_meters":6800,"station_id":"","pricing_plan_id":"cebpf4jnsgd1na2vs0mg"},{"bike_id":"6026f9b7-25ae-4d64-8648-76338e9b1c4c","system_id":"levelo_inurba_marseille","lat":43.323583,"lon":5.38877,"is_reserved":false,"is_disabled":false,"rental_uris":{"android":"levelo://app?vid=6026f9b7-25ae-4d64-8648-76338e9b1c4c","ios":"levelo://app?vid=6026f9b7-25ae-4d64-8648-76338e9b1c4c"},"vehicle_type_id":"4","last_reported":1743209395,"current_range_meters":6800,"station_id":"ce4bhqp2rcd13ifvqhog","pricing_plan_id":"cebpf4jnsgd1na2vs0mg"},{"bike_id":"018bbec2-0bfc-4545-87a0-8714158a124b","system_id":"levelo_inurba_marseille","lat":43.27959,"lon":5.38716,"is_reserved":false,"is_disabled":false,"rental_uris":{"android":"levelo://app?vid=018bbec2-0bfc-4545-87a0-8714158a124b","ios":"levelo://app?vid=018bbec2-0bfc-4545-87a0-8714158a124b"},"vehicle_type_id":"4","last_reported":1743209395,"current_range_meters":6800,"station_id":"ce4bhg12rcd13ifvqf80","pricing_plan_id":"cebpf4jnsgd1na2vs0mg"},{"bike_id":"0714e207-7246-458a-9d1d-be45c6f0f274","system_id":"levelo_inurba_marseille","lat":43.3032,"lon":5.40442,"is_reserved":false,"is_disabled":false,"rental_uris":{"android":"levelo://app?vid=0714e207-7246-458a-9d1d-be45c6f0f274","ios":"levelo://app?vid=0714e207-7246-458a-9d1d-be45c6f0f274"},"vehicle_type_id":"4","last_reported":1743209395,"current_range_meters":6800,"station_id":"ce4bh012rcd13ifvqd10","pricing_plan_id":"cebpf4jnsgd1na2vs0mg"},{"bike_id":"f6f9fa63-a538-4962-89a2-7e0fd8bec717","system_id":"levelo_inurba_marseille","lat":43.32006,"lon":5.38153,"is_reserved":false,"is_disabled":true,"rental_uris":{"android":"levelo://app?vid=f6f9fa63-a538-4962-89a2-7e0fd8bec717","ios":"levelo://app?vid=f6f9fa63-a538-4962-89a2-7e0fd8bec717"},"vehicle_type_id":"4","last_reported":1743209395,"current_range_meters":6800,"station_id":"ce4bhr12rcd13ifvqhpg","pricing_plan_id":"cebpf4jnsgd1na2vs0mg"},{"bike_id":"d8995671-8d10-4595-a48d-c072afc16bcb","system_id":"levelo_inurba_marseille","lat":43.28618,"lon":5.35101,"is_reserved":false,"is_disabled":false,"rental_uris":{"android":"levelo://app?vid=d8995671-8d10-4595-a48d-c072afc16bcb","ios":"levelo://app?vid=d8995671-8d10-4595-a48d-c072afc16bcb"},"vehicle_type_id":"4","last_reported":1743209395,"current_range_meters":6800,"station_id":"ce4bhch2rcd13ifvqeug","pricing_plan_id":"cebpf4jnsgd1na2vs0mg"},{"bike_id":"164dbc3e-622a-4e3f-b578-4aea6c85f2de","system_id":"levelo_inurba_marseille","lat":43.30883,"lon":5.39615,"is_reserved":false,"is_disabled":false,"rental_uris":{"android":"levelo://app?vid=164dbc3e-622a-4e3f-b578-4aea6c85f2de","ios":"levelo://app?vid=164dbc3e-622a-4e3f-b578-4aea6c85f2de"},"vehicle_type_id":"4","last_reported":1743209395,"current_range_meters":6800,"station_id":"ce4bh012rcd13ifvqcv0","pricing_plan_id":"cebpf4jnsgd1na2vs0mg"},{"bike_id":"d174d6ab-b837-458b-9239-eae7b56f708b","system_id":"levelo_inurba_marseille","lat":43.31243,"lon":5.3685,"is_reserved":false,"is_disabled":false,"rental_uris":{"android":"levelo://app?vid=d174d6ab-b837-458b-9239-eae7b56f708b","ios":"levelo://app?vid=d174d6ab-b837-458b-9239-eae7b56f708b"},"vehicle_type_id":"4","last_reported":1743209395,"current_range_meters":6800,"station_id":"ce4bgl92rcd13ifvqbq0","pricing_plan_id":"cebpf4jnsgd1na2vs0mg"},{"bike_id":"112d332c-afea-4772-a4fc-e9b62826f740","system_id":"levelo_inurba_marseille","lat":43.291658,"lon":5.384698,"is_reserved":false,"is_disabled":false,"rental_uris":{"android":"levelo://app?vid=112d332c-afea-4772-a4fc-e9b62826f740","ios":"levelo://app?vid=112d332c-afea-4772-a4fc-e9b62826f740"},"vehicle_type_id":"4","last_reported":1743209395,"current_range_meters":6800,"station_id":"ce4bh512rcd13ifvqe2g","pricing_plan_id":"cebpf4jnsgd1na2vs0mg"},{"bike_id":"9706b643-c205-41ac-9b92-80d747a14eed","system_id":"levelo_inurba_marseille","lat":43.30472,"lon":5.37878,"is_reserved":false,"is_disabled":false,"rental_uris":{"android":"levelo://app?vid=9706b643-c205-41ac-9b92-80d747a14eed","ios":"levelo://app?vid=9706b643-c205-41ac-9b92-80d747a14eed"},"vehicle_type_id":"4","last_reported":1743209395,"current_range_meters":6800,"station_id":"ce4bgt92rcd13ifvqcg0","pricing_plan_id":"cebpf4jnsgd1na2vs0mg"},{"bike_id":"c764b690-5b30-4517-9b6b-c12254884465","system_id":"levelo_inurba_marseille","lat":43.31735,"lon":5.40433,"is_reserved":false,"is_disabled":false,"rental_uris":{"android":"levelo://app?vid=c764b690-5b30-4517-9b6b-c12254884465","ios":"levelo://app?vid=c764b690-5b30-4517-9b6b-c12254884465"},"vehicle_type_id":"4","last_reported":1743209395,"current_range_meters":6800,"station_id":"","pricing_plan_id":"cebpf4jnsgd1na2vs0mg"},{"bike_id":"422a75c2-467f-4b23-9c54-3e84a1bf2eb6","system_id":"levelo_inurba_marseille","lat":43.330273,"lon":5.390459,"is_reserved":false,"is_disabled":false,"rental_uris":{"android":"levelo://app?vid=422a75c2-467f-4b23-9c54-3e84a1bf2eb6","ios":"levelo://app?vid=422a75c2-467f-4b23-9c54-3e84a1bf2eb6"},"vehicle_type_id":"4","last_reported":1743209395,"current_range_meters":6800,"station_id":"ce4bhr92rcd13ifvqhrg","pricing_plan_id":"cebpf4jnsgd1na2vs0mg"},{"bike_id":"7f031aeb-1b81-4ae7-98ae-44bda2b2771b","system_id":"levelo_inurba_marseille","lat":43.312917,"lon":5.401906,"is_reserved":false,"is_disabled":false,"rental_uris":{"android":"levelo://app?vid=7f031aeb-1b81-4ae7-98ae-44bda2b2771b","ios":"levelo://app?vid=7f031aeb-1b81-4ae7-98ae-44bda2b2771b"},"vehicle_type_id":"4","last_reported":1743209395,"current_range_meters":6800,"station_id":"ce4bh092rcd13ifvqd30","pricing_plan_id":"cebpf4jnsgd1na2vs0mg"},{"bike_id":"bf486d29-80ae-43fc-9394-756ed3e2b73e","system_id":"levelo_inurba_marseille","lat":43.28002,"lon":5.40006,"is_reserved":false,"is_disabled":false,"rental_uris":{"android":"levelo://app?vid=bf486d29-80ae-43fc-9394-756ed3e2b73e","ios":"levelo://app?vid=bf486d29-80ae-43fc-9394-756ed3e2b73e"},"vehicle_type_id":"4","last_reported":1743209395,"current_range_meters":7200,"station_id":"ce4bho92rcd13ifvqh4g","pricing_plan_id":"cebpf4jnsgd1na2vs0mg"},{"bike_id":"b35af153-65c3-4e01-ad77-b4570783aa52","system_id":"levelo_inurba_marseille","lat":43.30934,"lon":5.40146,"is_reserved":false,"is_disabled":false,"rental_uris":{"android":"levelo://app?vid=b35af153-65c3-4e01-ad77-b4570783aa52","ios":"levelo://app?vid=b35af153-65c3-4e01-ad77-b4570783aa52"},"vehicle_type_id":"4","last_reported":1743209395,"current_range_meters":7200,"station_id":"ce4bgvp2rcd13ifvqct0","pricing_plan_id":"cebpf4jnsgd1na2vs0mg"},{"bike_id":"6ed81b6d-3cb1-4986-bdfe-a63705d9298a","system_id":"levelo_inurba_marseille","lat":43.30258,"lon":5.40062,"is_reserved":false,"is_disabled":false,"rental_uris":{"android":"levelo://app?vid=6ed81b6d-3cb1-4986-bdfe-a63705d9298a","ios":"levelo://app?vid=6ed81b6d-3cb1-4986-bdfe-a63705d9298a"},"vehicle_type_id":"4","last_reported":1743209395,"current_range_meters":7200,"station_id":"ce4bgvh2rcd13ifvqcs0","pricing_plan_id":"cebpf4jnsgd1na2vs0mg"},{"bike_id":"50ea93e6-fff8-4d2c-95d0-0b9215818caa","system_id":"levelo_inurba_marseille","lat":43.265666,"lon":5.390101,"is_reserved":false,"is_disabled":false,"rental_uris":{"android":"levelo://app?vid=50ea93e6-fff8-4d2c-95d0-0b9215818caa","ios":"levelo://app?vid=50ea93e6-fff8-4d2c-95d0-0b9215818caa"},"vehicle_type_id":"4","last_reported":1743209395,"current_range_meters":7200,"station_id":"ce4bhe12rcd13ifvqf30","pricing_plan_id":"cebpf4jnsgd1na2vs0mg"},{"bike_id":"fd134268-1499-401e-bb83-137ea2b7a695","system_id":"levelo_inurba_marseille","lat":43.23975,"lon":5.36607,"is_reserved":false,"is_disabled":false,"rental_uris":{"android":"levelo://app?vid=fd134268-1499-401e-bb83-137ea2b7a695","ios":"levelo://app?vid=fd134268-1499-401e-bb83-137ea2b7a695"},"vehicle_type_id":"4","last_reported":1743209395,"current_range_meters":7200,"station_id":"ce4bhi12rcd13ifvqfp0","pricing_plan_id":"cebpf4jnsgd1na2vs0mg"},{"bike_id":"04f4a73b-cd58-4830-9242-a5bbcf7947cf","system_id":"levelo_inurba_marseille","lat":43.31882,"lon":5.40735,"is_reserved":false,"is_disabled":false,"rental_uris":{"android":"levelo://app?vid=04f4a73b-cd58-4830-9242-a5bbcf7947cf","ios":"levelo://app?vid=04f4a73b-cd58-4830-9242-a5bbcf7947cf"},"vehicle_type_id":"4","last_reported":1743209395,"current_range_meters":7200,"station_id":"ce4bhq12rcd13ifvqhig","pricing_plan_id":"cebpf4jnsgd1na2vs0mg"},{"bike_id":"a3514274-c949-4c91-b768-3857fda27d00","system_id":"levelo_inurba_marseille","lat":43.28606,"lon":5.37068,"is_reserved":false,"is_disabled":false,"rental_uris":{"android":"levelo://app?vid=a3514274-c949-4c91-b768-3857fda27d00","ios":"levelo://app?vid=a3514274-c949-4c91-b768-3857fda27d00"},"vehicle_type_id":"4","last_reported":1743209395,"current_range_meters":7200,"station_id":"ce4bht12rcd13ifvqi60","pricing_plan_id":"cebpf4jnsgd1na2vs0mg"},{"bike_id":"9faffa80-67d4-4e2a-9130-9db11f86ce81","system_id":"levelo_inurba_marseille","lat":43.28717,"lon":5.39953,"is_reserved":false,"is_disabled":false,"rental_uris":{"android":"levelo://app?vid=9faffa80-67d4-4e2a-9130-9db11f86ce81","ios":"levelo://app?vid=9faffa80-67d4-4e2a-9130-9db11f86ce81"},"vehicle_type_id":"4","last_reported":1743209395,"current_range_meters":7200,"station_id":"ce4bho92rcd13ifvqh3g","pricing_plan_id":"cebpf4jnsgd1na2vs0mg"},{"bike_id":"87ce5af9-2c3f-4b34-8106-a0bd98c8708b","system_id":"levelo_inurba_marseille","lat":43.27992,"lon":5.40014,"is_reserved":false,"is_disabled":false,"rental_uris":{"android":"levelo://app?vid=87ce5af9-2c3f-4b34-8106-a0bd98c8708b","ios":"levelo://app?vid=87ce5af9-2c3f-4b34-8106-a0bd98c8708b"},"vehicle_type_id":"4","last_reported":1743209395,"current_range_meters":7200,"station_id":"ce4bho92rcd13ifvqh4g","pricing_plan_id":"cebpf4jnsgd1na2vs0mg"},{"bike_id":"ee2588a0-8a3d-4c56-88e3-6823a90de92d","system_id":"levelo_inurba_marseille","lat":43.2809,"lon":5.3858,"is_reserved":false,"is_disabled":false,"rental_uris":{"android":"levelo://app?vid=ee2588a0-8a3d-4c56-88e3-6823a90de92d","ios":"levelo://app?vid=ee2588a0-8a3d-4c56-88e3-6823a90de92d"},"vehicle_type_id":"4","last_reported":1743209395,"current_range_meters":7200,"station_id":"","pricing_plan_id":"cebpf4jnsgd1na2vs0mg"},{"bike_id":"6a5faf51-2bec-4782-8a8f-e039ed407c9b","system_id":"levelo_inurba_marseille","lat":43.25087,"lon":5.39526,"is_reserved":false,"is_disabled":false,"rental_uris":{"android":"levelo://app?vid=6a5faf51-2bec-4782-8a8f-e039ed407c9b","ios":"levelo://app?vid=6a5faf51-2bec-4782-8a8f-e039ed407c9b"},"vehicle_type_id":"4","last_reported":1743209395,"current_range_meters":7200,"station_id":"ce4bhm12rcd13ifvqgkg","pricing_plan_id":"cebpf4jnsgd1na2vs0mg"},{"bike_id":"764341b8-8221-4862-8b96-eab0b8aa2d10","system_id":"levelo_inurba_marseille","lat":43.28426,"lon":5.37516,"is_reserved":false,"is_disabled":false,"rental_uris":{"android":"levelo://app?vid=764341b8-8221-4862-8b96-eab0b8aa2d10","ios":"levelo://app?vid=764341b8-8221-4862-8b96-eab0b8aa2d10"},"vehicle_type_id":"4","last_reported":1743209395,"current_range_meters":7200,"station_id":"ce4bh412rcd13ifvqds0","pricing_plan_id":"cebpf4jnsgd1na2vs0mg"},{"bike_id":"3a31a3b9-8d91-48b1-9587-fc8940106188","system_id":"levelo_inurba_marseille","lat":43.292557,"lon":5.384498,"is_reserved":false,"is_disabled":true,"rental_uris":{"android":"levelo://app?vid=3a31a3b9-8d91-48b1-9587-fc8940106188","ios":"levelo://app?vid=3a31a3b9-8d91-48b1-9587-fc8940106188"},"vehicle_type_id":"4","last_reported":1743209395,"current_range_meters":7200,"station_id":"ce4bh692rcd13ifvqea0","pricing_plan_id":"cebpf4jnsgd1na2vs0mg"},{"bike_id":"0009eca3-f243-43d3-a06a-66f6a4a5ccdd","system_id":"levelo_inurba_marseille","lat":43.231902,"lon":5.355573,"is_reserved":false,"is_disabled":false,"rental_uris":{"android":"levelo://app?vid=0009eca3-f243-43d3-a06a-66f6a4a5ccdd","ios":"levelo://app?vid=0009eca3-f243-43d3-a06a-66f6a4a5ccdd"},"vehicle_type_id":"4","last_reported":1743209395,"current_range_meters":7200,"station_id":"ce4bhu92rcd13ifvqi70","pricing_plan_id":"cebpf4jnsgd1na2vs0mg"},{"bike_id":"57f8c7cb-17ce-46c9-b07d-dc98d28c951d","system_id":"levelo_inurba_marseille","lat":43.25833,"lon":5.39393,"is_reserved":false,"is_disabled":false,"rental_uris":{"android":"levelo://app?vid=57f8c7cb-17ce-46c9-b07d-dc98d28c951d","ios":"levelo://app?vid=57f8c7cb-17ce-46c9-b07d-dc98d28c951d"},"vehicle_type_id":"4","last_reported":1743209395,"current_range_meters":7200,"station_id":"ce4bhip2rcd13ifvqft0","pricing_plan_id":"cebpf4jnsgd1na2vs0mg"},{"bike_id":"372077d7-6912-4560-8e62-7c1226cc8258","system_id":"levelo_inurba_marseille","lat":43.279961,"lon":5.400077,"is_reserved":false,"is_disabled":false,"rental_uris":{"android":"levelo://app?vid=372077d7-6912-4560-8e62-7c1226cc8258","ios":"levelo://app?vid=372077d7-6912-4560-8e62-7c1226cc8258"},"vehicle_type_id":"4","last_reported":1743209395,"current_range_meters":8000,"station_id":"ce4bho92rcd13ifvqh4g","pricing_plan_id":"cebpf4jnsgd1na2vs0mg"},{"bike_id":"4a42ca1e-41e4-4233-a4bb-a180f04564d6","system_id":"levelo_inurba_marseille","lat":43.29167,"lon":5.37139,"is_reserved":false,"is_disabled":true,"rental_uris":{"android":"levelo://app?vid=4a42ca1e-41e4-4233-a4bb-a180f04564d6","ios":"levelo://app?vid=4a42ca1e-41e4-4233-a4bb-a180f04564d6"},"vehicle_type_id":"4","last_reported":1743209395,"current_range_meters":8000,"station_id":"ce4bha92rcd13ifvqeh0","pricing_plan_id":"cebpf4jnsgd1na2vs0mg"},{"bike_id":"72c78bbb-f16b-4937-919e-913520fb5ad0","system_id":"levelo_inurba_marseille","lat":43.28465,"lon":5.38432,"is_reserved":false,"is_disabled":false,"rental_uris":{"android":"levelo://app?vid=72c78bbb-f16b-4937-919e-913520fb5ad0","ios":"levelo://app?vid=72c78bbb-f16b-4937-919e-913520fb5ad0"},"vehicle_type_id":"4","last_reported":1743209395,"current_range_meters":8000,"station_id":"ce4bh512rcd13ifvqe3g","pricing_plan_id":"cebpf4jnsgd1na2vs0mg"},{"bike_id":"1def5fc1-8f39-4131-8109-88fb354ea625","system_id":"levelo_inurba_marseille","lat":43.28016,"lon":5.39989,"is_reserved":false,"is_disabled":false,"rental_uris":{"android":"levelo://app?vid=1def5fc1-8f39-4131-8109-88fb354ea625","ios":"levelo://app?vid=1def5fc1-8f39-4131-8109-88fb354ea625"},"vehicle_type_id":"4","last_reported":1743209395,"current_range_meters":8000,"station_id":"ce4bho92rcd13ifvqh4g","pricing_plan_id":"cebpf4jnsgd1na2vs0mg"},{"bike_id":"861ae205-c318-4688-ac53-947993e1b65f","system_id":"levelo_inurba_marseille","lat":43.24181,"lon":5.36376,"is_reserved":false,"is_disabled":false,"rental_uris":{"android":"levelo://app?vid=861ae205-c318-4688-ac53-947993e1b65f","ios":"levelo://app?vid=861ae205-c318-4688-ac53-947993e1b65f"},"vehicle_type_id":"4","last_reported":1743209395,"current_range_meters":8000,"station_id":"cpo36qri1sfpv3e86is0","pricing_plan_id":"cebpf4jnsgd1na2vs0mg"},{"bike_id":"ac2dfca6-5992-4268-b83c-5f404d63993b","system_id":"levelo_inurba_marseille","lat":43.30248,"lon":5.40066,"is_reserved":false,"is_disabled":false,"rental_uris":{"android":"levelo://app?vid=ac2dfca6-5992-4268-b83c-5f404d63993b","ios":"levelo://app?vid=ac2dfca6-5992-4268-b83c-5f404d63993b"},"vehicle_type_id":"4","last_reported":1743209395,"current_range_meters":8000,"station_id":"ce4bgvh2rcd13ifvqcs0","pricing_plan_id":"cebpf4jnsgd1na2vs0mg"},{"bike_id":"2dd0cc98-34c6-4f9e-8014-53a36c8939b4","system_id":"levelo_inurba_marseille","lat":43.291934,"lon":5.393221,"is_reserved":false,"is_disabled":false,"rental_uris":{"android":"levelo://app?vid=2dd0cc98-34c6-4f9e-8014-53a36c8939b4","ios":"levelo://app?vid=2dd0cc98-34c6-4f9e-8014-53a36c8939b4"},"vehicle_type_id":"4","last_reported":1743209395,"current_range_meters":8000,"station_id":"ce4bh192rcd13ifvqdd0","pricing_plan_id":"cebpf4jnsgd1na2vs0mg"},{"bike_id":"7201e83f-6b3c-4d50-905a-46d5815f0094","system_id":"levelo_inurba_marseille","lat":43.30253,"lon":5.40055,"is_reserved":false,"is_disabled":false,"rental_uris":{"android":"levelo://app?vid=7201e83f-6b3c-4d50-905a-46d5815f0094","ios":"levelo://app?vid=7201e83f-6b3c-4d50-905a-46d5815f0094"},"vehicle_type_id":"4","last_reported":1743209395,"current_range_meters":8000,"station_id":"ce4bgvh2rcd13ifvqcs0","pricing_plan_id":"cebpf4jnsgd1na2vs0mg"},{"bike_id":"b2fd8e70-5b37-4865-bf49-d30da2481695","system_id":"levelo_inurba_marseille","lat":43.232013,"lon":5.355492,"is_reserved":false,"is_disabled":false,"rental_uris":{"android":"levelo://app?vid=b2fd8e70-5b37-4865-bf49-d30da2481695","ios":"levelo://app?vid=b2fd8e70-5b37-4865-bf49-d30da2481695"},"vehicle_type_id":"4","last_reported":1743209395,"current_range_meters":8000,"station_id":"ce4bhu92rcd13ifvqi70","pricing_plan_id":"cebpf4jnsgd1na2vs0mg"},{"bike_id":"891cbfc1-a699-4dab-81c0-4ef39d49821a","system_id":"levelo_inurba_marseille","lat":43.30317,"lon":5.40439,"is_reserved":false,"is_disabled":false,"rental_uris":{"android":"levelo://app?vid=891cbfc1-a699-4dab-81c0-4ef39d49821a","ios":"levelo://app?vid=891cbfc1-a699-4dab-81c0-4ef39d49821a"},"vehicle_type_id":"4","last_reported":1743209395,"current_range_meters":8000,"station_id":"ce4bh012rcd13ifvqd10","pricing_plan_id":"cebpf4jnsgd1na2vs0mg"},{"bike_id":"8a9ed8c6-dfec-4be3-b278-fceb106d0d1c","system_id":"levelo_inurba_marseille","lat":43.29257,"lon":5.40907,"is_reserved":false,"is_disabled":false,"rental_uris":{"android":"levelo://app?vid=8a9ed8c6-dfec-4be3-b278-fceb106d0d1c","ios":"levelo://app?vid=8a9ed8c6-dfec-4be3-b278-fceb106d0d1c"},"vehicle_type_id":"4","last_reported":1743209395,"current_range_meters":8000,"station_id":"ce4bh192rcd13ifvqdc0","pricing_plan_id":"cebpf4jnsgd1na2vs0mg"},{"bike_id":"d7e173b6-9525-4e9d-9888-a56ee132d865","system_id":"levelo_inurba_marseille","lat":43.29007,"lon":5.35607,"is_reserved":false,"is_disabled":false,"rental_uris":{"android":"levelo://app?vid=d7e173b6-9525-4e9d-9888-a56ee132d865","ios":"levelo://app?vid=d7e173b6-9525-4e9d-9888-a56ee132d865"},"vehicle_type_id":"4","last_reported":1743209395,"current_range_meters":8000,"station_id":"ce4bhb92rcd13ifvqen0","pricing_plan_id":"cebpf4jnsgd1na2vs0mg"},{"bike_id":"6aa5bc35-5d9a-45dc-bf6a-471f0b687841","system_id":"levelo_inurba_marseille","lat":43.30786,"lon":5.37654,"is_reserved":false,"is_disabled":false,"rental_uris":{"android":"levelo://app?vid=6aa5bc35-5d9a-45dc-bf6a-471f0b687841","ios":"levelo://app?vid=6aa5bc35-5d9a-45dc-bf6a-471f0b687841"},"vehicle_type_id":"4","last_reported":1743209395,"current_range_meters":8000,"station_id":"ce4bgv92rcd13ifvqcq0","pricing_plan_id":"cebpf4jnsgd1na2vs0mg"},{"bike_id":"d3b778ec-9c2c-44c0-a76a-5757045ef5a5","system_id":"levelo_inurba_marseille","lat":43.29632,"lon":5.40597,"is_reserved":false,"is_disabled":false,"rental_uris":{"android":"levelo://app?vid=d3b778ec-9c2c-44c0-a76a-5757045ef5a5","ios":"levelo://app?vid=d3b778ec-9c2c-44c0-a76a-5757045ef5a5"},"vehicle_type_id":"4","last_reported":1743209395,"current_range_meters":8400,"station_id":"ce4bh0h2rcd13ifvqd60","pricing_plan_id":"cebpf4jnsgd1na2vs0mg"},{"bike_id":"5e88e231-5600-4ca8-aa39-f6cc64e0a9b2","system_id":"levelo_inurba_marseille","lat":43.28028,"lon":5.36944,"is_reserved":false,"is_disabled":false,"rental_uris":{"android":"levelo://app?vid=5e88e231-5600-4ca8-aa39-f6cc64e0a9b2","ios":"levelo://app?vid=5e88e231-5600-4ca8-aa39-f6cc64e0a9b2"},"vehicle_type_id":"4","last_reported":1743209395,"current_range_meters":8400,"station_id":"ce4bha12rcd13ifvqef0","pricing_plan_id":"cebpf4jnsgd1na2vs0mg"},{"bike_id":"653f4403-c5cd-4032-b5a8-482768e38f5f","system_id":"levelo_inurba_marseille","lat":43.23966,"lon":5.36621,"is_reserved":false,"is_disabled":false,"rental_uris":{"android":"levelo://app?vid=653f4403-c5cd-4032-b5a8-482768e38f5f","ios":"levelo://app?vid=653f4403-c5cd-4032-b5a8-482768e38f5f"},"vehicle_type_id":"4","last_reported":1743209395,"current_range_meters":8400,"station_id":"ce4bhi12rcd13ifvqfp0","pricing_plan_id":"cebpf4jnsgd1na2vs0mg"},{"bike_id":"a79df09d-97e0-46f9-81a9-245bc91e10e6","system_id":"levelo_inurba_marseille","lat":43.2792,"lon":5.39576,"is_reserved":false,"is_disabled":false,"rental_uris":{"android":"levelo://app?vid=a79df09d-97e0-46f9-81a9-245bc91e10e6","ios":"levelo://app?vid=a79df09d-97e0-46f9-81a9-245bc91e10e6"},"vehicle_type_id":"4","last_reported":1743209395,"current_range_meters":8400,"station_id":"ce4bhf92rcd13ifvqf40","pricing_plan_id":"cebpf4jnsgd1na2vs0mg"},{"bike_id":"9ee402e7-1a17-4a4f-8096-bc833bafbd6b","system_id":"levelo_inurba_marseille","lat":43.28952,"lon":5.36639,"is_reserved":false,"is_disabled":false,"rental_uris":{"android":"levelo://app?vid=9ee402e7-1a17-4a4f-8096-bc833bafbd6b","ios":"levelo://app?vid=9ee402e7-1a17-4a4f-8096-bc833bafbd6b"},"vehicle_type_id":"4","last_reported":1743209395,"current_range_meters":8400,"station_id":"ce4bhap2rcd13ifvqek0","pricing_plan_id":"cebpf4jnsgd1na2vs0mg"},{"bike_id":"971c92cb-66df-438d-9a85-e63af939e6ff","system_id":"levelo_inurba_marseille","lat":43.28613,"lon":5.35098,"is_reserved":false,"is_disabled":true,"rental_uris":{"android":"levelo://app?vid=971c92cb-66df-438d-9a85-e63af939e6ff","ios":"levelo://app?vid=971c92cb-66df-438d-9a85-e63af939e6ff"},"vehicle_type_id":"4","last_reported":1743209395,"current_range_meters":8400,"station_id":"ce4bhch2rcd13ifvqeug","pricing_plan_id":"cebpf4jnsgd1na2vs0mg"},{"bike_id":"b2d467c6-3d5b-4ab9-b0a5-528bc61c8ec7","system_id":"levelo_inurba_marseille","lat":43.29623,"lon":5.40592,"is_reserved":false,"is_disabled":false,"rental_uris":{"android":"levelo://app?vid=b2d467c6-3d5b-4ab9-b0a5-528bc61c8ec7","ios":"levelo://app?vid=b2d467c6-3d5b-4ab9-b0a5-528bc61c8ec7"},"vehicle_type_id":"4","last_reported":1743209395,"current_range_meters":8400,"station_id":"ce4bh0h2rcd13ifvqd60","pricing_plan_id":"cebpf4jnsgd1na2vs0mg"},{"bike_id":"0c854fcc-5e77-4160-906d-e1b6834dbdaf","system_id":"levelo_inurba_marseille","lat":43.287022,"lon":5.373877,"is_reserved":false,"is_disabled":false,"rental_uris":{"android":"levelo://app?vid=0c854fcc-5e77-4160-906d-e1b6834dbdaf","ios":"levelo://app?vid=0c854fcc-5e77-4160-906d-e1b6834dbdaf"},"vehicle_type_id":"4","last_reported":1743209395,"current_range_meters":8400,"station_id":"ce4bh3p2rcd13ifvqdq0","pricing_plan_id":"cebpf4jnsgd1na2vs0mg"},{"bike_id":"c6b682a7-e903-4363-967f-d69957e8f7ed","system_id":"levelo_inurba_marseille","lat":43.28619,"lon":5.35107,"is_reserved":false,"is_disabled":false,"rental_uris":{"android":"levelo://app?vid=c6b682a7-e903-4363-967f-d69957e8f7ed","ios":"levelo://app?vid=c6b682a7-e903-4363-967f-d69957e8f7ed"},"vehicle_type_id":"4","last_reported":1743209395,"current_range_meters":8400,"station_id":"ce4bhch2rcd13ifvqeug","pricing_plan_id":"cebpf4jnsgd1na2vs0mg"},{"bike_id":"b2bfdea8-1832-4b77-bf05-454dcf6a2dfe","system_id":"levelo_inurba_marseille","lat":43.29033,"lon":5.38637,"is_reserved":false,"is_disabled":false,"rental_uris":{"android":"levelo://app?vid=b2bfdea8-1832-4b77-bf05-454dcf6a2dfe","ios":"levelo://app?vid=b2bfdea8-1832-4b77-bf05-454dcf6a2dfe"},"vehicle_type_id":"4","last_reported":1743209395,"current_range_meters":8400,"station_id":"ce4bh4p2rcd13ifvqe0g","pricing_plan_id":"cebpf4jnsgd1na2vs0mg"},{"bike_id":"8f475bc8-a624-4e43-b14d-85deacbce954","system_id":"levelo_inurba_marseille","lat":43.31285,"lon":5.36855,"is_reserved":false,"is_disabled":false,"rental_uris":{"android":"levelo://app?vid=8f475bc8-a624-4e43-b14d-85deacbce954","ios":"levelo://app?vid=8f475bc8-a624-4e43-b14d-85deacbce954"},"vehicle_type_id":"4","last_reported":1743209395,"current_range_meters":8400,"station_id":"","pricing_plan_id":"cebpf4jnsgd1na2vs0mg"},{"bike_id":"1c14bf9c-ada4-4a36-8853-740a1a2c000a","system_id":"levelo_inurba_marseille","lat":43.23202,"lon":5.35566,"is_reserved":false,"is_disabled":false,"rental_uris":{"android":"levelo://app?vid=1c14bf9c-ada4-4a36-8853-740a1a2c000a","ios":"levelo://app?vid=1c14bf9c-ada4-4a36-8853-740a1a2c000a"},"vehicle_type_id":"4","last_reported":1743209395,"current_range_meters":8400,"station_id":"ce4bhu92rcd13ifvqi70","pricing_plan_id":"cebpf4jnsgd1na2vs0mg"},{"bike_id":"afde944a-633f-47b5-a2d3-76be709cb025","system_id":"levelo_inurba_marseille","lat":43.287214,"lon":5.360933,"is_reserved":false,"is_disabled":false,"rental_uris":{"android":"levelo://app?vid=afde944a-633f-47b5-a2d3-76be709cb025","ios":"levelo://app?vid=afde944a-633f-47b5-a2d3-76be709cb025"},"vehicle_type_id":"4","last_reported":1743209395,"current_range_meters":8400,"station_id":"cki0cbj6b192h4jlfktg","pricing_plan_id":"cebpf4jnsgd1na2vs0mg"},{"bike_id":"9e28d9e7-30e5-4ce8-82e6-280aec59b147","system_id":"levelo_inurba_marseille","lat":43.30136,"lon":5.39855,"is_reserved":false,"is_disabled":false,"rental_uris":{"android":"levelo://app?vid=9e28d9e7-30e5-4ce8-82e6-280aec59b147","ios":"levelo://app?vid=9e28d9e7-30e5-4ce8-82e6-280aec59b147"},"vehicle_type_id":"4","last_reported":1743209395,"current_range_meters":8000,"station_id":"ce4bh0h2rcd13ifvqd40","pricing_plan_id":"cebpf4jnsgd1na2vs0mg"},{"bike_id":"ac7b446a-5fec-4cbb-868e-45d0239dc236","system_id":"levelo_inurba_marseille","lat":43.24667,"lon":5.38173,"is_reserved":false,"is_disabled":false,"rental_uris":{"android":"levelo://app?vid=ac7b446a-5fec-4cbb-868e-45d0239dc236","ios":"levelo://app?vid=ac7b446a-5fec-4cbb-868e-45d0239dc236"},"vehicle_type_id":"4","last_reported":1743209395,"current_range_meters":8400,"station_id":"ce4bhih2rcd13ifvqfr0","pricing_plan_id":"cebpf4jnsgd1na2vs0mg"},{"bike_id":"94b5bcc7-6238-4eda-85ba-005d36893295","system_id":"levelo_inurba_marseille","lat":43.2904,"lon":5.35923,"is_reserved":false,"is_disabled":false,"rental_uris":{"android":"levelo://app?vid=94b5bcc7-6238-4eda-85ba-005d36893295","ios":"levelo://app?vid=94b5bcc7-6238-4eda-85ba-005d36893295"},"vehicle_type_id":"4","last_reported":1743209395,"current_range_meters":8800,"station_id":"ce4bha92rcd13ifvqeg0","pricing_plan_id":"cebpf4jnsgd1na2vs0mg"},{"bike_id":"7aed0c72-a48d-4722-b7d3-c21c59c75679","system_id":"levelo_inurba_marseille","lat":43.30791,"lon":5.37646,"is_reserved":false,"is_disabled":false,"rental_uris":{"android":"levelo://app?vid=7aed0c72-a48d-4722-b7d3-c21c59c75679","ios":"levelo://app?vid=7aed0c72-a48d-4722-b7d3-c21c59c75679"},"vehicle_type_id":"4","last_reported":1743209395,"current_range_meters":8800,"station_id":"ce4bgv92rcd13ifvqcq0","pricing_plan_id":"cebpf4jnsgd1na2vs0mg"},{"bike_id":"4bc0dbb3-90de-4eb9-aa21-74c63a07a4eb","system_id":"levelo_inurba_marseille","lat":43.31122,"lon":5.37756,"is_reserved":false,"is_disabled":false,"rental_uris":{"android":"levelo://app?vid=4bc0dbb3-90de-4eb9-aa21-74c63a07a4eb","ios":"levelo://app?vid=4bc0dbb3-90de-4eb9-aa21-74c63a07a4eb"},"vehicle_type_id":"4","last_reported":1743209395,"current_range_meters":8800,"station_id":"ce4bgt92rcd13ifvqcg0","pricing_plan_id":"cebpf4jnsgd1na2vs0mg"},{"bike_id":"cbe177f9-7359-4495-b99f-8a1700a0286f","system_id":"levelo_inurba_marseille","lat":43.2874,"lon":5.36085,"is_reserved":false,"is_disabled":false,"rental_uris":{"android":"levelo://app?vid=cbe177f9-7359-4495-b99f-8a1700a0286f","ios":"levelo://app?vid=cbe177f9-7359-4495-b99f-8a1700a0286f"},"vehicle_type_id":"4","last_reported":1743209395,"current_range_meters":8800,"station_id":"cki0cbj6b192h4jlfktg","pricing_plan_id":"cebpf4jnsgd1na2vs0mg"},{"bike_id":"90df0f14-f996-423e-b605-53c2c708242e","system_id":"levelo_inurba_marseille","lat":43.31695,"lon":5.4051,"is_reserved":false,"is_disabled":false,"rental_uris":{"android":"levelo://app?vid=90df0f14-f996-423e-b605-53c2c708242e","ios":"levelo://app?vid=90df0f14-f996-423e-b605-53c2c708242e"},"vehicle_type_id":"4","last_reported":1743209395,"current_range_meters":8800,"station_id":"ce4bh012rcd13ifvqd00","pricing_plan_id":"cebpf4jnsgd1na2vs0mg"},{"bike_id":"62ec7208-1c23-48c9-a058-897ce6565ea4","system_id":"levelo_inurba_marseille","lat":43.28075,"lon":5.39644,"is_reserved":false,"is_disabled":false,"rental_uris":{"android":"levelo://app?vid=62ec7208-1c23-48c9-a058-897ce6565ea4","ios":"levelo://app?vid=62ec7208-1c23-48c9-a058-897ce6565ea4"},"vehicle_type_id":"4","last_reported":1743209395,"current_range_meters":8800,"station_id":"ce4bho12rcd13ifvqh2g","pricing_plan_id":"cebpf4jnsgd1na2vs0mg"},{"bike_id":"bc5bbf3f-9240-4db9-9d96-0bdeacada09a","system_id":"levelo_inurba_marseille","lat":43.31361,"lon":5.38497,"is_reserved":false,"is_disabled":false,"rental_uris":{"android":"levelo://app?vid=bc5bbf3f-9240-4db9-9d96-0bdeacada09a","ios":"levelo://app?vid=bc5bbf3f-9240-4db9-9d96-0bdeacada09a"},"vehicle_type_id":"4","last_reported":1743209395,"current_range_meters":8800,"station_id":"ce4bgt92rcd13ifvqcf0","pricing_plan_id":"cebpf4jnsgd1na2vs0mg"},{"bike_id":"3c724e4a-ec93-4dd4-87a9-608ce3fa202a","system_id":"levelo_inurba_marseille","lat":43.31068,"lon":5.38331,"is_reserved":false,"is_disabled":false,"rental_uris":{"android":"levelo://app?vid=3c724e4a-ec93-4dd4-87a9-608ce3fa202a","ios":"levelo://app?vid=3c724e4a-ec93-4dd4-87a9-608ce3fa202a"},"vehicle_type_id":"4","last_reported":1743209395,"current_range_meters":8800,"station_id":"ce4bgv92rcd13ifvqcr0","pricing_plan_id":"cebpf4jnsgd1na2vs0mg"},{"bike_id":"846275f0-7b72-4373-a828-815bfa22388d","system_id":"levelo_inurba_marseille","lat":43.28873,"lon":5.35852,"is_reserved":false,"is_disabled":false,"rental_uris":{"android":"levelo://app?vid=846275f0-7b72-4373-a828-815bfa22388d","ios":"levelo://app?vid=846275f0-7b72-4373-a828-815bfa22388d"},"vehicle_type_id":"4","last_reported":1743209395,"current_range_meters":9200,"station_id":"ce4bhb12rcd13ifvqem0","pricing_plan_id":"cebpf4jnsgd1na2vs0mg"},{"bike_id":"47ad7ef3-58ae-45f0-9b6e-4619eae20d58","system_id":"levelo_inurba_marseille","lat":43.29257,"lon":5.40904,"is_reserved":false,"is_disabled":false,"rental_uris":{"android":"levelo://app?vid=47ad7ef3-58ae-45f0-9b6e-4619eae20d58","ios":"levelo://app?vid=47ad7ef3-58ae-45f0-9b6e-4619eae20d58"},"vehicle_type_id":"4","last_reported":1743209395,"current_range_meters":9200,"station_id":"ce4bh192rcd13ifvqdc0","pricing_plan_id":"cebpf4jnsgd1na2vs0mg"},{"bike_id":"137de838-e8d3-4efe-a48e-54cdf5986842","system_id":"levelo_inurba_marseille","lat":43.2407,"lon":5.37762,"is_reserved":false,"is_disabled":false,"rental_uris":{"android":"levelo://app?vid=137de838-e8d3-4efe-a48e-54cdf5986842","ios":"levelo://app?vid=137de838-e8d3-4efe-a48e-54cdf5986842"},"vehicle_type_id":"4","last_reported":1743209395,"current_range_meters":9200,"station_id":"ce4bhnp2rcd13ifvqgvg","pricing_plan_id":"cebpf4jnsgd1na2vs0mg"},{"bike_id":"216662ca-6f5a-4c3c-a9ee-ded91390cdec","system_id":"levelo_inurba_marseille","lat":43.29792,"lon":5.40405,"is_reserved":false,"is_disabled":false,"rental_uris":{"android":"levelo://app?vid=216662ca-6f5a-4c3c-a9ee-ded91390cdec","ios":"levelo://app?vid=216662ca-6f5a-4c3c-a9ee-ded91390cdec"},"vehicle_type_id":"4","last_reported":1743209395,"current_range_meters":9200,"station_id":"ce4bh112rcd13ifvqd90","pricing_plan_id":"cebpf4jnsgd1na2vs0mg"},{"bike_id":"91bcfcb5-aeac-4551-8444-bf8fd0577c58","system_id":"levelo_inurba_marseille","lat":43.30544,"lon":5.3842,"is_reserved":false,"is_disabled":false,"rental_uris":{"android":"levelo://app?vid=91bcfcb5-aeac-4551-8444-bf8fd0577c58","ios":"levelo://app?vid=91bcfcb5-aeac-4551-8444-bf8fd0577c58"},"vehicle_type_id":"4","last_reported":1743209395,"current_range_meters":9200,"station_id":"ce4bgg92rcd13ifvqb30","pricing_plan_id":"cebpf4jnsgd1na2vs0mg"},{"bike_id":"7a24a423-2986-4e0d-8a6a-b7b9c3149165","system_id":"levelo_inurba_marseille","lat":43.28909,"lon":5.42831,"is_reserved":false,"is_disabled":false,"rental_uris":{"android":"levelo://app?vid=7a24a423-2986-4e0d-8a6a-b7b9c3149165","ios":"levelo://app?vid=7a24a423-2986-4e0d-8a6a-b7b9c3149165"},"vehicle_type_id":"4","last_reported":1743209395,"current_range_meters":9200,"station_id":"","pricing_plan_id":"cebpf4jnsgd1na2vs0mg"},{"bike_id":"dbb786fe-6069-4016-9341-41e100bb0229","system_id":"levelo_inurba_marseille","lat":43.30669,"lon":5.40104,"is_reserved":false,"is_disabled":false,"rental_uris":{"android":"levelo://app?vid=dbb786fe-6069-4016-9341-41e100bb0229","ios":"levelo://app?vid=dbb786fe-6069-4016-9341-41e100bb0229"},"vehicle_type_id":"4","last_reported":1743209395,"current_range_meters":9200,"station_id":"ce4bh112rcd13ifvqda0","pricing_plan_id":"cebpf4jnsgd1na2vs0mg"},{"bike_id":"787c5a7b-7ea5-4559-9257-3bbdf77951a7","system_id":"levelo_inurba_marseille","lat":43.31075,"lon":5.38351,"is_reserved":false,"is_disabled":false,"rental_uris":{"android":"levelo://app?vid=787c5a7b-7ea5-4559-9257-3bbdf77951a7","ios":"levelo://app?vid=787c5a7b-7ea5-4559-9257-3bbdf77951a7"},"vehicle_type_id":"4","last_reported":1743209395,"current_range_meters":9200,"station_id":"ce4bgv92rcd13ifvqcr0","pricing_plan_id":"cebpf4jnsgd1na2vs0mg"},{"bike_id":"c34b7d4e-dedf-42dd-b25e-d003527cd79f","system_id":"levelo_inurba_marseille","lat":43.28483,"lon":5.38561,"is_reserved":false,"is_disabled":false,"rental_uris":{"android":"levelo://app?vid=c34b7d4e-dedf-42dd-b25e-d003527cd79f","ios":"levelo://app?vid=c34b7d4e-dedf-42dd-b25e-d003527cd79f"},"vehicle_type_id":"4","last_reported":1743209395,"current_range_meters":9200,"station_id":"ce4bh8p2rcd13ifvqeb0","pricing_plan_id":"cebpf4jnsgd1na2vs0mg"},{"bike_id":"2dd07609-0435-4017-a0ce-576c9e34e300","system_id":"levelo_inurba_marseille","lat":43.28664,"lon":5.3635,"is_reserved":false,"is_disabled":false,"rental_uris":{"android":"levelo://app?vid=2dd07609-0435-4017-a0ce-576c9e34e300","ios":"levelo://app?vid=2dd07609-0435-4017-a0ce-576c9e34e300"},"vehicle_type_id":"4","last_reported":1743209395,"current_range_meters":9200,"station_id":"ce4bhah2rcd13ifvqej0","pricing_plan_id":"cebpf4jnsgd1na2vs0mg"},{"bike_id":"79f51ba8-24b3-472d-9ab0-105f749f042e","system_id":"levelo_inurba_marseille","lat":43.27811,"lon":5.40711,"is_reserved":false,"is_disabled":true,"rental_uris":{"android":"levelo://app?vid=79f51ba8-24b3-472d-9ab0-105f749f042e","ios":"levelo://app?vid=79f51ba8-24b3-472d-9ab0-105f749f042e"},"vehicle_type_id":"4","last_reported":1743209395,"current_range_meters":9200,"station_id":"ce4bhnh2rcd13ifvqgtg","pricing_plan_id":"cebpf4jnsgd1na2vs0mg"},{"bike_id":"3baabe1e-785f-4275-b2ae-669cc3f900da","system_id":"levelo_inurba_marseille","lat":43.2782,"lon":5.40697,"is_reserved":false,"is_disabled":true,"rental_uris":{"android":"levelo://app?vid=3baabe1e-785f-4275-b2ae-669cc3f900da","ios":"levelo://app?vid=3baabe1e-785f-4275-b2ae-669cc3f900da"},"vehicle_type_id":"4","last_reported":1743209395,"current_range_meters":9600,"station_id":"ce4bhnh2rcd13ifvqgtg","pricing_plan_id":"cebpf4jnsgd1na2vs0mg"},{"bike_id":"d2be6ce3-8e79-4804-b0d3-008c875e7b9d","system_id":"levelo_inurba_marseille","lat":43.26222,"lon":5.37908,"is_reserved":false,"is_disabled":false,"rental_uris":{"android":"levelo://app?vid=d2be6ce3-8e79-4804-b0d3-008c875e7b9d","ios":"levelo://app?vid=d2be6ce3-8e79-4804-b0d3-008c875e7b9d"},"vehicle_type_id":"4","last_reported":1743209395,"current_range_meters":9600,"station_id":"ce4bhjp2rcd13ifvqg90","pricing_plan_id":"cebpf4jnsgd1na2vs0mg"},{"bike_id":"17d2c56a-04b7-4565-828e-4e8647a3dd59","system_id":"levelo_inurba_marseille","lat":43.232,"lon":5.35549,"is_reserved":false,"is_disabled":false,"rental_uris":{"android":"levelo://app?vid=17d2c56a-04b7-4565-828e-4e8647a3dd59","ios":"levelo://app?vid=17d2c56a-04b7-4565-828e-4e8647a3dd59"},"vehicle_type_id":"4","last_reported":1743209395,"current_range_meters":9600,"station_id":"ce4bhu92rcd13ifvqi70","pricing_plan_id":"cebpf4jnsgd1na2vs0mg"},{"bike_id":"dee53596-0ae8-4296-a138-f88d1609df6d","system_id":"levelo_inurba_marseille","lat":43.29533,"lon":5.39033,"is_reserved":false,"is_disabled":false,"rental_uris":{"android":"levelo://app?vid=dee53596-0ae8-4296-a138-f88d1609df6d","ios":"levelo://app?vid=dee53596-0ae8-4296-a138-f88d1609df6d"},"vehicle_type_id":"4","last_reported":1743209395,"current_range_meters":9600,"station_id":"ce4bh3p2rcd13ifvqdp0","pricing_plan_id":"cebpf4jnsgd1na2vs0mg"},{"bike_id":"f47eba55-a588-4033-a3dc-992c836c995d","system_id":"levelo_inurba_marseille","lat":43.31701,"lon":5.40505,"is_reserved":false,"is_disabled":false,"rental_uris":{"android":"levelo://app?vid=f47eba55-a588-4033-a3dc-992c836c995d","ios":"levelo://app?vid=f47eba55-a588-4033-a3dc-992c836c995d"},"vehicle_type_id":"4","last_reported":1743209395,"current_range_meters":9600,"station_id":"ce4bh012rcd13ifvqd00","pricing_plan_id":"cebpf4jnsgd1na2vs0mg"},{"bike_id":"52513dff-a40d-43af-9ce1-676840710ebe","system_id":"levelo_inurba_marseille","lat":43.28074,"lon":5.39638,"is_reserved":false,"is_disabled":false,"rental_uris":{"android":"levelo://app?vid=52513dff-a40d-43af-9ce1-676840710ebe","ios":"levelo://app?vid=52513dff-a40d-43af-9ce1-676840710ebe"},"vehicle_type_id":"4","last_reported":1743209395,"current_range_meters":9600,"station_id":"ce4bho12rcd13ifvqh2g","pricing_plan_id":"cebpf4jnsgd1na2vs0mg"},{"bike_id":"e55a9f0f-a340-4671-a441-293770de36df","system_id":"levelo_inurba_marseille","lat":43.2917,"lon":5.37174,"is_reserved":false,"is_disabled":false,"rental_uris":{"android":"levelo://app?vid=e55a9f0f-a340-4671-a441-293770de36df","ios":"levelo://app?vid=e55a9f0f-a340-4671-a441-293770de36df"},"vehicle_type_id":"4","last_reported":1743209395,"current_range_meters":9200,"station_id":"ce4bha92rcd13ifvqeh0","pricing_plan_id":"cebpf4jnsgd1na2vs0mg"},{"bike_id":"6082a6d8-29f3-4441-bd82-d0f95ead75d7","system_id":"levelo_inurba_marseille","lat":43.231894,"lon":5.355539,"is_reserved":false,"is_disabled":false,"rental_uris":{"android":"levelo://app?vid=6082a6d8-29f3-4441-bd82-d0f95ead75d7","ios":"levelo://app?vid=6082a6d8-29f3-4441-bd82-d0f95ead75d7"},"vehicle_type_id":"4","last_reported":1743209395,"current_range_meters":9600,"station_id":"ce4bhu92rcd13ifvqi70","pricing_plan_id":"cebpf4jnsgd1na2vs0mg"},{"bike_id":"4fbfc3e6-1d5a-469b-ab70-bfc87a275095","system_id":"levelo_inurba_marseille","lat":43.23215,"lon":5.35558,"is_reserved":false,"is_disabled":false,"rental_uris":{"android":"levelo://app?vid=4fbfc3e6-1d5a-469b-ab70-bfc87a275095","ios":"levelo://app?vid=4fbfc3e6-1d5a-469b-ab70-bfc87a275095"},"vehicle_type_id":"4","last_reported":1743209395,"current_range_meters":9600,"station_id":"ce4bhu92rcd13ifvqi70","pricing_plan_id":"cebpf4jnsgd1na2vs0mg"},{"bike_id":"9309954f-8fe9-4d0d-a320-0efba4bd7784","system_id":"levelo_inurba_marseille","lat":43.29866,"lon":5.36536,"is_reserved":false,"is_disabled":false,"rental_uris":{"android":"levelo://app?vid=9309954f-8fe9-4d0d-a320-0efba4bd7784","ios":"levelo://app?vid=9309954f-8fe9-4d0d-a320-0efba4bd7784"},"vehicle_type_id":"4","last_reported":1743209395,"current_range_meters":9600,"station_id":"","pricing_plan_id":"cebpf4jnsgd1na2vs0mg"},{"bike_id":"bb238aab-ecce-4d51-ba90-677f93725c94","system_id":"levelo_inurba_marseille","lat":43.34151,"lon":5.40906,"is_reserved":false,"is_disabled":false,"rental_uris":{"android":"levelo://app?vid=bb238aab-ecce-4d51-ba90-677f93725c94","ios":"levelo://app?vid=bb238aab-ecce-4d51-ba90-677f93725c94"},"vehicle_type_id":"4","last_reported":1743209395,"current_range_meters":9600,"station_id":"ce4bhqh2rcd13ifvqhlg","pricing_plan_id":"cebpf4jnsgd1na2vs0mg"},{"bike_id":"9462a91b-8b4b-430a-ac7a-4612f1bebb31","system_id":"levelo_inurba_marseille","lat":43.29102,"lon":5.38145,"is_reserved":false,"is_disabled":true,"rental_uris":{"android":"levelo://app?vid=9462a91b-8b4b-430a-ac7a-4612f1bebb31","ios":"levelo://app?vid=9462a91b-8b4b-430a-ac7a-4612f1bebb31"},"vehicle_type_id":"4","last_reported":1743209395,"current_range_meters":9600,"station_id":"ce4bh512rcd13ifvqe2g","pricing_plan_id":"cebpf4jnsgd1na2vs0mg"},{"bike_id":"d5ffff0a-47db-470d-a1ce-99a37bfcd090","system_id":"levelo_inurba_marseille","lat":43.2861,"lon":5.35115,"is_reserved":false,"is_disabled":false,"rental_uris":{"android":"levelo://app?vid=d5ffff0a-47db-470d-a1ce-99a37bfcd090","ios":"levelo://app?vid=d5ffff0a-47db-470d-a1ce-99a37bfcd090"},"vehicle_type_id":"4","last_reported":1743209395,"current_range_meters":9600,"station_id":"ce4bhch2rcd13ifvqeug","pricing_plan_id":"cebpf4jnsgd1na2vs0mg"},{"bike_id":"d11cfd0e-ec58-4792-963c-dc755fe11276","system_id":"levelo_inurba_marseille","lat":43.24658,"lon":5.38895,"is_reserved":false,"is_disabled":false,"rental_uris":{"android":"levelo://app?vid=d11cfd0e-ec58-4792-963c-dc755fe11276","ios":"levelo://app?vid=d11cfd0e-ec58-4792-963c-dc755fe11276"},"vehicle_type_id":"4","last_reported":1743209395,"current_range_meters":9600,"station_id":"ce4bhg12rcd13ifvqf60","pricing_plan_id":"cebpf4jnsgd1na2vs0mg"},{"bike_id":"c8b8d9c3-f5db-4db1-81ae-fc34790a3b61","system_id":"levelo_inurba_marseille","lat":43.28558,"lon":5.39503,"is_reserved":false,"is_disabled":false,"rental_uris":{"android":"levelo://app?vid=c8b8d9c3-f5db-4db1-81ae-fc34790a3b61","ios":"levelo://app?vid=c8b8d9c3-f5db-4db1-81ae-fc34790a3b61"},"vehicle_type_id":"4","last_reported":1743209395,"current_range_meters":9600,"station_id":"ce4bh292rcd13ifvqdg0","pricing_plan_id":"cebpf4jnsgd1na2vs0mg"},{"bike_id":"d6ae2dac-bcff-421f-8aa6-f2a5b3559285","system_id":"levelo_inurba_marseille","lat":43.26498,"lon":5.39538,"is_reserved":false,"is_disabled":false,"rental_uris":{"android":"levelo://app?vid=d6ae2dac-bcff-421f-8aa6-f2a5b3559285","ios":"levelo://app?vid=d6ae2dac-bcff-421f-8aa6-f2a5b3559285"},"vehicle_type_id":"4","last_reported":1743209395,"current_range_meters":9600,"station_id":"ce4bhi12rcd13ifvqfq0","pricing_plan_id":"cebpf4jnsgd1na2vs0mg"},{"bike_id":"ccb56be4-7377-4a3b-a856-ca0eaa75233b","system_id":"levelo_inurba_marseille","lat":43.26553,"lon":5.3728,"is_reserved":false,"is_disabled":false,"rental_uris":{"android":"levelo://app?vid=ccb56be4-7377-4a3b-a856-ca0eaa75233b","ios":"levelo://app?vid=ccb56be4-7377-4a3b-a856-ca0eaa75233b"},"vehicle_type_id":"4","last_reported":1743209395,"current_range_meters":10000,"station_id":"ce4bhg12rcd13ifvqf70","pricing_plan_id":"cebpf4jnsgd1na2vs0mg"},{"bike_id":"78879d72-d868-43c9-a743-a6ab48dd9b11","system_id":"levelo_inurba_marseille","lat":43.28731,"lon":5.36073,"is_reserved":false,"is_disabled":false,"rental_uris":{"android":"levelo://app?vid=78879d72-d868-43c9-a743-a6ab48dd9b11","ios":"levelo://app?vid=78879d72-d868-43c9-a743-a6ab48dd9b11"},"vehicle_type_id":"4","last_reported":1743209395,"current_range_meters":10000,"station_id":"cki0cbj6b192h4jlfktg","pricing_plan_id":"cebpf4jnsgd1na2vs0mg"},{"bike_id":"5f895ec7-768c-47d7-a007-48cfe0602301","system_id":"levelo_inurba_marseille","lat":43.298431,"lon":5.36278,"is_reserved":false,"is_disabled":false,"rental_uris":{"android":"levelo://app?vid=5f895ec7-768c-47d7-a007-48cfe0602301","ios":"levelo://app?vid=5f895ec7-768c-47d7-a007-48cfe0602301"},"vehicle_type_id":"4","last_reported":1743209395,"current_range_meters":10000,"station_id":"ce4bhi12rcd13ifvqfq0","pricing_plan_id":"cebpf4jnsgd1na2vs0mg"},{"bike_id":"eef75a29-8f94-45b0-b9d9-6991a77efccc","system_id":"levelo_inurba_marseille","lat":43.29256,"lon":5.37627,"is_reserved":false,"is_disabled":false,"rental_uris":{"android":"levelo://app?vid=eef75a29-8f94-45b0-b9d9-6991a77efccc","ios":"levelo://app?vid=eef75a29-8f94-45b0-b9d9-6991a77efccc"},"vehicle_type_id":"4","last_reported":1743209395,"current_range_meters":10000,"station_id":"ce4bgi12rcd13ifvqb80","pricing_plan_id":"cebpf4jnsgd1na2vs0mg"},{"bike_id":"b5ace6c6-32e3-486d-9744-efb1ce0dfa9d","system_id":"levelo_inurba_marseille","lat":43.28611,"lon":5.3707,"is_reserved":false,"is_disabled":false,"rental_uris":{"android":"levelo://app?vid=b5ace6c6-32e3-486d-9744-efb1ce0dfa9d","ios":"levelo://app?vid=b5ace6c6-32e3-486d-9744-efb1ce0dfa9d"},"vehicle_type_id":"4","last_reported":1743209395,"current_range_meters":10000,"station_id":"ce4bht12rcd13ifvqi60","pricing_plan_id":"cebpf4jnsgd1na2vs0mg"},{"bike_id":"6e5f4618-59dd-425b-aa11-f67d0d9fb1a5","system_id":"levelo_inurba_marseille","lat":43.32005,"lon":5.38147,"is_reserved":false,"is_disabled":true,"rental_uris":{"android":"levelo://app?vid=6e5f4618-59dd-425b-aa11-f67d0d9fb1a5","ios":"levelo://app?vid=6e5f4618-59dd-425b-aa11-f67d0d9fb1a5"},"vehicle_type_id":"4","last_reported":1743209395,"current_range_meters":10000,"station_id":"ce4bhr12rcd13ifvqhpg","pricing_plan_id":"cebpf4jnsgd1na2vs0mg"},{"bike_id":"af254d97-a043-44da-9e0b-050315514acc","system_id":"levelo_inurba_marseille","lat":43.235958,"lon":5.403438,"is_reserved":false,"is_disabled":false,"rental_uris":{"android":"levelo://app?vid=af254d97-a043-44da-9e0b-050315514acc","ios":"levelo://app?vid=af254d97-a043-44da-9e0b-050315514acc"},"vehicle_type_id":"4","last_reported":1743209395,"current_range_meters":10000,"station_id":"","pricing_plan_id":"cebpf4jnsgd1na2vs0mg"},{"bike_id":"e4614adf-59ca-49c9-9f29-fb2629aacd37","system_id":"levelo_inurba_marseille","lat":43.28613,"lon":5.35113,"is_reserved":false,"is_disabled":false,"rental_uris":{"android":"levelo://app?vid=e4614adf-59ca-49c9-9f29-fb2629aacd37","ios":"levelo://app?vid=e4614adf-59ca-49c9-9f29-fb2629aacd37"},"vehicle_type_id":"4","last_reported":1743209395,"current_range_meters":10000,"station_id":"ce4bhch2rcd13ifvqeug","pricing_plan_id":"cebpf4jnsgd1na2vs0mg"},{"bike_id":"2cd13ff0-e8ea-4b67-910d-1fd384c021d2","system_id":"levelo_inurba_marseille","lat":43.28116,"lon":5.37852,"is_reserved":false,"is_disabled":false,"rental_uris":{"android":"levelo://app?vid=2cd13ff0-e8ea-4b67-910d-1fd384c021d2","ios":"levelo://app?vid=2cd13ff0-e8ea-4b67-910d-1fd384c021d2"},"vehicle_type_id":"4","last_reported":1743209395,"current_range_meters":10800,"station_id":"ce4bha12rcd13ifvqee0","pricing_plan_id":"cebpf4jnsgd1na2vs0mg"},{"bike_id":"08898a1f-54b5-4a10-b5d3-af0a5ac3c869","system_id":"levelo_inurba_marseille","lat":43.24637,"lon":5.381,"is_reserved":false,"is_disabled":false,"rental_uris":{"android":"levelo://app?vid=08898a1f-54b5-4a10-b5d3-af0a5ac3c869","ios":"levelo://app?vid=08898a1f-54b5-4a10-b5d3-af0a5ac3c869"},"vehicle_type_id":"4","last_reported":1743209395,"current_range_meters":10800,"station_id":"ce4bhnp2rcd13ifvqgvg","pricing_plan_id":"cebpf4jnsgd1na2vs0mg"},{"bike_id":"7cb45fac-62b5-4ead-be9c-e53660ce9dfb","system_id":"levelo_inurba_marseille","lat":43.28742,"lon":5.40002,"is_reserved":false,"is_disabled":true,"rental_uris":{"android":"levelo://app?vid=7cb45fac-62b5-4ead-be9c-e53660ce9dfb","ios":"levelo://app?vid=7cb45fac-62b5-4ead-be9c-e53660ce9dfb"},"vehicle_type_id":"4","last_reported":1743209395,"current_range_meters":10800,"station_id":"ce4bho92rcd13ifvqh3g","pricing_plan_id":"cebpf4jnsgd1na2vs0mg"},{"bike_id":"983c4c9f-ee1a-4d13-8ce7-bfd36c479f46","system_id":"levelo_inurba_marseille","lat":43.24176,"lon":5.36403,"is_reserved":false,"is_disabled":false,"rental_uris":{"android":"levelo://app?vid=983c4c9f-ee1a-4d13-8ce7-bfd36c479f46","ios":"levelo://app?vid=983c4c9f-ee1a-4d13-8ce7-bfd36c479f46"},"vehicle_type_id":"4","last_reported":1743209395,"current_range_meters":10800,"station_id":"cpo36qri1sfpv3e86is0","pricing_plan_id":"cebpf4jnsgd1na2vs0mg"},{"bike_id":"d110ea9c-afe8-47f1-b008-e66bc6e44a55","system_id":"levelo_inurba_marseille","lat":43.28426,"lon":5.34996,"is_reserved":false,"is_disabled":false,"rental_uris":{"android":"levelo://app?vid=d110ea9c-afe8-47f1-b008-e66bc6e44a55","ios":"levelo://app?vid=d110ea9c-afe8-47f1-b008-e66bc6e44a55"},"vehicle_type_id":"4","last_reported":1743209395,"current_range_meters":10800,"station_id":"ce4bhbh2rcd13ifvqepg","pricing_plan_id":"cebpf4jnsgd1na2vs0mg"},{"bike_id":"5931979f-217a-43a6-8599-373bf824e6f5","system_id":"levelo_inurba_marseille","lat":43.28697,"lon":5.39983,"is_reserved":false,"is_disabled":false,"rental_uris":{"android":"levelo://app?vid=5931979f-217a-43a6-8599-373bf824e6f5","ios":"levelo://app?vid=5931979f-217a-43a6-8599-373bf824e6f5"},"vehicle_type_id":"4","last_reported":1743209395,"current_range_meters":10800,"station_id":"ce4bho92rcd13ifvqh3g","pricing_plan_id":"cebpf4jnsgd1na2vs0mg"},{"bike_id":"07f85d2a-7c7f-4f29-9730-8544a2c785f0","system_id":"levelo_inurba_marseille","lat":43.28457,"lon":5.35882,"is_reserved":false,"is_disabled":false,"rental_uris":{"android":"levelo://app?vid=07f85d2a-7c7f-4f29-9730-8544a2c785f0","ios":"levelo://app?vid=07f85d2a-7c7f-4f29-9730-8544a2c785f0"},"vehicle_type_id":"4","last_reported":1743209395,"current_range_meters":10800,"station_id":"ce4bhah2rcd13ifvqei0","pricing_plan_id":"cebpf4jnsgd1na2vs0mg"},{"bike_id":"676aa410-285a-48fa-832f-41d35fee7288","system_id":"levelo_inurba_marseille","lat":43.28611,"lon":5.37052,"is_reserved":false,"is_disabled":false,"rental_uris":{"android":"levelo://app?vid=676aa410-285a-48fa-832f-41d35fee7288","ios":"levelo://app?vid=676aa410-285a-48fa-832f-41d35fee7288"},"vehicle_type_id":"4","last_reported":1743209395,"current_range_meters":10800,"station_id":"ce4bht12rcd13ifvqi60","pricing_plan_id":"cebpf4jnsgd1na2vs0mg"},{"bike_id":"201331f6-89d2-473a-a738-b22172ea4f15","system_id":"levelo_inurba_marseille","lat":43.31291,"lon":5.40199,"is_reserved":false,"is_disabled":false,"rental_uris":{"android":"levelo://app?vid=201331f6-89d2-473a-a738-b22172ea4f15","ios":"levelo://app?vid=201331f6-89d2-473a-a738-b22172ea4f15"},"vehicle_type_id":"4","last_reported":1743209395,"current_range_meters":10800,"station_id":"ce4bh092rcd13ifvqd30","pricing_plan_id":"cebpf4jnsgd1na2vs0mg"},{"bike_id":"17d5ad6c-1bcb-44fc-b455-486da0d48244","system_id":"levelo_inurba_marseille","lat":43.23981,"lon":5.36595,"is_reserved":false,"is_disabled":false,"rental_uris":{"android":"levelo://app?vid=17d5ad6c-1bcb-44fc-b455-486da0d48244","ios":"levelo://app?vid=17d5ad6c-1bcb-44fc-b455-486da0d48244"},"vehicle_type_id":"4","last_reported":1743209395,"current_range_meters":10800,"station_id":"ce4bhi12rcd13ifvqfp0","pricing_plan_id":"cebpf4jnsgd1na2vs0mg"},{"bike_id":"ea4d652d-0687-4fa8-9e2c-7cf26eec9129","system_id":"levelo_inurba_marseille","lat":43.29249,"lon":5.38436,"is_reserved":false,"is_disabled":true,"rental_uris":{"android":"levelo://app?vid=ea4d652d-0687-4fa8-9e2c-7cf26eec9129","ios":"levelo://app?vid=ea4d652d-0687-4fa8-9e2c-7cf26eec9129"},"vehicle_type_id":"4","last_reported":1743209395,"current_range_meters":10800,"station_id":"ce4bh692rcd13ifvqea0","pricing_plan_id":"cebpf4jnsgd1na2vs0mg"},{"bike_id":"779df052-2e91-4c4c-b7c7-c99a5f967063","system_id":"levelo_inurba_marseille","lat":43.28845,"lon":5.3932,"is_reserved":false,"is_disabled":false,"rental_uris":{"android":"levelo://app?vid=779df052-2e91-4c4c-b7c7-c99a5f967063","ios":"levelo://app?vid=779df052-2e91-4c4c-b7c7-c99a5f967063"},"vehicle_type_id":"4","last_reported":1743209395,"current_range_meters":10800,"station_id":"ce4bh2p2rcd13ifvqdi0","pricing_plan_id":"cebpf4jnsgd1na2vs0mg"},{"bike_id":"d14cdd1e-f0b3-48a5-be5e-77128af69a2d","system_id":"levelo_inurba_marseille","lat":43.28633,"lon":5.35105,"is_reserved":false,"is_disabled":false,"rental_uris":{"android":"levelo://app?vid=d14cdd1e-f0b3-48a5-be5e-77128af69a2d","ios":"levelo://app?vid=d14cdd1e-f0b3-48a5-be5e-77128af69a2d"},"vehicle_type_id":"4","last_reported":1743209395,"current_range_meters":10800,"station_id":"ce4bhch2rcd13ifvqeug","pricing_plan_id":"cebpf4jnsgd1na2vs0mg"},{"bike_id":"4e7a2723-44eb-4736-9b9c-c9ef593428c7","system_id":"levelo_inurba_marseille","lat":43.30258,"lon":5.40073,"is_reserved":false,"is_disabled":false,"rental_uris":{"android":"levelo://app?vid=4e7a2723-44eb-4736-9b9c-c9ef593428c7","ios":"levelo://app?vid=4e7a2723-44eb-4736-9b9c-c9ef593428c7"},"vehicle_type_id":"4","last_reported":1743209395,"current_range_meters":10800,"station_id":"ce4bgvh2rcd13ifvqcs0","pricing_plan_id":"cebpf4jnsgd1na2vs0mg"},{"bike_id":"3ad7b79f-dd89-4709-9933-037195493289","system_id":"levelo_inurba_marseille","lat":43.30151,"lon":5.38073,"is_reserved":false,"is_disabled":false,"rental_uris":{"android":"levelo://app?vid=3ad7b79f-dd89-4709-9933-037195493289","ios":"levelo://app?vid=3ad7b79f-dd89-4709-9933-037195493289"},"vehicle_type_id":"4","last_reported":1743209395,"current_range_meters":10800,"station_id":"ce4bgjp2rcd13ifvqbh0","pricing_plan_id":"cebpf4jnsgd1na2vs0mg"},{"bike_id":"b1ecd358-38ec-4753-8af1-9b87454b444a","system_id":"levelo_inurba_marseille","lat":43.28603,"lon":5.35119,"is_reserved":false,"is_disabled":false,"rental_uris":{"android":"levelo://app?vid=b1ecd358-38ec-4753-8af1-9b87454b444a","ios":"levelo://app?vid=b1ecd358-38ec-4753-8af1-9b87454b444a"},"vehicle_type_id":"4","last_reported":1743209395,"current_range_meters":11200,"station_id":"ce4bhch2rcd13ifvqeug","pricing_plan_id":"cebpf4jnsgd1na2vs0mg"},{"bike_id":"41120bb5-68a1-4644-b91a-e5f7c0b65181","system_id":"levelo_inurba_marseille","lat":43.3096,"lon":5.39043,"is_reserved":false,"is_disabled":false,"rental_uris":{"android":"levelo://app?vid=41120bb5-68a1-4644-b91a-e5f7c0b65181","ios":"levelo://app?vid=41120bb5-68a1-4644-b91a-e5f7c0b65181"},"vehicle_type_id":"4","last_reported":1743209395,"current_range_meters":11200,"station_id":"ce4bgup2rcd13ifvqco0","pricing_plan_id":"cebpf4jnsgd1na2vs0mg"},{"bike_id":"980b1b8d-c114-4f00-88f8-a0ddccb8fb71","system_id":"levelo_inurba_marseille","lat":43.28664,"lon":5.35089,"is_reserved":false,"is_disabled":false,"rental_uris":{"android":"levelo://app?vid=980b1b8d-c114-4f00-88f8-a0ddccb8fb71","ios":"levelo://app?vid=980b1b8d-c114-4f00-88f8-a0ddccb8fb71"},"vehicle_type_id":"4","last_reported":1743209395,"current_range_meters":11200,"station_id":"ce4bhch2rcd13ifvqeug","pricing_plan_id":"cebpf4jnsgd1na2vs0mg"},{"bike_id":"a728f1b7-aa32-4cf8-b9ea-95ccca2b5a9c","system_id":"levelo_inurba_marseille","lat":43.29799,"lon":5.404,"is_reserved":false,"is_disabled":false,"rental_uris":{"android":"levelo://app?vid=a728f1b7-aa32-4cf8-b9ea-95ccca2b5a9c","ios":"levelo://app?vid=a728f1b7-aa32-4cf8-b9ea-95ccca2b5a9c"},"vehicle_type_id":"4","last_reported":1743209395,"current_range_meters":11200,"station_id":"ce4bh112rcd13ifvqd90","pricing_plan_id":"cebpf4jnsgd1na2vs0mg"},{"bike_id":"0e0effec-ffdb-4a4d-b5d0-c5c4fd6ed229","system_id":"levelo_inurba_marseille","lat":43.30534,"lon":5.38421,"is_reserved":false,"is_disabled":false,"rental_uris":{"android":"levelo://app?vid=0e0effec-ffdb-4a4d-b5d0-c5c4fd6ed229","ios":"levelo://app?vid=0e0effec-ffdb-4a4d-b5d0-c5c4fd6ed229"},"vehicle_type_id":"4","last_reported":1743209395,"current_range_meters":11200,"station_id":"ce4bgg92rcd13ifvqb30","pricing_plan_id":"cebpf4jnsgd1na2vs0mg"},{"bike_id":"20b1a633-5523-46de-86bb-ccc76e245f2b","system_id":"levelo_inurba_marseille","lat":43.30426,"lon":5.39745,"is_reserved":false,"is_disabled":false,"rental_uris":{"android":"levelo://app?vid=20b1a633-5523-46de-86bb-ccc76e245f2b","ios":"levelo://app?vid=20b1a633-5523-46de-86bb-ccc76e245f2b"},"vehicle_type_id":"4","last_reported":1743209395,"current_range_meters":11200,"station_id":"ce4bh092rcd13ifvqd20","pricing_plan_id":"cebpf4jnsgd1na2vs0mg"},{"bike_id":"6a8b8a6f-1d77-4116-aead-6fd201e2adda","system_id":"levelo_inurba_marseille","lat":43.28992,"lon":5.42581,"is_reserved":false,"is_disabled":false,"rental_uris":{"android":"levelo://app?vid=6a8b8a6f-1d77-4116-aead-6fd201e2adda","ios":"levelo://app?vid=6a8b8a6f-1d77-4116-aead-6fd201e2adda"},"vehicle_type_id":"4","last_reported":1743209395,"current_range_meters":11200,"station_id":"","pricing_plan_id":"cebpf4jnsgd1na2vs0mg"},{"bike_id":"86402da5-f9ef-43b6-a281-06ce7c4c3160","system_id":"levelo_inurba_marseille","lat":43.28613,"lon":5.35106,"is_reserved":false,"is_disabled":false,"rental_uris":{"android":"levelo://app?vid=86402da5-f9ef-43b6-a281-06ce7c4c3160","ios":"levelo://app?vid=86402da5-f9ef-43b6-a281-06ce7c4c3160"},"vehicle_type_id":"4","last_reported":1743209395,"current_range_meters":11600,"station_id":"ce4bhch2rcd13ifvqeug","pricing_plan_id":"cebpf4jnsgd1na2vs0mg"},{"bike_id":"96fa1290-e699-40b9-9109-379d3b77c6fb","system_id":"levelo_inurba_marseille","lat":43.33733,"lon":5.39194,"is_reserved":false,"is_disabled":false,"rental_uris":{"android":"levelo://app?vid=96fa1290-e699-40b9-9109-379d3b77c6fb","ios":"levelo://app?vid=96fa1290-e699-40b9-9109-379d3b77c6fb"},"vehicle_type_id":"4","last_reported":1743209395,"current_range_meters":11600,"station_id":"ce4bhr92rcd13ifvqhsg","pricing_plan_id":"cebpf4jnsgd1na2vs0mg"},{"bike_id":"376e2628-4699-4887-9ff3-b8de9424e7ce","system_id":"levelo_inurba_marseille","lat":43.27999,"lon":5.4164,"is_reserved":false,"is_disabled":false,"rental_uris":{"android":"levelo://app?vid=376e2628-4699-4887-9ff3-b8de9424e7ce","ios":"levelo://app?vid=376e2628-4699-4887-9ff3-b8de9424e7ce"},"vehicle_type_id":"4","last_reported":1743209395,"current_range_meters":11600,"station_id":"ce4bho12rcd13ifvqh1g","pricing_plan_id":"cebpf4jnsgd1na2vs0mg"},{"bike_id":"8b6540df-f0de-4fe4-a1a8-c73d8d908f05","system_id":"levelo_inurba_marseille","lat":43.32344,"lon":5.38916,"is_reserved":false,"is_disabled":false,"rental_uris":{"android":"levelo://app?vid=8b6540df-f0de-4fe4-a1a8-c73d8d908f05","ios":"levelo://app?vid=8b6540df-f0de-4fe4-a1a8-c73d8d908f05"},"vehicle_type_id":"4","last_reported":1743209395,"current_range_meters":11600,"station_id":"ce4bhqp2rcd13ifvqhog","pricing_plan_id":"cebpf4jnsgd1na2vs0mg"},{"bike_id":"cb4b75ea-6c38-4abb-82de-d97931d3dd4d","system_id":"levelo_inurba_marseille","lat":43.29359,"lon":5.37844,"is_reserved":false,"is_disabled":false,"rental_uris":{"android":"levelo://app?vid=cb4b75ea-6c38-4abb-82de-d97931d3dd4d","ios":"levelo://app?vid=cb4b75ea-6c38-4abb-82de-d97931d3dd4d"},"vehicle_type_id":"4","last_reported":1743209395,"current_range_meters":11200,"station_id":"ce4bgjh2rcd13ifvqbf0","pricing_plan_id":"cebpf4jnsgd1na2vs0mg"},{"bike_id":"3a2e35ff-67f7-42a4-b09b-1fe3ef6e95d8","system_id":"levelo_inurba_marseille","lat":43.22934,"lon":5.35382,"is_reserved":false,"is_disabled":false,"rental_uris":{"android":"levelo://app?vid=3a2e35ff-67f7-42a4-b09b-1fe3ef6e95d8","ios":"levelo://app?vid=3a2e35ff-67f7-42a4-b09b-1fe3ef6e95d8"},"vehicle_type_id":"4","last_reported":1743209395,"current_range_meters":11600,"station_id":"cpo3532slgdg3j2ikp40","pricing_plan_id":"cebpf4jnsgd1na2vs0mg"},{"bike_id":"4d33bc5b-fded-4b79-abc4-d8ca2a4f7165","system_id":"levelo_inurba_marseille","lat":43.25733,"lon":5.41104,"is_reserved":false,"is_disabled":false,"rental_uris":{"android":"levelo://app?vid=4d33bc5b-fded-4b79-abc4-d8ca2a4f7165","ios":"levelo://app?vid=4d33bc5b-fded-4b79-abc4-d8ca2a4f7165"},"vehicle_type_id":"4","last_reported":1743209395,"current_range_meters":11600,"station_id":"ce4bhkp2rcd13ifvqgd0","pricing_plan_id":"cebpf4jnsgd1na2vs0mg"},{"bike_id":"258cd958-e46f-4e56-879b-fac508681c9b","system_id":"levelo_inurba_marseille","lat":43.28954,"lon":5.36412,"is_reserved":false,"is_disabled":false,"rental_uris":{"android":"levelo://app?vid=258cd958-e46f-4e56-879b-fac508681c9b","ios":"levelo://app?vid=258cd958-e46f-4e56-879b-fac508681c9b"},"vehicle_type_id":"4","last_reported":1743209395,"current_range_meters":11600,"station_id":"ce4bhc92rcd13ifvqetg","pricing_plan_id":"cebpf4jnsgd1na2vs0mg"},{"bike_id":"b141e692-a5f1-465e-8660-7ccff6c0acc0","system_id":"levelo_inurba_marseille","lat":43.30218,"lon":5.39466,"is_reserved":false,"is_disabled":false,"rental_uris":{"android":"levelo://app?vid=b141e692-a5f1-465e-8660-7ccff6c0acc0","ios":"levelo://app?vid=b141e692-a5f1-465e-8660-7ccff6c0acc0"},"vehicle_type_id":"4","last_reported":1743209395,"current_range_meters":11600,"station_id":"ce4bh0p2rcd13ifvqd70","pricing_plan_id":"cebpf4jnsgd1na2vs0mg"},{"bike_id":"ad095ff6-2192-4acf-9d3b-75082cfc78be","system_id":"levelo_inurba_marseille","lat":43.29273,"lon":5.3773,"is_reserved":false,"is_disabled":false,"rental_uris":{"android":"levelo://app?vid=ad095ff6-2192-4acf-9d3b-75082cfc78be","ios":"levelo://app?vid=ad095ff6-2192-4acf-9d3b-75082cfc78be"},"vehicle_type_id":"4","last_reported":1743209395,"current_range_meters":11600,"station_id":"","pricing_plan_id":"cebpf4jnsgd1na2vs0mg"},{"bike_id":"bfb24887-b970-47a7-bd85-2075d6adb589","system_id":"levelo_inurba_marseille","lat":43.28943,"lon":5.36624,"is_reserved":false,"is_disabled":false,"rental_uris":{"android":"levelo://app?vid=bfb24887-b970-47a7-bd85-2075d6adb589","ios":"levelo://app?vid=bfb24887-b970-47a7-bd85-2075d6adb589"},"vehicle_type_id":"4","last_reported":1743209395,"current_range_meters":11600,"station_id":"ce4bhap2rcd13ifvqek0","pricing_plan_id":"cebpf4jnsgd1na2vs0mg"},{"bike_id":"8f0e437b-60a4-4beb-8da1-727e5bb0f2d2","system_id":"levelo_inurba_marseille","lat":43.24809,"lon":5.37441,"is_reserved":false,"is_disabled":false,"rental_uris":{"android":"levelo://app?vid=8f0e437b-60a4-4beb-8da1-727e5bb0f2d2","ios":"levelo://app?vid=8f0e437b-60a4-4beb-8da1-727e5bb0f2d2"},"vehicle_type_id":"4","last_reported":1743209395,"current_range_meters":12000,"station_id":"ce4bhgh2rcd13ifvqfb0","pricing_plan_id":"cebpf4jnsgd1na2vs0mg"},{"bike_id":"f9de63e8-e5f0-486f-88e4-96470d4381e2","system_id":"levelo_inurba_marseille","lat":43.29274,"lon":5.40124,"is_reserved":false,"is_disabled":false,"rental_uris":{"android":"levelo://app?vid=f9de63e8-e5f0-486f-88e4-96470d4381e2","ios":"levelo://app?vid=f9de63e8-e5f0-486f-88e4-96470d4381e2"},"vehicle_type_id":"4","last_reported":1743209395,"current_range_meters":12000,"station_id":"ce4bh312rcd13ifvqdk0","pricing_plan_id":"cebpf4jnsgd1na2vs0mg"},{"bike_id":"52e0210e-8808-4eec-83b4-60ac379c059c","system_id":"levelo_inurba_marseille","lat":43.29229,"lon":5.36067,"is_reserved":false,"is_disabled":false,"rental_uris":{"android":"levelo://app?vid=52e0210e-8808-4eec-83b4-60ac379c059c","ios":"levelo://app?vid=52e0210e-8808-4eec-83b4-60ac379c059c"},"vehicle_type_id":"4","last_reported":1743209395,"current_range_meters":12000,"station_id":"ce4bhbh2rcd13ifvqeqg","pricing_plan_id":"cebpf4jnsgd1na2vs0mg"},{"bike_id":"4b2323ae-94b8-41f7-9062-4d9bd4bd549e","system_id":"levelo_inurba_marseille","lat":43.24127,"lon":5.36326,"is_reserved":false,"is_disabled":false,"rental_uris":{"android":"levelo://app?vid=4b2323ae-94b8-41f7-9062-4d9bd4bd549e","ios":"levelo://app?vid=4b2323ae-94b8-41f7-9062-4d9bd4bd549e"},"vehicle_type_id":"4","last_reported":1743209395,"current_range_meters":12000,"station_id":"","pricing_plan_id":"cebpf4jnsgd1na2vs0mg"},{"bike_id":"a9514da0-9b96-41a0-93b8-9bfdb43fee23","system_id":"levelo_inurba_marseille","lat":43.31365,"lon":5.3849,"is_reserved":false,"is_disabled":false,"rental_uris":{"android":"levelo://app?vid=a9514da0-9b96-41a0-93b8-9bfdb43fee23","ios":"levelo://app?vid=a9514da0-9b96-41a0-93b8-9bfdb43fee23"},"vehicle_type_id":"4","last_reported":1743209395,"current_range_meters":12000,"station_id":"ce4bgt92rcd13ifvqcf0","pricing_plan_id":"cebpf4jnsgd1na2vs0mg"},{"bike_id":"7aaf5a0e-2c2f-4ed8-8a34-59a0a4d174c4","system_id":"levelo_inurba_marseille","lat":43.28857,"lon":5.39327,"is_reserved":false,"is_disabled":false,"rental_uris":{"android":"levelo://app?vid=7aaf5a0e-2c2f-4ed8-8a34-59a0a4d174c4","ios":"levelo://app?vid=7aaf5a0e-2c2f-4ed8-8a34-59a0a4d174c4"},"vehicle_type_id":"4","last_reported":1743209395,"current_range_meters":12000,"station_id":"","pricing_plan_id":"cebpf4jnsgd1na2vs0mg"},{"bike_id":"161d8420-1bd4-4c54-8885-cf257d3ec950","system_id":"levelo_inurba_marseille","lat":43.25025,"lon":5.38931,"is_reserved":false,"is_disabled":false,"rental_uris":{"android":"levelo://app?vid=161d8420-1bd4-4c54-8885-cf257d3ec950","ios":"levelo://app?vid=161d8420-1bd4-4c54-8885-cf257d3ec950"},"vehicle_type_id":"4","last_reported":1743209395,"current_range_meters":12000,"station_id":"ce4bhgp2rcd13ifvqfd0","pricing_plan_id":"cebpf4jnsgd1na2vs0mg"},{"bike_id":"c002039a-7a5c-4c14-b885-cd2b9fb7c7ec","system_id":"levelo_inurba_marseille","lat":43.28675,"lon":5.36351,"is_reserved":false,"is_disabled":false,"rental_uris":{"android":"levelo://app?vid=c002039a-7a5c-4c14-b885-cd2b9fb7c7ec","ios":"levelo://app?vid=c002039a-7a5c-4c14-b885-cd2b9fb7c7ec"},"vehicle_type_id":"4","last_reported":1743209395,"current_range_meters":12000,"station_id":"ce4bhah2rcd13ifvqej0","pricing_plan_id":"cebpf4jnsgd1na2vs0mg"},{"bike_id":"01d5e08b-2ea8-4f4b-9d01-610ea15628e5","system_id":"levelo_inurba_marseille","lat":43.29025,"lon":5.38634,"is_reserved":false,"is_disabled":false,"rental_uris":{"android":"levelo://app?vid=01d5e08b-2ea8-4f4b-9d01-610ea15628e5","ios":"levelo://app?vid=01d5e08b-2ea8-4f4b-9d01-610ea15628e5"},"vehicle_type_id":"4","last_reported":1743209395,"current_range_meters":12400,"station_id":"ce4bh4p2rcd13ifvqe0g","pricing_plan_id":"cebpf4jnsgd1na2vs0mg"},{"bike_id":"bc13ce4b-80c3-434c-be50-109c6ccb0031","system_id":"levelo_inurba_marseille","lat":43.29258,"lon":5.40908,"is_reserved":false,"is_disabled":false,"rental_uris":{"android":"levelo://app?vid=bc13ce4b-80c3-434c-be50-109c6ccb0031","ios":"levelo://app?vid=bc13ce4b-80c3-434c-be50-109c6ccb0031"},"vehicle_type_id":"4","last_reported":1743209395,"current_range_meters":12400,"station_id":"ce4bh192rcd13ifvqdc0","pricing_plan_id":"cebpf4jnsgd1na2vs0mg"},{"bike_id":"3a632c6f-7f42-4629-aa6e-0a86e11bf372","system_id":"levelo_inurba_marseille","lat":43.2418,"lon":5.39734,"is_reserved":false,"is_disabled":false,"rental_uris":{"android":"levelo://app?vid=3a632c6f-7f42-4629-aa6e-0a86e11bf372","ios":"levelo://app?vid=3a632c6f-7f42-4629-aa6e-0a86e11bf372"},"vehicle_type_id":"4","last_reported":1743209395,"current_range_meters":12400,"station_id":"ce4bhn12rcd13ifvqgpg","pricing_plan_id":"cebpf4jnsgd1na2vs0mg"},{"bike_id":"9f2583cf-461d-4d57-8c37-99ef1e89cade","system_id":"levelo_inurba_marseille","lat":43.23203,"lon":5.35542,"is_reserved":false,"is_disabled":false,"rental_uris":{"android":"levelo://app?vid=9f2583cf-461d-4d57-8c37-99ef1e89cade","ios":"levelo://app?vid=9f2583cf-461d-4d57-8c37-99ef1e89cade"},"vehicle_type_id":"4","last_reported":1743209395,"current_range_meters":12400,"station_id":"ce4bhu92rcd13ifvqi70","pricing_plan_id":"cebpf4jnsgd1na2vs0mg"},{"bike_id":"4f2ef70c-1612-49b7-b152-9f750843e2a0","system_id":"levelo_inurba_marseille","lat":43.30326,"lon":5.4043,"is_reserved":false,"is_disabled":false,"rental_uris":{"android":"levelo://app?vid=4f2ef70c-1612-49b7-b152-9f750843e2a0","ios":"levelo://app?vid=4f2ef70c-1612-49b7-b152-9f750843e2a0"},"vehicle_type_id":"4","last_reported":1743209395,"current_range_meters":12400,"station_id":"ce4bh012rcd13ifvqd10","pricing_plan_id":"cebpf4jnsgd1na2vs0mg"},{"bike_id":"5b6a8b80-2d63-46d6-9df2-cbd6216a992b","system_id":"levelo_inurba_marseille","lat":43.31361,"lon":5.36762,"is_reserved":false,"is_disabled":true,"rental_uris":{"android":"levelo://app?vid=5b6a8b80-2d63-46d6-9df2-cbd6216a992b","ios":"levelo://app?vid=5b6a8b80-2d63-46d6-9df2-cbd6216a992b"},"vehicle_type_id":"4","last_reported":1743209395,"current_range_meters":12400,"station_id":"ce4bgr92rcd13ifvqc6g","pricing_plan_id":"cebpf4jnsgd1na2vs0mg"},{"bike_id":"55f17432-8643-4cf6-acff-3f0a026dccc9","system_id":"levelo_inurba_marseille","lat":43.279708,"lon":5.38746,"is_reserved":false,"is_disabled":false,"rental_uris":{"android":"levelo://app?vid=55f17432-8643-4cf6-acff-3f0a026dccc9","ios":"levelo://app?vid=55f17432-8643-4cf6-acff-3f0a026dccc9"},"vehicle_type_id":"4","last_reported":1743209395,"current_range_meters":12800,"station_id":"ce4bhg12rcd13ifvqf80","pricing_plan_id":"cebpf4jnsgd1na2vs0mg"},{"bike_id":"1f582363-7303-494c-bf8e-54d4b067c885","system_id":"levelo_inurba_marseille","lat":43.28275,"lon":5.35075,"is_reserved":false,"is_disabled":false,"rental_uris":{"android":"levelo://app?vid=1f582363-7303-494c-bf8e-54d4b067c885","ios":"levelo://app?vid=1f582363-7303-494c-bf8e-54d4b067c885"},"vehicle_type_id":"4","last_reported":1743209395,"current_range_meters":12800,"station_id":"ce4bhbp2rcd13ifvqerg","pricing_plan_id":"cebpf4jnsgd1na2vs0mg"},{"bike_id":"4586e23a-2d77-446c-8e8c-a15b6ae5de02","system_id":"levelo_inurba_marseille","lat":43.28611,"lon":5.38127,"is_reserved":false,"is_disabled":false,"rental_uris":{"android":"levelo://app?vid=4586e23a-2d77-446c-8e8c-a15b6ae5de02","ios":"levelo://app?vid=4586e23a-2d77-446c-8e8c-a15b6ae5de02"},"vehicle_type_id":"4","last_reported":1743209395,"current_range_meters":12800,"station_id":"","pricing_plan_id":"cebpf4jnsgd1na2vs0mg"},{"bike_id":"c573c046-f36a-4bd3-af73-5fc85d05e776","system_id":"levelo_inurba_marseille","lat":43.2847,"lon":5.35889,"is_reserved":false,"is_disabled":false,"rental_uris":{"android":"levelo://app?vid=c573c046-f36a-4bd3-af73-5fc85d05e776","ios":"levelo://app?vid=c573c046-f36a-4bd3-af73-5fc85d05e776"},"vehicle_type_id":"4","last_reported":1743209395,"current_range_meters":13600,"station_id":"ce4bhah2rcd13ifvqei0","pricing_plan_id":"cebpf4jnsgd1na2vs0mg"},{"bike_id":"f9764306-0033-4bcb-8394-159efebda415","system_id":"levelo_inurba_marseille","lat":43.26946,"lon":5.40249,"is_reserved":false,"is_disabled":false,"rental_uris":{"android":"levelo://app?vid=f9764306-0033-4bcb-8394-159efebda415","ios":"levelo://app?vid=f9764306-0033-4bcb-8394-159efebda415"},"vehicle_type_id":"4","last_reported":1743209395,"current_range_meters":13600,"station_id":"cjm6bp8fraef2m0cb0m0","pricing_plan_id":"cebpf4jnsgd1na2vs0mg"},{"bike_id":"b10013b1-6e18-45d0-93c6-e52068d555f2","system_id":"levelo_inurba_marseille","lat":43.28451,"lon":5.35889,"is_reserved":false,"is_disabled":true,"rental_uris":{"android":"levelo://app?vid=b10013b1-6e18-45d0-93c6-e52068d555f2","ios":"levelo://app?vid=b10013b1-6e18-45d0-93c6-e52068d555f2"},"vehicle_type_id":"4","last_reported":1743209395,"current_range_meters":13600,"station_id":"ce4bhah2rcd13ifvqei0","pricing_plan_id":"cebpf4jnsgd1na2vs0mg"},{"bike_id":"0358092f-a004-46e4-a31a-2526bdebfc87","system_id":"levelo_inurba_marseille","lat":43.266796,"lon":5.382658,"is_reserved":false,"is_disabled":false,"rental_uris":{"android":"levelo://app?vid=0358092f-a004-46e4-a31a-2526bdebfc87","ios":"levelo://app?vid=0358092f-a004-46e4-a31a-2526bdebfc87"},"vehicle_type_id":"4","last_reported":1743209395,"current_range_meters":13600,"station_id":"ce4bhg92rcd13ifvqf90","pricing_plan_id":"cebpf4jnsgd1na2vs0mg"},{"bike_id":"6923d6a9-7a78-46cf-a22b-73ed15f379bc","system_id":"levelo_inurba_marseille","lat":43.28103,"lon":5.39627,"is_reserved":false,"is_disabled":false,"rental_uris":{"android":"levelo://app?vid=6923d6a9-7a78-46cf-a22b-73ed15f379bc","ios":"levelo://app?vid=6923d6a9-7a78-46cf-a22b-73ed15f379bc"},"vehicle_type_id":"4","last_reported":1743209395,"current_range_meters":13600,"station_id":"ce4bho12rcd13ifvqh2g","pricing_plan_id":"cebpf4jnsgd1na2vs0mg"},{"bike_id":"3d6f77a5-38af-4abc-b9f0-4b0dedd9675c","system_id":"levelo_inurba_marseille","lat":43.24907,"lon":5.39398,"is_reserved":false,"is_disabled":false,"rental_uris":{"android":"levelo://app?vid=3d6f77a5-38af-4abc-b9f0-4b0dedd9675c","ios":"levelo://app?vid=3d6f77a5-38af-4abc-b9f0-4b0dedd9675c"},"vehicle_type_id":"4","last_reported":1743209395,"current_range_meters":13600,"station_id":"","pricing_plan_id":"cebpf4jnsgd1na2vs0mg"},{"bike_id":"3f7539a9-fe9d-4bf3-a143-40a9bdd56d65","system_id":"levelo_inurba_marseille","lat":43.29546,"lon":5.42288,"is_reserved":false,"is_disabled":true,"rental_uris":{"android":"levelo://app?vid=3f7539a9-fe9d-4bf3-a143-40a9bdd56d65","ios":"levelo://app?vid=3f7539a9-fe9d-4bf3-a143-40a9bdd56d65"},"vehicle_type_id":"4","last_reported":1743209395,"current_range_meters":13600,"station_id":"ce4bhph2rcd13ifvqhdg","pricing_plan_id":"cebpf4jnsgd1na2vs0mg"},{"bike_id":"7c7a4a3c-b350-4953-ad29-b43068ad7f75","system_id":"levelo_inurba_marseille","lat":43.28674,"lon":5.38664,"is_reserved":false,"is_disabled":false,"rental_uris":{"android":"levelo://app?vid=7c7a4a3c-b350-4953-ad29-b43068ad7f75","ios":"levelo://app?vid=7c7a4a3c-b350-4953-ad29-b43068ad7f75"},"vehicle_type_id":"4","last_reported":1743209395,"current_range_meters":13600,"station_id":"ce4bh492rcd13ifvqdug","pricing_plan_id":"cebpf4jnsgd1na2vs0mg"},{"bike_id":"6938d0ce-f954-4fff-b95b-2d698d38a5d7","system_id":"levelo_inurba_marseille","lat":43.28041,"lon":5.40981,"is_reserved":false,"is_disabled":false,"rental_uris":{"android":"levelo://app?vid=6938d0ce-f954-4fff-b95b-2d698d38a5d7","ios":"levelo://app?vid=6938d0ce-f954-4fff-b95b-2d698d38a5d7"},"vehicle_type_id":"4","last_reported":1743209395,"current_range_meters":13600,"station_id":"","pricing_plan_id":"cebpf4jnsgd1na2vs0mg"},{"bike_id":"2acfa73f-a641-41f1-89a3-4a76bd75321b","system_id":"levelo_inurba_marseille","lat":43.30265,"lon":5.40089,"is_reserved":false,"is_disabled":false,"rental_uris":{"android":"levelo://app?vid=2acfa73f-a641-41f1-89a3-4a76bd75321b","ios":"levelo://app?vid=2acfa73f-a641-41f1-89a3-4a76bd75321b"},"vehicle_type_id":"4","last_reported":1743209395,"current_range_meters":13600,"station_id":"ce4bgvh2rcd13ifvqcs0","pricing_plan_id":"cebpf4jnsgd1na2vs0mg"},{"bike_id":"18a7459a-9de6-4413-bb5e-bd445e06b1f8","system_id":"levelo_inurba_marseille","lat":43.29215,"lon":5.35789,"is_reserved":false,"is_disabled":false,"rental_uris":{"android":"levelo://app?vid=18a7459a-9de6-4413-bb5e-bd445e06b1f8","ios":"levelo://app?vid=18a7459a-9de6-4413-bb5e-bd445e06b1f8"},"vehicle_type_id":"4","last_reported":1743209395,"current_range_meters":13600,"station_id":"ce4bhb12rcd13ifvqel0","pricing_plan_id":"cebpf4jnsgd1na2vs0mg"},{"bike_id":"7fdcd55f-1c78-4ded-99ed-725169c92149","system_id":"levelo_inurba_marseille","lat":43.27395,"lon":5.38266,"is_reserved":false,"is_disabled":false,"rental_uris":{"android":"levelo://app?vid=7fdcd55f-1c78-4ded-99ed-725169c92149","ios":"levelo://app?vid=7fdcd55f-1c78-4ded-99ed-725169c92149"},"vehicle_type_id":"4","last_reported":1743209395,"current_range_meters":13600,"station_id":"","pricing_plan_id":"cebpf4jnsgd1na2vs0mg"},