{"last_updated":1726128725,"ttl":30,"version":"2.2","data":{"bikes":[{"bike_id":"32279b1d-cff3-4f88-9715-5709ec6d5cbb","system_id":"levelo_inurba_marseille","lat":43.25724,"lon":5.41111,"is_reserved":false,"is_disabled":false,"rental_uris":{"android":"levelo://app?vid=32279b1d-cff3-4f88-9715-5709ec6d5cbb","ios":"levelo://app?vid=32279b1d-cff3-4f88-9715-5709ec6d5cbb"},"vehicle_type_id":"4","last_reported":1726128725,"current_range_meters":21600,"station_id":"ce4bhkp2rcd13ifvqgd0","pricing_plan_id":"cebpf4jnsgd1na2vs0mg"},{"bike_id":"61cb553e-f45a-43a2-aaeb-c759faa4adb0","system_id":"levelo_inurba_marseille","lat":43.25896,"lon":5.40912,"is_reserved":false,"is_disabled":false,"rental_uris":{"android":"levelo://app?vid=61cb553e-f45a-43a2-aaeb-c759faa4adb0","ios":"levelo://app?vid=61cb553e-f45a-43a2-aaeb-c759faa4adb0"},"vehicle_type_id":"4","last_reported":1726128725,"current_range_meters":24800,"station_id":"ce4bhm92rcd13ifvqglg","pricing_plan_id":"cebpf4jnsgd1na2vs0mg"},{"bike_id":"7219d244-d7da-4d5c-91a1-31df0bf6ce61","system_id":"levelo_inurba_marseille","lat":43.29687,"lon":5.37291,"is_reserved":false,"is_disabled":false,"rental_uris":{"android":"levelo://app?vid=7219d244-d7da-4d5c-91a1-31df0bf6ce61","ios":"levelo://app?vid=7219d244-d7da-4d5c-91a1-31df0bf6ce61"},"vehicle_type_id":"4","last_reported":1726128725,"current_range_meters":33200,"station_id":"ce4bgk12rcd13ifvqbj0","pricing_plan_id":"cebpf4jnsgd1na2vs0mg"},{"bike_id":"f72ede0a-438e-4eb2-9ccd-07c552028339","system_id":"levelo_inurba_marseille","lat":43.24393,"lon":5.37055,"is_reserved":false,"is_disabled":false,"rental_uris":{"android":"levelo://app?vid=f72ede0a-438e-4eb2-9ccd-07c552028339","ios":"levelo://app?vid=f72ede0a-438e-4eb2-9ccd-07c552028339"},"vehicle_type_id":"4","last_reported":1726128725,"current_range_meters":34800,"station_id":"ce4bhhh2rcd13ifvqfk0","pricing_plan_id":"cebpf4jnsgd1na2vs0mg"},{"bike_id":"67570fbc-3c16-4c7b-9716-3fbfcdb4a6bb","system_id":"levelo_inurba_marseille","lat":43.22929,"lon":5.35372,"is_reserved":false,"is_disabled":false,"rental_uris":{"android":"levelo://app?vid=67570fbc-3c16-4c7b-9716-3fbfcdb4a6bb","ios":"levelo://app?vid=67570fbc-3c16-4c7b-9716-3fbfcdb4a6bb"},"vehicle_type_id":"4","last_reported":1726128725,"current_range_meters":2000,"station_id":"cpo3532slgdg3j2ikp40","pricing_plan_id":"cebpf4jnsgd1na2vs0mg"},{"bike_id":"8bd2fcf3-6f27-4ff2-93b2-c8149557523a","system_id":"levelo_inurba_marseille","lat":43.28495,"lon":5.38569,"is_reserved":false,"is_disabled":false,"rental_uris":{"android":"levelo://app?vid=8bd2fcf3-6f27-4ff2-93b2-c8149557523a","ios":"levelo://app?vid=8bd2fcf3-6f27-4ff2-93b2-c8149557523a"},"vehicle_type_id":"4","last_reported":1726128725,"current_range_meters":8400,"station_id":"ce4bh8p2rcd13ifvqeb0","pricing_plan_id":"cebpf4jnsgd1na2vs0mg"},{"bike_id":"6ac7e527-2923-423d-a2c8-afd44907786c","system_id":"levelo_inurba_marseille","lat":43.24067,"lon":5.37762,"is_reserved":false,"is_disabled":false,"rental_uris":{"android":"levelo://app?vid=6ac7e527-2923-423d-a2c8-afd44907786c","ios":"levelo://app?vid=6ac7e527-2923-423d-a2c8-afd44907786c"},"vehicle_type_id":"4","last_reported":1726128725,"current_range_meters":24000,"station_id":"ce4bhnp2rcd13ifvqgvg","pricing_plan_id":"cebpf4jnsgd1na2vs0mg"},{"bike_id":"d3d0bf1e-8766-4413-be09-513aa812b8d5","system_id":"levelo_inurba_marseille","lat":43.24063,"lon":5.37743,"is_reserved":false,"is_disabled":false,"rental_uris":{"android":"levelo://app?vid=d3d0bf1e-8766-4413-be09-513aa812b8d5","ios":"levelo://app?vid=d3d0bf1e-8766-4413-be09-513aa812b8d5"},"vehicle_type_id":"4","last_reported":1726128725,"current_range_meters":34000,"station_id":"ce4bhnp2rcd13ifvqgvg","pricing_plan_id":"cebpf4jnsgd1na2vs0mg"},{"bike_id":"c5c3bd44-3118-4ce0-afbd-fd0c81275852","system_id":"levelo_inurba_marseille","lat":43.31089,"lon":5.42427,"is_reserved":false,"is_disabled":false,"rental_uris":{"android":"levelo://app?vid=c5c3bd44-3118-4ce0-afbd-fd0c81275852","ios":"levelo://app?vid=c5c3bd44-3118-4ce0-afbd-fd0c81275852"},"vehicle_type_id":"4","last_reported":1726128725,"current_range_meters":24400,"station_id":"ce4bhp92rcd13ifvqhag","pricing_plan_id":"cebpf4jnsgd1na2vs0mg"},{"bike_id":"456c5403-ebe0-4316-9960-1125ab4993e1","system_id":"levelo_inurba_marseille","lat":43.23068,"lon":5.35485,"is_reserved":false,"is_disabled":false,"rental_uris":{"android":"levelo://app?vid=456c5403-ebe0-4316-9960-1125ab4993e1","ios":"levelo://app?vid=456c5403-ebe0-4316-9960-1125ab4993e1"},"vehicle_type_id":"4","last_reported":1726128725,"current_range_meters":35600,"station_id":"cpo3342slgdg3j2ifvpg","pricing_plan_id":"cebpf4jnsgd1na2vs0mg"},{"bike_id":"f7a57b3f-dae7-4d73-851a-7666ebe0f701","system_id":"levelo_inurba_marseille","lat":43.29927,"lon":5.36533,"is_reserved":false,"is_disabled":false,"rental_uris":{"android":"levelo://app?vid=f7a57b3f-dae7-4d73-851a-7666ebe0f701","ios":"levelo://app?vid=f7a57b3f-dae7-4d73-851a-7666ebe0f701"},"vehicle_type_id":"4","last_reported":1726128725,"current_range_meters":5600,"station_id":"ce4bgm92rcd13ifvqbr0","pricing_plan_id":"cebpf4jnsgd1na2vs0mg"},{"bike_id":"5082f791-6e7e-4275-9485-3f788791f2dc","system_id":"levelo_inurba_marseille","lat":43.29581,"lon":5.40049,"is_reserved":false,"is_disabled":false,"rental_uris":{"android":"levelo://app?vid=5082f791-6e7e-4275-9485-3f788791f2dc","ios":"levelo://app?vid=5082f791-6e7e-4275-9485-3f788791f2dc"},"vehicle_type_id":"4","last_reported":1726128725,"current_range_meters":10800,"station_id":"ce4bhlp2rcd13ifvqgjg","pricing_plan_id":"cebpf4jnsgd1na2vs0mg"},{"bike_id":"032cca34-153b-4a2a-88a7-b47b5003aec0","system_id":"levelo_inurba_marseille","lat":43.30908,"lon":5.36851,"is_reserved":false,"is_disabled":false,"rental_uris":{"android":"levelo://app?vid=032cca34-153b-4a2a-88a7-b47b5003aec0","ios":"levelo://app?vid=032cca34-153b-4a2a-88a7-b47b5003aec0"},"vehicle_type_id":"4","last_reported":1726128725,"current_range_meters":38000,"station_id":"ce4bgn92rcd13ifvqbvg","pricing_plan_id":"cebpf4jnsgd1na2vs0mg"},{"bike_id":"e091ac38-7bac-45c8-a156-5d26e5173d96","system_id":"levelo_inurba_marseille","lat":43.24167,"lon":5.39718,"is_reserved":false,"is_disabled":false,"rental_uris":{"android":"levelo://app?vid=e091ac38-7bac-45c8-a156-5d26e5173d96","ios":"levelo://app?vid=e091ac38-7bac-45c8-a156-5d26e5173d96"},"vehicle_type_id":"4","last_reported":1726128725,"current_range_meters":25600,"station_id":"ce4bhn12rcd13ifvqgpg","pricing_plan_id":"cebpf4jnsgd1na2vs0mg"},{"bike_id":"765b4fe0-1711-4f89-9b01-cbc0adb86c30","system_id":"levelo_inurba_marseille","lat":43.26682,"lon":5.38267,"is_reserved":false,"is_disabled":false,"rental_uris":{"android":"levelo://app?vid=765b4fe0-1711-4f89-9b01-cbc0adb86c30","ios":"levelo://app?vid=765b4fe0-1711-4f89-9b01-cbc0adb86c30"},"vehicle_type_id":"4","last_reported":1726128725,"current_range_meters":22400,"station_id":"ce4bhg92rcd13ifvqf90","pricing_plan_id":"cebpf4jnsgd1na2vs0mg"},{"bike_id":"10d4c428-e318-42ae-8126-5211f249afd6","system_id":"levelo_inurba_marseille","lat":43.30554,"lon":5.3654,"is_reserved":false,"is_disabled":false,"rental_uris":{"android":"levelo://app?vid=10d4c428-e318-42ae-8126-5211f249afd6","ios":"levelo://app?vid=10d4c428-e318-42ae-8126-5211f249afd6"},"vehicle_type_id":"4","last_reported":1726128725,"current_range_meters":12400,"station_id":"ce4bgs12rcd13ifvqcag","pricing_plan_id":"cebpf4jnsgd1na2vs0mg"},{"bike_id":"94a6eced-27f3-41a2-abec-7bc538c5a039","system_id":"levelo_inurba_marseille","lat":43.30909,"lon":5.36839,"is_reserved":false,"is_disabled":false,"rental_uris":{"android":"levelo://app?vid=94a6eced-27f3-41a2-abec-7bc538c5a039","ios":"levelo://app?vid=94a6eced-27f3-41a2-abec-7bc538c5a039"},"vehicle_type_id":"4","last_reported":1726128725,"current_range_meters":2000,"station_id":"ce4bgn92rcd13ifvqbvg","pricing_plan_id":"cebpf4jnsgd1na2vs0mg"},{"bike_id":"d90bd34e-4e68-4c59-9b4e-7f5a13d8d838","system_id":"levelo_inurba_marseille","lat":43.29278,"lon":5.36848,"is_reserved":false,"is_disabled":false,"rental_uris":{"android":"levelo://app?vid=d90bd34e-4e68-4c59-9b4e-7f5a13d8d838","ios":"levelo://app?vid=d90bd34e-4e68-4c59-9b4e-7f5a13d8d838"},"vehicle_type_id":"4","last_reported":1726128725,"current_range_meters":25600,"station_id":"ce4bhbp2rcd13ifvqesg","pricing_plan_id":"cebpf4jnsgd1na2vs0mg"},{"bike_id":"acb7a154-2c4a-4a8c-8b78-d20c225e7a06","system_id":"levelo_inurba_marseille","lat":43.3054,"lon":5.36703,"is_reserved":false,"is_disabled":false,"rental_uris":{"android":"levelo://app?vid=acb7a154-2c4a-4a8c-8b78-d20c225e7a06","ios":"levelo://app?vid=acb7a154-2c4a-4a8c-8b78-d20c225e7a06"},"vehicle_type_id":"4","last_reported":1726128725,"current_range_meters":22000,"station_id":"ce4bgrp2rcd13ifvqc9g","pricing_plan_id":"cebpf4jnsgd1na2vs0mg"},{"bike_id":"13ec4916-f0ea-4897-8afc-596425b42c42","system_id":"levelo_inurba_marseille","lat":43.23193,"lon":5.35557,"is_reserved":false,"is_disabled":false,"rental_uris":{"android":"levelo://app?vid=13ec4916-f0ea-4897-8afc-596425b42c42","ios":"levelo://app?vid=13ec4916-f0ea-4897-8afc-596425b42c42"},"vehicle_type_id":"4","last_reported":1726128725,"current_range_meters":35600,"station_id":"ce4bhu92rcd13ifvqi70","pricing_plan_id":"cebpf4jnsgd1na2vs0mg"},{"bike_id":"0bde007d-76b4-48ff-bf92-40a46d18b8dd","system_id":"levelo_inurba_marseille","lat":43.30889,"lon":5.39651,"is_reserved":false,"is_disabled":false,"rental_uris":{"android":"levelo://app?vid=0bde007d-76b4-48ff-bf92-40a46d18b8dd","ios":"levelo://app?vid=0bde007d-76b4-48ff-bf92-40a46d18b8dd"},"vehicle_type_id":"4","last_reported":1726128725,"current_range_meters":9200,"station_id":"ce4bh012rcd13ifvqcv0","pricing_plan_id":"cebpf4jnsgd1na2vs0mg"},{"bike_id":"456c41c7-f41f-4bc7-97f6-a3711e077994","system_id":"levelo_inurba_marseille","lat":43.26036,"lon":5.37539,"is_reserved":false,"is_disabled":false,"rental_uris":{"android":"levelo://app?vid=456c41c7-f41f-4bc7-97f6-a3711e077994","ios":"levelo://app?vid=456c41c7-f41f-4bc7-97f6-a3711e077994"},"vehicle_type_id":"4","last_reported":1726128725,"current_range_meters":18800,"station_id":"ce4bhgh2rcd13ifvqfa0","pricing_plan_id":"cebpf4jnsgd1na2vs0mg"},{"bike_id":"0f91d877-641e-414e-a620-6dbaf08191c2","system_id":"levelo_inurba_marseille","lat":43.26206,"lon":5.37923,"is_reserved":false,"is_disabled":false,"rental_uris":{"android":"levelo://app?vid=0f91d877-641e-414e-a620-6dbaf08191c2","ios":"levelo://app?vid=0f91d877-641e-414e-a620-6dbaf08191c2"},"vehicle_type_id":"4","last_reported":1726128725,"current_range_meters":36800,"station_id":"ce4bhjp2rcd13ifvqg90","pricing_plan_id":"cebpf4jnsgd1na2vs0mg"},{"bike_id":"f0c3d3f5-6e56-48c0-b6e4-4e0b8919e7cb","system_id":"levelo_inurba_marseille","lat":43.28723,"lon":5.37936,"is_reserved":false,"is_disabled":false,"rental_uris":{"android":"levelo://app?vid=f0c3d3f5-6e56-48c0-b6e4-4e0b8919e7cb","ios":"levelo://app?vid=f0c3d3f5-6e56-48c0-b6e4-4e0b8919e7cb"},"vehicle_type_id":"4","last_reported":1726128725,"current_range_meters":25600,"station_id":"ce4bh9p2rcd13ifvqec0","pricing_plan_id":"cebpf4jnsgd1na2vs0mg"},{"bike_id":"c955c762-1f64-4075-a880-05848e4d50f1","system_id":"levelo_inurba_marseille","lat":43.29713,"lon":5.36609,"is_reserved":false,"is_disabled":false,"rental_uris":{"android":"levelo://app?vid=c955c762-1f64-4075-a880-05848e4d50f1","ios":"levelo://app?vid=c955c762-1f64-4075-a880-05848e4d50f1"},"vehicle_type_id":"4","last_reported":1726128725,"current_range_meters":17600,"station_id":"ce4bgn12rcd13ifvqbt0","pricing_plan_id":"cebpf4jnsgd1na2vs0mg"},{"bike_id":"8d634524-09a2-41c3-82fa-5baad5f85cf0","system_id":"levelo_inurba_marseille","lat":43.31128,"lon":5.37778,"is_reserved":false,"is_disabled":false,"rental_uris":{"android":"levelo://app?vid=8d634524-09a2-41c3-82fa-5baad5f85cf0","ios":"levelo://app?vid=8d634524-09a2-41c3-82fa-5baad5f85cf0"},"vehicle_type_id":"4","last_reported":1726128725,"current_range_meters":9200,"station_id":"ce4bgt92rcd13ifvqcg0","pricing_plan_id":"cebpf4jnsgd1na2vs0mg"},{"bike_id":"80a6c1c7-17ef-4a10-b866-719e736d8134","system_id":"levelo_inurba_marseille","lat":43.24086,"lon":5.37756,"is_reserved":false,"is_disabled":false,"rental_uris":{"android":"levelo://app?vid=80a6c1c7-17ef-4a10-b866-719e736d8134","ios":"levelo://app?vid=80a6c1c7-17ef-4a10-b866-719e736d8134"},"vehicle_type_id":"4","last_reported":1726128725,"current_range_meters":34000,"station_id":"ce4bhnp2rcd13ifvqgvg","pricing_plan_id":"cebpf4jnsgd1na2vs0mg"},{"bike_id":"74c67d55-8a5f-40c9-8066-d68354718f8c","system_id":"levelo_inurba_marseille","lat":43.23188,"lon":5.35553,"is_reserved":false,"is_disabled":false,"rental_uris":{"android":"levelo://app?vid=74c67d55-8a5f-40c9-8066-d68354718f8c","ios":"levelo://app?vid=74c67d55-8a5f-40c9-8066-d68354718f8c"},"vehicle_type_id":"4","last_reported":1726128725,"current_range_meters":32800,"station_id":"ce4bhu92rcd13ifvqi70","pricing_plan_id":"cebpf4jnsgd1na2vs0mg"},{"bike_id":"8c778480-3aec-4905-9f95-39ffc7f00a7f","system_id":"levelo_inurba_marseille","lat":43.32481,"lon":5.36575,"is_reserved":false,"is_disabled":false,"rental_uris":{"android":"levelo://app?vid=8c778480-3aec-4905-9f95-39ffc7f00a7f","ios":"levelo://app?vid=8c778480-3aec-4905-9f95-39ffc7f00a7f"},"vehicle_type_id":"4","last_reported":1726128725,"current_range_meters":28800,"station_id":"ce4bhs12rcd13ifvqhvg","pricing_plan_id":"cebpf4jnsgd1na2vs0mg"},{"bike_id":"cb1f3f5d-ef80-460b-a7b4-ffd596007895","system_id":"levelo_inurba_marseille","lat":43.29847,"lon":5.36263,"is_reserved":false,"is_disabled":false,"rental_uris":{"android":"levelo://app?vid=cb1f3f5d-ef80-460b-a7b4-ffd596007895","ios":"levelo://app?vid=cb1f3f5d-ef80-460b-a7b4-ffd596007895"},"vehicle_type_id":"4","last_reported":1726128725,"current_range_meters":29600,"station_id":"ce4bgpp2rcd13ifvqc3g","pricing_plan_id":"cebpf4jnsgd1na2vs0mg"},{"bike_id":"f26c1504-1d02-4a96-9cce-a8d8d09650ab","system_id":"levelo_inurba_marseille","lat":43.31231,"lon":5.36854,"is_reserved":false,"is_disabled":false,"rental_uris":{"android":"levelo://app?vid=f26c1504-1d02-4a96-9cce-a8d8d09650ab","ios":"levelo://app?vid=f26c1504-1d02-4a96-9cce-a8d8d09650ab"},"vehicle_type_id":"4","last_reported":1726128725,"current_range_meters":39200,"station_id":"ce4bgl92rcd13ifvqbq0","pricing_plan_id":"cebpf4jnsgd1na2vs0mg"},{"bike_id":"eb685eeb-f508-4424-9ea7-a6e3d7e8091e","system_id":"levelo_inurba_marseille","lat":43.25933,"lon":5.40912,"is_reserved":false,"is_disabled":false,"rental_uris":{"android":"levelo://app?vid=eb685eeb-f508-4424-9ea7-a6e3d7e8091e","ios":"levelo://app?vid=eb685eeb-f508-4424-9ea7-a6e3d7e8091e"},"vehicle_type_id":"4","last_reported":1726128725,"current_range_meters":29600,"station_id":"ce4bhm92rcd13ifvqglg","pricing_plan_id":"cebpf4jnsgd1na2vs0mg"},{"bike_id":"74290a79-7bb6-48de-95d6-7e1963aaa1c6","system_id":"levelo_inurba_marseille","lat":43.2904,"lon":5.3755,"is_reserved":false,"is_disabled":false,"rental_uris":{"android":"levelo://app?vid=74290a79-7bb6-48de-95d6-7e1963aaa1c6","ios":"levelo://app?vid=74290a79-7bb6-48de-95d6-7e1963aaa1c6"},"vehicle_type_id":"4","last_reported":1726128725,"current_range_meters":4400,"station_id":"ce4bh692rcd13ifvqe90","pricing_plan_id":"cebpf4jnsgd1na2vs0mg"},{"bike_id":"e3468360-0133-4e12-9d5c-5b7e59c20cde","system_id":"levelo_inurba_marseille","lat":43.29799,"lon":5.38111,"is_reserved":false,"is_disabled":false,"rental_uris":{"android":"levelo://app?vid=e3468360-0133-4e12-9d5c-5b7e59c20cde","ios":"levelo://app?vid=e3468360-0133-4e12-9d5c-5b7e59c20cde"},"vehicle_type_id":"4","last_reported":1726128725,"current_range_meters":19600,"station_id":"ce4bgip2rcd13ifvqbb0","pricing_plan_id":"cebpf4jnsgd1na2vs0mg"},{"bike_id":"4ac7d9cf-87af-4520-808f-51401e432325","system_id":"levelo_inurba_marseille","lat":43.32544,"lon":5.41448,"is_reserved":false,"is_disabled":false,"rental_uris":{"android":"levelo://app?vid=4ac7d9cf-87af-4520-808f-51401e432325","ios":"levelo://app?vid=4ac7d9cf-87af-4520-808f-51401e432325"},"vehicle_type_id":"4","last_reported":1726128725,"current_range_meters":16800,"station_id":"ce4bhq12rcd13ifvqhhg","pricing_plan_id":"cebpf4jnsgd1na2vs0mg"},{"bike_id":"8b3a98fe-a428-4311-a1cd-a7f11f45c1eb","system_id":"levelo_inurba_marseille","lat":43.23155,"lon":5.43709,"is_reserved":false,"is_disabled":false,"rental_uris":{"android":"levelo://app?vid=8b3a98fe-a428-4311-a1cd-a7f11f45c1eb","ios":"levelo://app?vid=8b3a98fe-a428-4311-a1cd-a7f11f45c1eb"},"vehicle_type_id":"4","last_reported":1726128725,"current_range_meters":8000,"station_id":"ce4bhmp2rcd13ifvqgog","pricing_plan_id":"cebpf4jnsgd1na2vs0mg"},{"bike_id":"286b7ced-97f5-44da-942a-5b007929bb7f","system_id":"levelo_inurba_marseille","lat":43.31487,"lon":5.37305,"is_reserved":false,"is_disabled":false,"rental_uris":{"android":"levelo://app?vid=286b7ced-97f5-44da-942a-5b007929bb7f","ios":"levelo://app?vid=286b7ced-97f5-44da-942a-5b007929bb7f"},"vehicle_type_id":"4","last_reported":1726128725,"current_range_meters":37600,"station_id":"ce4bgt12rcd13ifvqcd0","pricing_plan_id":"cebpf4jnsgd1na2vs0mg"},{"bike_id":"11944b44-cc54-4fe0-896f-7b982db000ce","system_id":"levelo_inurba_marseille","lat":43.24086,"lon":5.37749,"is_reserved":false,"is_disabled":false,"rental_uris":{"android":"levelo://app?vid=11944b44-cc54-4fe0-896f-7b982db000ce","ios":"levelo://app?vid=11944b44-cc54-4fe0-896f-7b982db000ce"},"vehicle_type_id":"4","last_reported":1726128725,"current_range_meters":34000,"station_id":"ce4bhnp2rcd13ifvqgvg","pricing_plan_id":"cebpf4jnsgd1na2vs0mg"},{"bike_id":"f3e9fb72-97c1-4ee2-b1d1-e2d99af572a4","system_id":"levelo_inurba_marseille","lat":43.32547,"lon":5.41434,"is_reserved":false,"is_disabled":false,"rental_uris":{"android":"levelo://app?vid=f3e9fb72-97c1-4ee2-b1d1-e2d99af572a4","ios":"levelo://app?vid=f3e9fb72-97c1-4ee2-b1d1-e2d99af572a4"},"vehicle_type_id":"4","last_reported":1726128725,"current_range_meters":39200,"station_id":"ce4bhq12rcd13ifvqhhg","pricing_plan_id":"cebpf4jnsgd1na2vs0mg"},{"bike_id":"399e11e5-05e9-413c-9d9f-0f6fa5bc8030","system_id":"levelo_inurba_marseille","lat":43.30564,"lon":5.36534,"is_reserved":false,"is_disabled":false,"rental_uris":{"android":"levelo://app?vid=399e11e5-05e9-413c-9d9f-0f6fa5bc8030","ios":"levelo://app?vid=399e11e5-05e9-413c-9d9f-0f6fa5bc8030"},"vehicle_type_id":"4","last_reported":1726128725,"current_range_meters":14800,"station_id":"ce4bgs12rcd13ifvqcag","pricing_plan_id":"cebpf4jnsgd1na2vs0mg"},{"bike_id":"3203158c-ba5a-4569-8d5d-a3eeab16fc77","system_id":"levelo_inurba_marseille","lat":43.295609,"lon":5.422868,"is_reserved":false,"is_disabled":false,"rental_uris":{"android":"levelo://app?vid=3203158c-ba5a-4569-8d5d-a3eeab16fc77","ios":"levelo://app?vid=3203158c-ba5a-4569-8d5d-a3eeab16fc77"},"vehicle_type_id":"4","last_reported":1726128725,"current_range_meters":37600,"station_id":"ce4bhph2rcd13ifvqhdg","pricing_plan_id":"cebpf4jnsgd1na2vs0mg"},{"bike_id":"90ff98e3-5e3d-456c-96b2-0d3fda81560c","system_id":"levelo_inurba_marseille","lat":43.33613,"lon":5.41029,"is_reserved":false,"is_disabled":false,"rental_uris":{"android":"levelo://app?vid=90ff98e3-5e3d-456c-96b2-0d3fda81560c","ios":"levelo://app?vid=90ff98e3-5e3d-456c-96b2-0d3fda81560c"},"vehicle_type_id":"4","last_reported":1726128725,"current_range_meters":14000,"station_id":"ce4bhqh2rcd13ifvqhmg","pricing_plan_id":"cebpf4jnsgd1na2vs0mg"},{"bike_id":"c3a84de0-e074-45d2-96a4-3ff17abba9fe","system_id":"levelo_inurba_marseille","lat":43.24087,"lon":5.3773,"is_reserved":false,"is_disabled":false,"rental_uris":{"android":"levelo://app?vid=c3a84de0-e074-45d2-96a4-3ff17abba9fe","ios":"levelo://app?vid=c3a84de0-e074-45d2-96a4-3ff17abba9fe"},"vehicle_type_id":"4","last_reported":1726128725,"current_range_meters":10800,"station_id":"ce4bhnp2rcd13ifvqgvg","pricing_plan_id":"cebpf4jnsgd1na2vs0mg"},{"bike_id":"e06fa896-dd06-42d7-b340-a22a3b6b3ac8","system_id":"levelo_inurba_marseille","lat":43.26689,"lon":5.38261,"is_reserved":false,"is_disabled":false,"rental_uris":{"android":"levelo://app?vid=e06fa896-dd06-42d7-b340-a22a3b6b3ac8","ios":"levelo://app?vid=e06fa896-dd06-42d7-b340-a22a3b6b3ac8"},"vehicle_type_id":"4","last_reported":1726128725,"current_range_meters":27200,"station_id":"ce4bhg92rcd13ifvqf90","pricing_plan_id":"cebpf4jnsgd1na2vs0mg"},{"bike_id":"bf2d2172-be9c-4d8b-b2a9-e8472749e9f2","system_id":"levelo_inurba_marseille","lat":43.24555,"lon":5.39522,"is_reserved":false,"is_disabled":false,"rental_uris":{"android":"levelo://app?vid=bf2d2172-be9c-4d8b-b2a9-e8472749e9f2","ios":"levelo://app?vid=bf2d2172-be9c-4d8b-b2a9-e8472749e9f2"},"vehicle_type_id":"4","last_reported":1726128725,"current_range_meters":28400,"station_id":"ce4bhlp2rcd13ifvqgjg","pricing_plan_id":"cebpf4jnsgd1na2vs0mg"},{"bike_id":"0a1f63c4-8197-4edd-9c0f-886e05340093","system_id":"levelo_inurba_marseille","lat":43.26214,"lon":5.37442,"is_reserved":false,"is_disabled":false,"rental_uris":{"android":"levelo://app?vid=0a1f63c4-8197-4edd-9c0f-886e05340093","ios":"levelo://app?vid=0a1f63c4-8197-4edd-9c0f-886e05340093"},"vehicle_type_id":"4","last_reported":1726128725,"current_range_meters":36800,"station_id":"ce4bhgp2rcd13ifvqfc0","pricing_plan_id":"cebpf4jnsgd1na2vs0mg"},{"bike_id":"fe54d2c4-eff0-4540-9bb2-07f1b144e817","system_id":"levelo_inurba_marseille","lat":43.29847,"lon":5.36267,"is_reserved":false,"is_disabled":false,"rental_uris":{"android":"levelo://app?vid=fe54d2c4-eff0-4540-9bb2-07f1b144e817","ios":"levelo://app?vid=fe54d2c4-eff0-4540-9bb2-07f1b144e817"},"vehicle_type_id":"4","last_reported":1726128725,"current_range_meters":38800,"station_id":"ce4bgpp2rcd13ifvqc3g","pricing_plan_id":"cebpf4jnsgd1na2vs0mg"},{"bike_id":"01ba2752-3c74-4829-8e18-e4bb3e8dbaee","system_id":"levelo_inurba_marseille","lat":43.3148,"lon":5.37301,"is_reserved":false,"is_disabled":false,"rental_uris":{"android":"levelo://app?vid=01ba2752-3c74-4829-8e18-e4bb3e8dbaee","ios":"levelo://app?vid=01ba2752-3c74-4829-8e18-e4bb3e8dbaee"},"vehicle_type_id":"4","last_reported":1726128725,"current_range_meters":39200,"station_id":"ce4bgt12rcd13ifvqcd0","pricing_plan_id":"cebpf4jnsgd1na2vs0mg"},{"bike_id":"721fa92c-defe-4678-b6eb-96834f836f63","system_id":"levelo_inurba_marseille","lat":43.30539,"lon":5.36549,"is_reserved":false,"is_disabled":false,"rental_uris":{"android":"levelo://app?vid=721fa92c-defe-4678-b6eb-96834f836f63","ios":"levelo://app?vid=721fa92c-defe-4678-b6eb-96834f836f63"},"vehicle_type_id":"4","last_reported":1726128725,"current_range_meters":36800,"station_id":"ce4bgs12rcd13ifvqcag","pricing_plan_id":"cebpf4jnsgd1na2vs0mg"},{"bike_id":"603ae7c3-fefc-4b49-aadb-f4baf642c313","system_id":"levelo_inurba_marseille","lat":43.31092,"lon":5.37678,"is_reserved":false,"is_disabled":false,"rental_uris":{"android":"levelo://app?vid=603ae7c3-fefc-4b49-aadb-f4baf642c313","ios":"levelo://app?vid=603ae7c3-fefc-4b49-aadb-f4baf642c313"},"vehicle_type_id":"4","last_reported":1726128725,"current_range_meters":31200,"station_id":"","pricing_plan_id":"cebpf4jnsgd1na2vs0mg"},{"bike_id":"a52ae3d9-58a5-4929-a1fa-7958ae557e7d","system_id":"levelo_inurba_marseille","lat":43.25939,"lon":5.40904,"is_reserved":false,"is_disabled":false,"rental_uris":{"android":"levelo://app?vid=a52ae3d9-58a5-4929-a1fa-7958ae557e7d","ios":"levelo://app?vid=a52ae3d9-58a5-4929-a1fa-7958ae557e7d"},"vehicle_type_id":"4","last_reported":1726128725,"current_range_meters":14800,"station_id":"ce4bhm92rcd13ifvqglg","pricing_plan_id":"cebpf4jnsgd1na2vs0mg"},{"bike_id":"554beb7c-19ba-440e-a211-532f35657004","system_id":"levelo_inurba_marseille","lat":43.29562,"lon":5.42292,"is_reserved":false,"is_disabled":false,"rental_uris":{"android":"levelo://app?vid=554beb7c-19ba-440e-a211-532f35657004","ios":"levelo://app?vid=554beb7c-19ba-440e-a211-532f35657004"},"vehicle_type_id":"4","last_reported":1726128725,"current_range_meters":22800,"station_id":"ce4bhph2rcd13ifvqhdg","pricing_plan_id":"cebpf4jnsgd1na2vs0mg"},{"bike_id":"dd6d94c7-f35e-4acc-863e-4063ec5abc48","system_id":"levelo_inurba_marseille","lat":43.32362,"lon":5.38867,"is_reserved":false,"is_disabled":false,"rental_uris":{"android":"levelo://app?vid=dd6d94c7-f35e-4acc-863e-4063ec5abc48","ios":"levelo://app?vid=dd6d94c7-f35e-4acc-863e-4063ec5abc48"},"vehicle_type_id":"4","last_reported":1726128725,"current_range_meters":37600,"station_id":"ce4bhqp2rcd13ifvqhog","pricing_plan_id":"cebpf4jnsgd1na2vs0mg"},{"bike_id":"c07d9cfb-a36c-4f68-8f63-1240164180b8","system_id":"levelo_inurba_marseille","lat":43.30476,"lon":5.37905,"is_reserved":false,"is_disabled":false,"rental_uris":{"android":"levelo://app?vid=c07d9cfb-a36c-4f68-8f63-1240164180b8","ios":"levelo://app?vid=c07d9cfb-a36c-4f68-8f63-1240164180b8"},"vehicle_type_id":"4","last_reported":1726128725,"current_range_meters":32000,"station_id":"ce4bgup2rcd13ifvqcn0","pricing_plan_id":"cebpf4jnsgd1na2vs0mg"},{"bike_id":"352085d8-a232-4bdb-94c4-7e4bc5d644a1","system_id":"levelo_inurba_marseille","lat":43.2594,"lon":5.40904,"is_reserved":false,"is_disabled":false,"rental_uris":{"android":"levelo://app?vid=352085d8-a232-4bdb-94c4-7e4bc5d644a1","ios":"levelo://app?vid=352085d8-a232-4bdb-94c4-7e4bc5d644a1"},"vehicle_type_id":"4","last_reported":1726128725,"current_range_meters":30000,"station_id":"ce4bhm92rcd13ifvqglg","pricing_plan_id":"cebpf4jnsgd1na2vs0mg"},{"bike_id":"cf5a6d6a-12c1-45cd-b415-051d5156920d","system_id":"levelo_inurba_marseille","lat":43.33619,"lon":5.41015,"is_reserved":false,"is_disabled":false,"rental_uris":{"android":"levelo://app?vid=cf5a6d6a-12c1-45cd-b415-051d5156920d","ios":"levelo://app?vid=cf5a6d6a-12c1-45cd-b415-051d5156920d"},"vehicle_type_id":"4","last_reported":1726128725,"current_range_meters":32400,"station_id":"ce4bhqh2rcd13ifvqhmg","pricing_plan_id":"cebpf4jnsgd1na2vs0mg"},{"bike_id":"a36a6131-7175-4d21-afcf-16a3b952996a","system_id":"levelo_inurba_marseille","lat":43.30816,"lon":5.37644,"is_reserved":false,"is_disabled":false,"rental_uris":{"android":"levelo://app?vid=a36a6131-7175-4d21-afcf-16a3b952996a","ios":"levelo://app?vid=a36a6131-7175-4d21-afcf-16a3b952996a"},"vehicle_type_id":"4","last_reported":1726128725,"current_range_meters":6000,"station_id":"ce4bgv92rcd13ifvqcq0","pricing_plan_id":"cebpf4jnsgd1na2vs0mg"},{"bike_id":"4f1be73c-c40f-4b67-96ff-517c2a133d5d","system_id":"levelo_inurba_marseille","lat":43.30467,"lon":5.37903,"is_reserved":false,"is_disabled":false,"rental_uris":{"android":"levelo://app?vid=4f1be73c-c40f-4b67-96ff-517c2a133d5d","ios":"levelo://app?vid=4f1be73c-c40f-4b67-96ff-517c2a133d5d"},"vehicle_type_id":"4","last_reported":1726128725,"current_range_meters":38800,"station_id":"ce4bgup2rcd13ifvqcn0","pricing_plan_id":"cebpf4jnsgd1na2vs0mg"},{"bike_id":"dd6313df-d56d-4aab-9b2a-ea8492734cb7","system_id":"levelo_inurba_marseille","lat":43.26194,"lon":5.37452,"is_reserved":false,"is_disabled":false,"rental_uris":{"android":"levelo://app?vid=dd6313df-d56d-4aab-9b2a-ea8492734cb7","ios":"levelo://app?vid=dd6313df-d56d-4aab-9b2a-ea8492734cb7"},"vehicle_type_id":"4","last_reported":1726128725,"current_range_meters":37600,"station_id":"ce4bhgp2rcd13ifvqfc0","pricing_plan_id":"cebpf4jnsgd1na2vs0mg"},{"bike_id":"18133a1b-df7b-42d0-89d1-ccdedf5f5524","system_id":"levelo_inurba_marseille","lat":43.30536,"lon":5.36544,"is_reserved":false,"is_disabled":false,"rental_uris":{"android":"levelo://app?vid=18133a1b-df7b-42d0-89d1-ccdedf5f5524","ios":"levelo://app?vid=18133a1b-df7b-42d0-89d1-ccdedf5f5524"},"vehicle_type_id":"4","last_reported":1726128725,"current_range_meters":33600,"station_id":"ce4bgs12rcd13ifvqcag","pricing_plan_id":"cebpf4jnsgd1na2vs0mg"},{"bike_id":"df4b2802-380e-4294-83b5-1679afb45ac3","system_id":"levelo_inurba_marseille","lat":43.30463,"lon":5.37906,"is_reserved":false,"is_disabled":false,"rental_uris":{"android":"levelo://app?vid=df4b2802-380e-4294-83b5-1679afb45ac3","ios":"levelo://app?vid=df4b2802-380e-4294-83b5-1679afb45ac3"},"vehicle_type_id":"4","last_reported":1726128725,"current_range_meters":39200,"station_id":"ce4bgup2rcd13ifvqcn0","pricing_plan_id":"cebpf4jnsgd1na2vs0mg"},{"bike_id":"bea46da5-f52c-482e-8383-b1d0a3f55a7a","system_id":"levelo_inurba_marseille","lat":43.28705,"lon":5.39985,"is_reserved":false,"is_disabled":false,"rental_uris":{"android":"levelo://app?vid=bea46da5-f52c-482e-8383-b1d0a3f55a7a","ios":"levelo://app?vid=bea46da5-f52c-482e-8383-b1d0a3f55a7a"},"vehicle_type_id":"4","last_reported":1726128725,"current_range_meters":8400,"station_id":"ce4bho92rcd13ifvqh3g","pricing_plan_id":"cebpf4jnsgd1na2vs0mg"},{"bike_id":"521ac9eb-aeb3-4716-a5c7-40c1c5dfc1ab","system_id":"levelo_inurba_marseille","lat":43.28036,"lon":5.36941,"is_reserved":false,"is_disabled":false,"rental_uris":{"android":"levelo://app?vid=521ac9eb-aeb3-4716-a5c7-40c1c5dfc1ab","ios":"levelo://app?vid=521ac9eb-aeb3-4716-a5c7-40c1c5dfc1ab"},"vehicle_type_id":"4","last_reported":1726128725,"current_range_meters":38800,"station_id":"ce4bha12rcd13ifvqef0","pricing_plan_id":"cebpf4jnsgd1na2vs0mg"},{"bike_id":"2e8be033-0f30-4e45-8860-99070234de00","system_id":"levelo_inurba_marseille","lat":43.29843,"lon":5.36266,"is_reserved":false,"is_disabled":false,"rental_uris":{"android":"levelo://app?vid=2e8be033-0f30-4e45-8860-99070234de00","ios":"levelo://app?vid=2e8be033-0f30-4e45-8860-99070234de00"},"vehicle_type_id":"4","last_reported":1726128725,"current_range_meters":7200,"station_id":"ce4bgpp2rcd13ifvqc3g","pricing_plan_id":"cebpf4jnsgd1na2vs0mg"},{"bike_id":"b413d41f-7993-42f5-a3cc-daaaeaf22886","system_id":"levelo_inurba_marseille","lat":43.32481,"lon":5.36553,"is_reserved":false,"is_disabled":false,"rental_uris":{"android":"levelo://app?vid=b413d41f-7993-42f5-a3cc-daaaeaf22886","ios":"levelo://app?vid=b413d41f-7993-42f5-a3cc-daaaeaf22886"},"vehicle_type_id":"4","last_reported":1726128725,"current_range_meters":28000,"station_id":"ce4bhs12rcd13ifvqhvg","pricing_plan_id":"cebpf4jnsgd1na2vs0mg"},{"bike_id":"aa9d0a87-5dc4-48d3-a566-a5c21fdea9dd","system_id":"levelo_inurba_marseille","lat":43.28619,"lon":5.35099,"is_reserved":false,"is_disabled":false,"rental_uris":{"android":"levelo://app?vid=aa9d0a87-5dc4-48d3-a566-a5c21fdea9dd","ios":"levelo://app?vid=aa9d0a87-5dc4-48d3-a566-a5c21fdea9dd"},"vehicle_type_id":"4","last_reported":1726128725,"current_range_meters":35200,"station_id":"ce4bhch2rcd13ifvqeug","pricing_plan_id":"cebpf4jnsgd1na2vs0mg"},{"bike_id":"d367e64b-9282-4730-bad9-0b0ea7ca6ba6","system_id":"levelo_inurba_marseille","lat":43.28474,"lon":5.38402,"is_reserved":false,"is_disabled":false,"rental_uris":{"android":"levelo://app?vid=d367e64b-9282-4730-bad9-0b0ea7ca6ba6","ios":"levelo://app?vid=d367e64b-9282-4730-bad9-0b0ea7ca6ba6"},"vehicle_type_id":"4","last_reported":1726128725,"current_range_meters":24400,"station_id":"ce4bh512rcd13ifvqe3g","pricing_plan_id":"cebpf4jnsgd1na2vs0mg"},{"bike_id":"ce436c74-8382-49a0-9037-30b6397e19af","system_id":"levelo_inurba_marseille","lat":43.24088,"lon":5.37735,"is_reserved":false,"is_disabled":false,"rental_uris":{"android":"levelo://app?vid=ce436c74-8382-49a0-9037-30b6397e19af","ios":"levelo://app?vid=ce436c74-8382-49a0-9037-30b6397e19af"},"vehicle_type_id":"4","last_reported":1726128725,"current_range_meters":31200,"station_id":"ce4bhnp2rcd13ifvqgvg","pricing_plan_id":"cebpf4jnsgd1na2vs0mg"},{"bike_id":"36f1b8ec-0bfe-4b1b-ace9-e26308dc78a6","system_id":"levelo_inurba_marseille","lat":43.2315,"lon":5.43717,"is_reserved":false,"is_disabled":false,"rental_uris":{"android":"levelo://app?vid=36f1b8ec-0bfe-4b1b-ace9-e26308dc78a6","ios":"levelo://app?vid=36f1b8ec-0bfe-4b1b-ace9-e26308dc78a6"},"vehicle_type_id":"4","last_reported":1726128725,"current_range_meters":4800,"station_id":"ce4bhmp2rcd13ifvqgog","pricing_plan_id":"cebpf4jnsgd1na2vs0mg"},{"bike_id":"9247f040-ba6b-4f31-bb9b-5b008f2d52a5","system_id":"levelo_inurba_marseille","lat":43.231537,"lon":5.437199,"is_reserved":false,"is_disabled":false,"rental_uris":{"android":"levelo://app?vid=9247f040-ba6b-4f31-bb9b-5b008f2d52a5","ios":"levelo://app?vid=9247f040-ba6b-4f31-bb9b-5b008f2d52a5"},"vehicle_type_id":"4","last_reported":1726128725,"current_range_meters":10800,"station_id":"ce4bhmp2rcd13ifvqgog","pricing_plan_id":"cebpf4jnsgd1na2vs0mg"},{"bike_id":"763ce531-4554-4ce4-91de-402eab6cb9bb","system_id":"levelo_inurba_marseille","lat":43.250895,"lon":5.389626,"is_reserved":false,"is_disabled":false,"rental_uris":{"android":"levelo://app?vid=763ce531-4554-4ce4-91de-402eab6cb9bb","ios":"levelo://app?vid=763ce531-4554-4ce4-91de-402eab6cb9bb"},"vehicle_type_id":"4","last_reported":1726128725,"current_range_meters":24400,"station_id":"ce4bhgp2rcd13ifvqfd0","pricing_plan_id":"cebpf4jnsgd1na2vs0mg"},{"bike_id":"d9e90bf4-e064-45c6-800d-e632f7006f05","system_id":"levelo_inurba_marseille","lat":43.30889,"lon":5.39652,"is_reserved":false,"is_disabled":false,"rental_uris":{"android":"levelo://app?vid=d9e90bf4-e064-45c6-800d-e632f7006f05","ios":"levelo://app?vid=d9e90bf4-e064-45c6-800d-e632f7006f05"},"vehicle_type_id":"4","last_reported":1726128725,"current_range_meters":28000,"station_id":"ce4bh012rcd13ifvqcv0","pricing_plan_id":"cebpf4jnsgd1na2vs0mg"},{"bike_id":"ae3ad6c7-b322-42bb-bf54-fd91ef0db7c7","system_id":"levelo_inurba_marseille","lat":43.240784,"lon":5.377466,"is_reserved":false,"is_disabled":false,"rental_uris":{"android":"levelo://app?vid=ae3ad6c7-b322-42bb-bf54-fd91ef0db7c7","ios":"levelo://app?vid=ae3ad6c7-b322-42bb-bf54-fd91ef0db7c7"},"vehicle_type_id":"4","last_reported":1726128725,"current_range_meters":36000,"station_id":"ce4bhnp2rcd13ifvqgvg","pricing_plan_id":"cebpf4jnsgd1na2vs0mg"},{"bike_id":"ca33d2bf-c9f2-4944-aec8-d1b6204ec37b","system_id":"levelo_inurba_marseille","lat":43.29548,"lon":5.42281,"is_reserved":false,"is_disabled":false,"rental_uris":{"android":"levelo://app?vid=ca33d2bf-c9f2-4944-aec8-d1b6204ec37b","ios":"levelo://app?vid=ca33d2bf-c9f2-4944-aec8-d1b6204ec37b"},"vehicle_type_id":"4","last_reported":1726128725,"current_range_meters":24800,"station_id":"ce4bhph2rcd13ifvqhdg","pricing_plan_id":"cebpf4jnsgd1na2vs0mg"},{"bike_id":"89697812-612a-4075-be97-7b90fbade5ea","system_id":"levelo_inurba_marseille","lat":43.25005,"lon":5.38936,"is_reserved":false,"is_disabled":false,"rental_uris":{"android":"levelo://app?vid=89697812-612a-4075-be97-7b90fbade5ea","ios":"levelo://app?vid=89697812-612a-4075-be97-7b90fbade5ea"},"vehicle_type_id":"4","last_reported":1726128725,"current_range_meters":33600,"station_id":"ce4bhgp2rcd13ifvqfd0","pricing_plan_id":"cebpf4jnsgd1na2vs0mg"},{"bike_id":"e4a5e406-b72a-4f07-9791-f4133102a158","system_id":"levelo_inurba_marseille","lat":43.32484,"lon":5.36573,"is_reserved":false,"is_disabled":false,"rental_uris":{"android":"levelo://app?vid=e4a5e406-b72a-4f07-9791-f4133102a158","ios":"levelo://app?vid=e4a5e406-b72a-4f07-9791-f4133102a158"},"vehicle_type_id":"4","last_reported":1726128725,"current_range_meters":14400,"station_id":"ce4bhs12rcd13ifvqhvg","pricing_plan_id":"cebpf4jnsgd1na2vs0mg"},{"bike_id":"8817bfad-b549-4a9e-9399-9b8521c23dd4","system_id":"levelo_inurba_marseille","lat":43.23154,"lon":5.43717,"is_reserved":false,"is_disabled":false,"rental_uris":{"android":"levelo://app?vid=8817bfad-b549-4a9e-9399-9b8521c23dd4","ios":"levelo://app?vid=8817bfad-b549-4a9e-9399-9b8521c23dd4"},"vehicle_type_id":"4","last_reported":1726128725,"current_range_meters":26000,"station_id":"ce4bhmp2rcd13ifvqgog","pricing_plan_id":"cebpf4jnsgd1na2vs0mg"},{"bike_id":"25d751f7-8dda-4903-bdc2-e23d4d494216","system_id":"levelo_inurba_marseille","lat":43.23155,"lon":5.43703,"is_reserved":false,"is_disabled":false,"rental_uris":{"android":"levelo://app?vid=25d751f7-8dda-4903-bdc2-e23d4d494216","ios":"levelo://app?vid=25d751f7-8dda-4903-bdc2-e23d4d494216"},"vehicle_type_id":"4","last_reported":1726128725,"current_range_meters":3200,"station_id":"ce4bhmp2rcd13ifvqgog","pricing_plan_id":"cebpf4jnsgd1na2vs0mg"},{"bike_id":"0c2cf416-853d-481f-a843-c8ef5e4b26a5","system_id":"levelo_inurba_marseille","lat":43.30467,"lon":5.37912,"is_reserved":false,"is_disabled":false,"rental_uris":{"android":"levelo://app?vid=0c2cf416-853d-481f-a843-c8ef5e4b26a5","ios":"levelo://app?vid=0c2cf416-853d-481f-a843-c8ef5e4b26a5"},"vehicle_type_id":"4","last_reported":1726128725,"current_range_meters":28800,"station_id":"ce4bgup2rcd13ifvqcn0","pricing_plan_id":"cebpf4jnsgd1na2vs0mg"},{"bike_id":"ab0152a5-2405-4d2d-945d-2c7c8fb8f257","system_id":"levelo_inurba_marseille","lat":43.283632,"lon":5.386303,"is_reserved":false,"is_disabled":false,"rental_uris":{"android":"levelo://app?vid=ab0152a5-2405-4d2d-945d-2c7c8fb8f257","ios":"levelo://app?vid=ab0152a5-2405-4d2d-945d-2c7c8fb8f257"},"vehicle_type_id":"4","last_reported":1726128725,"current_range_meters":3600,"station_id":"ce4bh492rcd13ifvqdvg","pricing_plan_id":"cebpf4jnsgd1na2vs0mg"},{"bike_id":"81f07673-dfe5-435a-a081-ff73a26a9256","system_id":"levelo_inurba_marseille","lat":43.24087,"lon":5.37749,"is_reserved":false,"is_disabled":false,"rental_uris":{"android":"levelo://app?vid=81f07673-dfe5-435a-a081-ff73a26a9256","ios":"levelo://app?vid=81f07673-dfe5-435a-a081-ff73a26a9256"},"vehicle_type_id":"4","last_reported":1726128725,"current_range_meters":11600,"station_id":"ce4bhnp2rcd13ifvqgvg","pricing_plan_id":"cebpf4jnsgd1na2vs0mg"},{"bike_id":"7ce587b3-eff6-4385-aed2-96acfc8e123a","system_id":"levelo_inurba_marseille","lat":43.30913,"lon":5.36852,"is_reserved":false,"is_disabled":false,"rental_uris":{"android":"levelo://app?vid=7ce587b3-eff6-4385-aed2-96acfc8e123a","ios":"levelo://app?vid=7ce587b3-eff6-4385-aed2-96acfc8e123a"},"vehicle_type_id":"4","last_reported":1726128725,"current_range_meters":35600,"station_id":"ce4bgn92rcd13ifvqbvg","pricing_plan_id":"cebpf4jnsgd1na2vs0mg"},{"bike_id":"fba8f175-7328-4134-90d1-1bb559f8afa7","system_id":"levelo_inurba_marseille","lat":43.33767,"lon":5.37425,"is_reserved":false,"is_disabled":false,"rental_uris":{"android":"levelo://app?vid=fba8f175-7328-4134-90d1-1bb559f8afa7","ios":"levelo://app?vid=fba8f175-7328-4134-90d1-1bb559f8afa7"},"vehicle_type_id":"4","last_reported":1726128725,"current_range_meters":36000,"station_id":"","pricing_plan_id":"cebpf4jnsgd1na2vs0mg"},{"bike_id":"8a15da51-22a3-4305-91d9-7f35ec4b8ce7","system_id":"levelo_inurba_marseille","lat":43.27434,"lon":5.39422,"is_reserved":false,"is_disabled":false,"rental_uris":{"android":"levelo://app?vid=8a15da51-22a3-4305-91d9-7f35ec4b8ce7","ios":"levelo://app?vid=8a15da51-22a3-4305-91d9-7f35ec4b8ce7"},"vehicle_type_id":"4","last_reported":1726128725,"current_range_meters":38800,"station_id":"ce4bhdp2rcd13ifvqf20","pricing_plan_id":"cebpf4jnsgd1na2vs0mg"},{"bike_id":"2f51a789-eea0-44dd-98f7-aa48c80747d9","system_id":"levelo_inurba_marseille","lat":43.25919,"lon":5.40924,"is_reserved":false,"is_disabled":false,"rental_uris":{"android":"levelo://app?vid=2f51a789-eea0-44dd-98f7-aa48c80747d9","ios":"levelo://app?vid=2f51a789-eea0-44dd-98f7-aa48c80747d9"},"vehicle_type_id":"4","last_reported":1726128725,"current_range_meters":27200,"station_id":"","pricing_plan_id":"cebpf4jnsgd1na2vs0mg"},{"bike_id":"87ede55f-ab11-463f-8f31-6a502c92b239","system_id":"levelo_inurba_marseille","lat":43.27211,"lon":5.39187,"is_reserved":false,"is_disabled":false,"rental_uris":{"android":"levelo://app?vid=87ede55f-ab11-463f-8f31-6a502c92b239","ios":"levelo://app?vid=87ede55f-ab11-463f-8f31-6a502c92b239"},"vehicle_type_id":"4","last_reported":1726128725,"current_range_meters":8000,"station_id":"ce4bhhp2rcd13ifvqfm0","pricing_plan_id":"cebpf4jnsgd1na2vs0mg"},{"bike_id":"53ebaa0e-ac89-4925-bb1f-3449ad168899","system_id":"levelo_inurba_marseille","lat":43.30147,"lon":5.37426,"is_reserved":false,"is_disabled":false,"rental_uris":{"android":"levelo://app?vid=53ebaa0e-ac89-4925-bb1f-3449ad168899","ios":"levelo://app?vid=53ebaa0e-ac89-4925-bb1f-3449ad168899"},"vehicle_type_id":"4","last_reported":1726128725,"current_range_meters":38000,"station_id":"ce4bgs92rcd13ifvqcc0","pricing_plan_id":"cebpf4jnsgd1na2vs0mg"},{"bike_id":"cfdd0e5d-34af-414f-999a-c01c6f568ccf","system_id":"levelo_inurba_marseille","lat":43.24559,"lon":5.39564,"is_reserved":false,"is_disabled":false,"rental_uris":{"android":"levelo://app?vid=cfdd0e5d-34af-414f-999a-c01c6f568ccf","ios":"levelo://app?vid=cfdd0e5d-34af-414f-999a-c01c6f568ccf"},"vehicle_type_id":"4","last_reported":1726128725,"current_range_meters":4800,"station_id":"ce4bhlp2rcd13ifvqgjg","pricing_plan_id":"cebpf4jnsgd1na2vs0mg"},{"bike_id":"2c4577b3-3689-495e-a3c3-a78eafd4dc43","system_id":"levelo_inurba_marseille","lat":43.26555,"lon":5.37286,"is_reserved":false,"is_disabled":false,"rental_uris":{"android":"levelo://app?vid=2c4577b3-3689-495e-a3c3-a78eafd4dc43","ios":"levelo://app?vid=2c4577b3-3689-495e-a3c3-a78eafd4dc43"},"vehicle_type_id":"4","last_reported":1726128725,"current_range_meters":28000,"station_id":"ce4bhg12rcd13ifvqf70","pricing_plan_id":"cebpf4jnsgd1na2vs0mg"},{"bike_id":"c3baa9f4-1a80-441e-aae4-6876a6aba553","system_id":"levelo_inurba_marseille","lat":43.32294,"lon":5.3825,"is_reserved":false,"is_disabled":false,"rental_uris":{"android":"levelo://app?vid=c3baa9f4-1a80-441e-aae4-6876a6aba553","ios":"levelo://app?vid=c3baa9f4-1a80-441e-aae4-6876a6aba553"},"vehicle_type_id":"4","last_reported":1726128725,"current_range_meters":35600,"station_id":"ce4bhr12rcd13ifvqhqg","pricing_plan_id":"cebpf4jnsgd1na2vs0mg"},{"bike_id":"23bd3d86-63c7-42b5-a092-7d3c80361062","system_id":"levelo_inurba_marseille","lat":43.3091,"lon":5.36852,"is_reserved":false,"is_disabled":false,"rental_uris":{"android":"levelo://app?vid=23bd3d86-63c7-42b5-a092-7d3c80361062","ios":"levelo://app?vid=23bd3d86-63c7-42b5-a092-7d3c80361062"},"vehicle_type_id":"4","last_reported":1726128725,"current_range_meters":17600,"station_id":"ce4bgn92rcd13ifvqbvg","pricing_plan_id":"cebpf4jnsgd1na2vs0mg"},{"bike_id":"d561423b-c6d2-45b3-a0cc-a68a640706d9","system_id":"levelo_inurba_marseille","lat":43.29842,"lon":5.36264,"is_reserved":false,"is_disabled":false,"rental_uris":{"android":"levelo://app?vid=d561423b-c6d2-45b3-a0cc-a68a640706d9","ios":"levelo://app?vid=d561423b-c6d2-45b3-a0cc-a68a640706d9"},"vehicle_type_id":"4","last_reported":1726128725,"current_range_meters":20400,"station_id":"ce4bgpp2rcd13ifvqc3g","pricing_plan_id":"cebpf4jnsgd1na2vs0mg"},{"bike_id":"90d2ae2a-3f15-4312-bd91-fd2f61cefe49","system_id":"levelo_inurba_marseille","lat":43.325378,"lon":5.414267,"is_reserved":false,"is_disabled":false,"rental_uris":{"android":"levelo://app?vid=90d2ae2a-3f15-4312-bd91-fd2f61cefe49","ios":"levelo://app?vid=90d2ae2a-3f15-4312-bd91-fd2f61cefe49"},"vehicle_type_id":"4","last_reported":1726128725,"current_range_meters":23200,"station_id":"ce4bhq12rcd13ifvqhhg","pricing_plan_id":"cebpf4jnsgd1na2vs0mg"},{"bike_id":"d970b38c-7387-43bd-989f-d6f74d17f57e","system_id":"levelo_inurba_marseille","lat":43.30537,"lon":5.36545,"is_reserved":false,"is_disabled":false,"rental_uris":{"android":"levelo://app?vid=d970b38c-7387-43bd-989f-d6f74d17f57e","ios":"levelo://app?vid=d970b38c-7387-43bd-989f-d6f74d17f57e"},"vehicle_type_id":"4","last_reported":1726128725,"current_range_meters":35200,"station_id":"ce4bgs12rcd13ifvqcag","pricing_plan_id":"cebpf4jnsgd1na2vs0mg"},{"bike_id":"656bb4b1-d5a4-4148-9379-aae764dbd48d","system_id":"levelo_inurba_marseille","lat":43.28271,"lon":5.35066,"is_reserved":false,"is_disabled":false,"rental_uris":{"android":"levelo://app?vid=656bb4b1-d5a4-4148-9379-aae764dbd48d","ios":"levelo://app?vid=656bb4b1-d5a4-4148-9379-aae764dbd48d"},"vehicle_type_id":"4","last_reported":1726128725,"current_range_meters":9600,"station_id":"ce4bhbp2rcd13ifvqerg","pricing_plan_id":"cebpf4jnsgd1na2vs0mg"},{"bike_id":"8e6ba7fb-d1eb-4b20-86cf-c338d9091623","system_id":"levelo_inurba_marseille","lat":43.26213,"lon":5.3792,"is_reserved":false,"is_disabled":false,"rental_uris":{"android":"levelo://app?vid=8e6ba7fb-d1eb-4b20-86cf-c338d9091623","ios":"levelo://app?vid=8e6ba7fb-d1eb-4b20-86cf-c338d9091623"},"vehicle_type_id":"4","last_reported":1726128725,"current_range_meters":34000,"station_id":"ce4bhjp2rcd13ifvqg90","pricing_plan_id":"cebpf4jnsgd1na2vs0mg"},{"bike_id":"5e581808-211e-428c-a958-5c9400e97260","system_id":"levelo_inurba_marseille","lat":43.27489,"lon":5.42454,"is_reserved":false,"is_disabled":false,"rental_uris":{"android":"levelo://app?vid=5e581808-211e-428c-a958-5c9400e97260","ios":"levelo://app?vid=5e581808-211e-428c-a958-5c9400e97260"},"vehicle_type_id":"4","last_reported":1726128725,"current_range_meters":3200,"station_id":"ce4bhn92rcd13ifvqgrg","pricing_plan_id":"cebpf4jnsgd1na2vs0mg"},{"bike_id":"1cc433ce-5eec-44c4-9cc9-77e5664ecfd7","system_id":"levelo_inurba_marseille","lat":43.269626,"lon":5.386241,"is_reserved":false,"is_disabled":false,"rental_uris":{"android":"levelo://app?vid=1cc433ce-5eec-44c4-9cc9-77e5664ecfd7","ios":"levelo://app?vid=1cc433ce-5eec-44c4-9cc9-77e5664ecfd7"},"vehicle_type_id":"4","last_reported":1726128725,"current_range_meters":2800,"station_id":"ce4bhip2rcd13ifvqft0","pricing_plan_id":"cebpf4jnsgd1na2vs0mg"},{"bike_id":"f8891ded-e9c6-4143-b577-9e7b14e71218","system_id":"levelo_inurba_marseille","lat":43.288788,"lon":5.358534,"is_reserved":false,"is_disabled":false,"rental_uris":{"android":"levelo://app?vid=f8891ded-e9c6-4143-b577-9e7b14e71218","ios":"levelo://app?vid=f8891ded-e9c6-4143-b577-9e7b14e71218"},"vehicle_type_id":"4","last_reported":1726128725,"current_range_meters":26000,"station_id":"ce4bhb12rcd13ifvqem0","pricing_plan_id":"cebpf4jnsgd1na2vs0mg"},{"bike_id":"ac61b3d5-4a9a-4e8e-8909-e3b91f61a358","system_id":"levelo_inurba_marseille","lat":43.30287,"lon":5.37702,"is_reserved":false,"is_disabled":false,"rental_uris":{"android":"levelo://app?vid=ac61b3d5-4a9a-4e8e-8909-e3b91f61a358","ios":"levelo://app?vid=ac61b3d5-4a9a-4e8e-8909-e3b91f61a358"},"vehicle_type_id":"4","last_reported":1726128725,"current_range_meters":27200,"station_id":"ce4bguh2rcd13ifvqcj0","pricing_plan_id":"cebpf4jnsgd1na2vs0mg"},{"bike_id":"dd99ab3d-cb76-4b60-b553-275a65eef40e","system_id":"levelo_inurba_marseille","lat":43.25936,"lon":5.40908,"is_reserved":false,"is_disabled":false,"rental_uris":{"android":"levelo://app?vid=dd99ab3d-cb76-4b60-b553-275a65eef40e","ios":"levelo://app?vid=dd99ab3d-cb76-4b60-b553-275a65eef40e"},"vehicle_type_id":"4","last_reported":1726128725,"current_range_meters":33600,"station_id":"ce4bhm92rcd13ifvqglg","pricing_plan_id":"cebpf4jnsgd1na2vs0mg"},{"bike_id":"a794bbd9-e83e-4910-83a4-566ea7e762eb","system_id":"levelo_inurba_marseille","lat":43.24995,"lon":5.38935,"is_reserved":false,"is_disabled":false,"rental_uris":{"android":"levelo://app?vid=a794bbd9-e83e-4910-83a4-566ea7e762eb","ios":"levelo://app?vid=a794bbd9-e83e-4910-83a4-566ea7e762eb"},"vehicle_type_id":"4","last_reported":1726128725,"current_range_meters":8000,"station_id":"ce4bhgp2rcd13ifvqfd0","pricing_plan_id":"cebpf4jnsgd1na2vs0mg"},{"bike_id":"69d8f1ce-ef52-4962-9d2a-9eaaaccd9da1","system_id":"levelo_inurba_marseille","lat":43.258498,"lon":5.399159,"is_reserved":false,"is_disabled":false,"rental_uris":{"android":"levelo://app?vid=69d8f1ce-ef52-4962-9d2a-9eaaaccd9da1","ios":"levelo://app?vid=69d8f1ce-ef52-4962-9d2a-9eaaaccd9da1"},"vehicle_type_id":"4","last_reported":1726128725,"current_range_meters":15200,"station_id":"ce4bhl92rcd13ifvqghg","pricing_plan_id":"cebpf4jnsgd1na2vs0mg"},{"bike_id":"52b1637a-8ab4-4195-a7c9-3937f2702917","system_id":"levelo_inurba_marseille","lat":43.29912,"lon":5.37458,"is_reserved":false,"is_disabled":false,"rental_uris":{"android":"levelo://app?vid=52b1637a-8ab4-4195-a7c9-3937f2702917","ios":"levelo://app?vid=52b1637a-8ab4-4195-a7c9-3937f2702917"},"vehicle_type_id":"4","last_reported":1726128725,"current_range_meters":18800,"station_id":"ce4bgjh2rcd13ifvqbg0","pricing_plan_id":"cebpf4jnsgd1na2vs0mg"},{"bike_id":"61dc4eae-f9e9-4124-ae38-99ac00f06e9b","system_id":"levelo_inurba_marseille","lat":43.240865,"lon":5.377491,"is_reserved":false,"is_disabled":false,"rental_uris":{"android":"levelo://app?vid=61dc4eae-f9e9-4124-ae38-99ac00f06e9b","ios":"levelo://app?vid=61dc4eae-f9e9-4124-ae38-99ac00f06e9b"},"vehicle_type_id":"4","last_reported":1726128725,"current_range_meters":32400,"station_id":"ce4bhnp2rcd13ifvqgvg","pricing_plan_id":"cebpf4jnsgd1na2vs0mg"},{"bike_id":"10e7e032-ccbd-46cd-b9a4-50be4d18ac8b","system_id":"levelo_inurba_marseille","lat":43.24666,"lon":5.38174,"is_reserved":false,"is_disabled":false,"rental_uris":{"android":"levelo://app?vid=10e7e032-ccbd-46cd-b9a4-50be4d18ac8b","ios":"levelo://app?vid=10e7e032-ccbd-46cd-b9a4-50be4d18ac8b"},"vehicle_type_id":"4","last_reported":1726128725,"current_range_meters":30000,"station_id":"ce4bhih2rcd13ifvqfr0","pricing_plan_id":"cebpf4jnsgd1na2vs0mg"},{"bike_id":"cb16290f-1b68-4ac4-897a-62170d60528d","system_id":"levelo_inurba_marseille","lat":43.33789,"lon":5.37424,"is_reserved":false,"is_disabled":false,"rental_uris":{"android":"levelo://app?vid=cb16290f-1b68-4ac4-897a-62170d60528d","ios":"levelo://app?vid=cb16290f-1b68-4ac4-897a-62170d60528d"},"vehicle_type_id":"4","last_reported":1726128725,"current_range_meters":33200,"station_id":"","pricing_plan_id":"cebpf4jnsgd1na2vs0mg"},{"bike_id":"b279d8db-d104-4fc0-b94c-7e2dd0443742","system_id":"levelo_inurba_marseille","lat":43.3254,"lon":5.41443,"is_reserved":false,"is_disabled":false,"rental_uris":{"android":"levelo://app?vid=b279d8db-d104-4fc0-b94c-7e2dd0443742","ios":"levelo://app?vid=b279d8db-d104-4fc0-b94c-7e2dd0443742"},"vehicle_type_id":"4","last_reported":1726128725,"current_range_meters":11600,"station_id":"ce4bhq12rcd13ifvqhhg","pricing_plan_id":"cebpf4jnsgd1na2vs0mg"},{"bike_id":"751de9e2-6986-4308-ae07-b51ae96d1158","system_id":"levelo_inurba_marseille","lat":43.24072,"lon":5.3774,"is_reserved":false,"is_disabled":false,"rental_uris":{"android":"levelo://app?vid=751de9e2-6986-4308-ae07-b51ae96d1158","ios":"levelo://app?vid=751de9e2-6986-4308-ae07-b51ae96d1158"},"vehicle_type_id":"4","last_reported":1726128725,"current_range_meters":38000,"station_id":"ce4bhnp2rcd13ifvqgvg","pricing_plan_id":"cebpf4jnsgd1na2vs0mg"},{"bike_id":"c8d291f1-0c46-4e09-8e79-c7c2d106ea12","system_id":"levelo_inurba_marseille","lat":43.30466,"lon":5.37905,"is_reserved":false,"is_disabled":false,"rental_uris":{"android":"levelo://app?vid=c8d291f1-0c46-4e09-8e79-c7c2d106ea12","ios":"levelo://app?vid=c8d291f1-0c46-4e09-8e79-c7c2d106ea12"},"vehicle_type_id":"4","last_reported":1726128725,"current_range_meters":21600,"station_id":"ce4bgup2rcd13ifvqcn0","pricing_plan_id":"cebpf4jnsgd1na2vs0mg"},{"bike_id":"42f4c576-b9c9-451e-bb09-e9ba24f78231","system_id":"levelo_inurba_marseille","lat":43.24076,"lon":5.37756,"is_reserved":false,"is_disabled":false,"rental_uris":{"android":"levelo://app?vid=42f4c576-b9c9-451e-bb09-e9ba24f78231","ios":"levelo://app?vid=42f4c576-b9c9-451e-bb09-e9ba24f78231"},"vehicle_type_id":"4","last_reported":1726128725,"current_range_meters":35600,"station_id":"ce4bhnp2rcd13ifvqgvg","pricing_plan_id":"cebpf4jnsgd1na2vs0mg"},{"bike_id":"dfd604c4-221b-442d-8f0c-5524a0446526","system_id":"levelo_inurba_marseille","lat":43.30278,"lon":5.37712,"is_reserved":false,"is_disabled":false,"rental_uris":{"android":"levelo://app?vid=dfd604c4-221b-442d-8f0c-5524a0446526","ios":"levelo://app?vid=dfd604c4-221b-442d-8f0c-5524a0446526"},"vehicle_type_id":"4","last_reported":1726128725,"current_range_meters":38400,"station_id":"ce4bguh2rcd13ifvqcj0","pricing_plan_id":"cebpf4jnsgd1na2vs0mg"},{"bike_id":"7d348dd9-aba5-4535-bda9-b52ada6017ef","system_id":"levelo_inurba_marseille","lat":43.26191,"lon":5.37446,"is_reserved":false,"is_disabled":false,"rental_uris":{"android":"levelo://app?vid=7d348dd9-aba5-4535-bda9-b52ada6017ef","ios":"levelo://app?vid=7d348dd9-aba5-4535-bda9-b52ada6017ef"},"vehicle_type_id":"4","last_reported":1726128725,"current_range_meters":37600,"station_id":"ce4bhgp2rcd13ifvqfc0","pricing_plan_id":"cebpf4jnsgd1na2vs0mg"},{"bike_id":"9f7ee0be-e9c7-4974-9a33-f647d44b45df","system_id":"levelo_inurba_marseille","lat":43.31231,"lon":5.36845,"is_reserved":false,"is_disabled":false,"rental_uris":{"android":"levelo://app?vid=9f7ee0be-e9c7-4974-9a33-f647d44b45df","ios":"levelo://app?vid=9f7ee0be-e9c7-4974-9a33-f647d44b45df"},"vehicle_type_id":"4","last_reported":1726128725,"current_range_meters":32400,"station_id":"ce4bgl92rcd13ifvqbq0","pricing_plan_id":"cebpf4jnsgd1na2vs0mg"},{"bike_id":"665be21c-e0a7-4fb9-810b-286169028cef","system_id":"levelo_inurba_marseille","lat":43.24074,"lon":5.37751,"is_reserved":false,"is_disabled":false,"rental_uris":{"android":"levelo://app?vid=665be21c-e0a7-4fb9-810b-286169028cef","ios":"levelo://app?vid=665be21c-e0a7-4fb9-810b-286169028cef"},"vehicle_type_id":"4","last_reported":1726128725,"current_range_meters":35600,"station_id":"ce4bhnp2rcd13ifvqgvg","pricing_plan_id":"cebpf4jnsgd1na2vs0mg"},{"bike_id":"a8e85c11-dd33-440e-a03a-6f0818dfb426","system_id":"levelo_inurba_marseille","lat":43.26209,"lon":5.37922,"is_reserved":false,"is_disabled":false,"rental_uris":{"android":"levelo://app?vid=a8e85c11-dd33-440e-a03a-6f0818dfb426","ios":"levelo://app?vid=a8e85c11-dd33-440e-a03a-6f0818dfb426"},"vehicle_type_id":"4","last_reported":1726128725,"current_range_meters":18000,"station_id":"ce4bhjp2rcd13ifvqg90","pricing_plan_id":"cebpf4jnsgd1na2vs0mg"},{"bike_id":"02964caf-f190-471e-a530-d0fefedd8874","system_id":"levelo_inurba_marseille","lat":43.25932,"lon":5.40911,"is_reserved":false,"is_disabled":false,"rental_uris":{"android":"levelo://app?vid=02964caf-f190-471e-a530-d0fefedd8874","ios":"levelo://app?vid=02964caf-f190-471e-a530-d0fefedd8874"},"vehicle_type_id":"4","last_reported":1726128725,"current_range_meters":27600,"station_id":"ce4bhm92rcd13ifvqglg","pricing_plan_id":"cebpf4jnsgd1na2vs0mg"},{"bike_id":"b380955f-3789-4749-96eb-3f5702510c6a","system_id":"levelo_inurba_marseille","lat":43.33604,"lon":5.41021,"is_reserved":false,"is_disabled":false,"rental_uris":{"android":"levelo://app?vid=b380955f-3789-4749-96eb-3f5702510c6a","ios":"levelo://app?vid=b380955f-3789-4749-96eb-3f5702510c6a"},"vehicle_type_id":"4","last_reported":1726128725,"current_range_meters":39200,"station_id":"ce4bhqh2rcd13ifvqhmg","pricing_plan_id":"cebpf4jnsgd1na2vs0mg"},{"bike_id":"cd2104e9-fe8f-4a8d-a2d7-15eafb601787","system_id":"levelo_inurba_marseille","lat":43.31232,"lon":5.36856,"is_reserved":false,"is_disabled":false,"rental_uris":{"android":"levelo://app?vid=cd2104e9-fe8f-4a8d-a2d7-15eafb601787","ios":"levelo://app?vid=cd2104e9-fe8f-4a8d-a2d7-15eafb601787"},"vehicle_type_id":"4","last_reported":1726128725,"current_range_meters":38800,"station_id":"ce4bgl92rcd13ifvqbq0","pricing_plan_id":"cebpf4jnsgd1na2vs0mg"},{"bike_id":"6adac3d4-3047-4e8b-b1ba-2335da10405c","system_id":"levelo_inurba_marseille","lat":43.26069,"lon":5.39397,"is_reserved":false,"is_disabled":false,"rental_uris":{"android":"levelo://app?vid=6adac3d4-3047-4e8b-b1ba-2335da10405c","ios":"levelo://app?vid=6adac3d4-3047-4e8b-b1ba-2335da10405c"},"vehicle_type_id":"4","last_reported":1726128725,"current_range_meters":36400,"station_id":"ce4bhh92rcd13ifvqfj0","pricing_plan_id":"cebpf4jnsgd1na2vs0mg"},{"bike_id":"e2765759-4e07-4974-b8a4-c45e517a9dd8","system_id":"levelo_inurba_marseille","lat":43.26214,"lon":5.37441,"is_reserved":false,"is_disabled":false,"rental_uris":{"android":"levelo://app?vid=e2765759-4e07-4974-b8a4-c45e517a9dd8","ios":"levelo://app?vid=e2765759-4e07-4974-b8a4-c45e517a9dd8"},"vehicle_type_id":"4","last_reported":1726128725,"current_range_meters":35600,"station_id":"ce4bhgp2rcd13ifvqfc0","pricing_plan_id":"cebpf4jnsgd1na2vs0mg"},{"bike_id":"ad293842-a5c3-4176-af30-c4c13092745b","system_id":"levelo_inurba_marseille","lat":43.28155,"lon":5.42638,"is_reserved":false,"is_disabled":false,"rental_uris":{"android":"levelo://app?vid=ad293842-a5c3-4176-af30-c4c13092745b","ios":"levelo://app?vid=ad293842-a5c3-4176-af30-c4c13092745b"},"vehicle_type_id":"4","last_reported":1726128725,"current_range_meters":28400,"station_id":"ce4bhnh2rcd13ifvqgug","pricing_plan_id":"cebpf4jnsgd1na2vs0mg"},{"bike_id":"deaeb920-23ab-4b51-a90a-3a4d369b9959","system_id":"levelo_inurba_marseille","lat":43.26559,"lon":5.37277,"is_reserved":false,"is_disabled":false,"rental_uris":{"android":"levelo://app?vid=deaeb920-23ab-4b51-a90a-3a4d369b9959","ios":"levelo://app?vid=deaeb920-23ab-4b51-a90a-3a4d369b9959"},"vehicle_type_id":"4","last_reported":1726128725,"current_range_meters":13600,"station_id":"ce4bhg12rcd13ifvqf70","pricing_plan_id":"cebpf4jnsgd1na2vs0mg"},{"bike_id":"b32a9a4d-2708-4b1a-907a-90b577567e4c","system_id":"levelo_inurba_marseille","lat":43.30881,"lon":5.39643,"is_reserved":false,"is_disabled":false,"rental_uris":{"android":"levelo://app?vid=b32a9a4d-2708-4b1a-907a-90b577567e4c","ios":"levelo://app?vid=b32a9a4d-2708-4b1a-907a-90b577567e4c"},"vehicle_type_id":"4","last_reported":1726128725,"current_range_meters":25200,"station_id":"ce4bh012rcd13ifvqcv0","pricing_plan_id":"cebpf4jnsgd1na2vs0mg"},{"bike_id":"fc13766f-b902-40e7-8a20-6d02842a3ec2","system_id":"levelo_inurba_marseille","lat":43.29275,"lon":5.36842,"is_reserved":false,"is_disabled":false,"rental_uris":{"android":"levelo://app?vid=fc13766f-b902-40e7-8a20-6d02842a3ec2","ios":"levelo://app?vid=fc13766f-b902-40e7-8a20-6d02842a3ec2"},"vehicle_type_id":"4","last_reported":1726128725,"current_range_meters":6000,"station_id":"ce4bhbp2rcd13ifvqesg","pricing_plan_id":"cebpf4jnsgd1na2vs0mg"},{"bike_id":"c1142c8d-e336-4538-9544-b15b7b40b9ec","system_id":"levelo_inurba_marseille","lat":43.3095,"lon":5.39041,"is_reserved":false,"is_disabled":false,"rental_uris":{"android":"levelo://app?vid=c1142c8d-e336-4538-9544-b15b7b40b9ec","ios":"levelo://app?vid=c1142c8d-e336-4538-9544-b15b7b40b9ec"},"vehicle_type_id":"4","last_reported":1726128725,"current_range_meters":6400,"station_id":"ce4bgup2rcd13ifvqco0","pricing_plan_id":"cebpf4jnsgd1na2vs0mg"},{"bike_id":"ba72e858-571b-4d91-a29b-a577f810152e","system_id":"levelo_inurba_marseille","lat":43.25727,"lon":5.41104,"is_reserved":false,"is_disabled":false,"rental_uris":{"android":"levelo://app?vid=ba72e858-571b-4d91-a29b-a577f810152e","ios":"levelo://app?vid=ba72e858-571b-4d91-a29b-a577f810152e"},"vehicle_type_id":"4","last_reported":1726128725,"current_range_meters":22400,"station_id":"ce4bhkp2rcd13ifvqgd0","pricing_plan_id":"cebpf4jnsgd1na2vs0mg"},{"bike_id":"8dbdcd08-5777-4453-9969-b641ace2027d","system_id":"levelo_inurba_marseille","lat":43.26786,"lon":5.39411,"is_reserved":false,"is_disabled":false,"rental_uris":{"android":"levelo://app?vid=8dbdcd08-5777-4453-9969-b641ace2027d","ios":"levelo://app?vid=8dbdcd08-5777-4453-9969-b641ace2027d"},"vehicle_type_id":"4","last_reported":1726128725,"current_range_meters":39200,"station_id":"ce4bhh12rcd13ifvqfg0","pricing_plan_id":"cebpf4jnsgd1na2vs0mg"},{"bike_id":"5b447c57-133e-42cd-827f-e526e0bfeef2","system_id":"levelo_inurba_marseille","lat":43.31358,"lon":5.36712,"is_reserved":false,"is_disabled":false,"rental_uris":{"android":"levelo://app?vid=5b447c57-133e-42cd-827f-e526e0bfeef2","ios":"levelo://app?vid=5b447c57-133e-42cd-827f-e526e0bfeef2"},"vehicle_type_id":"4","last_reported":1726128725,"current_range_meters":36800,"station_id":"ce4bgr92rcd13ifvqc6g","pricing_plan_id":"cebpf4jnsgd1na2vs0mg"},{"bike_id":"b339ada7-e3c9-4078-8ab9-62d2173286d7","system_id":"levelo_inurba_marseille","lat":43.30536,"lon":5.36549,"is_reserved":false,"is_disabled":false,"rental_uris":{"android":"levelo://app?vid=b339ada7-e3c9-4078-8ab9-62d2173286d7","ios":"levelo://app?vid=b339ada7-e3c9-4078-8ab9-62d2173286d7"},"vehicle_type_id":"4","last_reported":1726128725,"current_range_meters":25200,"station_id":"ce4bgs12rcd13ifvqcag","pricing_plan_id":"cebpf4jnsgd1na2vs0mg"},{"bike_id":"9d49211d-ae11-4ac3-96bf-dd3b41a37474","system_id":"levelo_inurba_marseille","lat":43.337444,"lon":5.374475,"is_reserved":false,"is_disabled":false,"rental_uris":{"android":"levelo://app?vid=9d49211d-ae11-4ac3-96bf-dd3b41a37474","ios":"levelo://app?vid=9d49211d-ae11-4ac3-96bf-dd3b41a37474"},"vehicle_type_id":"4","last_reported":1726128725,"current_range_meters":11200,"station_id":"","pricing_plan_id":"cebpf4jnsgd1na2vs0mg"},{"bike_id":"7a9db6cc-034f-4ca0-a824-db851afb7f24","system_id":"levelo_inurba_marseille","lat":43.31242,"lon":5.36842,"is_reserved":false,"is_disabled":false,"rental_uris":{"android":"levelo://app?vid=7a9db6cc-034f-4ca0-a824-db851afb7f24","ios":"levelo://app?vid=7a9db6cc-034f-4ca0-a824-db851afb7f24"},"vehicle_type_id":"4","last_reported":1726128725,"current_range_meters":28400,"station_id":"ce4bgl92rcd13ifvqbq0","pricing_plan_id":"cebpf4jnsgd1na2vs0mg"},{"bike_id":"8e53a3db-5c9b-4ac0-be14-c84953c51b50","system_id":"levelo_inurba_marseille","lat":43.28353,"lon":5.38106,"is_reserved":false,"is_disabled":false,"rental_uris":{"android":"levelo://app?vid=8e53a3db-5c9b-4ac0-be14-c84953c51b50","ios":"levelo://app?vid=8e53a3db-5c9b-4ac0-be14-c84953c51b50"},"vehicle_type_id":"4","last_reported":1726128725,"current_range_meters":30000,"station_id":"ce4bh412rcd13ifvqdr0","pricing_plan_id":"cebpf4jnsgd1na2vs0mg"},{"bike_id":"a78102a0-bfeb-4bfd-a176-51b3099f4535","system_id":"levelo_inurba_marseille","lat":43.24074,"lon":5.37753,"is_reserved":false,"is_disabled":false,"rental_uris":{"android":"levelo://app?vid=a78102a0-bfeb-4bfd-a176-51b3099f4535","ios":"levelo://app?vid=a78102a0-bfeb-4bfd-a176-51b3099f4535"},"vehicle_type_id":"4","last_reported":1726128725,"current_range_meters":26000,"station_id":"ce4bhnp2rcd13ifvqgvg","pricing_plan_id":"cebpf4jnsgd1na2vs0mg"},{"bike_id":"b3e31451-b409-4829-89f1-b5cfe9fb7e02","system_id":"levelo_inurba_marseille","lat":43.33615,"lon":5.41028,"is_reserved":false,"is_disabled":false,"rental_uris":{"android":"levelo://app?vid=b3e31451-b409-4829-89f1-b5cfe9fb7e02","ios":"levelo://app?vid=b3e31451-b409-4829-89f1-b5cfe9fb7e02"},"vehicle_type_id":"4","last_reported":1726128725,"current_range_meters":36800,"station_id":"ce4bhqh2rcd13ifvqhmg","pricing_plan_id":"cebpf4jnsgd1na2vs0mg"},{"bike_id":"03bae3f9-336c-4d6c-b325-00c5b25dc371","system_id":"levelo_inurba_marseille","lat":43.30265,"lon":5.3772,"is_reserved":false,"is_disabled":false,"rental_uris":{"android":"levelo://app?vid=03bae3f9-336c-4d6c-b325-00c5b25dc371","ios":"levelo://app?vid=03bae3f9-336c-4d6c-b325-00c5b25dc371"},"vehicle_type_id":"4","last_reported":1726128725,"current_range_meters":19200,"station_id":"ce4bguh2rcd13ifvqcj0","pricing_plan_id":"cebpf4jnsgd1na2vs0mg"},{"bike_id":"614beba6-d97a-4fdf-b745-944c926f65a6","system_id":"levelo_inurba_marseille","lat":43.29202,"lon":5.36058,"is_reserved":false,"is_disabled":false,"rental_uris":{"android":"levelo://app?vid=614beba6-d97a-4fdf-b745-944c926f65a6","ios":"levelo://app?vid=614beba6-d97a-4fdf-b745-944c926f65a6"},"vehicle_type_id":"4","last_reported":1726128725,"current_range_meters":8400,"station_id":"ce4bhbh2rcd13ifvqeqg","pricing_plan_id":"cebpf4jnsgd1na2vs0mg"},{"bike_id":"58400d57-3788-4e93-ad6b-8b4295e6e804","system_id":"levelo_inurba_marseille","lat":43.25868,"lon":5.39893,"is_reserved":false,"is_disabled":false,"rental_uris":{"android":"levelo://app?vid=58400d57-3788-4e93-ad6b-8b4295e6e804","ios":"levelo://app?vid=58400d57-3788-4e93-ad6b-8b4295e6e804"},"vehicle_type_id":"4","last_reported":1726128725,"current_range_meters":28800,"station_id":"ce4bhl92rcd13ifvqghg","pricing_plan_id":"cebpf4jnsgd1na2vs0mg"},{"bike_id":"c45eece6-266b-4ac3-948c-78fa647870d7","system_id":"levelo_inurba_marseille","lat":43.26074,"lon":5.3939,"is_reserved":false,"is_disabled":false,"rental_uris":{"android":"levelo://app?vid=c45eece6-266b-4ac3-948c-78fa647870d7","ios":"levelo://app?vid=c45eece6-266b-4ac3-948c-78fa647870d7"},"vehicle_type_id":"4","last_reported":1726128725,"current_range_meters":20400,"station_id":"ce4bhh92rcd13ifvqfj0","pricing_plan_id":"cebpf4jnsgd1na2vs0mg"},{"bike_id":"b5c74026-88c8-4590-abdf-fc90ab245935","system_id":"levelo_inurba_marseille","lat":43.31489,"lon":5.37306,"is_reserved":false,"is_disabled":false,"rental_uris":{"android":"levelo://app?vid=b5c74026-88c8-4590-abdf-fc90ab245935","ios":"levelo://app?vid=b5c74026-88c8-4590-abdf-fc90ab245935"},"vehicle_type_id":"4","last_reported":1726128725,"current_range_meters":33200,"station_id":"ce4bgt12rcd13ifvqcd0","pricing_plan_id":"cebpf4jnsgd1na2vs0mg"},{"bike_id":"a39886c0-e9c8-48c0-9ee6-358325778526","system_id":"levelo_inurba_marseille","lat":43.26569,"lon":5.38995,"is_reserved":false,"is_disabled":false,"rental_uris":{"android":"levelo://app?vid=a39886c0-e9c8-48c0-9ee6-358325778526","ios":"levelo://app?vid=a39886c0-e9c8-48c0-9ee6-358325778526"},"vehicle_type_id":"4","last_reported":1726128725,"current_range_meters":18000,"station_id":"ce4bhe12rcd13ifvqf30","pricing_plan_id":"cebpf4jnsgd1na2vs0mg"},{"bike_id":"898f248f-bed4-4f07-af87-c3bf97932698","system_id":"levelo_inurba_marseille","lat":43.29843,"lon":5.36268,"is_reserved":false,"is_disabled":false,"rental_uris":{"android":"levelo://app?vid=898f248f-bed4-4f07-af87-c3bf97932698","ios":"levelo://app?vid=898f248f-bed4-4f07-af87-c3bf97932698"},"vehicle_type_id":"4","last_reported":1726128725,"current_range_meters":31200,"station_id":"ce4bgpp2rcd13ifvqc3g","pricing_plan_id":"cebpf4jnsgd1na2vs0mg"},{"bike_id":"7120dc3f-d822-4d8b-9e33-3cee5a305d53","system_id":"levelo_inurba_marseille","lat":43.29377,"lon":5.37848,"is_reserved":false,"is_disabled":false,"rental_uris":{"android":"levelo://app?vid=7120dc3f-d822-4d8b-9e33-3cee5a305d53","ios":"levelo://app?vid=7120dc3f-d822-4d8b-9e33-3cee5a305d53"},"vehicle_type_id":"4","last_reported":1726128725,"current_range_meters":38800,"station_id":"ce4bgjh2rcd13ifvqbf0","pricing_plan_id":"cebpf4jnsgd1na2vs0mg"},{"bike_id":"7467638d-e69b-486f-a102-30f19d08fa1f","system_id":"levelo_inurba_marseille","lat":43.29848,"lon":5.36275,"is_reserved":false,"is_disabled":false,"rental_uris":{"android":"levelo://app?vid=7467638d-e69b-486f-a102-30f19d08fa1f","ios":"levelo://app?vid=7467638d-e69b-486f-a102-30f19d08fa1f"},"vehicle_type_id":"4","last_reported":1726128725,"current_range_meters":25600,"station_id":"ce4bgpp2rcd13ifvqc3g","pricing_plan_id":"cebpf4jnsgd1na2vs0mg"},{"bike_id":"e8df1a4f-47f1-4522-909d-2113943ddc1e","system_id":"levelo_inurba_marseille","lat":43.30949,"lon":5.39044,"is_reserved":false,"is_disabled":false,"rental_uris":{"android":"levelo://app?vid=e8df1a4f-47f1-4522-909d-2113943ddc1e","ios":"levelo://app?vid=e8df1a4f-47f1-4522-909d-2113943ddc1e"},"vehicle_type_id":"4","last_reported":1726128725,"current_range_meters":34000,"station_id":"ce4bgup2rcd13ifvqco0","pricing_plan_id":"cebpf4jnsgd1na2vs0mg"},{"bike_id":"8fd86ba5-13f8-48e6-ae2e-7f1bd87f936f","system_id":"levelo_inurba_marseille","lat":43.24082,"lon":5.37751,"is_reserved":false,"is_disabled":false,"rental_uris":{"android":"levelo://app?vid=8fd86ba5-13f8-48e6-ae2e-7f1bd87f936f","ios":"levelo://app?vid=8fd86ba5-13f8-48e6-ae2e-7f1bd87f936f"},"vehicle_type_id":"4","last_reported":1726128725,"current_range_meters":12800,"station_id":"ce4bhnp2rcd13ifvqgvg","pricing_plan_id":"cebpf4jnsgd1na2vs0mg"},{"bike_id":"39018a78-7a6b-4bb4-b06a-789f1088716a","system_id":"levelo_inurba_marseille","lat":43.30542,"lon":5.36548,"is_reserved":false,"is_disabled":false,"rental_uris":{"android":"levelo://app?vid=39018a78-7a6b-4bb4-b06a-789f1088716a","ios":"levelo://app?vid=39018a78-7a6b-4bb4-b06a-789f1088716a"},"vehicle_type_id":"4","last_reported":1726128725,"current_range_meters":22800,"station_id":"ce4bgs12rcd13ifvqcag","pricing_plan_id":"cebpf4jnsgd1na2vs0mg"},{"bike_id":"a4cc64e6-1763-4bc0-88c9-67055ccb6f9f","system_id":"levelo_inurba_marseille","lat":43.3254,"lon":5.41445,"is_reserved":false,"is_disabled":false,"rental_uris":{"android":"levelo://app?vid=a4cc64e6-1763-4bc0-88c9-67055ccb6f9f","ios":"levelo://app?vid=a4cc64e6-1763-4bc0-88c9-67055ccb6f9f"},"vehicle_type_id":"4","last_reported":1726128725,"current_range_meters":6800,"station_id":"ce4bhq12rcd13ifvqhhg","pricing_plan_id":"cebpf4jnsgd1na2vs0mg"},{"bike_id":"8dff30ed-bea6-490f-9a43-12ef94fb32fc","system_id":"levelo_inurba_marseille","lat":43.29849,"lon":5.3628,"is_reserved":false,"is_disabled":false,"rental_uris":{"android":"levelo://app?vid=8dff30ed-bea6-490f-9a43-12ef94fb32fc","ios":"levelo://app?vid=8dff30ed-bea6-490f-9a43-12ef94fb32fc"},"vehicle_type_id":"4","last_reported":1726128725,"current_range_meters":22400,"station_id":"ce4bgpp2rcd13ifvqc3g","pricing_plan_id":"cebpf4jnsgd1na2vs0mg"},{"bike_id":"2efe19d8-d411-42cd-aac8-19d00c64dea2","system_id":"levelo_inurba_marseille","lat":43.26692,"lon":5.38262,"is_reserved":false,"is_disabled":false,"rental_uris":{"android":"levelo://app?vid=2efe19d8-d411-42cd-aac8-19d00c64dea2","ios":"levelo://app?vid=2efe19d8-d411-42cd-aac8-19d00c64dea2"},"vehicle_type_id":"4","last_reported":1726128725,"current_range_meters":10800,"station_id":"ce4bhg92rcd13ifvqf90","pricing_plan_id":"cebpf4jnsgd1na2vs0mg"},{"bike_id":"dd2d66a6-976d-43e6-83be-d6211ff78acc","system_id":"levelo_inurba_marseille","lat":43.33732,"lon":5.39172,"is_reserved":false,"is_disabled":false,"rental_uris":{"android":"levelo://app?vid=dd2d66a6-976d-43e6-83be-d6211ff78acc","ios":"levelo://app?vid=dd2d66a6-976d-43e6-83be-d6211ff78acc"},"vehicle_type_id":"4","last_reported":1726128725,"current_range_meters":12400,"station_id":"ce4bhr92rcd13ifvqhsg","pricing_plan_id":"cebpf4jnsgd1na2vs0mg"},{"bike_id":"ad08391e-afd4-4a43-b8ed-69db504ec1d5","system_id":"levelo_inurba_marseille","lat":43.29561,"lon":5.42288,"is_reserved":false,"is_disabled":false,"rental_uris":{"android":"levelo://app?vid=ad08391e-afd4-4a43-b8ed-69db504ec1d5","ios":"levelo://app?vid=ad08391e-afd4-4a43-b8ed-69db504ec1d5"},"vehicle_type_id":"4","last_reported":1726128725,"current_range_meters":14400,"station_id":"ce4bhph2rcd13ifvqhdg","pricing_plan_id":"cebpf4jnsgd1na2vs0mg"},{"bike_id":"aefe4269-3d1c-498f-93b0-dded8b035811","system_id":"levelo_inurba_marseille","lat":43.27493,"lon":5.42457,"is_reserved":false,"is_disabled":false,"rental_uris":{"android":"levelo://app?vid=aefe4269-3d1c-498f-93b0-dded8b035811","ios":"levelo://app?vid=aefe4269-3d1c-498f-93b0-dded8b035811"},"vehicle_type_id":"4","last_reported":1726128725,"current_range_meters":9600,"station_id":"ce4bhn92rcd13ifvqgrg","pricing_plan_id":"cebpf4jnsgd1na2vs0mg"},{"bike_id":"ec4f8059-f541-43fe-8f77-363b4e728ddc","system_id":"levelo_inurba_marseille","lat":43.28936,"lon":5.36635,"is_reserved":false,"is_disabled":false,"rental_uris":{"android":"levelo://app?vid=ec4f8059-f541-43fe-8f77-363b4e728ddc","ios":"levelo://app?vid=ec4f8059-f541-43fe-8f77-363b4e728ddc"},"vehicle_type_id":"4","last_reported":1726128725,"current_range_meters":8800,"station_id":"ce4bhap2rcd13ifvqek0","pricing_plan_id":"cebpf4jnsgd1na2vs0mg"},{"bike_id":"d77ab7fd-9bd3-427d-992f-fc0984b68be8","system_id":"levelo_inurba_marseille","lat":43.27071,"lon":5.42276,"is_reserved":false,"is_disabled":false,"rental_uris":{"android":"levelo://app?vid=d77ab7fd-9bd3-427d-992f-fc0984b68be8","ios":"levelo://app?vid=d77ab7fd-9bd3-427d-992f-fc0984b68be8"},"vehicle_type_id":"4","last_reported":1726128725,"current_range_meters":11200,"station_id":"ce4bhk92rcd13ifvqgb0","pricing_plan_id":"cebpf4jnsgd1na2vs0mg"},{"bike_id":"d59dbfb5-3a33-441a-ba8a-a4347aa49b98","system_id":"levelo_inurba_marseille","lat":43.26576,"lon":5.39008,"is_reserved":false,"is_disabled":false,"rental_uris":{"android":"levelo://app?vid=d59dbfb5-3a33-441a-ba8a-a4347aa49b98","ios":"levelo://app?vid=d59dbfb5-3a33-441a-ba8a-a4347aa49b98"},"vehicle_type_id":"4","last_reported":1726128725,"current_range_meters":10000,"station_id":"ce4bhe12rcd13ifvqf30","pricing_plan_id":"cebpf4jnsgd1na2vs0mg"},{"bike_id":"ced9f75c-c3d1-4aec-9375-3d993adb7b7f","system_id":"levelo_inurba_marseille","lat":43.26789,"lon":5.3942,"is_reserved":false,"is_disabled":false,"rental_uris":{"android":"levelo://app?vid=ced9f75c-c3d1-4aec-9375-3d993adb7b7f","ios":"levelo://app?vid=ced9f75c-c3d1-4aec-9375-3d993adb7b7f"},"vehicle_type_id":"4","last_reported":1726128725,"current_range_meters":39200,"station_id":"ce4bhh12rcd13ifvqfg0","pricing_plan_id":"cebpf4jnsgd1na2vs0mg"},{"bike_id":"80dcdf49-e157-41e8-a211-f229ba182581","system_id":"levelo_inurba_marseille","lat":43.27214,"lon":5.39176,"is_reserved":false,"is_disabled":false,"rental_uris":{"android":"levelo://app?vid=80dcdf49-e157-41e8-a211-f229ba182581","ios":"levelo://app?vid=80dcdf49-e157-41e8-a211-f229ba182581"},"vehicle_type_id":"4","last_reported":1726128725,"current_range_meters":31200,"station_id":"ce4bhhp2rcd13ifvqfm0","pricing_plan_id":"cebpf4jnsgd1na2vs0mg"},{"bike_id":"5876c5ef-9fac-478d-bd3c-ea1780c21005","system_id":"levelo_inurba_marseille","lat":43.33755,"lon":5.37446,"is_reserved":false,"is_disabled":false,"rental_uris":{"android":"levelo://app?vid=5876c5ef-9fac-478d-bd3c-ea1780c21005","ios":"levelo://app?vid=5876c5ef-9fac-478d-bd3c-ea1780c21005"},"vehicle_type_id":"4","last_reported":1726128725,"current_range_meters":19200,"station_id":"","pricing_plan_id":"cebpf4jnsgd1na2vs0mg"},{"bike_id":"d32c8681-5c25-4caa-8515-f43cd3d9d0d7","system_id":"levelo_inurba_marseille","lat":43.2409,"lon":5.37752,"is_reserved":false,"is_disabled":false,"rental_uris":{"android":"levelo://app?vid=d32c8681-5c25-4caa-8515-f43cd3d9d0d7","ios":"levelo://app?vid=d32c8681-5c25-4caa-8515-f43cd3d9d0d7"},"vehicle_type_id":"4","last_reported":1726128725,"current_range_meters":27200,"station_id":"ce4bhnp2rcd13ifvqgvg","pricing_plan_id":"cebpf4jnsgd1na2vs0mg"},{"bike_id":"6bdd5edb-41b1-493d-b28b-cd85c3b4335d","system_id":"levelo_inurba_marseille","lat":43.27381,"lon":5.36264,"is_reserved":false,"is_disabled":false,"rental_uris":{"android":"levelo://app?vid=6bdd5edb-41b1-493d-b28b-cd85c3b4335d","ios":"levelo://app?vid=6bdd5edb-41b1-493d-b28b-cd85c3b4335d"},"vehicle_type_id":"4","last_reported":1726128725,"current_range_meters":26000,"station_id":"ce4bhbh2rcd13ifvqeo0","pricing_plan_id":"cebpf4jnsgd1na2vs0mg"},{"bike_id":"908558fc-af51-49be-a019-0e16afa07ae8","system_id":"levelo_inurba_marseille","lat":43.27489,"lon":5.42459,"is_reserved":false,"is_disabled":false,"rental_uris":{"android":"levelo://app?vid=908558fc-af51-49be-a019-0e16afa07ae8","ios":"levelo://app?vid=908558fc-af51-49be-a019-0e16afa07ae8"},"vehicle_type_id":"4","last_reported":1726128725,"current_range_meters":9200,"station_id":"ce4bhn92rcd13ifvqgrg","pricing_plan_id":"cebpf4jnsgd1na2vs0mg"},{"bike_id":"ea089342-7e5a-4518-9e1c-0475d2f9e19e","system_id":"levelo_inurba_marseille","lat":43.30563,"lon":5.36533,"is_reserved":false,"is_disabled":false,"rental_uris":{"android":"levelo://app?vid=ea089342-7e5a-4518-9e1c-0475d2f9e19e","ios":"levelo://app?vid=ea089342-7e5a-4518-9e1c-0475d2f9e19e"},"vehicle_type_id":"4","last_reported":1726128725,"current_range_meters":24800,"station_id":"ce4bgs12rcd13ifvqcag","pricing_plan_id":"cebpf4jnsgd1na2vs0mg"},{"bike_id":"a7d93a31-6c57-4b55-8b32-55e3bf2ba30e","system_id":"levelo_inurba_marseille","lat":43.27495,"lon":5.42459,"is_reserved":false,"is_disabled":false,"rental_uris":{"android":"levelo://app?vid=a7d93a31-6c57-4b55-8b32-55e3bf2ba30e","ios":"levelo://app?vid=a7d93a31-6c57-4b55-8b32-55e3bf2ba30e"},"vehicle_type_id":"4","last_reported":1726128725,"current_range_meters":9200,"station_id":"ce4bhn92rcd13ifvqgrg","pricing_plan_id":"cebpf4jnsgd1na2vs0mg"},{"bike_id":"8c2900ff-896a-4004-bf6e-2b32ae5553f3","system_id":"levelo_inurba_marseille","lat":43.26193,"lon":5.37451,"is_reserved":false,"is_disabled":false,"rental_uris":{"android":"levelo://app?vid=8c2900ff-896a-4004-bf6e-2b32ae5553f3","ios":"levelo://app?vid=8c2900ff-896a-4004-bf6e-2b32ae5553f3"},"vehicle_type_id":"4","last_reported":1726128725,"current_range_meters":34800,"station_id":"ce4bhgp2rcd13ifvqfc0","pricing_plan_id":"cebpf4jnsgd1na2vs0mg"},{"bike_id":"dccadc39-7e75-4ff6-801e-d97b0e1812f2","system_id":"levelo_inurba_marseille","lat":43.33023,"lon":5.39036,"is_reserved":false,"is_disabled":false,"rental_uris":{"android":"levelo://app?vid=dccadc39-7e75-4ff6-801e-d97b0e1812f2","ios":"levelo://app?vid=dccadc39-7e75-4ff6-801e-d97b0e1812f2"},"vehicle_type_id":"4","last_reported":1726128725,"current_range_meters":29600,"station_id":"ce4bhr92rcd13ifvqhrg","pricing_plan_id":"cebpf4jnsgd1na2vs0mg"},{"bike_id":"8e277646-c707-4b19-887b-190960846de0","system_id":"levelo_inurba_marseille","lat":43.27325,"lon":5.39105,"is_reserved":false,"is_disabled":false,"rental_uris":{"android":"levelo://app?vid=8e277646-c707-4b19-887b-190960846de0","ios":"levelo://app?vid=8e277646-c707-4b19-887b-190960846de0"},"vehicle_type_id":"4","last_reported":1726128725,"current_range_meters":30000,"station_id":"ce4bhgp2rcd13ifvqfe0","pricing_plan_id":"cebpf4jnsgd1na2vs0mg"},{"bike_id":"703c5b25-1435-45b2-8c89-d7647aa322b9","system_id":"levelo_inurba_marseille","lat":43.31353,"lon":5.36705,"is_reserved":false,"is_disabled":false,"rental_uris":{"android":"levelo://app?vid=703c5b25-1435-45b2-8c89-d7647aa322b9","ios":"levelo://app?vid=703c5b25-1435-45b2-8c89-d7647aa322b9"},"vehicle_type_id":"4","last_reported":1726128725,"current_range_meters":26800,"station_id":"ce4bgr92rcd13ifvqc6g","pricing_plan_id":"cebpf4jnsgd1na2vs0mg"},{"bike_id":"4b02a7e9-8265-4f92-8a5b-523194dc96fe","system_id":"levelo_inurba_marseille","lat":43.25834,"lon":5.39431,"is_reserved":false,"is_disabled":false,"rental_uris":{"android":"levelo://app?vid=4b02a7e9-8265-4f92-8a5b-523194dc96fe","ios":"levelo://app?vid=4b02a7e9-8265-4f92-8a5b-523194dc96fe"},"vehicle_type_id":"4","last_reported":1726128725,"current_range_meters":28400,"station_id":"ce4bhip2rcd13ifvqft0","pricing_plan_id":"cebpf4jnsgd1na2vs0mg"},{"bike_id":"32a2f479-0a10-49e3-868d-f5268fce711a","system_id":"levelo_inurba_marseille","lat":43.296425,"lon":5.377513,"is_reserved":false,"is_disabled":false,"rental_uris":{"android":"levelo://app?vid=32a2f479-0a10-49e3-868d-f5268fce711a","ios":"levelo://app?vid=32a2f479-0a10-49e3-868d-f5268fce711a"},"vehicle_type_id":"4","last_reported":1726128725,"current_range_meters":35600,"station_id":"ce4bgi92rcd13ifvqb90","pricing_plan_id":"cebpf4jnsgd1na2vs0mg"},{"bike_id":"dd3fecec-0a50-4eb9-8dfc-5c61faf672e9","system_id":"levelo_inurba_marseille","lat":43.23151,"lon":5.43705,"is_reserved":false,"is_disabled":false,"rental_uris":{"android":"levelo://app?vid=dd3fecec-0a50-4eb9-8dfc-5c61faf672e9","ios":"levelo://app?vid=dd3fecec-0a50-4eb9-8dfc-5c61faf672e9"},"vehicle_type_id":"4","last_reported":1726128725,"current_range_meters":35200,"station_id":"ce4bhmp2rcd13ifvqgog","pricing_plan_id":"cebpf4jnsgd1na2vs0mg"},{"bike_id":"23ff70ec-bee8-4fc2-b8ce-7bce04e472e7","system_id":"levelo_inurba_marseille","lat":43.281,"lon":5.37849,"is_reserved":false,"is_disabled":false,"rental_uris":{"android":"levelo://app?vid=23ff70ec-bee8-4fc2-b8ce-7bce04e472e7","ios":"levelo://app?vid=23ff70ec-bee8-4fc2-b8ce-7bce04e472e7"},"vehicle_type_id":"4","last_reported":1726128725,"current_range_meters":30400,"station_id":"ce4bha12rcd13ifvqee0","pricing_plan_id":"cebpf4jnsgd1na2vs0mg"},{"bike_id":"0ae4c82d-7bf7-4f75-9cfc-82f2792f9ace","system_id":"levelo_inurba_marseille","lat":43.30902,"lon":5.36846,"is_reserved":false,"is_disabled":false,"rental_uris":{"android":"levelo://app?vid=0ae4c82d-7bf7-4f75-9cfc-82f2792f9ace","ios":"levelo://app?vid=0ae4c82d-7bf7-4f75-9cfc-82f2792f9ace"},"vehicle_type_id":"4","last_reported":1726128725,"current_range_meters":16800,"station_id":"ce4bgn92rcd13ifvqbvg","pricing_plan_id":"cebpf4jnsgd1na2vs0mg"},{"bike_id":"ff682531-fa30-47bb-9f1d-4237b50fa26f","system_id":"levelo_inurba_marseille","lat":43.2732,"lon":5.39092,"is_reserved":false,"is_disabled":false,"rental_uris":{"android":"levelo://app?vid=ff682531-fa30-47bb-9f1d-4237b50fa26f","ios":"levelo://app?vid=ff682531-fa30-47bb-9f1d-4237b50fa26f"},"vehicle_type_id":"4","last_reported":1726128725,"current_range_meters":34000,"station_id":"ce4bhgp2rcd13ifvqfe0","pricing_plan_id":"cebpf4jnsgd1na2vs0mg"},{"bike_id":"7551d42d-8659-416d-896d-f767a7f37efa","system_id":"levelo_inurba_marseille","lat":43.24546,"lon":5.39519,"is_reserved":false,"is_disabled":false,"rental_uris":{"android":"levelo://app?vid=7551d42d-8659-416d-896d-f767a7f37efa","ios":"levelo://app?vid=7551d42d-8659-416d-896d-f767a7f37efa"},"vehicle_type_id":"4","last_reported":1726128725,"current_range_meters":38000,"station_id":"ce4bhlp2rcd13ifvqgjg","pricing_plan_id":"cebpf4jnsgd1na2vs0mg"},{"bike_id":"391ec02e-48af-4679-b704-26e47bb80241","system_id":"levelo_inurba_marseille","lat":43.30894,"lon":5.39657,"is_reserved":false,"is_disabled":false,"rental_uris":{"android":"levelo://app?vid=391ec02e-48af-4679-b704-26e47bb80241","ios":"levelo://app?vid=391ec02e-48af-4679-b704-26e47bb80241"},"vehicle_type_id":"4","last_reported":1726128725,"current_range_meters":4000,"station_id":"ce4bh012rcd13ifvqcv0","pricing_plan_id":"cebpf4jnsgd1na2vs0mg"},{"bike_id":"fad4f480-5e72-4610-8cac-b1ec2b4dc92e","system_id":"levelo_inurba_marseille","lat":43.33773,"lon":5.37432,"is_reserved":false,"is_disabled":false,"rental_uris":{"android":"levelo://app?vid=fad4f480-5e72-4610-8cac-b1ec2b4dc92e","ios":"levelo://app?vid=fad4f480-5e72-4610-8cac-b1ec2b4dc92e"},"vehicle_type_id":"4","last_reported":1726128725,"current_range_meters":17200,"station_id":"","pricing_plan_id":"cebpf4jnsgd1na2vs0mg"},{"bike_id":"f656f169-ab7a-447d-922f-fac2486664b9","system_id":"levelo_inurba_marseille","lat":43.24076,"lon":5.37758,"is_reserved":false,"is_disabled":false,"rental_uris":{"android":"levelo://app?vid=f656f169-ab7a-447d-922f-fac2486664b9","ios":"levelo://app?vid=f656f169-ab7a-447d-922f-fac2486664b9"},"vehicle_type_id":"4","last_reported":1726128725,"current_range_meters":28400,"station_id":"ce4bhnp2rcd13ifvqgvg","pricing_plan_id":"cebpf4jnsgd1na2vs0mg"},{"bike_id":"0f1ced09-7044-43a9-8bea-0270c860d150","system_id":"levelo_inurba_marseille","lat":43.30134,"lon":5.3878,"is_reserved":false,"is_disabled":false,"rental_uris":{"android":"levelo://app?vid=0f1ced09-7044-43a9-8bea-0270c860d150","ios":"levelo://app?vid=0f1ced09-7044-43a9-8bea-0270c860d150"},"vehicle_type_id":"4","last_reported":1726128725,"current_range_meters":2000,"station_id":"ce4bghh2rcd13ifvqb60","pricing_plan_id":"cebpf4jnsgd1na2vs0mg"},{"bike_id":"bdabe23d-83ad-4a20-849d-27fb0a8cfa45","system_id":"levelo_inurba_marseille","lat":43.30279,"lon":5.37704,"is_reserved":false,"is_disabled":false,"rental_uris":{"android":"levelo://app?vid=bdabe23d-83ad-4a20-849d-27fb0a8cfa45","ios":"levelo://app?vid=bdabe23d-83ad-4a20-849d-27fb0a8cfa45"},"vehicle_type_id":"4","last_reported":1726128725,"current_range_meters":39200,"station_id":"ce4bguh2rcd13ifvqcj0","pricing_plan_id":"cebpf4jnsgd1na2vs0mg"},{"bike_id":"3c51cbb9-4e46-4e56-8647-db01c8c52176","system_id":"levelo_inurba_marseille","lat":43.24185,"lon":5.39736,"is_reserved":false,"is_disabled":false,"rental_uris":{"android":"levelo://app?vid=3c51cbb9-4e46-4e56-8647-db01c8c52176","ios":"levelo://app?vid=3c51cbb9-4e46-4e56-8647-db01c8c52176"},"vehicle_type_id":"4","last_reported":1726128725,"current_range_meters":28000,"station_id":"ce4bhn12rcd13ifvqgpg","pricing_plan_id":"cebpf4jnsgd1na2vs0mg"},{"bike_id":"35e327a1-1955-4d12-a070-7da01b3f8826","system_id":"levelo_inurba_marseille","lat":43.30914,"lon":5.36846,"is_reserved":false,"is_disabled":false,"rental_uris":{"android":"levelo://app?vid=35e327a1-1955-4d12-a070-7da01b3f8826","ios":"levelo://app?vid=35e327a1-1955-4d12-a070-7da01b3f8826"},"vehicle_type_id":"4","last_reported":1726128725,"current_range_meters":32400,"station_id":"ce4bgn92rcd13ifvqbvg","pricing_plan_id":"cebpf4jnsgd1na2vs0mg"},{"bike_id":"522ce341-0abe-40c5-8aee-032d23d7344a","system_id":"levelo_inurba_marseille","lat":43.26565,"lon":5.39004,"is_reserved":false,"is_disabled":false,"rental_uris":{"android":"levelo://app?vid=522ce341-0abe-40c5-8aee-032d23d7344a","ios":"levelo://app?vid=522ce341-0abe-40c5-8aee-032d23d7344a"},"vehicle_type_id":"4","last_reported":1726128725,"current_range_meters":21600,"station_id":"ce4bhe12rcd13ifvqf30","pricing_plan_id":"cebpf4jnsgd1na2vs0mg"},{"bike_id":"cd4ecec2-24c2-4b1b-b56b-1f713e99a93e","system_id":"levelo_inurba_marseille","lat":43.2963,"lon":5.37146,"is_reserved":false,"is_disabled":false,"rental_uris":{"android":"levelo://app?vid=cd4ecec2-24c2-4b1b-b56b-1f713e99a93e","ios":"levelo://app?vid=cd4ecec2-24c2-4b1b-b56b-1f713e99a93e"},"vehicle_type_id":"4","last_reported":1726128725,"current_range_meters":12000,"station_id":"ce4bgnh2rcd13ifvqc0g","pricing_plan_id":"cebpf4jnsgd1na2vs0mg"},{"bike_id":"aa19fc99-f16a-4819-a418-d51a1a9bdec5","system_id":"levelo_inurba_marseille","lat":43.25506,"lon":5.37643,"is_reserved":false,"is_disabled":false,"rental_uris":{"android":"levelo://app?vid=aa19fc99-f16a-4819-a418-d51a1a9bdec5","ios":"levelo://app?vid=aa19fc99-f16a-4819-a418-d51a1a9bdec5"},"vehicle_type_id":"4","last_reported":1726128725,"current_range_meters":38400,"station_id":"ce4bhh12rcd13ifvqff0","pricing_plan_id":"cebpf4jnsgd1na2vs0mg"},{"bike_id":"5330d3e0-0ea7-433a-a6aa-756d0786a518","system_id":"levelo_inurba_marseille","lat":43.26066,"lon":5.39395,"is_reserved":false,"is_disabled":false,"rental_uris":{"android":"levelo://app?vid=5330d3e0-0ea7-433a-a6aa-756d0786a518","ios":"levelo://app?vid=5330d3e0-0ea7-433a-a6aa-756d0786a518"},"vehicle_type_id":"4","last_reported":1726128725,"current_range_meters":4000,"station_id":"ce4bhh92rcd13ifvqfj0","pricing_plan_id":"cebpf4jnsgd1na2vs0mg"},{"bike_id":"f0ab1e44-8ac5-4033-a7ac-b3e3da389903","system_id":"levelo_inurba_marseille","lat":43.27071,"lon":5.42274,"is_reserved":false,"is_disabled":false,"rental_uris":{"android":"levelo://app?vid=f0ab1e44-8ac5-4033-a7ac-b3e3da389903","ios":"levelo://app?vid=f0ab1e44-8ac5-4033-a7ac-b3e3da389903"},"vehicle_type_id":"4","last_reported":1726128725,"current_range_meters":39200,"station_id":"ce4bhk92rcd13ifvqgb0","pricing_plan_id":"cebpf4jnsgd1na2vs0mg"},{"bike_id":"af4d072d-09af-4525-afeb-bd61a3e84f33","system_id":"levelo_inurba_marseille","lat":43.30541,"lon":5.36726,"is_reserved":false,"is_disabled":false,"rental_uris":{"android":"levelo://app?vid=af4d072d-09af-4525-afeb-bd61a3e84f33","ios":"levelo://app?vid=af4d072d-09af-4525-afeb-bd61a3e84f33"},"vehicle_type_id":"4","last_reported":1726128725,"current_range_meters":11200,"station_id":"ce4bgrp2rcd13ifvqc9g","pricing_plan_id":"cebpf4jnsgd1na2vs0mg"},{"bike_id":"c5d6dd9e-0554-4a39-bb64-cae6f8033975","system_id":"levelo_inurba_marseille","lat":43.25721,"lon":5.41109,"is_reserved":false,"is_disabled":false,"rental_uris":{"android":"levelo://app?vid=c5d6dd9e-0554-4a39-bb64-cae6f8033975","ios":"levelo://app?vid=c5d6dd9e-0554-4a39-bb64-cae6f8033975"},"vehicle_type_id":"4","last_reported":1726128725,"current_range_meters":20400,"station_id":"ce4bhkp2rcd13ifvqgd0","pricing_plan_id":"cebpf4jnsgd1na2vs0mg"},{"bike_id":"0812723c-bd87-43d9-ba80-42e1368ee507","system_id":"levelo_inurba_marseille","lat":43.25937,"lon":5.409,"is_reserved":false,"is_disabled":false,"rental_uris":{"android":"levelo://app?vid=0812723c-bd87-43d9-ba80-42e1368ee507","ios":"levelo://app?vid=0812723c-bd87-43d9-ba80-42e1368ee507"},"vehicle_type_id":"4","last_reported":1726128725,"current_range_meters":26000,"station_id":"ce4bhm92rcd13ifvqglg","pricing_plan_id":"cebpf4jnsgd1na2vs0mg"},{"bike_id":"534f6dc7-b587-4c11-a5f0-51babe099f5c","system_id":"levelo_inurba_marseille","lat":43.26684,"lon":5.38267,"is_reserved":false,"is_disabled":false,"rental_uris":{"android":"levelo://app?vid=534f6dc7-b587-4c11-a5f0-51babe099f5c","ios":"levelo://app?vid=534f6dc7-b587-4c11-a5f0-51babe099f5c"},"vehicle_type_id":"4","last_reported":1726128725,"current_range_meters":12000,"station_id":"ce4bhg92rcd13ifvqf90","pricing_plan_id":"cebpf4jnsgd1na2vs0mg"},{"bike_id":"bc00bff1-e0b4-4559-8fc5-4ad72b06ffb0","system_id":"levelo_inurba_marseille","lat":43.25572,"lon":5.38247,"is_reserved":false,"is_disabled":false,"rental_uris":{"android":"levelo://app?vid=bc00bff1-e0b4-4559-8fc5-4ad72b06ffb0","ios":"levelo://app?vid=bc00bff1-e0b4-4559-8fc5-4ad72b06ffb0"},"vehicle_type_id":"4","last_reported":1726128725,"current_range_meters":23200,"station_id":"ce4bhih2rcd13ifvqfs0","pricing_plan_id":"cebpf4jnsgd1na2vs0mg"},{"bike_id":"e1732fa5-55bb-4555-95a9-117d11258931","system_id":"levelo_inurba_marseille","lat":43.26034,"lon":5.37548,"is_reserved":false,"is_disabled":false,"rental_uris":{"android":"levelo://app?vid=e1732fa5-55bb-4555-95a9-117d11258931","ios":"levelo://app?vid=e1732fa5-55bb-4555-95a9-117d11258931"},"vehicle_type_id":"4","last_reported":1726128725,"current_range_meters":21600,"station_id":"ce4bhgh2rcd13ifvqfa0","pricing_plan_id":"cebpf4jnsgd1na2vs0mg"},{"bike_id":"0cd4aad2-01b5-4c35-845a-8c3dc76ff26c","system_id":"levelo_inurba_marseille","lat":43.3091,"lon":5.36847,"is_reserved":false,"is_disabled":false,"rental_uris":{"android":"levelo://app?vid=0cd4aad2-01b5-4c35-845a-8c3dc76ff26c","ios":"levelo://app?vid=0cd4aad2-01b5-4c35-845a-8c3dc76ff26c"},"vehicle_type_id":"4","last_reported":1726128725,"current_range_meters":9200,"station_id":"ce4bgn92rcd13ifvqbvg","pricing_plan_id":"cebpf4jnsgd1na2vs0mg"},{"bike_id":"80080152-1a83-40ae-b754-a18a075c6b36","system_id":"levelo_inurba_marseille","lat":43.30541,"lon":5.36542,"is_reserved":false,"is_disabled":false,"rental_uris":{"android":"levelo://app?vid=80080152-1a83-40ae-b754-a18a075c6b36","ios":"levelo://app?vid=80080152-1a83-40ae-b754-a18a075c6b36"},"vehicle_type_id":"4","last_reported":1726128725,"current_range_meters":34800,"station_id":"ce4bgs12rcd13ifvqcag","pricing_plan_id":"cebpf4jnsgd1na2vs0mg"},{"bike_id":"579641ed-2c24-4796-a1d8-c864c4daf845","system_id":"levelo_inurba_marseille","lat":43.3303,"lon":5.39036,"is_reserved":false,"is_disabled":false,"rental_uris":{"android":"levelo://app?vid=579641ed-2c24-4796-a1d8-c864c4daf845","ios":"levelo://app?vid=579641ed-2c24-4796-a1d8-c864c4daf845"},"vehicle_type_id":"4","last_reported":1726128725,"current_range_meters":8400,"station_id":"ce4bhr92rcd13ifvqhrg","pricing_plan_id":"cebpf4jnsgd1na2vs0mg"},{"bike_id":"35715524-14b0-4a8c-af85-28e32c6af954","system_id":"levelo_inurba_marseille","lat":43.2481,"lon":5.37449,"is_reserved":false,"is_disabled":false,"rental_uris":{"android":"levelo://app?vid=35715524-14b0-4a8c-af85-28e32c6af954","ios":"levelo://app?vid=35715524-14b0-4a8c-af85-28e32c6af954"},"vehicle_type_id":"4","last_reported":1726128725,"current_range_meters":16400,"station_id":"ce4bhgh2rcd13ifvqfb0","pricing_plan_id":"cebpf4jnsgd1na2vs0mg"},{"bike_id":"e62d6517-3896-49d9-9c39-1b8177a5b72b","system_id":"levelo_inurba_marseille","lat":43.32537,"lon":5.41438,"is_reserved":false,"is_disabled":false,"rental_uris":{"android":"levelo://app?vid=e62d6517-3896-49d9-9c39-1b8177a5b72b","ios":"levelo://app?vid=e62d6517-3896-49d9-9c39-1b8177a5b72b"},"vehicle_type_id":"4","last_reported":1726128725,"current_range_meters":29600,"station_id":"ce4bhq12rcd13ifvqhhg","pricing_plan_id":"cebpf4jnsgd1na2vs0mg"},{"bike_id":"00c71482-f75f-430c-acd2-8a2ea8fd3dd0","system_id":"levelo_inurba_marseille","lat":43.3047,"lon":5.37899,"is_reserved":false,"is_disabled":false,"rental_uris":{"android":"levelo://app?vid=00c71482-f75f-430c-acd2-8a2ea8fd3dd0","ios":"levelo://app?vid=00c71482-f75f-430c-acd2-8a2ea8fd3dd0"},"vehicle_type_id":"4","last_reported":1726128725,"current_range_meters":29600,"station_id":"ce4bgup2rcd13ifvqcn0","pricing_plan_id":"cebpf4jnsgd1na2vs0mg"},{"bike_id":"f7383583-f6d9-4a1f-9651-744703bbb837","system_id":"levelo_inurba_marseille","lat":43.30801,"lon":5.43522,"is_reserved":false,"is_disabled":false,"rental_uris":{"android":"levelo://app?vid=f7383583-f6d9-4a1f-9651-744703bbb837","ios":"levelo://app?vid=f7383583-f6d9-4a1f-9651-744703bbb837"},"vehicle_type_id":"4","last_reported":1726128725,"current_range_meters":8800,"station_id":"ce4bhph2rcd13ifvqheg","pricing_plan_id":"cebpf4jnsgd1na2vs0mg"},{"bike_id":"859bb5ad-4839-4ffc-bc80-9225a9c62149","system_id":"levelo_inurba_marseille","lat":43.29799,"lon":5.38085,"is_reserved":false,"is_disabled":false,"rental_uris":{"android":"levelo://app?vid=859bb5ad-4839-4ffc-bc80-9225a9c62149","ios":"levelo://app?vid=859bb5ad-4839-4ffc-bc80-9225a9c62149"},"vehicle_type_id":"4","last_reported":1726128725,"current_range_meters":5600,"station_id":"ce4bgip2rcd13ifvqbb0","pricing_plan_id":"cebpf4jnsgd1na2vs0mg"},{"bike_id":"429b8040-fede-4277-a8b8-480a97fd3c08","system_id":"levelo_inurba_marseille","lat":43.26215,"lon":5.37442,"is_reserved":false,"is_disabled":false,"rental_uris":{"android":"levelo://app?vid=429b8040-fede-4277-a8b8-480a97fd3c08","ios":"levelo://app?vid=429b8040-fede-4277-a8b8-480a97fd3c08"},"vehicle_type_id":"4","last_reported":1726128725,"current_range_meters":31200,"station_id":"ce4bhgp2rcd13ifvqfc0","pricing_plan_id":"cebpf4jnsgd1na2vs0mg"},{"bike_id":"0654d806-ec31-44c9-88ba-07887ec5e437","system_id":"levelo_inurba_marseille","lat":43.29278,"lon":5.36848,"is_reserved":false,"is_disabled":false,"rental_uris":{"android":"levelo://app?vid=0654d806-ec31-44c9-88ba-07887ec5e437","ios":"levelo://app?vid=0654d806-ec31-44c9-88ba-07887ec5e437"},"vehicle_type_id":"4","last_reported":1726128725,"current_range_meters":18000,"station_id":"ce4bhbp2rcd13ifvqesg","pricing_plan_id":"cebpf4jnsgd1na2vs0mg"},{"bike_id":"2cf6c505-4850-445d-aa79-fecfcf094308","system_id":"levelo_inurba_marseille","lat":43.34151,"lon":5.40896,"is_reserved":false,"is_disabled":false,"rental_uris":{"android":"levelo://app?vid=2cf6c505-4850-445d-aa79-fecfcf094308","ios":"levelo://app?vid=2cf6c505-4850-445d-aa79-fecfcf094308"},"vehicle_type_id":"4","last_reported":1726128725,"current_range_meters":36400,"station_id":"ce4bhqh2rcd13ifvqhlg","pricing_plan_id":"cebpf4jnsgd1na2vs0mg"},{"bike_id":"2990fcc6-d23e-44af-b42a-9273d54dc1da","system_id":"levelo_inurba_marseille","lat":43.28942,"lon":5.36396,"is_reserved":false,"is_disabled":false,"rental_uris":{"android":"levelo://app?vid=2990fcc6-d23e-44af-b42a-9273d54dc1da","ios":"levelo://app?vid=2990fcc6-d23e-44af-b42a-9273d54dc1da"},"vehicle_type_id":"4","last_reported":1726128725,"current_range_meters":33600,"station_id":"ce4bhc92rcd13ifvqetg","pricing_plan_id":"cebpf4jnsgd1na2vs0mg"},{"bike_id":"ca67b363-fb8e-4b7b-8058-52b7e75e6e73","system_id":"levelo_inurba_marseille","lat":43.30545,"lon":5.36537,"is_reserved":false,"is_disabled":false,"rental_uris":{"android":"levelo://app?vid=ca67b363-fb8e-4b7b-8058-52b7e75e6e73","ios":"levelo://app?vid=ca67b363-fb8e-4b7b-8058-52b7e75e6e73"},"vehicle_type_id":"4","last_reported":1726128725,"current_range_meters":39200,"station_id":"ce4bgs12rcd13ifvqcag","pricing_plan_id":"cebpf4jnsgd1na2vs0mg"},{"bike_id":"f4a94560-b74f-49e2-aaa1-40adb5c41a8d","system_id":"levelo_inurba_marseille","lat":43.31235,"lon":5.36848,"is_reserved":false,"is_disabled":false,"rental_uris":{"android":"levelo://app?vid=f4a94560-b74f-49e2-aaa1-40adb5c41a8d","ios":"levelo://app?vid=f4a94560-b74f-49e2-aaa1-40adb5c41a8d"},"vehicle_type_id":"4","last_reported":1726128725,"current_range_meters":27600,"station_id":"ce4bgl92rcd13ifvqbq0","pricing_plan_id":"cebpf4jnsgd1na2vs0mg"},{"bike_id":"dc346b80-33dd-4e8d-bd17-85fcf95d706f","system_id":"levelo_inurba_marseille","lat":43.33607,"lon":5.41026,"is_reserved":false,"is_disabled":false,"rental_uris":{"android":"levelo://app?vid=dc346b80-33dd-4e8d-bd17-85fcf95d706f","ios":"levelo://app?vid=dc346b80-33dd-4e8d-bd17-85fcf95d706f"},"vehicle_type_id":"4","last_reported":1726128725,"current_range_meters":25200,"station_id":"ce4bhqh2rcd13ifvqhmg","pricing_plan_id":"cebpf4jnsgd1na2vs0mg"},{"bike_id":"7d9b015d-b98c-4530-9df1-feb9a2fee4a5","system_id":"levelo_inurba_marseille","lat":43.26027,"lon":5.37556,"is_reserved":false,"is_disabled":false,"rental_uris":{"android":"levelo://app?vid=7d9b015d-b98c-4530-9df1-feb9a2fee4a5","ios":"levelo://app?vid=7d9b015d-b98c-4530-9df1-feb9a2fee4a5"},"vehicle_type_id":"4","last_reported":1726128725,"current_range_meters":34800,"station_id":"ce4bhgh2rcd13ifvqfa0","pricing_plan_id":"cebpf4jnsgd1na2vs0mg"},{"bike_id":"af9421c8-e08e-45c9-9f79-72574fc04e9d","system_id":"levelo_inurba_marseille","lat":43.24162,"lon":5.36403,"is_reserved":false,"is_disabled":false,"rental_uris":{"android":"levelo://app?vid=af9421c8-e08e-45c9-9f79-72574fc04e9d","ios":"levelo://app?vid=af9421c8-e08e-45c9-9f79-72574fc04e9d"},"vehicle_type_id":"4","last_reported":1726128725,"current_range_meters":36400,"station_id":"cpo36qri1sfpv3e86is0","pricing_plan_id":"cebpf4jnsgd1na2vs0mg"},{"bike_id":"382d23ae-3b46-4497-a99e-a2d60def4117","system_id":"levelo_inurba_marseille","lat":43.31979,"lon":5.38144,"is_reserved":false,"is_disabled":false,"rental_uris":{"android":"levelo://app?vid=382d23ae-3b46-4497-a99e-a2d60def4117","ios":"levelo://app?vid=382d23ae-3b46-4497-a99e-a2d60def4117"},"vehicle_type_id":"4","last_reported":1726128725,"current_range_meters":21600,"station_id":"ce4bhr12rcd13ifvqhpg","pricing_plan_id":"cebpf4jnsgd1na2vs0mg"},{"bike_id":"a3ee1f0d-3877-41e5-b242-6427a3abb73d","system_id":"levelo_inurba_marseille","lat":43.29551,"lon":5.42277,"is_reserved":false,"is_disabled":false,"rental_uris":{"android":"levelo://app?vid=a3ee1f0d-3877-41e5-b242-6427a3abb73d","ios":"levelo://app?vid=a3ee1f0d-3877-41e5-b242-6427a3abb73d"},"vehicle_type_id":"4","last_reported":1726128725,"current_range_meters":27200,"station_id":"ce4bhph2rcd13ifvqhdg","pricing_plan_id":"cebpf4jnsgd1na2vs0mg"},{"bike_id":"331b41e1-b007-4647-bd50-3ceb4c098820","system_id":"levelo_inurba_marseille","lat":43.2408,"lon":5.37758,"is_reserved":false,"is_disabled":false,"rental_uris":{"android":"levelo://app?vid=331b41e1-b007-4647-bd50-3ceb4c098820","ios":"levelo://app?vid=331b41e1-b007-4647-bd50-3ceb4c098820"},"vehicle_type_id":"4","last_reported":1726128725,"current_range_meters":12800,"station_id":"ce4bhnp2rcd13ifvqgvg","pricing_plan_id":"cebpf4jnsgd1na2vs0mg"},{"bike_id":"c2541d90-6e19-4c5d-abfd-21cc5ba64245","system_id":"levelo_inurba_marseille","lat":43.32537,"lon":5.41443,"is_reserved":false,"is_disabled":false,"rental_uris":{"android":"levelo://app?vid=c2541d90-6e19-4c5d-abfd-21cc5ba64245","ios":"levelo://app?vid=c2541d90-6e19-4c5d-abfd-21cc5ba64245"},"vehicle_type_id":"4","last_reported":1726128725,"current_range_meters":22000,"station_id":"ce4bhq12rcd13ifvqhhg","pricing_plan_id":"cebpf4jnsgd1na2vs0mg"},{"bike_id":"f400d370-a20e-4ced-86f0-64f62510749c","system_id":"levelo_inurba_marseille","lat":43.3237,"lon":5.38926,"is_reserved":false,"is_disabled":false,"rental_uris":{"android":"levelo://app?vid=f400d370-a20e-4ced-86f0-64f62510749c","ios":"levelo://app?vid=f400d370-a20e-4ced-86f0-64f62510749c"},"vehicle_type_id":"4","last_reported":1726128725,"current_range_meters":10000,"station_id":"","pricing_plan_id":"cebpf4jnsgd1na2vs0mg"},{"bike_id":"4ed619e6-0d11-4318-8808-0d4c3d0013bc","system_id":"levelo_inurba_marseille","lat":43.27488,"lon":5.42456,"is_reserved":false,"is_disabled":false,"rental_uris":{"android":"levelo://app?vid=4ed619e6-0d11-4318-8808-0d4c3d0013bc","ios":"levelo://app?vid=4ed619e6-0d11-4318-8808-0d4c3d0013bc"},"vehicle_type_id":"4","last_reported":1726128725,"current_range_meters":12000,"station_id":"ce4bhn92rcd13ifvqgrg","pricing_plan_id":"cebpf4jnsgd1na2vs0mg"},{"bike_id":"3eb582ea-9d41-4a9d-8561-81107fa2fcd0","system_id":"levelo_inurba_marseille","lat":43.27492,"lon":5.42458,"is_reserved":false,"is_disabled":false,"rental_uris":{"android":"levelo://app?vid=3eb582ea-9d41-4a9d-8561-81107fa2fcd0","ios":"levelo://app?vid=3eb582ea-9d41-4a9d-8561-81107fa2fcd0"},"vehicle_type_id":"4","last_reported":1726128725,"current_range_meters":31200,"station_id":"ce4bhn92rcd13ifvqgrg","pricing_plan_id":"cebpf4jnsgd1na2vs0mg"},{"bike_id":"1c113703-95ba-4466-b3d9-ea0ff698d715","system_id":"levelo_inurba_marseille","lat":43.240657,"lon":5.377084,"is_reserved":false,"is_disabled":false,"rental_uris":{"android":"levelo://app?vid=1c113703-95ba-4466-b3d9-ea0ff698d715","ios":"levelo://app?vid=1c113703-95ba-4466-b3d9-ea0ff698d715"},"vehicle_type_id":"4","last_reported":1726128725,"current_range_meters":17200,"station_id":"ce4bhnp2rcd13ifvqgvg","pricing_plan_id":"cebpf4jnsgd1na2vs0mg"},{"bike_id":"6ca3740b-a088-4bce-b020-11fdd39341cb","system_id":"levelo_inurba_marseille","lat":43.25834,"lon":5.39438,"is_reserved":false,"is_disabled":false,"rental_uris":{"android":"levelo://app?vid=6ca3740b-a088-4bce-b020-11fdd39341cb","ios":"levelo://app?vid=6ca3740b-a088-4bce-b020-11fdd39341cb"},"vehicle_type_id":"4","last_reported":1726128725,"current_range_meters":14400,"station_id":"ce4bhip2rcd13ifvqft0","pricing_plan_id":"cebpf4jnsgd1na2vs0mg"},