{"last_updated":1718950311,"ttl":30,"version":"2.2","data":{"bikes":[{"bike_id":"bee6450a-c143-43f4-b64b-18ceaee4f1c7","system_id":"levelo_inurba_marseille","lat":43.313391,"lon":5.36706,"is_reserved":false,"is_disabled":false,"rental_uris":{"android":"levelo://app?vid=bee6450a-c143-43f4-b64b-18ceaee4f1c7","ios":"levelo://app?vid=bee6450a-c143-43f4-b64b-18ceaee4f1c7"},"vehicle_type_id":"4","last_reported":1718950311,"current_range_meters":22400,"station_id":"ce4bgr92rcd13ifvqc6g","pricing_plan_id":"cebpf4jnsgd1na2vs0mg"},{"bike_id":"92f11a99-26a6-4ccd-ae6d-ca962c18c82c","system_id":"levelo_inurba_marseille","lat":43.313391,"lon":5.36706,"is_reserved":false,"is_disabled":false,"rental_uris":{"android":"levelo://app?vid=92f11a99-26a6-4ccd-ae6d-ca962c18c82c","ios":"levelo://app?vid=92f11a99-26a6-4ccd-ae6d-ca962c18c82c"},"vehicle_type_id":"4","last_reported":1718950311,"current_range_meters":20000,"station_id":"ce4bgr92rcd13ifvqc6g","pricing_plan_id":"cebpf4jnsgd1na2vs0mg"},{"bike_id":"3a568328-d88b-41c1-a5b4-616cf2bc56c7","system_id":"levelo_inurba_marseille","lat":43.313391,"lon":5.36706,"is_reserved":false,"is_disabled":false,"rental_uris":{"android":"levelo://app?vid=3a568328-d88b-41c1-a5b4-616cf2bc56c7","ios":"levelo://app?vid=3a568328-d88b-41c1-a5b4-616cf2bc56c7"},"vehicle_type_id":"4","last_reported":1718950311,"current_range_meters":14800,"station_id":"ce4bgr92rcd13ifvqc6g","pricing_plan_id":"cebpf4jnsgd1na2vs0mg"},{"bike_id":"5e0c703f-62b1-4d5b-9a25-be6a140a0872","system_id":"levelo_inurba_marseille","lat":43.31341,"lon":5.367098,"is_reserved":false,"is_disabled":false,"rental_uris":{"android":"levelo://app?vid=5e0c703f-62b1-4d5b-9a25-be6a140a0872","ios":"levelo://app?vid=5e0c703f-62b1-4d5b-9a25-be6a140a0872"},"vehicle_type_id":"4","last_reported":1718950311,"current_range_meters":18400,"station_id":"ce4bgr92rcd13ifvqc6g","pricing_plan_id":"cebpf4jnsgd1na2vs0mg"},{"bike_id":"e3be2b45-cc31-4173-b075-cb34818b5cde","system_id":"levelo_inurba_marseille","lat":43.31341,"lon":5.367098,"is_reserved":false,"is_disabled":false,"rental_uris":{"android":"levelo://app?vid=e3be2b45-cc31-4173-b075-cb34818b5cde","ios":"levelo://app?vid=e3be2b45-cc31-4173-b075-cb34818b5cde"},"vehicle_type_id":"4","last_reported":1718950311,"current_range_meters":22000,"station_id":"ce4bgr92rcd13ifvqc6g","pricing_plan_id":"cebpf4jnsgd1na2vs0mg"},{"bike_id":"4b94dfc0-77a7-4013-80be-b430502f0801","system_id":"levelo_inurba_marseille","lat":43.312239,"lon":5.368562,"is_reserved":false,"is_disabled":false,"rental_uris":{"android":"levelo://app?vid=4b94dfc0-77a7-4013-80be-b430502f0801","ios":"levelo://app?vid=4b94dfc0-77a7-4013-80be-b430502f0801"},"vehicle_type_id":"4","last_reported":1718950311,"current_range_meters":19600,"station_id":"ce4bgl92rcd13ifvqbq0","pricing_plan_id":"cebpf4jnsgd1na2vs0mg"},{"bike_id":"2adeadbe-d91f-4109-b166-e1b1c613160f","system_id":"levelo_inurba_marseille","lat":43.309076,"lon":5.368465,"is_reserved":false,"is_disabled":false,"rental_uris":{"android":"levelo://app?vid=2adeadbe-d91f-4109-b166-e1b1c613160f","ios":"levelo://app?vid=2adeadbe-d91f-4109-b166-e1b1c613160f"},"vehicle_type_id":"4","last_reported":1718950311,"current_range_meters":1200,"station_id":"ce4bgn92rcd13ifvqbvg","pricing_plan_id":"cebpf4jnsgd1na2vs0mg"},{"bike_id":"4d5402ae-b254-498a-af54-78a132080e41","system_id":"levelo_inurba_marseille","lat":43.309076,"lon":5.368465,"is_reserved":false,"is_disabled":false,"rental_uris":{"android":"levelo://app?vid=4d5402ae-b254-498a-af54-78a132080e41","ios":"levelo://app?vid=4d5402ae-b254-498a-af54-78a132080e41"},"vehicle_type_id":"4","last_reported":1718950311,"current_range_meters":22000,"station_id":"ce4bgn92rcd13ifvqbvg","pricing_plan_id":"cebpf4jnsgd1na2vs0mg"},{"bike_id":"4e3d5b46-54ae-4322-8fee-edf3b3a33f72","system_id":"levelo_inurba_marseille","lat":43.309076,"lon":5.368465,"is_reserved":false,"is_disabled":false,"rental_uris":{"android":"levelo://app?vid=4e3d5b46-54ae-4322-8fee-edf3b3a33f72","ios":"levelo://app?vid=4e3d5b46-54ae-4322-8fee-edf3b3a33f72"},"vehicle_type_id":"4","last_reported":1718950311,"current_range_meters":16400,"station_id":"ce4bgn92rcd13ifvqbvg","pricing_plan_id":"cebpf4jnsgd1na2vs0mg"},{"bike_id":"1016148e-2956-4cf2-87e3-fb43ba84868e","system_id":"levelo_inurba_marseille","lat":43.309076,"lon":5.368465,"is_reserved":false,"is_disabled":false,"rental_uris":{"android":"levelo://app?vid=1016148e-2956-4cf2-87e3-fb43ba84868e","ios":"levelo://app?vid=1016148e-2956-4cf2-87e3-fb43ba84868e"},"vehicle_type_id":"4","last_reported":1718950311,"current_range_meters":4000,"station_id":"ce4bgn92rcd13ifvqbvg","pricing_plan_id":"cebpf4jnsgd1na2vs0mg"},{"bike_id":"7434f28b-3821-43d7-916f-e4693b0664e0","system_id":"levelo_inurba_marseille","lat":43.309076,"lon":5.368465,"is_reserved":false,"is_disabled":false,"rental_uris":{"android":"levelo://app?vid=7434f28b-3821-43d7-916f-e4693b0664e0","ios":"levelo://app?vid=7434f28b-3821-43d7-916f-e4693b0664e0"},"vehicle_type_id":"4","last_reported":1718950311,"current_range_meters":800,"station_id":"ce4bgn92rcd13ifvqbvg","pricing_plan_id":"cebpf4jnsgd1na2vs0mg"},{"bike_id":"a717cade-d517-457a-bd26-d2f2eff1c5ac","system_id":"levelo_inurba_marseille","lat":43.309076,"lon":5.368465,"is_reserved":false,"is_disabled":false,"rental_uris":{"android":"levelo://app?vid=a717cade-d517-457a-bd26-d2f2eff1c5ac","ios":"levelo://app?vid=a717cade-d517-457a-bd26-d2f2eff1c5ac"},"vehicle_type_id":"4","last_reported":1718950311,"current_range_meters":29200,"station_id":"ce4bgn92rcd13ifvqbvg","pricing_plan_id":"cebpf4jnsgd1na2vs0mg"},{"bike_id":"154f62b1-5e6b-45f2-90d6-231b68afe402","system_id":"levelo_inurba_marseille","lat":43.309076,"lon":5.368465,"is_reserved":false,"is_disabled":false,"rental_uris":{"android":"levelo://app?vid=154f62b1-5e6b-45f2-90d6-231b68afe402","ios":"levelo://app?vid=154f62b1-5e6b-45f2-90d6-231b68afe402"},"vehicle_type_id":"4","last_reported":1718950311,"current_range_meters":24000,"station_id":"ce4bgn92rcd13ifvqbvg","pricing_plan_id":"cebpf4jnsgd1na2vs0mg"},{"bike_id":"70be7f85-04a9-43a8-b8c6-81f725fac0f5","system_id":"levelo_inurba_marseille","lat":43.309046,"lon":5.368537,"is_reserved":false,"is_disabled":false,"rental_uris":{"android":"levelo://app?vid=70be7f85-04a9-43a8-b8c6-81f725fac0f5","ios":"levelo://app?vid=70be7f85-04a9-43a8-b8c6-81f725fac0f5"},"vehicle_type_id":"4","last_reported":1718950311,"current_range_meters":27600,"station_id":"ce4bgn92rcd13ifvqbvg","pricing_plan_id":"cebpf4jnsgd1na2vs0mg"},{"bike_id":"9d506164-d222-4588-97e2-f606918ceb8b","system_id":"levelo_inurba_marseille","lat":43.309076,"lon":5.368465,"is_reserved":false,"is_disabled":false,"rental_uris":{"android":"levelo://app?vid=9d506164-d222-4588-97e2-f606918ceb8b","ios":"levelo://app?vid=9d506164-d222-4588-97e2-f606918ceb8b"},"vehicle_type_id":"4","last_reported":1718950311,"current_range_meters":27200,"station_id":"ce4bgn92rcd13ifvqbvg","pricing_plan_id":"cebpf4jnsgd1na2vs0mg"},{"bike_id":"97cf9e92-3003-4fd6-b684-1ab4b6c0e87b","system_id":"levelo_inurba_marseille","lat":43.314811,"lon":5.373103,"is_reserved":false,"is_disabled":false,"rental_uris":{"android":"levelo://app?vid=97cf9e92-3003-4fd6-b684-1ab4b6c0e87b","ios":"levelo://app?vid=97cf9e92-3003-4fd6-b684-1ab4b6c0e87b"},"vehicle_type_id":"4","last_reported":1718950311,"current_range_meters":22000,"station_id":"ce4bgt12rcd13ifvqcd0","pricing_plan_id":"cebpf4jnsgd1na2vs0mg"},{"bike_id":"0f87453b-0656-45e0-8c34-ded89054721f","system_id":"levelo_inurba_marseille","lat":43.314811,"lon":5.373103,"is_reserved":false,"is_disabled":false,"rental_uris":{"android":"levelo://app?vid=0f87453b-0656-45e0-8c34-ded89054721f","ios":"levelo://app?vid=0f87453b-0656-45e0-8c34-ded89054721f"},"vehicle_type_id":"4","last_reported":1718950311,"current_range_meters":10800,"station_id":"ce4bgt12rcd13ifvqcd0","pricing_plan_id":"cebpf4jnsgd1na2vs0mg"},{"bike_id":"b66b006a-1a78-42ec-a772-1bf354208f6e","system_id":"levelo_inurba_marseille","lat":43.314811,"lon":5.373103,"is_reserved":false,"is_disabled":false,"rental_uris":{"android":"levelo://app?vid=b66b006a-1a78-42ec-a772-1bf354208f6e","ios":"levelo://app?vid=b66b006a-1a78-42ec-a772-1bf354208f6e"},"vehicle_type_id":"4","last_reported":1718950311,"current_range_meters":5200,"station_id":"ce4bgt12rcd13ifvqcd0","pricing_plan_id":"cebpf4jnsgd1na2vs0mg"},{"bike_id":"48ec59c3-d3c6-4e97-94ff-32ac1b4a748f","system_id":"levelo_inurba_marseille","lat":43.314811,"lon":5.373103,"is_reserved":false,"is_disabled":false,"rental_uris":{"android":"levelo://app?vid=48ec59c3-d3c6-4e97-94ff-32ac1b4a748f","ios":"levelo://app?vid=48ec59c3-d3c6-4e97-94ff-32ac1b4a748f"},"vehicle_type_id":"4","last_reported":1718950311,"current_range_meters":9600,"station_id":"ce4bgt12rcd13ifvqcd0","pricing_plan_id":"cebpf4jnsgd1na2vs0mg"},{"bike_id":"41e356a9-86b8-4b12-ba2b-25b553a683c7","system_id":"levelo_inurba_marseille","lat":43.314811,"lon":5.373103,"is_reserved":false,"is_disabled":false,"rental_uris":{"android":"levelo://app?vid=41e356a9-86b8-4b12-ba2b-25b553a683c7","ios":"levelo://app?vid=41e356a9-86b8-4b12-ba2b-25b553a683c7"},"vehicle_type_id":"4","last_reported":1718950311,"current_range_meters":23200,"station_id":"ce4bgt12rcd13ifvqcd0","pricing_plan_id":"cebpf4jnsgd1na2vs0mg"},{"bike_id":"824bbb2a-4376-4656-98de-7f5bced37a2a","system_id":"levelo_inurba_marseille","lat":43.314811,"lon":5.373103,"is_reserved":false,"is_disabled":false,"rental_uris":{"android":"levelo://app?vid=824bbb2a-4376-4656-98de-7f5bced37a2a","ios":"levelo://app?vid=824bbb2a-4376-4656-98de-7f5bced37a2a"},"vehicle_type_id":"4","last_reported":1718950311,"current_range_meters":23200,"station_id":"ce4bgt12rcd13ifvqcd0","pricing_plan_id":"cebpf4jnsgd1na2vs0mg"},{"bike_id":"65615540-30f3-4650-b22c-6da9dbb71c02","system_id":"levelo_inurba_marseille","lat":43.314811,"lon":5.373103,"is_reserved":false,"is_disabled":false,"rental_uris":{"android":"levelo://app?vid=65615540-30f3-4650-b22c-6da9dbb71c02","ios":"levelo://app?vid=65615540-30f3-4650-b22c-6da9dbb71c02"},"vehicle_type_id":"4","last_reported":1718950311,"current_range_meters":27200,"station_id":"ce4bgt12rcd13ifvqcd0","pricing_plan_id":"cebpf4jnsgd1na2vs0mg"},{"bike_id":"efe030f4-6319-4b42-b8f1-da6d8cd8bc24","system_id":"levelo_inurba_marseille","lat":43.314811,"lon":5.373103,"is_reserved":false,"is_disabled":false,"rental_uris":{"android":"levelo://app?vid=efe030f4-6319-4b42-b8f1-da6d8cd8bc24","ios":"levelo://app?vid=efe030f4-6319-4b42-b8f1-da6d8cd8bc24"},"vehicle_type_id":"4","last_reported":1718950311,"current_range_meters":29600,"station_id":"ce4bgt12rcd13ifvqcd0","pricing_plan_id":"cebpf4jnsgd1na2vs0mg"},{"bike_id":"4be2f5ea-ff18-4563-8f43-a0197f2f3ebb","system_id":"levelo_inurba_marseille","lat":43.314811,"lon":5.373103,"is_reserved":false,"is_disabled":false,"rental_uris":{"android":"levelo://app?vid=4be2f5ea-ff18-4563-8f43-a0197f2f3ebb","ios":"levelo://app?vid=4be2f5ea-ff18-4563-8f43-a0197f2f3ebb"},"vehicle_type_id":"4","last_reported":1718950311,"current_range_meters":22400,"station_id":"ce4bgt12rcd13ifvqcd0","pricing_plan_id":"cebpf4jnsgd1na2vs0mg"},{"bike_id":"769a15a4-3602-4d0c-b76b-63a5f4227d03","system_id":"levelo_inurba_marseille","lat":43.314811,"lon":5.373104,"is_reserved":false,"is_disabled":false,"rental_uris":{"android":"levelo://app?vid=769a15a4-3602-4d0c-b76b-63a5f4227d03","ios":"levelo://app?vid=769a15a4-3602-4d0c-b76b-63a5f4227d03"},"vehicle_type_id":"4","last_reported":1718950311,"current_range_meters":26000,"station_id":"ce4bgt12rcd13ifvqcd0","pricing_plan_id":"cebpf4jnsgd1na2vs0mg"},{"bike_id":"bf7c91de-4b80-40a5-8c54-c8ef1b737419","system_id":"levelo_inurba_marseille","lat":43.314811,"lon":5.373103,"is_reserved":false,"is_disabled":false,"rental_uris":{"android":"levelo://app?vid=bf7c91de-4b80-40a5-8c54-c8ef1b737419","ios":"levelo://app?vid=bf7c91de-4b80-40a5-8c54-c8ef1b737419"},"vehicle_type_id":"4","last_reported":1718950311,"current_range_meters":28800,"station_id":"ce4bgt12rcd13ifvqcd0","pricing_plan_id":"cebpf4jnsgd1na2vs0mg"},{"bike_id":"6a985616-b114-4034-8cea-0d1fa61496df","system_id":"levelo_inurba_marseille","lat":43.314811,"lon":5.373103,"is_reserved":false,"is_disabled":false,"rental_uris":{"android":"levelo://app?vid=6a985616-b114-4034-8cea-0d1fa61496df","ios":"levelo://app?vid=6a985616-b114-4034-8cea-0d1fa61496df"},"vehicle_type_id":"4","last_reported":1718950311,"current_range_meters":2400,"station_id":"ce4bgt12rcd13ifvqcd0","pricing_plan_id":"cebpf4jnsgd1na2vs0mg"},{"bike_id":"b2502ac1-f7d5-45fd-b7ea-2d3ffb4ae861","system_id":"levelo_inurba_marseille","lat":43.314811,"lon":5.373103,"is_reserved":false,"is_disabled":false,"rental_uris":{"android":"levelo://app?vid=b2502ac1-f7d5-45fd-b7ea-2d3ffb4ae861","ios":"levelo://app?vid=b2502ac1-f7d5-45fd-b7ea-2d3ffb4ae861"},"vehicle_type_id":"4","last_reported":1718950311,"current_range_meters":23200,"station_id":"ce4bgt12rcd13ifvqcd0","pricing_plan_id":"cebpf4jnsgd1na2vs0mg"},{"bike_id":"a66c461e-7e04-43a3-aa47-65b160856416","system_id":"levelo_inurba_marseille","lat":43.31494,"lon":5.3731,"is_reserved":false,"is_disabled":false,"rental_uris":{"android":"levelo://app?vid=a66c461e-7e04-43a3-aa47-65b160856416","ios":"levelo://app?vid=a66c461e-7e04-43a3-aa47-65b160856416"},"vehicle_type_id":"4","last_reported":1718950311,"current_range_meters":23200,"station_id":"ce4bgt12rcd13ifvqcd0","pricing_plan_id":"cebpf4jnsgd1na2vs0mg"},{"bike_id":"20f31c62-307b-4c16-93b6-6fcc5accd677","system_id":"levelo_inurba_marseille","lat":43.3146,"lon":5.37371,"is_reserved":false,"is_disabled":false,"rental_uris":{"android":"levelo://app?vid=20f31c62-307b-4c16-93b6-6fcc5accd677","ios":"levelo://app?vid=20f31c62-307b-4c16-93b6-6fcc5accd677"},"vehicle_type_id":"4","last_reported":1718950311,"current_range_meters":16400,"station_id":"","pricing_plan_id":"cebpf4jnsgd1na2vs0mg"},{"bike_id":"730e7675-ce41-46af-9112-467048e48886","system_id":"levelo_inurba_marseille","lat":43.309039,"lon":5.371797,"is_reserved":false,"is_disabled":false,"rental_uris":{"android":"levelo://app?vid=730e7675-ce41-46af-9112-467048e48886","ios":"levelo://app?vid=730e7675-ce41-46af-9112-467048e48886"},"vehicle_type_id":"4","last_reported":1718950311,"current_range_meters":30800,"station_id":"ce4bguh2rcd13ifvqckg","pricing_plan_id":"cebpf4jnsgd1na2vs0mg"},{"bike_id":"d5026f38-0c65-4fb9-bbed-7ebf29537c03","system_id":"levelo_inurba_marseille","lat":43.309034,"lon":5.371783,"is_reserved":false,"is_disabled":false,"rental_uris":{"android":"levelo://app?vid=d5026f38-0c65-4fb9-bbed-7ebf29537c03","ios":"levelo://app?vid=d5026f38-0c65-4fb9-bbed-7ebf29537c03"},"vehicle_type_id":"4","last_reported":1718950311,"current_range_meters":30400,"station_id":"ce4bguh2rcd13ifvqckg","pricing_plan_id":"cebpf4jnsgd1na2vs0mg"},{"bike_id":"488129e7-75c8-49a5-9402-203c4b63dd99","system_id":"levelo_inurba_marseille","lat":43.309034,"lon":5.371783,"is_reserved":false,"is_disabled":false,"rental_uris":{"android":"levelo://app?vid=488129e7-75c8-49a5-9402-203c4b63dd99","ios":"levelo://app?vid=488129e7-75c8-49a5-9402-203c4b63dd99"},"vehicle_type_id":"4","last_reported":1718950311,"current_range_meters":2400,"station_id":"ce4bguh2rcd13ifvqckg","pricing_plan_id":"cebpf4jnsgd1na2vs0mg"},{"bike_id":"318df630-1fae-46d0-abbe-2bbfb7159659","system_id":"levelo_inurba_marseille","lat":43.309034,"lon":5.371783,"is_reserved":false,"is_disabled":false,"rental_uris":{"android":"levelo://app?vid=318df630-1fae-46d0-abbe-2bbfb7159659","ios":"levelo://app?vid=318df630-1fae-46d0-abbe-2bbfb7159659"},"vehicle_type_id":"4","last_reported":1718950311,"current_range_meters":28800,"station_id":"ce4bguh2rcd13ifvqckg","pricing_plan_id":"cebpf4jnsgd1na2vs0mg"},{"bike_id":"1e4537be-9af4-4acb-b5f4-ee0a4fd12267","system_id":"levelo_inurba_marseille","lat":43.309034,"lon":5.371783,"is_reserved":false,"is_disabled":false,"rental_uris":{"android":"levelo://app?vid=1e4537be-9af4-4acb-b5f4-ee0a4fd12267","ios":"levelo://app?vid=1e4537be-9af4-4acb-b5f4-ee0a4fd12267"},"vehicle_type_id":"4","last_reported":1718950311,"current_range_meters":25200,"station_id":"ce4bguh2rcd13ifvqckg","pricing_plan_id":"cebpf4jnsgd1na2vs0mg"},{"bike_id":"9d857f37-c229-458b-ae1d-82f2f983dcb8","system_id":"levelo_inurba_marseille","lat":43.30883,"lon":5.37193,"is_reserved":false,"is_disabled":false,"rental_uris":{"android":"levelo://app?vid=9d857f37-c229-458b-ae1d-82f2f983dcb8","ios":"levelo://app?vid=9d857f37-c229-458b-ae1d-82f2f983dcb8"},"vehicle_type_id":"4","last_reported":1718950311,"current_range_meters":15600,"station_id":"ce4bguh2rcd13ifvqckg","pricing_plan_id":"cebpf4jnsgd1na2vs0mg"},{"bike_id":"8d670984-c9c8-42c2-a0d2-efdd5753e27b","system_id":"levelo_inurba_marseille","lat":43.309034,"lon":5.371783,"is_reserved":false,"is_disabled":false,"rental_uris":{"android":"levelo://app?vid=8d670984-c9c8-42c2-a0d2-efdd5753e27b","ios":"levelo://app?vid=8d670984-c9c8-42c2-a0d2-efdd5753e27b"},"vehicle_type_id":"4","last_reported":1718950311,"current_range_meters":22800,"station_id":"ce4bguh2rcd13ifvqckg","pricing_plan_id":"cebpf4jnsgd1na2vs0mg"},{"bike_id":"9bf2b7b8-aa85-45f7-abbd-2ee16506272b","system_id":"levelo_inurba_marseille","lat":43.309034,"lon":5.371783,"is_reserved":false,"is_disabled":false,"rental_uris":{"android":"levelo://app?vid=9bf2b7b8-aa85-45f7-abbd-2ee16506272b","ios":"levelo://app?vid=9bf2b7b8-aa85-45f7-abbd-2ee16506272b"},"vehicle_type_id":"4","last_reported":1718950311,"current_range_meters":13600,"station_id":"ce4bguh2rcd13ifvqckg","pricing_plan_id":"cebpf4jnsgd1na2vs0mg"},{"bike_id":"898c272e-b578-483f-8159-1f010f7f290b","system_id":"levelo_inurba_marseille","lat":43.309034,"lon":5.371783,"is_reserved":false,"is_disabled":false,"rental_uris":{"android":"levelo://app?vid=898c272e-b578-483f-8159-1f010f7f290b","ios":"levelo://app?vid=898c272e-b578-483f-8159-1f010f7f290b"},"vehicle_type_id":"4","last_reported":1718950311,"current_range_meters":24400,"station_id":"ce4bguh2rcd13ifvqckg","pricing_plan_id":"cebpf4jnsgd1na2vs0mg"},{"bike_id":"063c8fd9-06f2-4648-8f45-f8812f563da3","system_id":"levelo_inurba_marseille","lat":43.309034,"lon":5.371783,"is_reserved":false,"is_disabled":false,"rental_uris":{"android":"levelo://app?vid=063c8fd9-06f2-4648-8f45-f8812f563da3","ios":"levelo://app?vid=063c8fd9-06f2-4648-8f45-f8812f563da3"},"vehicle_type_id":"4","last_reported":1718950311,"current_range_meters":10400,"station_id":"ce4bguh2rcd13ifvqckg","pricing_plan_id":"cebpf4jnsgd1na2vs0mg"},{"bike_id":"9f343050-7df0-4de3-9996-a3657976266e","system_id":"levelo_inurba_marseille","lat":43.316906,"lon":5.372806,"is_reserved":false,"is_disabled":false,"rental_uris":{"android":"levelo://app?vid=9f343050-7df0-4de3-9996-a3657976266e","ios":"levelo://app?vid=9f343050-7df0-4de3-9996-a3657976266e"},"vehicle_type_id":"4","last_reported":1718950311,"current_range_meters":23200,"station_id":"","pricing_plan_id":"cebpf4jnsgd1na2vs0mg"},{"bike_id":"b51bd151-e486-4ff8-9148-53722473931d","system_id":"levelo_inurba_marseille","lat":43.31569,"lon":5.374321,"is_reserved":false,"is_disabled":false,"rental_uris":{"android":"levelo://app?vid=b51bd151-e486-4ff8-9148-53722473931d","ios":"levelo://app?vid=b51bd151-e486-4ff8-9148-53722473931d"},"vehicle_type_id":"4","last_reported":1718950311,"current_range_meters":6400,"station_id":"","pricing_plan_id":"cebpf4jnsgd1na2vs0mg"},{"bike_id":"345b7ad9-832a-459b-8afd-4d95299a82e7","system_id":"levelo_inurba_marseille","lat":43.305706,"lon":5.365654,"is_reserved":false,"is_disabled":false,"rental_uris":{"android":"levelo://app?vid=345b7ad9-832a-459b-8afd-4d95299a82e7","ios":"levelo://app?vid=345b7ad9-832a-459b-8afd-4d95299a82e7"},"vehicle_type_id":"4","last_reported":1718950311,"current_range_meters":12000,"station_id":"ce4bgs12rcd13ifvqcag","pricing_plan_id":"cebpf4jnsgd1na2vs0mg"},{"bike_id":"2719a632-6059-4307-8214-60ebb732000d","system_id":"levelo_inurba_marseille","lat":43.305714,"lon":5.365633,"is_reserved":false,"is_disabled":false,"rental_uris":{"android":"levelo://app?vid=2719a632-6059-4307-8214-60ebb732000d","ios":"levelo://app?vid=2719a632-6059-4307-8214-60ebb732000d"},"vehicle_type_id":"4","last_reported":1718950311,"current_range_meters":22400,"station_id":"ce4bgs12rcd13ifvqcag","pricing_plan_id":"cebpf4jnsgd1na2vs0mg"},{"bike_id":"fe0084e7-798b-480f-92ad-11dcedd91dc2","system_id":"levelo_inurba_marseille","lat":43.305706,"lon":5.365654,"is_reserved":false,"is_disabled":false,"rental_uris":{"android":"levelo://app?vid=fe0084e7-798b-480f-92ad-11dcedd91dc2","ios":"levelo://app?vid=fe0084e7-798b-480f-92ad-11dcedd91dc2"},"vehicle_type_id":"4","last_reported":1718950311,"current_range_meters":31200,"station_id":"ce4bgs12rcd13ifvqcag","pricing_plan_id":"cebpf4jnsgd1na2vs0mg"},{"bike_id":"150d4a7f-cf5a-408f-967e-650d12e5074c","system_id":"levelo_inurba_marseille","lat":43.305989,"lon":5.37225,"is_reserved":false,"is_disabled":false,"rental_uris":{"android":"levelo://app?vid=150d4a7f-cf5a-408f-967e-650d12e5074c","ios":"levelo://app?vid=150d4a7f-cf5a-408f-967e-650d12e5074c"},"vehicle_type_id":"4","last_reported":1718950311,"current_range_meters":29600,"station_id":"ce4bgqh2rcd13ifvqc4g","pricing_plan_id":"cebpf4jnsgd1na2vs0mg"},{"bike_id":"e0d3ed0e-76f7-439e-a704-f27a2c5ad92a","system_id":"levelo_inurba_marseille","lat":43.311139,"lon":5.377571,"is_reserved":false,"is_disabled":false,"rental_uris":{"android":"levelo://app?vid=e0d3ed0e-76f7-439e-a704-f27a2c5ad92a","ios":"levelo://app?vid=e0d3ed0e-76f7-439e-a704-f27a2c5ad92a"},"vehicle_type_id":"4","last_reported":1718950311,"current_range_meters":25600,"station_id":"ce4bgt92rcd13ifvqcg0","pricing_plan_id":"cebpf4jnsgd1na2vs0mg"},{"bike_id":"462ef7c6-92c1-4c6a-ad78-9938bbe75a5d","system_id":"levelo_inurba_marseille","lat":43.3112,"lon":5.3776,"is_reserved":false,"is_disabled":false,"rental_uris":{"android":"levelo://app?vid=462ef7c6-92c1-4c6a-ad78-9938bbe75a5d","ios":"levelo://app?vid=462ef7c6-92c1-4c6a-ad78-9938bbe75a5d"},"vehicle_type_id":"4","last_reported":1718950311,"current_range_meters":27600,"station_id":"ce4bgt92rcd13ifvqcg0","pricing_plan_id":"cebpf4jnsgd1na2vs0mg"},{"bike_id":"07753eb0-c1e2-4318-94a3-466128ff96b7","system_id":"levelo_inurba_marseille","lat":43.307945,"lon":5.376487,"is_reserved":false,"is_disabled":false,"rental_uris":{"android":"levelo://app?vid=07753eb0-c1e2-4318-94a3-466128ff96b7","ios":"levelo://app?vid=07753eb0-c1e2-4318-94a3-466128ff96b7"},"vehicle_type_id":"4","last_reported":1718950311,"current_range_meters":0,"station_id":"ce4bgv92rcd13ifvqcq0","pricing_plan_id":"cebpf4jnsgd1na2vs0mg"},{"bike_id":"1f07a6b2-7b97-482b-8fed-a1bc8cbdb17b","system_id":"levelo_inurba_marseille","lat":43.307945,"lon":5.376487,"is_reserved":false,"is_disabled":false,"rental_uris":{"android":"levelo://app?vid=1f07a6b2-7b97-482b-8fed-a1bc8cbdb17b","ios":"levelo://app?vid=1f07a6b2-7b97-482b-8fed-a1bc8cbdb17b"},"vehicle_type_id":"4","last_reported":1718950311,"current_range_meters":24400,"station_id":"ce4bgv92rcd13ifvqcq0","pricing_plan_id":"cebpf4jnsgd1na2vs0mg"},{"bike_id":"92047de6-5ef5-45ae-9453-0f1bee68c246","system_id":"levelo_inurba_marseille","lat":43.307945,"lon":5.376487,"is_reserved":false,"is_disabled":false,"rental_uris":{"android":"levelo://app?vid=92047de6-5ef5-45ae-9453-0f1bee68c246","ios":"levelo://app?vid=92047de6-5ef5-45ae-9453-0f1bee68c246"},"vehicle_type_id":"4","last_reported":1718950311,"current_range_meters":25600,"station_id":"ce4bgv92rcd13ifvqcq0","pricing_plan_id":"cebpf4jnsgd1na2vs0mg"},{"bike_id":"3b04fdf8-deb3-4374-94d3-fd53bd791197","system_id":"levelo_inurba_marseille","lat":43.307945,"lon":5.376487,"is_reserved":false,"is_disabled":false,"rental_uris":{"android":"levelo://app?vid=3b04fdf8-deb3-4374-94d3-fd53bd791197","ios":"levelo://app?vid=3b04fdf8-deb3-4374-94d3-fd53bd791197"},"vehicle_type_id":"4","last_reported":1718950311,"current_range_meters":18000,"station_id":"ce4bgv92rcd13ifvqcq0","pricing_plan_id":"cebpf4jnsgd1na2vs0mg"},{"bike_id":"45266536-81c1-4402-88b1-52f7c2935213","system_id":"levelo_inurba_marseille","lat":43.307945,"lon":5.376487,"is_reserved":false,"is_disabled":false,"rental_uris":{"android":"levelo://app?vid=45266536-81c1-4402-88b1-52f7c2935213","ios":"levelo://app?vid=45266536-81c1-4402-88b1-52f7c2935213"},"vehicle_type_id":"4","last_reported":1718950311,"current_range_meters":8400,"station_id":"ce4bgv92rcd13ifvqcq0","pricing_plan_id":"cebpf4jnsgd1na2vs0mg"},{"bike_id":"3fd4470f-a507-489e-b846-a5fadd5b7b87","system_id":"levelo_inurba_marseille","lat":43.307945,"lon":5.376487,"is_reserved":false,"is_disabled":false,"rental_uris":{"android":"levelo://app?vid=3fd4470f-a507-489e-b846-a5fadd5b7b87","ios":"levelo://app?vid=3fd4470f-a507-489e-b846-a5fadd5b7b87"},"vehicle_type_id":"4","last_reported":1718950311,"current_range_meters":28400,"station_id":"ce4bgv92rcd13ifvqcq0","pricing_plan_id":"cebpf4jnsgd1na2vs0mg"},{"bike_id":"ccd81806-24c7-4c6b-9fff-4beee5a974b4","system_id":"levelo_inurba_marseille","lat":43.307945,"lon":5.376487,"is_reserved":false,"is_disabled":false,"rental_uris":{"android":"levelo://app?vid=ccd81806-24c7-4c6b-9fff-4beee5a974b4","ios":"levelo://app?vid=ccd81806-24c7-4c6b-9fff-4beee5a974b4"},"vehicle_type_id":"4","last_reported":1718950311,"current_range_meters":20000,"station_id":"ce4bgv92rcd13ifvqcq0","pricing_plan_id":"cebpf4jnsgd1na2vs0mg"},{"bike_id":"9696d2f7-6a47-43cb-9869-77916db79371","system_id":"levelo_inurba_marseille","lat":43.307945,"lon":5.376487,"is_reserved":false,"is_disabled":false,"rental_uris":{"android":"levelo://app?vid=9696d2f7-6a47-43cb-9869-77916db79371","ios":"levelo://app?vid=9696d2f7-6a47-43cb-9869-77916db79371"},"vehicle_type_id":"4","last_reported":1718950311,"current_range_meters":4400,"station_id":"ce4bgv92rcd13ifvqcq0","pricing_plan_id":"cebpf4jnsgd1na2vs0mg"},{"bike_id":"0261b956-9c66-417f-94de-22a53b206a64","system_id":"levelo_inurba_marseille","lat":43.307945,"lon":5.376487,"is_reserved":false,"is_disabled":false,"rental_uris":{"android":"levelo://app?vid=0261b956-9c66-417f-94de-22a53b206a64","ios":"levelo://app?vid=0261b956-9c66-417f-94de-22a53b206a64"},"vehicle_type_id":"4","last_reported":1718950311,"current_range_meters":30800,"station_id":"ce4bgv92rcd13ifvqcq0","pricing_plan_id":"cebpf4jnsgd1na2vs0mg"},{"bike_id":"1fe43a24-e037-47e7-a43a-aa42db49b185","system_id":"levelo_inurba_marseille","lat":43.307945,"lon":5.376487,"is_reserved":false,"is_disabled":false,"rental_uris":{"android":"levelo://app?vid=1fe43a24-e037-47e7-a43a-aa42db49b185","ios":"levelo://app?vid=1fe43a24-e037-47e7-a43a-aa42db49b185"},"vehicle_type_id":"4","last_reported":1718950311,"current_range_meters":9200,"station_id":"ce4bgv92rcd13ifvqcq0","pricing_plan_id":"cebpf4jnsgd1na2vs0mg"},{"bike_id":"ed1b36fc-5ae8-44b4-b664-e71c6178da35","system_id":"levelo_inurba_marseille","lat":43.317075,"lon":5.377367,"is_reserved":false,"is_disabled":false,"rental_uris":{"android":"levelo://app?vid=ed1b36fc-5ae8-44b4-b664-e71c6178da35","ios":"levelo://app?vid=ed1b36fc-5ae8-44b4-b664-e71c6178da35"},"vehicle_type_id":"4","last_reported":1718950311,"current_range_meters":17600,"station_id":"ce4bgth2rcd13ifvqch0","pricing_plan_id":"cebpf4jnsgd1na2vs0mg"},{"bike_id":"386c3d97-f768-48d8-aaf6-17f24b935d33","system_id":"levelo_inurba_marseille","lat":43.317075,"lon":5.377367,"is_reserved":false,"is_disabled":false,"rental_uris":{"android":"levelo://app?vid=386c3d97-f768-48d8-aaf6-17f24b935d33","ios":"levelo://app?vid=386c3d97-f768-48d8-aaf6-17f24b935d33"},"vehicle_type_id":"4","last_reported":1718950311,"current_range_meters":20800,"station_id":"ce4bgth2rcd13ifvqch0","pricing_plan_id":"cebpf4jnsgd1na2vs0mg"},{"bike_id":"88c1c68d-e1cf-4289-98b5-7d1e019d488c","system_id":"levelo_inurba_marseille","lat":43.317075,"lon":5.377367,"is_reserved":false,"is_disabled":false,"rental_uris":{"android":"levelo://app?vid=88c1c68d-e1cf-4289-98b5-7d1e019d488c","ios":"levelo://app?vid=88c1c68d-e1cf-4289-98b5-7d1e019d488c"},"vehicle_type_id":"4","last_reported":1718950311,"current_range_meters":5600,"station_id":"ce4bgth2rcd13ifvqch0","pricing_plan_id":"cebpf4jnsgd1na2vs0mg"},{"bike_id":"2b894b0e-9b54-456a-b2c4-3e88ef5bf92c","system_id":"levelo_inurba_marseille","lat":43.317075,"lon":5.377367,"is_reserved":false,"is_disabled":false,"rental_uris":{"android":"levelo://app?vid=2b894b0e-9b54-456a-b2c4-3e88ef5bf92c","ios":"levelo://app?vid=2b894b0e-9b54-456a-b2c4-3e88ef5bf92c"},"vehicle_type_id":"4","last_reported":1718950311,"current_range_meters":30800,"station_id":"ce4bgth2rcd13ifvqch0","pricing_plan_id":"cebpf4jnsgd1na2vs0mg"},{"bike_id":"f5b6937a-deda-43b5-9afe-8ce47a7e7951","system_id":"levelo_inurba_marseille","lat":43.317075,"lon":5.377367,"is_reserved":false,"is_disabled":false,"rental_uris":{"android":"levelo://app?vid=f5b6937a-deda-43b5-9afe-8ce47a7e7951","ios":"levelo://app?vid=f5b6937a-deda-43b5-9afe-8ce47a7e7951"},"vehicle_type_id":"4","last_reported":1718950311,"current_range_meters":22800,"station_id":"ce4bgth2rcd13ifvqch0","pricing_plan_id":"cebpf4jnsgd1na2vs0mg"},{"bike_id":"88d9e580-7c97-4456-b338-6bbbe271f513","system_id":"levelo_inurba_marseille","lat":43.317075,"lon":5.377367,"is_reserved":false,"is_disabled":false,"rental_uris":{"android":"levelo://app?vid=88d9e580-7c97-4456-b338-6bbbe271f513","ios":"levelo://app?vid=88d9e580-7c97-4456-b338-6bbbe271f513"},"vehicle_type_id":"4","last_reported":1718950311,"current_range_meters":27200,"station_id":"ce4bgth2rcd13ifvqch0","pricing_plan_id":"cebpf4jnsgd1na2vs0mg"},{"bike_id":"d3d198f2-5da1-45cd-9428-63c2fbabb694","system_id":"levelo_inurba_marseille","lat":43.317075,"lon":5.377367,"is_reserved":false,"is_disabled":false,"rental_uris":{"android":"levelo://app?vid=d3d198f2-5da1-45cd-9428-63c2fbabb694","ios":"levelo://app?vid=d3d198f2-5da1-45cd-9428-63c2fbabb694"},"vehicle_type_id":"4","last_reported":1718950311,"current_range_meters":24000,"station_id":"ce4bgth2rcd13ifvqch0","pricing_plan_id":"cebpf4jnsgd1na2vs0mg"},{"bike_id":"6ef53102-a14b-4a8d-973e-46b1afbdb33f","system_id":"levelo_inurba_marseille","lat":43.317075,"lon":5.377367,"is_reserved":false,"is_disabled":false,"rental_uris":{"android":"levelo://app?vid=6ef53102-a14b-4a8d-973e-46b1afbdb33f","ios":"levelo://app?vid=6ef53102-a14b-4a8d-973e-46b1afbdb33f"},"vehicle_type_id":"4","last_reported":1718950311,"current_range_meters":20000,"station_id":"ce4bgth2rcd13ifvqch0","pricing_plan_id":"cebpf4jnsgd1na2vs0mg"},{"bike_id":"0ea21675-ae61-402c-91cc-d43dbf6fdf6c","system_id":"levelo_inurba_marseille","lat":43.303046,"lon":5.368981,"is_reserved":false,"is_disabled":false,"rental_uris":{"android":"levelo://app?vid=0ea21675-ae61-402c-91cc-d43dbf6fdf6c","ios":"levelo://app?vid=0ea21675-ae61-402c-91cc-d43dbf6fdf6c"},"vehicle_type_id":"4","last_reported":1718950311,"current_range_meters":21600,"station_id":"ce4bgqh2rcd13ifvqc5g","pricing_plan_id":"cebpf4jnsgd1na2vs0mg"},{"bike_id":"212eb4e7-66d7-4cde-bb02-6436d27663aa","system_id":"levelo_inurba_marseille","lat":43.303046,"lon":5.368981,"is_reserved":false,"is_disabled":false,"rental_uris":{"android":"levelo://app?vid=212eb4e7-66d7-4cde-bb02-6436d27663aa","ios":"levelo://app?vid=212eb4e7-66d7-4cde-bb02-6436d27663aa"},"vehicle_type_id":"4","last_reported":1718950311,"current_range_meters":24000,"station_id":"ce4bgqh2rcd13ifvqc5g","pricing_plan_id":"cebpf4jnsgd1na2vs0mg"},{"bike_id":"663d128a-c30e-4d76-8951-5395d9959e2c","system_id":"levelo_inurba_marseille","lat":43.30304,"lon":5.368987,"is_reserved":false,"is_disabled":false,"rental_uris":{"android":"levelo://app?vid=663d128a-c30e-4d76-8951-5395d9959e2c","ios":"levelo://app?vid=663d128a-c30e-4d76-8951-5395d9959e2c"},"vehicle_type_id":"4","last_reported":1718950311,"current_range_meters":31600,"station_id":"ce4bgqh2rcd13ifvqc5g","pricing_plan_id":"cebpf4jnsgd1na2vs0mg"},{"bike_id":"f2aed2d6-d931-4663-86a5-f8976e13f761","system_id":"levelo_inurba_marseille","lat":43.30304,"lon":5.368987,"is_reserved":false,"is_disabled":false,"rental_uris":{"android":"levelo://app?vid=f2aed2d6-d931-4663-86a5-f8976e13f761","ios":"levelo://app?vid=f2aed2d6-d931-4663-86a5-f8976e13f761"},"vehicle_type_id":"4","last_reported":1718950311,"current_range_meters":22800,"station_id":"ce4bgqh2rcd13ifvqc5g","pricing_plan_id":"cebpf4jnsgd1na2vs0mg"},{"bike_id":"aade83da-b28b-4b79-9cc0-d627ba3415ae","system_id":"levelo_inurba_marseille","lat":43.30304,"lon":5.368987,"is_reserved":false,"is_disabled":false,"rental_uris":{"android":"levelo://app?vid=aade83da-b28b-4b79-9cc0-d627ba3415ae","ios":"levelo://app?vid=aade83da-b28b-4b79-9cc0-d627ba3415ae"},"vehicle_type_id":"4","last_reported":1718950311,"current_range_meters":17600,"station_id":"ce4bgqh2rcd13ifvqc5g","pricing_plan_id":"cebpf4jnsgd1na2vs0mg"},{"bike_id":"22b3dbde-496a-4157-bd1a-ddf8a6b5c649","system_id":"levelo_inurba_marseille","lat":43.315537,"lon":5.380093,"is_reserved":false,"is_disabled":false,"rental_uris":{"android":"levelo://app?vid=22b3dbde-496a-4157-bd1a-ddf8a6b5c649","ios":"levelo://app?vid=22b3dbde-496a-4157-bd1a-ddf8a6b5c649"},"vehicle_type_id":"4","last_reported":1718950311,"current_range_meters":400,"station_id":"ce4bhsp2rcd13ifvqi50","pricing_plan_id":"cebpf4jnsgd1na2vs0mg"},{"bike_id":"2c7c94fd-726c-404e-9c3a-d59a9bcacb35","system_id":"levelo_inurba_marseille","lat":43.315644,"lon":5.380093,"is_reserved":false,"is_disabled":false,"rental_uris":{"android":"levelo://app?vid=2c7c94fd-726c-404e-9c3a-d59a9bcacb35","ios":"levelo://app?vid=2c7c94fd-726c-404e-9c3a-d59a9bcacb35"},"vehicle_type_id":"4","last_reported":1718950311,"current_range_meters":24000,"station_id":"ce4bhsp2rcd13ifvqi50","pricing_plan_id":"cebpf4jnsgd1na2vs0mg"},{"bike_id":"d1fb9e50-c503-47d4-8344-591764e1c8e2","system_id":"levelo_inurba_marseille","lat":43.30189,"lon":5.36617,"is_reserved":false,"is_disabled":false,"rental_uris":{"android":"levelo://app?vid=d1fb9e50-c503-47d4-8344-591764e1c8e2","ios":"levelo://app?vid=d1fb9e50-c503-47d4-8344-591764e1c8e2"},"vehicle_type_id":"4","last_reported":1718950311,"current_range_meters":11200,"station_id":"","pricing_plan_id":"cebpf4jnsgd1na2vs0mg"},{"bike_id":"1a30177b-e43e-4a0a-b703-723038341275","system_id":"levelo_inurba_marseille","lat":43.301939,"lon":5.366286,"is_reserved":false,"is_disabled":false,"rental_uris":{"android":"levelo://app?vid=1a30177b-e43e-4a0a-b703-723038341275","ios":"levelo://app?vid=1a30177b-e43e-4a0a-b703-723038341275"},"vehicle_type_id":"4","last_reported":1718950311,"current_range_meters":25200,"station_id":"ce4bgrh2rcd13ifvqc8g","pricing_plan_id":"cebpf4jnsgd1na2vs0mg"},{"bike_id":"1faf8623-2f6a-459e-bc64-eb6eafb0530a","system_id":"levelo_inurba_marseille","lat":43.308012,"lon":5.381511,"is_reserved":false,"is_disabled":false,"rental_uris":{"android":"levelo://app?vid=1faf8623-2f6a-459e-bc64-eb6eafb0530a","ios":"levelo://app?vid=1faf8623-2f6a-459e-bc64-eb6eafb0530a"},"vehicle_type_id":"4","last_reported":1718950311,"current_range_meters":27600,"station_id":"ce4bgt12rcd13ifvqce0","pricing_plan_id":"cebpf4jnsgd1na2vs0mg"},{"bike_id":"79285ab5-715c-4980-ad9d-8a42f07069d9","system_id":"levelo_inurba_marseille","lat":43.308012,"lon":5.381511,"is_reserved":false,"is_disabled":false,"rental_uris":{"android":"levelo://app?vid=79285ab5-715c-4980-ad9d-8a42f07069d9","ios":"levelo://app?vid=79285ab5-715c-4980-ad9d-8a42f07069d9"},"vehicle_type_id":"4","last_reported":1718950311,"current_range_meters":18800,"station_id":"ce4bgt12rcd13ifvqce0","pricing_plan_id":"cebpf4jnsgd1na2vs0mg"},{"bike_id":"8bb13671-f8b6-4079-b6ab-dfd28e506d8b","system_id":"levelo_inurba_marseille","lat":43.308012,"lon":5.381511,"is_reserved":false,"is_disabled":false,"rental_uris":{"android":"levelo://app?vid=8bb13671-f8b6-4079-b6ab-dfd28e506d8b","ios":"levelo://app?vid=8bb13671-f8b6-4079-b6ab-dfd28e506d8b"},"vehicle_type_id":"4","last_reported":1718950311,"current_range_meters":27600,"station_id":"ce4bgt12rcd13ifvqce0","pricing_plan_id":"cebpf4jnsgd1na2vs0mg"},{"bike_id":"1e37087b-ac87-49e2-bb62-bed3d7bc6bc2","system_id":"levelo_inurba_marseille","lat":43.308034,"lon":5.381616,"is_reserved":false,"is_disabled":false,"rental_uris":{"android":"levelo://app?vid=1e37087b-ac87-49e2-bb62-bed3d7bc6bc2","ios":"levelo://app?vid=1e37087b-ac87-49e2-bb62-bed3d7bc6bc2"},"vehicle_type_id":"4","last_reported":1718950311,"current_range_meters":15600,"station_id":"ce4bgt12rcd13ifvqce0","pricing_plan_id":"cebpf4jnsgd1na2vs0mg"},{"bike_id":"95025079-caae-4d88-8ce7-9854973cf82f","system_id":"levelo_inurba_marseille","lat":43.308012,"lon":5.381511,"is_reserved":false,"is_disabled":false,"rental_uris":{"android":"levelo://app?vid=95025079-caae-4d88-8ce7-9854973cf82f","ios":"levelo://app?vid=95025079-caae-4d88-8ce7-9854973cf82f"},"vehicle_type_id":"4","last_reported":1718950311,"current_range_meters":15600,"station_id":"ce4bgt12rcd13ifvqce0","pricing_plan_id":"cebpf4jnsgd1na2vs0mg"},{"bike_id":"f1abf003-69ee-40fd-bedb-3ccc79a036b9","system_id":"levelo_inurba_marseille","lat":43.304606,"lon":5.379026,"is_reserved":false,"is_disabled":false,"rental_uris":{"android":"levelo://app?vid=f1abf003-69ee-40fd-bedb-3ccc79a036b9","ios":"levelo://app?vid=f1abf003-69ee-40fd-bedb-3ccc79a036b9"},"vehicle_type_id":"4","last_reported":1718950311,"current_range_meters":19600,"station_id":"ce4bgup2rcd13ifvqcn0","pricing_plan_id":"cebpf4jnsgd1na2vs0mg"},{"bike_id":"612bcf99-00c8-43a2-8a06-b36d59f983ec","system_id":"levelo_inurba_marseille","lat":43.304757,"lon":5.379043,"is_reserved":false,"is_disabled":false,"rental_uris":{"android":"levelo://app?vid=612bcf99-00c8-43a2-8a06-b36d59f983ec","ios":"levelo://app?vid=612bcf99-00c8-43a2-8a06-b36d59f983ec"},"vehicle_type_id":"4","last_reported":1718950311,"current_range_meters":29200,"station_id":"ce4bgup2rcd13ifvqcn0","pricing_plan_id":"cebpf4jnsgd1na2vs0mg"},{"bike_id":"1f6cb612-0e2a-46df-a06c-9c14d4da2fdc","system_id":"levelo_inurba_marseille","lat":43.304606,"lon":5.379026,"is_reserved":false,"is_disabled":false,"rental_uris":{"android":"levelo://app?vid=1f6cb612-0e2a-46df-a06c-9c14d4da2fdc","ios":"levelo://app?vid=1f6cb612-0e2a-46df-a06c-9c14d4da2fdc"},"vehicle_type_id":"4","last_reported":1718950311,"current_range_meters":18400,"station_id":"ce4bgup2rcd13ifvqcn0","pricing_plan_id":"cebpf4jnsgd1na2vs0mg"},{"bike_id":"a1328072-b159-445a-9369-49d202774964","system_id":"levelo_inurba_marseille","lat":43.304606,"lon":5.379026,"is_reserved":false,"is_disabled":false,"rental_uris":{"android":"levelo://app?vid=a1328072-b159-445a-9369-49d202774964","ios":"levelo://app?vid=a1328072-b159-445a-9369-49d202774964"},"vehicle_type_id":"4","last_reported":1718950311,"current_range_meters":16800,"station_id":"ce4bgup2rcd13ifvqcn0","pricing_plan_id":"cebpf4jnsgd1na2vs0mg"},{"bike_id":"3b7587f1-b82b-433f-88cc-1ead2de10083","system_id":"levelo_inurba_marseille","lat":43.304606,"lon":5.379026,"is_reserved":false,"is_disabled":false,"rental_uris":{"android":"levelo://app?vid=3b7587f1-b82b-433f-88cc-1ead2de10083","ios":"levelo://app?vid=3b7587f1-b82b-433f-88cc-1ead2de10083"},"vehicle_type_id":"4","last_reported":1718950311,"current_range_meters":12800,"station_id":"ce4bgup2rcd13ifvqcn0","pricing_plan_id":"cebpf4jnsgd1na2vs0mg"},{"bike_id":"8e552dc8-f153-433c-ad5e-ed0de65d5c6b","system_id":"levelo_inurba_marseille","lat":43.30471,"lon":5.379053,"is_reserved":false,"is_disabled":false,"rental_uris":{"android":"levelo://app?vid=8e552dc8-f153-433c-ad5e-ed0de65d5c6b","ios":"levelo://app?vid=8e552dc8-f153-433c-ad5e-ed0de65d5c6b"},"vehicle_type_id":"4","last_reported":1718950311,"current_range_meters":27200,"station_id":"ce4bgup2rcd13ifvqcn0","pricing_plan_id":"cebpf4jnsgd1na2vs0mg"},{"bike_id":"bb08e8bd-2940-4917-8606-ec1f7c18ff5a","system_id":"levelo_inurba_marseille","lat":43.304606,"lon":5.379026,"is_reserved":false,"is_disabled":false,"rental_uris":{"android":"levelo://app?vid=bb08e8bd-2940-4917-8606-ec1f7c18ff5a","ios":"levelo://app?vid=bb08e8bd-2940-4917-8606-ec1f7c18ff5a"},"vehicle_type_id":"4","last_reported":1718950311,"current_range_meters":12800,"station_id":"ce4bgup2rcd13ifvqcn0","pricing_plan_id":"cebpf4jnsgd1na2vs0mg"},{"bike_id":"7a3fa0f6-9377-4d7e-b7ab-812522fc730a","system_id":"levelo_inurba_marseille","lat":43.304606,"lon":5.379026,"is_reserved":false,"is_disabled":false,"rental_uris":{"android":"levelo://app?vid=7a3fa0f6-9377-4d7e-b7ab-812522fc730a","ios":"levelo://app?vid=7a3fa0f6-9377-4d7e-b7ab-812522fc730a"},"vehicle_type_id":"4","last_reported":1718950311,"current_range_meters":10000,"station_id":"ce4bgup2rcd13ifvqcn0","pricing_plan_id":"cebpf4jnsgd1na2vs0mg"},{"bike_id":"17ff986b-400e-47f7-8886-27bd8cae81c5","system_id":"levelo_inurba_marseille","lat":43.304606,"lon":5.379026,"is_reserved":false,"is_disabled":false,"rental_uris":{"android":"levelo://app?vid=17ff986b-400e-47f7-8886-27bd8cae81c5","ios":"levelo://app?vid=17ff986b-400e-47f7-8886-27bd8cae81c5"},"vehicle_type_id":"4","last_reported":1718950311,"current_range_meters":29200,"station_id":"ce4bgup2rcd13ifvqcn0","pricing_plan_id":"cebpf4jnsgd1na2vs0mg"},{"bike_id":"60a4b7f4-90b1-44ea-b1fe-828484baf943","system_id":"levelo_inurba_marseille","lat":43.304606,"lon":5.379026,"is_reserved":false,"is_disabled":false,"rental_uris":{"android":"levelo://app?vid=60a4b7f4-90b1-44ea-b1fe-828484baf943","ios":"levelo://app?vid=60a4b7f4-90b1-44ea-b1fe-828484baf943"},"vehicle_type_id":"4","last_reported":1718950311,"current_range_meters":27600,"station_id":"ce4bgup2rcd13ifvqcn0","pricing_plan_id":"cebpf4jnsgd1na2vs0mg"},{"bike_id":"43468655-6d2b-416e-94f6-10582aa83ba7","system_id":"levelo_inurba_marseille","lat":43.304606,"lon":5.379026,"is_reserved":false,"is_disabled":false,"rental_uris":{"android":"levelo://app?vid=43468655-6d2b-416e-94f6-10582aa83ba7","ios":"levelo://app?vid=43468655-6d2b-416e-94f6-10582aa83ba7"},"vehicle_type_id":"4","last_reported":1718950311,"current_range_meters":25600,"station_id":"ce4bgup2rcd13ifvqcn0","pricing_plan_id":"cebpf4jnsgd1na2vs0mg"},{"bike_id":"6beaa4c1-13f8-4cb4-a5d6-e72b4a1e5bf4","system_id":"levelo_inurba_marseille","lat":43.30471,"lon":5.37909,"is_reserved":false,"is_disabled":false,"rental_uris":{"android":"levelo://app?vid=6beaa4c1-13f8-4cb4-a5d6-e72b4a1e5bf4","ios":"levelo://app?vid=6beaa4c1-13f8-4cb4-a5d6-e72b4a1e5bf4"},"vehicle_type_id":"4","last_reported":1718950311,"current_range_meters":0,"station_id":"ce4bgup2rcd13ifvqcn0","pricing_plan_id":"cebpf4jnsgd1na2vs0mg"},{"bike_id":"8c107d6e-617c-4569-8bb5-8ac662e028de","system_id":"levelo_inurba_marseille","lat":43.30467,"lon":5.379043,"is_reserved":false,"is_disabled":false,"rental_uris":{"android":"levelo://app?vid=8c107d6e-617c-4569-8bb5-8ac662e028de","ios":"levelo://app?vid=8c107d6e-617c-4569-8bb5-8ac662e028de"},"vehicle_type_id":"4","last_reported":1718950311,"current_range_meters":23600,"station_id":"ce4bgup2rcd13ifvqcn0","pricing_plan_id":"cebpf4jnsgd1na2vs0mg"},{"bike_id":"04113fd1-140a-4e52-bf34-08561cb02f6e","system_id":"levelo_inurba_marseille","lat":43.304606,"lon":5.379026,"is_reserved":false,"is_disabled":false,"rental_uris":{"android":"levelo://app?vid=04113fd1-140a-4e52-bf34-08561cb02f6e","ios":"levelo://app?vid=04113fd1-140a-4e52-bf34-08561cb02f6e"},"vehicle_type_id":"4","last_reported":1718950311,"current_range_meters":12800,"station_id":"ce4bgup2rcd13ifvqcn0","pricing_plan_id":"cebpf4jnsgd1na2vs0mg"},{"bike_id":"db2aa54a-9d04-4b23-bb23-0cc6670cb7a0","system_id":"levelo_inurba_marseille","lat":43.304606,"lon":5.379026,"is_reserved":false,"is_disabled":false,"rental_uris":{"android":"levelo://app?vid=db2aa54a-9d04-4b23-bb23-0cc6670cb7a0","ios":"levelo://app?vid=db2aa54a-9d04-4b23-bb23-0cc6670cb7a0"},"vehicle_type_id":"4","last_reported":1718950311,"current_range_meters":3200,"station_id":"ce4bgup2rcd13ifvqcn0","pricing_plan_id":"cebpf4jnsgd1na2vs0mg"},{"bike_id":"b294636f-1a32-4517-a34f-c328120ecbc0","system_id":"levelo_inurba_marseille","lat":43.30468,"lon":5.37908,"is_reserved":false,"is_disabled":false,"rental_uris":{"android":"levelo://app?vid=b294636f-1a32-4517-a34f-c328120ecbc0","ios":"levelo://app?vid=b294636f-1a32-4517-a34f-c328120ecbc0"},"vehicle_type_id":"4","last_reported":1718950311,"current_range_meters":19600,"station_id":"ce4bgup2rcd13ifvqcn0","pricing_plan_id":"cebpf4jnsgd1na2vs0mg"},{"bike_id":"bea4080a-99b7-4ee7-931c-a6204045538e","system_id":"levelo_inurba_marseille","lat":43.304675,"lon":5.37908,"is_reserved":false,"is_disabled":false,"rental_uris":{"android":"levelo://app?vid=bea4080a-99b7-4ee7-931c-a6204045538e","ios":"levelo://app?vid=bea4080a-99b7-4ee7-931c-a6204045538e"},"vehicle_type_id":"4","last_reported":1718950311,"current_range_meters":26000,"station_id":"ce4bgup2rcd13ifvqcn0","pricing_plan_id":"cebpf4jnsgd1na2vs0mg"},{"bike_id":"c9dd973c-299f-4229-aa63-25c632f698dc","system_id":"levelo_inurba_marseille","lat":43.304606,"lon":5.379026,"is_reserved":false,"is_disabled":false,"rental_uris":{"android":"levelo://app?vid=c9dd973c-299f-4229-aa63-25c632f698dc","ios":"levelo://app?vid=c9dd973c-299f-4229-aa63-25c632f698dc"},"vehicle_type_id":"4","last_reported":1718950311,"current_range_meters":5200,"station_id":"ce4bgup2rcd13ifvqcn0","pricing_plan_id":"cebpf4jnsgd1na2vs0mg"},{"bike_id":"54f23196-a0af-474e-84a2-82d6f873f46c","system_id":"levelo_inurba_marseille","lat":43.304606,"lon":5.379026,"is_reserved":false,"is_disabled":false,"rental_uris":{"android":"levelo://app?vid=54f23196-a0af-474e-84a2-82d6f873f46c","ios":"levelo://app?vid=54f23196-a0af-474e-84a2-82d6f873f46c"},"vehicle_type_id":"4","last_reported":1718950311,"current_range_meters":31600,"station_id":"ce4bgup2rcd13ifvqcn0","pricing_plan_id":"cebpf4jnsgd1na2vs0mg"},{"bike_id":"7137d3e4-9b70-489d-aa33-a1d033b25d3e","system_id":"levelo_inurba_marseille","lat":43.304606,"lon":5.379026,"is_reserved":false,"is_disabled":false,"rental_uris":{"android":"levelo://app?vid=7137d3e4-9b70-489d-aa33-a1d033b25d3e","ios":"levelo://app?vid=7137d3e4-9b70-489d-aa33-a1d033b25d3e"},"vehicle_type_id":"4","last_reported":1718950311,"current_range_meters":19600,"station_id":"ce4bgup2rcd13ifvqcn0","pricing_plan_id":"cebpf4jnsgd1na2vs0mg"},{"bike_id":"931733e1-bc4f-434c-92b2-baa164c73f05","system_id":"levelo_inurba_marseille","lat":43.30468,"lon":5.37911,"is_reserved":false,"is_disabled":false,"rental_uris":{"android":"levelo://app?vid=931733e1-bc4f-434c-92b2-baa164c73f05","ios":"levelo://app?vid=931733e1-bc4f-434c-92b2-baa164c73f05"},"vehicle_type_id":"4","last_reported":1718950311,"current_range_meters":14400,"station_id":"ce4bgup2rcd13ifvqcn0","pricing_plan_id":"cebpf4jnsgd1na2vs0mg"},{"bike_id":"2f3efbb9-5276-4fa0-adad-7078f126e624","system_id":"levelo_inurba_marseille","lat":43.304606,"lon":5.379026,"is_reserved":false,"is_disabled":false,"rental_uris":{"android":"levelo://app?vid=2f3efbb9-5276-4fa0-adad-7078f126e624","ios":"levelo://app?vid=2f3efbb9-5276-4fa0-adad-7078f126e624"},"vehicle_type_id":"4","last_reported":1718950311,"current_range_meters":12400,"station_id":"ce4bgup2rcd13ifvqcn0","pricing_plan_id":"cebpf4jnsgd1na2vs0mg"},{"bike_id":"efd6e6e2-5d69-41a7-ac11-a90659afd2ce","system_id":"levelo_inurba_marseille","lat":43.304606,"lon":5.379026,"is_reserved":false,"is_disabled":false,"rental_uris":{"android":"levelo://app?vid=efd6e6e2-5d69-41a7-ac11-a90659afd2ce","ios":"levelo://app?vid=efd6e6e2-5d69-41a7-ac11-a90659afd2ce"},"vehicle_type_id":"4","last_reported":1718950311,"current_range_meters":12800,"station_id":"ce4bgup2rcd13ifvqcn0","pricing_plan_id":"cebpf4jnsgd1na2vs0mg"},{"bike_id":"b486f50a-db95-4851-88da-54de5712e11e","system_id":"levelo_inurba_marseille","lat":43.304606,"lon":5.379026,"is_reserved":false,"is_disabled":false,"rental_uris":{"android":"levelo://app?vid=b486f50a-db95-4851-88da-54de5712e11e","ios":"levelo://app?vid=b486f50a-db95-4851-88da-54de5712e11e"},"vehicle_type_id":"4","last_reported":1718950311,"current_range_meters":12800,"station_id":"ce4bgup2rcd13ifvqcn0","pricing_plan_id":"cebpf4jnsgd1na2vs0mg"},{"bike_id":"205cb472-acb6-43b6-91d2-0765a91b27e4","system_id":"levelo_inurba_marseille","lat":43.30462,"lon":5.37905,"is_reserved":false,"is_disabled":false,"rental_uris":{"android":"levelo://app?vid=205cb472-acb6-43b6-91d2-0765a91b27e4","ios":"levelo://app?vid=205cb472-acb6-43b6-91d2-0765a91b27e4"},"vehicle_type_id":"4","last_reported":1718950311,"current_range_meters":20800,"station_id":"ce4bgup2rcd13ifvqcn0","pricing_plan_id":"cebpf4jnsgd1na2vs0mg"},{"bike_id":"9100f909-501b-444f-8955-40c80d5f2bd7","system_id":"levelo_inurba_marseille","lat":43.304606,"lon":5.379026,"is_reserved":false,"is_disabled":false,"rental_uris":{"android":"levelo://app?vid=9100f909-501b-444f-8955-40c80d5f2bd7","ios":"levelo://app?vid=9100f909-501b-444f-8955-40c80d5f2bd7"},"vehicle_type_id":"4","last_reported":1718950311,"current_range_meters":20000,"station_id":"ce4bgup2rcd13ifvqcn0","pricing_plan_id":"cebpf4jnsgd1na2vs0mg"},{"bike_id":"079e5132-4ab4-452a-8f24-32132c42f051","system_id":"levelo_inurba_marseille","lat":43.304606,"lon":5.379026,"is_reserved":false,"is_disabled":false,"rental_uris":{"android":"levelo://app?vid=079e5132-4ab4-452a-8f24-32132c42f051","ios":"levelo://app?vid=079e5132-4ab4-452a-8f24-32132c42f051"},"vehicle_type_id":"4","last_reported":1718950311,"current_range_meters":1600,"station_id":"ce4bgup2rcd13ifvqcn0","pricing_plan_id":"cebpf4jnsgd1na2vs0mg"},{"bike_id":"92085594-830f-4fe4-9095-b6d4fe246543","system_id":"levelo_inurba_marseille","lat":43.304606,"lon":5.379026,"is_reserved":false,"is_disabled":false,"rental_uris":{"android":"levelo://app?vid=92085594-830f-4fe4-9095-b6d4fe246543","ios":"levelo://app?vid=92085594-830f-4fe4-9095-b6d4fe246543"},"vehicle_type_id":"4","last_reported":1718950311,"current_range_meters":31600,"station_id":"ce4bgup2rcd13ifvqcn0","pricing_plan_id":"cebpf4jnsgd1na2vs0mg"},{"bike_id":"e7965334-c51d-4fbd-842e-01e46e31a4b5","system_id":"levelo_inurba_marseille","lat":43.30466,"lon":5.37911,"is_reserved":false,"is_disabled":false,"rental_uris":{"android":"levelo://app?vid=e7965334-c51d-4fbd-842e-01e46e31a4b5","ios":"levelo://app?vid=e7965334-c51d-4fbd-842e-01e46e31a4b5"},"vehicle_type_id":"4","last_reported":1718950311,"current_range_meters":16000,"station_id":"ce4bgup2rcd13ifvqcn0","pricing_plan_id":"cebpf4jnsgd1na2vs0mg"},{"bike_id":"4f5fe144-cbc2-4801-91e0-53f2382c4498","system_id":"levelo_inurba_marseille","lat":43.304606,"lon":5.379026,"is_reserved":false,"is_disabled":false,"rental_uris":{"android":"levelo://app?vid=4f5fe144-cbc2-4801-91e0-53f2382c4498","ios":"levelo://app?vid=4f5fe144-cbc2-4801-91e0-53f2382c4498"},"vehicle_type_id":"4","last_reported":1718950311,"current_range_meters":21200,"station_id":"ce4bgup2rcd13ifvqcn0","pricing_plan_id":"cebpf4jnsgd1na2vs0mg"},{"bike_id":"65ffa8aa-b535-4ef9-aa78-7bff74bba4f2","system_id":"levelo_inurba_marseille","lat":43.304606,"lon":5.379026,"is_reserved":false,"is_disabled":false,"rental_uris":{"android":"levelo://app?vid=65ffa8aa-b535-4ef9-aa78-7bff74bba4f2","ios":"levelo://app?vid=65ffa8aa-b535-4ef9-aa78-7bff74bba4f2"},"vehicle_type_id":"4","last_reported":1718950311,"current_range_meters":31600,"station_id":"ce4bgup2rcd13ifvqcn0","pricing_plan_id":"cebpf4jnsgd1na2vs0mg"},{"bike_id":"785a8789-654b-4607-97e5-94c5e4c80dd0","system_id":"levelo_inurba_marseille","lat":43.304606,"lon":5.379026,"is_reserved":false,"is_disabled":false,"rental_uris":{"android":"levelo://app?vid=785a8789-654b-4607-97e5-94c5e4c80dd0","ios":"levelo://app?vid=785a8789-654b-4607-97e5-94c5e4c80dd0"},"vehicle_type_id":"4","last_reported":1718950311,"current_range_meters":6400,"station_id":"ce4bgup2rcd13ifvqcn0","pricing_plan_id":"cebpf4jnsgd1na2vs0mg"},{"bike_id":"efb6a906-1006-457f-af80-1274f3b7ab06","system_id":"levelo_inurba_marseille","lat":43.304606,"lon":5.379026,"is_reserved":false,"is_disabled":false,"rental_uris":{"android":"levelo://app?vid=efb6a906-1006-457f-af80-1274f3b7ab06","ios":"levelo://app?vid=efb6a906-1006-457f-af80-1274f3b7ab06"},"vehicle_type_id":"4","last_reported":1718950311,"current_range_meters":0,"station_id":"ce4bgup2rcd13ifvqcn0","pricing_plan_id":"cebpf4jnsgd1na2vs0mg"},{"bike_id":"8ac7f0a5-7046-477d-a7ea-ad5a01f45ce8","system_id":"levelo_inurba_marseille","lat":43.304606,"lon":5.379026,"is_reserved":false,"is_disabled":false,"rental_uris":{"android":"levelo://app?vid=8ac7f0a5-7046-477d-a7ea-ad5a01f45ce8","ios":"levelo://app?vid=8ac7f0a5-7046-477d-a7ea-ad5a01f45ce8"},"vehicle_type_id":"4","last_reported":1718950311,"current_range_meters":400,"station_id":"ce4bgup2rcd13ifvqcn0","pricing_plan_id":"cebpf4jnsgd1na2vs0mg"},{"bike_id":"6a1b0f76-d011-458f-9cc2-2198dadf0695","system_id":"levelo_inurba_marseille","lat":43.30461,"lon":5.37911,"is_reserved":false,"is_disabled":false,"rental_uris":{"android":"levelo://app?vid=6a1b0f76-d011-458f-9cc2-2198dadf0695","ios":"levelo://app?vid=6a1b0f76-d011-458f-9cc2-2198dadf0695"},"vehicle_type_id":"4","last_reported":1718950311,"current_range_meters":27600,"station_id":"ce4bgup2rcd13ifvqcn0","pricing_plan_id":"cebpf4jnsgd1na2vs0mg"},{"bike_id":"989fc11d-edec-4b97-899e-5c7569082687","system_id":"levelo_inurba_marseille","lat":43.3046,"lon":5.37911,"is_reserved":false,"is_disabled":false,"rental_uris":{"android":"levelo://app?vid=989fc11d-edec-4b97-899e-5c7569082687","ios":"levelo://app?vid=989fc11d-edec-4b97-899e-5c7569082687"},"vehicle_type_id":"4","last_reported":1718950311,"current_range_meters":21600,"station_id":"ce4bgup2rcd13ifvqcn0","pricing_plan_id":"cebpf4jnsgd1na2vs0mg"},{"bike_id":"97209d79-f353-40f5-8f7b-a875477ffb21","system_id":"levelo_inurba_marseille","lat":43.304637,"lon":5.37916,"is_reserved":false,"is_disabled":false,"rental_uris":{"android":"levelo://app?vid=97209d79-f353-40f5-8f7b-a875477ffb21","ios":"levelo://app?vid=97209d79-f353-40f5-8f7b-a875477ffb21"},"vehicle_type_id":"4","last_reported":1718950311,"current_range_meters":25600,"station_id":"ce4bgup2rcd13ifvqcn0","pricing_plan_id":"cebpf4jnsgd1na2vs0mg"},{"bike_id":"fc55a97b-3a55-4725-a1dc-c957f2ae216e","system_id":"levelo_inurba_marseille","lat":43.30462,"lon":5.37917,"is_reserved":false,"is_disabled":false,"rental_uris":{"android":"levelo://app?vid=fc55a97b-3a55-4725-a1dc-c957f2ae216e","ios":"levelo://app?vid=fc55a97b-3a55-4725-a1dc-c957f2ae216e"},"vehicle_type_id":"4","last_reported":1718950311,"current_range_meters":14000,"station_id":"ce4bgup2rcd13ifvqcn0","pricing_plan_id":"cebpf4jnsgd1na2vs0mg"},{"bike_id":"567b5141-c983-4d68-8cd6-658453c35fee","system_id":"levelo_inurba_marseille","lat":43.324771,"lon":5.36557,"is_reserved":false,"is_disabled":false,"rental_uris":{"android":"levelo://app?vid=567b5141-c983-4d68-8cd6-658453c35fee","ios":"levelo://app?vid=567b5141-c983-4d68-8cd6-658453c35fee"},"vehicle_type_id":"4","last_reported":1718950311,"current_range_meters":14000,"station_id":"ce4bhs12rcd13ifvqhvg","pricing_plan_id":"cebpf4jnsgd1na2vs0mg"},{"bike_id":"351f46b0-0bbd-4fa9-915b-954746da8f49","system_id":"levelo_inurba_marseille","lat":43.324771,"lon":5.36557,"is_reserved":false,"is_disabled":false,"rental_uris":{"android":"levelo://app?vid=351f46b0-0bbd-4fa9-915b-954746da8f49","ios":"levelo://app?vid=351f46b0-0bbd-4fa9-915b-954746da8f49"},"vehicle_type_id":"4","last_reported":1718950311,"current_range_meters":28000,"station_id":"ce4bhs12rcd13ifvqhvg","pricing_plan_id":"cebpf4jnsgd1na2vs0mg"},{"bike_id":"2e4eedb6-9f53-4953-9163-a76b1ba2d868","system_id":"levelo_inurba_marseille","lat":43.324771,"lon":5.36557,"is_reserved":false,"is_disabled":false,"rental_uris":{"android":"levelo://app?vid=2e4eedb6-9f53-4953-9163-a76b1ba2d868","ios":"levelo://app?vid=2e4eedb6-9f53-4953-9163-a76b1ba2d868"},"vehicle_type_id":"4","last_reported":1718950311,"current_range_meters":16000,"station_id":"ce4bhs12rcd13ifvqhvg","pricing_plan_id":"cebpf4jnsgd1na2vs0mg"},{"bike_id":"08f02087-9578-4188-a061-7470d6991f15","system_id":"levelo_inurba_marseille","lat":43.324858,"lon":5.365675,"is_reserved":false,"is_disabled":false,"rental_uris":{"android":"levelo://app?vid=08f02087-9578-4188-a061-7470d6991f15","ios":"levelo://app?vid=08f02087-9578-4188-a061-7470d6991f15"},"vehicle_type_id":"4","last_reported":1718950311,"current_range_meters":30800,"station_id":"ce4bhs12rcd13ifvqhvg","pricing_plan_id":"cebpf4jnsgd1na2vs0mg"},{"bike_id":"be5a79d1-208f-4fd3-ad03-299501adebff","system_id":"levelo_inurba_marseille","lat":43.324919,"lon":5.365727,"is_reserved":false,"is_disabled":false,"rental_uris":{"android":"levelo://app?vid=be5a79d1-208f-4fd3-ad03-299501adebff","ios":"levelo://app?vid=be5a79d1-208f-4fd3-ad03-299501adebff"},"vehicle_type_id":"4","last_reported":1718950311,"current_range_meters":30800,"station_id":"ce4bhs12rcd13ifvqhvg","pricing_plan_id":"cebpf4jnsgd1na2vs0mg"},{"bike_id":"7c4df707-ec8d-4659-9c00-d17744ed78ab","system_id":"levelo_inurba_marseille","lat":43.310676,"lon":5.383479,"is_reserved":false,"is_disabled":false,"rental_uris":{"android":"levelo://app?vid=7c4df707-ec8d-4659-9c00-d17744ed78ab","ios":"levelo://app?vid=7c4df707-ec8d-4659-9c00-d17744ed78ab"},"vehicle_type_id":"4","last_reported":1718950311,"current_range_meters":24400,"station_id":"ce4bgv92rcd13ifvqcr0","pricing_plan_id":"cebpf4jnsgd1na2vs0mg"},{"bike_id":"e3a35b89-7049-4345-be83-76deedd5707e","system_id":"levelo_inurba_marseille","lat":43.310804,"lon":5.38359,"is_reserved":false,"is_disabled":false,"rental_uris":{"android":"levelo://app?vid=e3a35b89-7049-4345-be83-76deedd5707e","ios":"levelo://app?vid=e3a35b89-7049-4345-be83-76deedd5707e"},"vehicle_type_id":"4","last_reported":1718950311,"current_range_meters":11200,"station_id":"ce4bgv92rcd13ifvqcr0","pricing_plan_id":"cebpf4jnsgd1na2vs0mg"},{"bike_id":"fcfefb24-326d-4618-ac95-451254aec9a9","system_id":"levelo_inurba_marseille","lat":43.31075,"lon":5.383518,"is_reserved":false,"is_disabled":false,"rental_uris":{"android":"levelo://app?vid=fcfefb24-326d-4618-ac95-451254aec9a9","ios":"levelo://app?vid=fcfefb24-326d-4618-ac95-451254aec9a9"},"vehicle_type_id":"4","last_reported":1718950311,"current_range_meters":30000,"station_id":"ce4bgv92rcd13ifvqcr0","pricing_plan_id":"cebpf4jnsgd1na2vs0mg"},{"bike_id":"aaf6b731-0c4f-4225-a161-1f0641b0c756","system_id":"levelo_inurba_marseille","lat":43.310804,"lon":5.38359,"is_reserved":false,"is_disabled":false,"rental_uris":{"android":"levelo://app?vid=aaf6b731-0c4f-4225-a161-1f0641b0c756","ios":"levelo://app?vid=aaf6b731-0c4f-4225-a161-1f0641b0c756"},"vehicle_type_id":"4","last_reported":1718950311,"current_range_meters":25200,"station_id":"ce4bgv92rcd13ifvqcr0","pricing_plan_id":"cebpf4jnsgd1na2vs0mg"},{"bike_id":"148ceb2c-a3f0-4524-8ab6-093fb6312bff","system_id":"levelo_inurba_marseille","lat":43.310716,"lon":5.383555,"is_reserved":false,"is_disabled":false,"rental_uris":{"android":"levelo://app?vid=148ceb2c-a3f0-4524-8ab6-093fb6312bff","ios":"levelo://app?vid=148ceb2c-a3f0-4524-8ab6-093fb6312bff"},"vehicle_type_id":"4","last_reported":1718950311,"current_range_meters":12800,"station_id":"ce4bgv92rcd13ifvqcr0","pricing_plan_id":"cebpf4jnsgd1na2vs0mg"},{"bike_id":"b5c32e22-dcec-4475-81de-836419b8bb35","system_id":"levelo_inurba_marseille","lat":43.310804,"lon":5.38359,"is_reserved":false,"is_disabled":false,"rental_uris":{"android":"levelo://app?vid=b5c32e22-dcec-4475-81de-836419b8bb35","ios":"levelo://app?vid=b5c32e22-dcec-4475-81de-836419b8bb35"},"vehicle_type_id":"4","last_reported":1718950311,"current_range_meters":24800,"station_id":"ce4bgv92rcd13ifvqcr0","pricing_plan_id":"cebpf4jnsgd1na2vs0mg"},{"bike_id":"bae68203-feb8-4352-8fcd-056541cb7c4a","system_id":"levelo_inurba_marseille","lat":43.310804,"lon":5.38359,"is_reserved":false,"is_disabled":false,"rental_uris":{"android":"levelo://app?vid=bae68203-feb8-4352-8fcd-056541cb7c4a","ios":"levelo://app?vid=bae68203-feb8-4352-8fcd-056541cb7c4a"},"vehicle_type_id":"4","last_reported":1718950311,"current_range_meters":24000,"station_id":"ce4bgv92rcd13ifvqcr0","pricing_plan_id":"cebpf4jnsgd1na2vs0mg"},{"bike_id":"fc39b69e-fb8d-4396-ac61-6d6da3eb54e2","system_id":"levelo_inurba_marseille","lat":43.310804,"lon":5.38359,"is_reserved":false,"is_disabled":false,"rental_uris":{"android":"levelo://app?vid=fc39b69e-fb8d-4396-ac61-6d6da3eb54e2","ios":"levelo://app?vid=fc39b69e-fb8d-4396-ac61-6d6da3eb54e2"},"vehicle_type_id":"4","last_reported":1718950311,"current_range_meters":30800,"station_id":"ce4bgv92rcd13ifvqcr0","pricing_plan_id":"cebpf4jnsgd1na2vs0mg"},{"bike_id":"db38d731-673b-4ff1-9894-d9d4525232c9","system_id":"levelo_inurba_marseille","lat":43.310723,"lon":5.383603,"is_reserved":false,"is_disabled":false,"rental_uris":{"android":"levelo://app?vid=db38d731-673b-4ff1-9894-d9d4525232c9","ios":"levelo://app?vid=db38d731-673b-4ff1-9894-d9d4525232c9"},"vehicle_type_id":"4","last_reported":1718950311,"current_range_meters":24800,"station_id":"ce4bgv92rcd13ifvqcr0","pricing_plan_id":"cebpf4jnsgd1na2vs0mg"},{"bike_id":"7b379b60-6038-4135-bdae-86998748a427","system_id":"levelo_inurba_marseille","lat":43.302784,"lon":5.377158,"is_reserved":false,"is_disabled":false,"rental_uris":{"android":"levelo://app?vid=7b379b60-6038-4135-bdae-86998748a427","ios":"levelo://app?vid=7b379b60-6038-4135-bdae-86998748a427"},"vehicle_type_id":"4","last_reported":1718950311,"current_range_meters":15600,"station_id":"ce4bguh2rcd13ifvqcj0","pricing_plan_id":"cebpf4jnsgd1na2vs0mg"},{"bike_id":"58d719cd-26bd-4329-9149-03770aa0c03c","system_id":"levelo_inurba_marseille","lat":43.302784,"lon":5.377158,"is_reserved":false,"is_disabled":false,"rental_uris":{"android":"levelo://app?vid=58d719cd-26bd-4329-9149-03770aa0c03c","ios":"levelo://app?vid=58d719cd-26bd-4329-9149-03770aa0c03c"},"vehicle_type_id":"4","last_reported":1718950311,"current_range_meters":8000,"station_id":"ce4bguh2rcd13ifvqcj0","pricing_plan_id":"cebpf4jnsgd1na2vs0mg"},{"bike_id":"80f64398-fed8-481d-b5b7-eb3a02f98d05","system_id":"levelo_inurba_marseille","lat":43.302784,"lon":5.377158,"is_reserved":false,"is_disabled":false,"rental_uris":{"android":"levelo://app?vid=80f64398-fed8-481d-b5b7-eb3a02f98d05","ios":"levelo://app?vid=80f64398-fed8-481d-b5b7-eb3a02f98d05"},"vehicle_type_id":"4","last_reported":1718950311,"current_range_meters":6400,"station_id":"ce4bguh2rcd13ifvqcj0","pricing_plan_id":"cebpf4jnsgd1na2vs0mg"},{"bike_id":"44d7d96f-06f9-42b7-bfcd-5d4f5c0b04e2","system_id":"levelo_inurba_marseille","lat":43.302784,"lon":5.377158,"is_reserved":false,"is_disabled":false,"rental_uris":{"android":"levelo://app?vid=44d7d96f-06f9-42b7-bfcd-5d4f5c0b04e2","ios":"levelo://app?vid=44d7d96f-06f9-42b7-bfcd-5d4f5c0b04e2"},"vehicle_type_id":"4","last_reported":1718950311,"current_range_meters":25200,"station_id":"ce4bguh2rcd13ifvqcj0","pricing_plan_id":"cebpf4jnsgd1na2vs0mg"},{"bike_id":"6b81f184-d2af-4071-ac2a-8465dab58f74","system_id":"levelo_inurba_marseille","lat":43.300623,"lon":5.371137,"is_reserved":false,"is_disabled":false,"rental_uris":{"android":"levelo://app?vid=6b81f184-d2af-4071-ac2a-8465dab58f74","ios":"levelo://app?vid=6b81f184-d2af-4071-ac2a-8465dab58f74"},"vehicle_type_id":"4","last_reported":1718950311,"current_range_meters":22400,"station_id":"","pricing_plan_id":"cebpf4jnsgd1na2vs0mg"},{"bike_id":"1df5e168-2847-4eb9-bed7-554b40f7d4d6","system_id":"levelo_inurba_marseille","lat":43.301429,"lon":5.37413,"is_reserved":false,"is_disabled":false,"rental_uris":{"android":"levelo://app?vid=1df5e168-2847-4eb9-bed7-554b40f7d4d6","ios":"levelo://app?vid=1df5e168-2847-4eb9-bed7-554b40f7d4d6"},"vehicle_type_id":"4","last_reported":1718950311,"current_range_meters":18000,"station_id":"ce4bgs92rcd13ifvqcc0","pricing_plan_id":"cebpf4jnsgd1na2vs0mg"},{"bike_id":"f8332fea-0fc2-4527-b3ed-1bd633dea8dc","system_id":"levelo_inurba_marseille","lat":43.301429,"lon":5.37413,"is_reserved":false,"is_disabled":false,"rental_uris":{"android":"levelo://app?vid=f8332fea-0fc2-4527-b3ed-1bd633dea8dc","ios":"levelo://app?vid=f8332fea-0fc2-4527-b3ed-1bd633dea8dc"},"vehicle_type_id":"4","last_reported":1718950311,"current_range_meters":29600,"station_id":"ce4bgs92rcd13ifvqcc0","pricing_plan_id":"cebpf4jnsgd1na2vs0mg"},{"bike_id":"e2cc3455-4450-4730-9b6e-1f1ddd842d63","system_id":"levelo_inurba_marseille","lat":43.301429,"lon":5.37413,"is_reserved":false,"is_disabled":false,"rental_uris":{"android":"levelo://app?vid=e2cc3455-4450-4730-9b6e-1f1ddd842d63","ios":"levelo://app?vid=e2cc3455-4450-4730-9b6e-1f1ddd842d63"},"vehicle_type_id":"4","last_reported":1718950311,"current_range_meters":24400,"station_id":"ce4bgs92rcd13ifvqcc0","pricing_plan_id":"cebpf4jnsgd1na2vs0mg"},{"bike_id":"6b905e94-1258-49ad-9357-1096105731cc","system_id":"levelo_inurba_marseille","lat":43.30137,"lon":5.37421,"is_reserved":false,"is_disabled":false,"rental_uris":{"android":"levelo://app?vid=6b905e94-1258-49ad-9357-1096105731cc","ios":"levelo://app?vid=6b905e94-1258-49ad-9357-1096105731cc"},"vehicle_type_id":"4","last_reported":1718950311,"current_range_meters":31200,"station_id":"ce4bgs92rcd13ifvqcc0","pricing_plan_id":"cebpf4jnsgd1na2vs0mg"},{"bike_id":"044be2e2-c998-4c19-ab86-37a851a67f50","system_id":"levelo_inurba_marseille","lat":43.30136,"lon":5.37421,"is_reserved":false,"is_disabled":false,"rental_uris":{"android":"levelo://app?vid=044be2e2-c998-4c19-ab86-37a851a67f50","ios":"levelo://app?vid=044be2e2-c998-4c19-ab86-37a851a67f50"},"vehicle_type_id":"4","last_reported":1718950311,"current_range_meters":11600,"station_id":"ce4bgs92rcd13ifvqcc0","pricing_plan_id":"cebpf4jnsgd1na2vs0mg"},{"bike_id":"6fb525be-4f83-40a0-b7c2-2eb028eb18b3","system_id":"levelo_inurba_marseille","lat":43.319935,"lon":5.381699,"is_reserved":false,"is_disabled":false,"rental_uris":{"android":"levelo://app?vid=6fb525be-4f83-40a0-b7c2-2eb028eb18b3","ios":"levelo://app?vid=6fb525be-4f83-40a0-b7c2-2eb028eb18b3"},"vehicle_type_id":"4","last_reported":1718950311,"current_range_meters":30800,"station_id":"ce4bhr12rcd13ifvqhpg","pricing_plan_id":"cebpf4jnsgd1na2vs0mg"},{"bike_id":"5ef14db4-b750-473c-873d-cc431c796412","system_id":"levelo_inurba_marseille","lat":43.319935,"lon":5.381699,"is_reserved":false,"is_disabled":false,"rental_uris":{"android":"levelo://app?vid=5ef14db4-b750-473c-873d-cc431c796412","ios":"levelo://app?vid=5ef14db4-b750-473c-873d-cc431c796412"},"vehicle_type_id":"4","last_reported":1718950311,"current_range_meters":9600,"station_id":"ce4bhr12rcd13ifvqhpg","pricing_plan_id":"cebpf4jnsgd1na2vs0mg"},{"bike_id":"d18c46dd-b3c1-4e24-a712-147090dd7e75","system_id":"levelo_inurba_marseille","lat":43.319935,"lon":5.381699,"is_reserved":false,"is_disabled":false,"rental_uris":{"android":"levelo://app?vid=d18c46dd-b3c1-4e24-a712-147090dd7e75","ios":"levelo://app?vid=d18c46dd-b3c1-4e24-a712-147090dd7e75"},"vehicle_type_id":"4","last_reported":1718950311,"current_range_meters":30800,"station_id":"ce4bhr12rcd13ifvqhpg","pricing_plan_id":"cebpf4jnsgd1na2vs0mg"},{"bike_id":"a791e37b-112d-432f-a0bd-612039f13ddc","system_id":"levelo_inurba_marseille","lat":43.319935,"lon":5.381699,"is_reserved":false,"is_disabled":false,"rental_uris":{"android":"levelo://app?vid=a791e37b-112d-432f-a0bd-612039f13ddc","ios":"levelo://app?vid=a791e37b-112d-432f-a0bd-612039f13ddc"},"vehicle_type_id":"4","last_reported":1718950311,"current_range_meters":11600,"station_id":"ce4bhr12rcd13ifvqhpg","pricing_plan_id":"cebpf4jnsgd1na2vs0mg"},{"bike_id":"94e1ab15-9b8e-478b-8414-d03bdaed8a23","system_id":"levelo_inurba_marseille","lat":43.31359,"lon":5.38494,"is_reserved":false,"is_disabled":false,"rental_uris":{"android":"levelo://app?vid=94e1ab15-9b8e-478b-8414-d03bdaed8a23","ios":"levelo://app?vid=94e1ab15-9b8e-478b-8414-d03bdaed8a23"},"vehicle_type_id":"4","last_reported":1718950311,"current_range_meters":24000,"station_id":"ce4bgt92rcd13ifvqcf0","pricing_plan_id":"cebpf4jnsgd1na2vs0mg"},{"bike_id":"9a0dae6f-532d-4608-9650-1ba5f5ad0f31","system_id":"levelo_inurba_marseille","lat":43.31359,"lon":5.38495,"is_reserved":false,"is_disabled":false,"rental_uris":{"android":"levelo://app?vid=9a0dae6f-532d-4608-9650-1ba5f5ad0f31","ios":"levelo://app?vid=9a0dae6f-532d-4608-9650-1ba5f5ad0f31"},"vehicle_type_id":"4","last_reported":1718950311,"current_range_meters":15200,"station_id":"ce4bgt92rcd13ifvqcf0","pricing_plan_id":"cebpf4jnsgd1na2vs0mg"},{"bike_id":"fb1dbbb3-b93d-4359-9f90-b2712704902b","system_id":"levelo_inurba_marseille","lat":43.313571,"lon":5.384829,"is_reserved":false,"is_disabled":false,"rental_uris":{"android":"levelo://app?vid=fb1dbbb3-b93d-4359-9f90-b2712704902b","ios":"levelo://app?vid=fb1dbbb3-b93d-4359-9f90-b2712704902b"},"vehicle_type_id":"4","last_reported":1718950311,"current_range_meters":30400,"station_id":"ce4bgt92rcd13ifvqcf0","pricing_plan_id":"cebpf4jnsgd1na2vs0mg"},{"bike_id":"83f36e9d-2289-4bb7-b164-5c663eb8e7bb","system_id":"levelo_inurba_marseille","lat":43.31363,"lon":5.38495,"is_reserved":false,"is_disabled":false,"rental_uris":{"android":"levelo://app?vid=83f36e9d-2289-4bb7-b164-5c663eb8e7bb","ios":"levelo://app?vid=83f36e9d-2289-4bb7-b164-5c663eb8e7bb"},"vehicle_type_id":"4","last_reported":1718950311,"current_range_meters":31200,"station_id":"ce4bgt92rcd13ifvqcf0","pricing_plan_id":"cebpf4jnsgd1na2vs0mg"},{"bike_id":"b8b603fe-50a2-49b1-a524-c9177a27eafd","system_id":"levelo_inurba_marseille","lat":43.31364,"lon":5.38496,"is_reserved":false,"is_disabled":false,"rental_uris":{"android":"levelo://app?vid=b8b603fe-50a2-49b1-a524-c9177a27eafd","ios":"levelo://app?vid=b8b603fe-50a2-49b1-a524-c9177a27eafd"},"vehicle_type_id":"4","last_reported":1718950311,"current_range_meters":17600,"station_id":"ce4bgt92rcd13ifvqcf0","pricing_plan_id":"cebpf4jnsgd1na2vs0mg"},{"bike_id":"537d1143-c169-4545-8112-bc0fd7deda47","system_id":"levelo_inurba_marseille","lat":43.31359,"lon":5.38497,"is_reserved":false,"is_disabled":false,"rental_uris":{"android":"levelo://app?vid=537d1143-c169-4545-8112-bc0fd7deda47","ios":"levelo://app?vid=537d1143-c169-4545-8112-bc0fd7deda47"},"vehicle_type_id":"4","last_reported":1718950311,"current_range_meters":29600,"station_id":"ce4bgt92rcd13ifvqcf0","pricing_plan_id":"cebpf4jnsgd1na2vs0mg"},{"bike_id":"f25a9fe3-f97b-45cb-bdcd-8b5f24c00e2f","system_id":"levelo_inurba_marseille","lat":43.313571,"lon":5.384829,"is_reserved":false,"is_disabled":false,"rental_uris":{"android":"levelo://app?vid=f25a9fe3-f97b-45cb-bdcd-8b5f24c00e2f","ios":"levelo://app?vid=f25a9fe3-f97b-45cb-bdcd-8b5f24c00e2f"},"vehicle_type_id":"4","last_reported":1718950311,"current_range_meters":31600,"station_id":"ce4bgt92rcd13ifvqcf0","pricing_plan_id":"cebpf4jnsgd1na2vs0mg"},{"bike_id":"624b9996-fc5d-4b87-8a0c-6598343c99c1","system_id":"levelo_inurba_marseille","lat":43.313571,"lon":5.384829,"is_reserved":false,"is_disabled":false,"rental_uris":{"android":"levelo://app?vid=624b9996-fc5d-4b87-8a0c-6598343c99c1","ios":"levelo://app?vid=624b9996-fc5d-4b87-8a0c-6598343c99c1"},"vehicle_type_id":"4","last_reported":1718950311,"current_range_meters":11600,"station_id":"ce4bgt92rcd13ifvqcf0","pricing_plan_id":"cebpf4jnsgd1na2vs0mg"},{"bike_id":"6e795a18-c699-4fde-afd7-3ca3516f833f","system_id":"levelo_inurba_marseille","lat":43.313675,"lon":5.38499,"is_reserved":false,"is_disabled":false,"rental_uris":{"android":"levelo://app?vid=6e795a18-c699-4fde-afd7-3ca3516f833f","ios":"levelo://app?vid=6e795a18-c699-4fde-afd7-3ca3516f833f"},"vehicle_type_id":"4","last_reported":1718950311,"current_range_meters":31200,"station_id":"ce4bgt92rcd13ifvqcf0","pricing_plan_id":"cebpf4jnsgd1na2vs0mg"},{"bike_id":"af28c7b7-78c6-4734-8b39-08dc62242e31","system_id":"levelo_inurba_marseille","lat":43.31368,"lon":5.38499,"is_reserved":false,"is_disabled":false,"rental_uris":{"android":"levelo://app?vid=af28c7b7-78c6-4734-8b39-08dc62242e31","ios":"levelo://app?vid=af28c7b7-78c6-4734-8b39-08dc62242e31"},"vehicle_type_id":"4","last_reported":1718950311,"current_range_meters":24800,"station_id":"ce4bgt92rcd13ifvqcf0","pricing_plan_id":"cebpf4jnsgd1na2vs0mg"},{"bike_id":"17049ca2-6317-4ba7-a206-e7682ff7ba7a","system_id":"levelo_inurba_marseille","lat":43.31371,"lon":5.38499,"is_reserved":false,"is_disabled":false,"rental_uris":{"android":"levelo://app?vid=17049ca2-6317-4ba7-a206-e7682ff7ba7a","ios":"levelo://app?vid=17049ca2-6317-4ba7-a206-e7682ff7ba7a"},"vehicle_type_id":"4","last_reported":1718950311,"current_range_meters":28400,"station_id":"ce4bgt92rcd13ifvqcf0","pricing_plan_id":"cebpf4jnsgd1na2vs0mg"},{"bike_id":"61b7f469-9c9e-4189-8fa9-3ac23d54fe58","system_id":"levelo_inurba_marseille","lat":43.313546,"lon":5.385006,"is_reserved":false,"is_disabled":false,"rental_uris":{"android":"levelo://app?vid=61b7f469-9c9e-4189-8fa9-3ac23d54fe58","ios":"levelo://app?vid=61b7f469-9c9e-4189-8fa9-3ac23d54fe58"},"vehicle_type_id":"4","last_reported":1718950311,"current_range_meters":22800,"station_id":"ce4bgt92rcd13ifvqcf0","pricing_plan_id":"cebpf4jnsgd1na2vs0mg"},{"bike_id":"799d565c-7771-4d14-a26e-3461a16c909d","system_id":"levelo_inurba_marseille","lat":43.31369,"lon":5.385,"is_reserved":false,"is_disabled":false,"rental_uris":{"android":"levelo://app?vid=799d565c-7771-4d14-a26e-3461a16c909d","ios":"levelo://app?vid=799d565c-7771-4d14-a26e-3461a16c909d"},"vehicle_type_id":"4","last_reported":1718950311,"current_range_meters":0,"station_id":"ce4bgt92rcd13ifvqcf0","pricing_plan_id":"cebpf4jnsgd1na2vs0mg"},{"bike_id":"d0b9d14c-f88b-47be-906f-929655a67453","system_id":"levelo_inurba_marseille","lat":43.31368,"lon":5.38501,"is_reserved":false,"is_disabled":false,"rental_uris":{"android":"levelo://app?vid=d0b9d14c-f88b-47be-906f-929655a67453","ios":"levelo://app?vid=d0b9d14c-f88b-47be-906f-929655a67453"},"vehicle_type_id":"4","last_reported":1718950311,"current_range_meters":30400,"station_id":"ce4bgt92rcd13ifvqcf0","pricing_plan_id":"cebpf4jnsgd1na2vs0mg"},{"bike_id":"32bc9e2c-da9d-41cf-88bf-c71fadd5f62c","system_id":"levelo_inurba_marseille","lat":43.31365,"lon":5.38503,"is_reserved":false,"is_disabled":false,"rental_uris":{"android":"levelo://app?vid=32bc9e2c-da9d-41cf-88bf-c71fadd5f62c","ios":"levelo://app?vid=32bc9e2c-da9d-41cf-88bf-c71fadd5f62c"},"vehicle_type_id":"4","last_reported":1718950311,"current_range_meters":2400,"station_id":"ce4bgt92rcd13ifvqcf0","pricing_plan_id":"cebpf4jnsgd1na2vs0mg"},{"bike_id":"871b53f7-c46d-4517-9e05-c9494218fed6","system_id":"levelo_inurba_marseille","lat":43.313571,"lon":5.384829,"is_reserved":false,"is_disabled":false,"rental_uris":{"android":"levelo://app?vid=871b53f7-c46d-4517-9e05-c9494218fed6","ios":"levelo://app?vid=871b53f7-c46d-4517-9e05-c9494218fed6"},"vehicle_type_id":"4","last_reported":1718950311,"current_range_meters":30400,"station_id":"ce4bgt92rcd13ifvqcf0","pricing_plan_id":"cebpf4jnsgd1na2vs0mg"},{"bike_id":"743ba892-7a12-4331-bf69-498f7f084b97","system_id":"levelo_inurba_marseille","lat":43.299724,"lon":5.371829,"is_reserved":false,"is_disabled":false,"rental_uris":{"android":"levelo://app?vid=743ba892-7a12-4331-bf69-498f7f084b97","ios":"levelo://app?vid=743ba892-7a12-4331-bf69-498f7f084b97"},"vehicle_type_id":"4","last_reported":1718950311,"current_range_meters":17200,"station_id":"ce4bgr92rcd13ifvqc7g","pricing_plan_id":"cebpf4jnsgd1na2vs0mg"},{"bike_id":"9012b57b-a212-428f-86c0-8537bb245066","system_id":"levelo_inurba_marseille","lat":43.305364,"lon":5.384119,"is_reserved":false,"is_disabled":false,"rental_uris":{"android":"levelo://app?vid=9012b57b-a212-428f-86c0-8537bb245066","ios":"levelo://app?vid=9012b57b-a212-428f-86c0-8537bb245066"},"vehicle_type_id":"4","last_reported":1718950311,"current_range_meters":10000,"station_id":"ce4bgg92rcd13ifvqb30","pricing_plan_id":"cebpf4jnsgd1na2vs0mg"},{"bike_id":"48c8d0ac-5736-428a-9716-5e2d19a4d92d","system_id":"levelo_inurba_marseille","lat":43.305364,"lon":5.384119,"is_reserved":false,"is_disabled":false,"rental_uris":{"android":"levelo://app?vid=48c8d0ac-5736-428a-9716-5e2d19a4d92d","ios":"levelo://app?vid=48c8d0ac-5736-428a-9716-5e2d19a4d92d"},"vehicle_type_id":"4","last_reported":1718950311,"current_range_meters":23600,"station_id":"ce4bgg92rcd13ifvqb30","pricing_plan_id":"cebpf4jnsgd1na2vs0mg"},{"bike_id":"0e5e3c6b-33d7-4a37-8561-848b300701ca","system_id":"levelo_inurba_marseille","lat":43.305364,"lon":5.384119,"is_reserved":false,"is_disabled":false,"rental_uris":{"android":"levelo://app?vid=0e5e3c6b-33d7-4a37-8561-848b300701ca","ios":"levelo://app?vid=0e5e3c6b-33d7-4a37-8561-848b300701ca"},"vehicle_type_id":"4","last_reported":1718950311,"current_range_meters":14800,"station_id":"ce4bgg92rcd13ifvqb30","pricing_plan_id":"cebpf4jnsgd1na2vs0mg"},{"bike_id":"1ff7c511-fb5c-45c6-b224-921e8b5d8260","system_id":"levelo_inurba_marseille","lat":43.305364,"lon":5.384119,"is_reserved":false,"is_disabled":false,"rental_uris":{"android":"levelo://app?vid=1ff7c511-fb5c-45c6-b224-921e8b5d8260","ios":"levelo://app?vid=1ff7c511-fb5c-45c6-b224-921e8b5d8260"},"vehicle_type_id":"4","last_reported":1718950311,"current_range_meters":20000,"station_id":"ce4bgg92rcd13ifvqb30","pricing_plan_id":"cebpf4jnsgd1na2vs0mg"},{"bike_id":"8f6eb46d-71de-46d5-9d34-992c2d749f76","system_id":"levelo_inurba_marseille","lat":43.305364,"lon":5.384119,"is_reserved":false,"is_disabled":false,"rental_uris":{"android":"levelo://app?vid=8f6eb46d-71de-46d5-9d34-992c2d749f76","ios":"levelo://app?vid=8f6eb46d-71de-46d5-9d34-992c2d749f76"},"vehicle_type_id":"4","last_reported":1718950311,"current_range_meters":31600,"station_id":"ce4bgg92rcd13ifvqb30","pricing_plan_id":"cebpf4jnsgd1na2vs0mg"},{"bike_id":"d0d3e3f3-cd53-481f-b0a8-75045e2f3d0b","system_id":"levelo_inurba_marseille","lat":43.305364,"lon":5.384119,"is_reserved":false,"is_disabled":false,"rental_uris":{"android":"levelo://app?vid=d0d3e3f3-cd53-481f-b0a8-75045e2f3d0b","ios":"levelo://app?vid=d0d3e3f3-cd53-481f-b0a8-75045e2f3d0b"},"vehicle_type_id":"4","last_reported":1718950311,"current_range_meters":25200,"station_id":"ce4bgg92rcd13ifvqb30","pricing_plan_id":"cebpf4jnsgd1na2vs0mg"},{"bike_id":"3dd959ab-7740-4069-9ef6-aa983e0072af","system_id":"levelo_inurba_marseille","lat":43.305364,"lon":5.384119,"is_reserved":false,"is_disabled":false,"rental_uris":{"android":"levelo://app?vid=3dd959ab-7740-4069-9ef6-aa983e0072af","ios":"levelo://app?vid=3dd959ab-7740-4069-9ef6-aa983e0072af"},"vehicle_type_id":"4","last_reported":1718950311,"current_range_meters":19600,"station_id":"ce4bgg92rcd13ifvqb30","pricing_plan_id":"cebpf4jnsgd1na2vs0mg"},{"bike_id":"13ff433c-a311-424a-aad3-ef6706dcf51f","system_id":"levelo_inurba_marseille","lat":43.305364,"lon":5.384119,"is_reserved":false,"is_disabled":false,"rental_uris":{"android":"levelo://app?vid=13ff433c-a311-424a-aad3-ef6706dcf51f","ios":"levelo://app?vid=13ff433c-a311-424a-aad3-ef6706dcf51f"},"vehicle_type_id":"4","last_reported":1718950311,"current_range_meters":28400,"station_id":"ce4bgg92rcd13ifvqb30","pricing_plan_id":"cebpf4jnsgd1na2vs0mg"},{"bike_id":"cdcf4b6b-7830-43ea-a8b3-f58be1648475","system_id":"levelo_inurba_marseille","lat":43.311722,"lon":5.387247,"is_reserved":false,"is_disabled":false,"rental_uris":{"android":"levelo://app?vid=cdcf4b6b-7830-43ea-a8b3-f58be1648475","ios":"levelo://app?vid=cdcf4b6b-7830-43ea-a8b3-f58be1648475"},"vehicle_type_id":"4","last_reported":1718950311,"current_range_meters":29600,"station_id":"ce4bgv12rcd13ifvqcp0","pricing_plan_id":"cebpf4jnsgd1na2vs0mg"},{"bike_id":"8dd23ea4-9d10-415a-8d04-cec00d71e995","system_id":"levelo_inurba_marseille","lat":43.311722,"lon":5.387247,"is_reserved":false,"is_disabled":false,"rental_uris":{"android":"levelo://app?vid=8dd23ea4-9d10-415a-8d04-cec00d71e995","ios":"levelo://app?vid=8dd23ea4-9d10-415a-8d04-cec00d71e995"},"vehicle_type_id":"4","last_reported":1718950311,"current_range_meters":28800,"station_id":"ce4bgv12rcd13ifvqcp0","pricing_plan_id":"cebpf4jnsgd1na2vs0mg"},{"bike_id":"399fc086-f2fd-4010-82f9-c0b21c814b7b","system_id":"levelo_inurba_marseille","lat":43.311722,"lon":5.387247,"is_reserved":false,"is_disabled":false,"rental_uris":{"android":"levelo://app?vid=399fc086-f2fd-4010-82f9-c0b21c814b7b","ios":"levelo://app?vid=399fc086-f2fd-4010-82f9-c0b21c814b7b"},"vehicle_type_id":"4","last_reported":1718950311,"current_range_meters":19600,"station_id":"ce4bgv12rcd13ifvqcp0","pricing_plan_id":"cebpf4jnsgd1na2vs0mg"},{"bike_id":"79e17655-e69b-4e1f-b6a0-24b41e7c0703","system_id":"levelo_inurba_marseille","lat":43.31184,"lon":5.387145,"is_reserved":false,"is_disabled":false,"rental_uris":{"android":"levelo://app?vid=79e17655-e69b-4e1f-b6a0-24b41e7c0703","ios":"levelo://app?vid=79e17655-e69b-4e1f-b6a0-24b41e7c0703"},"vehicle_type_id":"4","last_reported":1718950311,"current_range_meters":22000,"station_id":"ce4bgv12rcd13ifvqcp0","pricing_plan_id":"cebpf4jnsgd1na2vs0mg"},{"bike_id":"22f73c25-8b4a-42bc-9a90-7e43fade9509","system_id":"levelo_inurba_marseille","lat":43.31165,"lon":5.38714,"is_reserved":false,"is_disabled":false,"rental_uris":{"android":"levelo://app?vid=22f73c25-8b4a-42bc-9a90-7e43fade9509","ios":"levelo://app?vid=22f73c25-8b4a-42bc-9a90-7e43fade9509"},"vehicle_type_id":"4","last_reported":1718950311,"current_range_meters":28400,"station_id":"ce4bgv12rcd13ifvqcp0","pricing_plan_id":"cebpf4jnsgd1na2vs0mg"},{"bike_id":"9c3d82af-4446-480a-86f1-4f6937f71cf7","system_id":"levelo_inurba_marseille","lat":43.311832,"lon":5.38716,"is_reserved":false,"is_disabled":false,"rental_uris":{"android":"levelo://app?vid=9c3d82af-4446-480a-86f1-4f6937f71cf7","ios":"levelo://app?vid=9c3d82af-4446-480a-86f1-4f6937f71cf7"},"vehicle_type_id":"4","last_reported":1718950311,"current_range_meters":29200,"station_id":"ce4bgv12rcd13ifvqcp0","pricing_plan_id":"cebpf4jnsgd1na2vs0mg"},{"bike_id":"c1b2867b-5896-4a13-b47e-e09a8e24b22b","system_id":"levelo_inurba_marseille","lat":43.299243,"lon":5.37481,"is_reserved":false,"is_disabled":false,"rental_uris":{"android":"levelo://app?vid=c1b2867b-5896-4a13-b47e-e09a8e24b22b","ios":"levelo://app?vid=c1b2867b-5896-4a13-b47e-e09a8e24b22b"},"vehicle_type_id":"4","last_reported":1718950311,"current_range_meters":27600,"station_id":"ce4bgjh2rcd13ifvqbg0","pricing_plan_id":"cebpf4jnsgd1na2vs0mg"},{"bike_id":"490cbc0e-3a93-4683-9c4c-9b7240674d81","system_id":"levelo_inurba_marseille","lat":43.311722,"lon":5.387247,"is_reserved":false,"is_disabled":false,"rental_uris":{"android":"levelo://app?vid=490cbc0e-3a93-4683-9c4c-9b7240674d81","ios":"levelo://app?vid=490cbc0e-3a93-4683-9c4c-9b7240674d81"},"vehicle_type_id":"4","last_reported":1718950311,"current_range_meters":31600,"station_id":"ce4bgv12rcd13ifvqcp0","pricing_plan_id":"cebpf4jnsgd1na2vs0mg"},{"bike_id":"d1cc12a5-f134-4041-8072-c5e1aef76bc1","system_id":"levelo_inurba_marseille","lat":43.297794,"lon":5.370888,"is_reserved":false,"is_disabled":false,"rental_uris":{"android":"levelo://app?vid=d1cc12a5-f134-4041-8072-c5e1aef76bc1","ios":"levelo://app?vid=d1cc12a5-f134-4041-8072-c5e1aef76bc1"},"vehicle_type_id":"4","last_reported":1718950311,"current_range_meters":26400,"station_id":"ce4bgop2rcd13ifvqc1g","pricing_plan_id":"cebpf4jnsgd1na2vs0mg"},{"bike_id":"a55c471c-8a57-41cf-b57c-3596dce2b8d0","system_id":"levelo_inurba_marseille","lat":43.297774,"lon":5.370875,"is_reserved":false,"is_disabled":false,"rental_uris":{"android":"levelo://app?vid=a55c471c-8a57-41cf-b57c-3596dce2b8d0","ios":"levelo://app?vid=a55c471c-8a57-41cf-b57c-3596dce2b8d0"},"vehicle_type_id":"4","last_reported":1718950311,"current_range_meters":28000,"station_id":"ce4bgop2rcd13ifvqc1g","pricing_plan_id":"cebpf4jnsgd1na2vs0mg"},{"bike_id":"c465c62e-61c7-48d7-a805-f69612b94b6d","system_id":"levelo_inurba_marseille","lat":43.322872,"lon":5.382756,"is_reserved":false,"is_disabled":false,"rental_uris":{"android":"levelo://app?vid=c465c62e-61c7-48d7-a805-f69612b94b6d","ios":"levelo://app?vid=c465c62e-61c7-48d7-a805-f69612b94b6d"},"vehicle_type_id":"4","last_reported":1718950311,"current_range_meters":0,"station_id":"ce4bhr12rcd13ifvqhqg","pricing_plan_id":"cebpf4jnsgd1na2vs0mg"},{"bike_id":"40db0ece-dad7-42a4-8ade-b529b66cb0dd","system_id":"levelo_inurba_marseille","lat":43.297774,"lon":5.370875,"is_reserved":false,"is_disabled":false,"rental_uris":{"android":"levelo://app?vid=40db0ece-dad7-42a4-8ade-b529b66cb0dd","ios":"levelo://app?vid=40db0ece-dad7-42a4-8ade-b529b66cb0dd"},"vehicle_type_id":"4","last_reported":1718950311,"current_range_meters":28400,"station_id":"ce4bgop2rcd13ifvqc1g","pricing_plan_id":"cebpf4jnsgd1na2vs0mg"},{"bike_id":"4ce75b2e-c117-4c0f-8286-ef4f2372b01a","system_id":"levelo_inurba_marseille","lat":43.297163,"lon":5.365866,"is_reserved":false,"is_disabled":false,"rental_uris":{"android":"levelo://app?vid=4ce75b2e-c117-4c0f-8286-ef4f2372b01a","ios":"levelo://app?vid=4ce75b2e-c117-4c0f-8286-ef4f2372b01a"},"vehicle_type_id":"4","last_reported":1718950311,"current_range_meters":19200,"station_id":"ce4bgn12rcd13ifvqbt0","pricing_plan_id":"cebpf4jnsgd1na2vs0mg"},{"bike_id":"284cd0e5-5eb0-48e6-ab0a-86bfe253e84d","system_id":"levelo_inurba_marseille","lat":43.297163,"lon":5.365866,"is_reserved":false,"is_disabled":false,"rental_uris":{"android":"levelo://app?vid=284cd0e5-5eb0-48e6-ab0a-86bfe253e84d","ios":"levelo://app?vid=284cd0e5-5eb0-48e6-ab0a-86bfe253e84d"},"vehicle_type_id":"4","last_reported":1718950311,"current_range_meters":26800,"station_id":"ce4bgn12rcd13ifvqbt0","pricing_plan_id":"cebpf4jnsgd1na2vs0mg"},{"bike_id":"5b027f62-a810-47ea-873a-743d95e03515","system_id":"levelo_inurba_marseille","lat":43.297163,"lon":5.365866,"is_reserved":false,"is_disabled":false,"rental_uris":{"android":"levelo://app?vid=5b027f62-a810-47ea-873a-743d95e03515","ios":"levelo://app?vid=5b027f62-a810-47ea-873a-743d95e03515"},"vehicle_type_id":"4","last_reported":1718950311,"current_range_meters":22800,"station_id":"ce4bgn12rcd13ifvqbt0","pricing_plan_id":"cebpf4jnsgd1na2vs0mg"},{"bike_id":"0dbaa8f6-90fc-44d9-af71-742b098aefef","system_id":"levelo_inurba_marseille","lat":43.29697,"lon":5.367769,"is_reserved":false,"is_disabled":false,"rental_uris":{"android":"levelo://app?vid=0dbaa8f6-90fc-44d9-af71-742b098aefef","ios":"levelo://app?vid=0dbaa8f6-90fc-44d9-af71-742b098aefef"},"vehicle_type_id":"4","last_reported":1718950311,"current_range_meters":28400,"station_id":"","pricing_plan_id":"cebpf4jnsgd1na2vs0mg"},{"bike_id":"d95118df-61a3-48cf-8eae-61005a040137","system_id":"levelo_inurba_marseille","lat":43.29573,"lon":5.367355,"is_reserved":false,"is_disabled":false,"rental_uris":{"android":"levelo://app?vid=d95118df-61a3-48cf-8eae-61005a040137","ios":"levelo://app?vid=d95118df-61a3-48cf-8eae-61005a040137"},"vehicle_type_id":"4","last_reported":1718950311,"current_range_meters":27600,"station_id":"ce4bgph2rcd13ifvqc2g","pricing_plan_id":"cebpf4jnsgd1na2vs0mg"},{"bike_id":"487d4690-e2d7-4353-83d2-71f399bdbc28","system_id":"levelo_inurba_marseille","lat":43.32329,"lon":5.38531,"is_reserved":false,"is_disabled":false,"rental_uris":{"android":"levelo://app?vid=487d4690-e2d7-4353-83d2-71f399bdbc28","ios":"levelo://app?vid=487d4690-e2d7-4353-83d2-71f399bdbc28"},"vehicle_type_id":"4","last_reported":1718950311,"current_range_meters":1200,"station_id":"","pricing_plan_id":"cebpf4jnsgd1na2vs0mg"},{"bike_id":"a8f1dc37-d117-4285-a71c-e136fa418a54","system_id":"levelo_inurba_marseille","lat":43.296935,"lon":5.376544,"is_reserved":false,"is_disabled":false,"rental_uris":{"android":"levelo://app?vid=a8f1dc37-d117-4285-a71c-e136fa418a54","ios":"levelo://app?vid=a8f1dc37-d117-4285-a71c-e136fa418a54"},"vehicle_type_id":"4","last_reported":1718950311,"current_range_meters":28000,"station_id":"ce4bgkh2rcd13ifvqbl0","pricing_plan_id":"cebpf4jnsgd1na2vs0mg"},{"bike_id":"5d8cf63a-ef66-4fae-bc92-7d2d65edb2be","system_id":"levelo_inurba_marseille","lat":43.296921,"lon":5.376579,"is_reserved":false,"is_disabled":false,"rental_uris":{"android":"levelo://app?vid=5d8cf63a-ef66-4fae-bc92-7d2d65edb2be","ios":"levelo://app?vid=5d8cf63a-ef66-4fae-bc92-7d2d65edb2be"},"vehicle_type_id":"4","last_reported":1718950311,"current_range_meters":25600,"station_id":"ce4bgkh2rcd13ifvqbl0","pricing_plan_id":"cebpf4jnsgd1na2vs0mg"},{"bike_id":"e28355dd-636e-4957-b912-ea6144977895","system_id":"levelo_inurba_marseille","lat":43.29711,"lon":5.377,"is_reserved":false,"is_disabled":false,"rental_uris":{"android":"levelo://app?vid=e28355dd-636e-4957-b912-ea6144977895","ios":"levelo://app?vid=e28355dd-636e-4957-b912-ea6144977895"},"vehicle_type_id":"4","last_reported":1718950311,"current_range_meters":9600,"station_id":"","pricing_plan_id":"cebpf4jnsgd1na2vs0mg"},{"bike_id":"290b9967-8e3e-4db7-bfee-2600f775ee51","system_id":"levelo_inurba_marseille","lat":43.299028,"lon":5.381509,"is_reserved":false,"is_disabled":false,"rental_uris":{"android":"levelo://app?vid=290b9967-8e3e-4db7-bfee-2600f775ee51","ios":"levelo://app?vid=290b9967-8e3e-4db7-bfee-2600f775ee51"},"vehicle_type_id":"4","last_reported":1718950311,"current_range_meters":11600,"station_id":"ce4bgj12rcd13ifvqbc0","pricing_plan_id":"cebpf4jnsgd1na2vs0mg"},{"bike_id":"1d31fa5a-4fe5-4836-abfb-921f6f2063cc","system_id":"levelo_inurba_marseille","lat":43.309589,"lon":5.390258,"is_reserved":false,"is_disabled":false,"rental_uris":{"android":"levelo://app?vid=1d31fa5a-4fe5-4836-abfb-921f6f2063cc","ios":"levelo://app?vid=1d31fa5a-4fe5-4836-abfb-921f6f2063cc"},"vehicle_type_id":"4","last_reported":1718950311,"current_range_meters":27600,"station_id":"ce4bgup2rcd13ifvqco0","pricing_plan_id":"cebpf4jnsgd1na2vs0mg"},{"bike_id":"ebbfc6d4-bfe5-47da-bb97-efe302f9bfa1","system_id":"levelo_inurba_marseille","lat":43.31755,"lon":5.39009,"is_reserved":false,"is_disabled":false,"rental_uris":{"android":"levelo://app?vid=ebbfc6d4-bfe5-47da-bb97-efe302f9bfa1","ios":"levelo://app?vid=ebbfc6d4-bfe5-47da-bb97-efe302f9bfa1"},"vehicle_type_id":"4","last_reported":1718950311,"current_range_meters":30800,"station_id":"ce4bhqp2rcd13ifvqhng","pricing_plan_id":"cebpf4jnsgd1na2vs0mg"},{"bike_id":"82c79184-dbd2-43c5-a89e-064cdcc191ba","system_id":"levelo_inurba_marseille","lat":43.317557,"lon":5.390173,"is_reserved":false,"is_disabled":false,"rental_uris":{"android":"levelo://app?vid=82c79184-dbd2-43c5-a89e-064cdcc191ba","ios":"levelo://app?vid=82c79184-dbd2-43c5-a89e-064cdcc191ba"},"vehicle_type_id":"4","last_reported":1718950311,"current_range_meters":16000,"station_id":"ce4bhqp2rcd13ifvqhng","pricing_plan_id":"cebpf4jnsgd1na2vs0mg"},{"bike_id":"1c078ec5-81e0-4f56-87ea-de76b7b38858","system_id":"levelo_inurba_marseille","lat":43.317596,"lon":5.390134,"is_reserved":false,"is_disabled":false,"rental_uris":{"android":"levelo://app?vid=1c078ec5-81e0-4f56-87ea-de76b7b38858","ios":"levelo://app?vid=1c078ec5-81e0-4f56-87ea-de76b7b38858"},"vehicle_type_id":"4","last_reported":1718950311,"current_range_meters":26800,"station_id":"ce4bhqp2rcd13ifvqhng","pricing_plan_id":"cebpf4jnsgd1na2vs0mg"},{"bike_id":"94a26fef-f45b-48bd-b619-f219d8f733b6","system_id":"levelo_inurba_marseille","lat":43.317557,"lon":5.390173,"is_reserved":false,"is_disabled":false,"rental_uris":{"android":"levelo://app?vid=94a26fef-f45b-48bd-b619-f219d8f733b6","ios":"levelo://app?vid=94a26fef-f45b-48bd-b619-f219d8f733b6"},"vehicle_type_id":"4","last_reported":1718950311,"current_range_meters":28800,"station_id":"ce4bhqp2rcd13ifvqhng","pricing_plan_id":"cebpf4jnsgd1na2vs0mg"},{"bike_id":"e15f4444-78cb-48f8-af9d-e571d2018925","system_id":"levelo_inurba_marseille","lat":43.317557,"lon":5.390173,"is_reserved":false,"is_disabled":false,"rental_uris":{"android":"levelo://app?vid=e15f4444-78cb-48f8-af9d-e571d2018925","ios":"levelo://app?vid=e15f4444-78cb-48f8-af9d-e571d2018925"},"vehicle_type_id":"4","last_reported":1718950311,"current_range_meters":31600,"station_id":"ce4bhqp2rcd13ifvqhng","pricing_plan_id":"cebpf4jnsgd1na2vs0mg"},{"bike_id":"2740c8d3-965d-48cd-b3aa-af762888fb8f","system_id":"levelo_inurba_marseille","lat":43.317557,"lon":5.390173,"is_reserved":false,"is_disabled":false,"rental_uris":{"android":"levelo://app?vid=2740c8d3-965d-48cd-b3aa-af762888fb8f","ios":"levelo://app?vid=2740c8d3-965d-48cd-b3aa-af762888fb8f"},"vehicle_type_id":"4","last_reported":1718950311,"current_range_meters":30400,"station_id":"ce4bhqp2rcd13ifvqhng","pricing_plan_id":"cebpf4jnsgd1na2vs0mg"},{"bike_id":"ba431aca-c92b-4b0f-bfeb-127d15ca4f4a","system_id":"levelo_inurba_marseille","lat":43.317557,"lon":5.390173,"is_reserved":false,"is_disabled":false,"rental_uris":{"android":"levelo://app?vid=ba431aca-c92b-4b0f-bfeb-127d15ca4f4a","ios":"levelo://app?vid=ba431aca-c92b-4b0f-bfeb-127d15ca4f4a"},"vehicle_type_id":"4","last_reported":1718950311,"current_range_meters":29200,"station_id":"ce4bhqp2rcd13ifvqhng","pricing_plan_id":"cebpf4jnsgd1na2vs0mg"},{"bike_id":"edd3f4be-e97c-4a1e-81c4-653dd0754006","system_id":"levelo_inurba_marseille","lat":43.298037,"lon":5.381066,"is_reserved":false,"is_disabled":false,"rental_uris":{"android":"levelo://app?vid=edd3f4be-e97c-4a1e-81c4-653dd0754006","ios":"levelo://app?vid=edd3f4be-e97c-4a1e-81c4-653dd0754006"},"vehicle_type_id":"4","last_reported":1718950311,"current_range_meters":14400,"station_id":"ce4bgip2rcd13ifvqbb0","pricing_plan_id":"cebpf4jnsgd1na2vs0mg"},{"bike_id":"d9a05c6c-b504-47d0-b678-e94504712635","system_id":"levelo_inurba_marseille","lat":43.2958,"lon":5.37512,"is_reserved":false,"is_disabled":false,"rental_uris":{"android":"levelo://app?vid=d9a05c6c-b504-47d0-b678-e94504712635","ios":"levelo://app?vid=d9a05c6c-b504-47d0-b678-e94504712635"},"vehicle_type_id":"4","last_reported":1718950311,"current_range_meters":22000,"station_id":"ce4bgh92rcd13ifvqb50","pricing_plan_id":"cebpf4jnsgd1na2vs0mg"},{"bike_id":"39336065-1b60-4056-afd1-692e3b0a6a38","system_id":"levelo_inurba_marseille","lat":43.298037,"lon":5.381066,"is_reserved":false,"is_disabled":false,"rental_uris":{"android":"levelo://app?vid=39336065-1b60-4056-afd1-692e3b0a6a38","ios":"levelo://app?vid=39336065-1b60-4056-afd1-692e3b0a6a38"},"vehicle_type_id":"4","last_reported":1718950311,"current_range_meters":14400,"station_id":"ce4bgip2rcd13ifvqbb0","pricing_plan_id":"cebpf4jnsgd1na2vs0mg"},{"bike_id":"3dbf362a-3d1f-41fa-bc0a-4ac9da6a3ef9","system_id":"levelo_inurba_marseille","lat":43.295748,"lon":5.37522,"is_reserved":false,"is_disabled":false,"rental_uris":{"android":"levelo://app?vid=3dbf362a-3d1f-41fa-bc0a-4ac9da6a3ef9","ios":"levelo://app?vid=3dbf362a-3d1f-41fa-bc0a-4ac9da6a3ef9"},"vehicle_type_id":"4","last_reported":1718950311,"current_range_meters":27600,"station_id":"ce4bgh92rcd13ifvqb50","pricing_plan_id":"cebpf4jnsgd1na2vs0mg"},{"bike_id":"8dd09104-9d6a-4cac-8892-81d2c2f1b0d9","system_id":"levelo_inurba_marseille","lat":43.295748,"lon":5.37522,"is_reserved":false,"is_disabled":false,"rental_uris":{"android":"levelo://app?vid=8dd09104-9d6a-4cac-8892-81d2c2f1b0d9","ios":"levelo://app?vid=8dd09104-9d6a-4cac-8892-81d2c2f1b0d9"},"vehicle_type_id":"4","last_reported":1718950311,"current_range_meters":16000,"station_id":"ce4bgh92rcd13ifvqb50","pricing_plan_id":"cebpf4jnsgd1na2vs0mg"},{"bike_id":"d4e2d5b0-b1d8-4185-bfba-796dc58f5c41","system_id":"levelo_inurba_marseille","lat":43.29567,"lon":5.37505,"is_reserved":false,"is_disabled":false,"rental_uris":{"android":"levelo://app?vid=d4e2d5b0-b1d8-4185-bfba-796dc58f5c41","ios":"levelo://app?vid=d4e2d5b0-b1d8-4185-bfba-796dc58f5c41"},"vehicle_type_id":"4","last_reported":1718950311,"current_range_meters":31200,"station_id":"ce4bgh92rcd13ifvqb50","pricing_plan_id":"cebpf4jnsgd1na2vs0mg"},{"bike_id":"57508687-fec7-4160-a8f5-6d578813463b","system_id":"levelo_inurba_marseille","lat":43.295748,"lon":5.37522,"is_reserved":false,"is_disabled":false,"rental_uris":{"android":"levelo://app?vid=57508687-fec7-4160-a8f5-6d578813463b","ios":"levelo://app?vid=57508687-fec7-4160-a8f5-6d578813463b"},"vehicle_type_id":"4","last_reported":1718950311,"current_range_meters":12000,"station_id":"ce4bgh92rcd13ifvqb50","pricing_plan_id":"cebpf4jnsgd1na2vs0mg"},{"bike_id":"deab8c67-d417-478c-8e4d-cd3be76ff951","system_id":"levelo_inurba_marseille","lat":43.299707,"lon":5.384859,"is_reserved":false,"is_disabled":false,"rental_uris":{"android":"levelo://app?vid=deab8c67-d417-478c-8e4d-cd3be76ff951","ios":"levelo://app?vid=deab8c67-d417-478c-8e4d-cd3be76ff951"},"vehicle_type_id":"4","last_reported":1718950311,"current_range_meters":22800,"station_id":"ce4bgj92rcd13ifvqbd0","pricing_plan_id":"cebpf4jnsgd1na2vs0mg"},{"bike_id":"191d2d71-3813-4783-bcd1-0582a832047f","system_id":"levelo_inurba_marseille","lat":43.299707,"lon":5.384859,"is_reserved":false,"is_disabled":false,"rental_uris":{"android":"levelo://app?vid=191d2d71-3813-4783-bcd1-0582a832047f","ios":"levelo://app?vid=191d2d71-3813-4783-bcd1-0582a832047f"},"vehicle_type_id":"4","last_reported":1718950311,"current_range_meters":1200,"station_id":"ce4bgj92rcd13ifvqbd0","pricing_plan_id":"cebpf4jnsgd1na2vs0mg"},{"bike_id":"92f0266e-4596-4f0a-bbda-735818a809e3","system_id":"levelo_inurba_marseille","lat":43.29602,"lon":5.381084,"is_reserved":false,"is_disabled":false,"rental_uris":{"android":"levelo://app?vid=92f0266e-4596-4f0a-bbda-735818a809e3","ios":"levelo://app?vid=92f0266e-4596-4f0a-bbda-735818a809e3"},"vehicle_type_id":"4","last_reported":1718950311,"current_range_meters":10000,"station_id":"ce4bgl12rcd13ifvqbo0","pricing_plan_id":"cebpf4jnsgd1na2vs0mg"},{"bike_id":"2fbd675c-6b31-43ac-8846-4e501fd6ab74","system_id":"levelo_inurba_marseille","lat":43.29602,"lon":5.381084,"is_reserved":false,"is_disabled":false,"rental_uris":{"android":"levelo://app?vid=2fbd675c-6b31-43ac-8846-4e501fd6ab74","ios":"levelo://app?vid=2fbd675c-6b31-43ac-8846-4e501fd6ab74"},"vehicle_type_id":"4","last_reported":1718950311,"current_range_meters":9200,"station_id":"ce4bgl12rcd13ifvqbo0","pricing_plan_id":"cebpf4jnsgd1na2vs0mg"},{"bike_id":"ecf69a24-9b4c-47c1-9ee5-e70e9e1ffe62","system_id":"levelo_inurba_marseille","lat":43.29601,"lon":5.381084,"is_reserved":false,"is_disabled":false,"rental_uris":{"android":"levelo://app?vid=ecf69a24-9b4c-47c1-9ee5-e70e9e1ffe62","ios":"levelo://app?vid=ecf69a24-9b4c-47c1-9ee5-e70e9e1ffe62"},"vehicle_type_id":"4","last_reported":1718950311,"current_range_meters":28800,"station_id":"ce4bgl12rcd13ifvqbo0","pricing_plan_id":"cebpf4jnsgd1na2vs0mg"},{"bike_id":"3c81bcf7-45e8-4bfb-ac1a-b542c3ba096f","system_id":"levelo_inurba_marseille","lat":43.29601,"lon":5.381084,"is_reserved":false,"is_disabled":false,"rental_uris":{"android":"levelo://app?vid=3c81bcf7-45e8-4bfb-ac1a-b542c3ba096f","ios":"levelo://app?vid=3c81bcf7-45e8-4bfb-ac1a-b542c3ba096f"},"vehicle_type_id":"4","last_reported":1718950311,"current_range_meters":21200,"station_id":"ce4bgl12rcd13ifvqbo0","pricing_plan_id":"cebpf4jnsgd1na2vs0mg"},{"bike_id":"20cea11f-9fc1-4ded-a64f-45f13c37ebfc","system_id":"levelo_inurba_marseille","lat":43.29602,"lon":5.381084,"is_reserved":false,"is_disabled":false,"rental_uris":{"android":"levelo://app?vid=20cea11f-9fc1-4ded-a64f-45f13c37ebfc","ios":"levelo://app?vid=20cea11f-9fc1-4ded-a64f-45f13c37ebfc"},"vehicle_type_id":"4","last_reported":1718950311,"current_range_meters":22800,"station_id":"ce4bgl12rcd13ifvqbo0","pricing_plan_id":"cebpf4jnsgd1na2vs0mg"},{"bike_id":"bac8ae97-fc96-4dfc-9e10-364a6ed15cbc","system_id":"levelo_inurba_marseille","lat":43.29602,"lon":5.381084,"is_reserved":false,"is_disabled":false,"rental_uris":{"android":"levelo://app?vid=bac8ae97-fc96-4dfc-9e10-364a6ed15cbc","ios":"levelo://app?vid=bac8ae97-fc96-4dfc-9e10-364a6ed15cbc"},"vehicle_type_id":"4","last_reported":1718950311,"current_range_meters":23600,"station_id":"ce4bgl12rcd13ifvqbo0","pricing_plan_id":"cebpf4jnsgd1na2vs0mg"},{"bike_id":"1bd02ad0-6960-468b-9b50-df3d7031e8ed","system_id":"levelo_inurba_marseille","lat":43.29602,"lon":5.381084,"is_reserved":false,"is_disabled":false,"rental_uris":{"android":"levelo://app?vid=1bd02ad0-6960-468b-9b50-df3d7031e8ed","ios":"levelo://app?vid=1bd02ad0-6960-468b-9b50-df3d7031e8ed"},"vehicle_type_id":"4","last_reported":1718950311,"current_range_meters":20000,"station_id":"ce4bgl12rcd13ifvqbo0","pricing_plan_id":"cebpf4jnsgd1na2vs0mg"},{"bike_id":"1943e994-3a9d-4402-8895-41028aae8d10","system_id":"levelo_inurba_marseille","lat":43.292749,"lon":5.368402,"is_reserved":false,"is_disabled":false,"rental_uris":{"android":"levelo://app?vid=1943e994-3a9d-4402-8895-41028aae8d10","ios":"levelo://app?vid=1943e994-3a9d-4402-8895-41028aae8d10"},"vehicle_type_id":"4","last_reported":1718950311,"current_range_meters":24000,"station_id":"ce4bhbp2rcd13ifvqesg","pricing_plan_id":"cebpf4jnsgd1na2vs0mg"},