{"last_updated":1741601333,"ttl":60,"version":"2.2","data":{"bikes":[{"bike_id":"e3565dcf-4d34-49d7-919b-1234920ea466","system_id":"levelo_inurba_marseille","lat":43.33746,"lon":5.3745,"is_reserved":false,"is_disabled":false,"rental_uris":{"android":"levelo://app?vid=e3565dcf-4d34-49d7-919b-1234920ea466","ios":"levelo://app?vid=e3565dcf-4d34-49d7-919b-1234920ea466"},"vehicle_type_id":"4","last_reported":1741601333,"current_range_meters":27600,"station_id":"","pricing_plan_id":"cebpf4jnsgd1na2vs0mg"},{"bike_id":"ee1d2ad1-36ca-49dd-a328-f2a9a9994ecb","system_id":"levelo_inurba_marseille","lat":43.310869,"lon":5.38131,"is_reserved":false,"is_disabled":true,"rental_uris":{"android":"levelo://app?vid=ee1d2ad1-36ca-49dd-a328-f2a9a9994ecb","ios":"levelo://app?vid=ee1d2ad1-36ca-49dd-a328-f2a9a9994ecb"},"vehicle_type_id":"4","last_reported":1741601333,"current_range_meters":0,"station_id":"","pricing_plan_id":"cebpf4jnsgd1na2vs0mg"},{"bike_id":"6a00c328-746a-424c-873d-9d91f3d92b69","system_id":"levelo_inurba_marseille","lat":43.31341,"lon":5.37588,"is_reserved":false,"is_disabled":true,"rental_uris":{"android":"levelo://app?vid=6a00c328-746a-424c-873d-9d91f3d92b69","ios":"levelo://app?vid=6a00c328-746a-424c-873d-9d91f3d92b69"},"vehicle_type_id":"4","last_reported":1741601333,"current_range_meters":0,"station_id":"","pricing_plan_id":"cebpf4jnsgd1na2vs0mg"},{"bike_id":"42878884-7f81-420c-8333-acdaf6924a45","system_id":"levelo_inurba_marseille","lat":43.29045,"lon":5.39966,"is_reserved":false,"is_disabled":true,"rental_uris":{"android":"levelo://app?vid=42878884-7f81-420c-8333-acdaf6924a45","ios":"levelo://app?vid=42878884-7f81-420c-8333-acdaf6924a45"},"vehicle_type_id":"4","last_reported":1741601333,"current_range_meters":0,"station_id":"ce4bh392rcd13ifvqdm0","pricing_plan_id":"cebpf4jnsgd1na2vs0mg"},{"bike_id":"5e1eaa98-3118-4382-86a0-95e4c13024c2","system_id":"levelo_inurba_marseille","lat":43.25003,"lon":5.3893,"is_reserved":false,"is_disabled":true,"rental_uris":{"android":"levelo://app?vid=5e1eaa98-3118-4382-86a0-95e4c13024c2","ios":"levelo://app?vid=5e1eaa98-3118-4382-86a0-95e4c13024c2"},"vehicle_type_id":"4","last_reported":1741601333,"current_range_meters":0,"station_id":"ce4bhgp2rcd13ifvqfd0","pricing_plan_id":"cebpf4jnsgd1na2vs0mg"},{"bike_id":"b56cf960-9c27-45f8-af0a-7c584f0dc22e","system_id":"levelo_inurba_marseille","lat":43.28023,"lon":5.4197,"is_reserved":false,"is_disabled":true,"rental_uris":{"android":"levelo://app?vid=b56cf960-9c27-45f8-af0a-7c584f0dc22e","ios":"levelo://app?vid=b56cf960-9c27-45f8-af0a-7c584f0dc22e"},"vehicle_type_id":"4","last_reported":1741601333,"current_range_meters":0,"station_id":"ce4bho12rcd13ifvqh1g","pricing_plan_id":"cebpf4jnsgd1na2vs0mg"},{"bike_id":"00ad4488-8bbe-461d-bdb2-5beb7b1d8697","system_id":"levelo_inurba_marseille","lat":43.24642,"lon":5.38907,"is_reserved":false,"is_disabled":true,"rental_uris":{"android":"levelo://app?vid=00ad4488-8bbe-461d-bdb2-5beb7b1d8697","ios":"levelo://app?vid=00ad4488-8bbe-461d-bdb2-5beb7b1d8697"},"vehicle_type_id":"4","last_reported":1741601333,"current_range_meters":400,"station_id":"ce4bhg12rcd13ifvqf60","pricing_plan_id":"cebpf4jnsgd1na2vs0mg"},{"bike_id":"ee0cdd72-5196-4ccc-9ded-fe3798c46ce2","system_id":"levelo_inurba_marseille","lat":43.25824,"lon":5.39432,"is_reserved":false,"is_disabled":true,"rental_uris":{"android":"levelo://app?vid=ee0cdd72-5196-4ccc-9ded-fe3798c46ce2","ios":"levelo://app?vid=ee0cdd72-5196-4ccc-9ded-fe3798c46ce2"},"vehicle_type_id":"4","last_reported":1741601333,"current_range_meters":400,"station_id":"ce4bhip2rcd13ifvqft0","pricing_plan_id":"cebpf4jnsgd1na2vs0mg"},{"bike_id":"3be8f1e8-e44d-40a4-9754-ce3f4628762b","system_id":"levelo_inurba_marseille","lat":43.24198,"lon":5.39724,"is_reserved":false,"is_disabled":true,"rental_uris":{"android":"levelo://app?vid=3be8f1e8-e44d-40a4-9754-ce3f4628762b","ios":"levelo://app?vid=3be8f1e8-e44d-40a4-9754-ce3f4628762b"},"vehicle_type_id":"4","last_reported":1741601333,"current_range_meters":400,"station_id":"ce4bhn12rcd13ifvqgpg","pricing_plan_id":"cebpf4jnsgd1na2vs0mg"},{"bike_id":"433ba162-a065-4bde-a594-ee22be397314","system_id":"levelo_inurba_marseille","lat":43.27317,"lon":5.39113,"is_reserved":false,"is_disabled":true,"rental_uris":{"android":"levelo://app?vid=433ba162-a065-4bde-a594-ee22be397314","ios":"levelo://app?vid=433ba162-a065-4bde-a594-ee22be397314"},"vehicle_type_id":"4","last_reported":1741601333,"current_range_meters":800,"station_id":"ce4bhgp2rcd13ifvqfe0","pricing_plan_id":"cebpf4jnsgd1na2vs0mg"},{"bike_id":"0b41a417-5dab-43ec-a71a-abe58a530228","system_id":"levelo_inurba_marseille","lat":43.259343,"lon":5.409112,"is_reserved":false,"is_disabled":true,"rental_uris":{"android":"levelo://app?vid=0b41a417-5dab-43ec-a71a-abe58a530228","ios":"levelo://app?vid=0b41a417-5dab-43ec-a71a-abe58a530228"},"vehicle_type_id":"4","last_reported":1741601333,"current_range_meters":800,"station_id":"ce4bhm92rcd13ifvqglg","pricing_plan_id":"cebpf4jnsgd1na2vs0mg"},{"bike_id":"5d9163e0-29c8-4a47-9040-7b5e36323c8c","system_id":"levelo_inurba_marseille","lat":43.28616,"lon":5.37073,"is_reserved":false,"is_disabled":true,"rental_uris":{"android":"levelo://app?vid=5d9163e0-29c8-4a47-9040-7b5e36323c8c","ios":"levelo://app?vid=5d9163e0-29c8-4a47-9040-7b5e36323c8c"},"vehicle_type_id":"4","last_reported":1741601333,"current_range_meters":800,"station_id":"ce4bht12rcd13ifvqi60","pricing_plan_id":"cebpf4jnsgd1na2vs0mg"},{"bike_id":"82a4681a-266c-4648-9901-73c6d6240e94","system_id":"levelo_inurba_marseille","lat":43.25119,"lon":5.40316,"is_reserved":false,"is_disabled":true,"rental_uris":{"android":"levelo://app?vid=82a4681a-266c-4648-9901-73c6d6240e94","ios":"levelo://app?vid=82a4681a-266c-4648-9901-73c6d6240e94"},"vehicle_type_id":"4","last_reported":1741601333,"current_range_meters":1200,"station_id":"ce4bhlh2rcd13ifvqgig","pricing_plan_id":"cebpf4jnsgd1na2vs0mg"},{"bike_id":"d399c68f-4683-4187-95d7-e32ffde3c66c","system_id":"levelo_inurba_marseille","lat":43.25098,"lon":5.39528,"is_reserved":false,"is_disabled":true,"rental_uris":{"android":"levelo://app?vid=d399c68f-4683-4187-95d7-e32ffde3c66c","ios":"levelo://app?vid=d399c68f-4683-4187-95d7-e32ffde3c66c"},"vehicle_type_id":"4","last_reported":1741601333,"current_range_meters":1200,"station_id":"ce4bhm12rcd13ifvqgkg","pricing_plan_id":"cebpf4jnsgd1na2vs0mg"},{"bike_id":"262bc7cf-b185-4bbb-bec3-cddfd1c51233","system_id":"levelo_inurba_marseille","lat":43.25829,"lon":5.39434,"is_reserved":false,"is_disabled":true,"rental_uris":{"android":"levelo://app?vid=262bc7cf-b185-4bbb-bec3-cddfd1c51233","ios":"levelo://app?vid=262bc7cf-b185-4bbb-bec3-cddfd1c51233"},"vehicle_type_id":"4","last_reported":1741601333,"current_range_meters":1600,"station_id":"ce4bhip2rcd13ifvqft0","pricing_plan_id":"cebpf4jnsgd1na2vs0mg"},{"bike_id":"75ae85de-f904-49ac-bdf1-236e8540c16b","system_id":"levelo_inurba_marseille","lat":43.30888,"lon":5.39658,"is_reserved":false,"is_disabled":false,"rental_uris":{"android":"levelo://app?vid=75ae85de-f904-49ac-bdf1-236e8540c16b","ios":"levelo://app?vid=75ae85de-f904-49ac-bdf1-236e8540c16b"},"vehicle_type_id":"4","last_reported":1741601333,"current_range_meters":2000,"station_id":"ce4bh012rcd13ifvqcv0","pricing_plan_id":"cebpf4jnsgd1na2vs0mg"},{"bike_id":"7e1cae4b-6a51-40e2-9ca6-81b0268ef969","system_id":"levelo_inurba_marseille","lat":43.24674,"lon":5.38161,"is_reserved":false,"is_disabled":true,"rental_uris":{"android":"levelo://app?vid=7e1cae4b-6a51-40e2-9ca6-81b0268ef969","ios":"levelo://app?vid=7e1cae4b-6a51-40e2-9ca6-81b0268ef969"},"vehicle_type_id":"4","last_reported":1741601333,"current_range_meters":2000,"station_id":"ce4bhih2rcd13ifvqfr0","pricing_plan_id":"cebpf4jnsgd1na2vs0mg"},{"bike_id":"c787a0ef-03a5-4d36-b53c-60238e9036da","system_id":"levelo_inurba_marseille","lat":43.2319,"lon":5.39988,"is_reserved":false,"is_disabled":true,"rental_uris":{"android":"levelo://app?vid=c787a0ef-03a5-4d36-b53c-60238e9036da","ios":"levelo://app?vid=c787a0ef-03a5-4d36-b53c-60238e9036da"},"vehicle_type_id":"4","last_reported":1741601333,"current_range_meters":2000,"station_id":"ce4bhn12rcd13ifvqgqg","pricing_plan_id":"cebpf4jnsgd1na2vs0mg"},{"bike_id":"01052198-2f5f-41f4-af59-ded009aa62c5","system_id":"levelo_inurba_marseille","lat":43.28456,"lon":5.35892,"is_reserved":false,"is_disabled":false,"rental_uris":{"android":"levelo://app?vid=01052198-2f5f-41f4-af59-ded009aa62c5","ios":"levelo://app?vid=01052198-2f5f-41f4-af59-ded009aa62c5"},"vehicle_type_id":"4","last_reported":1741601333,"current_range_meters":3200,"station_id":"ce4bhah2rcd13ifvqei0","pricing_plan_id":"cebpf4jnsgd1na2vs0mg"},{"bike_id":"803f2b82-4bc0-4ae7-b369-d8002e96387a","system_id":"levelo_inurba_marseille","lat":43.32491,"lon":5.36574,"is_reserved":false,"is_disabled":false,"rental_uris":{"android":"levelo://app?vid=803f2b82-4bc0-4ae7-b369-d8002e96387a","ios":"levelo://app?vid=803f2b82-4bc0-4ae7-b369-d8002e96387a"},"vehicle_type_id":"4","last_reported":1741601333,"current_range_meters":3200,"station_id":"ce4bhs12rcd13ifvqhvg","pricing_plan_id":"cebpf4jnsgd1na2vs0mg"},{"bike_id":"604cb8ee-cb5f-439d-aa85-9a338eb49378","system_id":"levelo_inurba_marseille","lat":43.2903,"lon":5.38129,"is_reserved":false,"is_disabled":false,"rental_uris":{"android":"levelo://app?vid=604cb8ee-cb5f-439d-aa85-9a338eb49378","ios":"levelo://app?vid=604cb8ee-cb5f-439d-aa85-9a338eb49378"},"vehicle_type_id":"4","last_reported":1741601333,"current_range_meters":3600,"station_id":"ce4bh4p2rcd13ifvqe1g","pricing_plan_id":"cebpf4jnsgd1na2vs0mg"},{"bike_id":"71c398d4-ec36-467c-acc8-089d0c5a8d2e","system_id":"levelo_inurba_marseille","lat":43.30647,"lon":5.40097,"is_reserved":false,"is_disabled":false,"rental_uris":{"android":"levelo://app?vid=71c398d4-ec36-467c-acc8-089d0c5a8d2e","ios":"levelo://app?vid=71c398d4-ec36-467c-acc8-089d0c5a8d2e"},"vehicle_type_id":"4","last_reported":1741601333,"current_range_meters":4000,"station_id":"ce4bh112rcd13ifvqda0","pricing_plan_id":"cebpf4jnsgd1na2vs0mg"},{"bike_id":"a4b61123-b49a-4a75-a440-d8c5b0081b36","system_id":"levelo_inurba_marseille","lat":43.23145,"lon":5.43709,"is_reserved":false,"is_disabled":false,"rental_uris":{"android":"levelo://app?vid=a4b61123-b49a-4a75-a440-d8c5b0081b36","ios":"levelo://app?vid=a4b61123-b49a-4a75-a440-d8c5b0081b36"},"vehicle_type_id":"4","last_reported":1741601333,"current_range_meters":4000,"station_id":"ce4bhmp2rcd13ifvqgog","pricing_plan_id":"cebpf4jnsgd1na2vs0mg"},{"bike_id":"8810679a-e7c9-4297-97b3-dd7d0bfc4864","system_id":"levelo_inurba_marseille","lat":43.25025,"lon":5.38917,"is_reserved":false,"is_disabled":false,"rental_uris":{"android":"levelo://app?vid=8810679a-e7c9-4297-97b3-dd7d0bfc4864","ios":"levelo://app?vid=8810679a-e7c9-4297-97b3-dd7d0bfc4864"},"vehicle_type_id":"4","last_reported":1741601333,"current_range_meters":4800,"station_id":"ce4bhgp2rcd13ifvqfd0","pricing_plan_id":"cebpf4jnsgd1na2vs0mg"},{"bike_id":"50530689-b3a7-45ef-b5a5-30326b2d0b5c","system_id":"levelo_inurba_marseille","lat":43.2509,"lon":5.39525,"is_reserved":false,"is_disabled":false,"rental_uris":{"android":"levelo://app?vid=50530689-b3a7-45ef-b5a5-30326b2d0b5c","ios":"levelo://app?vid=50530689-b3a7-45ef-b5a5-30326b2d0b5c"},"vehicle_type_id":"4","last_reported":1741601333,"current_range_meters":4800,"station_id":"ce4bhm12rcd13ifvqgkg","pricing_plan_id":"cebpf4jnsgd1na2vs0mg"},{"bike_id":"93964709-a405-4e8c-9198-15f348c3868a","system_id":"levelo_inurba_marseille","lat":43.25933,"lon":5.40914,"is_reserved":false,"is_disabled":false,"rental_uris":{"android":"levelo://app?vid=93964709-a405-4e8c-9198-15f348c3868a","ios":"levelo://app?vid=93964709-a405-4e8c-9198-15f348c3868a"},"vehicle_type_id":"4","last_reported":1741601333,"current_range_meters":4800,"station_id":"ce4bhm92rcd13ifvqglg","pricing_plan_id":"cebpf4jnsgd1na2vs0mg"},{"bike_id":"e5e118b0-32a8-4ef3-b6d1-b7487133ba19","system_id":"levelo_inurba_marseille","lat":43.28157,"lon":5.42658,"is_reserved":false,"is_disabled":false,"rental_uris":{"android":"levelo://app?vid=e5e118b0-32a8-4ef3-b6d1-b7487133ba19","ios":"levelo://app?vid=e5e118b0-32a8-4ef3-b6d1-b7487133ba19"},"vehicle_type_id":"4","last_reported":1741601333,"current_range_meters":4800,"station_id":"ce4bhnh2rcd13ifvqgug","pricing_plan_id":"cebpf4jnsgd1na2vs0mg"},{"bike_id":"f4693df5-a14c-4083-8d32-d05000f58a85","system_id":"levelo_inurba_marseille","lat":43.24077,"lon":5.37757,"is_reserved":false,"is_disabled":false,"rental_uris":{"android":"levelo://app?vid=f4693df5-a14c-4083-8d32-d05000f58a85","ios":"levelo://app?vid=f4693df5-a14c-4083-8d32-d05000f58a85"},"vehicle_type_id":"4","last_reported":1741601333,"current_range_meters":4800,"station_id":"ce4bhnp2rcd13ifvqgvg","pricing_plan_id":"cebpf4jnsgd1na2vs0mg"},{"bike_id":"3b346347-a864-4cd5-9e4c-6053bee93a5a","system_id":"levelo_inurba_marseille","lat":43.30314,"lon":5.36902,"is_reserved":false,"is_disabled":false,"rental_uris":{"android":"levelo://app?vid=3b346347-a864-4cd5-9e4c-6053bee93a5a","ios":"levelo://app?vid=3b346347-a864-4cd5-9e4c-6053bee93a5a"},"vehicle_type_id":"4","last_reported":1741601333,"current_range_meters":5600,"station_id":"ce4bgqh2rcd13ifvqc5g","pricing_plan_id":"cebpf4jnsgd1na2vs0mg"},{"bike_id":"19bbe8da-d7df-496e-a677-cbaab925cf5e","system_id":"levelo_inurba_marseille","lat":43.24873,"lon":5.42533,"is_reserved":false,"is_disabled":false,"rental_uris":{"android":"levelo://app?vid=19bbe8da-d7df-496e-a677-cbaab925cf5e","ios":"levelo://app?vid=19bbe8da-d7df-496e-a677-cbaab925cf5e"},"vehicle_type_id":"4","last_reported":1741601333,"current_range_meters":6000,"station_id":"","pricing_plan_id":"cebpf4jnsgd1na2vs0mg"},{"bike_id":"5c8c23f7-8a59-4431-9539-dcd191d86419","system_id":"levelo_inurba_marseille","lat":43.29369,"lon":5.37854,"is_reserved":false,"is_disabled":false,"rental_uris":{"android":"levelo://app?vid=5c8c23f7-8a59-4431-9539-dcd191d86419","ios":"levelo://app?vid=5c8c23f7-8a59-4431-9539-dcd191d86419"},"vehicle_type_id":"4","last_reported":1741601333,"current_range_meters":6000,"station_id":"ce4bgjh2rcd13ifvqbf0","pricing_plan_id":"cebpf4jnsgd1na2vs0mg"},{"bike_id":"9f602e1c-1518-44d2-a0ee-9aef19f0962f","system_id":"levelo_inurba_marseille","lat":43.30308,"lon":5.36896,"is_reserved":false,"is_disabled":false,"rental_uris":{"android":"levelo://app?vid=9f602e1c-1518-44d2-a0ee-9aef19f0962f","ios":"levelo://app?vid=9f602e1c-1518-44d2-a0ee-9aef19f0962f"},"vehicle_type_id":"4","last_reported":1741601333,"current_range_meters":6000,"station_id":"ce4bgqh2rcd13ifvqc5g","pricing_plan_id":"cebpf4jnsgd1na2vs0mg"},{"bike_id":"80f5b241-9944-4452-b2a9-19e7fe1aa047","system_id":"levelo_inurba_marseille","lat":43.31335,"lon":5.3671,"is_reserved":false,"is_disabled":false,"rental_uris":{"android":"levelo://app?vid=80f5b241-9944-4452-b2a9-19e7fe1aa047","ios":"levelo://app?vid=80f5b241-9944-4452-b2a9-19e7fe1aa047"},"vehicle_type_id":"4","last_reported":1741601333,"current_range_meters":6000,"station_id":"ce4bgr92rcd13ifvqc6g","pricing_plan_id":"cebpf4jnsgd1na2vs0mg"},{"bike_id":"045eaadf-27e3-4933-a165-91600a1deffb","system_id":"levelo_inurba_marseille","lat":43.2592,"lon":5.40901,"is_reserved":false,"is_disabled":false,"rental_uris":{"android":"levelo://app?vid=045eaadf-27e3-4933-a165-91600a1deffb","ios":"levelo://app?vid=045eaadf-27e3-4933-a165-91600a1deffb"},"vehicle_type_id":"4","last_reported":1741601333,"current_range_meters":6000,"station_id":"ce4bhm92rcd13ifvqglg","pricing_plan_id":"cebpf4jnsgd1na2vs0mg"},{"bike_id":"7390ebbf-3d0c-487b-a5cc-ed1df7c7f0dc","system_id":"levelo_inurba_marseille","lat":43.24161,"lon":5.3974,"is_reserved":false,"is_disabled":false,"rental_uris":{"android":"levelo://app?vid=7390ebbf-3d0c-487b-a5cc-ed1df7c7f0dc","ios":"levelo://app?vid=7390ebbf-3d0c-487b-a5cc-ed1df7c7f0dc"},"vehicle_type_id":"4","last_reported":1741601333,"current_range_meters":6000,"station_id":"ce4bhn12rcd13ifvqgpg","pricing_plan_id":"cebpf4jnsgd1na2vs0mg"},{"bike_id":"0fb818e1-b0b3-4883-8925-5246737d8a77","system_id":"levelo_inurba_marseille","lat":43.33608,"lon":5.41039,"is_reserved":false,"is_disabled":false,"rental_uris":{"android":"levelo://app?vid=0fb818e1-b0b3-4883-8925-5246737d8a77","ios":"levelo://app?vid=0fb818e1-b0b3-4883-8925-5246737d8a77"},"vehicle_type_id":"4","last_reported":1741601333,"current_range_meters":6000,"station_id":"ce4bhqh2rcd13ifvqhmg","pricing_plan_id":"cebpf4jnsgd1na2vs0mg"},{"bike_id":"61f98514-f2d4-4967-8974-9a87419de726","system_id":"levelo_inurba_marseille","lat":43.24688,"lon":5.38138,"is_reserved":false,"is_disabled":false,"rental_uris":{"android":"levelo://app?vid=61f98514-f2d4-4967-8974-9a87419de726","ios":"levelo://app?vid=61f98514-f2d4-4967-8974-9a87419de726"},"vehicle_type_id":"4","last_reported":1741601333,"current_range_meters":6400,"station_id":"ce4bhih2rcd13ifvqfr0","pricing_plan_id":"cebpf4jnsgd1na2vs0mg"},{"bike_id":"ce090f12-c0e8-4601-8e24-88472425a3e5","system_id":"levelo_inurba_marseille","lat":43.25105,"lon":5.40324,"is_reserved":false,"is_disabled":false,"rental_uris":{"android":"levelo://app?vid=ce090f12-c0e8-4601-8e24-88472425a3e5","ios":"levelo://app?vid=ce090f12-c0e8-4601-8e24-88472425a3e5"},"vehicle_type_id":"4","last_reported":1741601333,"current_range_meters":6400,"station_id":"ce4bhlh2rcd13ifvqgig","pricing_plan_id":"cebpf4jnsgd1na2vs0mg"},{"bike_id":"5e7b27ef-a426-4849-8056-82ebaa124bb0","system_id":"levelo_inurba_marseille","lat":43.30256,"lon":5.40054,"is_reserved":false,"is_disabled":false,"rental_uris":{"android":"levelo://app?vid=5e7b27ef-a426-4849-8056-82ebaa124bb0","ios":"levelo://app?vid=5e7b27ef-a426-4849-8056-82ebaa124bb0"},"vehicle_type_id":"4","last_reported":1741601333,"current_range_meters":6800,"station_id":"ce4bgvh2rcd13ifvqcs0","pricing_plan_id":"cebpf4jnsgd1na2vs0mg"},{"bike_id":"282100e0-e0fc-46c7-bbde-bf102c89d654","system_id":"levelo_inurba_marseille","lat":43.26683,"lon":5.38263,"is_reserved":false,"is_disabled":false,"rental_uris":{"android":"levelo://app?vid=282100e0-e0fc-46c7-bbde-bf102c89d654","ios":"levelo://app?vid=282100e0-e0fc-46c7-bbde-bf102c89d654"},"vehicle_type_id":"4","last_reported":1741601333,"current_range_meters":6800,"station_id":"ce4bhg92rcd13ifvqf90","pricing_plan_id":"cebpf4jnsgd1na2vs0mg"},{"bike_id":"ac2efbb8-87f5-4e67-91b6-6982ed970754","system_id":"levelo_inurba_marseille","lat":43.25118,"lon":5.40331,"is_reserved":false,"is_disabled":false,"rental_uris":{"android":"levelo://app?vid=ac2efbb8-87f5-4e67-91b6-6982ed970754","ios":"levelo://app?vid=ac2efbb8-87f5-4e67-91b6-6982ed970754"},"vehicle_type_id":"4","last_reported":1741601333,"current_range_meters":6800,"station_id":"ce4bhlh2rcd13ifvqgig","pricing_plan_id":"cebpf4jnsgd1na2vs0mg"},{"bike_id":"55fc6b10-f388-48db-a281-045fb494a3fc","system_id":"levelo_inurba_marseille","lat":43.24079,"lon":5.37761,"is_reserved":false,"is_disabled":false,"rental_uris":{"android":"levelo://app?vid=55fc6b10-f388-48db-a281-045fb494a3fc","ios":"levelo://app?vid=55fc6b10-f388-48db-a281-045fb494a3fc"},"vehicle_type_id":"4","last_reported":1741601333,"current_range_meters":6800,"station_id":"ce4bhnp2rcd13ifvqgvg","pricing_plan_id":"cebpf4jnsgd1na2vs0mg"},{"bike_id":"274843b5-b7c9-4ee7-ac85-7006be71166c","system_id":"levelo_inurba_marseille","lat":43.286133,"lon":5.370615,"is_reserved":false,"is_disabled":false,"rental_uris":{"android":"levelo://app?vid=274843b5-b7c9-4ee7-ac85-7006be71166c","ios":"levelo://app?vid=274843b5-b7c9-4ee7-ac85-7006be71166c"},"vehicle_type_id":"4","last_reported":1741601333,"current_range_meters":7200,"station_id":"","pricing_plan_id":"cebpf4jnsgd1na2vs0mg"},{"bike_id":"afc96b87-be61-45f3-9f29-04e0040363b9","system_id":"levelo_inurba_marseille","lat":43.29267,"lon":5.36852,"is_reserved":false,"is_disabled":false,"rental_uris":{"android":"levelo://app?vid=afc96b87-be61-45f3-9f29-04e0040363b9","ios":"levelo://app?vid=afc96b87-be61-45f3-9f29-04e0040363b9"},"vehicle_type_id":"4","last_reported":1741601333,"current_range_meters":7200,"station_id":"ce4bhbp2rcd13ifvqesg","pricing_plan_id":"cebpf4jnsgd1na2vs0mg"},{"bike_id":"5d3de634-4f2e-4dc3-92c9-c713336471ee","system_id":"levelo_inurba_marseille","lat":43.24058,"lon":5.37737,"is_reserved":false,"is_disabled":false,"rental_uris":{"android":"levelo://app?vid=5d3de634-4f2e-4dc3-92c9-c713336471ee","ios":"levelo://app?vid=5d3de634-4f2e-4dc3-92c9-c713336471ee"},"vehicle_type_id":"4","last_reported":1741601333,"current_range_meters":7200,"station_id":"ce4bhnp2rcd13ifvqgvg","pricing_plan_id":"cebpf4jnsgd1na2vs0mg"},{"bike_id":"b4163c2c-53f5-4f4f-8f64-8c4b4e0737c3","system_id":"levelo_inurba_marseille","lat":43.28709,"lon":5.39986,"is_reserved":false,"is_disabled":false,"rental_uris":{"android":"levelo://app?vid=b4163c2c-53f5-4f4f-8f64-8c4b4e0737c3","ios":"levelo://app?vid=b4163c2c-53f5-4f4f-8f64-8c4b4e0737c3"},"vehicle_type_id":"4","last_reported":1741601333,"current_range_meters":7200,"station_id":"ce4bho92rcd13ifvqh3g","pricing_plan_id":"cebpf4jnsgd1na2vs0mg"},{"bike_id":"4711a0d3-184b-4ba2-86aa-fea8964a4a5c","system_id":"levelo_inurba_marseille","lat":43.31088,"lon":5.42438,"is_reserved":false,"is_disabled":false,"rental_uris":{"android":"levelo://app?vid=4711a0d3-184b-4ba2-86aa-fea8964a4a5c","ios":"levelo://app?vid=4711a0d3-184b-4ba2-86aa-fea8964a4a5c"},"vehicle_type_id":"4","last_reported":1741601333,"current_range_meters":7200,"station_id":"ce4bhp92rcd13ifvqhag","pricing_plan_id":"cebpf4jnsgd1na2vs0mg"},{"bike_id":"29b82548-d416-4900-9874-14422b78b248","system_id":"levelo_inurba_marseille","lat":43.33609,"lon":5.41012,"is_reserved":false,"is_disabled":false,"rental_uris":{"android":"levelo://app?vid=29b82548-d416-4900-9874-14422b78b248","ios":"levelo://app?vid=29b82548-d416-4900-9874-14422b78b248"},"vehicle_type_id":"4","last_reported":1741601333,"current_range_meters":7200,"station_id":"ce4bhqh2rcd13ifvqhmg","pricing_plan_id":"cebpf4jnsgd1na2vs0mg"},{"bike_id":"96b74608-ff1b-4dd1-88d1-373fdaf06100","system_id":"levelo_inurba_marseille","lat":43.31353,"lon":5.36721,"is_reserved":false,"is_disabled":false,"rental_uris":{"android":"levelo://app?vid=96b74608-ff1b-4dd1-88d1-373fdaf06100","ios":"levelo://app?vid=96b74608-ff1b-4dd1-88d1-373fdaf06100"},"vehicle_type_id":"4","last_reported":1741601333,"current_range_meters":8000,"station_id":"ce4bgr92rcd13ifvqc6g","pricing_plan_id":"cebpf4jnsgd1na2vs0mg"},{"bike_id":"4eb6fcb4-c945-47c5-8c44-42ad796e711b","system_id":"levelo_inurba_marseille","lat":43.31344,"lon":5.36721,"is_reserved":false,"is_disabled":false,"rental_uris":{"android":"levelo://app?vid=4eb6fcb4-c945-47c5-8c44-42ad796e711b","ios":"levelo://app?vid=4eb6fcb4-c945-47c5-8c44-42ad796e711b"},"vehicle_type_id":"4","last_reported":1741601333,"current_range_meters":8000,"station_id":"ce4bgr92rcd13ifvqc6g","pricing_plan_id":"cebpf4jnsgd1na2vs0mg"},{"bike_id":"f6e4d98d-4689-4f56-95af-73db69009e69","system_id":"levelo_inurba_marseille","lat":43.31334,"lon":5.36712,"is_reserved":false,"is_disabled":false,"rental_uris":{"android":"levelo://app?vid=f6e4d98d-4689-4f56-95af-73db69009e69","ios":"levelo://app?vid=f6e4d98d-4689-4f56-95af-73db69009e69"},"vehicle_type_id":"4","last_reported":1741601333,"current_range_meters":8000,"station_id":"ce4bgr92rcd13ifvqc6g","pricing_plan_id":"cebpf4jnsgd1na2vs0mg"},{"bike_id":"9c568637-6711-44fd-8669-128cb4bcaec3","system_id":"levelo_inurba_marseille","lat":43.29224,"lon":5.3607,"is_reserved":false,"is_disabled":false,"rental_uris":{"android":"levelo://app?vid=9c568637-6711-44fd-8669-128cb4bcaec3","ios":"levelo://app?vid=9c568637-6711-44fd-8669-128cb4bcaec3"},"vehicle_type_id":"4","last_reported":1741601333,"current_range_meters":8000,"station_id":"ce4bhbh2rcd13ifvqeqg","pricing_plan_id":"cebpf4jnsgd1na2vs0mg"},{"bike_id":"f5d27d01-effc-4a0c-b4ac-2b42b750aca5","system_id":"levelo_inurba_marseille","lat":43.24557,"lon":5.39521,"is_reserved":false,"is_disabled":false,"rental_uris":{"android":"levelo://app?vid=f5d27d01-effc-4a0c-b4ac-2b42b750aca5","ios":"levelo://app?vid=f5d27d01-effc-4a0c-b4ac-2b42b750aca5"},"vehicle_type_id":"4","last_reported":1741601333,"current_range_meters":8000,"station_id":"ce4bhlp2rcd13ifvqgjg","pricing_plan_id":"cebpf4jnsgd1na2vs0mg"},{"bike_id":"bcbde528-50b6-449e-aaa3-b5864ca610ce","system_id":"levelo_inurba_marseille","lat":43.27493,"lon":5.42456,"is_reserved":false,"is_disabled":false,"rental_uris":{"android":"levelo://app?vid=bcbde528-50b6-449e-aaa3-b5864ca610ce","ios":"levelo://app?vid=bcbde528-50b6-449e-aaa3-b5864ca610ce"},"vehicle_type_id":"4","last_reported":1741601333,"current_range_meters":8000,"station_id":"ce4bhn92rcd13ifvqgrg","pricing_plan_id":"cebpf4jnsgd1na2vs0mg"},{"bike_id":"6d30fa00-fa73-4a2d-aac6-368b08cd61f0","system_id":"levelo_inurba_marseille","lat":43.3119,"lon":5.37894,"is_reserved":false,"is_disabled":false,"rental_uris":{"android":"levelo://app?vid=6d30fa00-fa73-4a2d-aac6-368b08cd61f0","ios":"levelo://app?vid=6d30fa00-fa73-4a2d-aac6-368b08cd61f0"},"vehicle_type_id":"4","last_reported":1741601333,"current_range_meters":8400,"station_id":"","pricing_plan_id":"cebpf4jnsgd1na2vs0mg"},{"bike_id":"c7790178-d3d2-480d-ba8d-c28bafdfcf7a","system_id":"levelo_inurba_marseille","lat":43.31354,"lon":5.36696,"is_reserved":false,"is_disabled":false,"rental_uris":{"android":"levelo://app?vid=c7790178-d3d2-480d-ba8d-c28bafdfcf7a","ios":"levelo://app?vid=c7790178-d3d2-480d-ba8d-c28bafdfcf7a"},"vehicle_type_id":"4","last_reported":1741601333,"current_range_meters":8400,"station_id":"ce4bgr92rcd13ifvqc6g","pricing_plan_id":"cebpf4jnsgd1na2vs0mg"},{"bike_id":"c622230d-497b-4ee3-a4b5-0a9c1cca1045","system_id":"levelo_inurba_marseille","lat":43.29204,"lon":5.35907,"is_reserved":false,"is_disabled":false,"rental_uris":{"android":"levelo://app?vid=c622230d-497b-4ee3-a4b5-0a9c1cca1045","ios":"levelo://app?vid=c622230d-497b-4ee3-a4b5-0a9c1cca1045"},"vehicle_type_id":"4","last_reported":1741601333,"current_range_meters":8400,"station_id":"ce4bha92rcd13ifvqeg0","pricing_plan_id":"cebpf4jnsgd1na2vs0mg"},{"bike_id":"a64cb479-0cc7-4584-92c4-25a2b8534a3f","system_id":"levelo_inurba_marseille","lat":43.2694,"lon":5.38641,"is_reserved":false,"is_disabled":false,"rental_uris":{"android":"levelo://app?vid=a64cb479-0cc7-4584-92c4-25a2b8534a3f","ios":"levelo://app?vid=a64cb479-0cc7-4584-92c4-25a2b8534a3f"},"vehicle_type_id":"4","last_reported":1741601333,"current_range_meters":8400,"station_id":"ce4bhh92rcd13ifvqfh0","pricing_plan_id":"cebpf4jnsgd1na2vs0mg"},{"bike_id":"67fc845a-4e54-4c1c-8b59-aae9c41867a4","system_id":"levelo_inurba_marseille","lat":43.27076,"lon":5.42276,"is_reserved":false,"is_disabled":false,"rental_uris":{"android":"levelo://app?vid=67fc845a-4e54-4c1c-8b59-aae9c41867a4","ios":"levelo://app?vid=67fc845a-4e54-4c1c-8b59-aae9c41867a4"},"vehicle_type_id":"4","last_reported":1741601333,"current_range_meters":8400,"station_id":"ce4bhk92rcd13ifvqgb0","pricing_plan_id":"cebpf4jnsgd1na2vs0mg"},{"bike_id":"8a743ff6-18c0-4bd1-b614-5bba8d296592","system_id":"levelo_inurba_marseille","lat":43.2794,"lon":5.4105,"is_reserved":false,"is_disabled":false,"rental_uris":{"android":"levelo://app?vid=8a743ff6-18c0-4bd1-b614-5bba8d296592","ios":"levelo://app?vid=8a743ff6-18c0-4bd1-b614-5bba8d296592"},"vehicle_type_id":"4","last_reported":1741601333,"current_range_meters":8400,"station_id":"ce4bhnp2rcd13ifvqh0g","pricing_plan_id":"cebpf4jnsgd1na2vs0mg"},{"bike_id":"b3b87446-c95f-4c31-a338-d1f44ceecc6a","system_id":"levelo_inurba_marseille","lat":43.295965,"lon":5.380995,"is_reserved":false,"is_disabled":false,"rental_uris":{"android":"levelo://app?vid=b3b87446-c95f-4c31-a338-d1f44ceecc6a","ios":"levelo://app?vid=b3b87446-c95f-4c31-a338-d1f44ceecc6a"},"vehicle_type_id":"4","last_reported":1741601333,"current_range_meters":8400,"station_id":"ce4bhoh2rcd13ifvqh5g","pricing_plan_id":"cebpf4jnsgd1na2vs0mg"},{"bike_id":"ebb2d58b-982f-41cd-b65c-668035c69ec1","system_id":"levelo_inurba_marseille","lat":43.30494,"lon":5.37146,"is_reserved":false,"is_disabled":false,"rental_uris":{"android":"levelo://app?vid=ebb2d58b-982f-41cd-b65c-668035c69ec1","ios":"levelo://app?vid=ebb2d58b-982f-41cd-b65c-668035c69ec1"},"vehicle_type_id":"4","last_reported":1741601333,"current_range_meters":8800,"station_id":"","pricing_plan_id":"cebpf4jnsgd1na2vs0mg"},{"bike_id":"61193e8a-8e60-4220-8577-846bbeba5e58","system_id":"levelo_inurba_marseille","lat":43.31379,"lon":5.38362,"is_reserved":false,"is_disabled":false,"rental_uris":{"android":"levelo://app?vid=61193e8a-8e60-4220-8577-846bbeba5e58","ios":"levelo://app?vid=61193e8a-8e60-4220-8577-846bbeba5e58"},"vehicle_type_id":"4","last_reported":1741601333,"current_range_meters":8800,"station_id":"","pricing_plan_id":"cebpf4jnsgd1na2vs0mg"},{"bike_id":"4be4b602-977b-4422-89db-ae895e2510fb","system_id":"levelo_inurba_marseille","lat":43.28719,"lon":5.37945,"is_reserved":false,"is_disabled":false,"rental_uris":{"android":"levelo://app?vid=4be4b602-977b-4422-89db-ae895e2510fb","ios":"levelo://app?vid=4be4b602-977b-4422-89db-ae895e2510fb"},"vehicle_type_id":"4","last_reported":1741601333,"current_range_meters":8800,"station_id":"ce4bh9p2rcd13ifvqec0","pricing_plan_id":"cebpf4jnsgd1na2vs0mg"},{"bike_id":"7f08542c-3622-4bee-8852-d0974c0ec085","system_id":"levelo_inurba_marseille","lat":43.241384,"lon":5.363529,"is_reserved":false,"is_disabled":false,"rental_uris":{"android":"levelo://app?vid=7f08542c-3622-4bee-8852-d0974c0ec085","ios":"levelo://app?vid=7f08542c-3622-4bee-8852-d0974c0ec085"},"vehicle_type_id":"4","last_reported":1741601333,"current_range_meters":8800,"station_id":"cpo36qri1sfpv3e86is0","pricing_plan_id":"cebpf4jnsgd1na2vs0mg"},{"bike_id":"82b90cf3-ee5f-4f27-840b-552d52b67d5b","system_id":"levelo_inurba_marseille","lat":43.29301,"lon":5.37469,"is_reserved":false,"is_disabled":false,"rental_uris":{"android":"levelo://app?vid=82b90cf3-ee5f-4f27-840b-552d52b67d5b","ios":"levelo://app?vid=82b90cf3-ee5f-4f27-840b-552d52b67d5b"},"vehicle_type_id":"4","last_reported":1741601333,"current_range_meters":9200,"station_id":"ce4bgi12rcd13ifvqb70","pricing_plan_id":"cebpf4jnsgd1na2vs0mg"},{"bike_id":"08b7fb52-5e45-4fc7-b899-a1b224f588e5","system_id":"levelo_inurba_marseille","lat":43.31483,"lon":5.37297,"is_reserved":false,"is_disabled":false,"rental_uris":{"android":"levelo://app?vid=08b7fb52-5e45-4fc7-b899-a1b224f588e5","ios":"levelo://app?vid=08b7fb52-5e45-4fc7-b899-a1b224f588e5"},"vehicle_type_id":"4","last_reported":1741601333,"current_range_meters":9200,"station_id":"ce4bgt12rcd13ifvqcd0","pricing_plan_id":"cebpf4jnsgd1na2vs0mg"},{"bike_id":"c528ac76-1f15-4207-8438-1a21104a978d","system_id":"levelo_inurba_marseille","lat":43.24998,"lon":5.38938,"is_reserved":false,"is_disabled":false,"rental_uris":{"android":"levelo://app?vid=c528ac76-1f15-4207-8438-1a21104a978d","ios":"levelo://app?vid=c528ac76-1f15-4207-8438-1a21104a978d"},"vehicle_type_id":"4","last_reported":1741601333,"current_range_meters":9200,"station_id":"ce4bhgp2rcd13ifvqfd0","pricing_plan_id":"cebpf4jnsgd1na2vs0mg"},{"bike_id":"60f4da96-da64-488c-98f7-c9a61709620a","system_id":"levelo_inurba_marseille","lat":43.25556,"lon":5.38253,"is_reserved":false,"is_disabled":false,"rental_uris":{"android":"levelo://app?vid=60f4da96-da64-488c-98f7-c9a61709620a","ios":"levelo://app?vid=60f4da96-da64-488c-98f7-c9a61709620a"},"vehicle_type_id":"4","last_reported":1741601333,"current_range_meters":9200,"station_id":"ce4bhih2rcd13ifvqfs0","pricing_plan_id":"cebpf4jnsgd1na2vs0mg"},{"bike_id":"85ada2ed-88bb-4067-a78c-81d0d71bf163","system_id":"levelo_inurba_marseille","lat":43.28156,"lon":5.42656,"is_reserved":false,"is_disabled":false,"rental_uris":{"android":"levelo://app?vid=85ada2ed-88bb-4067-a78c-81d0d71bf163","ios":"levelo://app?vid=85ada2ed-88bb-4067-a78c-81d0d71bf163"},"vehicle_type_id":"4","last_reported":1741601333,"current_range_meters":9200,"station_id":"ce4bhnh2rcd13ifvqgug","pricing_plan_id":"cebpf4jnsgd1na2vs0mg"},{"bike_id":"11f35fc8-bf5a-42db-8ee3-67d16f82ad59","system_id":"levelo_inurba_marseille","lat":43.24089,"lon":5.37708,"is_reserved":false,"is_disabled":false,"rental_uris":{"android":"levelo://app?vid=11f35fc8-bf5a-42db-8ee3-67d16f82ad59","ios":"levelo://app?vid=11f35fc8-bf5a-42db-8ee3-67d16f82ad59"},"vehicle_type_id":"4","last_reported":1741601333,"current_range_meters":9200,"station_id":"ce4bhnp2rcd13ifvqgvg","pricing_plan_id":"cebpf4jnsgd1na2vs0mg"},{"bike_id":"1f72adc6-3d1a-4fad-a905-cb9dcd596e26","system_id":"levelo_inurba_marseille","lat":43.2385,"lon":5.43562,"is_reserved":false,"is_disabled":false,"rental_uris":{"android":"levelo://app?vid=1f72adc6-3d1a-4fad-a905-cb9dcd596e26","ios":"levelo://app?vid=1f72adc6-3d1a-4fad-a905-cb9dcd596e26"},"vehicle_type_id":"4","last_reported":1741601333,"current_range_meters":9600,"station_id":"","pricing_plan_id":"cebpf4jnsgd1na2vs0mg"},{"bike_id":"d104be4a-71e5-4aee-80bd-74c5b1ae7dab","system_id":"levelo_inurba_marseille","lat":43.30151,"lon":5.38079,"is_reserved":false,"is_disabled":false,"rental_uris":{"android":"levelo://app?vid=d104be4a-71e5-4aee-80bd-74c5b1ae7dab","ios":"levelo://app?vid=d104be4a-71e5-4aee-80bd-74c5b1ae7dab"},"vehicle_type_id":"4","last_reported":1741601333,"current_range_meters":9600,"station_id":"ce4bgjp2rcd13ifvqbh0","pricing_plan_id":"cebpf4jnsgd1na2vs0mg"},{"bike_id":"2861819a-5d85-4a15-a367-007b143b64d2","system_id":"levelo_inurba_marseille","lat":43.296878,"lon":5.373088,"is_reserved":false,"is_disabled":false,"rental_uris":{"android":"levelo://app?vid=2861819a-5d85-4a15-a367-007b143b64d2","ios":"levelo://app?vid=2861819a-5d85-4a15-a367-007b143b64d2"},"vehicle_type_id":"4","last_reported":1741601333,"current_range_meters":9600,"station_id":"ce4bgk12rcd13ifvqbj0","pricing_plan_id":"cebpf4jnsgd1na2vs0mg"},{"bike_id":"7d4a9057-3e9a-4022-b345-adf5460db7b9","system_id":"levelo_inurba_marseille","lat":43.30468,"lon":5.37902,"is_reserved":false,"is_disabled":false,"rental_uris":{"android":"levelo://app?vid=7d4a9057-3e9a-4022-b345-adf5460db7b9","ios":"levelo://app?vid=7d4a9057-3e9a-4022-b345-adf5460db7b9"},"vehicle_type_id":"4","last_reported":1741601333,"current_range_meters":9600,"station_id":"ce4bgup2rcd13ifvqcn0","pricing_plan_id":"cebpf4jnsgd1na2vs0mg"},{"bike_id":"538f72e5-447d-41dc-bcce-974f1954318e","system_id":"levelo_inurba_marseille","lat":43.27915,"lon":5.39581,"is_reserved":false,"is_disabled":false,"rental_uris":{"android":"levelo://app?vid=538f72e5-447d-41dc-bcce-974f1954318e","ios":"levelo://app?vid=538f72e5-447d-41dc-bcce-974f1954318e"},"vehicle_type_id":"4","last_reported":1741601333,"current_range_meters":9600,"station_id":"ce4bhf92rcd13ifvqf40","pricing_plan_id":"cebpf4jnsgd1na2vs0mg"},{"bike_id":"92ba0c90-66bb-40dc-b6e2-b9e697677dee","system_id":"levelo_inurba_marseille","lat":43.26955,"lon":5.38632,"is_reserved":false,"is_disabled":false,"rental_uris":{"android":"levelo://app?vid=92ba0c90-66bb-40dc-b6e2-b9e697677dee","ios":"levelo://app?vid=92ba0c90-66bb-40dc-b6e2-b9e697677dee"},"vehicle_type_id":"4","last_reported":1741601333,"current_range_meters":9600,"station_id":"ce4bhh92rcd13ifvqfh0","pricing_plan_id":"cebpf4jnsgd1na2vs0mg"},{"bike_id":"435bfe2a-0139-4e21-ab4f-977998275987","system_id":"levelo_inurba_marseille","lat":43.25945,"lon":5.40903,"is_reserved":false,"is_disabled":false,"rental_uris":{"android":"levelo://app?vid=435bfe2a-0139-4e21-ab4f-977998275987","ios":"levelo://app?vid=435bfe2a-0139-4e21-ab4f-977998275987"},"vehicle_type_id":"4","last_reported":1741601333,"current_range_meters":9600,"station_id":"ce4bhm92rcd13ifvqglg","pricing_plan_id":"cebpf4jnsgd1na2vs0mg"},{"bike_id":"bb06a9b7-db6a-4e36-aa90-ecce79fcf121","system_id":"levelo_inurba_marseille","lat":43.23145,"lon":5.43692,"is_reserved":false,"is_disabled":false,"rental_uris":{"android":"levelo://app?vid=bb06a9b7-db6a-4e36-aa90-ecce79fcf121","ios":"levelo://app?vid=bb06a9b7-db6a-4e36-aa90-ecce79fcf121"},"vehicle_type_id":"4","last_reported":1741601333,"current_range_meters":9600,"station_id":"ce4bhmp2rcd13ifvqgog","pricing_plan_id":"cebpf4jnsgd1na2vs0mg"},{"bike_id":"4333d477-da3f-4e97-bed1-a0b96932fe53","system_id":"levelo_inurba_marseille","lat":43.23152,"lon":5.43713,"is_reserved":false,"is_disabled":false,"rental_uris":{"android":"levelo://app?vid=4333d477-da3f-4e97-bed1-a0b96932fe53","ios":"levelo://app?vid=4333d477-da3f-4e97-bed1-a0b96932fe53"},"vehicle_type_id":"4","last_reported":1741601333,"current_range_meters":9600,"station_id":"ce4bhmp2rcd13ifvqgog","pricing_plan_id":"cebpf4jnsgd1na2vs0mg"},{"bike_id":"77305fa1-8ca3-4c4f-9eb8-5646c4b56788","system_id":"levelo_inurba_marseille","lat":43.29853,"lon":5.3629,"is_reserved":false,"is_disabled":false,"rental_uris":{"android":"levelo://app?vid=77305fa1-8ca3-4c4f-9eb8-5646c4b56788","ios":"levelo://app?vid=77305fa1-8ca3-4c4f-9eb8-5646c4b56788"},"vehicle_type_id":"4","last_reported":1741601333,"current_range_meters":10000,"station_id":"ce4bgpp2rcd13ifvqc3g","pricing_plan_id":"cebpf4jnsgd1na2vs0mg"},{"bike_id":"291dc1f1-4cea-4238-923f-480757897dfe","system_id":"levelo_inurba_marseille","lat":43.28492,"lon":5.38415,"is_reserved":false,"is_disabled":false,"rental_uris":{"android":"levelo://app?vid=291dc1f1-4cea-4238-923f-480757897dfe","ios":"levelo://app?vid=291dc1f1-4cea-4238-923f-480757897dfe"},"vehicle_type_id":"4","last_reported":1741601333,"current_range_meters":10000,"station_id":"ce4bh512rcd13ifvqe3g","pricing_plan_id":"cebpf4jnsgd1na2vs0mg"},{"bike_id":"dc7d365d-8fb8-43a5-a36d-599342368973","system_id":"levelo_inurba_marseille","lat":43.26562,"lon":5.39032,"is_reserved":false,"is_disabled":false,"rental_uris":{"android":"levelo://app?vid=dc7d365d-8fb8-43a5-a36d-599342368973","ios":"levelo://app?vid=dc7d365d-8fb8-43a5-a36d-599342368973"},"vehicle_type_id":"4","last_reported":1741601333,"current_range_meters":10000,"station_id":"ce4bhh92rcd13ifvqfh0","pricing_plan_id":"cebpf4jnsgd1na2vs0mg"},{"bike_id":"ef6303de-f84a-4b1f-9060-2a8d28e015bb","system_id":"levelo_inurba_marseille","lat":43.24082,"lon":5.3775,"is_reserved":false,"is_disabled":false,"rental_uris":{"android":"levelo://app?vid=ef6303de-f84a-4b1f-9060-2a8d28e015bb","ios":"levelo://app?vid=ef6303de-f84a-4b1f-9060-2a8d28e015bb"},"vehicle_type_id":"4","last_reported":1741601333,"current_range_meters":10000,"station_id":"ce4bhnp2rcd13ifvqgvg","pricing_plan_id":"cebpf4jnsgd1na2vs0mg"},{"bike_id":"199cb7b2-857a-4db4-b08b-30cc2dc0c4f3","system_id":"levelo_inurba_marseille","lat":43.31712,"lon":5.43708,"is_reserved":false,"is_disabled":false,"rental_uris":{"android":"levelo://app?vid=199cb7b2-857a-4db4-b08b-30cc2dc0c4f3","ios":"levelo://app?vid=199cb7b2-857a-4db4-b08b-30cc2dc0c4f3"},"vehicle_type_id":"4","last_reported":1741601333,"current_range_meters":10000,"station_id":"ce4bhp92rcd13ifvqhcg","pricing_plan_id":"cebpf4jnsgd1na2vs0mg"},{"bike_id":"98de571b-b137-41e1-a957-f1f43c068d6a","system_id":"levelo_inurba_marseille","lat":43.3249,"lon":5.36567,"is_reserved":false,"is_disabled":false,"rental_uris":{"android":"levelo://app?vid=98de571b-b137-41e1-a957-f1f43c068d6a","ios":"levelo://app?vid=98de571b-b137-41e1-a957-f1f43c068d6a"},"vehicle_type_id":"4","last_reported":1741601333,"current_range_meters":10000,"station_id":"ce4bhs12rcd13ifvqhvg","pricing_plan_id":"cebpf4jnsgd1na2vs0mg"},{"bike_id":"3ed0c8ba-c7f7-40d8-9403-a3f96d6af6b9","system_id":"levelo_inurba_marseille","lat":43.3236,"lon":5.36749,"is_reserved":false,"is_disabled":false,"rental_uris":{"android":"levelo://app?vid=3ed0c8ba-c7f7-40d8-9403-a3f96d6af6b9","ios":"levelo://app?vid=3ed0c8ba-c7f7-40d8-9403-a3f96d6af6b9"},"vehicle_type_id":"4","last_reported":1741601333,"current_range_meters":10000,"station_id":"ce4bhsh2rcd13ifvqi2g","pricing_plan_id":"cebpf4jnsgd1na2vs0mg"},{"bike_id":"e133b3f7-515b-4193-bc2a-7f9526decdec","system_id":"levelo_inurba_marseille","lat":43.31356,"lon":5.36711,"is_reserved":false,"is_disabled":false,"rental_uris":{"android":"levelo://app?vid=e133b3f7-515b-4193-bc2a-7f9526decdec","ios":"levelo://app?vid=e133b3f7-515b-4193-bc2a-7f9526decdec"},"vehicle_type_id":"4","last_reported":1741601333,"current_range_meters":10800,"station_id":"ce4bgr92rcd13ifvqc6g","pricing_plan_id":"cebpf4jnsgd1na2vs0mg"},{"bike_id":"266a1e1e-8c89-4f33-b3f4-faf8638c8ecd","system_id":"levelo_inurba_marseille","lat":43.2925,"lon":5.3686,"is_reserved":false,"is_disabled":false,"rental_uris":{"android":"levelo://app?vid=266a1e1e-8c89-4f33-b3f4-faf8638c8ecd","ios":"levelo://app?vid=266a1e1e-8c89-4f33-b3f4-faf8638c8ecd"},"vehicle_type_id":"4","last_reported":1741601333,"current_range_meters":10800,"station_id":"ce4bhbp2rcd13ifvqesg","pricing_plan_id":"cebpf4jnsgd1na2vs0mg"},{"bike_id":"fa292aeb-1f9b-48c3-8f5a-6515b494f8e5","system_id":"levelo_inurba_marseille","lat":43.279,"lon":5.38023,"is_reserved":false,"is_disabled":false,"rental_uris":{"android":"levelo://app?vid=fa292aeb-1f9b-48c3-8f5a-6515b494f8e5","ios":"levelo://app?vid=fa292aeb-1f9b-48c3-8f5a-6515b494f8e5"},"vehicle_type_id":"4","last_reported":1741601333,"current_range_meters":10800,"station_id":"ce4bhf92rcd13ifvqf50","pricing_plan_id":"cebpf4jnsgd1na2vs0mg"},{"bike_id":"17e71706-a905-44b0-b56a-9b68d9a70c1b","system_id":"levelo_inurba_marseille","lat":43.25921,"lon":5.40905,"is_reserved":false,"is_disabled":false,"rental_uris":{"android":"levelo://app?vid=17e71706-a905-44b0-b56a-9b68d9a70c1b","ios":"levelo://app?vid=17e71706-a905-44b0-b56a-9b68d9a70c1b"},"vehicle_type_id":"4","last_reported":1741601333,"current_range_meters":10800,"station_id":"ce4bhm92rcd13ifvqglg","pricing_plan_id":"cebpf4jnsgd1na2vs0mg"},{"bike_id":"91c77180-2637-4692-beb6-3c013b5b46d0","system_id":"levelo_inurba_marseille","lat":43.24188,"lon":5.39719,"is_reserved":false,"is_disabled":false,"rental_uris":{"android":"levelo://app?vid=91c77180-2637-4692-beb6-3c013b5b46d0","ios":"levelo://app?vid=91c77180-2637-4692-beb6-3c013b5b46d0"},"vehicle_type_id":"4","last_reported":1741601333,"current_range_meters":10800,"station_id":"ce4bhn12rcd13ifvqgpg","pricing_plan_id":"cebpf4jnsgd1na2vs0mg"},{"bike_id":"a249eb15-8351-4e17-b802-b3b06f8f2d64","system_id":"levelo_inurba_marseille","lat":43.32486,"lon":5.36543,"is_reserved":false,"is_disabled":false,"rental_uris":{"android":"levelo://app?vid=a249eb15-8351-4e17-b802-b3b06f8f2d64","ios":"levelo://app?vid=a249eb15-8351-4e17-b802-b3b06f8f2d64"},"vehicle_type_id":"4","last_reported":1741601333,"current_range_meters":10800,"station_id":"ce4bhs12rcd13ifvqhvg","pricing_plan_id":"cebpf4jnsgd1na2vs0mg"},{"bike_id":"ba9f0782-0311-4017-9857-73556b7dcb72","system_id":"levelo_inurba_marseille","lat":43.29858,"lon":5.36273,"is_reserved":false,"is_disabled":false,"rental_uris":{"android":"levelo://app?vid=ba9f0782-0311-4017-9857-73556b7dcb72","ios":"levelo://app?vid=ba9f0782-0311-4017-9857-73556b7dcb72"},"vehicle_type_id":"4","last_reported":1741601333,"current_range_meters":11200,"station_id":"ce4bgpp2rcd13ifvqc3g","pricing_plan_id":"cebpf4jnsgd1na2vs0mg"},{"bike_id":"d535249e-e9a9-4829-9d60-ecbe18fe20cf","system_id":"levelo_inurba_marseille","lat":43.30316,"lon":5.36903,"is_reserved":false,"is_disabled":false,"rental_uris":{"android":"levelo://app?vid=d535249e-e9a9-4829-9d60-ecbe18fe20cf","ios":"levelo://app?vid=d535249e-e9a9-4829-9d60-ecbe18fe20cf"},"vehicle_type_id":"4","last_reported":1741601333,"current_range_meters":11200,"station_id":"ce4bgqh2rcd13ifvqc5g","pricing_plan_id":"cebpf4jnsgd1na2vs0mg"},{"bike_id":"4a66d5ab-a3d0-4d45-8a39-31771982349e","system_id":"levelo_inurba_marseille","lat":43.2623,"lon":5.40453,"is_reserved":false,"is_disabled":false,"rental_uris":{"android":"levelo://app?vid=4a66d5ab-a3d0-4d45-8a39-31771982349e","ios":"levelo://app?vid=4a66d5ab-a3d0-4d45-8a39-31771982349e"},"vehicle_type_id":"4","last_reported":1741601333,"current_range_meters":11200,"station_id":"ce4bhmh2rcd13ifvqgmg","pricing_plan_id":"cebpf4jnsgd1na2vs0mg"},{"bike_id":"9accf568-b81b-4f5a-b823-6a23bfcb8604","system_id":"levelo_inurba_marseille","lat":43.24081,"lon":5.37741,"is_reserved":false,"is_disabled":false,"rental_uris":{"android":"levelo://app?vid=9accf568-b81b-4f5a-b823-6a23bfcb8604","ios":"levelo://app?vid=9accf568-b81b-4f5a-b823-6a23bfcb8604"},"vehicle_type_id":"4","last_reported":1741601333,"current_range_meters":11200,"station_id":"ce4bhnp2rcd13ifvqgvg","pricing_plan_id":"cebpf4jnsgd1na2vs0mg"},{"bike_id":"4ec5d479-c92c-4224-8409-3cb864eeca2a","system_id":"levelo_inurba_marseille","lat":43.28168,"lon":5.40453,"is_reserved":false,"is_disabled":false,"rental_uris":{"android":"levelo://app?vid=4ec5d479-c92c-4224-8409-3cb864eeca2a","ios":"levelo://app?vid=4ec5d479-c92c-4224-8409-3cb864eeca2a"},"vehicle_type_id":"4","last_reported":1741601333,"current_range_meters":11600,"station_id":"","pricing_plan_id":"cebpf4jnsgd1na2vs0mg"},{"bike_id":"51764fd4-f7e8-4dab-bb95-270ccffd0c37","system_id":"levelo_inurba_marseille","lat":43.31325,"lon":5.3672,"is_reserved":false,"is_disabled":false,"rental_uris":{"android":"levelo://app?vid=51764fd4-f7e8-4dab-bb95-270ccffd0c37","ios":"levelo://app?vid=51764fd4-f7e8-4dab-bb95-270ccffd0c37"},"vehicle_type_id":"4","last_reported":1741601333,"current_range_meters":11600,"station_id":"ce4bgr92rcd13ifvqc6g","pricing_plan_id":"cebpf4jnsgd1na2vs0mg"},{"bike_id":"61e44f36-8d01-4cc0-bd2e-1946b5440c07","system_id":"levelo_inurba_marseille","lat":43.301919,"lon":5.399354,"is_reserved":false,"is_disabled":false,"rental_uris":{"android":"levelo://app?vid=61e44f36-8d01-4cc0-bd2e-1946b5440c07","ios":"levelo://app?vid=61e44f36-8d01-4cc0-bd2e-1946b5440c07"},"vehicle_type_id":"4","last_reported":1741601333,"current_range_meters":11600,"station_id":"ce4bh0h2rcd13ifvqd40","pricing_plan_id":"cebpf4jnsgd1na2vs0mg"},{"bike_id":"8796c6c3-381e-443d-92a6-aade61332b05","system_id":"levelo_inurba_marseille","lat":43.29875,"lon":5.39725,"is_reserved":false,"is_disabled":false,"rental_uris":{"android":"levelo://app?vid=8796c6c3-381e-443d-92a6-aade61332b05","ios":"levelo://app?vid=8796c6c3-381e-443d-92a6-aade61332b05"},"vehicle_type_id":"4","last_reported":1741601333,"current_range_meters":11600,"station_id":"ce4bh0h2rcd13ifvqd50","pricing_plan_id":"cebpf4jnsgd1na2vs0mg"},{"bike_id":"4cfbdb17-1931-457c-a7e0-e66504671741","system_id":"levelo_inurba_marseille","lat":43.24073,"lon":5.37762,"is_reserved":false,"is_disabled":false,"rental_uris":{"android":"levelo://app?vid=4cfbdb17-1931-457c-a7e0-e66504671741","ios":"levelo://app?vid=4cfbdb17-1931-457c-a7e0-e66504671741"},"vehicle_type_id":"4","last_reported":1741601333,"current_range_meters":11600,"station_id":"ce4bhnp2rcd13ifvqgvg","pricing_plan_id":"cebpf4jnsgd1na2vs0mg"},{"bike_id":"a5c5ade0-6f33-45a7-beaf-3545d30425b1","system_id":"levelo_inurba_marseille","lat":43.24067,"lon":5.37761,"is_reserved":false,"is_disabled":false,"rental_uris":{"android":"levelo://app?vid=a5c5ade0-6f33-45a7-beaf-3545d30425b1","ios":"levelo://app?vid=a5c5ade0-6f33-45a7-beaf-3545d30425b1"},"vehicle_type_id":"4","last_reported":1741601333,"current_range_meters":11600,"station_id":"ce4bhnp2rcd13ifvqgvg","pricing_plan_id":"cebpf4jnsgd1na2vs0mg"},{"bike_id":"ae4913d3-c7b3-4e3b-8b0e-9eedefc8bcf1","system_id":"levelo_inurba_marseille","lat":43.31314,"lon":5.38839,"is_reserved":false,"is_disabled":false,"rental_uris":{"android":"levelo://app?vid=ae4913d3-c7b3-4e3b-8b0e-9eedefc8bcf1","ios":"levelo://app?vid=ae4913d3-c7b3-4e3b-8b0e-9eedefc8bcf1"},"vehicle_type_id":"4","last_reported":1741601333,"current_range_meters":12000,"station_id":"","pricing_plan_id":"cebpf4jnsgd1na2vs0mg"},{"bike_id":"1689e47c-b3be-41f1-825a-50008dbe5a30","system_id":"levelo_inurba_marseille","lat":43.26546,"lon":5.37324,"is_reserved":false,"is_disabled":false,"rental_uris":{"android":"levelo://app?vid=1689e47c-b3be-41f1-825a-50008dbe5a30","ios":"levelo://app?vid=1689e47c-b3be-41f1-825a-50008dbe5a30"},"vehicle_type_id":"4","last_reported":1741601333,"current_range_meters":12000,"station_id":"ce4bhg12rcd13ifvqf70","pricing_plan_id":"cebpf4jnsgd1na2vs0mg"},{"bike_id":"906c6e5a-4ec6-4885-afda-48adb50c51d3","system_id":"levelo_inurba_marseille","lat":43.24387,"lon":5.37054,"is_reserved":false,"is_disabled":false,"rental_uris":{"android":"levelo://app?vid=906c6e5a-4ec6-4885-afda-48adb50c51d3","ios":"levelo://app?vid=906c6e5a-4ec6-4885-afda-48adb50c51d3"},"vehicle_type_id":"4","last_reported":1741601333,"current_range_meters":12000,"station_id":"ce4bhhh2rcd13ifvqfk0","pricing_plan_id":"cebpf4jnsgd1na2vs0mg"},{"bike_id":"e1464fd1-88dd-4217-9b48-8798f8d7a4bc","system_id":"levelo_inurba_marseille","lat":43.24399,"lon":5.37047,"is_reserved":false,"is_disabled":false,"rental_uris":{"android":"levelo://app?vid=e1464fd1-88dd-4217-9b48-8798f8d7a4bc","ios":"levelo://app?vid=e1464fd1-88dd-4217-9b48-8798f8d7a4bc"},"vehicle_type_id":"4","last_reported":1741601333,"current_range_meters":12000,"station_id":"ce4bhhh2rcd13ifvqfk0","pricing_plan_id":"cebpf4jnsgd1na2vs0mg"},{"bike_id":"c1c80c13-20cb-44f5-aa30-5c8aedb294e8","system_id":"levelo_inurba_marseille","lat":43.321018,"lon":5.367686,"is_reserved":false,"is_disabled":false,"rental_uris":{"android":"levelo://app?vid=c1c80c13-20cb-44f5-aa30-5c8aedb294e8","ios":"levelo://app?vid=c1c80c13-20cb-44f5-aa30-5c8aedb294e8"},"vehicle_type_id":"4","last_reported":1741601333,"current_range_meters":12000,"station_id":"ce4bhrh2rcd13ifvqhug","pricing_plan_id":"cebpf4jnsgd1na2vs0mg"},{"bike_id":"7e281e46-5341-4615-87f4-8681ec2c3f33","system_id":"levelo_inurba_marseille","lat":43.29687,"lon":5.37287,"is_reserved":false,"is_disabled":false,"rental_uris":{"android":"levelo://app?vid=7e281e46-5341-4615-87f4-8681ec2c3f33","ios":"levelo://app?vid=7e281e46-5341-4615-87f4-8681ec2c3f33"},"vehicle_type_id":"4","last_reported":1741601333,"current_range_meters":12400,"station_id":"ce4bgk12rcd13ifvqbj0","pricing_plan_id":"cebpf4jnsgd1na2vs0mg"},{"bike_id":"5698e0d2-f454-4a4a-b63e-d168e01b0d47","system_id":"levelo_inurba_marseille","lat":43.24677,"lon":5.38169,"is_reserved":false,"is_disabled":false,"rental_uris":{"android":"levelo://app?vid=5698e0d2-f454-4a4a-b63e-d168e01b0d47","ios":"levelo://app?vid=5698e0d2-f454-4a4a-b63e-d168e01b0d47"},"vehicle_type_id":"4","last_reported":1741601333,"current_range_meters":12400,"station_id":"ce4bhih2rcd13ifvqfr0","pricing_plan_id":"cebpf4jnsgd1na2vs0mg"},{"bike_id":"5168a913-5224-4ddf-8293-e2c5484c5bf7","system_id":"levelo_inurba_marseille","lat":43.25593,"lon":5.38248,"is_reserved":false,"is_disabled":false,"rental_uris":{"android":"levelo://app?vid=5168a913-5224-4ddf-8293-e2c5484c5bf7","ios":"levelo://app?vid=5168a913-5224-4ddf-8293-e2c5484c5bf7"},"vehicle_type_id":"4","last_reported":1741601333,"current_range_meters":12400,"station_id":"ce4bhih2rcd13ifvqfs0","pricing_plan_id":"cebpf4jnsgd1na2vs0mg"},{"bike_id":"f69b7152-3937-413e-a7e7-a1fcd79986be","system_id":"levelo_inurba_marseille","lat":43.32108,"lon":5.36782,"is_reserved":false,"is_disabled":false,"rental_uris":{"android":"levelo://app?vid=f69b7152-3937-413e-a7e7-a1fcd79986be","ios":"levelo://app?vid=f69b7152-3937-413e-a7e7-a1fcd79986be"},"vehicle_type_id":"4","last_reported":1741601333,"current_range_meters":12400,"station_id":"ce4bhrh2rcd13ifvqhug","pricing_plan_id":"cebpf4jnsgd1na2vs0mg"},{"bike_id":"22c7c0df-2c7b-4f24-b11d-161b2b67a83f","system_id":"levelo_inurba_marseille","lat":43.25,"lon":5.38929,"is_reserved":false,"is_disabled":false,"rental_uris":{"android":"levelo://app?vid=22c7c0df-2c7b-4f24-b11d-161b2b67a83f","ios":"levelo://app?vid=22c7c0df-2c7b-4f24-b11d-161b2b67a83f"},"vehicle_type_id":"4","last_reported":1741601333,"current_range_meters":12800,"station_id":"ce4bhgp2rcd13ifvqfd0","pricing_plan_id":"cebpf4jnsgd1na2vs0mg"},{"bike_id":"5bf1fd3d-106c-4b23-b455-ae5552f33fa7","system_id":"levelo_inurba_marseille","lat":43.25086,"lon":5.39524,"is_reserved":false,"is_disabled":false,"rental_uris":{"android":"levelo://app?vid=5bf1fd3d-106c-4b23-b455-ae5552f33fa7","ios":"levelo://app?vid=5bf1fd3d-106c-4b23-b455-ae5552f33fa7"},"vehicle_type_id":"4","last_reported":1741601333,"current_range_meters":12800,"station_id":"ce4bhm12rcd13ifvqgkg","pricing_plan_id":"cebpf4jnsgd1na2vs0mg"},{"bike_id":"22e6b03a-4ede-440e-a1aa-6617e4288f96","system_id":"levelo_inurba_marseille","lat":43.2593,"lon":5.40889,"is_reserved":false,"is_disabled":false,"rental_uris":{"android":"levelo://app?vid=22e6b03a-4ede-440e-a1aa-6617e4288f96","ios":"levelo://app?vid=22e6b03a-4ede-440e-a1aa-6617e4288f96"},"vehicle_type_id":"4","last_reported":1741601333,"current_range_meters":12800,"station_id":"ce4bhm92rcd13ifvqglg","pricing_plan_id":"cebpf4jnsgd1na2vs0mg"},{"bike_id":"fdaae881-8580-424e-8f1a-ad42c6fc5fc7","system_id":"levelo_inurba_marseille","lat":43.25951,"lon":5.40872,"is_reserved":false,"is_disabled":false,"rental_uris":{"android":"levelo://app?vid=fdaae881-8580-424e-8f1a-ad42c6fc5fc7","ios":"levelo://app?vid=fdaae881-8580-424e-8f1a-ad42c6fc5fc7"},"vehicle_type_id":"4","last_reported":1741601333,"current_range_meters":12800,"station_id":"ce4bhm92rcd13ifvqglg","pricing_plan_id":"cebpf4jnsgd1na2vs0mg"},{"bike_id":"9b823a3e-402f-4b01-86ec-bff5db2889c0","system_id":"levelo_inurba_marseille","lat":43.240731,"lon":5.3775,"is_reserved":false,"is_disabled":false,"rental_uris":{"android":"levelo://app?vid=9b823a3e-402f-4b01-86ec-bff5db2889c0","ios":"levelo://app?vid=9b823a3e-402f-4b01-86ec-bff5db2889c0"},"vehicle_type_id":"4","last_reported":1741601333,"current_range_meters":12800,"station_id":"ce4bhnp2rcd13ifvqgvg","pricing_plan_id":"cebpf4jnsgd1na2vs0mg"},{"bike_id":"d76ae8be-6c21-46e6-a277-dbefd6e37b08","system_id":"levelo_inurba_marseille","lat":43.28854,"lon":5.39322,"is_reserved":false,"is_disabled":false,"rental_uris":{"android":"levelo://app?vid=d76ae8be-6c21-46e6-a277-dbefd6e37b08","ios":"levelo://app?vid=d76ae8be-6c21-46e6-a277-dbefd6e37b08"},"vehicle_type_id":"4","last_reported":1741601333,"current_range_meters":13600,"station_id":"ce4bh2p2rcd13ifvqdi0","pricing_plan_id":"cebpf4jnsgd1na2vs0mg"},{"bike_id":"863fe8dd-e693-4f8e-84ce-2fd09c5d38bc","system_id":"levelo_inurba_marseille","lat":43.25005,"lon":5.38933,"is_reserved":false,"is_disabled":false,"rental_uris":{"android":"levelo://app?vid=863fe8dd-e693-4f8e-84ce-2fd09c5d38bc","ios":"levelo://app?vid=863fe8dd-e693-4f8e-84ce-2fd09c5d38bc"},"vehicle_type_id":"4","last_reported":1741601333,"current_range_meters":13600,"station_id":"ce4bhgp2rcd13ifvqfd0","pricing_plan_id":"cebpf4jnsgd1na2vs0mg"},{"bike_id":"399d7631-2415-4130-992a-5fc9f6287710","system_id":"levelo_inurba_marseille","lat":43.27209,"lon":5.3919,"is_reserved":false,"is_disabled":false,"rental_uris":{"android":"levelo://app?vid=399d7631-2415-4130-992a-5fc9f6287710","ios":"levelo://app?vid=399d7631-2415-4130-992a-5fc9f6287710"},"vehicle_type_id":"4","last_reported":1741601333,"current_range_meters":13600,"station_id":"ce4bhhp2rcd13ifvqfm0","pricing_plan_id":"cebpf4jnsgd1na2vs0mg"},{"bike_id":"caeb1ed2-b70b-481f-b341-ccaa84ec7ae8","system_id":"levelo_inurba_marseille","lat":43.24679,"lon":5.38171,"is_reserved":false,"is_disabled":false,"rental_uris":{"android":"levelo://app?vid=caeb1ed2-b70b-481f-b341-ccaa84ec7ae8","ios":"levelo://app?vid=caeb1ed2-b70b-481f-b341-ccaa84ec7ae8"},"vehicle_type_id":"4","last_reported":1741601333,"current_range_meters":13600,"station_id":"ce4bhih2rcd13ifvqfr0","pricing_plan_id":"cebpf4jnsgd1na2vs0mg"},{"bike_id":"8dc2c2dc-de0f-4fd2-b739-faf253fff5e5","system_id":"levelo_inurba_marseille","lat":43.23146,"lon":5.43722,"is_reserved":false,"is_disabled":false,"rental_uris":{"android":"levelo://app?vid=8dc2c2dc-de0f-4fd2-b739-faf253fff5e5","ios":"levelo://app?vid=8dc2c2dc-de0f-4fd2-b739-faf253fff5e5"},"vehicle_type_id":"4","last_reported":1741601333,"current_range_meters":13600,"station_id":"ce4bhmp2rcd13ifvqgog","pricing_plan_id":"cebpf4jnsgd1na2vs0mg"},{"bike_id":"787941c7-68e4-4a9e-b1f1-d3bf469258e1","system_id":"levelo_inurba_marseille","lat":43.24186,"lon":5.39725,"is_reserved":false,"is_disabled":false,"rental_uris":{"android":"levelo://app?vid=787941c7-68e4-4a9e-b1f1-d3bf469258e1","ios":"levelo://app?vid=787941c7-68e4-4a9e-b1f1-d3bf469258e1"},"vehicle_type_id":"4","last_reported":1741601333,"current_range_meters":13600,"station_id":"ce4bhn12rcd13ifvqgpg","pricing_plan_id":"cebpf4jnsgd1na2vs0mg"},{"bike_id":"ac118e0e-33e0-470c-969a-57b2ab25be5e","system_id":"levelo_inurba_marseille","lat":43.32324,"lon":5.40625,"is_reserved":false,"is_disabled":false,"rental_uris":{"android":"levelo://app?vid=ac118e0e-33e0-470c-969a-57b2ab25be5e","ios":"levelo://app?vid=ac118e0e-33e0-470c-969a-57b2ab25be5e"},"vehicle_type_id":"4","last_reported":1741601333,"current_range_meters":13600,"station_id":"ce4bhq92rcd13ifvqhjg","pricing_plan_id":"cebpf4jnsgd1na2vs0mg"},{"bike_id":"a0ad8365-3c52-4bbc-ba67-7068b1dc7232","system_id":"levelo_inurba_marseille","lat":43.32051,"lon":5.41545,"is_reserved":false,"is_disabled":false,"rental_uris":{"android":"levelo://app?vid=a0ad8365-3c52-4bbc-ba67-7068b1dc7232","ios":"levelo://app?vid=a0ad8365-3c52-4bbc-ba67-7068b1dc7232"},"vehicle_type_id":"4","last_reported":1741601333,"current_range_meters":13600,"station_id":"ce4bhq92rcd13ifvqhkg","pricing_plan_id":"cebpf4jnsgd1na2vs0mg"},{"bike_id":"80771939-f406-42f7-81c5-33180fd8a338","system_id":"levelo_inurba_marseille","lat":43.231967,"lon":5.355503,"is_reserved":false,"is_disabled":false,"rental_uris":{"android":"levelo://app?vid=80771939-f406-42f7-81c5-33180fd8a338","ios":"levelo://app?vid=80771939-f406-42f7-81c5-33180fd8a338"},"vehicle_type_id":"4","last_reported":1741601333,"current_range_meters":13600,"station_id":"ce4bhu92rcd13ifvqi70","pricing_plan_id":"cebpf4jnsgd1na2vs0mg"},{"bike_id":"09bbb690-af86-458c-bbad-70d10e2033ee","system_id":"levelo_inurba_marseille","lat":43.23055,"lon":5.35492,"is_reserved":false,"is_disabled":false,"rental_uris":{"android":"levelo://app?vid=09bbb690-af86-458c-bbad-70d10e2033ee","ios":"levelo://app?vid=09bbb690-af86-458c-bbad-70d10e2033ee"},"vehicle_type_id":"4","last_reported":1741601333,"current_range_meters":13600,"station_id":"cpo3342slgdg3j2ifvpg","pricing_plan_id":"cebpf4jnsgd1na2vs0mg"},{"bike_id":"fbe1c375-f34b-494e-9371-52a0657fca0e","system_id":"levelo_inurba_marseille","lat":43.29009,"lon":5.35616,"is_reserved":false,"is_disabled":false,"rental_uris":{"android":"levelo://app?vid=fbe1c375-f34b-494e-9371-52a0657fca0e","ios":"levelo://app?vid=fbe1c375-f34b-494e-9371-52a0657fca0e"},"vehicle_type_id":"4","last_reported":1741601333,"current_range_meters":14000,"station_id":"ce4bhb92rcd13ifvqen0","pricing_plan_id":"cebpf4jnsgd1na2vs0mg"},{"bike_id":"be41e619-397e-4189-8cf6-78245de87946","system_id":"levelo_inurba_marseille","lat":43.25915,"lon":5.40892,"is_reserved":false,"is_disabled":false,"rental_uris":{"android":"levelo://app?vid=be41e619-397e-4189-8cf6-78245de87946","ios":"levelo://app?vid=be41e619-397e-4189-8cf6-78245de87946"},"vehicle_type_id":"4","last_reported":1741601333,"current_range_meters":14000,"station_id":"ce4bhm92rcd13ifvqglg","pricing_plan_id":"cebpf4jnsgd1na2vs0mg"},{"bike_id":"51772d6c-c0b3-48d9-81cb-ae5466e6f822","system_id":"levelo_inurba_marseille","lat":43.23152,"lon":5.43723,"is_reserved":false,"is_disabled":false,"rental_uris":{"android":"levelo://app?vid=51772d6c-c0b3-48d9-81cb-ae5466e6f822","ios":"levelo://app?vid=51772d6c-c0b3-48d9-81cb-ae5466e6f822"},"vehicle_type_id":"4","last_reported":1741601333,"current_range_meters":14000,"station_id":"ce4bhmp2rcd13ifvqgog","pricing_plan_id":"cebpf4jnsgd1na2vs0mg"},{"bike_id":"54d47c4a-d06b-4a68-8996-b194ed82b98a","system_id":"levelo_inurba_marseille","lat":43.28453,"lon":5.35898,"is_reserved":false,"is_disabled":false,"rental_uris":{"android":"levelo://app?vid=54d47c4a-d06b-4a68-8996-b194ed82b98a","ios":"levelo://app?vid=54d47c4a-d06b-4a68-8996-b194ed82b98a"},"vehicle_type_id":"4","last_reported":1741601333,"current_range_meters":14400,"station_id":"ce4bhah2rcd13ifvqei0","pricing_plan_id":"cebpf4jnsgd1na2vs0mg"},{"bike_id":"2338626f-0565-48b6-9fa4-dab8eb33618f","system_id":"levelo_inurba_marseille","lat":43.257207,"lon":5.411147,"is_reserved":false,"is_disabled":false,"rental_uris":{"android":"levelo://app?vid=2338626f-0565-48b6-9fa4-dab8eb33618f","ios":"levelo://app?vid=2338626f-0565-48b6-9fa4-dab8eb33618f"},"vehicle_type_id":"4","last_reported":1741601333,"current_range_meters":14400,"station_id":"ce4bhkp2rcd13ifvqgd0","pricing_plan_id":"cebpf4jnsgd1na2vs0mg"},{"bike_id":"d62d41ac-6566-49eb-a16c-2c8700827e11","system_id":"levelo_inurba_marseille","lat":43.23156,"lon":5.43714,"is_reserved":false,"is_disabled":false,"rental_uris":{"android":"levelo://app?vid=d62d41ac-6566-49eb-a16c-2c8700827e11","ios":"levelo://app?vid=d62d41ac-6566-49eb-a16c-2c8700827e11"},"vehicle_type_id":"4","last_reported":1741601333,"current_range_meters":14400,"station_id":"ce4bhmp2rcd13ifvqgog","pricing_plan_id":"cebpf4jnsgd1na2vs0mg"},{"bike_id":"9ec52ed9-9c0e-4e61-a378-5327e3711632","system_id":"levelo_inurba_marseille","lat":43.24735,"lon":5.4114,"is_reserved":false,"is_disabled":false,"rental_uris":{"android":"levelo://app?vid=9ec52ed9-9c0e-4e61-a378-5327e3711632","ios":"levelo://app?vid=9ec52ed9-9c0e-4e61-a378-5327e3711632"},"vehicle_type_id":"4","last_reported":1741601333,"current_range_meters":14800,"station_id":"","pricing_plan_id":"cebpf4jnsgd1na2vs0mg"},{"bike_id":"b5f24760-138f-4676-b5a5-e1d99857a913","system_id":"levelo_inurba_marseille","lat":43.29263,"lon":5.37634,"is_reserved":false,"is_disabled":false,"rental_uris":{"android":"levelo://app?vid=b5f24760-138f-4676-b5a5-e1d99857a913","ios":"levelo://app?vid=b5f24760-138f-4676-b5a5-e1d99857a913"},"vehicle_type_id":"4","last_reported":1741601333,"current_range_meters":14800,"station_id":"ce4bgi12rcd13ifvqb80","pricing_plan_id":"cebpf4jnsgd1na2vs0mg"},{"bike_id":"6c925a33-922a-4f5d-a19e-2ae09dadacc9","system_id":"levelo_inurba_marseille","lat":43.31361,"lon":5.38458,"is_reserved":false,"is_disabled":false,"rental_uris":{"android":"levelo://app?vid=6c925a33-922a-4f5d-a19e-2ae09dadacc9","ios":"levelo://app?vid=6c925a33-922a-4f5d-a19e-2ae09dadacc9"},"vehicle_type_id":"4","last_reported":1741601333,"current_range_meters":14800,"station_id":"ce4bgt92rcd13ifvqcf0","pricing_plan_id":"cebpf4jnsgd1na2vs0mg"},{"bike_id":"f917b893-b633-4c42-b8c4-f4081f87ef9b","system_id":"levelo_inurba_marseille","lat":43.30469,"lon":5.3791,"is_reserved":false,"is_disabled":false,"rental_uris":{"android":"levelo://app?vid=f917b893-b633-4c42-b8c4-f4081f87ef9b","ios":"levelo://app?vid=f917b893-b633-4c42-b8c4-f4081f87ef9b"},"vehicle_type_id":"4","last_reported":1741601333,"current_range_meters":14800,"station_id":"ce4bgup2rcd13ifvqcn0","pricing_plan_id":"cebpf4jnsgd1na2vs0mg"},{"bike_id":"ccbf617d-c92c-4154-ad70-fcdbe832004f","system_id":"levelo_inurba_marseille","lat":43.28138,"lon":5.42647,"is_reserved":false,"is_disabled":false,"rental_uris":{"android":"levelo://app?vid=ccbf617d-c92c-4154-ad70-fcdbe832004f","ios":"levelo://app?vid=ccbf617d-c92c-4154-ad70-fcdbe832004f"},"vehicle_type_id":"4","last_reported":1741601333,"current_range_meters":14800,"station_id":"ce4bhnh2rcd13ifvqgug","pricing_plan_id":"cebpf4jnsgd1na2vs0mg"},{"bike_id":"acc1658b-7ea3-44a5-a65b-40f1faa0438d","system_id":"levelo_inurba_marseille","lat":43.32552,"lon":5.41488,"is_reserved":false,"is_disabled":false,"rental_uris":{"android":"levelo://app?vid=acc1658b-7ea3-44a5-a65b-40f1faa0438d","ios":"levelo://app?vid=acc1658b-7ea3-44a5-a65b-40f1faa0438d"},"vehicle_type_id":"4","last_reported":1741601333,"current_range_meters":14800,"station_id":"ce4bhq12rcd13ifvqhhg","pricing_plan_id":"cebpf4jnsgd1na2vs0mg"},{"bike_id":"1e61f1c2-f1b8-4841-8ffd-ffd9ba5d4378","system_id":"levelo_inurba_marseille","lat":43.30554,"lon":5.36529,"is_reserved":false,"is_disabled":false,"rental_uris":{"android":"levelo://app?vid=1e61f1c2-f1b8-4841-8ffd-ffd9ba5d4378","ios":"levelo://app?vid=1e61f1c2-f1b8-4841-8ffd-ffd9ba5d4378"},"vehicle_type_id":"4","last_reported":1741601333,"current_range_meters":15200,"station_id":"ce4bgs12rcd13ifvqcag","pricing_plan_id":"cebpf4jnsgd1na2vs0mg"},{"bike_id":"a44b4ad2-e639-4c9a-8fb7-52bbbdc7ff12","system_id":"levelo_inurba_marseille","lat":43.25003,"lon":5.38926,"is_reserved":false,"is_disabled":false,"rental_uris":{"android":"levelo://app?vid=a44b4ad2-e639-4c9a-8fb7-52bbbdc7ff12","ios":"levelo://app?vid=a44b4ad2-e639-4c9a-8fb7-52bbbdc7ff12"},"vehicle_type_id":"4","last_reported":1741601333,"current_range_meters":15200,"station_id":"ce4bhgp2rcd13ifvqfd0","pricing_plan_id":"cebpf4jnsgd1na2vs0mg"},{"bike_id":"5eb013d6-71a0-40c2-81ea-538226936e0d","system_id":"levelo_inurba_marseille","lat":43.23143,"lon":5.43719,"is_reserved":false,"is_disabled":false,"rental_uris":{"android":"levelo://app?vid=5eb013d6-71a0-40c2-81ea-538226936e0d","ios":"levelo://app?vid=5eb013d6-71a0-40c2-81ea-538226936e0d"},"vehicle_type_id":"4","last_reported":1741601333,"current_range_meters":15200,"station_id":"ce4bhmp2rcd13ifvqgog","pricing_plan_id":"cebpf4jnsgd1na2vs0mg"},{"bike_id":"f381c9bd-14fa-41ab-b589-3ecebd6dfe48","system_id":"levelo_inurba_marseille","lat":43.32367,"lon":5.36751,"is_reserved":false,"is_disabled":false,"rental_uris":{"android":"levelo://app?vid=f381c9bd-14fa-41ab-b589-3ecebd6dfe48","ios":"levelo://app?vid=f381c9bd-14fa-41ab-b589-3ecebd6dfe48"},"vehicle_type_id":"4","last_reported":1741601333,"current_range_meters":15200,"station_id":"ce4bhsh2rcd13ifvqi2g","pricing_plan_id":"cebpf4jnsgd1na2vs0mg"},{"bike_id":"2204a875-e8bb-48f6-a8f4-9662d26dd96f","system_id":"levelo_inurba_marseille","lat":43.30457,"lon":5.36851,"is_reserved":false,"is_disabled":false,"rental_uris":{"android":"levelo://app?vid=2204a875-e8bb-48f6-a8f4-9662d26dd96f","ios":"levelo://app?vid=2204a875-e8bb-48f6-a8f4-9662d26dd96f"},"vehicle_type_id":"4","last_reported":1741601333,"current_range_meters":16000,"station_id":"ce4bgrp2rcd13ifvqc9g","pricing_plan_id":"cebpf4jnsgd1na2vs0mg"},{"bike_id":"17f794b7-dc79-4752-a730-13a2fc22bda0","system_id":"levelo_inurba_marseille","lat":43.30953,"lon":5.39033,"is_reserved":false,"is_disabled":false,"rental_uris":{"android":"levelo://app?vid=17f794b7-dc79-4752-a730-13a2fc22bda0","ios":"levelo://app?vid=17f794b7-dc79-4752-a730-13a2fc22bda0"},"vehicle_type_id":"4","last_reported":1741601333,"current_range_meters":16000,"station_id":"ce4bgup2rcd13ifvqco0","pricing_plan_id":"cebpf4jnsgd1na2vs0mg"},{"bike_id":"7be1b9f8-1813-4ff9-9e93-8e123294b795","system_id":"levelo_inurba_marseille","lat":43.30965,"lon":5.39042,"is_reserved":false,"is_disabled":false,"rental_uris":{"android":"levelo://app?vid=7be1b9f8-1813-4ff9-9e93-8e123294b795","ios":"levelo://app?vid=7be1b9f8-1813-4ff9-9e93-8e123294b795"},"vehicle_type_id":"4","last_reported":1741601333,"current_range_meters":16000,"station_id":"ce4bgup2rcd13ifvqco0","pricing_plan_id":"cebpf4jnsgd1na2vs0mg"},{"bike_id":"5045428d-769b-4385-911e-e04bd40875eb","system_id":"levelo_inurba_marseille","lat":43.28462,"lon":5.35889,"is_reserved":false,"is_disabled":false,"rental_uris":{"android":"levelo://app?vid=5045428d-769b-4385-911e-e04bd40875eb","ios":"levelo://app?vid=5045428d-769b-4385-911e-e04bd40875eb"},"vehicle_type_id":"4","last_reported":1741601333,"current_range_meters":16000,"station_id":"ce4bhah2rcd13ifvqei0","pricing_plan_id":"cebpf4jnsgd1na2vs0mg"},{"bike_id":"ec158045-a82c-4f94-a9fe-4ee57996b1b4","system_id":"levelo_inurba_marseille","lat":43.251049,"lon":5.403261,"is_reserved":false,"is_disabled":false,"rental_uris":{"android":"levelo://app?vid=ec158045-a82c-4f94-a9fe-4ee57996b1b4","ios":"levelo://app?vid=ec158045-a82c-4f94-a9fe-4ee57996b1b4"},"vehicle_type_id":"4","last_reported":1741601333,"current_range_meters":16000,"station_id":"ce4bhlh2rcd13ifvqgig","pricing_plan_id":"cebpf4jnsgd1na2vs0mg"},{"bike_id":"27459785-4edf-4f27-b842-1984a62c6dde","system_id":"levelo_inurba_marseille","lat":43.2509,"lon":5.39531,"is_reserved":false,"is_disabled":false,"rental_uris":{"android":"levelo://app?vid=27459785-4edf-4f27-b842-1984a62c6dde","ios":"levelo://app?vid=27459785-4edf-4f27-b842-1984a62c6dde"},"vehicle_type_id":"4","last_reported":1741601333,"current_range_meters":16000,"station_id":"ce4bhm12rcd13ifvqgkg","pricing_plan_id":"cebpf4jnsgd1na2vs0mg"},{"bike_id":"72ecfd75-4877-4c4b-a7f9-6597d1b3a6f1","system_id":"levelo_inurba_marseille","lat":43.27494,"lon":5.42458,"is_reserved":false,"is_disabled":false,"rental_uris":{"android":"levelo://app?vid=72ecfd75-4877-4c4b-a7f9-6597d1b3a6f1","ios":"levelo://app?vid=72ecfd75-4877-4c4b-a7f9-6597d1b3a6f1"},"vehicle_type_id":"4","last_reported":1741601333,"current_range_meters":16000,"station_id":"ce4bhn92rcd13ifvqgrg","pricing_plan_id":"cebpf4jnsgd1na2vs0mg"},{"bike_id":"08b68eba-53e3-4dc9-b600-bf554c1ed500","system_id":"levelo_inurba_marseille","lat":43.29251,"lon":5.37644,"is_reserved":false,"is_disabled":false,"rental_uris":{"android":"levelo://app?vid=08b68eba-53e3-4dc9-b600-bf554c1ed500","ios":"levelo://app?vid=08b68eba-53e3-4dc9-b600-bf554c1ed500"},"vehicle_type_id":"4","last_reported":1741601333,"current_range_meters":16400,"station_id":"ce4bgi12rcd13ifvqb80","pricing_plan_id":"cebpf4jnsgd1na2vs0mg"},{"bike_id":"71689dd3-eb96-4d37-a920-02f80091c727","system_id":"levelo_inurba_marseille","lat":43.3017,"lon":5.38074,"is_reserved":false,"is_disabled":false,"rental_uris":{"android":"levelo://app?vid=71689dd3-eb96-4d37-a920-02f80091c727","ios":"levelo://app?vid=71689dd3-eb96-4d37-a920-02f80091c727"},"vehicle_type_id":"4","last_reported":1741601333,"current_range_meters":16400,"station_id":"ce4bgjp2rcd13ifvqbh0","pricing_plan_id":"cebpf4jnsgd1na2vs0mg"},{"bike_id":"14a64e50-67e4-4ccc-8dd3-b69f798262a6","system_id":"levelo_inurba_marseille","lat":43.25117,"lon":5.40324,"is_reserved":false,"is_disabled":false,"rental_uris":{"android":"levelo://app?vid=14a64e50-67e4-4ccc-8dd3-b69f798262a6","ios":"levelo://app?vid=14a64e50-67e4-4ccc-8dd3-b69f798262a6"},"vehicle_type_id":"4","last_reported":1741601333,"current_range_meters":16400,"station_id":"ce4bhlh2rcd13ifvqgig","pricing_plan_id":"cebpf4jnsgd1na2vs0mg"},{"bike_id":"24ea9c03-0afd-4100-ad62-62865e3edce9","system_id":"levelo_inurba_marseille","lat":43.23157,"lon":5.43713,"is_reserved":false,"is_disabled":false,"rental_uris":{"android":"levelo://app?vid=24ea9c03-0afd-4100-ad62-62865e3edce9","ios":"levelo://app?vid=24ea9c03-0afd-4100-ad62-62865e3edce9"},"vehicle_type_id":"4","last_reported":1741601333,"current_range_meters":16400,"station_id":"ce4bhmp2rcd13ifvqgog","pricing_plan_id":"cebpf4jnsgd1na2vs0mg"},{"bike_id":"844894c7-065d-427a-9941-8626b05204ed","system_id":"levelo_inurba_marseille","lat":43.32552,"lon":5.41462,"is_reserved":false,"is_disabled":false,"rental_uris":{"android":"levelo://app?vid=844894c7-065d-427a-9941-8626b05204ed","ios":"levelo://app?vid=844894c7-065d-427a-9941-8626b05204ed"},"vehicle_type_id":"4","last_reported":1741601333,"current_range_meters":16400,"station_id":"ce4bhq12rcd13ifvqhhg","pricing_plan_id":"cebpf4jnsgd1na2vs0mg"},{"bike_id":"bf49a0fd-bfe2-4bbb-8d6a-0540c7d91d25","system_id":"levelo_inurba_marseille","lat":43.32399,"lon":5.36636,"is_reserved":false,"is_disabled":false,"rental_uris":{"android":"levelo://app?vid=bf49a0fd-bfe2-4bbb-8d6a-0540c7d91d25","ios":"levelo://app?vid=bf49a0fd-bfe2-4bbb-8d6a-0540c7d91d25"},"vehicle_type_id":"4","last_reported":1741601333,"current_range_meters":16800,"station_id":"","pricing_plan_id":"cebpf4jnsgd1na2vs0mg"},{"bike_id":"0f520d00-ebca-4721-9b5a-856107a487e4","system_id":"levelo_inurba_marseille","lat":43.31244,"lon":5.36841,"is_reserved":false,"is_disabled":false,"rental_uris":{"android":"levelo://app?vid=0f520d00-ebca-4721-9b5a-856107a487e4","ios":"levelo://app?vid=0f520d00-ebca-4721-9b5a-856107a487e4"},"vehicle_type_id":"4","last_reported":1741601333,"current_range_meters":16800,"station_id":"ce4bgl92rcd13ifvqbq0","pricing_plan_id":"cebpf4jnsgd1na2vs0mg"},{"bike_id":"caed4545-182d-42df-8230-6bdcdcfdf765","system_id":"levelo_inurba_marseille","lat":43.31199,"lon":5.36871,"is_reserved":false,"is_disabled":false,"rental_uris":{"android":"levelo://app?vid=caed4545-182d-42df-8230-6bdcdcfdf765","ios":"levelo://app?vid=caed4545-182d-42df-8230-6bdcdcfdf765"},"vehicle_type_id":"4","last_reported":1741601333,"current_range_meters":16800,"station_id":"ce4bgl92rcd13ifvqbq0","pricing_plan_id":"cebpf4jnsgd1na2vs0mg"},{"bike_id":"3e19dab8-46fe-40ac-bdf3-26b4f9e3cbe2","system_id":"levelo_inurba_marseille","lat":43.30586,"lon":5.36727,"is_reserved":false,"is_disabled":false,"rental_uris":{"android":"levelo://app?vid=3e19dab8-46fe-40ac-bdf3-26b4f9e3cbe2","ios":"levelo://app?vid=3e19dab8-46fe-40ac-bdf3-26b4f9e3cbe2"},"vehicle_type_id":"4","last_reported":1741601333,"current_range_meters":16800,"station_id":"ce4bgrp2rcd13ifvqc9g","pricing_plan_id":"cebpf4jnsgd1na2vs0mg"},{"bike_id":"dabcac08-9e1d-4dd5-b329-291117ca1428","system_id":"levelo_inurba_marseille","lat":43.2867,"lon":5.38681,"is_reserved":false,"is_disabled":false,"rental_uris":{"android":"levelo://app?vid=dabcac08-9e1d-4dd5-b329-291117ca1428","ios":"levelo://app?vid=dabcac08-9e1d-4dd5-b329-291117ca1428"},"vehicle_type_id":"4","last_reported":1741601333,"current_range_meters":16800,"station_id":"ce4bh492rcd13ifvqdug","pricing_plan_id":"cebpf4jnsgd1na2vs0mg"},{"bike_id":"d251d782-b180-44f3-bb14-e2dcdfc4c824","system_id":"levelo_inurba_marseille","lat":43.24656,"lon":5.38898,"is_reserved":false,"is_disabled":false,"rental_uris":{"android":"levelo://app?vid=d251d782-b180-44f3-bb14-e2dcdfc4c824","ios":"levelo://app?vid=d251d782-b180-44f3-bb14-e2dcdfc4c824"},"vehicle_type_id":"4","last_reported":1741601333,"current_range_meters":16800,"station_id":"ce4bhg12rcd13ifvqf60","pricing_plan_id":"cebpf4jnsgd1na2vs0mg"},{"bike_id":"ae652665-0435-4c80-acfd-3cdc68226fb5","system_id":"levelo_inurba_marseille","lat":43.27211,"lon":5.39187,"is_reserved":false,"is_disabled":false,"rental_uris":{"android":"levelo://app?vid=ae652665-0435-4c80-acfd-3cdc68226fb5","ios":"levelo://app?vid=ae652665-0435-4c80-acfd-3cdc68226fb5"},"vehicle_type_id":"4","last_reported":1741601333,"current_range_meters":16800,"station_id":"ce4bhhp2rcd13ifvqfm0","pricing_plan_id":"cebpf4jnsgd1na2vs0mg"},{"bike_id":"ca57d901-cb2c-48c2-91cf-ac2cee86a3a4","system_id":"levelo_inurba_marseille","lat":43.23142,"lon":5.43721,"is_reserved":false,"is_disabled":false,"rental_uris":{"android":"levelo://app?vid=ca57d901-cb2c-48c2-91cf-ac2cee86a3a4","ios":"levelo://app?vid=ca57d901-cb2c-48c2-91cf-ac2cee86a3a4"},"vehicle_type_id":"4","last_reported":1741601333,"current_range_meters":16800,"station_id":"ce4bhmp2rcd13ifvqgog","pricing_plan_id":"cebpf4jnsgd1na2vs0mg"},{"bike_id":"7cf8cfd9-fb89-4324-a363-3737cfb5543e","system_id":"levelo_inurba_marseille","lat":43.27898,"lon":5.39176,"is_reserved":false,"is_disabled":false,"rental_uris":{"android":"levelo://app?vid=7cf8cfd9-fb89-4324-a363-3737cfb5543e","ios":"levelo://app?vid=7cf8cfd9-fb89-4324-a363-3737cfb5543e"},"vehicle_type_id":"4","last_reported":1741601333,"current_range_meters":17200,"station_id":"","pricing_plan_id":"cebpf4jnsgd1na2vs0mg"},{"bike_id":"259dde30-071d-4e72-9e93-2afe0e28cbba","system_id":"levelo_inurba_marseille","lat":43.30641,"lon":5.37339,"is_reserved":false,"is_disabled":false,"rental_uris":{"android":"levelo://app?vid=259dde30-071d-4e72-9e93-2afe0e28cbba","ios":"levelo://app?vid=259dde30-071d-4e72-9e93-2afe0e28cbba"},"vehicle_type_id":"4","last_reported":1741601333,"current_range_meters":17200,"station_id":"","pricing_plan_id":"cebpf4jnsgd1na2vs0mg"},{"bike_id":"e4f61b86-04a4-4652-a877-15de8ddf1997","system_id":"levelo_inurba_marseille","lat":43.31236,"lon":5.36845,"is_reserved":false,"is_disabled":false,"rental_uris":{"android":"levelo://app?vid=e4f61b86-04a4-4652-a877-15de8ddf1997","ios":"levelo://app?vid=e4f61b86-04a4-4652-a877-15de8ddf1997"},"vehicle_type_id":"4","last_reported":1741601333,"current_range_meters":17200,"station_id":"ce4bgl92rcd13ifvqbq0","pricing_plan_id":"cebpf4jnsgd1na2vs0mg"},{"bike_id":"21f21c6a-0a25-4771-8949-9c5a882b7128","system_id":"levelo_inurba_marseille","lat":43.30205,"lon":5.36628,"is_reserved":false,"is_disabled":false,"rental_uris":{"android":"levelo://app?vid=21f21c6a-0a25-4771-8949-9c5a882b7128","ios":"levelo://app?vid=21f21c6a-0a25-4771-8949-9c5a882b7128"},"vehicle_type_id":"4","last_reported":1741601333,"current_range_meters":17200,"station_id":"ce4bgrh2rcd13ifvqc8g","pricing_plan_id":"cebpf4jnsgd1na2vs0mg"},{"bike_id":"dcd0c5eb-36c9-4542-9b13-ded8eea11997","system_id":"levelo_inurba_marseille","lat":43.30126,"lon":5.3743,"is_reserved":false,"is_disabled":false,"rental_uris":{"android":"levelo://app?vid=dcd0c5eb-36c9-4542-9b13-ded8eea11997","ios":"levelo://app?vid=dcd0c5eb-36c9-4542-9b13-ded8eea11997"},"vehicle_type_id":"4","last_reported":1741601333,"current_range_meters":17200,"station_id":"ce4bgs92rcd13ifvqcc0","pricing_plan_id":"cebpf4jnsgd1na2vs0mg"},{"bike_id":"5c4469da-4264-472b-a0c7-d28eb24db0a2","system_id":"levelo_inurba_marseille","lat":43.30883,"lon":5.37193,"is_reserved":false,"is_disabled":false,"rental_uris":{"android":"levelo://app?vid=5c4469da-4264-472b-a0c7-d28eb24db0a2","ios":"levelo://app?vid=5c4469da-4264-472b-a0c7-d28eb24db0a2"},"vehicle_type_id":"4","last_reported":1741601333,"current_range_meters":17200,"station_id":"ce4bguh2rcd13ifvqckg","pricing_plan_id":"cebpf4jnsgd1na2vs0mg"},{"bike_id":"450acae0-8355-4a32-b643-b42f50146bd9","system_id":"levelo_inurba_marseille","lat":43.29247,"lon":5.40126,"is_reserved":false,"is_disabled":false,"rental_uris":{"android":"levelo://app?vid=450acae0-8355-4a32-b643-b42f50146bd9","ios":"levelo://app?vid=450acae0-8355-4a32-b643-b42f50146bd9"},"vehicle_type_id":"4","last_reported":1741601333,"current_range_meters":17200,"station_id":"ce4bh312rcd13ifvqdk0","pricing_plan_id":"cebpf4jnsgd1na2vs0mg"},{"bike_id":"85b88b80-4d92-4749-86bd-74cce91ed4a9","system_id":"levelo_inurba_marseille","lat":43.294309,"lon":5.397557,"is_reserved":false,"is_disabled":false,"rental_uris":{"android":"levelo://app?vid=85b88b80-4d92-4749-86bd-74cce91ed4a9","ios":"levelo://app?vid=85b88b80-4d92-4749-86bd-74cce91ed4a9"},"vehicle_type_id":"4","last_reported":1741601333,"current_range_meters":17200,"station_id":"ce4bh3h2rcd13ifvqdo0","pricing_plan_id":"cebpf4jnsgd1na2vs0mg"},{"bike_id":"a3d8580a-1e25-4809-bd9d-11c60058ede4","system_id":"levelo_inurba_marseille","lat":43.25923,"lon":5.40899,"is_reserved":false,"is_disabled":false,"rental_uris":{"android":"levelo://app?vid=a3d8580a-1e25-4809-bd9d-11c60058ede4","ios":"levelo://app?vid=a3d8580a-1e25-4809-bd9d-11c60058ede4"},"vehicle_type_id":"4","last_reported":1741601333,"current_range_meters":17200,"station_id":"ce4bhm92rcd13ifvqglg","pricing_plan_id":"cebpf4jnsgd1na2vs0mg"},{"bike_id":"1a26001d-d49a-47a3-a711-f7ff22c1c811","system_id":"levelo_inurba_marseille","lat":43.2889,"lon":5.37155,"is_reserved":false,"is_disabled":false,"rental_uris":{"android":"levelo://app?vid=1a26001d-d49a-47a3-a711-f7ff22c1c811","ios":"levelo://app?vid=1a26001d-d49a-47a3-a711-f7ff22c1c811"},"vehicle_type_id":"4","last_reported":1741601333,"current_range_meters":17600,"station_id":"","pricing_plan_id":"cebpf4jnsgd1na2vs0mg"},{"bike_id":"ac8e6b48-e483-4aef-bede-c5576834d55a","system_id":"levelo_inurba_marseille","lat":43.29828,"lon":5.36282,"is_reserved":false,"is_disabled":false,"rental_uris":{"android":"levelo://app?vid=ac8e6b48-e483-4aef-bede-c5576834d55a","ios":"levelo://app?vid=ac8e6b48-e483-4aef-bede-c5576834d55a"},"vehicle_type_id":"4","last_reported":1741601333,"current_range_meters":17600,"station_id":"ce4bgpp2rcd13ifvqc3g","pricing_plan_id":"cebpf4jnsgd1na2vs0mg"},{"bike_id":"d0852a77-0c39-4073-b89d-15b85c3aa5e5","system_id":"levelo_inurba_marseille","lat":43.30188,"lon":5.37396,"is_reserved":false,"is_disabled":false,"rental_uris":{"android":"levelo://app?vid=d0852a77-0c39-4073-b89d-15b85c3aa5e5","ios":"levelo://app?vid=d0852a77-0c39-4073-b89d-15b85c3aa5e5"},"vehicle_type_id":"4","last_reported":1741601333,"current_range_meters":17600,"station_id":"ce4bgs92rcd13ifvqcc0","pricing_plan_id":"cebpf4jnsgd1na2vs0mg"},{"bike_id":"38f64721-7795-4ec9-98ec-dbc5400c1619","system_id":"levelo_inurba_marseille","lat":43.30145,"lon":5.37413,"is_reserved":false,"is_disabled":false,"rental_uris":{"android":"levelo://app?vid=38f64721-7795-4ec9-98ec-dbc5400c1619","ios":"levelo://app?vid=38f64721-7795-4ec9-98ec-dbc5400c1619"},"vehicle_type_id":"4","last_reported":1741601333,"current_range_meters":17600,"station_id":"ce4bgs92rcd13ifvqcc0","pricing_plan_id":"cebpf4jnsgd1na2vs0mg"},{"bike_id":"13422b31-3d82-46fb-a112-4ed6bb411087","system_id":"levelo_inurba_marseille","lat":43.30468,"lon":5.37901,"is_reserved":false,"is_disabled":false,"rental_uris":{"android":"levelo://app?vid=13422b31-3d82-46fb-a112-4ed6bb411087","ios":"levelo://app?vid=13422b31-3d82-46fb-a112-4ed6bb411087"},"vehicle_type_id":"4","last_reported":1741601333,"current_range_meters":17600,"station_id":"ce4bgup2rcd13ifvqcn0","pricing_plan_id":"cebpf4jnsgd1na2vs0mg"},{"bike_id":"a1af23de-eb8d-4bbf-ade2-db5475d07d47","system_id":"levelo_inurba_marseille","lat":43.29228,"lon":5.36081,"is_reserved":false,"is_disabled":false,"rental_uris":{"android":"levelo://app?vid=a1af23de-eb8d-4bbf-ade2-db5475d07d47","ios":"levelo://app?vid=a1af23de-eb8d-4bbf-ade2-db5475d07d47"},"vehicle_type_id":"4","last_reported":1741601333,"current_range_meters":17600,"station_id":"ce4bhbh2rcd13ifvqeqg","pricing_plan_id":"cebpf4jnsgd1na2vs0mg"},{"bike_id":"e59567f6-dc79-4e89-b886-508089119a97","system_id":"levelo_inurba_marseille","lat":43.24176,"lon":5.39733,"is_reserved":false,"is_disabled":false,"rental_uris":{"android":"levelo://app?vid=e59567f6-dc79-4e89-b886-508089119a97","ios":"levelo://app?vid=e59567f6-dc79-4e89-b886-508089119a97"},"vehicle_type_id":"4","last_reported":1741601333,"current_range_meters":17600,"station_id":"ce4bhn12rcd13ifvqgpg","pricing_plan_id":"cebpf4jnsgd1na2vs0mg"},{"bike_id":"415e7a31-245d-4ead-9f33-dad092a04302","system_id":"levelo_inurba_marseille","lat":43.23059,"lon":5.35496,"is_reserved":false,"is_disabled":false,"rental_uris":{"android":"levelo://app?vid=415e7a31-245d-4ead-9f33-dad092a04302","ios":"levelo://app?vid=415e7a31-245d-4ead-9f33-dad092a04302"},"vehicle_type_id":"4","last_reported":1741601333,"current_range_meters":17600,"station_id":"cpo3342slgdg3j2ifvpg","pricing_plan_id":"cebpf4jnsgd1na2vs0mg"},{"bike_id":"42556de5-7fac-475f-9de9-63339d51f6c3","system_id":"levelo_inurba_marseille","lat":43.3054,"lon":5.3649,"is_reserved":false,"is_disabled":false,"rental_uris":{"android":"levelo://app?vid=42556de5-7fac-475f-9de9-63339d51f6c3","ios":"levelo://app?vid=42556de5-7fac-475f-9de9-63339d51f6c3"},"vehicle_type_id":"4","last_reported":1741601333,"current_range_meters":18000,"station_id":"","pricing_plan_id":"cebpf4jnsgd1na2vs0mg"},{"bike_id":"e5b36196-0fc6-485e-b44b-57b34b702101","system_id":"levelo_inurba_marseille","lat":43.29586,"lon":5.37508,"is_reserved":false,"is_disabled":false,"rental_uris":{"android":"levelo://app?vid=e5b36196-0fc6-485e-b44b-57b34b702101","ios":"levelo://app?vid=e5b36196-0fc6-485e-b44b-57b34b702101"},"vehicle_type_id":"4","last_reported":1741601333,"current_range_meters":18000,"station_id":"ce4bgh92rcd13ifvqb50","pricing_plan_id":"cebpf4jnsgd1na2vs0mg"},{"bike_id":"75e2ea12-bb92-4152-a989-c770d2190c05","system_id":"levelo_inurba_marseille","lat":43.29011,"lon":5.35609,"is_reserved":false,"is_disabled":false,"rental_uris":{"android":"levelo://app?vid=75e2ea12-bb92-4152-a989-c770d2190c05","ios":"levelo://app?vid=75e2ea12-bb92-4152-a989-c770d2190c05"},"vehicle_type_id":"4","last_reported":1741601333,"current_range_meters":18000,"station_id":"ce4bhb92rcd13ifvqen0","pricing_plan_id":"cebpf4jnsgd1na2vs0mg"},{"bike_id":"dfb969af-acc5-4600-9a61-5343c6daab4a","system_id":"levelo_inurba_marseille","lat":43.26471,"lon":5.39591,"is_reserved":false,"is_disabled":false,"rental_uris":{"android":"levelo://app?vid=dfb969af-acc5-4600-9a61-5343c6daab4a","ios":"levelo://app?vid=dfb969af-acc5-4600-9a61-5343c6daab4a"},"vehicle_type_id":"4","last_reported":1741601333,"current_range_meters":18000,"station_id":"ce4bhi12rcd13ifvqfq0","pricing_plan_id":"cebpf4jnsgd1na2vs0mg"},{"bike_id":"5ad5472d-e846-4bdf-bfcf-c93c09624c7d","system_id":"levelo_inurba_marseille","lat":43.23151,"lon":5.43721,"is_reserved":false,"is_disabled":false,"rental_uris":{"android":"levelo://app?vid=5ad5472d-e846-4bdf-bfcf-c93c09624c7d","ios":"levelo://app?vid=5ad5472d-e846-4bdf-bfcf-c93c09624c7d"},"vehicle_type_id":"4","last_reported":1741601333,"current_range_meters":18000,"station_id":"ce4bhmp2rcd13ifvqgog","pricing_plan_id":"cebpf4jnsgd1na2vs0mg"},{"bike_id":"3e37f03c-e5a4-4e97-951f-7786bb1c3928","system_id":"levelo_inurba_marseille","lat":43.23145,"lon":5.43724,"is_reserved":false,"is_disabled":false,"rental_uris":{"android":"levelo://app?vid=3e37f03c-e5a4-4e97-951f-7786bb1c3928","ios":"levelo://app?vid=3e37f03c-e5a4-4e97-951f-7786bb1c3928"},"vehicle_type_id":"4","last_reported":1741601333,"current_range_meters":18000,"station_id":"ce4bhmp2rcd13ifvqgog","pricing_plan_id":"cebpf4jnsgd1na2vs0mg"},{"bike_id":"2c300ed3-ce8f-4136-bb9c-f443a0876d97","system_id":"levelo_inurba_marseille","lat":43.27495,"lon":5.42468,"is_reserved":false,"is_disabled":false,"rental_uris":{"android":"levelo://app?vid=2c300ed3-ce8f-4136-bb9c-f443a0876d97","ios":"levelo://app?vid=2c300ed3-ce8f-4136-bb9c-f443a0876d97"},"vehicle_type_id":"4","last_reported":1741601333,"current_range_meters":18000,"station_id":"ce4bhn92rcd13ifvqgrg","pricing_plan_id":"cebpf4jnsgd1na2vs0mg"},{"bike_id":"2cdec81d-2593-4153-a426-2f527f1b29e2","system_id":"levelo_inurba_marseille","lat":43.23595,"lon":5.391,"is_reserved":false,"is_disabled":false,"rental_uris":{"android":"levelo://app?vid=2cdec81d-2593-4153-a426-2f527f1b29e2","ios":"levelo://app?vid=2cdec81d-2593-4153-a426-2f527f1b29e2"},"vehicle_type_id":"4","last_reported":1741601333,"current_range_meters":18800,"station_id":"","pricing_plan_id":"cebpf4jnsgd1na2vs0mg"},{"bike_id":"f6dc7e9d-be33-4c3d-b28e-234510ea7980","system_id":"levelo_inurba_marseille","lat":43.290791,"lon":5.38089,"is_reserved":false,"is_disabled":false,"rental_uris":{"android":"levelo://app?vid=f6dc7e9d-be33-4c3d-b28e-234510ea7980","ios":"levelo://app?vid=f6dc7e9d-be33-4c3d-b28e-234510ea7980"},"vehicle_type_id":"4","last_reported":1741601333,"current_range_meters":18800,"station_id":"ce4bh512rcd13ifvqe2g","pricing_plan_id":"cebpf4jnsgd1na2vs0mg"},{"bike_id":"df661ef6-2ccd-416a-95d1-2f0c080557f5","system_id":"levelo_inurba_marseille","lat":43.25928,"lon":5.40927,"is_reserved":false,"is_disabled":false,"rental_uris":{"android":"levelo://app?vid=df661ef6-2ccd-416a-95d1-2f0c080557f5","ios":"levelo://app?vid=df661ef6-2ccd-416a-95d1-2f0c080557f5"},"vehicle_type_id":"4","last_reported":1741601333,"current_range_meters":18800,"station_id":"ce4bhm92rcd13ifvqglg","pricing_plan_id":"cebpf4jnsgd1na2vs0mg"},{"bike_id":"1617cee3-cdfd-4818-b8d5-0b6b5b838d97","system_id":"levelo_inurba_marseille","lat":43.2408,"lon":5.37748,"is_reserved":false,"is_disabled":false,"rental_uris":{"android":"levelo://app?vid=1617cee3-cdfd-4818-b8d5-0b6b5b838d97","ios":"levelo://app?vid=1617cee3-cdfd-4818-b8d5-0b6b5b838d97"},"vehicle_type_id":"4","last_reported":1741601333,"current_range_meters":18800,"station_id":"ce4bhnp2rcd13ifvqgvg","pricing_plan_id":"cebpf4jnsgd1na2vs0mg"},{"bike_id":"303473d0-c71d-4532-867e-1af4d571971a","system_id":"levelo_inurba_marseille","lat":43.31093,"lon":5.42428,"is_reserved":false,"is_disabled":false,"rental_uris":{"android":"levelo://app?vid=303473d0-c71d-4532-867e-1af4d571971a","ios":"levelo://app?vid=303473d0-c71d-4532-867e-1af4d571971a"},"vehicle_type_id":"4","last_reported":1741601333,"current_range_meters":18800,"station_id":"ce4bhp92rcd13ifvqhag","pricing_plan_id":"cebpf4jnsgd1na2vs0mg"},{"bike_id":"711aad13-f76a-445d-a3cd-774e97e1da2d","system_id":"levelo_inurba_marseille","lat":43.32489,"lon":5.36573,"is_reserved":false,"is_disabled":false,"rental_uris":{"android":"levelo://app?vid=711aad13-f76a-445d-a3cd-774e97e1da2d","ios":"levelo://app?vid=711aad13-f76a-445d-a3cd-774e97e1da2d"},"vehicle_type_id":"4","last_reported":1741601333,"current_range_meters":18800,"station_id":"ce4bhs12rcd13ifvqhvg","pricing_plan_id":"cebpf4jnsgd1na2vs0mg"},{"bike_id":"f0b5f6b7-161e-4c72-8f30-8d8e8d5c374f","system_id":"levelo_inurba_marseille","lat":43.24578,"lon":5.40485,"is_reserved":false,"is_disabled":false,"rental_uris":{"android":"levelo://app?vid=f0b5f6b7-161e-4c72-8f30-8d8e8d5c374f","ios":"levelo://app?vid=f0b5f6b7-161e-4c72-8f30-8d8e8d5c374f"},"vehicle_type_id":"4","last_reported":1741601333,"current_range_meters":19200,"station_id":"","pricing_plan_id":"cebpf4jnsgd1na2vs0mg"},{"bike_id":"06f3a9b3-f065-4e4c-af83-aea38e6eb582","system_id":"levelo_inurba_marseille","lat":43.26496,"lon":5.39547,"is_reserved":false,"is_disabled":false,"rental_uris":{"android":"levelo://app?vid=06f3a9b3-f065-4e4c-af83-aea38e6eb582","ios":"levelo://app?vid=06f3a9b3-f065-4e4c-af83-aea38e6eb582"},"vehicle_type_id":"4","last_reported":1741601333,"current_range_meters":19200,"station_id":"ce4bhi12rcd13ifvqfq0","pricing_plan_id":"cebpf4jnsgd1na2vs0mg"},{"bike_id":"2481ac16-6e6d-4231-9b73-d02762112ebe","system_id":"levelo_inurba_marseille","lat":43.23191,"lon":5.39982,"is_reserved":false,"is_disabled":false,"rental_uris":{"android":"levelo://app?vid=2481ac16-6e6d-4231-9b73-d02762112ebe","ios":"levelo://app?vid=2481ac16-6e6d-4231-9b73-d02762112ebe"},"vehicle_type_id":"4","last_reported":1741601333,"current_range_meters":19200,"station_id":"ce4bhn12rcd13ifvqgqg","pricing_plan_id":"cebpf4jnsgd1na2vs0mg"},{"bike_id":"565febc3-3424-4d4c-95ca-5705a262f891","system_id":"levelo_inurba_marseille","lat":43.28156,"lon":5.42659,"is_reserved":false,"is_disabled":false,"rental_uris":{"android":"levelo://app?vid=565febc3-3424-4d4c-95ca-5705a262f891","ios":"levelo://app?vid=565febc3-3424-4d4c-95ca-5705a262f891"},"vehicle_type_id":"4","last_reported":1741601333,"current_range_meters":19200,"station_id":"ce4bhnh2rcd13ifvqgug","pricing_plan_id":"cebpf4jnsgd1na2vs0mg"},{"bike_id":"5540180e-55d0-4c4d-8e95-598bebdc1ae2","system_id":"levelo_inurba_marseille","lat":43.32485,"lon":5.36573,"is_reserved":false,"is_disabled":false,"rental_uris":{"android":"levelo://app?vid=5540180e-55d0-4c4d-8e95-598bebdc1ae2","ios":"levelo://app?vid=5540180e-55d0-4c4d-8e95-598bebdc1ae2"},"vehicle_type_id":"4","last_reported":1741601333,"current_range_meters":19200,"station_id":"ce4bhs12rcd13ifvqhvg","pricing_plan_id":"cebpf4jnsgd1na2vs0mg"},{"bike_id":"a26a52ca-313c-493d-b845-400de1383f29","system_id":"levelo_inurba_marseille","lat":43.23037,"lon":5.35473,"is_reserved":false,"is_disabled":false,"rental_uris":{"android":"levelo://app?vid=a26a52ca-313c-493d-b845-400de1383f29","ios":"levelo://app?vid=a26a52ca-313c-493d-b845-400de1383f29"},"vehicle_type_id":"4","last_reported":1741601333,"current_range_meters":19200,"station_id":"cpo3342slgdg3j2ifvpg","pricing_plan_id":"cebpf4jnsgd1na2vs0mg"},{"bike_id":"4cbf54e7-d0f8-40bf-916c-775ff332ff3e","system_id":"levelo_inurba_marseille","lat":43.29414,"lon":5.37376,"is_reserved":false,"is_disabled":false,"rental_uris":{"android":"levelo://app?vid=4cbf54e7-d0f8-40bf-916c-775ff332ff3e","ios":"levelo://app?vid=4cbf54e7-d0f8-40bf-916c-775ff332ff3e"},"vehicle_type_id":"4","last_reported":1741601333,"current_range_meters":19600,"station_id":"ce4bgpp2rcd13ifvqc3g","pricing_plan_id":"cebpf4jnsgd1na2vs0mg"},{"bike_id":"78549cf8-b0cc-41c9-ae90-189226d24ef8","system_id":"levelo_inurba_marseille","lat":43.29845,"lon":5.36296,"is_reserved":false,"is_disabled":false,"rental_uris":{"android":"levelo://app?vid=78549cf8-b0cc-41c9-ae90-189226d24ef8","ios":"levelo://app?vid=78549cf8-b0cc-41c9-ae90-189226d24ef8"},"vehicle_type_id":"4","last_reported":1741601333,"current_range_meters":19600,"station_id":"ce4bgpp2rcd13ifvqc3g","pricing_plan_id":"cebpf4jnsgd1na2vs0mg"},{"bike_id":"404c75c1-b6ef-4728-9d23-4692de57273e","system_id":"levelo_inurba_marseille","lat":43.30553,"lon":5.36715,"is_reserved":false,"is_disabled":false,"rental_uris":{"android":"levelo://app?vid=404c75c1-b6ef-4728-9d23-4692de57273e","ios":"levelo://app?vid=404c75c1-b6ef-4728-9d23-4692de57273e"},"vehicle_type_id":"4","last_reported":1741601333,"current_range_meters":19600,"station_id":"ce4bgrp2rcd13ifvqc9g","pricing_plan_id":"cebpf4jnsgd1na2vs0mg"},{"bike_id":"aad3e1c6-0507-458e-a41b-d64c659dbc8f","system_id":"levelo_inurba_marseille","lat":43.2835,"lon":5.38115,"is_reserved":false,"is_disabled":false,"rental_uris":{"android":"levelo://app?vid=aad3e1c6-0507-458e-a41b-d64c659dbc8f","ios":"levelo://app?vid=aad3e1c6-0507-458e-a41b-d64c659dbc8f"},"vehicle_type_id":"4","last_reported":1741601333,"current_range_meters":19600,"station_id":"ce4bh412rcd13ifvqdr0","pricing_plan_id":"cebpf4jnsgd1na2vs0mg"},{"bike_id":"bb63f5c7-f519-4d28-97f8-05e5dd552c58","system_id":"levelo_inurba_marseille","lat":43.2847,"lon":5.35889,"is_reserved":false,"is_disabled":false,"rental_uris":{"android":"levelo://app?vid=bb63f5c7-f519-4d28-97f8-05e5dd552c58","ios":"levelo://app?vid=bb63f5c7-f519-4d28-97f8-05e5dd552c58"},"vehicle_type_id":"4","last_reported":1741601333,"current_range_meters":19600,"station_id":"ce4bhah2rcd13ifvqei0","pricing_plan_id":"cebpf4jnsgd1na2vs0mg"},{"bike_id":"a6843a6c-8fb3-490e-a3c5-a554645cfe10","system_id":"levelo_inurba_marseille","lat":43.300118,"lon":5.388821,"is_reserved":false,"is_disabled":false,"rental_uris":{"android":"levelo://app?vid=a6843a6c-8fb3-490e-a3c5-a554645cfe10","ios":"levelo://app?vid=a6843a6c-8fb3-490e-a3c5-a554645cfe10"},"vehicle_type_id":"4","last_reported":1741601333,"current_range_meters":19600,"station_id":"ce4bhi12rcd13ifvqfo0","pricing_plan_id":"cebpf4jnsgd1na2vs0mg"},{"bike_id":"210fdac4-a708-426e-b618-80e060bd1617","system_id":"levelo_inurba_marseille","lat":43.25122,"lon":5.4034,"is_reserved":false,"is_disabled":false,"rental_uris":{"android":"levelo://app?vid=210fdac4-a708-426e-b618-80e060bd1617","ios":"levelo://app?vid=210fdac4-a708-426e-b618-80e060bd1617"},"vehicle_type_id":"4","last_reported":1741601333,"current_range_meters":19600,"station_id":"ce4bhlh2rcd13ifvqgig","pricing_plan_id":"cebpf4jnsgd1na2vs0mg"},{"bike_id":"fdaa1059-b581-419b-ac4d-269c36f9ab41","system_id":"levelo_inurba_marseille","lat":43.32102,"lon":5.36772,"is_reserved":false,"is_disabled":false,"rental_uris":{"android":"levelo://app?vid=fdaa1059-b581-419b-ac4d-269c36f9ab41","ios":"levelo://app?vid=fdaa1059-b581-419b-ac4d-269c36f9ab41"},"vehicle_type_id":"4","last_reported":1741601333,"current_range_meters":19600,"station_id":"ce4bhrh2rcd13ifvqhug","pricing_plan_id":"cebpf4jnsgd1na2vs0mg"},{"bike_id":"0264b48f-2536-493e-af99-ea6033829b2f","system_id":"levelo_inurba_marseille","lat":43.23193,"lon":5.35553,"is_reserved":false,"is_disabled":false,"rental_uris":{"android":"levelo://app?vid=0264b48f-2536-493e-af99-ea6033829b2f","ios":"levelo://app?vid=0264b48f-2536-493e-af99-ea6033829b2f"},"vehicle_type_id":"4","last_reported":1741601333,"current_range_meters":19600,"station_id":"ce4bhu92rcd13ifvqi70","pricing_plan_id":"cebpf4jnsgd1na2vs0mg"},{"bike_id":"17b872eb-086c-460e-bcad-782a4a781cf9","system_id":"levelo_inurba_marseille","lat":43.2516,"lon":5.424853,"is_reserved":false,"is_disabled":false,"rental_uris":{"android":"levelo://app?vid=17b872eb-086c-460e-bcad-782a4a781cf9","ios":"levelo://app?vid=17b872eb-086c-460e-bcad-782a4a781cf9"},"vehicle_type_id":"4","last_reported":1741601333,"current_range_meters":20000,"station_id":"","pricing_plan_id":"cebpf4jnsgd1na2vs0mg"},{"bike_id":"d2e0d35c-446e-4af5-b4bc-3be089ec6678","system_id":"levelo_inurba_marseille","lat":43.28686,"lon":5.38657,"is_reserved":false,"is_disabled":false,"rental_uris":{"android":"levelo://app?vid=d2e0d35c-446e-4af5-b4bc-3be089ec6678","ios":"levelo://app?vid=d2e0d35c-446e-4af5-b4bc-3be089ec6678"},"vehicle_type_id":"4","last_reported":1741601333,"current_range_meters":20000,"station_id":"ce4bh492rcd13ifvqdug","pricing_plan_id":"cebpf4jnsgd1na2vs0mg"},{"bike_id":"8319e595-7f8c-4f1e-a7d6-211dd9b337e8","system_id":"levelo_inurba_marseille","lat":43.246633,"lon":5.38162,"is_reserved":false,"is_disabled":false,"rental_uris":{"android":"levelo://app?vid=8319e595-7f8c-4f1e-a7d6-211dd9b337e8","ios":"levelo://app?vid=8319e595-7f8c-4f1e-a7d6-211dd9b337e8"},"vehicle_type_id":"4","last_reported":1741601333,"current_range_meters":20000,"station_id":"ce4bhah2rcd13ifvqej0","pricing_plan_id":"cebpf4jnsgd1na2vs0mg"},{"bike_id":"33cb5104-e4d3-4956-880b-001178ccb2fc","system_id":"levelo_inurba_marseille","lat":43.32558,"lon":5.41451,"is_reserved":false,"is_disabled":false,"rental_uris":{"android":"levelo://app?vid=33cb5104-e4d3-4956-880b-001178ccb2fc","ios":"levelo://app?vid=33cb5104-e4d3-4956-880b-001178ccb2fc"},"vehicle_type_id":"4","last_reported":1741601333,"current_range_meters":20000,"station_id":"ce4bhq12rcd13ifvqhhg","pricing_plan_id":"cebpf4jnsgd1na2vs0mg"},{"bike_id":"e3396767-2dd5-455c-9016-b2f3dd8833e2","system_id":"levelo_inurba_marseille","lat":43.29785,"lon":5.38115,"is_reserved":false,"is_disabled":false,"rental_uris":{"android":"levelo://app?vid=e3396767-2dd5-455c-9016-b2f3dd8833e2","ios":"levelo://app?vid=e3396767-2dd5-455c-9016-b2f3dd8833e2"},"vehicle_type_id":"4","last_reported":1741601333,"current_range_meters":20400,"station_id":"ce4bgip2rcd13ifvqbb0","pricing_plan_id":"cebpf4jnsgd1na2vs0mg"},{"bike_id":"7e3b5b9c-b7aa-44b6-8a5b-79798f7b22fc","system_id":"levelo_inurba_marseille","lat":43.3055,"lon":5.36708,"is_reserved":false,"is_disabled":false,"rental_uris":{"android":"levelo://app?vid=7e3b5b9c-b7aa-44b6-8a5b-79798f7b22fc","ios":"levelo://app?vid=7e3b5b9c-b7aa-44b6-8a5b-79798f7b22fc"},"vehicle_type_id":"4","last_reported":1741601333,"current_range_meters":20400,"station_id":"ce4bgrp2rcd13ifvqc9g","pricing_plan_id":"cebpf4jnsgd1na2vs0mg"},{"bike_id":"aa7ef81b-b6eb-4b86-b23e-5267b418199d","system_id":"levelo_inurba_marseille","lat":43.31704,"lon":5.37767,"is_reserved":false,"is_disabled":false,"rental_uris":{"android":"levelo://app?vid=aa7ef81b-b6eb-4b86-b23e-5267b418199d","ios":"levelo://app?vid=aa7ef81b-b6eb-4b86-b23e-5267b418199d"},"vehicle_type_id":"4","last_reported":1741601333,"current_range_meters":20400,"station_id":"ce4bgth2rcd13ifvqch0","pricing_plan_id":"cebpf4jnsgd1na2vs0mg"},{"bike_id":"a41995c4-8b1e-4d27-980a-53c791aa6bed","system_id":"levelo_inurba_marseille","lat":43.29874,"lon":5.39738,"is_reserved":false,"is_disabled":false,"rental_uris":{"android":"levelo://app?vid=a41995c4-8b1e-4d27-980a-53c791aa6bed","ios":"levelo://app?vid=a41995c4-8b1e-4d27-980a-53c791aa6bed"},"vehicle_type_id":"4","last_reported":1741601333,"current_range_meters":20400,"station_id":"ce4bh0h2rcd13ifvqd50","pricing_plan_id":"cebpf4jnsgd1na2vs0mg"},{"bike_id":"f829a819-671e-4b71-9c22-56c5f8047725","system_id":"levelo_inurba_marseille","lat":43.32362,"lon":5.36749,"is_reserved":false,"is_disabled":false,"rental_uris":{"android":"levelo://app?vid=f829a819-671e-4b71-9c22-56c5f8047725","ios":"levelo://app?vid=f829a819-671e-4b71-9c22-56c5f8047725"},"vehicle_type_id":"4","last_reported":1741601333,"current_range_meters":20400,"station_id":"ce4bhsh2rcd13ifvqi2g","pricing_plan_id":"cebpf4jnsgd1na2vs0mg"},{"bike_id":"882a8c28-7f76-4e9b-8024-50060b02315c","system_id":"levelo_inurba_marseille","lat":43.23056,"lon":5.35489,"is_reserved":false,"is_disabled":false,"rental_uris":{"android":"levelo://app?vid=882a8c28-7f76-4e9b-8024-50060b02315c","ios":"levelo://app?vid=882a8c28-7f76-4e9b-8024-50060b02315c"},"vehicle_type_id":"4","last_reported":1741601333,"current_range_meters":20400,"station_id":"cpo3342slgdg3j2ifvpg","pricing_plan_id":"cebpf4jnsgd1na2vs0mg"},{"bike_id":"2236def2-bd28-4ef0-ad48-0a4d1bc7f9e5","system_id":"levelo_inurba_marseille","lat":43.29888,"lon":5.39733,"is_reserved":false,"is_disabled":false,"rental_uris":{"android":"levelo://app?vid=2236def2-bd28-4ef0-ad48-0a4d1bc7f9e5","ios":"levelo://app?vid=2236def2-bd28-4ef0-ad48-0a4d1bc7f9e5"},"vehicle_type_id":"4","last_reported":1741601333,"current_range_meters":20800,"station_id":"ce4bh0h2rcd13ifvqd50","pricing_plan_id":"cebpf4jnsgd1na2vs0mg"},{"bike_id":"dcabf36a-8906-44f6-ba74-6179fd227d91","system_id":"levelo_inurba_marseille","lat":43.25588,"lon":5.38239,"is_reserved":false,"is_disabled":false,"rental_uris":{"android":"levelo://app?vid=dcabf36a-8906-44f6-ba74-6179fd227d91","ios":"levelo://app?vid=dcabf36a-8906-44f6-ba74-6179fd227d91"},