{"last_updated":1751469090,"ttl":60,"version":"2.2","data":{"bikes":[{"bike_id":"3da29fb8-fc97-44c6-b9ac-31dd456b2fd4","system_id":"levelo_inurba_marseille","lat":43.33771,"lon":5.37424,"is_reserved":false,"is_disabled":true,"rental_uris":{"android":"levelo://app?vid=3da29fb8-fc97-44c6-b9ac-31dd456b2fd4","ios":"levelo://app?vid=3da29fb8-fc97-44c6-b9ac-31dd456b2fd4"},"vehicle_type_id":"4","last_reported":1751469090,"current_range_meters":0,"station_id":"","pricing_plan_id":"cebpf4jnsgd1na2vs0mg"},{"bike_id":"01861ad8-a8d7-4be6-816e-651927c87584","system_id":"levelo_inurba_marseille","lat":43.33751,"lon":5.37456,"is_reserved":false,"is_disabled":true,"rental_uris":{"android":"levelo://app?vid=01861ad8-a8d7-4be6-816e-651927c87584","ios":"levelo://app?vid=01861ad8-a8d7-4be6-816e-651927c87584"},"vehicle_type_id":"4","last_reported":1751469090,"current_range_meters":0,"station_id":"","pricing_plan_id":"cebpf4jnsgd1na2vs0mg"},{"bike_id":"5736d3b1-7298-4471-a99d-f5bb0a7e8852","system_id":"levelo_inurba_marseille","lat":43.25728,"lon":5.37601,"is_reserved":false,"is_disabled":true,"rental_uris":{"android":"levelo://app?vid=5736d3b1-7298-4471-a99d-f5bb0a7e8852","ios":"levelo://app?vid=5736d3b1-7298-4471-a99d-f5bb0a7e8852"},"vehicle_type_id":"4","last_reported":1751469090,"current_range_meters":0,"station_id":"","pricing_plan_id":"cebpf4jnsgd1na2vs0mg"},{"bike_id":"105d0cfb-1d71-4bec-a91f-355646624459","system_id":"levelo_inurba_marseille","lat":43.2982,"lon":5.38087,"is_reserved":false,"is_disabled":false,"rental_uris":{"android":"levelo://app?vid=105d0cfb-1d71-4bec-a91f-355646624459","ios":"levelo://app?vid=105d0cfb-1d71-4bec-a91f-355646624459"},"vehicle_type_id":"4","last_reported":1751469090,"current_range_meters":0,"station_id":"ce4bgip2rcd13ifvqbb0","pricing_plan_id":"cebpf4jnsgd1na2vs0mg"},{"bike_id":"a8aad6ef-1f94-4887-b61f-ad253ce881f6","system_id":"levelo_inurba_marseille","lat":43.28668,"lon":5.36352,"is_reserved":false,"is_disabled":true,"rental_uris":{"android":"levelo://app?vid=a8aad6ef-1f94-4887-b61f-ad253ce881f6","ios":"levelo://app?vid=a8aad6ef-1f94-4887-b61f-ad253ce881f6"},"vehicle_type_id":"4","last_reported":1751469090,"current_range_meters":0,"station_id":"ce4bhah2rcd13ifvqej0","pricing_plan_id":"cebpf4jnsgd1na2vs0mg"},{"bike_id":"bf73d081-d87d-4e52-a5a5-268385122b67","system_id":"levelo_inurba_marseille","lat":43.23963,"lon":5.36628,"is_reserved":false,"is_disabled":true,"rental_uris":{"android":"levelo://app?vid=bf73d081-d87d-4e52-a5a5-268385122b67","ios":"levelo://app?vid=bf73d081-d87d-4e52-a5a5-268385122b67"},"vehicle_type_id":"4","last_reported":1751469090,"current_range_meters":0,"station_id":"ce4bhi12rcd13ifvqfp0","pricing_plan_id":"cebpf4jnsgd1na2vs0mg"},{"bike_id":"4ee72c18-cc7c-4a4b-91e4-b8e96d465639","system_id":"levelo_inurba_marseille","lat":43.24657,"lon":5.38155,"is_reserved":false,"is_disabled":true,"rental_uris":{"android":"levelo://app?vid=4ee72c18-cc7c-4a4b-91e4-b8e96d465639","ios":"levelo://app?vid=4ee72c18-cc7c-4a4b-91e4-b8e96d465639"},"vehicle_type_id":"4","last_reported":1751469090,"current_range_meters":0,"station_id":"ce4bhih2rcd13ifvqfr0","pricing_plan_id":"cebpf4jnsgd1na2vs0mg"},{"bike_id":"d9f5986c-fe7b-4266-ac9e-4d454b0350a9","system_id":"levelo_inurba_marseille","lat":43.23153,"lon":5.43736,"is_reserved":false,"is_disabled":true,"rental_uris":{"android":"levelo://app?vid=d9f5986c-fe7b-4266-ac9e-4d454b0350a9","ios":"levelo://app?vid=d9f5986c-fe7b-4266-ac9e-4d454b0350a9"},"vehicle_type_id":"4","last_reported":1751469090,"current_range_meters":0,"station_id":"ce4bhmp2rcd13ifvqgog","pricing_plan_id":"cebpf4jnsgd1na2vs0mg"},{"bike_id":"be4771a0-f822-40f0-a95c-2aaca1d3fb3c","system_id":"levelo_inurba_marseille","lat":43.21753,"lon":5.34602,"is_reserved":false,"is_disabled":true,"rental_uris":{"android":"levelo://app?vid=be4771a0-f822-40f0-a95c-2aaca1d3fb3c","ios":"levelo://app?vid=be4771a0-f822-40f0-a95c-2aaca1d3fb3c"},"vehicle_type_id":"4","last_reported":1751469090,"current_range_meters":0,"station_id":"st_cvj6r9ubvosntc0bgbag","pricing_plan_id":"cebpf4jnsgd1na2vs0mg"},{"bike_id":"162af4e6-d224-4240-aeac-6cb0ae06de53","system_id":"levelo_inurba_marseille","lat":43.29922,"lon":5.37835,"is_reserved":false,"is_disabled":true,"rental_uris":{"android":"levelo://app?vid=162af4e6-d224-4240-aeac-6cb0ae06de53","ios":"levelo://app?vid=162af4e6-d224-4240-aeac-6cb0ae06de53"},"vehicle_type_id":"4","last_reported":1751469090,"current_range_meters":400,"station_id":"","pricing_plan_id":"cebpf4jnsgd1na2vs0mg"},{"bike_id":"e6890c22-d141-455c-b12c-f4e4322e1ded","system_id":"levelo_inurba_marseille","lat":43.30304,"lon":5.3922,"is_reserved":false,"is_disabled":true,"rental_uris":{"android":"levelo://app?vid=e6890c22-d141-455c-b12c-f4e4322e1ded","ios":"levelo://app?vid=e6890c22-d141-455c-b12c-f4e4322e1ded"},"vehicle_type_id":"4","last_reported":1751469090,"current_range_meters":400,"station_id":"ce4bgkh2rcd13ifvqbk0","pricing_plan_id":"cebpf4jnsgd1na2vs0mg"},{"bike_id":"adfa8c47-0975-4160-a177-2d2e290ce157","system_id":"levelo_inurba_marseille","lat":43.29278,"lon":5.36844,"is_reserved":false,"is_disabled":true,"rental_uris":{"android":"levelo://app?vid=adfa8c47-0975-4160-a177-2d2e290ce157","ios":"levelo://app?vid=adfa8c47-0975-4160-a177-2d2e290ce157"},"vehicle_type_id":"4","last_reported":1751469090,"current_range_meters":800,"station_id":"ce4bhbp2rcd13ifvqesg","pricing_plan_id":"cebpf4jnsgd1na2vs0mg"},{"bike_id":"d91166d6-fd9b-4f84-ba4d-afa322078a4d","system_id":"levelo_inurba_marseille","lat":43.28701,"lon":5.37372,"is_reserved":false,"is_disabled":true,"rental_uris":{"android":"levelo://app?vid=d91166d6-fd9b-4f84-ba4d-afa322078a4d","ios":"levelo://app?vid=d91166d6-fd9b-4f84-ba4d-afa322078a4d"},"vehicle_type_id":"4","last_reported":1751469090,"current_range_meters":1200,"station_id":"ce4bh3p2rcd13ifvqdq0","pricing_plan_id":"cebpf4jnsgd1na2vs0mg"},{"bike_id":"8e365e3c-559a-4ba6-a6c5-4c159e2434fc","system_id":"levelo_inurba_marseille","lat":43.21749,"lon":5.34604,"is_reserved":false,"is_disabled":true,"rental_uris":{"android":"levelo://app?vid=8e365e3c-559a-4ba6-a6c5-4c159e2434fc","ios":"levelo://app?vid=8e365e3c-559a-4ba6-a6c5-4c159e2434fc"},"vehicle_type_id":"4","last_reported":1751469090,"current_range_meters":1600,"station_id":"","pricing_plan_id":"cebpf4jnsgd1na2vs0mg"},{"bike_id":"903f9470-ab34-4334-a763-be4df836a2fb","system_id":"levelo_inurba_marseille","lat":43.31688,"lon":5.40473,"is_reserved":false,"is_disabled":true,"rental_uris":{"android":"levelo://app?vid=903f9470-ab34-4334-a763-be4df836a2fb","ios":"levelo://app?vid=903f9470-ab34-4334-a763-be4df836a2fb"},"vehicle_type_id":"4","last_reported":1751469090,"current_range_meters":1600,"station_id":"ce4bh012rcd13ifvqd00","pricing_plan_id":"cebpf4jnsgd1na2vs0mg"},{"bike_id":"66d92fb0-475b-4dd3-97bd-a80306e2a0df","system_id":"levelo_inurba_marseille","lat":43.25863,"lon":5.39895,"is_reserved":false,"is_disabled":true,"rental_uris":{"android":"levelo://app?vid=66d92fb0-475b-4dd3-97bd-a80306e2a0df","ios":"levelo://app?vid=66d92fb0-475b-4dd3-97bd-a80306e2a0df"},"vehicle_type_id":"4","last_reported":1751469090,"current_range_meters":1600,"station_id":"ce4bhl92rcd13ifvqghg","pricing_plan_id":"cebpf4jnsgd1na2vs0mg"},{"bike_id":"fd012094-bb2a-4379-803b-b1e96c369cad","system_id":"levelo_inurba_marseille","lat":43.28998,"lon":5.35619,"is_reserved":false,"is_disabled":false,"rental_uris":{"android":"levelo://app?vid=fd012094-bb2a-4379-803b-b1e96c369cad","ios":"levelo://app?vid=fd012094-bb2a-4379-803b-b1e96c369cad"},"vehicle_type_id":"4","last_reported":1751469090,"current_range_meters":2000,"station_id":"ce4bhb92rcd13ifvqen0","pricing_plan_id":"cebpf4jnsgd1na2vs0mg"},{"bike_id":"b10f15f1-d04f-4b3b-a439-8d064cebd858","system_id":"levelo_inurba_marseille","lat":43.2319,"lon":5.3998,"is_reserved":false,"is_disabled":true,"rental_uris":{"android":"levelo://app?vid=b10f15f1-d04f-4b3b-a439-8d064cebd858","ios":"levelo://app?vid=b10f15f1-d04f-4b3b-a439-8d064cebd858"},"vehicle_type_id":"4","last_reported":1751469090,"current_range_meters":2000,"station_id":"ce4bhn12rcd13ifvqgqg","pricing_plan_id":"cebpf4jnsgd1na2vs0mg"},{"bike_id":"1d14f4cd-08b1-492d-b9ec-2138f62ef8b0","system_id":"levelo_inurba_marseille","lat":43.2991,"lon":5.43664,"is_reserved":false,"is_disabled":true,"rental_uris":{"android":"levelo://app?vid=1d14f4cd-08b1-492d-b9ec-2138f62ef8b0","ios":"levelo://app?vid=1d14f4cd-08b1-492d-b9ec-2138f62ef8b0"},"vehicle_type_id":"4","last_reported":1751469090,"current_range_meters":2000,"station_id":"ce4bhpp2rcd13ifvqhfg","pricing_plan_id":"cebpf4jnsgd1na2vs0mg"},{"bike_id":"127ea34b-0f7a-4323-b818-6be9638ea264","system_id":"levelo_inurba_marseille","lat":43.30212,"lon":5.39463,"is_reserved":false,"is_disabled":false,"rental_uris":{"android":"levelo://app?vid=127ea34b-0f7a-4323-b818-6be9638ea264","ios":"levelo://app?vid=127ea34b-0f7a-4323-b818-6be9638ea264"},"vehicle_type_id":"4","last_reported":1751469090,"current_range_meters":2800,"station_id":"ce4bh0p2rcd13ifvqd70","pricing_plan_id":"cebpf4jnsgd1na2vs0mg"},{"bike_id":"25698004-5f1f-45ac-bac3-e678449b6341","system_id":"levelo_inurba_marseille","lat":43.28445,"lon":5.39195,"is_reserved":false,"is_disabled":false,"rental_uris":{"android":"levelo://app?vid=25698004-5f1f-45ac-bac3-e678449b6341","ios":"levelo://app?vid=25698004-5f1f-45ac-bac3-e678449b6341"},"vehicle_type_id":"4","last_reported":1751469090,"current_range_meters":3200,"station_id":"ce4bhoh2rcd13ifvqh5g","pricing_plan_id":"cebpf4jnsgd1na2vs0mg"},{"bike_id":"48ff6c58-4dcd-4588-ace3-c8c0d1ed2226","system_id":"levelo_inurba_marseille","lat":43.30643,"lon":5.40101,"is_reserved":false,"is_disabled":false,"rental_uris":{"android":"levelo://app?vid=48ff6c58-4dcd-4588-ace3-c8c0d1ed2226","ios":"levelo://app?vid=48ff6c58-4dcd-4588-ace3-c8c0d1ed2226"},"vehicle_type_id":"4","last_reported":1751469090,"current_range_meters":4000,"station_id":"ce4bh112rcd13ifvqda0","pricing_plan_id":"cebpf4jnsgd1na2vs0mg"},{"bike_id":"8252b44a-d048-4379-9209-2efa2e627825","system_id":"levelo_inurba_marseille","lat":43.29233,"lon":5.40569,"is_reserved":false,"is_disabled":false,"rental_uris":{"android":"levelo://app?vid=8252b44a-d048-4379-9209-2efa2e627825","ios":"levelo://app?vid=8252b44a-d048-4379-9209-2efa2e627825"},"vehicle_type_id":"4","last_reported":1751469090,"current_range_meters":4400,"station_id":"","pricing_plan_id":"cebpf4jnsgd1na2vs0mg"},{"bike_id":"0ab4a2ad-4d54-4569-81ff-6b1dffb85549","system_id":"levelo_inurba_marseille","lat":43.29782,"lon":5.39325,"is_reserved":false,"is_disabled":false,"rental_uris":{"android":"levelo://app?vid=0ab4a2ad-4d54-4569-81ff-6b1dffb85549","ios":"levelo://app?vid=0ab4a2ad-4d54-4569-81ff-6b1dffb85549"},"vehicle_type_id":"4","last_reported":1751469090,"current_range_meters":4400,"station_id":"chh1huq6cuj3fo74tm60","pricing_plan_id":"cebpf4jnsgd1na2vs0mg"},{"bike_id":"e66b07f8-cdd9-490a-a6dc-696194d3b616","system_id":"levelo_inurba_marseille","lat":43.28569,"lon":5.39494,"is_reserved":false,"is_disabled":false,"rental_uris":{"android":"levelo://app?vid=e66b07f8-cdd9-490a-a6dc-696194d3b616","ios":"levelo://app?vid=e66b07f8-cdd9-490a-a6dc-696194d3b616"},"vehicle_type_id":"4","last_reported":1751469090,"current_range_meters":4800,"station_id":"ce4bh292rcd13ifvqdg0","pricing_plan_id":"cebpf4jnsgd1na2vs0mg"},{"bike_id":"c348067f-f973-49a7-aa2f-a81e3814d3d2","system_id":"levelo_inurba_marseille","lat":43.29261,"lon":5.37627,"is_reserved":false,"is_disabled":false,"rental_uris":{"android":"levelo://app?vid=c348067f-f973-49a7-aa2f-a81e3814d3d2","ios":"levelo://app?vid=c348067f-f973-49a7-aa2f-a81e3814d3d2"},"vehicle_type_id":"4","last_reported":1751469090,"current_range_meters":5600,"station_id":"ce4bgi12rcd13ifvqb80","pricing_plan_id":"cebpf4jnsgd1na2vs0mg"},{"bike_id":"e6349020-1733-4f11-a7c8-41c94ad67ddc","system_id":"levelo_inurba_marseille","lat":43.313755,"lon":5.384877,"is_reserved":false,"is_disabled":false,"rental_uris":{"android":"levelo://app?vid=e6349020-1733-4f11-a7c8-41c94ad67ddc","ios":"levelo://app?vid=e6349020-1733-4f11-a7c8-41c94ad67ddc"},"vehicle_type_id":"4","last_reported":1751469090,"current_range_meters":6000,"station_id":"ce4bgt92rcd13ifvqcf0","pricing_plan_id":"cebpf4jnsgd1na2vs0mg"},{"bike_id":"cd633cf3-a84f-44b6-aa71-a7b9cc732dce","system_id":"levelo_inurba_marseille","lat":43.29021,"lon":5.38657,"is_reserved":false,"is_disabled":false,"rental_uris":{"android":"levelo://app?vid=cd633cf3-a84f-44b6-aa71-a7b9cc732dce","ios":"levelo://app?vid=cd633cf3-a84f-44b6-aa71-a7b9cc732dce"},"vehicle_type_id":"4","last_reported":1751469090,"current_range_meters":6000,"station_id":"ce4bh4p2rcd13ifvqe0g","pricing_plan_id":"cebpf4jnsgd1na2vs0mg"},{"bike_id":"146b5e00-2448-4f28-ba42-167d7ae429d9","system_id":"levelo_inurba_marseille","lat":43.29803,"lon":5.380901,"is_reserved":false,"is_disabled":false,"rental_uris":{"android":"levelo://app?vid=146b5e00-2448-4f28-ba42-167d7ae429d9","ios":"levelo://app?vid=146b5e00-2448-4f28-ba42-167d7ae429d9"},"vehicle_type_id":"4","last_reported":1751469090,"current_range_meters":6400,"station_id":"ce4bgip2rcd13ifvqbb0","pricing_plan_id":"cebpf4jnsgd1na2vs0mg"},{"bike_id":"6fc7223a-36fa-4824-b1d2-1b9863f657ae","system_id":"levelo_inurba_marseille","lat":43.27378,"lon":5.36253,"is_reserved":false,"is_disabled":false,"rental_uris":{"android":"levelo://app?vid=6fc7223a-36fa-4824-b1d2-1b9863f657ae","ios":"levelo://app?vid=6fc7223a-36fa-4824-b1d2-1b9863f657ae"},"vehicle_type_id":"4","last_reported":1751469090,"current_range_meters":6800,"station_id":"ce4bhbh2rcd13ifvqeo0","pricing_plan_id":"cebpf4jnsgd1na2vs0mg"},{"bike_id":"a8fb0a1f-6955-4307-bfbc-c44624af0aa7","system_id":"levelo_inurba_marseille","lat":43.286198,"lon":5.35107,"is_reserved":false,"is_disabled":false,"rental_uris":{"android":"levelo://app?vid=a8fb0a1f-6955-4307-bfbc-c44624af0aa7","ios":"levelo://app?vid=a8fb0a1f-6955-4307-bfbc-c44624af0aa7"},"vehicle_type_id":"4","last_reported":1751469090,"current_range_meters":6800,"station_id":"ce4bhch2rcd13ifvqeug","pricing_plan_id":"cebpf4jnsgd1na2vs0mg"},{"bike_id":"d6e83849-3043-473c-add5-6d9299c3d280","system_id":"levelo_inurba_marseille","lat":43.30471,"lon":5.37913,"is_reserved":false,"is_disabled":false,"rental_uris":{"android":"levelo://app?vid=d6e83849-3043-473c-add5-6d9299c3d280","ios":"levelo://app?vid=d6e83849-3043-473c-add5-6d9299c3d280"},"vehicle_type_id":"4","last_reported":1751469090,"current_range_meters":7200,"station_id":"ce4bgup2rcd13ifvqcn0","pricing_plan_id":"cebpf4jnsgd1na2vs0mg"},{"bike_id":"8bc79f52-1b77-4a69-a05d-a1b4a8b26743","system_id":"levelo_inurba_marseille","lat":43.29192,"lon":5.39327,"is_reserved":false,"is_disabled":false,"rental_uris":{"android":"levelo://app?vid=8bc79f52-1b77-4a69-a05d-a1b4a8b26743","ios":"levelo://app?vid=8bc79f52-1b77-4a69-a05d-a1b4a8b26743"},"vehicle_type_id":"4","last_reported":1751469090,"current_range_meters":7200,"station_id":"ce4bh192rcd13ifvqdd0","pricing_plan_id":"cebpf4jnsgd1na2vs0mg"},{"bike_id":"fbfcd83a-c854-4b10-9f66-a9a9d4b842d7","system_id":"levelo_inurba_marseille","lat":43.28717,"lon":5.36084,"is_reserved":false,"is_disabled":false,"rental_uris":{"android":"levelo://app?vid=fbfcd83a-c854-4b10-9f66-a9a9d4b842d7","ios":"levelo://app?vid=fbfcd83a-c854-4b10-9f66-a9a9d4b842d7"},"vehicle_type_id":"4","last_reported":1751469090,"current_range_meters":7200,"station_id":"cki0cbj6b192h4jlfktg","pricing_plan_id":"cebpf4jnsgd1na2vs0mg"},{"bike_id":"c2b72fe0-bae6-4c7b-ad48-9e771b203dc8","system_id":"levelo_inurba_marseille","lat":43.31348,"lon":5.38491,"is_reserved":false,"is_disabled":false,"rental_uris":{"android":"levelo://app?vid=c2b72fe0-bae6-4c7b-ad48-9e771b203dc8","ios":"levelo://app?vid=c2b72fe0-bae6-4c7b-ad48-9e771b203dc8"},"vehicle_type_id":"4","last_reported":1751469090,"current_range_meters":8000,"station_id":"ce4bgt92rcd13ifvqcf0","pricing_plan_id":"cebpf4jnsgd1na2vs0mg"},{"bike_id":"ab110dbb-1715-482a-95b7-cfdf1dc504a6","system_id":"levelo_inurba_marseille","lat":43.291209,"lon":5.386735,"is_reserved":false,"is_disabled":false,"rental_uris":{"android":"levelo://app?vid=ab110dbb-1715-482a-95b7-cfdf1dc504a6","ios":"levelo://app?vid=ab110dbb-1715-482a-95b7-cfdf1dc504a6"},"vehicle_type_id":"4","last_reported":1751469090,"current_range_meters":8400,"station_id":"ce4bh4p2rcd13ifvqe0g","pricing_plan_id":"cebpf4jnsgd1na2vs0mg"},{"bike_id":"3ee2c145-6b47-45e8-b522-f2cddd40891b","system_id":"levelo_inurba_marseille","lat":43.2792,"lon":5.3958,"is_reserved":false,"is_disabled":false,"rental_uris":{"android":"levelo://app?vid=3ee2c145-6b47-45e8-b522-f2cddd40891b","ios":"levelo://app?vid=3ee2c145-6b47-45e8-b522-f2cddd40891b"},"vehicle_type_id":"4","last_reported":1751469090,"current_range_meters":8800,"station_id":"ce4bhf92rcd13ifvqf40","pricing_plan_id":"cebpf4jnsgd1na2vs0mg"},{"bike_id":"2e2ed7c3-6e3f-4443-af74-0feb32d9ffda","system_id":"levelo_inurba_marseille","lat":43.2955,"lon":5.42288,"is_reserved":false,"is_disabled":false,"rental_uris":{"android":"levelo://app?vid=2e2ed7c3-6e3f-4443-af74-0feb32d9ffda","ios":"levelo://app?vid=2e2ed7c3-6e3f-4443-af74-0feb32d9ffda"},"vehicle_type_id":"4","last_reported":1751469090,"current_range_meters":8800,"station_id":"ce4bhph2rcd13ifvqhdg","pricing_plan_id":"cebpf4jnsgd1na2vs0mg"},{"bike_id":"b17fc6fb-d31b-4c72-91dd-f8e10ff9036a","system_id":"levelo_inurba_marseille","lat":43.32487,"lon":5.36569,"is_reserved":false,"is_disabled":false,"rental_uris":{"android":"levelo://app?vid=b17fc6fb-d31b-4c72-91dd-f8e10ff9036a","ios":"levelo://app?vid=b17fc6fb-d31b-4c72-91dd-f8e10ff9036a"},"vehicle_type_id":"4","last_reported":1751469090,"current_range_meters":8800,"station_id":"ce4bhs12rcd13ifvqhvg","pricing_plan_id":"cebpf4jnsgd1na2vs0mg"},{"bike_id":"bc10016d-4c34-4787-811d-8a882d31f36d","system_id":"levelo_inurba_marseille","lat":43.28013,"lon":5.36973,"is_reserved":false,"is_disabled":false,"rental_uris":{"android":"levelo://app?vid=bc10016d-4c34-4787-811d-8a882d31f36d","ios":"levelo://app?vid=bc10016d-4c34-4787-811d-8a882d31f36d"},"vehicle_type_id":"4","last_reported":1751469090,"current_range_meters":9200,"station_id":"ce4bha12rcd13ifvqef0","pricing_plan_id":"cebpf4jnsgd1na2vs0mg"},{"bike_id":"f2e48375-da6e-4d9e-a592-bf480a25b5d6","system_id":"levelo_inurba_marseille","lat":43.29977,"lon":5.37186,"is_reserved":false,"is_disabled":false,"rental_uris":{"android":"levelo://app?vid=f2e48375-da6e-4d9e-a592-bf480a25b5d6","ios":"levelo://app?vid=f2e48375-da6e-4d9e-a592-bf480a25b5d6"},"vehicle_type_id":"4","last_reported":1751469090,"current_range_meters":9600,"station_id":"ce4bgr92rcd13ifvqc7g","pricing_plan_id":"cebpf4jnsgd1na2vs0mg"},{"bike_id":"0904e019-e077-4e4c-8e3d-e8a431162fa2","system_id":"levelo_inurba_marseille","lat":43.29022,"lon":5.38126,"is_reserved":false,"is_disabled":false,"rental_uris":{"android":"levelo://app?vid=0904e019-e077-4e4c-8e3d-e8a431162fa2","ios":"levelo://app?vid=0904e019-e077-4e4c-8e3d-e8a431162fa2"},"vehicle_type_id":"4","last_reported":1751469090,"current_range_meters":9600,"station_id":"ce4bh4p2rcd13ifvqe1g","pricing_plan_id":"cebpf4jnsgd1na2vs0mg"},{"bike_id":"8af2f749-dfa7-4cf2-88d0-a0b7d9c01ce4","system_id":"levelo_inurba_marseille","lat":43.28273,"lon":5.35063,"is_reserved":false,"is_disabled":false,"rental_uris":{"android":"levelo://app?vid=8af2f749-dfa7-4cf2-88d0-a0b7d9c01ce4","ios":"levelo://app?vid=8af2f749-dfa7-4cf2-88d0-a0b7d9c01ce4"},"vehicle_type_id":"4","last_reported":1751469090,"current_range_meters":9600,"station_id":"ce4bhbp2rcd13ifvqerg","pricing_plan_id":"cebpf4jnsgd1na2vs0mg"},{"bike_id":"4d040ed5-4c5c-4d8a-9ac8-008ab43b43cf","system_id":"levelo_inurba_marseille","lat":43.28612,"lon":5.35105,"is_reserved":false,"is_disabled":false,"rental_uris":{"android":"levelo://app?vid=4d040ed5-4c5c-4d8a-9ac8-008ab43b43cf","ios":"levelo://app?vid=4d040ed5-4c5c-4d8a-9ac8-008ab43b43cf"},"vehicle_type_id":"4","last_reported":1751469090,"current_range_meters":9600,"station_id":"ce4bhch2rcd13ifvqeug","pricing_plan_id":"cebpf4jnsgd1na2vs0mg"},{"bike_id":"432f52fd-e1eb-439b-bb20-d976f14aceae","system_id":"levelo_inurba_marseille","lat":43.255066,"lon":5.376658,"is_reserved":false,"is_disabled":false,"rental_uris":{"android":"levelo://app?vid=432f52fd-e1eb-439b-bb20-d976f14aceae","ios":"levelo://app?vid=432f52fd-e1eb-439b-bb20-d976f14aceae"},"vehicle_type_id":"4","last_reported":1751469090,"current_range_meters":9600,"station_id":"ce4bhh12rcd13ifvqff0","pricing_plan_id":"cebpf4jnsgd1na2vs0mg"},{"bike_id":"c61036a9-1a66-4480-8bd4-cd2fb585b287","system_id":"levelo_inurba_marseille","lat":43.2698,"lon":5.40549,"is_reserved":false,"is_disabled":false,"rental_uris":{"android":"levelo://app?vid=c61036a9-1a66-4480-8bd4-cd2fb585b287","ios":"levelo://app?vid=c61036a9-1a66-4480-8bd4-cd2fb585b287"},"vehicle_type_id":"4","last_reported":1751469090,"current_range_meters":10000,"station_id":"","pricing_plan_id":"cebpf4jnsgd1na2vs0mg"},{"bike_id":"d390dc76-ea1d-4df6-a72d-8723bcba1835","system_id":"levelo_inurba_marseille","lat":43.2997,"lon":5.37187,"is_reserved":false,"is_disabled":false,"rental_uris":{"android":"levelo://app?vid=d390dc76-ea1d-4df6-a72d-8723bcba1835","ios":"levelo://app?vid=d390dc76-ea1d-4df6-a72d-8723bcba1835"},"vehicle_type_id":"4","last_reported":1751469090,"current_range_meters":10000,"station_id":"ce4bgr92rcd13ifvqc7g","pricing_plan_id":"cebpf4jnsgd1na2vs0mg"},{"bike_id":"151475a2-303f-44f7-943d-b21445948f11","system_id":"levelo_inurba_marseille","lat":43.25868,"lon":5.39896,"is_reserved":false,"is_disabled":false,"rental_uris":{"android":"levelo://app?vid=151475a2-303f-44f7-943d-b21445948f11","ios":"levelo://app?vid=151475a2-303f-44f7-943d-b21445948f11"},"vehicle_type_id":"4","last_reported":1751469090,"current_range_meters":10800,"station_id":"ce4bhl92rcd13ifvqghg","pricing_plan_id":"cebpf4jnsgd1na2vs0mg"},{"bike_id":"8ad00ccc-3ccb-493b-a2b4-49cd4dd94c33","system_id":"levelo_inurba_marseille","lat":43.21749,"lon":5.34604,"is_reserved":false,"is_disabled":false,"rental_uris":{"android":"levelo://app?vid=8ad00ccc-3ccb-493b-a2b4-49cd4dd94c33","ios":"levelo://app?vid=8ad00ccc-3ccb-493b-a2b4-49cd4dd94c33"},"vehicle_type_id":"4","last_reported":1751469090,"current_range_meters":10800,"station_id":"st_cvj6r9ubvosntc0bgbag","pricing_plan_id":"cebpf4jnsgd1na2vs0mg"},{"bike_id":"2e8ec81c-177e-40de-82b2-974196d6c500","system_id":"levelo_inurba_marseille","lat":43.27741,"lon":5.38357,"is_reserved":false,"is_disabled":false,"rental_uris":{"android":"levelo://app?vid=2e8ec81c-177e-40de-82b2-974196d6c500","ios":"levelo://app?vid=2e8ec81c-177e-40de-82b2-974196d6c500"},"vehicle_type_id":"4","last_reported":1751469090,"current_range_meters":11200,"station_id":"","pricing_plan_id":"cebpf4jnsgd1na2vs0mg"},{"bike_id":"866060ef-85cb-4809-9ff5-4426ac515ff0","system_id":"levelo_inurba_marseille","lat":43.28424,"lon":5.34984,"is_reserved":false,"is_disabled":false,"rental_uris":{"android":"levelo://app?vid=866060ef-85cb-4809-9ff5-4426ac515ff0","ios":"levelo://app?vid=866060ef-85cb-4809-9ff5-4426ac515ff0"},"vehicle_type_id":"4","last_reported":1751469090,"current_range_meters":11200,"station_id":"ce4bhbh2rcd13ifvqepg","pricing_plan_id":"cebpf4jnsgd1na2vs0mg"},{"bike_id":"eb709bfc-28e7-4a2b-9910-a38879f34c14","system_id":"levelo_inurba_marseille","lat":43.31193,"lon":5.36898,"is_reserved":false,"is_disabled":false,"rental_uris":{"android":"levelo://app?vid=eb709bfc-28e7-4a2b-9910-a38879f34c14","ios":"levelo://app?vid=eb709bfc-28e7-4a2b-9910-a38879f34c14"},"vehicle_type_id":"4","last_reported":1751469090,"current_range_meters":11600,"station_id":"ce4bgl92rcd13ifvqbq0","pricing_plan_id":"cebpf4jnsgd1na2vs0mg"},{"bike_id":"7162ef69-1564-49b0-bd4d-645d806c80fc","system_id":"levelo_inurba_marseille","lat":43.28625,"lon":5.35096,"is_reserved":false,"is_disabled":false,"rental_uris":{"android":"levelo://app?vid=7162ef69-1564-49b0-bd4d-645d806c80fc","ios":"levelo://app?vid=7162ef69-1564-49b0-bd4d-645d806c80fc"},"vehicle_type_id":"4","last_reported":1751469090,"current_range_meters":11600,"station_id":"ce4bhch2rcd13ifvqeug","pricing_plan_id":"cebpf4jnsgd1na2vs0mg"},{"bike_id":"cf9f0123-d714-4e21-b1bb-894b57f75cdb","system_id":"levelo_inurba_marseille","lat":43.292278,"lon":5.360708,"is_reserved":false,"is_disabled":false,"rental_uris":{"android":"levelo://app?vid=cf9f0123-d714-4e21-b1bb-894b57f75cdb","ios":"levelo://app?vid=cf9f0123-d714-4e21-b1bb-894b57f75cdb"},"vehicle_type_id":"4","last_reported":1751469090,"current_range_meters":12000,"station_id":"ce4bhbh2rcd13ifvqeqg","pricing_plan_id":"cebpf4jnsgd1na2vs0mg"},{"bike_id":"4e10570e-e278-43eb-acf0-f81d0d1d021b","system_id":"levelo_inurba_marseille","lat":43.26558,"lon":5.3729,"is_reserved":false,"is_disabled":false,"rental_uris":{"android":"levelo://app?vid=4e10570e-e278-43eb-acf0-f81d0d1d021b","ios":"levelo://app?vid=4e10570e-e278-43eb-acf0-f81d0d1d021b"},"vehicle_type_id":"4","last_reported":1751469090,"current_range_meters":12000,"station_id":"ce4bhg12rcd13ifvqf70","pricing_plan_id":"cebpf4jnsgd1na2vs0mg"},{"bike_id":"248ded86-b9d5-4fdc-ba75-93f45623e36e","system_id":"levelo_inurba_marseille","lat":43.24169,"lon":5.36393,"is_reserved":false,"is_disabled":false,"rental_uris":{"android":"levelo://app?vid=248ded86-b9d5-4fdc-ba75-93f45623e36e","ios":"levelo://app?vid=248ded86-b9d5-4fdc-ba75-93f45623e36e"},"vehicle_type_id":"4","last_reported":1751469090,"current_range_meters":12000,"station_id":"cpo36qri1sfpv3e86is0","pricing_plan_id":"cebpf4jnsgd1na2vs0mg"},{"bike_id":"ff5d153f-eb7c-4b24-8415-3f8813aa8920","system_id":"levelo_inurba_marseille","lat":43.28424,"lon":5.34979,"is_reserved":false,"is_disabled":false,"rental_uris":{"android":"levelo://app?vid=ff5d153f-eb7c-4b24-8415-3f8813aa8920","ios":"levelo://app?vid=ff5d153f-eb7c-4b24-8415-3f8813aa8920"},"vehicle_type_id":"4","last_reported":1751469090,"current_range_meters":12400,"station_id":"ce4bhbh2rcd13ifvqepg","pricing_plan_id":"cebpf4jnsgd1na2vs0mg"},{"bike_id":"58ba13da-7465-469b-bfdc-d1e286b4c753","system_id":"levelo_inurba_marseille","lat":43.25579,"lon":5.38235,"is_reserved":false,"is_disabled":false,"rental_uris":{"android":"levelo://app?vid=58ba13da-7465-469b-bfdc-d1e286b4c753","ios":"levelo://app?vid=58ba13da-7465-469b-bfdc-d1e286b4c753"},"vehicle_type_id":"4","last_reported":1751469090,"current_range_meters":12400,"station_id":"ce4bhih2rcd13ifvqfs0","pricing_plan_id":"cebpf4jnsgd1na2vs0mg"},{"bike_id":"ee0317a9-0b3d-4631-9294-b4dddc155611","system_id":"levelo_inurba_marseille","lat":43.32358,"lon":5.36749,"is_reserved":false,"is_disabled":false,"rental_uris":{"android":"levelo://app?vid=ee0317a9-0b3d-4631-9294-b4dddc155611","ios":"levelo://app?vid=ee0317a9-0b3d-4631-9294-b4dddc155611"},"vehicle_type_id":"4","last_reported":1751469090,"current_range_meters":12400,"station_id":"ce4bhsh2rcd13ifvqi2g","pricing_plan_id":"cebpf4jnsgd1na2vs0mg"},{"bike_id":"c1b44335-2c20-4553-bd77-28e1455d1cb8","system_id":"levelo_inurba_marseille","lat":43.28611,"lon":5.35103,"is_reserved":false,"is_disabled":false,"rental_uris":{"android":"levelo://app?vid=c1b44335-2c20-4553-bd77-28e1455d1cb8","ios":"levelo://app?vid=c1b44335-2c20-4553-bd77-28e1455d1cb8"},"vehicle_type_id":"4","last_reported":1751469090,"current_range_meters":12800,"station_id":"ce4bhch2rcd13ifvqeug","pricing_plan_id":"cebpf4jnsgd1na2vs0mg"},{"bike_id":"c2cc3873-3136-4ba7-984d-6514f2a6bcc2","system_id":"levelo_inurba_marseille","lat":43.26692,"lon":5.3827,"is_reserved":false,"is_disabled":false,"rental_uris":{"android":"levelo://app?vid=c2cc3873-3136-4ba7-984d-6514f2a6bcc2","ios":"levelo://app?vid=c2cc3873-3136-4ba7-984d-6514f2a6bcc2"},"vehicle_type_id":"4","last_reported":1751469090,"current_range_meters":12800,"station_id":"ce4bhg92rcd13ifvqf90","pricing_plan_id":"cebpf4jnsgd1na2vs0mg"},{"bike_id":"c899bdeb-e8c8-487d-a5a5-00dc09ddabfe","system_id":"levelo_inurba_marseille","lat":43.341458,"lon":5.409063,"is_reserved":false,"is_disabled":false,"rental_uris":{"android":"levelo://app?vid=c899bdeb-e8c8-487d-a5a5-00dc09ddabfe","ios":"levelo://app?vid=c899bdeb-e8c8-487d-a5a5-00dc09ddabfe"},"vehicle_type_id":"4","last_reported":1751469090,"current_range_meters":12800,"station_id":"ce4bhqh2rcd13ifvqhlg","pricing_plan_id":"cebpf4jnsgd1na2vs0mg"},{"bike_id":"d16b9dec-c438-4000-91c8-6cda5b0545dc","system_id":"levelo_inurba_marseille","lat":43.24861,"lon":5.37531,"is_reserved":false,"is_disabled":false,"rental_uris":{"android":"levelo://app?vid=d16b9dec-c438-4000-91c8-6cda5b0545dc","ios":"levelo://app?vid=d16b9dec-c438-4000-91c8-6cda5b0545dc"},"vehicle_type_id":"4","last_reported":1751469090,"current_range_meters":13600,"station_id":"","pricing_plan_id":"cebpf4jnsgd1na2vs0mg"},{"bike_id":"f00e3044-9bd1-48b5-b342-151af21b34fa","system_id":"levelo_inurba_marseille","lat":43.29972,"lon":5.37437,"is_reserved":false,"is_disabled":false,"rental_uris":{"android":"levelo://app?vid=f00e3044-9bd1-48b5-b342-151af21b34fa","ios":"levelo://app?vid=f00e3044-9bd1-48b5-b342-151af21b34fa"},"vehicle_type_id":"4","last_reported":1751469090,"current_range_meters":13600,"station_id":"","pricing_plan_id":"cebpf4jnsgd1na2vs0mg"},{"bike_id":"c299668c-707f-458a-af89-dd211b5a960a","system_id":"levelo_inurba_marseille","lat":43.27367,"lon":5.36258,"is_reserved":false,"is_disabled":false,"rental_uris":{"android":"levelo://app?vid=c299668c-707f-458a-af89-dd211b5a960a","ios":"levelo://app?vid=c299668c-707f-458a-af89-dd211b5a960a"},"vehicle_type_id":"4","last_reported":1751469090,"current_range_meters":13600,"station_id":"ce4bhbh2rcd13ifvqeo0","pricing_plan_id":"cebpf4jnsgd1na2vs0mg"},{"bike_id":"471769d9-3f22-4fd4-ad6c-a8e34f11dc0c","system_id":"levelo_inurba_marseille","lat":43.27372,"lon":5.36263,"is_reserved":false,"is_disabled":false,"rental_uris":{"android":"levelo://app?vid=471769d9-3f22-4fd4-ad6c-a8e34f11dc0c","ios":"levelo://app?vid=471769d9-3f22-4fd4-ad6c-a8e34f11dc0c"},"vehicle_type_id":"4","last_reported":1751469090,"current_range_meters":13600,"station_id":"ce4bhbh2rcd13ifvqeo0","pricing_plan_id":"cebpf4jnsgd1na2vs0mg"},{"bike_id":"06bb1293-77e2-44a3-9e10-1607407328dc","system_id":"levelo_inurba_marseille","lat":43.28453,"lon":5.3497,"is_reserved":false,"is_disabled":false,"rental_uris":{"android":"levelo://app?vid=06bb1293-77e2-44a3-9e10-1607407328dc","ios":"levelo://app?vid=06bb1293-77e2-44a3-9e10-1607407328dc"},"vehicle_type_id":"4","last_reported":1751469090,"current_range_meters":13600,"station_id":"ce4bhbh2rcd13ifvqepg","pricing_plan_id":"cebpf4jnsgd1na2vs0mg"},{"bike_id":"4fa87232-db10-452b-bc52-2ff01195c147","system_id":"levelo_inurba_marseille","lat":43.23153,"lon":5.43714,"is_reserved":false,"is_disabled":false,"rental_uris":{"android":"levelo://app?vid=4fa87232-db10-452b-bc52-2ff01195c147","ios":"levelo://app?vid=4fa87232-db10-452b-bc52-2ff01195c147"},"vehicle_type_id":"4","last_reported":1751469090,"current_range_meters":13600,"station_id":"ce4bhmp2rcd13ifvqgog","pricing_plan_id":"cebpf4jnsgd1na2vs0mg"},{"bike_id":"44c56895-05f2-47fc-9f87-fdfb75f9950e","system_id":"levelo_inurba_marseille","lat":43.32494,"lon":5.415698,"is_reserved":false,"is_disabled":false,"rental_uris":{"android":"levelo://app?vid=44c56895-05f2-47fc-9f87-fdfb75f9950e","ios":"levelo://app?vid=44c56895-05f2-47fc-9f87-fdfb75f9950e"},"vehicle_type_id":"4","last_reported":1751469090,"current_range_meters":13600,"station_id":"ce4bhq12rcd13ifvqhhg","pricing_plan_id":"cebpf4jnsgd1na2vs0mg"},{"bike_id":"dbe6a7d8-6edc-4015-8658-f68eeb46a661","system_id":"levelo_inurba_marseille","lat":43.334354,"lon":5.399016,"is_reserved":false,"is_disabled":false,"rental_uris":{"android":"levelo://app?vid=dbe6a7d8-6edc-4015-8658-f68eeb46a661","ios":"levelo://app?vid=dbe6a7d8-6edc-4015-8658-f68eeb46a661"},"vehicle_type_id":"4","last_reported":1751469090,"current_range_meters":14400,"station_id":"","pricing_plan_id":"cebpf4jnsgd1na2vs0mg"},{"bike_id":"fceda969-68a5-4b03-88cb-071fd851bccd","system_id":"levelo_inurba_marseille","lat":43.2842,"lon":5.34983,"is_reserved":false,"is_disabled":false,"rental_uris":{"android":"levelo://app?vid=fceda969-68a5-4b03-88cb-071fd851bccd","ios":"levelo://app?vid=fceda969-68a5-4b03-88cb-071fd851bccd"},"vehicle_type_id":"4","last_reported":1751469090,"current_range_meters":14400,"station_id":"ce4bhbh2rcd13ifvqepg","pricing_plan_id":"cebpf4jnsgd1na2vs0mg"},{"bike_id":"7d1bbfbb-c70e-48d3-8f4b-baf5b1ca8b77","system_id":"levelo_inurba_marseille","lat":43.28445,"lon":5.34959,"is_reserved":false,"is_disabled":false,"rental_uris":{"android":"levelo://app?vid=7d1bbfbb-c70e-48d3-8f4b-baf5b1ca8b77","ios":"levelo://app?vid=7d1bbfbb-c70e-48d3-8f4b-baf5b1ca8b77"},"vehicle_type_id":"4","last_reported":1751469090,"current_range_meters":14400,"station_id":"ce4bhbh2rcd13ifvqepg","pricing_plan_id":"cebpf4jnsgd1na2vs0mg"},{"bike_id":"b28aa0a0-791c-4a08-9a16-c7bf6ea0ed5a","system_id":"levelo_inurba_marseille","lat":43.22506,"lon":5.34784,"is_reserved":false,"is_disabled":false,"rental_uris":{"android":"levelo://app?vid=b28aa0a0-791c-4a08-9a16-c7bf6ea0ed5a","ios":"levelo://app?vid=b28aa0a0-791c-4a08-9a16-c7bf6ea0ed5a"},"vehicle_type_id":"4","last_reported":1751469090,"current_range_meters":14800,"station_id":"","pricing_plan_id":"cebpf4jnsgd1na2vs0mg"},{"bike_id":"7e62b058-a7ed-4634-80f1-04d3de596de7","system_id":"levelo_inurba_marseille","lat":43.2983,"lon":5.36841,"is_reserved":false,"is_disabled":false,"rental_uris":{"android":"levelo://app?vid=7e62b058-a7ed-4634-80f1-04d3de596de7","ios":"levelo://app?vid=7e62b058-a7ed-4634-80f1-04d3de596de7"},"vehicle_type_id":"4","last_reported":1751469090,"current_range_meters":14800,"station_id":"","pricing_plan_id":"cebpf4jnsgd1na2vs0mg"},{"bike_id":"f4d73d5c-d7f4-4eb9-ab28-a3205b456efb","system_id":"levelo_inurba_marseille","lat":43.27621,"lon":5.36112,"is_reserved":false,"is_disabled":false,"rental_uris":{"android":"levelo://app?vid=f4d73d5c-d7f4-4eb9-ab28-a3205b456efb","ios":"levelo://app?vid=f4d73d5c-d7f4-4eb9-ab28-a3205b456efb"},"vehicle_type_id":"4","last_reported":1751469090,"current_range_meters":14800,"station_id":"ce4bgj92rcd13ifvqbe0","pricing_plan_id":"cebpf4jnsgd1na2vs0mg"},{"bike_id":"e707c510-ad27-462c-addc-980aa8cb525b","system_id":"levelo_inurba_marseille","lat":43.28269,"lon":5.35072,"is_reserved":false,"is_disabled":false,"rental_uris":{"android":"levelo://app?vid=e707c510-ad27-462c-addc-980aa8cb525b","ios":"levelo://app?vid=e707c510-ad27-462c-addc-980aa8cb525b"},"vehicle_type_id":"4","last_reported":1751469090,"current_range_meters":14800,"station_id":"ce4bhbp2rcd13ifvqerg","pricing_plan_id":"cebpf4jnsgd1na2vs0mg"},{"bike_id":"91745883-db59-47c5-acc7-f039a84201aa","system_id":"levelo_inurba_marseille","lat":43.32326,"lon":5.38872,"is_reserved":false,"is_disabled":false,"rental_uris":{"android":"levelo://app?vid=91745883-db59-47c5-acc7-f039a84201aa","ios":"levelo://app?vid=91745883-db59-47c5-acc7-f039a84201aa"},"vehicle_type_id":"4","last_reported":1751469090,"current_range_meters":14800,"station_id":"ce4bhqp2rcd13ifvqhog","pricing_plan_id":"cebpf4jnsgd1na2vs0mg"},{"bike_id":"b50da02d-1fb5-4383-a93d-332785610080","system_id":"levelo_inurba_marseille","lat":43.21751,"lon":5.34602,"is_reserved":false,"is_disabled":false,"rental_uris":{"android":"levelo://app?vid=b50da02d-1fb5-4383-a93d-332785610080","ios":"levelo://app?vid=b50da02d-1fb5-4383-a93d-332785610080"},"vehicle_type_id":"4","last_reported":1751469090,"current_range_meters":14800,"station_id":"st_cvj6r9ubvosntc0bgbag","pricing_plan_id":"cebpf4jnsgd1na2vs0mg"},{"bike_id":"f3b64426-219c-466e-894d-7151005d6369","system_id":"levelo_inurba_marseille","lat":43.29964,"lon":5.38497,"is_reserved":false,"is_disabled":false,"rental_uris":{"android":"levelo://app?vid=f3b64426-219c-466e-894d-7151005d6369","ios":"levelo://app?vid=f3b64426-219c-466e-894d-7151005d6369"},"vehicle_type_id":"4","last_reported":1751469090,"current_range_meters":15200,"station_id":"ce4bgj92rcd13ifvqbd0","pricing_plan_id":"cebpf4jnsgd1na2vs0mg"},{"bike_id":"28c68d97-1229-4db5-8602-bbb92528ee4c","system_id":"levelo_inurba_marseille","lat":43.28345,"lon":5.38111,"is_reserved":false,"is_disabled":false,"rental_uris":{"android":"levelo://app?vid=28c68d97-1229-4db5-8602-bbb92528ee4c","ios":"levelo://app?vid=28c68d97-1229-4db5-8602-bbb92528ee4c"},"vehicle_type_id":"4","last_reported":1751469090,"current_range_meters":15200,"station_id":"ce4bh412rcd13ifvqdr0","pricing_plan_id":"cebpf4jnsgd1na2vs0mg"},{"bike_id":"148631f2-59ef-42a2-b893-29a1ecf223d0","system_id":"levelo_inurba_marseille","lat":43.28472,"lon":5.38422,"is_reserved":false,"is_disabled":false,"rental_uris":{"android":"levelo://app?vid=148631f2-59ef-42a2-b893-29a1ecf223d0","ios":"levelo://app?vid=148631f2-59ef-42a2-b893-29a1ecf223d0"},"vehicle_type_id":"4","last_reported":1751469090,"current_range_meters":15200,"station_id":"ce4bh512rcd13ifvqe3g","pricing_plan_id":"cebpf4jnsgd1na2vs0mg"},{"bike_id":"17ad145c-f881-4017-969d-c8638a36a818","system_id":"levelo_inurba_marseille","lat":43.26553,"lon":5.3899,"is_reserved":false,"is_disabled":false,"rental_uris":{"android":"levelo://app?vid=17ad145c-f881-4017-969d-c8638a36a818","ios":"levelo://app?vid=17ad145c-f881-4017-969d-c8638a36a818"},"vehicle_type_id":"4","last_reported":1751469090,"current_range_meters":15200,"station_id":"ce4bhe12rcd13ifvqf30","pricing_plan_id":"cebpf4jnsgd1na2vs0mg"},{"bike_id":"b944d4a5-469c-4e17-9956-a10ea5b9c9d2","system_id":"levelo_inurba_marseille","lat":43.29897,"lon":5.43671,"is_reserved":false,"is_disabled":false,"rental_uris":{"android":"levelo://app?vid=b944d4a5-469c-4e17-9956-a10ea5b9c9d2","ios":"levelo://app?vid=b944d4a5-469c-4e17-9956-a10ea5b9c9d2"},"vehicle_type_id":"4","last_reported":1751469090,"current_range_meters":15200,"station_id":"ce4bhpp2rcd13ifvqhfg","pricing_plan_id":"cebpf4jnsgd1na2vs0mg"},{"bike_id":"88f0d88a-1dec-4977-a19a-71293da7fba4","system_id":"levelo_inurba_marseille","lat":43.32327,"lon":5.36715,"is_reserved":false,"is_disabled":false,"rental_uris":{"android":"levelo://app?vid=88f0d88a-1dec-4977-a19a-71293da7fba4","ios":"levelo://app?vid=88f0d88a-1dec-4977-a19a-71293da7fba4"},"vehicle_type_id":"4","last_reported":1751469090,"current_range_meters":15200,"station_id":"ce4bhsh2rcd13ifvqi2g","pricing_plan_id":"cebpf4jnsgd1na2vs0mg"},{"bike_id":"16a8afe6-e43e-4d1b-a7bd-ed83d113735a","system_id":"levelo_inurba_marseille","lat":43.32436,"lon":5.41185,"is_reserved":false,"is_disabled":false,"rental_uris":{"android":"levelo://app?vid=16a8afe6-e43e-4d1b-a7bd-ed83d113735a","ios":"levelo://app?vid=16a8afe6-e43e-4d1b-a7bd-ed83d113735a"},"vehicle_type_id":"4","last_reported":1751469090,"current_range_meters":16000,"station_id":"","pricing_plan_id":"cebpf4jnsgd1na2vs0mg"},{"bike_id":"8532d516-a1f1-4704-ba9f-9073ae0fc150","system_id":"levelo_inurba_marseille","lat":43.29247,"lon":5.37623,"is_reserved":false,"is_disabled":false,"rental_uris":{"android":"levelo://app?vid=8532d516-a1f1-4704-ba9f-9073ae0fc150","ios":"levelo://app?vid=8532d516-a1f1-4704-ba9f-9073ae0fc150"},"vehicle_type_id":"4","last_reported":1751469090,"current_range_meters":16000,"station_id":"ce4bgi12rcd13ifvqb80","pricing_plan_id":"cebpf4jnsgd1na2vs0mg"},{"bike_id":"ffa93404-2dc5-4c70-9c0b-83bca63215be","system_id":"levelo_inurba_marseille","lat":43.30541,"lon":5.36535,"is_reserved":false,"is_disabled":false,"rental_uris":{"android":"levelo://app?vid=ffa93404-2dc5-4c70-9c0b-83bca63215be","ios":"levelo://app?vid=ffa93404-2dc5-4c70-9c0b-83bca63215be"},"vehicle_type_id":"4","last_reported":1751469090,"current_range_meters":16000,"station_id":"ce4bgs12rcd13ifvqcag","pricing_plan_id":"cebpf4jnsgd1na2vs0mg"},{"bike_id":"3e085e12-9767-479d-b008-419309a2b33b","system_id":"levelo_inurba_marseille","lat":43.28661,"lon":5.38675,"is_reserved":false,"is_disabled":false,"rental_uris":{"android":"levelo://app?vid=3e085e12-9767-479d-b008-419309a2b33b","ios":"levelo://app?vid=3e085e12-9767-479d-b008-419309a2b33b"},"vehicle_type_id":"4","last_reported":1751469090,"current_range_meters":16000,"station_id":"ce4bh492rcd13ifvqdug","pricing_plan_id":"cebpf4jnsgd1na2vs0mg"},{"bike_id":"d0662380-6c57-48cb-bca9-0e06c31eaa27","system_id":"levelo_inurba_marseille","lat":43.27361,"lon":5.36249,"is_reserved":false,"is_disabled":false,"rental_uris":{"android":"levelo://app?vid=d0662380-6c57-48cb-bca9-0e06c31eaa27","ios":"levelo://app?vid=d0662380-6c57-48cb-bca9-0e06c31eaa27"},"vehicle_type_id":"4","last_reported":1751469090,"current_range_meters":16000,"station_id":"ce4bhbh2rcd13ifvqeo0","pricing_plan_id":"cebpf4jnsgd1na2vs0mg"},{"bike_id":"331745a6-416e-4697-a3b9-8b6ec98fb01a","system_id":"levelo_inurba_marseille","lat":43.28412,"lon":5.34979,"is_reserved":false,"is_disabled":false,"rental_uris":{"android":"levelo://app?vid=331745a6-416e-4697-a3b9-8b6ec98fb01a","ios":"levelo://app?vid=331745a6-416e-4697-a3b9-8b6ec98fb01a"},"vehicle_type_id":"4","last_reported":1751469090,"current_range_meters":16000,"station_id":"ce4bhbh2rcd13ifvqepg","pricing_plan_id":"cebpf4jnsgd1na2vs0mg"},{"bike_id":"a4fa0864-a85b-4e58-80fb-f707fbcf1f52","system_id":"levelo_inurba_marseille","lat":43.28419,"lon":5.35007,"is_reserved":false,"is_disabled":false,"rental_uris":{"android":"levelo://app?vid=a4fa0864-a85b-4e58-80fb-f707fbcf1f52","ios":"levelo://app?vid=a4fa0864-a85b-4e58-80fb-f707fbcf1f52"},"vehicle_type_id":"4","last_reported":1751469090,"current_range_meters":16000,"station_id":"ce4bhbh2rcd13ifvqepg","pricing_plan_id":"cebpf4jnsgd1na2vs0mg"},{"bike_id":"3c6dc4c2-0656-496f-9a13-a1bc51cddefa","system_id":"levelo_inurba_marseille","lat":43.261291,"lon":5.393546,"is_reserved":false,"is_disabled":false,"rental_uris":{"android":"levelo://app?vid=3c6dc4c2-0656-496f-9a13-a1bc51cddefa","ios":"levelo://app?vid=3c6dc4c2-0656-496f-9a13-a1bc51cddefa"},"vehicle_type_id":"4","last_reported":1751469090,"current_range_meters":16000,"station_id":"ce4bhh92rcd13ifvqfj0","pricing_plan_id":"cebpf4jnsgd1na2vs0mg"},{"bike_id":"e8926d9c-fd81-4c6f-9f8b-a5a515bef33a","system_id":"levelo_inurba_marseille","lat":43.24394,"lon":5.37045,"is_reserved":false,"is_disabled":false,"rental_uris":{"android":"levelo://app?vid=e8926d9c-fd81-4c6f-9f8b-a5a515bef33a","ios":"levelo://app?vid=e8926d9c-fd81-4c6f-9f8b-a5a515bef33a"},"vehicle_type_id":"4","last_reported":1751469090,"current_range_meters":16000,"station_id":"ce4bhhh2rcd13ifvqfk0","pricing_plan_id":"cebpf4jnsgd1na2vs0mg"},{"bike_id":"da7e1f64-12bc-4b3c-804b-4936727095f5","system_id":"levelo_inurba_marseille","lat":43.31885,"lon":5.40739,"is_reserved":false,"is_disabled":false,"rental_uris":{"android":"levelo://app?vid=da7e1f64-12bc-4b3c-804b-4936727095f5","ios":"levelo://app?vid=da7e1f64-12bc-4b3c-804b-4936727095f5"},"vehicle_type_id":"4","last_reported":1751469090,"current_range_meters":16000,"station_id":"ce4bhq12rcd13ifvqhig","pricing_plan_id":"cebpf4jnsgd1na2vs0mg"},{"bike_id":"56eb3fdf-ea87-4fcf-85df-3680fa66363e","system_id":"levelo_inurba_marseille","lat":43.2249,"lon":5.34804,"is_reserved":false,"is_disabled":false,"rental_uris":{"android":"levelo://app?vid=56eb3fdf-ea87-4fcf-85df-3680fa66363e","ios":"levelo://app?vid=56eb3fdf-ea87-4fcf-85df-3680fa66363e"},"vehicle_type_id":"4","last_reported":1751469090,"current_range_meters":16000,"station_id":"st_cvj5dfep6f1abm77gieg","pricing_plan_id":"cebpf4jnsgd1na2vs0mg"},{"bike_id":"bcfd0eda-b9ab-4bec-9ca3-3f2b86617415","system_id":"levelo_inurba_marseille","lat":43.211894,"lon":5.350709,"is_reserved":false,"is_disabled":false,"rental_uris":{"android":"levelo://app?vid=bcfd0eda-b9ab-4bec-9ca3-3f2b86617415","ios":"levelo://app?vid=bcfd0eda-b9ab-4bec-9ca3-3f2b86617415"},"vehicle_type_id":"4","last_reported":1751469090,"current_range_meters":16000,"station_id":"st_cvj6sg6p6f1abm77japg","pricing_plan_id":"cebpf4jnsgd1na2vs0mg"},{"bike_id":"110be0f7-19b6-4419-935c-8afdb1f29359","system_id":"levelo_inurba_marseille","lat":43.21219,"lon":5.35124,"is_reserved":false,"is_disabled":false,"rental_uris":{"android":"levelo://app?vid=110be0f7-19b6-4419-935c-8afdb1f29359","ios":"levelo://app?vid=110be0f7-19b6-4419-935c-8afdb1f29359"},"vehicle_type_id":"4","last_reported":1751469090,"current_range_meters":16400,"station_id":"","pricing_plan_id":"cebpf4jnsgd1na2vs0mg"},{"bike_id":"c7d731f2-5052-48b6-b90c-c6a7d2768821","system_id":"levelo_inurba_marseille","lat":43.29009,"lon":5.35608,"is_reserved":false,"is_disabled":false,"rental_uris":{"android":"levelo://app?vid=c7d731f2-5052-48b6-b90c-c6a7d2768821","ios":"levelo://app?vid=c7d731f2-5052-48b6-b90c-c6a7d2768821"},"vehicle_type_id":"4","last_reported":1751469090,"current_range_meters":16400,"station_id":"","pricing_plan_id":"cebpf4jnsgd1na2vs0mg"},{"bike_id":"752a7229-d138-4522-8787-0bb67b470949","system_id":"levelo_inurba_marseille","lat":43.31852,"lon":5.37635,"is_reserved":false,"is_disabled":false,"rental_uris":{"android":"levelo://app?vid=752a7229-d138-4522-8787-0bb67b470949","ios":"levelo://app?vid=752a7229-d138-4522-8787-0bb67b470949"},"vehicle_type_id":"4","last_reported":1751469090,"current_range_meters":16400,"station_id":"","pricing_plan_id":"cebpf4jnsgd1na2vs0mg"},{"bike_id":"a0cef316-ad95-4855-8f78-a31341a2b90e","system_id":"levelo_inurba_marseille","lat":43.31274,"lon":5.37751,"is_reserved":false,"is_disabled":false,"rental_uris":{"android":"levelo://app?vid=a0cef316-ad95-4855-8f78-a31341a2b90e","ios":"levelo://app?vid=a0cef316-ad95-4855-8f78-a31341a2b90e"},"vehicle_type_id":"4","last_reported":1751469090,"current_range_meters":16400,"station_id":"","pricing_plan_id":"cebpf4jnsgd1na2vs0mg"},{"bike_id":"c5e094ee-7885-42b9-806d-7288db0f9ebc","system_id":"levelo_inurba_marseille","lat":43.27369,"lon":5.3626,"is_reserved":false,"is_disabled":false,"rental_uris":{"android":"levelo://app?vid=c5e094ee-7885-42b9-806d-7288db0f9ebc","ios":"levelo://app?vid=c5e094ee-7885-42b9-806d-7288db0f9ebc"},"vehicle_type_id":"4","last_reported":1751469090,"current_range_meters":16400,"station_id":"ce4bhbh2rcd13ifvqeo0","pricing_plan_id":"cebpf4jnsgd1na2vs0mg"},{"bike_id":"ccdaca0f-6363-48bd-b089-fa87a98084b1","system_id":"levelo_inurba_marseille","lat":43.26678,"lon":5.38262,"is_reserved":false,"is_disabled":false,"rental_uris":{"android":"levelo://app?vid=ccdaca0f-6363-48bd-b089-fa87a98084b1","ios":"levelo://app?vid=ccdaca0f-6363-48bd-b089-fa87a98084b1"},"vehicle_type_id":"4","last_reported":1751469090,"current_range_meters":16400,"station_id":"ce4bhg92rcd13ifvqf90","pricing_plan_id":"cebpf4jnsgd1na2vs0mg"},{"bike_id":"f18de023-b1e4-493a-8d26-e55a540b0ae0","system_id":"levelo_inurba_marseille","lat":43.248063,"lon":5.37458,"is_reserved":false,"is_disabled":false,"rental_uris":{"android":"levelo://app?vid=f18de023-b1e4-493a-8d26-e55a540b0ae0","ios":"levelo://app?vid=f18de023-b1e4-493a-8d26-e55a540b0ae0"},"vehicle_type_id":"4","last_reported":1751469090,"current_range_meters":16400,"station_id":"ce4bhgh2rcd13ifvqfb0","pricing_plan_id":"cebpf4jnsgd1na2vs0mg"},{"bike_id":"959e6f20-8ed0-4d36-bc1d-3efb82d6190b","system_id":"levelo_inurba_marseille","lat":43.21178,"lon":5.35086,"is_reserved":false,"is_disabled":false,"rental_uris":{"android":"levelo://app?vid=959e6f20-8ed0-4d36-bc1d-3efb82d6190b","ios":"levelo://app?vid=959e6f20-8ed0-4d36-bc1d-3efb82d6190b"},"vehicle_type_id":"4","last_reported":1751469090,"current_range_meters":16400,"station_id":"st_cvj6sg6p6f1abm77japg","pricing_plan_id":"cebpf4jnsgd1na2vs0mg"},{"bike_id":"88ba2eb8-6abc-42f0-a2b7-fafab863863b","system_id":"levelo_inurba_marseille","lat":43.29242,"lon":5.40754,"is_reserved":false,"is_disabled":false,"rental_uris":{"android":"levelo://app?vid=88ba2eb8-6abc-42f0-a2b7-fafab863863b","ios":"levelo://app?vid=88ba2eb8-6abc-42f0-a2b7-fafab863863b"},"vehicle_type_id":"4","last_reported":1751469090,"current_range_meters":16800,"station_id":"","pricing_plan_id":"cebpf4jnsgd1na2vs0mg"},{"bike_id":"c891a8a9-6cee-47e2-ba82-eb733400cd8c","system_id":"levelo_inurba_marseille","lat":43.30575,"lon":5.36788,"is_reserved":false,"is_disabled":false,"rental_uris":{"android":"levelo://app?vid=c891a8a9-6cee-47e2-ba82-eb733400cd8c","ios":"levelo://app?vid=c891a8a9-6cee-47e2-ba82-eb733400cd8c"},"vehicle_type_id":"4","last_reported":1751469090,"current_range_meters":16800,"station_id":"ce4bgrp2rcd13ifvqc9g","pricing_plan_id":"cebpf4jnsgd1na2vs0mg"},{"bike_id":"0e030323-4386-4e72-9a0d-0f6a2ff539de","system_id":"levelo_inurba_marseille","lat":43.296107,"lon":5.405736,"is_reserved":false,"is_disabled":false,"rental_uris":{"android":"levelo://app?vid=0e030323-4386-4e72-9a0d-0f6a2ff539de","ios":"levelo://app?vid=0e030323-4386-4e72-9a0d-0f6a2ff539de"},"vehicle_type_id":"4","last_reported":1751469090,"current_range_meters":16800,"station_id":"ce4bh0h2rcd13ifvqd60","pricing_plan_id":"cebpf4jnsgd1na2vs0mg"},{"bike_id":"af45e992-38f9-4969-8dcf-1e064c257847","system_id":"levelo_inurba_marseille","lat":43.319928,"lon":5.381398,"is_reserved":false,"is_disabled":false,"rental_uris":{"android":"levelo://app?vid=af45e992-38f9-4969-8dcf-1e064c257847","ios":"levelo://app?vid=af45e992-38f9-4969-8dcf-1e064c257847"},"vehicle_type_id":"4","last_reported":1751469090,"current_range_meters":16800,"station_id":"ce4bhr12rcd13ifvqhpg","pricing_plan_id":"cebpf4jnsgd1na2vs0mg"},{"bike_id":"09a94feb-8911-4d3d-9f22-a7f611710ea1","system_id":"levelo_inurba_marseille","lat":43.21191,"lon":5.3508,"is_reserved":false,"is_disabled":false,"rental_uris":{"android":"levelo://app?vid=09a94feb-8911-4d3d-9f22-a7f611710ea1","ios":"levelo://app?vid=09a94feb-8911-4d3d-9f22-a7f611710ea1"},"vehicle_type_id":"4","last_reported":1751469090,"current_range_meters":16800,"station_id":"st_cvj6sg6p6f1abm77japg","pricing_plan_id":"cebpf4jnsgd1na2vs0mg"},{"bike_id":"8bf0d992-d2a0-428e-940a-091ee9b7c2a4","system_id":"levelo_inurba_marseille","lat":43.21268,"lon":5.35059,"is_reserved":false,"is_disabled":false,"rental_uris":{"android":"levelo://app?vid=8bf0d992-d2a0-428e-940a-091ee9b7c2a4","ios":"levelo://app?vid=8bf0d992-d2a0-428e-940a-091ee9b7c2a4"},"vehicle_type_id":"4","last_reported":1751469090,"current_range_meters":17200,"station_id":"","pricing_plan_id":"cebpf4jnsgd1na2vs0mg"},{"bike_id":"61822e84-6b79-424a-b2e8-c83e76993ed7","system_id":"levelo_inurba_marseille","lat":43.28495,"lon":5.38422,"is_reserved":false,"is_disabled":false,"rental_uris":{"android":"levelo://app?vid=61822e84-6b79-424a-b2e8-c83e76993ed7","ios":"levelo://app?vid=61822e84-6b79-424a-b2e8-c83e76993ed7"},"vehicle_type_id":"4","last_reported":1751469090,"current_range_meters":17200,"station_id":"ce4bh512rcd13ifvqe3g","pricing_plan_id":"cebpf4jnsgd1na2vs0mg"},{"bike_id":"f048db52-6f32-4b62-81ca-29b673e2a0b0","system_id":"levelo_inurba_marseille","lat":43.26181,"lon":5.37908,"is_reserved":false,"is_disabled":false,"rental_uris":{"android":"levelo://app?vid=f048db52-6f32-4b62-81ca-29b673e2a0b0","ios":"levelo://app?vid=f048db52-6f32-4b62-81ca-29b673e2a0b0"},"vehicle_type_id":"4","last_reported":1751469090,"current_range_meters":17200,"station_id":"ce4bhjp2rcd13ifvqg90","pricing_plan_id":"cebpf4jnsgd1na2vs0mg"},{"bike_id":"872ba1c5-f1df-4b9a-bfa0-0bc6631ec0cc","system_id":"levelo_inurba_marseille","lat":43.31738,"lon":5.42393,"is_reserved":false,"is_disabled":false,"rental_uris":{"android":"levelo://app?vid=872ba1c5-f1df-4b9a-bfa0-0bc6631ec0cc","ios":"levelo://app?vid=872ba1c5-f1df-4b9a-bfa0-0bc6631ec0cc"},"vehicle_type_id":"4","last_reported":1751469090,"current_range_meters":17200,"station_id":"ce4bhp92rcd13ifvqhbg","pricing_plan_id":"cebpf4jnsgd1na2vs0mg"},{"bike_id":"5f7a5c92-cf19-428f-a6d6-a37c8e43b9e3","system_id":"levelo_inurba_marseille","lat":43.23214,"lon":5.35557,"is_reserved":false,"is_disabled":false,"rental_uris":{"android":"levelo://app?vid=5f7a5c92-cf19-428f-a6d6-a37c8e43b9e3","ios":"levelo://app?vid=5f7a5c92-cf19-428f-a6d6-a37c8e43b9e3"},"vehicle_type_id":"4","last_reported":1751469090,"current_range_meters":17200,"station_id":"ce4bhu92rcd13ifvqi70","pricing_plan_id":"cebpf4jnsgd1na2vs0mg"},{"bike_id":"6d2da863-a742-45db-855b-55a94467cfa4","system_id":"levelo_inurba_marseille","lat":43.32605,"lon":5.42775,"is_reserved":false,"is_disabled":false,"rental_uris":{"android":"levelo://app?vid=6d2da863-a742-45db-855b-55a94467cfa4","ios":"levelo://app?vid=6d2da863-a742-45db-855b-55a94467cfa4"},"vehicle_type_id":"4","last_reported":1751469090,"current_range_meters":17600,"station_id":"","pricing_plan_id":"cebpf4jnsgd1na2vs0mg"},{"bike_id":"ff2eed52-76b4-4357-b31a-0d511595ff47","system_id":"levelo_inurba_marseille","lat":43.28422,"lon":5.34975,"is_reserved":false,"is_disabled":false,"rental_uris":{"android":"levelo://app?vid=ff2eed52-76b4-4357-b31a-0d511595ff47","ios":"levelo://app?vid=ff2eed52-76b4-4357-b31a-0d511595ff47"},"vehicle_type_id":"4","last_reported":1751469090,"current_range_meters":17600,"station_id":"ce4bhbh2rcd13ifvqepg","pricing_plan_id":"cebpf4jnsgd1na2vs0mg"},{"bike_id":"077985c0-77f0-4bef-9e5d-9a6b965253fa","system_id":"levelo_inurba_marseille","lat":43.26927,"lon":5.38929,"is_reserved":false,"is_disabled":false,"rental_uris":{"android":"levelo://app?vid=077985c0-77f0-4bef-9e5d-9a6b965253fa","ios":"levelo://app?vid=077985c0-77f0-4bef-9e5d-9a6b965253fa"},"vehicle_type_id":"4","last_reported":1751469090,"current_range_meters":17600,"station_id":"ce4bhhh2rcd13ifvqfl0","pricing_plan_id":"cebpf4jnsgd1na2vs0mg"},{"bike_id":"5ef32a3e-898c-4805-9f97-801f60f5387e","system_id":"levelo_inurba_marseille","lat":43.30419,"lon":5.4128,"is_reserved":false,"is_disabled":false,"rental_uris":{"android":"levelo://app?vid=5ef32a3e-898c-4805-9f97-801f60f5387e","ios":"levelo://app?vid=5ef32a3e-898c-4805-9f97-801f60f5387e"},"vehicle_type_id":"4","last_reported":1751469090,"current_range_meters":17600,"station_id":"ce4bhop2rcd13ifvqh8g","pricing_plan_id":"cebpf4jnsgd1na2vs0mg"},{"bike_id":"c10a4283-320d-4e64-8d75-ff83e94026ba","system_id":"levelo_inurba_marseille","lat":43.211928,"lon":5.350742,"is_reserved":false,"is_disabled":false,"rental_uris":{"android":"levelo://app?vid=c10a4283-320d-4e64-8d75-ff83e94026ba","ios":"levelo://app?vid=c10a4283-320d-4e64-8d75-ff83e94026ba"},"vehicle_type_id":"4","last_reported":1751469090,"current_range_meters":17600,"station_id":"st_cvj6sg6p6f1abm77japg","pricing_plan_id":"cebpf4jnsgd1na2vs0mg"},{"bike_id":"8a74f5cd-9efa-4362-bea7-a32db4dcc85c","system_id":"levelo_inurba_marseille","lat":43.21175,"lon":5.3507,"is_reserved":false,"is_disabled":false,"rental_uris":{"android":"levelo://app?vid=8a74f5cd-9efa-4362-bea7-a32db4dcc85c","ios":"levelo://app?vid=8a74f5cd-9efa-4362-bea7-a32db4dcc85c"},"vehicle_type_id":"4","last_reported":1751469090,"current_range_meters":17600,"station_id":"st_cvj6sg6p6f1abm77japg","pricing_plan_id":"cebpf4jnsgd1na2vs0mg"},{"bike_id":"6f447455-1ab3-41e4-83b6-07a0bcfda911","system_id":"levelo_inurba_marseille","lat":43.29603,"lon":5.38097,"is_reserved":false,"is_disabled":false,"rental_uris":{"android":"levelo://app?vid=6f447455-1ab3-41e4-83b6-07a0bcfda911","ios":"levelo://app?vid=6f447455-1ab3-41e4-83b6-07a0bcfda911"},"vehicle_type_id":"4","last_reported":1751469090,"current_range_meters":18000,"station_id":"ce4bgl12rcd13ifvqbo0","pricing_plan_id":"cebpf4jnsgd1na2vs0mg"},{"bike_id":"12c7c267-0d81-4c89-8c1c-43dafb30d6ee","system_id":"levelo_inurba_marseille","lat":43.31265,"lon":5.40177,"is_reserved":false,"is_disabled":false,"rental_uris":{"android":"levelo://app?vid=12c7c267-0d81-4c89-8c1c-43dafb30d6ee","ios":"levelo://app?vid=12c7c267-0d81-4c89-8c1c-43dafb30d6ee"},"vehicle_type_id":"4","last_reported":1751469090,"current_range_meters":18000,"station_id":"ce4bh092rcd13ifvqd30","pricing_plan_id":"cebpf4jnsgd1na2vs0mg"},{"bike_id":"35a875c4-066b-4cfc-b329-02e51b6ef412","system_id":"levelo_inurba_marseille","lat":43.28264,"lon":5.35063,"is_reserved":false,"is_disabled":false,"rental_uris":{"android":"levelo://app?vid=35a875c4-066b-4cfc-b329-02e51b6ef412","ios":"levelo://app?vid=35a875c4-066b-4cfc-b329-02e51b6ef412"},"vehicle_type_id":"4","last_reported":1751469090,"current_range_meters":18000,"station_id":"ce4bhbp2rcd13ifvqerg","pricing_plan_id":"cebpf4jnsgd1na2vs0mg"},{"bike_id":"a8e7bc4b-d124-4cb7-89d1-1fe7d847cf45","system_id":"levelo_inurba_marseille","lat":43.28273,"lon":5.35071,"is_reserved":false,"is_disabled":false,"rental_uris":{"android":"levelo://app?vid=a8e7bc4b-d124-4cb7-89d1-1fe7d847cf45","ios":"levelo://app?vid=a8e7bc4b-d124-4cb7-89d1-1fe7d847cf45"},"vehicle_type_id":"4","last_reported":1751469090,"current_range_meters":18000,"station_id":"ce4bhbp2rcd13ifvqerg","pricing_plan_id":"cebpf4jnsgd1na2vs0mg"},{"bike_id":"cf498fd8-d50b-47dd-9a1d-bb8692a50f16","system_id":"levelo_inurba_marseille","lat":43.25482,"lon":5.37665,"is_reserved":false,"is_disabled":false,"rental_uris":{"android":"levelo://app?vid=cf498fd8-d50b-47dd-9a1d-bb8692a50f16","ios":"levelo://app?vid=cf498fd8-d50b-47dd-9a1d-bb8692a50f16"},"vehicle_type_id":"4","last_reported":1751469090,"current_range_meters":18000,"station_id":"ce4bhh12rcd13ifvqff0","pricing_plan_id":"cebpf4jnsgd1na2vs0mg"},{"bike_id":"7d81970c-09c7-4cfc-bc10-4dc304660599","system_id":"levelo_inurba_marseille","lat":43.239969,"lon":5.366927,"is_reserved":false,"is_disabled":false,"rental_uris":{"android":"levelo://app?vid=7d81970c-09c7-4cfc-bc10-4dc304660599","ios":"levelo://app?vid=7d81970c-09c7-4cfc-bc10-4dc304660599"},"vehicle_type_id":"4","last_reported":1751469090,"current_range_meters":18000,"station_id":"ce4bhi12rcd13ifvqfp0","pricing_plan_id":"cebpf4jnsgd1na2vs0mg"},{"bike_id":"924cc4bb-2b37-4abb-a8b2-cd7f5b89bc0f","system_id":"levelo_inurba_marseille","lat":43.32105,"lon":5.36783,"is_reserved":false,"is_disabled":false,"rental_uris":{"android":"levelo://app?vid=924cc4bb-2b37-4abb-a8b2-cd7f5b89bc0f","ios":"levelo://app?vid=924cc4bb-2b37-4abb-a8b2-cd7f5b89bc0f"},"vehicle_type_id":"4","last_reported":1751469090,"current_range_meters":18000,"station_id":"ce4bhrh2rcd13ifvqhug","pricing_plan_id":"cebpf4jnsgd1na2vs0mg"},{"bike_id":"d393009a-4549-46b8-9394-75871ff606d4","system_id":"levelo_inurba_marseille","lat":43.32328,"lon":5.36731,"is_reserved":false,"is_disabled":false,"rental_uris":{"android":"levelo://app?vid=d393009a-4549-46b8-9394-75871ff606d4","ios":"levelo://app?vid=d393009a-4549-46b8-9394-75871ff606d4"},"vehicle_type_id":"4","last_reported":1751469090,"current_range_meters":18000,"station_id":"ce4bhsh2rcd13ifvqi2g","pricing_plan_id":"cebpf4jnsgd1na2vs0mg"},{"bike_id":"10b0b860-bb51-4240-bd79-57112e19f6af","system_id":"levelo_inurba_marseille","lat":43.21791,"lon":5.34602,"is_reserved":false,"is_disabled":false,"rental_uris":{"android":"levelo://app?vid=10b0b860-bb51-4240-bd79-57112e19f6af","ios":"levelo://app?vid=10b0b860-bb51-4240-bd79-57112e19f6af"},"vehicle_type_id":"4","last_reported":1751469090,"current_range_meters":18800,"station_id":"","pricing_plan_id":"cebpf4jnsgd1na2vs0mg"},{"bike_id":"1f23ad1e-e549-4898-8b6a-56b3231a6a16","system_id":"levelo_inurba_marseille","lat":43.29592,"lon":5.38112,"is_reserved":false,"is_disabled":false,"rental_uris":{"android":"levelo://app?vid=1f23ad1e-e549-4898-8b6a-56b3231a6a16","ios":"levelo://app?vid=1f23ad1e-e549-4898-8b6a-56b3231a6a16"},"vehicle_type_id":"4","last_reported":1751469090,"current_range_meters":18800,"station_id":"ce4bgl12rcd13ifvqbo0","pricing_plan_id":"cebpf4jnsgd1na2vs0mg"},{"bike_id":"a1855042-a630-4649-9fec-182ea8b42e22","system_id":"levelo_inurba_marseille","lat":43.28266,"lon":5.35061,"is_reserved":false,"is_disabled":false,"rental_uris":{"android":"levelo://app?vid=a1855042-a630-4649-9fec-182ea8b42e22","ios":"levelo://app?vid=a1855042-a630-4649-9fec-182ea8b42e22"},"vehicle_type_id":"4","last_reported":1751469090,"current_range_meters":18800,"station_id":"ce4bhbp2rcd13ifvqerg","pricing_plan_id":"cebpf4jnsgd1na2vs0mg"},{"bike_id":"a5dd1495-37bd-4d52-bdbd-ac33ef851954","system_id":"levelo_inurba_marseille","lat":43.23152,"lon":5.43716,"is_reserved":false,"is_disabled":false,"rental_uris":{"android":"levelo://app?vid=a5dd1495-37bd-4d52-bdbd-ac33ef851954","ios":"levelo://app?vid=a5dd1495-37bd-4d52-bdbd-ac33ef851954"},"vehicle_type_id":"4","last_reported":1751469090,"current_range_meters":18800,"station_id":"ce4bhmp2rcd13ifvqgog","pricing_plan_id":"cebpf4jnsgd1na2vs0mg"},{"bike_id":"0a59ea00-800e-40e8-a92f-63ea03982f65","system_id":"levelo_inurba_marseille","lat":43.32106,"lon":5.36773,"is_reserved":false,"is_disabled":false,"rental_uris":{"android":"levelo://app?vid=0a59ea00-800e-40e8-a92f-63ea03982f65","ios":"levelo://app?vid=0a59ea00-800e-40e8-a92f-63ea03982f65"},"vehicle_type_id":"4","last_reported":1751469090,"current_range_meters":18800,"station_id":"ce4bhrh2rcd13ifvqhug","pricing_plan_id":"cebpf4jnsgd1na2vs0mg"},{"bike_id":"b7c4f4e7-ddbb-4243-982d-1ca4f75e59a6","system_id":"levelo_inurba_marseille","lat":43.32384,"lon":5.36744,"is_reserved":false,"is_disabled":false,"rental_uris":{"android":"levelo://app?vid=b7c4f4e7-ddbb-4243-982d-1ca4f75e59a6","ios":"levelo://app?vid=b7c4f4e7-ddbb-4243-982d-1ca4f75e59a6"},"vehicle_type_id":"4","last_reported":1751469090,"current_range_meters":18800,"station_id":"ce4bhsh2rcd13ifvqi2g","pricing_plan_id":"cebpf4jnsgd1na2vs0mg"},{"bike_id":"0f590c2a-c81e-469d-a7d1-2741de3642a2","system_id":"levelo_inurba_marseille","lat":43.21192,"lon":5.35072,"is_reserved":false,"is_disabled":false,"rental_uris":{"android":"levelo://app?vid=0f590c2a-c81e-469d-a7d1-2741de3642a2","ios":"levelo://app?vid=0f590c2a-c81e-469d-a7d1-2741de3642a2"},"vehicle_type_id":"4","last_reported":1751469090,"current_range_meters":18800,"station_id":"st_cvj6sg6p6f1abm77japg","pricing_plan_id":"cebpf4jnsgd1na2vs0mg"},{"bike_id":"fe84177e-dc24-423c-bc2b-77abf3163fe9","system_id":"levelo_inurba_marseille","lat":43.30213,"lon":5.38266,"is_reserved":false,"is_disabled":false,"rental_uris":{"android":"levelo://app?vid=fe84177e-dc24-423c-bc2b-77abf3163fe9","ios":"levelo://app?vid=fe84177e-dc24-423c-bc2b-77abf3163fe9"},"vehicle_type_id":"4","last_reported":1751469090,"current_range_meters":19200,"station_id":"","pricing_plan_id":"cebpf4jnsgd1na2vs0mg"},{"bike_id":"b2325bea-9a74-459a-a713-509c2ba84f3e","system_id":"levelo_inurba_marseille","lat":43.283206,"lon":5.413065,"is_reserved":false,"is_disabled":false,"rental_uris":{"android":"levelo://app?vid=b2325bea-9a74-459a-a713-509c2ba84f3e","ios":"levelo://app?vid=b2325bea-9a74-459a-a713-509c2ba84f3e"},"vehicle_type_id":"4","last_reported":1751469090,"current_range_meters":19200,"station_id":"","pricing_plan_id":"cebpf4jnsgd1na2vs0mg"},{"bike_id":"6c36efce-05da-4334-951f-f8bbdd10c352","system_id":"levelo_inurba_marseille","lat":43.317003,"lon":5.377937,"is_reserved":false,"is_disabled":false,"rental_uris":{"android":"levelo://app?vid=6c36efce-05da-4334-951f-f8bbdd10c352","ios":"levelo://app?vid=6c36efce-05da-4334-951f-f8bbdd10c352"},"vehicle_type_id":"4","last_reported":1751469090,"current_range_meters":19200,"station_id":"ce4bgth2rcd13ifvqch0","pricing_plan_id":"cebpf4jnsgd1na2vs0mg"},{"bike_id":"4ccb7c41-df2e-4b0f-86db-7460cbe51b38","system_id":"levelo_inurba_marseille","lat":43.29191,"lon":5.39321,"is_reserved":false,"is_disabled":false,"rental_uris":{"android":"levelo://app?vid=4ccb7c41-df2e-4b0f-86db-7460cbe51b38","ios":"levelo://app?vid=4ccb7c41-df2e-4b0f-86db-7460cbe51b38"},"vehicle_type_id":"4","last_reported":1751469090,"current_range_meters":19200,"station_id":"ce4bh192rcd13ifvqdd0","pricing_plan_id":"cebpf4jnsgd1na2vs0mg"},{"bike_id":"d4028457-01bb-4fd4-9caa-acfaafae2f38","system_id":"levelo_inurba_marseille","lat":43.27373,"lon":5.3626,"is_reserved":false,"is_disabled":false,"rental_uris":{"android":"levelo://app?vid=d4028457-01bb-4fd4-9caa-acfaafae2f38","ios":"levelo://app?vid=d4028457-01bb-4fd4-9caa-acfaafae2f38"},"vehicle_type_id":"4","last_reported":1751469090,"current_range_meters":19200,"station_id":"ce4bhbh2rcd13ifvqeo0","pricing_plan_id":"cebpf4jnsgd1na2vs0mg"},{"bike_id":"9c4f9a2d-b455-431d-a8b6-b8f482f5e447","system_id":"levelo_inurba_marseille","lat":43.25494,"lon":5.3765,"is_reserved":false,"is_disabled":false,"rental_uris":{"android":"levelo://app?vid=9c4f9a2d-b455-431d-a8b6-b8f482f5e447","ios":"levelo://app?vid=9c4f9a2d-b455-431d-a8b6-b8f482f5e447"},"vehicle_type_id":"4","last_reported":1751469090,"current_range_meters":19200,"station_id":"ce4bhh12rcd13ifvqff0","pricing_plan_id":"cebpf4jnsgd1na2vs0mg"},{"bike_id":"a6539298-7bde-4716-8759-96efeb512ffd","system_id":"levelo_inurba_marseille","lat":43.24075,"lon":5.37761,"is_reserved":false,"is_disabled":false,"rental_uris":{"android":"levelo://app?vid=a6539298-7bde-4716-8759-96efeb512ffd","ios":"levelo://app?vid=a6539298-7bde-4716-8759-96efeb512ffd"},"vehicle_type_id":"4","last_reported":1751469090,"current_range_meters":19200,"station_id":"ce4bhnp2rcd13ifvqgvg","pricing_plan_id":"cebpf4jnsgd1na2vs0mg"},{"bike_id":"3be62267-12fe-43bf-bd19-64ff695cb725","system_id":"levelo_inurba_marseille","lat":43.305593,"lon":5.365288,"is_reserved":false,"is_disabled":false,"rental_uris":{"android":"levelo://app?vid=3be62267-12fe-43bf-bd19-64ff695cb725","ios":"levelo://app?vid=3be62267-12fe-43bf-bd19-64ff695cb725"},"vehicle_type_id":"4","last_reported":1751469090,"current_range_meters":19600,"station_id":"ce4bgs12rcd13ifvqcag","pricing_plan_id":"cebpf4jnsgd1na2vs0mg"},{"bike_id":"88da0a8a-c235-4518-8971-4d82c75fdca3","system_id":"levelo_inurba_marseille","lat":43.28428,"lon":5.34995,"is_reserved":false,"is_disabled":false,"rental_uris":{"android":"levelo://app?vid=88da0a8a-c235-4518-8971-4d82c75fdca3","ios":"levelo://app?vid=88da0a8a-c235-4518-8971-4d82c75fdca3"},"vehicle_type_id":"4","last_reported":1751469090,"current_range_meters":19600,"station_id":"ce4bhbh2rcd13ifvqepg","pricing_plan_id":"cebpf4jnsgd1na2vs0mg"},{"bike_id":"5eff832e-c78a-448d-99c0-d4ac89c64acc","system_id":"levelo_inurba_marseille","lat":43.28618,"lon":5.35097,"is_reserved":false,"is_disabled":false,"rental_uris":{"android":"levelo://app?vid=5eff832e-c78a-448d-99c0-d4ac89c64acc","ios":"levelo://app?vid=5eff832e-c78a-448d-99c0-d4ac89c64acc"},"vehicle_type_id":"4","last_reported":1751469090,"current_range_meters":19600,"station_id":"ce4bhch2rcd13ifvqeug","pricing_plan_id":"cebpf4jnsgd1na2vs0mg"},{"bike_id":"54880ca8-cfdb-49fa-95f5-de23f9a7213b","system_id":"levelo_inurba_marseille","lat":43.28616,"lon":5.35113,"is_reserved":false,"is_disabled":false,"rental_uris":{"android":"levelo://app?vid=54880ca8-cfdb-49fa-95f5-de23f9a7213b","ios":"levelo://app?vid=54880ca8-cfdb-49fa-95f5-de23f9a7213b"},"vehicle_type_id":"4","last_reported":1751469090,"current_range_meters":19600,"station_id":"ce4bhch2rcd13ifvqeug","pricing_plan_id":"cebpf4jnsgd1na2vs0mg"},{"bike_id":"2d079ff8-2bbe-47e4-953b-729358bca087","system_id":"levelo_inurba_marseille","lat":43.265626,"lon":5.372876,"is_reserved":false,"is_disabled":false,"rental_uris":{"android":"levelo://app?vid=2d079ff8-2bbe-47e4-953b-729358bca087","ios":"levelo://app?vid=2d079ff8-2bbe-47e4-953b-729358bca087"},"vehicle_type_id":"4","last_reported":1751469090,"current_range_meters":19600,"station_id":"ce4bhg12rcd13ifvqf70","pricing_plan_id":"cebpf4jnsgd1na2vs0mg"},{"bike_id":"d7eb42dd-1291-458b-978f-486fe89680a6","system_id":"levelo_inurba_marseille","lat":43.24823,"lon":5.37461,"is_reserved":false,"is_disabled":false,"rental_uris":{"android":"levelo://app?vid=d7eb42dd-1291-458b-978f-486fe89680a6","ios":"levelo://app?vid=d7eb42dd-1291-458b-978f-486fe89680a6"},"vehicle_type_id":"4","last_reported":1751469090,"current_range_meters":19600,"station_id":"ce4bhgh2rcd13ifvqfb0","pricing_plan_id":"cebpf4jnsgd1na2vs0mg"},{"bike_id":"ad1ab90d-fa29-458e-a2b0-d5d1c3193f47","system_id":"levelo_inurba_marseille","lat":43.25106,"lon":5.40337,"is_reserved":false,"is_disabled":false,"rental_uris":{"android":"levelo://app?vid=ad1ab90d-fa29-458e-a2b0-d5d1c3193f47","ios":"levelo://app?vid=ad1ab90d-fa29-458e-a2b0-d5d1c3193f47"},"vehicle_type_id":"4","last_reported":1751469090,"current_range_meters":19600,"station_id":"ce4bhlh2rcd13ifvqgig","pricing_plan_id":"cebpf4jnsgd1na2vs0mg"},{"bike_id":"48a8b866-9a64-4b58-8b3a-d988de0d4af0","system_id":"levelo_inurba_marseille","lat":43.24171,"lon":5.36405,"is_reserved":false,"is_disabled":false,"rental_uris":{"android":"levelo://app?vid=48a8b866-9a64-4b58-8b3a-d988de0d4af0","ios":"levelo://app?vid=48a8b866-9a64-4b58-8b3a-d988de0d4af0"},"vehicle_type_id":"4","last_reported":1751469090,"current_range_meters":19600,"station_id":"cpo36qri1sfpv3e86is0","pricing_plan_id":"cebpf4jnsgd1na2vs0mg"},{"bike_id":"37b84a38-055a-4a6e-a56a-8ff3d0c1b2ec","system_id":"levelo_inurba_marseille","lat":43.21177,"lon":5.35115,"is_reserved":false,"is_disabled":false,"rental_uris":{"android":"levelo://app?vid=37b84a38-055a-4a6e-a56a-8ff3d0c1b2ec","ios":"levelo://app?vid=37b84a38-055a-4a6e-a56a-8ff3d0c1b2ec"},"vehicle_type_id":"4","last_reported":1751469090,"current_range_meters":19600,"station_id":"st_cvj6sg6p6f1abm77japg","pricing_plan_id":"cebpf4jnsgd1na2vs0mg"},{"bike_id":"2d7ab8c9-ccb6-4168-91f8-ffbbd54cc09d","system_id":"levelo_inurba_marseille","lat":43.29752,"lon":5.36962,"is_reserved":false,"is_disabled":false,"rental_uris":{"android":"levelo://app?vid=2d7ab8c9-ccb6-4168-91f8-ffbbd54cc09d","ios":"levelo://app?vid=2d7ab8c9-ccb6-4168-91f8-ffbbd54cc09d"},"vehicle_type_id":"4","last_reported":1751469090,"current_range_meters":20000,"station_id":"","pricing_plan_id":"cebpf4jnsgd1na2vs0mg"},{"bike_id":"db714f02-8001-440b-a547-d12772041185","system_id":"levelo_inurba_marseille","lat":43.2923,"lon":5.36041,"is_reserved":false,"is_disabled":false,"rental_uris":{"android":"levelo://app?vid=db714f02-8001-440b-a547-d12772041185","ios":"levelo://app?vid=db714f02-8001-440b-a547-d12772041185"},"vehicle_type_id":"4","last_reported":1751469090,"current_range_meters":20000,"station_id":"ce4bhbh2rcd13ifvqeqg","pricing_plan_id":"cebpf4jnsgd1na2vs0mg"},{"bike_id":"5d2191cc-05f9-4a7a-86c5-c2d018719788","system_id":"levelo_inurba_marseille","lat":43.28255,"lon":5.35069,"is_reserved":false,"is_disabled":false,"rental_uris":{"android":"levelo://app?vid=5d2191cc-05f9-4a7a-86c5-c2d018719788","ios":"levelo://app?vid=5d2191cc-05f9-4a7a-86c5-c2d018719788"},"vehicle_type_id":"4","last_reported":1751469090,"current_range_meters":20000,"station_id":"ce4bhbp2rcd13ifvqerg","pricing_plan_id":"cebpf4jnsgd1na2vs0mg"},{"bike_id":"fc6eb623-784c-4e6c-ab54-f71e4e494174","system_id":"levelo_inurba_marseille","lat":43.27059,"lon":5.40252,"is_reserved":false,"is_disabled":false,"rental_uris":{"android":"levelo://app?vid=fc6eb623-784c-4e6c-ab54-f71e4e494174","ios":"levelo://app?vid=fc6eb623-784c-4e6c-ab54-f71e4e494174"},"vehicle_type_id":"4","last_reported":1751469090,"current_range_meters":20000,"station_id":"ce4bhk92rcd13ifvqgc0","pricing_plan_id":"cebpf4jnsgd1na2vs0mg"},{"bike_id":"21e2c51d-4563-4efd-afbf-0ddeff93c862","system_id":"levelo_inurba_marseille","lat":43.21756,"lon":5.34595,"is_reserved":false,"is_disabled":false,"rental_uris":{"android":"levelo://app?vid=21e2c51d-4563-4efd-afbf-0ddeff93c862","ios":"levelo://app?vid=21e2c51d-4563-4efd-afbf-0ddeff93c862"},"vehicle_type_id":"4","last_reported":1751469090,"current_range_meters":20000,"station_id":"st_cvj6r9ubvosntc0bgbag","pricing_plan_id":"cebpf4jnsgd1na2vs0mg"},{"bike_id":"318ffe45-b84f-4bae-a8f9-91b03ecf10cc","system_id":"levelo_inurba_marseille","lat":43.28491,"lon":5.38411,"is_reserved":false,"is_disabled":false,"rental_uris":{"android":"levelo://app?vid=318ffe45-b84f-4bae-a8f9-91b03ecf10cc","ios":"levelo://app?vid=318ffe45-b84f-4bae-a8f9-91b03ecf10cc"},"vehicle_type_id":"4","last_reported":1751469090,"current_range_meters":20400,"station_id":"ce4bh512rcd13ifvqe3g","pricing_plan_id":"cebpf4jnsgd1na2vs0mg"},{"bike_id":"92ce571e-8bb4-4eab-9f9e-809fb7433bc6","system_id":"levelo_inurba_marseille","lat":43.27351,"lon":5.36246,"is_reserved":false,"is_disabled":false,"rental_uris":{"android":"levelo://app?vid=92ce571e-8bb4-4eab-9f9e-809fb7433bc6","ios":"levelo://app?vid=92ce571e-8bb4-4eab-9f9e-809fb7433bc6"},"vehicle_type_id":"4","last_reported":1751469090,"current_range_meters":20400,"station_id":"ce4bhbh2rcd13ifvqeo0","pricing_plan_id":"cebpf4jnsgd1na2vs0mg"},{"bike_id":"a6715104-7492-4ec6-a996-23050baf8551","system_id":"levelo_inurba_marseille","lat":43.225,"lon":5.34777,"is_reserved":false,"is_disabled":false,"rental_uris":{"android":"levelo://app?vid=a6715104-7492-4ec6-a996-23050baf8551","ios":"levelo://app?vid=a6715104-7492-4ec6-a996-23050baf8551"},"vehicle_type_id":"4","last_reported":1751469090,"current_range_meters":20400,"station_id":"st_cvj5dfep6f1abm77gieg","pricing_plan_id":"cebpf4jnsgd1na2vs0mg"},{"bike_id":"7e21e8f2-09c8-4cc5-8113-278ebd23888d","system_id":"levelo_inurba_marseille","lat":43.21213,"lon":5.35073,"is_reserved":false,"is_disabled":false,"rental_uris":{"android":"levelo://app?vid=7e21e8f2-09c8-4cc5-8113-278ebd23888d","ios":"levelo://app?vid=7e21e8f2-09c8-4cc5-8113-278ebd23888d"},"vehicle_type_id":"4","last_reported":1751469090,"current_range_meters":20400,"station_id":"st_cvj6sg6p6f1abm77japg","pricing_plan_id":"cebpf4jnsgd1na2vs0mg"},{"bike_id":"4d4995e7-0bba-4ac2-a238-afd84a5e99b5","system_id":"levelo_inurba_marseille","lat":43.304848,"lon":5.398345,"is_reserved":false,"is_disabled":false,"rental_uris":{"android":"levelo://app?vid=4d4995e7-0bba-4ac2-a238-afd84a5e99b5","ios":"levelo://app?vid=4d4995e7-0bba-4ac2-a238-afd84a5e99b5"},"vehicle_type_id":"4","last_reported":1751469090,"current_range_meters":20800,"station_id":"","pricing_plan_id":"cebpf4jnsgd1na2vs0mg"},{"bike_id":"50bb0fdb-2cc1-4d8d-af26-b7febba54985","system_id":"levelo_inurba_marseille","lat":43.274139,"lon":5.39007,"is_reserved":false,"is_disabled":false,"rental_uris":{"android":"levelo://app?vid=50bb0fdb-2cc1-4d8d-af26-b7febba54985","ios":"levelo://app?vid=50bb0fdb-2cc1-4d8d-af26-b7febba54985"},"vehicle_type_id":"4","last_reported":1751469090,"current_range_meters":20800,"station_id":"","pricing_plan_id":"cebpf4jnsgd1na2vs0mg"},{"bike_id":"cb691c85-582b-4b8e-ad8b-b202efaec54d","system_id":"levelo_inurba_marseille","lat":43.27399,"lon":5.36248,"is_reserved":false,"is_disabled":false,"rental_uris":{"android":"levelo://app?vid=cb691c85-582b-4b8e-ad8b-b202efaec54d","ios":"levelo://app?vid=cb691c85-582b-4b8e-ad8b-b202efaec54d"},"vehicle_type_id":"4","last_reported":1751469090,"current_range_meters":20800,"station_id":"ce4bhbh2rcd13ifvqeo0","pricing_plan_id":"cebpf4jnsgd1na2vs0mg"},{"bike_id":"20ecf73c-c5fa-4b1b-b6cb-6a9fd5881c78","system_id":"levelo_inurba_marseille","lat":43.31757,"lon":5.39021,"is_reserved":false,"is_disabled":false,"rental_uris":{"android":"levelo://app?vid=20ecf73c-c5fa-4b1b-b6cb-6a9fd5881c78","ios":"levelo://app?vid=20ecf73c-c5fa-4b1b-b6cb-6a9fd5881c78"},"vehicle_type_id":"4","last_reported":1751469090,"current_range_meters":20800,"station_id":"ce4bhqp2rcd13ifvqhng","pricing_plan_id":"cebpf4jnsgd1na2vs0mg"},{"bike_id":"5c265fbb-bea1-482c-8f3a-6b444b0ff071","system_id":"levelo_inurba_marseille","lat":43.28882,"lon":5.35386,"is_reserved":false,"is_disabled":false,"rental_uris":{"android":"levelo://app?vid=5c265fbb-bea1-482c-8f3a-6b444b0ff071","ios":"levelo://app?vid=5c265fbb-bea1-482c-8f3a-6b444b0ff071"},"vehicle_type_id":"4","last_reported":1751469090,"current_range_meters":21600,"station_id":"","pricing_plan_id":"cebpf4jnsgd1na2vs0mg"},{"bike_id":"47d30eaa-7064-4301-b4fd-2f92dd279bdf","system_id":"levelo_inurba_marseille","lat":43.30549,"lon":5.36544,"is_reserved":false,"is_disabled":false,"rental_uris":{"android":"levelo://app?vid=47d30eaa-7064-4301-b4fd-2f92dd279bdf","ios":"levelo://app?vid=47d30eaa-7064-4301-b4fd-2f92dd279bdf"},"vehicle_type_id":"4","last_reported":1751469090,"current_range_meters":21600,"station_id":"ce4bgs12rcd13ifvqcag","pricing_plan_id":"cebpf4jnsgd1na2vs0mg"},{"bike_id":"f1d60942-f1e1-4d98-9fd4-53066a986a39","system_id":"levelo_inurba_marseille","lat":43.292166,"lon":5.36054,"is_reserved":false,"is_disabled":false,"rental_uris":{"android":"levelo://app?vid=f1d60942-f1e1-4d98-9fd4-53066a986a39","ios":"levelo://app?vid=f1d60942-f1e1-4d98-9fd4-53066a986a39"},"vehicle_type_id":"4","last_reported":1751469090,"current_range_meters":21600,"station_id":"ce4bhch2rcd13ifvqeug","pricing_plan_id":"cebpf4jnsgd1na2vs0mg"},{"bike_id":"2941a56a-c90e-41da-ac14-bf855a022f39","system_id":"levelo_inurba_marseille","lat":43.32378,"lon":5.38882,"is_reserved":false,"is_disabled":false,"rental_uris":{"android":"levelo://app?vid=2941a56a-c90e-41da-ac14-bf855a022f39","ios":"levelo://app?vid=2941a56a-c90e-41da-ac14-bf855a022f39"},"vehicle_type_id":"4","last_reported":1751469090,"current_range_meters":21600,"station_id":"ce4bhqp2rcd13ifvqhog","pricing_plan_id":"cebpf4jnsgd1na2vs0mg"},{"bike_id":"bed3e8a6-b151-4512-8ecd-b49dd3969a2c","system_id":"levelo_inurba_marseille","lat":43.32098,"lon":5.36798,"is_reserved":false,"is_disabled":false,"rental_uris":{"android":"levelo://app?vid=bed3e8a6-b151-4512-8ecd-b49dd3969a2c","ios":"levelo://app?vid=bed3e8a6-b151-4512-8ecd-b49dd3969a2c"},"vehicle_type_id":"4","last_reported":1751469090,"current_range_meters":21600,"station_id":"ce4bhrh2rcd13ifvqhug","pricing_plan_id":"cebpf4jnsgd1na2vs0mg"},{"bike_id":"1ccbeb41-8373-4765-a948-748c8c6fb34c","system_id":"levelo_inurba_marseille","lat":43.27374,"lon":5.3626,"is_reserved":false,"is_disabled":false,"rental_uris":{"android":"levelo://app?vid=1ccbeb41-8373-4765-a948-748c8c6fb34c","ios":"levelo://app?vid=1ccbeb41-8373-4765-a948-748c8c6fb34c"},"vehicle_type_id":"4","last_reported":1751469090,"current_range_meters":22000,"station_id":"ce4bhbh2rcd13ifvqeo0","pricing_plan_id":"cebpf4jnsgd1na2vs0mg"},{"bike_id":"6c88a3ff-fd54-4775-8067-952ccde54254","system_id":"levelo_inurba_marseille","lat":43.28614,"lon":5.35106,"is_reserved":false,"is_disabled":false,"rental_uris":{"android":"levelo://app?vid=6c88a3ff-fd54-4775-8067-952ccde54254","ios":"levelo://app?vid=6c88a3ff-fd54-4775-8067-952ccde54254"},"vehicle_type_id":"4","last_reported":1751469090,"current_range_meters":22000,"station_id":"ce4bhch2rcd13ifvqeug","pricing_plan_id":"cebpf4jnsgd1na2vs0mg"},{"bike_id":"cfbe7b85-d870-4c4d-a6a4-60527e07ee0f","system_id":"levelo_inurba_marseille","lat":43.28712,"lon":5.39988,"is_reserved":false,"is_disabled":false,"rental_uris":{"android":"levelo://app?vid=cfbe7b85-d870-4c4d-a6a4-60527e07ee0f","ios":"levelo://app?vid=cfbe7b85-d870-4c4d-a6a4-60527e07ee0f"},"vehicle_type_id":"4","last_reported":1751469090,"current_range_meters":22000,"station_id":"ce4bho92rcd13ifvqh3g","pricing_plan_id":"cebpf4jnsgd1na2vs0mg"},{"bike_id":"cc04118e-9312-4bf8-9106-d64e829afbaa","system_id":"levelo_inurba_marseille","lat":43.21211,"lon":5.35069,"is_reserved":false,"is_disabled":false,"rental_uris":{"android":"levelo://app?vid=cc04118e-9312-4bf8-9106-d64e829afbaa","ios":"levelo://app?vid=cc04118e-9312-4bf8-9106-d64e829afbaa"},"vehicle_type_id":"4","last_reported":1751469090,"current_range_meters":22000,"station_id":"st_cvj6sg6p6f1abm77japg","pricing_plan_id":"cebpf4jnsgd1na2vs0mg"},{"bike_id":"b2ce53ca-166b-417e-9d70-9bee393f75bb","system_id":"levelo_inurba_marseille","lat":43.21192,"lon":5.35071,"is_reserved":false,"is_disabled":false,"rental_uris":{"android":"levelo://app?vid=b2ce53ca-166b-417e-9d70-9bee393f75bb","ios":"levelo://app?vid=b2ce53ca-166b-417e-9d70-9bee393f75bb"},"vehicle_type_id":"4","last_reported":1751469090,"current_range_meters":22000,"station_id":"st_cvj6sg6p6f1abm77japg","pricing_plan_id":"cebpf4jnsgd1na2vs0mg"},{"bike_id":"1c8ab180-05fd-405f-9922-b2b2c2d5142f","system_id":"levelo_inurba_marseille","lat":43.3379,"lon":5.38111,"is_reserved":false,"is_disabled":false,"rental_uris":{"android":"levelo://app?vid=1c8ab180-05fd-405f-9922-b2b2c2d5142f","ios":"levelo://app?vid=1c8ab180-05fd-405f-9922-b2b2c2d5142f"},"vehicle_type_id":"4","last_reported":1751469090,"current_range_meters":22400,"station_id":"","pricing_plan_id":"cebpf4jnsgd1na2vs0mg"},{"bike_id":"cfb1e4e1-cc54-4e04-8c43-6baa6d715819","system_id":"levelo_inurba_marseille","lat":43.29023,"lon":5.39968,"is_reserved":false,"is_disabled":false,"rental_uris":{"android":"levelo://app?vid=cfb1e4e1-cc54-4e04-8c43-6baa6d715819","ios":"levelo://app?vid=cfb1e4e1-cc54-4e04-8c43-6baa6d715819"},"vehicle_type_id":"4","last_reported":1751469090,"current_range_meters":22400,"station_id":"ce4bh392rcd13ifvqdm0","pricing_plan_id":"cebpf4jnsgd1na2vs0mg"},{"bike_id":"108088bb-04f2-421c-9327-4810c717e789","system_id":"levelo_inurba_marseille","lat":43.29522,"lon":5.39036,"is_reserved":false,"is_disabled":false,"rental_uris":{"android":"levelo://app?vid=108088bb-04f2-421c-9327-4810c717e789","ios":"levelo://app?vid=108088bb-04f2-421c-9327-4810c717e789"},"vehicle_type_id":"4","last_reported":1751469090,"current_range_meters":22400,"station_id":"ce4bh3p2rcd13ifvqdp0","pricing_plan_id":"cebpf4jnsgd1na2vs0mg"},{"bike_id":"7b80d615-d0b6-47bf-a798-b9825b16d29c","system_id":"levelo_inurba_marseille","lat":43.28276,"lon":5.3507,"is_reserved":false,"is_disabled":false,"rental_uris":{"android":"levelo://app?vid=7b80d615-d0b6-47bf-a798-b9825b16d29c","ios":"levelo://app?vid=7b80d615-d0b6-47bf-a798-b9825b16d29c"},"vehicle_type_id":"4","last_reported":1751469090,"current_range_meters":22400,"station_id":"ce4bhbp2rcd13ifvqerg","pricing_plan_id":"cebpf4jnsgd1na2vs0mg"},{"bike_id":"427c2304-4c4a-4fa1-8437-453f57a2cb55","system_id":"levelo_inurba_marseille","lat":43.31066,"lon":5.38358,"is_reserved":false,"is_disabled":false,"rental_uris":{"android":"levelo://app?vid=427c2304-4c4a-4fa1-8437-453f57a2cb55","ios":"levelo://app?vid=427c2304-4c4a-4fa1-8437-453f57a2cb55"},"vehicle_type_id":"4","last_reported":1751469090,"current_range_meters":22800,"station_id":"ce4bgv92rcd13ifvqcr0","pricing_plan_id":"cebpf4jnsgd1na2vs0mg"},{"bike_id":"34b20eac-7d5d-4be6-a625-9da3dba56cec","system_id":"levelo_inurba_marseille","lat":43.28267,"lon":5.35071,"is_reserved":false,"is_disabled":false,"rental_uris":{"android":"levelo://app?vid=34b20eac-7d5d-4be6-a625-9da3dba56cec","ios":"levelo://app?vid=34b20eac-7d5d-4be6-a625-9da3dba56cec"},"vehicle_type_id":"4","last_reported":1751469090,"current_range_meters":22800,"station_id":"ce4bhbp2rcd13ifvqerg","pricing_plan_id":"cebpf4jnsgd1na2vs0mg"},{"bike_id":"cd55af04-72a8-48eb-ba84-98f7153f9eb1","system_id":"levelo_inurba_marseille","lat":43.28624,"lon":5.35107,"is_reserved":false,"is_disabled":false,"rental_uris":{"android":"levelo://app?vid=cd55af04-72a8-48eb-ba84-98f7153f9eb1","ios":"levelo://app?vid=cd55af04-72a8-48eb-ba84-98f7153f9eb1"},"vehicle_type_id":"4","last_reported":1751469090,"current_range_meters":22800,"station_id":"ce4bhch2rcd13ifvqeug","pricing_plan_id":"cebpf4jnsgd1na2vs0mg"},{"bike_id":"a5768a0c-5e62-45e5-b260-8dce67d47c27","system_id":"levelo_inurba_marseille","lat":43.23965,"lon":5.36628,"is_reserved":false,"is_disabled":false,"rental_uris":{"android":"levelo://app?vid=a5768a0c-5e62-45e5-b260-8dce67d47c27","ios":"levelo://app?vid=a5768a0c-5e62-45e5-b260-8dce67d47c27"},"vehicle_type_id":"4","last_reported":1751469090,"current_range_meters":22800,"station_id":"ce4bhi12rcd13ifvqfp0","pricing_plan_id":"cebpf4jnsgd1na2vs0mg"},{"bike_id":"f48aa80b-6f7c-40ea-bb74-6c76155a4599","system_id":"levelo_inurba_marseille","lat":43.29813,"lon":5.38094,"is_reserved":false,"is_disabled":false,"rental_uris":{"android":"levelo://app?vid=f48aa80b-6f7c-40ea-bb74-6c76155a4599","ios":"levelo://app?vid=f48aa80b-6f7c-40ea-bb74-6c76155a4599"},"vehicle_type_id":"4","last_reported":1751469090,"current_range_meters":23200,"station_id":"ce4bgip2rcd13ifvqbb0","pricing_plan_id":"cebpf4jnsgd1na2vs0mg"},{"bike_id":"d17d67eb-88f9-43fe-a819-d0f6d69a96ba","system_id":"levelo_inurba_marseille","lat":43.305393,"lon":5.366995,"is_reserved":false,"is_disabled":false,"rental_uris":{"android":"levelo://app?vid=d17d67eb-88f9-43fe-a819-d0f6d69a96ba","ios":"levelo://app?vid=d17d67eb-88f9-43fe-a819-d0f6d69a96ba"},"vehicle_type_id":"4","last_reported":1751469090,"current_range_meters":23200,"station_id":"ce4bgrp2rcd13ifvqc9g","pricing_plan_id":"cebpf4jnsgd1na2vs0mg"},{"bike_id":"0dbbfd7c-5e93-4301-aea8-6d89ce7ed33b","system_id":"levelo_inurba_marseille","lat":43.21778,"lon":5.34598,"is_reserved":false,"is_disabled":false,"rental_uris":{"android":"levelo://app?vid=0dbbfd7c-5e93-4301-aea8-6d89ce7ed33b","ios":"levelo://app?vid=0dbbfd7c-5e93-4301-aea8-6d89ce7ed33b"},"vehicle_type_id":"4","last_reported":1751469090,"current_range_meters":23200,"station_id":"st_cvj6r9ubvosntc0bgbag","pricing_plan_id":"cebpf4jnsgd1na2vs0mg"},{"bike_id":"5f1e5526-9ff8-4075-8194-48a897f058b4","system_id":"levelo_inurba_marseille","lat":43.21198,"lon":5.35075,"is_reserved":false,"is_disabled":false,"rental_uris":{"android":"levelo://app?vid=5f1e5526-9ff8-4075-8194-48a897f058b4","ios":"levelo://app?vid=5f1e5526-9ff8-4075-8194-48a897f058b4"},"vehicle_type_id":"4","last_reported":1751469090,"current_range_meters":23200,"station_id":"st_cvj6sg6p6f1abm77japg","pricing_plan_id":"cebpf4jnsgd1na2vs0mg"},{"bike_id":"49733973-9271-462e-8771-040468e60f20","system_id":"levelo_inurba_marseille","lat":43.25799,"lon":5.39966,"is_reserved":false,"is_disabled":false,"rental_uris":{"android":"levelo://app?vid=49733973-9271-462e-8771-040468e60f20","ios":"levelo://app?vid=49733973-9271-462e-8771-040468e60f20"},"vehicle_type_id":"4","last_reported":1751469090,"current_range_meters":24000,"station_id":"","pricing_plan_id":"cebpf4jnsgd1na2vs0mg"},{"bike_id":"54cd1b6b-04fe-4091-a69c-3172b9f2af6d","system_id":"levelo_inurba_marseille","lat":43.31329,"lon":5.3969,"is_reserved":false,"is_disabled":false,"rental_uris":{"android":"levelo://app?vid=54cd1b6b-04fe-4091-a69c-3172b9f2af6d","ios":"levelo://app?vid=54cd1b6b-04fe-4091-a69c-3172b9f2af6d"},"vehicle_type_id":"4","last_reported":1751469090,"current_range_meters":24000,"station_id":"ce4bgvp2rcd13ifvqcu0","pricing_plan_id":"cebpf4jnsgd1na2vs0mg"},{"bike_id":"24caad0a-9d30-45b8-a9c5-448a8a7337ba","system_id":"levelo_inurba_marseille","lat":43.29193,"lon":5.35806,"is_reserved":false,"is_disabled":false,"rental_uris":{"android":"levelo://app?vid=24caad0a-9d30-45b8-a9c5-448a8a7337ba","ios":"levelo://app?vid=24caad0a-9d30-45b8-a9c5-448a8a7337ba"},"vehicle_type_id":"4","last_reported":1751469090,"current_range_meters":24000,"station_id":"ce4bhb12rcd13ifvqel0","pricing_plan_id":"cebpf4jnsgd1na2vs0mg"},{"bike_id":"bf0491e9-a69f-493e-8da1-46af98e17e7e","system_id":"levelo_inurba_marseille","lat":43.2656,"lon":5.37293,"is_reserved":false,"is_disabled":false,"rental_uris":{"android":"levelo://app?vid=bf0491e9-a69f-493e-8da1-46af98e17e7e","ios":"levelo://app?vid=bf0491e9-a69f-493e-8da1-46af98e17e7e"},"vehicle_type_id":"4","last_reported":1751469090,"current_range_meters":24000,"station_id":"ce4bhg12rcd13ifvqf70","pricing_plan_id":"cebpf4jnsgd1na2vs0mg"},{"bike_id":"20091f48-2484-4648-830a-6c5a0d1eb3bd","system_id":"levelo_inurba_marseille","lat":43.26951,"lon":5.38906,"is_reserved":false,"is_disabled":false,"rental_uris":{"android":"levelo://app?vid=20091f48-2484-4648-830a-6c5a0d1eb3bd","ios":"levelo://app?vid=20091f48-2484-4648-830a-6c5a0d1eb3bd"},"vehicle_type_id":"4","last_reported":1751469090,"current_range_meters":24000,"station_id":"ce4bhhh2rcd13ifvqfl0","pricing_plan_id":"cebpf4jnsgd1na2vs0mg"},{"bike_id":"32c0fc37-6823-41d0-9497-8d1eea24742c","system_id":"levelo_inurba_marseille","lat":43.24182,"lon":5.3639,"is_reserved":false,"is_disabled":false,"rental_uris":{"android":"levelo://app?vid=32c0fc37-6823-41d0-9497-8d1eea24742c","ios":"levelo://app?vid=32c0fc37-6823-41d0-9497-8d1eea24742c"},"vehicle_type_id":"4","last_reported":1751469090,"current_range_meters":24000,"station_id":"cpo36qri1sfpv3e86is0","pricing_plan_id":"cebpf4jnsgd1na2vs0mg"},{"bike_id":"3eabe1e2-f9f5-41cb-a4ed-73ca7f909c5c","system_id":"levelo_inurba_marseille","lat":43.21186,"lon":5.35089,"is_reserved":false,"is_disabled":false,"rental_uris":{"android":"levelo://app?vid=3eabe1e2-f9f5-41cb-a4ed-73ca7f909c5c","ios":"levelo://app?vid=3eabe1e2-f9f5-41cb-a4ed-73ca7f909c5c"},"vehicle_type_id":"4","last_reported":1751469090,"current_range_meters":24000,"station_id":"st_cvj6sg6p6f1abm77japg","pricing_plan_id":"cebpf4jnsgd1na2vs0mg"},{"bike_id":"ba926bfc-9632-4680-b0ed-32a040d6fb83","system_id":"levelo_inurba_marseille","lat":43.21171,"lon":5.35075,"is_reserved":false,"is_disabled":false,"rental_uris":{"android":"levelo://app?vid=ba926bfc-9632-4680-b0ed-32a040d6fb83","ios":"levelo://app?vid=ba926bfc-9632-4680-b0ed-32a040d6fb83"},"vehicle_type_id":"4","last_reported":1751469090,"current_range_meters":24000,"station_id":"st_cvj6sg6p6f1abm77japg","pricing_plan_id":"cebpf4jnsgd1na2vs0mg"},{"bike_id":"b13877a6-4825-4d82-b46b-67fa8ad66c5d","system_id":"levelo_inurba_marseille","lat":43.212,"lon":5.35077,"is_reserved":false,"is_disabled":false,"rental_uris":{"android":"levelo://app?vid=b13877a6-4825-4d82-b46b-67fa8ad66c5d","ios":"levelo://app?vid=b13877a6-4825-4d82-b46b-67fa8ad66c5d"},"vehicle_type_id":"4","last_reported":1751469090,"current_range_meters":24000,"station_id":"st_cvj6sg6p6f1abm77japg","pricing_plan_id":"cebpf4jnsgd1na2vs0mg"},{"bike_id":"7712491c-e18b-4b09-bb79-30880b357c07","system_id":"levelo_inurba_marseille","lat":43.21229,"lon":5.35074,"is_reserved":false,"is_disabled":false,"rental_uris":{"android":"levelo://app?vid=7712491c-e18b-4b09-bb79-30880b357c07","ios":"levelo://app?vid=7712491c-e18b-4b09-bb79-30880b357c07"},"vehicle_type_id":"4","last_reported":1751469090,"current_range_meters":24000,"station_id":"st_cvj6sg6p6f1abm77japg","pricing_plan_id":"cebpf4jnsgd1na2vs0mg"},{"bike_id":"ae8a5bb2-1ca4-4c10-8af2-ff3096d7ebc6","system_id":"levelo_inurba_marseille","lat":43.31993,"lon":5.38099,"is_reserved":false,"is_disabled":false,"rental_uris":{"android":"levelo://app?vid=ae8a5bb2-1ca4-4c10-8af2-ff3096d7ebc6","ios":"levelo://app?vid=ae8a5bb2-1ca4-4c10-8af2-ff3096d7ebc6"},"vehicle_type_id":"4","last_reported":1751469090,"current_range_meters":24400,"station_id":"","pricing_plan_id":"cebpf4jnsgd1na2vs0mg"},{"bike_id":"3cfc4b66-dfd7-41ef-bd32-1da6ccbbce09","system_id":"levelo_inurba_marseille","lat":43.29675,"lon":5.37309,"is_reserved":false,"is_disabled":false,"rental_uris":{"android":"levelo://app?vid=3cfc4b66-dfd7-41ef-bd32-1da6ccbbce09","ios":"levelo://app?vid=3cfc4b66-dfd7-41ef-bd32-1da6ccbbce09"},"vehicle_type_id":"4","last_reported":1751469090,"current_range_meters":24400,"station_id":"ce4bgk12rcd13ifvqbj0","pricing_plan_id":"cebpf4jnsgd1na2vs0mg"},{"bike_id":"5c646a29-10e3-4b9b-ae32-c776055b51f7","system_id":"levelo_inurba_marseille","lat":43.31719,"lon":5.37746,"is_reserved":false,"is_disabled":false,"rental_uris":{"android":"levelo://app?vid=5c646a29-10e3-4b9b-ae32-c776055b51f7","ios":"levelo://app?vid=5c646a29-10e3-4b9b-ae32-c776055b51f7"},"vehicle_type_id":"4","last_reported":1751469090,"current_range_meters":24400,"station_id":"ce4bgth2rcd13ifvqch0","pricing_plan_id":"cebpf4jnsgd1na2vs0mg"},{"bike_id":"eca46507-0839-4cd3-878c-9b208de910bc","system_id":"levelo_inurba_marseille","lat":43.28265,"lon":5.35063,"is_reserved":false,"is_disabled":false,"rental_uris":{"android":"levelo://app?vid=eca46507-0839-4cd3-878c-9b208de910bc","ios":"levelo://app?vid=eca46507-0839-4cd3-878c-9b208de910bc"},"vehicle_type_id":"4","last_reported":1751469090,"current_range_meters":24400,"station_id":"ce4bhbp2rcd13ifvqerg","pricing_plan_id":"cebpf4jnsgd1na2vs0mg"},{"bike_id":"42046c1d-d595-445e-af71-7bf3b6bef545","system_id":"levelo_inurba_marseille","lat":43.282684,"lon":5.350644,"is_reserved":false,"is_disabled":false,"rental_uris":{"android":"levelo://app?vid=42046c1d-d595-445e-af71-7bf3b6bef545","ios":"levelo://app?vid=42046c1d-d595-445e-af71-7bf3b6bef545"},"vehicle_type_id":"4","last_reported":1751469090,"current_range_meters":24400,"station_id":"ce4bhbp2rcd13ifvqerg","pricing_plan_id":"cebpf4jnsgd1na2vs0mg"},{"bike_id":"648bbb6d-2154-46cd-97c2-aff236591999","system_id":"levelo_inurba_marseille","lat":43.23977,"lon":5.36627,"is_reserved":false,"is_disabled":false,"rental_uris":{"android":"levelo://app?vid=648bbb6d-2154-46cd-97c2-aff236591999","ios":"levelo://app?vid=648bbb6d-2154-46cd-97c2-aff236591999"},"vehicle_type_id":"4","last_reported":1751469090,"current_range_meters":24400,"station_id":"ce4bhi12rcd13ifvqfp0","pricing_plan_id":"cebpf4jnsgd1na2vs0mg"},{"bike_id":"09c68e7a-2a35-4fb2-a583-02e5aa84bcb6","system_id":"levelo_inurba_marseille","lat":43.232,"lon":5.35523,"is_reserved":false,"is_disabled":false,"rental_uris":{"android":"levelo://app?vid=09c68e7a-2a35-4fb2-a583-02e5aa84bcb6","ios":"levelo://app?vid=09c68e7a-2a35-4fb2-a583-02e5aa84bcb6"},"vehicle_type_id":"4","last_reported":1751469090,"current_range_meters":24400,"station_id":"ce4bhu92rcd13ifvqi70","pricing_plan_id":"cebpf4jnsgd1na2vs0mg"},{"bike_id":"7af9f78b-8216-43ee-a369-4a24baea425e","system_id":"levelo_inurba_marseille","lat":43.31373,"lon":5.36688,"is_reserved":false,"is_disabled":false,"rental_uris":{"android":"levelo://app?vid=7af9f78b-8216-43ee-a369-4a24baea425e","ios":"levelo://app?vid=7af9f78b-8216-43ee-a369-4a24baea425e"},"vehicle_type_id":"4","last_reported":1751469090,"current_range_meters":24800,"station_id":"ce4bgr92rcd13ifvqc6g","pricing_plan_id":"cebpf4jnsgd1na2vs0mg"},{"bike_id":"ebed0598-a9a9-4790-808e-aa6d770dff34","system_id":"levelo_inurba_marseille","lat":43.30087,"lon":5.39081,"is_reserved":false,"is_disabled":false,"rental_uris":{"android":"levelo://app?vid=ebed0598-a9a9-4790-808e-aa6d770dff34","ios":"levelo://app?vid=ebed0598-a9a9-4790-808e-aa6d770dff34"},"vehicle_type_id":"4","last_reported":1751469090,"current_range_meters":24800,"station_id":"ce4bh192rcd13ifvqdb0","pricing_plan_id":"cebpf4jnsgd1na2vs0mg"},{"bike_id":"e683ec45-5da1-4bc1-a3e3-0b15f880f7ee","system_id":"levelo_inurba_marseille","lat":43.27355,"lon":5.36236,"is_reserved":false,"is_disabled":false,"rental_uris":{"android":"levelo://app?vid=e683ec45-5da1-4bc1-a3e3-0b15f880f7ee","ios":"levelo://app?vid=e683ec45-5da1-4bc1-a3e3-0b15f880f7ee"},"vehicle_type_id":"4","last_reported":1751469090,"current_range_meters":24800,"station_id":"ce4bhbh2rcd13ifvqeo0","pricing_plan_id":"cebpf4jnsgd1na2vs0mg"},{"bike_id":"e943da54-3501-401d-992b-b15d62930450","system_id":"levelo_inurba_marseille","lat":43.27346,"lon":5.36252,"is_reserved":false,"is_disabled":false,"rental_uris":{"android":"levelo://app?vid=e943da54-3501-401d-992b-b15d62930450","ios":"levelo://app?vid=e943da54-3501-401d-992b-b15d62930450"},"vehicle_type_id":"4","last_reported":1751469090,"current_range_meters":24800,"station_id":"ce4bhbh2rcd13ifvqeo0","pricing_plan_id":"cebpf4jnsgd1na2vs0mg"},{"bike_id":"9a99bb6d-63c4-49ed-b89b-7e34262bbc5d","system_id":"levelo_inurba_marseille","lat":43.265564,"lon":5.372906,"is_reserved":false,"is_disabled":false,"rental_uris":{"android":"levelo://app?vid=9a99bb6d-63c4-49ed-b89b-7e34262bbc5d","ios":"levelo://app?vid=9a99bb6d-63c4-49ed-b89b-7e34262bbc5d"},"vehicle_type_id":"4","last_reported":1751469090,"current_range_meters":24800,"station_id":"ce4bhg12rcd13ifvqf70","pricing_plan_id":"cebpf4jnsgd1na2vs0mg"},{"bike_id":"ef8edc6a-668f-40ce-bfe2-32299c552bb3","system_id":"levelo_inurba_marseille","lat":43.24778,"lon":5.39708,"is_reserved":false,"is_disabled":false,"rental_uris":{"android":"levelo://app?vid=ef8edc6a-668f-40ce-bfe2-32299c552bb3","ios":"levelo://app?vid=ef8edc6a-668f-40ce-bfe2-32299c552bb3"},"vehicle_type_id":"4","last_reported":1751469090,"current_range_meters":24800,"station_id":"ce4bhn12rcd13ifvqgqg","pricing_plan_id":"cebpf4jnsgd1na2vs0mg"},{"bike_id":"8ece516a-3674-44f0-8959-5241ef89a635","system_id":"levelo_inurba_marseille","lat":43.32119,"lon":5.3678,"is_reserved":false,"is_disabled":false,"rental_uris":{"android":"levelo://app?vid=8ece516a-3674-44f0-8959-5241ef89a635","ios":"levelo://app?vid=8ece516a-3674-44f0-8959-5241ef89a635"},"vehicle_type_id":"4","last_reported":1751469090,"current_range_meters":24800,"station_id":"ce4bhrh2rcd13ifvqhug","pricing_plan_id":"cebpf4jnsgd1na2vs0mg"},{"bike_id":"559ed6ee-7ed1-41b8-a7b9-94151f20221c","system_id":"levelo_inurba_marseille","lat":43.32098,"lon":5.36774,"is_reserved":false,"is_disabled":false,"rental_uris":{"android":"levelo://app?vid=559ed6ee-7ed1-41b8-a7b9-94151f20221c","ios":"levelo://app?vid=559ed6ee-7ed1-41b8-a7b9-94151f20221c"},"vehicle_type_id":"4","last_reported":1751469090,"current_range_meters":24800,"station_id":"ce4bhrh2rcd13ifvqhug","pricing_plan_id":"cebpf4jnsgd1na2vs0mg"},{"bike_id":"b3d7a6ac-4ad8-404e-91ae-53d96dbbd9fb","system_id":"levelo_inurba_marseille","lat":43.21193,"lon":5.35089,"is_reserved":false,"is_disabled":false,"rental_uris":{"android":"levelo://app?vid=b3d7a6ac-4ad8-404e-91ae-53d96dbbd9fb","ios":"levelo://app?vid=b3d7a6ac-4ad8-404e-91ae-53d96dbbd9fb"},"vehicle_type_id":"4","last_reported":1751469090,"current_range_meters":24800,"station_id":"st_cvj6sg6p6f1abm77japg","pricing_plan_id":"cebpf4jnsgd1na2vs0mg"},{"bike_id":"c9cd1ed4-febf-4f0f-8537-8f86861c9beb","system_id":"levelo_inurba_marseille","lat":43.21177,"lon":5.3508,"is_reserved":false,"is_disabled":false,"rental_uris":{"android":"levelo://app?vid=c9cd1ed4-febf-4f0f-8537-8f86861c9beb","ios":"levelo://app?vid=c9cd1ed4-febf-4f0f-8537-8f86861c9beb"},"vehicle_type_id":"4","last_reported":1751469090,"current_range_meters":24800,"station_id":"st_cvj6sg6p6f1abm77japg","pricing_plan_id":"cebpf4jnsgd1na2vs0mg"},{"bike_id":"4b8da722-ee9e-48a4-a5e5-3a8a10364708","system_id":"levelo_inurba_marseille","lat":43.31219,"lon":5.37823,"is_reserved":false,"is_disabled":false,"rental_uris":{"android":"levelo://app?vid=4b8da722-ee9e-48a4-a5e5-3a8a10364708","ios":"levelo://app?vid=4b8da722-ee9e-48a4-a5e5-3a8a10364708"},"vehicle_type_id":"4","last_reported":1751469090,"current_range_meters":25200,"station_id":"","pricing_plan_id":"cebpf4jnsgd1na2vs0mg"},{"bike_id":"faa9c7b6-6e88-43a2-a603-6af64794ec51","system_id":"levelo_inurba_marseille","lat":43.29005,"lon":5.35622,"is_reserved":false,"is_disabled":false,"rental_uris":{"android":"levelo://app?vid=faa9c7b6-6e88-43a2-a603-6af64794ec51","ios":"levelo://app?vid=faa9c7b6-6e88-43a2-a603-6af64794ec51"},"vehicle_type_id":"4","last_reported":1751469090,"current_range_meters":25200,"station_id":"ce4bhb92rcd13ifvqen0","pricing_plan_id":"cebpf4jnsgd1na2vs0mg"},{"bike_id":"9c5f6f2b-b4fe-4abd-90e1-346377586e8a","system_id":"levelo_inurba_marseille","lat":43.23964,"lon":5.36614,"is_reserved":false,"is_disabled":false,"rental_uris":{"android":"levelo://app?vid=9c5f6f2b-b4fe-4abd-90e1-346377586e8a","ios":"levelo://app?vid=9c5f6f2b-b4fe-4abd-90e1-346377586e8a"},"vehicle_type_id":"4","last_reported":1751469090,"current_range_meters":25200,"station_id":"ce4bhi12rcd13ifvqfp0","pricing_plan_id":"cebpf4jnsgd1na2vs0mg"},{"bike_id":"26a60e0d-057b-4a56-b2e6-8804fdda2145","system_id":"levelo_inurba_marseille","lat":43.25577,"lon":5.38228,"is_reserved":false,"is_disabled":false,"rental_uris":{"android":"levelo://app?vid=26a60e0d-057b-4a56-b2e6-8804fdda2145","ios":"levelo://app?vid=26a60e0d-057b-4a56-b2e6-8804fdda2145"},"vehicle_type_id":"4","last_reported":1751469090,"current_range_meters":25200,"station_id":"ce4bhih2rcd13ifvqfs0","pricing_plan_id":"cebpf4jnsgd1na2vs0mg"},{"bike_id":"7240ec2e-578a-4730-99ce-9f906d19e054","system_id":"levelo_inurba_marseille","lat":43.330195,"lon":5.39045,"is_reserved":false,"is_disabled":false,"rental_uris":{"android":"levelo://app?vid=7240ec2e-578a-4730-99ce-9f906d19e054","ios":"levelo://app?vid=7240ec2e-578a-4730-99ce-9f906d19e054"},"vehicle_type_id":"4","last_reported":1751469090,"current_range_meters":25200,"station_id":"ce4bhr92rcd13ifvqhrg","pricing_plan_id":"cebpf4jnsgd1na2vs0mg"},{"bike_id":"abd1416b-81f1-4449-a615-560af9c0d4f4","system_id":"levelo_inurba_marseille","lat":43.32343,"lon":5.36724,"is_reserved":false,"is_disabled":false,"rental_uris":{"android":"levelo://app?vid=abd1416b-81f1-4449-a615-560af9c0d4f4","ios":"levelo://app?vid=abd1416b-81f1-4449-a615-560af9c0d4f4"},"vehicle_type_id":"4","last_reported":1751469090,"current_range_meters":25200,"station_id":"ce4bhsh2rcd13ifvqi2g","pricing_plan_id":"cebpf4jnsgd1na2vs0mg"},{"bike_id":"a4944a00-ba12-4a2a-83b2-c3a1c4d4526f","system_id":"levelo_inurba_marseille","lat":43.3155,"lon":5.38009,"is_reserved":false,"is_disabled":false,"rental_uris":{"android":"levelo://app?vid=a4944a00-ba12-4a2a-83b2-c3a1c4d4526f","ios":"levelo://app?vid=a4944a00-ba12-4a2a-83b2-c3a1c4d4526f"},"vehicle_type_id":"4","last_reported":1751469090,"current_range_meters":25200,"station_id":"ce4bhsp2rcd13ifvqi50","pricing_plan_id":"cebpf4jnsgd1na2vs0mg"},