{"last_updated":1740913631,"ttl":60,"version":"2.2","data":{"bikes":[{"bike_id":"498c2ace-4821-4676-a9ac-9368b02a49b6","system_id":"levelo_inurba_marseille","lat":43.33799,"lon":5.37386,"is_reserved":false,"is_disabled":false,"rental_uris":{"android":"levelo://app?vid=498c2ace-4821-4676-a9ac-9368b02a49b6","ios":"levelo://app?vid=498c2ace-4821-4676-a9ac-9368b02a49b6"},"vehicle_type_id":"4","last_reported":1740913631,"current_range_meters":26000,"station_id":"","pricing_plan_id":"cebpf4jnsgd1na2vs0mg"},{"bike_id":"819fc6fd-4768-4c11-82f9-0b5fd0b62d4a","system_id":"levelo_inurba_marseille","lat":43.34249,"lon":5.378,"is_reserved":false,"is_disabled":true,"rental_uris":{"android":"levelo://app?vid=819fc6fd-4768-4c11-82f9-0b5fd0b62d4a","ios":"levelo://app?vid=819fc6fd-4768-4c11-82f9-0b5fd0b62d4a"},"vehicle_type_id":"4","last_reported":1740913631,"current_range_meters":0,"station_id":"","pricing_plan_id":"cebpf4jnsgd1na2vs0mg"},{"bike_id":"d5458f89-73a3-43f1-9894-000389f52995","system_id":"levelo_inurba_marseille","lat":43.27617,"lon":5.41458,"is_reserved":false,"is_disabled":true,"rental_uris":{"android":"levelo://app?vid=d5458f89-73a3-43f1-9894-000389f52995","ios":"levelo://app?vid=d5458f89-73a3-43f1-9894-000389f52995"},"vehicle_type_id":"4","last_reported":1740913631,"current_range_meters":0,"station_id":"","pricing_plan_id":"cebpf4jnsgd1na2vs0mg"},{"bike_id":"afcec8eb-28d8-4889-8879-0897cb5957e3","system_id":"levelo_inurba_marseille","lat":43.28004,"lon":5.40581,"is_reserved":false,"is_disabled":true,"rental_uris":{"android":"levelo://app?vid=afcec8eb-28d8-4889-8879-0897cb5957e3","ios":"levelo://app?vid=afcec8eb-28d8-4889-8879-0897cb5957e3"},"vehicle_type_id":"4","last_reported":1740913631,"current_range_meters":0,"station_id":"","pricing_plan_id":"cebpf4jnsgd1na2vs0mg"},{"bike_id":"47e485bb-d47e-4975-a26c-7baef9ad1e05","system_id":"levelo_inurba_marseille","lat":43.28428,"lon":5.3753,"is_reserved":false,"is_disabled":true,"rental_uris":{"android":"levelo://app?vid=47e485bb-d47e-4975-a26c-7baef9ad1e05","ios":"levelo://app?vid=47e485bb-d47e-4975-a26c-7baef9ad1e05"},"vehicle_type_id":"4","last_reported":1740913631,"current_range_meters":0,"station_id":"ce4bh412rcd13ifvqds0","pricing_plan_id":"cebpf4jnsgd1na2vs0mg"},{"bike_id":"b08f9597-32c2-48e1-80e5-7cf6f7359024","system_id":"levelo_inurba_marseille","lat":43.2826,"lon":5.35082,"is_reserved":false,"is_disabled":true,"rental_uris":{"android":"levelo://app?vid=b08f9597-32c2-48e1-80e5-7cf6f7359024","ios":"levelo://app?vid=b08f9597-32c2-48e1-80e5-7cf6f7359024"},"vehicle_type_id":"4","last_reported":1740913631,"current_range_meters":0,"station_id":"ce4bhbp2rcd13ifvqerg","pricing_plan_id":"cebpf4jnsgd1na2vs0mg"},{"bike_id":"b37f0871-1763-4517-b6e5-b8fd26189a37","system_id":"levelo_inurba_marseille","lat":43.27919,"lon":5.39574,"is_reserved":false,"is_disabled":true,"rental_uris":{"android":"levelo://app?vid=b37f0871-1763-4517-b6e5-b8fd26189a37","ios":"levelo://app?vid=b37f0871-1763-4517-b6e5-b8fd26189a37"},"vehicle_type_id":"4","last_reported":1740913631,"current_range_meters":0,"station_id":"ce4bhf92rcd13ifvqf40","pricing_plan_id":"cebpf4jnsgd1na2vs0mg"},{"bike_id":"5ae5ecea-e6ae-4a2a-b69d-9399191f798c","system_id":"levelo_inurba_marseille","lat":43.2481,"lon":5.37458,"is_reserved":false,"is_disabled":true,"rental_uris":{"android":"levelo://app?vid=5ae5ecea-e6ae-4a2a-b69d-9399191f798c","ios":"levelo://app?vid=5ae5ecea-e6ae-4a2a-b69d-9399191f798c"},"vehicle_type_id":"4","last_reported":1740913631,"current_range_meters":0,"station_id":"ce4bhgh2rcd13ifvqfb0","pricing_plan_id":"cebpf4jnsgd1na2vs0mg"},{"bike_id":"88fab14f-5fb9-40fc-b994-02f93336a096","system_id":"levelo_inurba_marseille","lat":43.24398,"lon":5.37051,"is_reserved":false,"is_disabled":true,"rental_uris":{"android":"levelo://app?vid=88fab14f-5fb9-40fc-b994-02f93336a096","ios":"levelo://app?vid=88fab14f-5fb9-40fc-b994-02f93336a096"},"vehicle_type_id":"4","last_reported":1740913631,"current_range_meters":0,"station_id":"ce4bhhh2rcd13ifvqfk0","pricing_plan_id":"cebpf4jnsgd1na2vs0mg"},{"bike_id":"05296e1b-bfa2-4c12-9dfe-664349e5ba85","system_id":"levelo_inurba_marseille","lat":43.25591,"lon":5.38236,"is_reserved":false,"is_disabled":true,"rental_uris":{"android":"levelo://app?vid=05296e1b-bfa2-4c12-9dfe-664349e5ba85","ios":"levelo://app?vid=05296e1b-bfa2-4c12-9dfe-664349e5ba85"},"vehicle_type_id":"4","last_reported":1740913631,"current_range_meters":0,"station_id":"ce4bhih2rcd13ifvqfs0","pricing_plan_id":"cebpf4jnsgd1na2vs0mg"},{"bike_id":"5112e714-0c24-49d9-a0de-ed322544bad2","system_id":"levelo_inurba_marseille","lat":43.32367,"lon":5.36752,"is_reserved":false,"is_disabled":true,"rental_uris":{"android":"levelo://app?vid=5112e714-0c24-49d9-a0de-ed322544bad2","ios":"levelo://app?vid=5112e714-0c24-49d9-a0de-ed322544bad2"},"vehicle_type_id":"4","last_reported":1740913631,"current_range_meters":0,"station_id":"ce4bhsh2rcd13ifvqi2g","pricing_plan_id":"cebpf4jnsgd1na2vs0mg"},{"bike_id":"303c2b96-5131-48b9-8dd0-e5a82865f4bc","system_id":"levelo_inurba_marseille","lat":43.35361,"lon":5.36498,"is_reserved":false,"is_disabled":true,"rental_uris":{"android":"levelo://app?vid=303c2b96-5131-48b9-8dd0-e5a82865f4bc","ios":"levelo://app?vid=303c2b96-5131-48b9-8dd0-e5a82865f4bc"},"vehicle_type_id":"4","last_reported":1740913631,"current_range_meters":400,"station_id":"","pricing_plan_id":"cebpf4jnsgd1na2vs0mg"},{"bike_id":"70d8c7b3-610a-419e-b50d-afe9250d43ba","system_id":"levelo_inurba_marseille","lat":43.295586,"lon":5.422777,"is_reserved":false,"is_disabled":true,"rental_uris":{"android":"levelo://app?vid=70d8c7b3-610a-419e-b50d-afe9250d43ba","ios":"levelo://app?vid=70d8c7b3-610a-419e-b50d-afe9250d43ba"},"vehicle_type_id":"4","last_reported":1740913631,"current_range_meters":400,"station_id":"ce4bhph2rcd13ifvqhdg","pricing_plan_id":"cebpf4jnsgd1na2vs0mg"},{"bike_id":"a143e44e-792f-45ec-84cf-1cc9f71bb81b","system_id":"levelo_inurba_marseille","lat":43.28076,"lon":5.39661,"is_reserved":false,"is_disabled":true,"rental_uris":{"android":"levelo://app?vid=a143e44e-792f-45ec-84cf-1cc9f71bb81b","ios":"levelo://app?vid=a143e44e-792f-45ec-84cf-1cc9f71bb81b"},"vehicle_type_id":"4","last_reported":1740913631,"current_range_meters":800,"station_id":"ce4bho12rcd13ifvqh2g","pricing_plan_id":"cebpf4jnsgd1na2vs0mg"},{"bike_id":"b8306a89-a128-4bc5-8a3a-e35747a540a7","system_id":"levelo_inurba_marseille","lat":43.23198,"lon":5.35557,"is_reserved":false,"is_disabled":true,"rental_uris":{"android":"levelo://app?vid=b8306a89-a128-4bc5-8a3a-e35747a540a7","ios":"levelo://app?vid=b8306a89-a128-4bc5-8a3a-e35747a540a7"},"vehicle_type_id":"4","last_reported":1740913631,"current_range_meters":800,"station_id":"ce4bhu92rcd13ifvqi70","pricing_plan_id":"cebpf4jnsgd1na2vs0mg"},{"bike_id":"2e9adb81-fe1a-445b-95a2-0f4fc690d5e4","system_id":"levelo_inurba_marseille","lat":43.28422,"lon":5.34977,"is_reserved":false,"is_disabled":true,"rental_uris":{"android":"levelo://app?vid=2e9adb81-fe1a-445b-95a2-0f4fc690d5e4","ios":"levelo://app?vid=2e9adb81-fe1a-445b-95a2-0f4fc690d5e4"},"vehicle_type_id":"4","last_reported":1740913631,"current_range_meters":1200,"station_id":"ce4bhbh2rcd13ifvqepg","pricing_plan_id":"cebpf4jnsgd1na2vs0mg"},{"bike_id":"602b2426-7724-4e0c-ad90-824fdf3735b9","system_id":"levelo_inurba_marseille","lat":43.29301,"lon":5.37463,"is_reserved":false,"is_disabled":true,"rental_uris":{"android":"levelo://app?vid=602b2426-7724-4e0c-ad90-824fdf3735b9","ios":"levelo://app?vid=602b2426-7724-4e0c-ad90-824fdf3735b9"},"vehicle_type_id":"4","last_reported":1740913631,"current_range_meters":1600,"station_id":"ce4bgi12rcd13ifvqb70","pricing_plan_id":"cebpf4jnsgd1na2vs0mg"},{"bike_id":"4bad14dd-df30-4cc8-b202-82f66f5d9712","system_id":"levelo_inurba_marseille","lat":43.24664,"lon":5.38162,"is_reserved":false,"is_disabled":true,"rental_uris":{"android":"levelo://app?vid=4bad14dd-df30-4cc8-b202-82f66f5d9712","ios":"levelo://app?vid=4bad14dd-df30-4cc8-b202-82f66f5d9712"},"vehicle_type_id":"4","last_reported":1740913631,"current_range_meters":2000,"station_id":"ce4bhih2rcd13ifvqfr0","pricing_plan_id":"cebpf4jnsgd1na2vs0mg"},{"bike_id":"a65cb524-c756-42a0-9639-a6505770c05b","system_id":"levelo_inurba_marseille","lat":43.350641,"lon":5.366109,"is_reserved":false,"is_disabled":false,"rental_uris":{"android":"levelo://app?vid=a65cb524-c756-42a0-9639-a6505770c05b","ios":"levelo://app?vid=a65cb524-c756-42a0-9639-a6505770c05b"},"vehicle_type_id":"4","last_reported":1740913631,"current_range_meters":2800,"station_id":"","pricing_plan_id":"cebpf4jnsgd1na2vs0mg"},{"bike_id":"0d3dca6a-d590-4e72-a1ae-af700e6dffe8","system_id":"levelo_inurba_marseille","lat":43.30877,"lon":5.39656,"is_reserved":false,"is_disabled":false,"rental_uris":{"android":"levelo://app?vid=0d3dca6a-d590-4e72-a1ae-af700e6dffe8","ios":"levelo://app?vid=0d3dca6a-d590-4e72-a1ae-af700e6dffe8"},"vehicle_type_id":"4","last_reported":1740913631,"current_range_meters":3200,"station_id":"ce4bh012rcd13ifvqcv0","pricing_plan_id":"cebpf4jnsgd1na2vs0mg"},{"bike_id":"c070d87d-a0d9-4de8-919e-9de17091d4aa","system_id":"levelo_inurba_marseille","lat":43.28423,"lon":5.37527,"is_reserved":false,"is_disabled":false,"rental_uris":{"android":"levelo://app?vid=c070d87d-a0d9-4de8-919e-9de17091d4aa","ios":"levelo://app?vid=c070d87d-a0d9-4de8-919e-9de17091d4aa"},"vehicle_type_id":"4","last_reported":1740913631,"current_range_meters":4800,"station_id":"ce4bh412rcd13ifvqds0","pricing_plan_id":"cebpf4jnsgd1na2vs0mg"},{"bike_id":"364b209e-752e-45ea-b26c-06b2552c1833","system_id":"levelo_inurba_marseille","lat":43.2319,"lon":5.355658,"is_reserved":false,"is_disabled":false,"rental_uris":{"android":"levelo://app?vid=364b209e-752e-45ea-b26c-06b2552c1833","ios":"levelo://app?vid=364b209e-752e-45ea-b26c-06b2552c1833"},"vehicle_type_id":"4","last_reported":1740913631,"current_range_meters":6000,"station_id":"ce4bhu92rcd13ifvqi70","pricing_plan_id":"cebpf4jnsgd1na2vs0mg"},{"bike_id":"49e9cdc7-76a5-4b66-ae2d-61c73beb73a8","system_id":"levelo_inurba_marseille","lat":43.2417,"lon":5.36404,"is_reserved":false,"is_disabled":false,"rental_uris":{"android":"levelo://app?vid=49e9cdc7-76a5-4b66-ae2d-61c73beb73a8","ios":"levelo://app?vid=49e9cdc7-76a5-4b66-ae2d-61c73beb73a8"},"vehicle_type_id":"4","last_reported":1740913631,"current_range_meters":6000,"station_id":"cpo36qri1sfpv3e86is0","pricing_plan_id":"cebpf4jnsgd1na2vs0mg"},{"bike_id":"572d17e3-95aa-433f-abe0-38d340ef9dbe","system_id":"levelo_inurba_marseille","lat":43.26226,"lon":5.37441,"is_reserved":false,"is_disabled":false,"rental_uris":{"android":"levelo://app?vid=572d17e3-95aa-433f-abe0-38d340ef9dbe","ios":"levelo://app?vid=572d17e3-95aa-433f-abe0-38d340ef9dbe"},"vehicle_type_id":"4","last_reported":1740913631,"current_range_meters":6400,"station_id":"","pricing_plan_id":"cebpf4jnsgd1na2vs0mg"},{"bike_id":"10a09f4b-928d-42e1-87c7-1996117e3d26","system_id":"levelo_inurba_marseille","lat":43.31007,"lon":5.39062,"is_reserved":false,"is_disabled":false,"rental_uris":{"android":"levelo://app?vid=10a09f4b-928d-42e1-87c7-1996117e3d26","ios":"levelo://app?vid=10a09f4b-928d-42e1-87c7-1996117e3d26"},"vehicle_type_id":"4","last_reported":1740913631,"current_range_meters":6400,"station_id":"","pricing_plan_id":"cebpf4jnsgd1na2vs0mg"},{"bike_id":"07bc5dc0-4746-45b6-b13d-3a29a4407252","system_id":"levelo_inurba_marseille","lat":43.31105,"lon":5.37781,"is_reserved":false,"is_disabled":false,"rental_uris":{"android":"levelo://app?vid=07bc5dc0-4746-45b6-b13d-3a29a4407252","ios":"levelo://app?vid=07bc5dc0-4746-45b6-b13d-3a29a4407252"},"vehicle_type_id":"4","last_reported":1740913631,"current_range_meters":6400,"station_id":"ce4bgt92rcd13ifvqcg0","pricing_plan_id":"cebpf4jnsgd1na2vs0mg"},{"bike_id":"3d5464b1-d5eb-452d-9a6e-e08603b66a0e","system_id":"levelo_inurba_marseille","lat":43.31681,"lon":5.40467,"is_reserved":false,"is_disabled":false,"rental_uris":{"android":"levelo://app?vid=3d5464b1-d5eb-452d-9a6e-e08603b66a0e","ios":"levelo://app?vid=3d5464b1-d5eb-452d-9a6e-e08603b66a0e"},"vehicle_type_id":"4","last_reported":1740913631,"current_range_meters":6400,"station_id":"ce4bh012rcd13ifvqd00","pricing_plan_id":"cebpf4jnsgd1na2vs0mg"},{"bike_id":"0e488ddb-1ce5-41bd-860e-32b5d059e253","system_id":"levelo_inurba_marseille","lat":43.29096,"lon":5.38134,"is_reserved":false,"is_disabled":false,"rental_uris":{"android":"levelo://app?vid=0e488ddb-1ce5-41bd-860e-32b5d059e253","ios":"levelo://app?vid=0e488ddb-1ce5-41bd-860e-32b5d059e253"},"vehicle_type_id":"4","last_reported":1740913631,"current_range_meters":6400,"station_id":"ce4bh512rcd13ifvqe2g","pricing_plan_id":"cebpf4jnsgd1na2vs0mg"},{"bike_id":"735ace5a-a1fc-4908-9ffe-2e7c9f28a048","system_id":"levelo_inurba_marseille","lat":43.3036,"lon":5.41882,"is_reserved":false,"is_disabled":false,"rental_uris":{"android":"levelo://app?vid=735ace5a-a1fc-4908-9ffe-2e7c9f28a048","ios":"levelo://app?vid=735ace5a-a1fc-4908-9ffe-2e7c9f28a048"},"vehicle_type_id":"4","last_reported":1740913631,"current_range_meters":6400,"station_id":"ce4bhop2rcd13ifvqh7g","pricing_plan_id":"cebpf4jnsgd1na2vs0mg"},{"bike_id":"22a33393-cc66-4763-bc31-5d111482490d","system_id":"levelo_inurba_marseille","lat":43.312265,"lon":5.384878,"is_reserved":false,"is_disabled":false,"rental_uris":{"android":"levelo://app?vid=22a33393-cc66-4763-bc31-5d111482490d","ios":"levelo://app?vid=22a33393-cc66-4763-bc31-5d111482490d"},"vehicle_type_id":"4","last_reported":1740913631,"current_range_meters":6400,"station_id":"ce4bhqh2rcd13ifvqhmg","pricing_plan_id":"cebpf4jnsgd1na2vs0mg"},{"bike_id":"593edb3c-7add-4a3d-9dbe-95cef549de0d","system_id":"levelo_inurba_marseille","lat":43.23074,"lon":5.35506,"is_reserved":false,"is_disabled":false,"rental_uris":{"android":"levelo://app?vid=593edb3c-7add-4a3d-9dbe-95cef549de0d","ios":"levelo://app?vid=593edb3c-7add-4a3d-9dbe-95cef549de0d"},"vehicle_type_id":"4","last_reported":1740913631,"current_range_meters":6400,"station_id":"cpo3342slgdg3j2ifvpg","pricing_plan_id":"cebpf4jnsgd1na2vs0mg"},{"bike_id":"9b596371-d612-49f2-b81f-de4bef0d4e5a","system_id":"levelo_inurba_marseille","lat":43.24177,"lon":5.36401,"is_reserved":false,"is_disabled":false,"rental_uris":{"android":"levelo://app?vid=9b596371-d612-49f2-b81f-de4bef0d4e5a","ios":"levelo://app?vid=9b596371-d612-49f2-b81f-de4bef0d4e5a"},"vehicle_type_id":"4","last_reported":1740913631,"current_range_meters":6400,"station_id":"cpo36qri1sfpv3e86is0","pricing_plan_id":"cebpf4jnsgd1na2vs0mg"},{"bike_id":"37621404-a1f5-4dc5-aec2-68b59ae94f3c","system_id":"levelo_inurba_marseille","lat":43.23199,"lon":5.35552,"is_reserved":false,"is_disabled":false,"rental_uris":{"android":"levelo://app?vid=37621404-a1f5-4dc5-aec2-68b59ae94f3c","ios":"levelo://app?vid=37621404-a1f5-4dc5-aec2-68b59ae94f3c"},"vehicle_type_id":"4","last_reported":1740913631,"current_range_meters":6800,"station_id":"ce4bhu92rcd13ifvqi70","pricing_plan_id":"cebpf4jnsgd1na2vs0mg"},{"bike_id":"24b426ec-114a-4cca-b485-1331408dda43","system_id":"levelo_inurba_marseille","lat":43.24095,"lon":5.37754,"is_reserved":false,"is_disabled":false,"rental_uris":{"android":"levelo://app?vid=24b426ec-114a-4cca-b485-1331408dda43","ios":"levelo://app?vid=24b426ec-114a-4cca-b485-1331408dda43"},"vehicle_type_id":"4","last_reported":1740913631,"current_range_meters":7200,"station_id":"ce4bhnp2rcd13ifvqgvg","pricing_plan_id":"cebpf4jnsgd1na2vs0mg"},{"bike_id":"6cc25748-9ed2-43ab-8650-9dd638374c60","system_id":"levelo_inurba_marseille","lat":43.23204,"lon":5.35548,"is_reserved":false,"is_disabled":false,"rental_uris":{"android":"levelo://app?vid=6cc25748-9ed2-43ab-8650-9dd638374c60","ios":"levelo://app?vid=6cc25748-9ed2-43ab-8650-9dd638374c60"},"vehicle_type_id":"4","last_reported":1740913631,"current_range_meters":7200,"station_id":"ce4bhu92rcd13ifvqi70","pricing_plan_id":"cebpf4jnsgd1na2vs0mg"},{"bike_id":"53ebed9a-fd1a-4d94-96e3-0c8bc5887ace","system_id":"levelo_inurba_marseille","lat":43.314243,"lon":5.39397,"is_reserved":false,"is_disabled":false,"rental_uris":{"android":"levelo://app?vid=53ebed9a-fd1a-4d94-96e3-0c8bc5887ace","ios":"levelo://app?vid=53ebed9a-fd1a-4d94-96e3-0c8bc5887ace"},"vehicle_type_id":"4","last_reported":1740913631,"current_range_meters":8000,"station_id":"","pricing_plan_id":"cebpf4jnsgd1na2vs0mg"},{"bike_id":"b811c60a-6933-40a7-84ba-ba9cab9803d2","system_id":"levelo_inurba_marseille","lat":43.24993,"lon":5.38934,"is_reserved":false,"is_disabled":false,"rental_uris":{"android":"levelo://app?vid=b811c60a-6933-40a7-84ba-ba9cab9803d2","ios":"levelo://app?vid=b811c60a-6933-40a7-84ba-ba9cab9803d2"},"vehicle_type_id":"4","last_reported":1740913631,"current_range_meters":8000,"station_id":"ce4bhgp2rcd13ifvqfd0","pricing_plan_id":"cebpf4jnsgd1na2vs0mg"},{"bike_id":"fd4ceb47-7745-40bf-b9f8-cbc3ab65ca1f","system_id":"levelo_inurba_marseille","lat":43.23188,"lon":5.3999,"is_reserved":false,"is_disabled":false,"rental_uris":{"android":"levelo://app?vid=fd4ceb47-7745-40bf-b9f8-cbc3ab65ca1f","ios":"levelo://app?vid=fd4ceb47-7745-40bf-b9f8-cbc3ab65ca1f"},"vehicle_type_id":"4","last_reported":1740913631,"current_range_meters":8000,"station_id":"ce4bhn12rcd13ifvqgqg","pricing_plan_id":"cebpf4jnsgd1na2vs0mg"},{"bike_id":"63bd5179-e096-4fc2-9ddf-a04ead103bc0","system_id":"levelo_inurba_marseille","lat":43.28284,"lon":5.39048,"is_reserved":false,"is_disabled":false,"rental_uris":{"android":"levelo://app?vid=63bd5179-e096-4fc2-9ddf-a04ead103bc0","ios":"levelo://app?vid=63bd5179-e096-4fc2-9ddf-a04ead103bc0"},"vehicle_type_id":"4","last_reported":1740913631,"current_range_meters":8400,"station_id":"","pricing_plan_id":"cebpf4jnsgd1na2vs0mg"},{"bike_id":"b1e180ec-2bd6-41ef-9f1a-04537a7c1054","system_id":"levelo_inurba_marseille","lat":43.27297,"lon":5.39067,"is_reserved":false,"is_disabled":false,"rental_uris":{"android":"levelo://app?vid=b1e180ec-2bd6-41ef-9f1a-04537a7c1054","ios":"levelo://app?vid=b1e180ec-2bd6-41ef-9f1a-04537a7c1054"},"vehicle_type_id":"4","last_reported":1740913631,"current_range_meters":8400,"station_id":"ce4bhgp2rcd13ifvqfe0","pricing_plan_id":"cebpf4jnsgd1na2vs0mg"},{"bike_id":"020aca6e-1914-44f5-9764-f19cad7e9d7f","system_id":"levelo_inurba_marseille","lat":43.28732,"lon":5.36088,"is_reserved":false,"is_disabled":false,"rental_uris":{"android":"levelo://app?vid=020aca6e-1914-44f5-9764-f19cad7e9d7f","ios":"levelo://app?vid=020aca6e-1914-44f5-9764-f19cad7e9d7f"},"vehicle_type_id":"4","last_reported":1740913631,"current_range_meters":8400,"station_id":"cki0cbj6b192h4jlfktg","pricing_plan_id":"cebpf4jnsgd1na2vs0mg"},{"bike_id":"4a01e614-9a34-4e70-9e02-4e744008ae90","system_id":"levelo_inurba_marseille","lat":43.31388,"lon":5.39182,"is_reserved":false,"is_disabled":false,"rental_uris":{"android":"levelo://app?vid=4a01e614-9a34-4e70-9e02-4e744008ae90","ios":"levelo://app?vid=4a01e614-9a34-4e70-9e02-4e744008ae90"},"vehicle_type_id":"4","last_reported":1740913631,"current_range_meters":8800,"station_id":"","pricing_plan_id":"cebpf4jnsgd1na2vs0mg"},{"bike_id":"db9263b0-8221-4316-ba19-c886ae505162","system_id":"levelo_inurba_marseille","lat":43.30955,"lon":5.39037,"is_reserved":false,"is_disabled":false,"rental_uris":{"android":"levelo://app?vid=db9263b0-8221-4316-ba19-c886ae505162","ios":"levelo://app?vid=db9263b0-8221-4316-ba19-c886ae505162"},"vehicle_type_id":"4","last_reported":1740913631,"current_range_meters":8800,"station_id":"ce4bgup2rcd13ifvqco0","pricing_plan_id":"cebpf4jnsgd1na2vs0mg"},{"bike_id":"5a93161c-e5c0-48ca-8037-39920e07dd69","system_id":"levelo_inurba_marseille","lat":43.236138,"lon":5.436069,"is_reserved":false,"is_disabled":false,"rental_uris":{"android":"levelo://app?vid=5a93161c-e5c0-48ca-8037-39920e07dd69","ios":"levelo://app?vid=5a93161c-e5c0-48ca-8037-39920e07dd69"},"vehicle_type_id":"4","last_reported":1740913631,"current_range_meters":9200,"station_id":"ce4bhmp2rcd13ifvqgog","pricing_plan_id":"cebpf4jnsgd1na2vs0mg"},{"bike_id":"0693b9d6-4a9d-4e38-bfa2-80f934bcc2e3","system_id":"levelo_inurba_marseille","lat":43.24199,"lon":5.36501,"is_reserved":false,"is_disabled":false,"rental_uris":{"android":"levelo://app?vid=0693b9d6-4a9d-4e38-bfa2-80f934bcc2e3","ios":"levelo://app?vid=0693b9d6-4a9d-4e38-bfa2-80f934bcc2e3"},"vehicle_type_id":"4","last_reported":1740913631,"current_range_meters":9200,"station_id":"cpo36qri1sfpv3e86is0","pricing_plan_id":"cebpf4jnsgd1na2vs0mg"},{"bike_id":"0e4d5d36-7d5d-4fbf-9597-759cc9a1b223","system_id":"levelo_inurba_marseille","lat":43.30563,"lon":5.37246,"is_reserved":false,"is_disabled":false,"rental_uris":{"android":"levelo://app?vid=0e4d5d36-7d5d-4fbf-9597-759cc9a1b223","ios":"levelo://app?vid=0e4d5d36-7d5d-4fbf-9597-759cc9a1b223"},"vehicle_type_id":"4","last_reported":1740913631,"current_range_meters":9600,"station_id":"","pricing_plan_id":"cebpf4jnsgd1na2vs0mg"},{"bike_id":"e4ff9cfd-f538-4553-b32f-058354e4517d","system_id":"levelo_inurba_marseille","lat":43.316833,"lon":5.404671,"is_reserved":false,"is_disabled":false,"rental_uris":{"android":"levelo://app?vid=e4ff9cfd-f538-4553-b32f-058354e4517d","ios":"levelo://app?vid=e4ff9cfd-f538-4553-b32f-058354e4517d"},"vehicle_type_id":"4","last_reported":1740913631,"current_range_meters":9600,"station_id":"ce4bh092rcd13ifvqd30","pricing_plan_id":"cebpf4jnsgd1na2vs0mg"},{"bike_id":"94fa0b73-5864-4665-bdbb-eb6df01414c8","system_id":"levelo_inurba_marseille","lat":43.2466,"lon":5.38167,"is_reserved":false,"is_disabled":false,"rental_uris":{"android":"levelo://app?vid=94fa0b73-5864-4665-bdbb-eb6df01414c8","ios":"levelo://app?vid=94fa0b73-5864-4665-bdbb-eb6df01414c8"},"vehicle_type_id":"4","last_reported":1740913631,"current_range_meters":9600,"station_id":"ce4bhih2rcd13ifvqfr0","pricing_plan_id":"cebpf4jnsgd1na2vs0mg"},{"bike_id":"1697087c-3a15-4d2b-8fbc-57126afe45c3","system_id":"levelo_inurba_marseille","lat":43.23155,"lon":5.43705,"is_reserved":false,"is_disabled":false,"rental_uris":{"android":"levelo://app?vid=1697087c-3a15-4d2b-8fbc-57126afe45c3","ios":"levelo://app?vid=1697087c-3a15-4d2b-8fbc-57126afe45c3"},"vehicle_type_id":"4","last_reported":1740913631,"current_range_meters":9600,"station_id":"ce4bhmp2rcd13ifvqgog","pricing_plan_id":"cebpf4jnsgd1na2vs0mg"},{"bike_id":"cbeff9af-2821-498e-8353-cbbe4b72cc62","system_id":"levelo_inurba_marseille","lat":43.25023,"lon":5.38939,"is_reserved":false,"is_disabled":false,"rental_uris":{"android":"levelo://app?vid=cbeff9af-2821-498e-8353-cbbe4b72cc62","ios":"levelo://app?vid=cbeff9af-2821-498e-8353-cbbe4b72cc62"},"vehicle_type_id":"4","last_reported":1740913631,"current_range_meters":10000,"station_id":"ce4bhgp2rcd13ifvqfd0","pricing_plan_id":"cebpf4jnsgd1na2vs0mg"},{"bike_id":"f711a177-8c95-4e96-bcaf-e6e0dc33f59e","system_id":"levelo_inurba_marseille","lat":43.24386,"lon":5.37051,"is_reserved":false,"is_disabled":false,"rental_uris":{"android":"levelo://app?vid=f711a177-8c95-4e96-bcaf-e6e0dc33f59e","ios":"levelo://app?vid=f711a177-8c95-4e96-bcaf-e6e0dc33f59e"},"vehicle_type_id":"4","last_reported":1740913631,"current_range_meters":10000,"station_id":"ce4bhhh2rcd13ifvqfk0","pricing_plan_id":"cebpf4jnsgd1na2vs0mg"},{"bike_id":"b8729eab-79d9-460b-90d1-aaf7a92e0614","system_id":"levelo_inurba_marseille","lat":43.23961,"lon":5.36631,"is_reserved":false,"is_disabled":false,"rental_uris":{"android":"levelo://app?vid=b8729eab-79d9-460b-90d1-aaf7a92e0614","ios":"levelo://app?vid=b8729eab-79d9-460b-90d1-aaf7a92e0614"},"vehicle_type_id":"4","last_reported":1740913631,"current_range_meters":10000,"station_id":"ce4bhi12rcd13ifvqfp0","pricing_plan_id":"cebpf4jnsgd1na2vs0mg"},{"bike_id":"dca47370-0af2-4b83-9276-f3814af3b64b","system_id":"levelo_inurba_marseille","lat":43.24548,"lon":5.39529,"is_reserved":false,"is_disabled":false,"rental_uris":{"android":"levelo://app?vid=dca47370-0af2-4b83-9276-f3814af3b64b","ios":"levelo://app?vid=dca47370-0af2-4b83-9276-f3814af3b64b"},"vehicle_type_id":"4","last_reported":1740913631,"current_range_meters":10000,"station_id":"ce4bhlp2rcd13ifvqgjg","pricing_plan_id":"cebpf4jnsgd1na2vs0mg"},{"bike_id":"f4af2fc5-12b1-413f-b3e8-70775a52b007","system_id":"levelo_inurba_marseille","lat":43.24188,"lon":5.3972,"is_reserved":false,"is_disabled":false,"rental_uris":{"android":"levelo://app?vid=f4af2fc5-12b1-413f-b3e8-70775a52b007","ios":"levelo://app?vid=f4af2fc5-12b1-413f-b3e8-70775a52b007"},"vehicle_type_id":"4","last_reported":1740913631,"current_range_meters":10000,"station_id":"ce4bhn12rcd13ifvqgpg","pricing_plan_id":"cebpf4jnsgd1na2vs0mg"},{"bike_id":"6d56352d-b599-405b-812c-cff82b78bb6e","system_id":"levelo_inurba_marseille","lat":43.33772,"lon":5.37425,"is_reserved":false,"is_disabled":false,"rental_uris":{"android":"levelo://app?vid=6d56352d-b599-405b-812c-cff82b78bb6e","ios":"levelo://app?vid=6d56352d-b599-405b-812c-cff82b78bb6e"},"vehicle_type_id":"4","last_reported":1740913631,"current_range_meters":10800,"station_id":"","pricing_plan_id":"cebpf4jnsgd1na2vs0mg"},{"bike_id":"46f7df6c-6528-4fc0-a6ac-59bc9fc4be33","system_id":"levelo_inurba_marseille","lat":43.30148,"lon":5.38088,"is_reserved":false,"is_disabled":false,"rental_uris":{"android":"levelo://app?vid=46f7df6c-6528-4fc0-a6ac-59bc9fc4be33","ios":"levelo://app?vid=46f7df6c-6528-4fc0-a6ac-59bc9fc4be33"},"vehicle_type_id":"4","last_reported":1740913631,"current_range_meters":10800,"station_id":"ce4bgjp2rcd13ifvqbh0","pricing_plan_id":"cebpf4jnsgd1na2vs0mg"},{"bike_id":"c470ff11-c189-4da0-bbca-afa58fcf9a0c","system_id":"levelo_inurba_marseille","lat":43.2958,"lon":5.36736,"is_reserved":false,"is_disabled":false,"rental_uris":{"android":"levelo://app?vid=c470ff11-c189-4da0-bbca-afa58fcf9a0c","ios":"levelo://app?vid=c470ff11-c189-4da0-bbca-afa58fcf9a0c"},"vehicle_type_id":"4","last_reported":1740913631,"current_range_meters":10800,"station_id":"ce4bgph2rcd13ifvqc2g","pricing_plan_id":"cebpf4jnsgd1na2vs0mg"},{"bike_id":"d2c363b3-bacf-4359-85f2-7dc9f8b4aa4d","system_id":"levelo_inurba_marseille","lat":43.31664,"lon":5.40459,"is_reserved":false,"is_disabled":false,"rental_uris":{"android":"levelo://app?vid=d2c363b3-bacf-4359-85f2-7dc9f8b4aa4d","ios":"levelo://app?vid=d2c363b3-bacf-4359-85f2-7dc9f8b4aa4d"},"vehicle_type_id":"4","last_reported":1740913631,"current_range_meters":10800,"station_id":"ce4bh012rcd13ifvqd00","pricing_plan_id":"cebpf4jnsgd1na2vs0mg"},{"bike_id":"e2b1a97c-05f9-4994-8c76-5c4c26614832","system_id":"levelo_inurba_marseille","lat":43.26574,"lon":5.37259,"is_reserved":false,"is_disabled":false,"rental_uris":{"android":"levelo://app?vid=e2b1a97c-05f9-4994-8c76-5c4c26614832","ios":"levelo://app?vid=e2b1a97c-05f9-4994-8c76-5c4c26614832"},"vehicle_type_id":"4","last_reported":1740913631,"current_range_meters":10800,"station_id":"ce4bhg12rcd13ifvqf70","pricing_plan_id":"cebpf4jnsgd1na2vs0mg"},{"bike_id":"478c10ad-8744-45a3-9314-9a000a1d9b3c","system_id":"levelo_inurba_marseille","lat":43.25742,"lon":5.41098,"is_reserved":false,"is_disabled":false,"rental_uris":{"android":"levelo://app?vid=478c10ad-8744-45a3-9314-9a000a1d9b3c","ios":"levelo://app?vid=478c10ad-8744-45a3-9314-9a000a1d9b3c"},"vehicle_type_id":"4","last_reported":1740913631,"current_range_meters":10800,"station_id":"ce4bhkp2rcd13ifvqgd0","pricing_plan_id":"cebpf4jnsgd1na2vs0mg"},{"bike_id":"0c9fcd16-2979-4838-8bcd-c9ed4ba34af2","system_id":"levelo_inurba_marseille","lat":43.2781,"lon":5.40714,"is_reserved":false,"is_disabled":false,"rental_uris":{"android":"levelo://app?vid=0c9fcd16-2979-4838-8bcd-c9ed4ba34af2","ios":"levelo://app?vid=0c9fcd16-2979-4838-8bcd-c9ed4ba34af2"},"vehicle_type_id":"4","last_reported":1740913631,"current_range_meters":10800,"station_id":"ce4bhnh2rcd13ifvqgtg","pricing_plan_id":"cebpf4jnsgd1na2vs0mg"},{"bike_id":"bef83f18-c4c1-417c-88b3-20e2c380f7cf","system_id":"levelo_inurba_marseille","lat":43.2808,"lon":5.39647,"is_reserved":false,"is_disabled":false,"rental_uris":{"android":"levelo://app?vid=bef83f18-c4c1-417c-88b3-20e2c380f7cf","ios":"levelo://app?vid=bef83f18-c4c1-417c-88b3-20e2c380f7cf"},"vehicle_type_id":"4","last_reported":1740913631,"current_range_meters":10800,"station_id":"ce4bho12rcd13ifvqh2g","pricing_plan_id":"cebpf4jnsgd1na2vs0mg"},{"bike_id":"c1f91580-309f-4903-b275-ec46dc5abeb8","system_id":"levelo_inurba_marseille","lat":43.32481,"lon":5.36564,"is_reserved":false,"is_disabled":false,"rental_uris":{"android":"levelo://app?vid=c1f91580-309f-4903-b275-ec46dc5abeb8","ios":"levelo://app?vid=c1f91580-309f-4903-b275-ec46dc5abeb8"},"vehicle_type_id":"4","last_reported":1740913631,"current_range_meters":10800,"station_id":"ce4bhs12rcd13ifvqhvg","pricing_plan_id":"cebpf4jnsgd1na2vs0mg"},{"bike_id":"f5bfff88-2bb8-4ac0-851a-d7db0423ae9e","system_id":"levelo_inurba_marseille","lat":43.30932,"lon":5.40144,"is_reserved":false,"is_disabled":false,"rental_uris":{"android":"levelo://app?vid=f5bfff88-2bb8-4ac0-851a-d7db0423ae9e","ios":"levelo://app?vid=f5bfff88-2bb8-4ac0-851a-d7db0423ae9e"},"vehicle_type_id":"4","last_reported":1740913631,"current_range_meters":11200,"station_id":"ce4bgvp2rcd13ifvqct0","pricing_plan_id":"cebpf4jnsgd1na2vs0mg"},{"bike_id":"40e25046-456a-4856-924d-df4e4bfa40ab","system_id":"levelo_inurba_marseille","lat":43.26557,"lon":5.37284,"is_reserved":false,"is_disabled":false,"rental_uris":{"android":"levelo://app?vid=40e25046-456a-4856-924d-df4e4bfa40ab","ios":"levelo://app?vid=40e25046-456a-4856-924d-df4e4bfa40ab"},"vehicle_type_id":"4","last_reported":1740913631,"current_range_meters":11200,"station_id":"ce4bhg12rcd13ifvqf70","pricing_plan_id":"cebpf4jnsgd1na2vs0mg"},{"bike_id":"27859633-4dbd-4e1a-9535-03d1c4be9f3f","system_id":"levelo_inurba_marseille","lat":43.26783,"lon":5.39426,"is_reserved":false,"is_disabled":false,"rental_uris":{"android":"levelo://app?vid=27859633-4dbd-4e1a-9535-03d1c4be9f3f","ios":"levelo://app?vid=27859633-4dbd-4e1a-9535-03d1c4be9f3f"},"vehicle_type_id":"4","last_reported":1740913631,"current_range_meters":11200,"station_id":"ce4bhh12rcd13ifvqfg0","pricing_plan_id":"cebpf4jnsgd1na2vs0mg"},{"bike_id":"e43f4f71-054c-410e-9efa-c6d5ef79ac61","system_id":"levelo_inurba_marseille","lat":43.24168,"lon":5.397369,"is_reserved":false,"is_disabled":false,"rental_uris":{"android":"levelo://app?vid=e43f4f71-054c-410e-9efa-c6d5ef79ac61","ios":"levelo://app?vid=e43f4f71-054c-410e-9efa-c6d5ef79ac61"},"vehicle_type_id":"4","last_reported":1740913631,"current_range_meters":11200,"station_id":"ce4bhn12rcd13ifvqgpg","pricing_plan_id":"cebpf4jnsgd1na2vs0mg"},{"bike_id":"27d57ba8-cb2b-4da3-bcfc-1efd3956d0fa","system_id":"levelo_inurba_marseille","lat":43.29554,"lon":5.42289,"is_reserved":false,"is_disabled":false,"rental_uris":{"android":"levelo://app?vid=27d57ba8-cb2b-4da3-bcfc-1efd3956d0fa","ios":"levelo://app?vid=27d57ba8-cb2b-4da3-bcfc-1efd3956d0fa"},"vehicle_type_id":"4","last_reported":1740913631,"current_range_meters":11200,"station_id":"ce4bhph2rcd13ifvqhdg","pricing_plan_id":"cebpf4jnsgd1na2vs0mg"},{"bike_id":"abdce9a5-165a-430d-93c6-b1980bc72eea","system_id":"levelo_inurba_marseille","lat":43.31337,"lon":5.39695,"is_reserved":false,"is_disabled":false,"rental_uris":{"android":"levelo://app?vid=abdce9a5-165a-430d-93c6-b1980bc72eea","ios":"levelo://app?vid=abdce9a5-165a-430d-93c6-b1980bc72eea"},"vehicle_type_id":"4","last_reported":1740913631,"current_range_meters":11600,"station_id":"ce4bgvp2rcd13ifvqcu0","pricing_plan_id":"cebpf4jnsgd1na2vs0mg"},{"bike_id":"e769149f-c0d7-4ca8-bb82-41afd3083bd0","system_id":"levelo_inurba_marseille","lat":43.28622,"lon":5.35105,"is_reserved":false,"is_disabled":false,"rental_uris":{"android":"levelo://app?vid=e769149f-c0d7-4ca8-bb82-41afd3083bd0","ios":"levelo://app?vid=e769149f-c0d7-4ca8-bb82-41afd3083bd0"},"vehicle_type_id":"4","last_reported":1740913631,"current_range_meters":12000,"station_id":"ce4bhch2rcd13ifvqeug","pricing_plan_id":"cebpf4jnsgd1na2vs0mg"},{"bike_id":"8fd6e265-67e3-4ac3-8b33-e46f35485ff3","system_id":"levelo_inurba_marseille","lat":43.27915,"lon":5.39585,"is_reserved":false,"is_disabled":false,"rental_uris":{"android":"levelo://app?vid=8fd6e265-67e3-4ac3-8b33-e46f35485ff3","ios":"levelo://app?vid=8fd6e265-67e3-4ac3-8b33-e46f35485ff3"},"vehicle_type_id":"4","last_reported":1740913631,"current_range_meters":12000,"station_id":"ce4bhf92rcd13ifvqf40","pricing_plan_id":"cebpf4jnsgd1na2vs0mg"},{"bike_id":"b7992443-8e68-40d9-ab23-1a5ece5fbee5","system_id":"levelo_inurba_marseille","lat":43.248168,"lon":5.418574,"is_reserved":false,"is_disabled":false,"rental_uris":{"android":"levelo://app?vid=b7992443-8e68-40d9-ab23-1a5ece5fbee5","ios":"levelo://app?vid=b7992443-8e68-40d9-ab23-1a5ece5fbee5"},"vehicle_type_id":"4","last_reported":1740913631,"current_range_meters":12400,"station_id":"","pricing_plan_id":"cebpf4jnsgd1na2vs0mg"},{"bike_id":"5bc092c7-9ff1-43b4-a4c7-65778b1b8661","system_id":"levelo_inurba_marseille","lat":43.30806,"lon":5.38142,"is_reserved":false,"is_disabled":false,"rental_uris":{"android":"levelo://app?vid=5bc092c7-9ff1-43b4-a4c7-65778b1b8661","ios":"levelo://app?vid=5bc092c7-9ff1-43b4-a4c7-65778b1b8661"},"vehicle_type_id":"4","last_reported":1740913631,"current_range_meters":12400,"station_id":"ce4bgt12rcd13ifvqce0","pricing_plan_id":"cebpf4jnsgd1na2vs0mg"},{"bike_id":"49645587-4897-47af-80cb-ea0df5af90cc","system_id":"levelo_inurba_marseille","lat":43.26207,"lon":5.374444,"is_reserved":false,"is_disabled":false,"rental_uris":{"android":"levelo://app?vid=49645587-4897-47af-80cb-ea0df5af90cc","ios":"levelo://app?vid=49645587-4897-47af-80cb-ea0df5af90cc"},"vehicle_type_id":"4","last_reported":1740913631,"current_range_meters":12400,"station_id":"ce4bhgp2rcd13ifvqfc0","pricing_plan_id":"cebpf4jnsgd1na2vs0mg"},{"bike_id":"4013bc6c-c7f7-4089-af65-618d0eeef3f4","system_id":"levelo_inurba_marseille","lat":43.245469,"lon":5.395306,"is_reserved":false,"is_disabled":false,"rental_uris":{"android":"levelo://app?vid=4013bc6c-c7f7-4089-af65-618d0eeef3f4","ios":"levelo://app?vid=4013bc6c-c7f7-4089-af65-618d0eeef3f4"},"vehicle_type_id":"4","last_reported":1740913631,"current_range_meters":12400,"station_id":"ce4bhlp2rcd13ifvqgjg","pricing_plan_id":"cebpf4jnsgd1na2vs0mg"},{"bike_id":"bc2c3e11-15ac-40ff-afa8-75edcaa45f4b","system_id":"levelo_inurba_marseille","lat":43.29897,"lon":5.43658,"is_reserved":false,"is_disabled":false,"rental_uris":{"android":"levelo://app?vid=bc2c3e11-15ac-40ff-afa8-75edcaa45f4b","ios":"levelo://app?vid=bc2c3e11-15ac-40ff-afa8-75edcaa45f4b"},"vehicle_type_id":"4","last_reported":1740913631,"current_range_meters":12400,"station_id":"ce4bhpp2rcd13ifvqhfg","pricing_plan_id":"cebpf4jnsgd1na2vs0mg"},{"bike_id":"3c9c65ff-a2a8-4c52-a6f4-62bcc77556ef","system_id":"levelo_inurba_marseille","lat":43.24172,"lon":5.36424,"is_reserved":false,"is_disabled":false,"rental_uris":{"android":"levelo://app?vid=3c9c65ff-a2a8-4c52-a6f4-62bcc77556ef","ios":"levelo://app?vid=3c9c65ff-a2a8-4c52-a6f4-62bcc77556ef"},"vehicle_type_id":"4","last_reported":1740913631,"current_range_meters":12400,"station_id":"cpo36qri1sfpv3e86is0","pricing_plan_id":"cebpf4jnsgd1na2vs0mg"},{"bike_id":"88d09cbc-1497-4fea-99b9-c1fe29ff58f0","system_id":"levelo_inurba_marseille","lat":43.280361,"lon":5.365944,"is_reserved":false,"is_disabled":false,"rental_uris":{"android":"levelo://app?vid=88d09cbc-1497-4fea-99b9-c1fe29ff58f0","ios":"levelo://app?vid=88d09cbc-1497-4fea-99b9-c1fe29ff58f0"},"vehicle_type_id":"4","last_reported":1740913631,"current_range_meters":12800,"station_id":"","pricing_plan_id":"cebpf4jnsgd1na2vs0mg"},{"bike_id":"8c528749-43df-40d6-b9b4-e80d7e8bda23","system_id":"levelo_inurba_marseille","lat":43.26569,"lon":5.3728,"is_reserved":false,"is_disabled":false,"rental_uris":{"android":"levelo://app?vid=8c528749-43df-40d6-b9b4-e80d7e8bda23","ios":"levelo://app?vid=8c528749-43df-40d6-b9b4-e80d7e8bda23"},"vehicle_type_id":"4","last_reported":1740913631,"current_range_meters":12800,"station_id":"ce4bhg12rcd13ifvqf70","pricing_plan_id":"cebpf4jnsgd1na2vs0mg"},{"bike_id":"04374387-317f-463f-bfc7-2e3d3c3c7b98","system_id":"levelo_inurba_marseille","lat":43.24177,"lon":5.39687,"is_reserved":false,"is_disabled":false,"rental_uris":{"android":"levelo://app?vid=04374387-317f-463f-bfc7-2e3d3c3c7b98","ios":"levelo://app?vid=04374387-317f-463f-bfc7-2e3d3c3c7b98"},"vehicle_type_id":"4","last_reported":1740913631,"current_range_meters":12800,"station_id":"ce4bhn12rcd13ifvqgpg","pricing_plan_id":"cebpf4jnsgd1na2vs0mg"},{"bike_id":"ed8bb562-d048-4d97-a62c-052cc210d3b2","system_id":"levelo_inurba_marseille","lat":43.31715,"lon":5.43714,"is_reserved":false,"is_disabled":false,"rental_uris":{"android":"levelo://app?vid=ed8bb562-d048-4d97-a62c-052cc210d3b2","ios":"levelo://app?vid=ed8bb562-d048-4d97-a62c-052cc210d3b2"},"vehicle_type_id":"4","last_reported":1740913631,"current_range_meters":12800,"station_id":"ce4bhp92rcd13ifvqhcg","pricing_plan_id":"cebpf4jnsgd1na2vs0mg"},{"bike_id":"848e1728-4a39-474c-b550-8bc497cd3e33","system_id":"levelo_inurba_marseille","lat":43.32369,"lon":5.36742,"is_reserved":false,"is_disabled":false,"rental_uris":{"android":"levelo://app?vid=848e1728-4a39-474c-b550-8bc497cd3e33","ios":"levelo://app?vid=848e1728-4a39-474c-b550-8bc497cd3e33"},"vehicle_type_id":"4","last_reported":1740913631,"current_range_meters":12800,"station_id":"ce4bhsh2rcd13ifvqi2g","pricing_plan_id":"cebpf4jnsgd1na2vs0mg"},{"bike_id":"2e9c27d3-7345-4cf1-8b14-d9496e0e96ab","system_id":"levelo_inurba_marseille","lat":43.30877,"lon":5.39649,"is_reserved":false,"is_disabled":false,"rental_uris":{"android":"levelo://app?vid=2e9c27d3-7345-4cf1-8b14-d9496e0e96ab","ios":"levelo://app?vid=2e9c27d3-7345-4cf1-8b14-d9496e0e96ab"},"vehicle_type_id":"4","last_reported":1740913631,"current_range_meters":13600,"station_id":"ce4bh012rcd13ifvqcv0","pricing_plan_id":"cebpf4jnsgd1na2vs0mg"},{"bike_id":"4e5a2e47-cbdf-4d70-b753-633bec4c36e9","system_id":"levelo_inurba_marseille","lat":43.2698,"lon":5.38595,"is_reserved":false,"is_disabled":false,"rental_uris":{"android":"levelo://app?vid=4e5a2e47-cbdf-4d70-b753-633bec4c36e9","ios":"levelo://app?vid=4e5a2e47-cbdf-4d70-b753-633bec4c36e9"},"vehicle_type_id":"4","last_reported":1740913631,"current_range_meters":13600,"station_id":"ce4bhh92rcd13ifvqfh0","pricing_plan_id":"cebpf4jnsgd1na2vs0mg"},{"bike_id":"b89b9e97-65c4-4473-a19f-c73995b54f7e","system_id":"levelo_inurba_marseille","lat":43.23069,"lon":5.35499,"is_reserved":false,"is_disabled":false,"rental_uris":{"android":"levelo://app?vid=b89b9e97-65c4-4473-a19f-c73995b54f7e","ios":"levelo://app?vid=b89b9e97-65c4-4473-a19f-c73995b54f7e"},"vehicle_type_id":"4","last_reported":1740913631,"current_range_meters":13600,"station_id":"cpo3342slgdg3j2ifvpg","pricing_plan_id":"cebpf4jnsgd1na2vs0mg"},{"bike_id":"74bd560d-b985-4914-b025-0cba4d6d5b67","system_id":"levelo_inurba_marseille","lat":43.22932,"lon":5.35376,"is_reserved":false,"is_disabled":false,"rental_uris":{"android":"levelo://app?vid=74bd560d-b985-4914-b025-0cba4d6d5b67","ios":"levelo://app?vid=74bd560d-b985-4914-b025-0cba4d6d5b67"},"vehicle_type_id":"4","last_reported":1740913631,"current_range_meters":13600,"station_id":"cpo3532slgdg3j2ikp40","pricing_plan_id":"cebpf4jnsgd1na2vs0mg"},{"bike_id":"61e3c74e-7012-4cb6-8ef4-17db5d82fdf7","system_id":"levelo_inurba_marseille","lat":43.25316,"lon":5.39286,"is_reserved":false,"is_disabled":false,"rental_uris":{"android":"levelo://app?vid=61e3c74e-7012-4cb6-8ef4-17db5d82fdf7","ios":"levelo://app?vid=61e3c74e-7012-4cb6-8ef4-17db5d82fdf7"},"vehicle_type_id":"4","last_reported":1740913631,"current_range_meters":14000,"station_id":"","pricing_plan_id":"cebpf4jnsgd1na2vs0mg"},{"bike_id":"b888be47-e6cf-4fe4-9179-40626447bf70","system_id":"levelo_inurba_marseille","lat":43.30422,"lon":5.39755,"is_reserved":false,"is_disabled":false,"rental_uris":{"android":"levelo://app?vid=b888be47-e6cf-4fe4-9179-40626447bf70","ios":"levelo://app?vid=b888be47-e6cf-4fe4-9179-40626447bf70"},"vehicle_type_id":"4","last_reported":1740913631,"current_range_meters":14000,"station_id":"ce4bh092rcd13ifvqd20","pricing_plan_id":"cebpf4jnsgd1na2vs0mg"},{"bike_id":"0f05a555-e598-43c7-bb27-5b9b48daab9f","system_id":"levelo_inurba_marseille","lat":43.24392,"lon":5.37051,"is_reserved":false,"is_disabled":false,"rental_uris":{"android":"levelo://app?vid=0f05a555-e598-43c7-bb27-5b9b48daab9f","ios":"levelo://app?vid=0f05a555-e598-43c7-bb27-5b9b48daab9f"},"vehicle_type_id":"4","last_reported":1740913631,"current_range_meters":14000,"station_id":"ce4bhhh2rcd13ifvqfk0","pricing_plan_id":"cebpf4jnsgd1na2vs0mg"},{"bike_id":"d582d420-ad76-4943-9aaa-ec3ad66c7cfa","system_id":"levelo_inurba_marseille","lat":43.24084,"lon":5.37766,"is_reserved":false,"is_disabled":false,"rental_uris":{"android":"levelo://app?vid=d582d420-ad76-4943-9aaa-ec3ad66c7cfa","ios":"levelo://app?vid=d582d420-ad76-4943-9aaa-ec3ad66c7cfa"},"vehicle_type_id":"4","last_reported":1740913631,"current_range_meters":14000,"station_id":"ce4bhnp2rcd13ifvqgvg","pricing_plan_id":"cebpf4jnsgd1na2vs0mg"},{"bike_id":"a5cfe758-f57c-4633-a9e4-201c2b767903","system_id":"levelo_inurba_marseille","lat":43.24805,"lon":5.37453,"is_reserved":false,"is_disabled":false,"rental_uris":{"android":"levelo://app?vid=a5cfe758-f57c-4633-a9e4-201c2b767903","ios":"levelo://app?vid=a5cfe758-f57c-4633-a9e4-201c2b767903"},"vehicle_type_id":"4","last_reported":1740913631,"current_range_meters":14400,"station_id":"ce4bhgh2rcd13ifvqfb0","pricing_plan_id":"cebpf4jnsgd1na2vs0mg"},{"bike_id":"83c87a3f-f875-4ca6-b287-fd750606da22","system_id":"levelo_inurba_marseille","lat":43.23196,"lon":5.39995,"is_reserved":false,"is_disabled":false,"rental_uris":{"android":"levelo://app?vid=83c87a3f-f875-4ca6-b287-fd750606da22","ios":"levelo://app?vid=83c87a3f-f875-4ca6-b287-fd750606da22"},"vehicle_type_id":"4","last_reported":1740913631,"current_range_meters":14400,"station_id":"ce4bhn12rcd13ifvqgqg","pricing_plan_id":"cebpf4jnsgd1na2vs0mg"},{"bike_id":"91cd1291-c326-482f-9ece-15bf98878fb6","system_id":"levelo_inurba_marseille","lat":43.32004,"lon":5.38121,"is_reserved":false,"is_disabled":false,"rental_uris":{"android":"levelo://app?vid=91cd1291-c326-482f-9ece-15bf98878fb6","ios":"levelo://app?vid=91cd1291-c326-482f-9ece-15bf98878fb6"},"vehicle_type_id":"4","last_reported":1740913631,"current_range_meters":14400,"station_id":"ce4bhr12rcd13ifvqhpg","pricing_plan_id":"cebpf4jnsgd1na2vs0mg"},{"bike_id":"a4fa36b4-7a41-4d3b-8edc-0027bce1b33c","system_id":"levelo_inurba_marseille","lat":43.25369,"lon":5.41351,"is_reserved":false,"is_disabled":false,"rental_uris":{"android":"levelo://app?vid=a4fa36b4-7a41-4d3b-8edc-0027bce1b33c","ios":"levelo://app?vid=a4fa36b4-7a41-4d3b-8edc-0027bce1b33c"},"vehicle_type_id":"4","last_reported":1740913631,"current_range_meters":14800,"station_id":"","pricing_plan_id":"cebpf4jnsgd1na2vs0mg"},{"bike_id":"3435514d-ac1e-4be3-a87f-54af706bc07c","system_id":"levelo_inurba_marseille","lat":43.30457,"lon":5.37904,"is_reserved":false,"is_disabled":false,"rental_uris":{"android":"levelo://app?vid=3435514d-ac1e-4be3-a87f-54af706bc07c","ios":"levelo://app?vid=3435514d-ac1e-4be3-a87f-54af706bc07c"},"vehicle_type_id":"4","last_reported":1740913631,"current_range_meters":14800,"station_id":"ce4bgup2rcd13ifvqcn0","pricing_plan_id":"cebpf4jnsgd1na2vs0mg"},{"bike_id":"d4966d32-9a12-40ef-aeca-60f03e1d4b59","system_id":"levelo_inurba_marseille","lat":43.28277,"lon":5.35057,"is_reserved":false,"is_disabled":false,"rental_uris":{"android":"levelo://app?vid=d4966d32-9a12-40ef-aeca-60f03e1d4b59","ios":"levelo://app?vid=d4966d32-9a12-40ef-aeca-60f03e1d4b59"},"vehicle_type_id":"4","last_reported":1740913631,"current_range_meters":14800,"station_id":"ce4bhbp2rcd13ifvqerg","pricing_plan_id":"cebpf4jnsgd1na2vs0mg"},{"bike_id":"dc07e06d-0854-459d-a227-3d6eb13e343d","system_id":"levelo_inurba_marseille","lat":43.23198,"lon":5.35554,"is_reserved":false,"is_disabled":false,"rental_uris":{"android":"levelo://app?vid=dc07e06d-0854-459d-a227-3d6eb13e343d","ios":"levelo://app?vid=dc07e06d-0854-459d-a227-3d6eb13e343d"},"vehicle_type_id":"4","last_reported":1740913631,"current_range_meters":14800,"station_id":"ce4bhu92rcd13ifvqi70","pricing_plan_id":"cebpf4jnsgd1na2vs0mg"},{"bike_id":"96090500-e92b-4618-a8ce-3e71815df01c","system_id":"levelo_inurba_marseille","lat":43.31075,"lon":5.3825,"is_reserved":false,"is_disabled":false,"rental_uris":{"android":"levelo://app?vid=96090500-e92b-4618-a8ce-3e71815df01c","ios":"levelo://app?vid=96090500-e92b-4618-a8ce-3e71815df01c"},"vehicle_type_id":"4","last_reported":1740913631,"current_range_meters":15200,"station_id":"","pricing_plan_id":"cebpf4jnsgd1na2vs0mg"},{"bike_id":"95cd5fee-78de-4f04-9458-0bcee2561cff","system_id":"levelo_inurba_marseille","lat":43.2862,"lon":5.35104,"is_reserved":false,"is_disabled":false,"rental_uris":{"android":"levelo://app?vid=95cd5fee-78de-4f04-9458-0bcee2561cff","ios":"levelo://app?vid=95cd5fee-78de-4f04-9458-0bcee2561cff"},"vehicle_type_id":"4","last_reported":1740913631,"current_range_meters":15200,"station_id":"ce4bhch2rcd13ifvqeug","pricing_plan_id":"cebpf4jnsgd1na2vs0mg"},{"bike_id":"879da633-7618-47a5-a063-63e934568454","system_id":"levelo_inurba_marseille","lat":43.26951,"lon":5.38635,"is_reserved":false,"is_disabled":false,"rental_uris":{"android":"levelo://app?vid=879da633-7618-47a5-a063-63e934568454","ios":"levelo://app?vid=879da633-7618-47a5-a063-63e934568454"},"vehicle_type_id":"4","last_reported":1740913631,"current_range_meters":15200,"station_id":"ce4bhh92rcd13ifvqfh0","pricing_plan_id":"cebpf4jnsgd1na2vs0mg"},{"bike_id":"6d13a634-3969-4704-8104-ef55e819d437","system_id":"levelo_inurba_marseille","lat":43.27511,"lon":5.42479,"is_reserved":false,"is_disabled":false,"rental_uris":{"android":"levelo://app?vid=6d13a634-3969-4704-8104-ef55e819d437","ios":"levelo://app?vid=6d13a634-3969-4704-8104-ef55e819d437"},"vehicle_type_id":"4","last_reported":1740913631,"current_range_meters":15200,"station_id":"ce4bhn92rcd13ifvqgrg","pricing_plan_id":"cebpf4jnsgd1na2vs0mg"},{"bike_id":"18ed809a-93be-4ceb-a90d-b4661309b51d","system_id":"levelo_inurba_marseille","lat":43.309511,"lon":5.374373,"is_reserved":false,"is_disabled":false,"rental_uris":{"android":"levelo://app?vid=18ed809a-93be-4ceb-a90d-b4661309b51d","ios":"levelo://app?vid=18ed809a-93be-4ceb-a90d-b4661309b51d"},"vehicle_type_id":"4","last_reported":1740913631,"current_range_meters":16000,"station_id":"","pricing_plan_id":"cebpf4jnsgd1na2vs0mg"},{"bike_id":"5e057ada-ca69-477b-b17b-2e1631874481","system_id":"levelo_inurba_marseille","lat":43.30146,"lon":5.38084,"is_reserved":false,"is_disabled":false,"rental_uris":{"android":"levelo://app?vid=5e057ada-ca69-477b-b17b-2e1631874481","ios":"levelo://app?vid=5e057ada-ca69-477b-b17b-2e1631874481"},"vehicle_type_id":"4","last_reported":1740913631,"current_range_meters":16000,"station_id":"ce4bgjp2rcd13ifvqbh0","pricing_plan_id":"cebpf4jnsgd1na2vs0mg"},{"bike_id":"d9e133a5-81ca-4db1-ae8d-33c46cf4da56","system_id":"levelo_inurba_marseille","lat":43.302,"lon":5.36619,"is_reserved":false,"is_disabled":false,"rental_uris":{"android":"levelo://app?vid=d9e133a5-81ca-4db1-ae8d-33c46cf4da56","ios":"levelo://app?vid=d9e133a5-81ca-4db1-ae8d-33c46cf4da56"},"vehicle_type_id":"4","last_reported":1740913631,"current_range_meters":16000,"station_id":"ce4bgrh2rcd13ifvqc8g","pricing_plan_id":"cebpf4jnsgd1na2vs0mg"},{"bike_id":"2a069d3b-4fd4-4b13-920d-104ee44c233c","system_id":"levelo_inurba_marseille","lat":43.30553,"lon":5.36517,"is_reserved":false,"is_disabled":false,"rental_uris":{"android":"levelo://app?vid=2a069d3b-4fd4-4b13-920d-104ee44c233c","ios":"levelo://app?vid=2a069d3b-4fd4-4b13-920d-104ee44c233c"},"vehicle_type_id":"4","last_reported":1740913631,"current_range_meters":16000,"station_id":"ce4bgs12rcd13ifvqcag","pricing_plan_id":"cebpf4jnsgd1na2vs0mg"},{"bike_id":"14682967-0f62-426e-b177-ff37f207f9ab","system_id":"levelo_inurba_marseille","lat":43.26554,"lon":5.37294,"is_reserved":false,"is_disabled":false,"rental_uris":{"android":"levelo://app?vid=14682967-0f62-426e-b177-ff37f207f9ab","ios":"levelo://app?vid=14682967-0f62-426e-b177-ff37f207f9ab"},"vehicle_type_id":"4","last_reported":1740913631,"current_range_meters":16000,"station_id":"ce4bhg12rcd13ifvqf70","pricing_plan_id":"cebpf4jnsgd1na2vs0mg"},{"bike_id":"d66b749a-0808-469e-b143-0787b08d816b","system_id":"levelo_inurba_marseille","lat":43.262174,"lon":5.374594,"is_reserved":false,"is_disabled":false,"rental_uris":{"android":"levelo://app?vid=d66b749a-0808-469e-b143-0787b08d816b","ios":"levelo://app?vid=d66b749a-0808-469e-b143-0787b08d816b"},"vehicle_type_id":"4","last_reported":1740913631,"current_range_meters":16000,"station_id":"ce4bhgp2rcd13ifvqfc0","pricing_plan_id":"cebpf4jnsgd1na2vs0mg"},{"bike_id":"cbc49db8-4cfb-45b9-8d87-9162bd6455fa","system_id":"levelo_inurba_marseille","lat":43.23962,"lon":5.36632,"is_reserved":false,"is_disabled":false,"rental_uris":{"android":"levelo://app?vid=cbc49db8-4cfb-45b9-8d87-9162bd6455fa","ios":"levelo://app?vid=cbc49db8-4cfb-45b9-8d87-9162bd6455fa"},"vehicle_type_id":"4","last_reported":1740913631,"current_range_meters":16000,"station_id":"ce4bhi12rcd13ifvqfp0","pricing_plan_id":"cebpf4jnsgd1na2vs0mg"},{"bike_id":"b8ad1b64-42b6-4030-a721-17ecff6137fb","system_id":"levelo_inurba_marseille","lat":43.24647,"lon":5.38138,"is_reserved":false,"is_disabled":false,"rental_uris":{"android":"levelo://app?vid=b8ad1b64-42b6-4030-a721-17ecff6137fb","ios":"levelo://app?vid=b8ad1b64-42b6-4030-a721-17ecff6137fb"},"vehicle_type_id":"4","last_reported":1740913631,"current_range_meters":16000,"station_id":"ce4bhih2rcd13ifvqfr0","pricing_plan_id":"cebpf4jnsgd1na2vs0mg"},{"bike_id":"18850e78-60b0-4211-bad9-a3f645411a11","system_id":"levelo_inurba_marseille","lat":43.25592,"lon":5.38238,"is_reserved":false,"is_disabled":false,"rental_uris":{"android":"levelo://app?vid=18850e78-60b0-4211-bad9-a3f645411a11","ios":"levelo://app?vid=18850e78-60b0-4211-bad9-a3f645411a11"},"vehicle_type_id":"4","last_reported":1740913631,"current_range_meters":16000,"station_id":"ce4bhih2rcd13ifvqfs0","pricing_plan_id":"cebpf4jnsgd1na2vs0mg"},{"bike_id":"cc836fe0-3cfd-4fe9-beb4-1fec15d76872","system_id":"levelo_inurba_marseille","lat":43.30458,"lon":5.37334,"is_reserved":false,"is_disabled":false,"rental_uris":{"android":"levelo://app?vid=cc836fe0-3cfd-4fe9-beb4-1fec15d76872","ios":"levelo://app?vid=cc836fe0-3cfd-4fe9-beb4-1fec15d76872"},"vehicle_type_id":"4","last_reported":1740913631,"current_range_meters":16400,"station_id":"","pricing_plan_id":"cebpf4jnsgd1na2vs0mg"},{"bike_id":"6c87802e-faae-4524-b5f4-a5401f9e4430","system_id":"levelo_inurba_marseille","lat":43.30468,"lon":5.37903,"is_reserved":false,"is_disabled":false,"rental_uris":{"android":"levelo://app?vid=6c87802e-faae-4524-b5f4-a5401f9e4430","ios":"levelo://app?vid=6c87802e-faae-4524-b5f4-a5401f9e4430"},"vehicle_type_id":"4","last_reported":1740913631,"current_range_meters":16400,"station_id":"ce4bgup2rcd13ifvqcn0","pricing_plan_id":"cebpf4jnsgd1na2vs0mg"},{"bike_id":"319abd2e-fb1d-4d18-9162-7ce610338051","system_id":"levelo_inurba_marseille","lat":43.31069,"lon":5.38356,"is_reserved":false,"is_disabled":false,"rental_uris":{"android":"levelo://app?vid=319abd2e-fb1d-4d18-9162-7ce610338051","ios":"levelo://app?vid=319abd2e-fb1d-4d18-9162-7ce610338051"},"vehicle_type_id":"4","last_reported":1740913631,"current_range_meters":16400,"station_id":"ce4bgv92rcd13ifvqcr0","pricing_plan_id":"cebpf4jnsgd1na2vs0mg"},{"bike_id":"35de5d9e-453d-4b6e-a49a-d72de279088a","system_id":"levelo_inurba_marseille","lat":43.26198,"lon":5.37446,"is_reserved":false,"is_disabled":false,"rental_uris":{"android":"levelo://app?vid=35de5d9e-453d-4b6e-a49a-d72de279088a","ios":"levelo://app?vid=35de5d9e-453d-4b6e-a49a-d72de279088a"},"vehicle_type_id":"4","last_reported":1740913631,"current_range_meters":16400,"station_id":"ce4bhgp2rcd13ifvqfc0","pricing_plan_id":"cebpf4jnsgd1na2vs0mg"},{"bike_id":"63aa556d-b243-4dd5-adbf-87e6e4ac09ea","system_id":"levelo_inurba_marseille","lat":43.23159,"lon":5.43714,"is_reserved":false,"is_disabled":false,"rental_uris":{"android":"levelo://app?vid=63aa556d-b243-4dd5-adbf-87e6e4ac09ea","ios":"levelo://app?vid=63aa556d-b243-4dd5-adbf-87e6e4ac09ea"},"vehicle_type_id":"4","last_reported":1740913631,"current_range_meters":16400,"station_id":"ce4bhmp2rcd13ifvqgog","pricing_plan_id":"cebpf4jnsgd1na2vs0mg"},{"bike_id":"c5b35fc3-133b-4fcd-9bc1-000b1b46221f","system_id":"levelo_inurba_marseille","lat":43.24155,"lon":5.36481,"is_reserved":false,"is_disabled":false,"rental_uris":{"android":"levelo://app?vid=c5b35fc3-133b-4fcd-9bc1-000b1b46221f","ios":"levelo://app?vid=c5b35fc3-133b-4fcd-9bc1-000b1b46221f"},"vehicle_type_id":"4","last_reported":1740913631,"current_range_meters":16400,"station_id":"cpo36qri1sfpv3e86is0","pricing_plan_id":"cebpf4jnsgd1na2vs0mg"},{"bike_id":"d29e82e5-442b-4177-903e-3742ab7d0a8c","system_id":"levelo_inurba_marseille","lat":43.300311,"lon":5.374201,"is_reserved":false,"is_disabled":false,"rental_uris":{"android":"levelo://app?vid=d29e82e5-442b-4177-903e-3742ab7d0a8c","ios":"levelo://app?vid=d29e82e5-442b-4177-903e-3742ab7d0a8c"},"vehicle_type_id":"4","last_reported":1740913631,"current_range_meters":16800,"station_id":"","pricing_plan_id":"cebpf4jnsgd1na2vs0mg"},{"bike_id":"f5ace16b-5927-4aa3-a56f-a2f4b6f53741","system_id":"levelo_inurba_marseille","lat":43.337444,"lon":5.374475,"is_reserved":false,"is_disabled":false,"rental_uris":{"android":"levelo://app?vid=f5ace16b-5927-4aa3-a56f-a2f4b6f53741","ios":"levelo://app?vid=f5ace16b-5927-4aa3-a56f-a2f4b6f53741"},"vehicle_type_id":"4","last_reported":1740913631,"current_range_meters":16800,"station_id":"","pricing_plan_id":"cebpf4jnsgd1na2vs0mg"},{"bike_id":"e69260b5-1711-443e-b6f4-5183d73c03cb","system_id":"levelo_inurba_marseille","lat":43.31334,"lon":5.38445,"is_reserved":false,"is_disabled":false,"rental_uris":{"android":"levelo://app?vid=e69260b5-1711-443e-b6f4-5183d73c03cb","ios":"levelo://app?vid=e69260b5-1711-443e-b6f4-5183d73c03cb"},"vehicle_type_id":"4","last_reported":1740913631,"current_range_meters":16800,"station_id":"ce4bgt92rcd13ifvqcf0","pricing_plan_id":"cebpf4jnsgd1na2vs0mg"},{"bike_id":"8c418afa-4a43-45d0-83c2-1c17c420fa81","system_id":"levelo_inurba_marseille","lat":43.2622,"lon":5.37438,"is_reserved":false,"is_disabled":false,"rental_uris":{"android":"levelo://app?vid=8c418afa-4a43-45d0-83c2-1c17c420fa81","ios":"levelo://app?vid=8c418afa-4a43-45d0-83c2-1c17c420fa81"},"vehicle_type_id":"4","last_reported":1740913631,"current_range_meters":16800,"station_id":"ce4bhgp2rcd13ifvqfc0","pricing_plan_id":"cebpf4jnsgd1na2vs0mg"},{"bike_id":"46b42730-9dd3-44c5-91a9-d6d931f385c3","system_id":"levelo_inurba_marseille","lat":43.25491,"lon":5.37649,"is_reserved":false,"is_disabled":false,"rental_uris":{"android":"levelo://app?vid=46b42730-9dd3-44c5-91a9-d6d931f385c3","ios":"levelo://app?vid=46b42730-9dd3-44c5-91a9-d6d931f385c3"},"vehicle_type_id":"4","last_reported":1740913631,"current_range_meters":16800,"station_id":"ce4bhh12rcd13ifvqff0","pricing_plan_id":"cebpf4jnsgd1na2vs0mg"},{"bike_id":"670122a3-157a-4ef1-82d1-a5574649dac0","system_id":"levelo_inurba_marseille","lat":43.239473,"lon":5.366513,"is_reserved":false,"is_disabled":false,"rental_uris":{"android":"levelo://app?vid=670122a3-157a-4ef1-82d1-a5574649dac0","ios":"levelo://app?vid=670122a3-157a-4ef1-82d1-a5574649dac0"},"vehicle_type_id":"4","last_reported":1740913631,"current_range_meters":16800,"station_id":"ce4bhi12rcd13ifvqfp0","pricing_plan_id":"cebpf4jnsgd1na2vs0mg"},{"bike_id":"982a6c2e-2f14-45e6-81c3-569abb57b097","system_id":"levelo_inurba_marseille","lat":43.23068,"lon":5.35503,"is_reserved":false,"is_disabled":false,"rental_uris":{"android":"levelo://app?vid=982a6c2e-2f14-45e6-81c3-569abb57b097","ios":"levelo://app?vid=982a6c2e-2f14-45e6-81c3-569abb57b097"},"vehicle_type_id":"4","last_reported":1740913631,"current_range_meters":16800,"station_id":"cpo3342slgdg3j2ifvpg","pricing_plan_id":"cebpf4jnsgd1na2vs0mg"},{"bike_id":"417fbd7d-d6d8-4c3a-98dd-ce0156edb9f1","system_id":"levelo_inurba_marseille","lat":43.284327,"lon":5.349957,"is_reserved":false,"is_disabled":false,"rental_uris":{"android":"levelo://app?vid=417fbd7d-d6d8-4c3a-98dd-ce0156edb9f1","ios":"levelo://app?vid=417fbd7d-d6d8-4c3a-98dd-ce0156edb9f1"},"vehicle_type_id":"4","last_reported":1740913631,"current_range_meters":17200,"station_id":"ce4bhbh2rcd13ifvqepg","pricing_plan_id":"cebpf4jnsgd1na2vs0mg"},{"bike_id":"fa1ef70e-c8d6-48d3-9ce0-70a258927bc6","system_id":"levelo_inurba_marseille","lat":43.26561,"lon":5.37283,"is_reserved":false,"is_disabled":false,"rental_uris":{"android":"levelo://app?vid=fa1ef70e-c8d6-48d3-9ce0-70a258927bc6","ios":"levelo://app?vid=fa1ef70e-c8d6-48d3-9ce0-70a258927bc6"},"vehicle_type_id":"4","last_reported":1740913631,"current_range_meters":17200,"station_id":"ce4bhg12rcd13ifvqf70","pricing_plan_id":"cebpf4jnsgd1na2vs0mg"},{"bike_id":"52db0989-6066-4afe-952e-b799fadf34c3","system_id":"levelo_inurba_marseille","lat":43.280714,"lon":5.396201,"is_reserved":false,"is_disabled":false,"rental_uris":{"android":"levelo://app?vid=52db0989-6066-4afe-952e-b799fadf34c3","ios":"levelo://app?vid=52db0989-6066-4afe-952e-b799fadf34c3"},"vehicle_type_id":"4","last_reported":1740913631,"current_range_meters":17200,"station_id":"ce4bhh12rcd13ifvqfg0","pricing_plan_id":"cebpf4jnsgd1na2vs0mg"},{"bike_id":"b2f7a0e1-fe6d-40a1-85c7-1e2a0350df8a","system_id":"levelo_inurba_marseille","lat":43.27673,"lon":5.38878,"is_reserved":false,"is_disabled":false,"rental_uris":{"android":"levelo://app?vid=b2f7a0e1-fe6d-40a1-85c7-1e2a0350df8a","ios":"levelo://app?vid=b2f7a0e1-fe6d-40a1-85c7-1e2a0350df8a"},"vehicle_type_id":"4","last_reported":1740913631,"current_range_meters":17200,"station_id":"ce4bhi12rcd13ifvqfo0","pricing_plan_id":"cebpf4jnsgd1na2vs0mg"},{"bike_id":"84a21489-e7c4-40fb-8156-acb06b20eaff","system_id":"levelo_inurba_marseille","lat":43.23147,"lon":5.43726,"is_reserved":false,"is_disabled":false,"rental_uris":{"android":"levelo://app?vid=84a21489-e7c4-40fb-8156-acb06b20eaff","ios":"levelo://app?vid=84a21489-e7c4-40fb-8156-acb06b20eaff"},"vehicle_type_id":"4","last_reported":1740913631,"current_range_meters":17200,"station_id":"ce4bhmp2rcd13ifvqgog","pricing_plan_id":"cebpf4jnsgd1na2vs0mg"},{"bike_id":"803ced7a-60d3-4f68-a71d-19a5cba39b57","system_id":"levelo_inurba_marseille","lat":43.23156,"lon":5.43705,"is_reserved":false,"is_disabled":false,"rental_uris":{"android":"levelo://app?vid=803ced7a-60d3-4f68-a71d-19a5cba39b57","ios":"levelo://app?vid=803ced7a-60d3-4f68-a71d-19a5cba39b57"},"vehicle_type_id":"4","last_reported":1740913631,"current_range_meters":17200,"station_id":"ce4bhmp2rcd13ifvqgog","pricing_plan_id":"cebpf4jnsgd1na2vs0mg"},{"bike_id":"0b85d778-5f42-41f6-99e6-93c2062ce94d","system_id":"levelo_inurba_marseille","lat":43.31707,"lon":5.43697,"is_reserved":false,"is_disabled":false,"rental_uris":{"android":"levelo://app?vid=0b85d778-5f42-41f6-99e6-93c2062ce94d","ios":"levelo://app?vid=0b85d778-5f42-41f6-99e6-93c2062ce94d"},"vehicle_type_id":"4","last_reported":1740913631,"current_range_meters":17200,"station_id":"ce4bhp92rcd13ifvqhcg","pricing_plan_id":"cebpf4jnsgd1na2vs0mg"},{"bike_id":"e0dedb43-14dc-49d9-97a9-cc4d992c6675","system_id":"levelo_inurba_marseille","lat":43.319059,"lon":5.408177,"is_reserved":false,"is_disabled":false,"rental_uris":{"android":"levelo://app?vid=e0dedb43-14dc-49d9-97a9-cc4d992c6675","ios":"levelo://app?vid=e0dedb43-14dc-49d9-97a9-cc4d992c6675"},"vehicle_type_id":"4","last_reported":1740913631,"current_range_meters":17200,"station_id":"ce4bhq12rcd13ifvqhig","pricing_plan_id":"cebpf4jnsgd1na2vs0mg"},{"bike_id":"d7455ef1-0ce2-47d7-a2ab-1379fc9a165f","system_id":"levelo_inurba_marseille","lat":43.27617,"lon":5.36114,"is_reserved":false,"is_disabled":false,"rental_uris":{"android":"levelo://app?vid=d7455ef1-0ce2-47d7-a2ab-1379fc9a165f","ios":"levelo://app?vid=d7455ef1-0ce2-47d7-a2ab-1379fc9a165f"},"vehicle_type_id":"4","last_reported":1740913631,"current_range_meters":17600,"station_id":"ce4bgj92rcd13ifvqbe0","pricing_plan_id":"cebpf4jnsgd1na2vs0mg"},{"bike_id":"ed3fdd04-4f01-4dec-bae0-dc817c8e7da9","system_id":"levelo_inurba_marseille","lat":43.306326,"lon":5.372106,"is_reserved":false,"is_disabled":false,"rental_uris":{"android":"levelo://app?vid=ed3fdd04-4f01-4dec-bae0-dc817c8e7da9","ios":"levelo://app?vid=ed3fdd04-4f01-4dec-bae0-dc817c8e7da9"},"vehicle_type_id":"4","last_reported":1740913631,"current_range_meters":17600,"station_id":"ce4bgqh2rcd13ifvqc4g","pricing_plan_id":"cebpf4jnsgd1na2vs0mg"},{"bike_id":"a0203017-7af2-42d1-8cbe-20465dd07b9e","system_id":"levelo_inurba_marseille","lat":43.31696,"lon":5.40485,"is_reserved":false,"is_disabled":false,"rental_uris":{"android":"levelo://app?vid=a0203017-7af2-42d1-8cbe-20465dd07b9e","ios":"levelo://app?vid=a0203017-7af2-42d1-8cbe-20465dd07b9e"},"vehicle_type_id":"4","last_reported":1740913631,"current_range_meters":17600,"station_id":"ce4bh012rcd13ifvqd00","pricing_plan_id":"cebpf4jnsgd1na2vs0mg"},{"bike_id":"4224257e-fa4f-405e-898c-e0ee27767d91","system_id":"levelo_inurba_marseille","lat":43.26558,"lon":5.37283,"is_reserved":false,"is_disabled":false,"rental_uris":{"android":"levelo://app?vid=4224257e-fa4f-405e-898c-e0ee27767d91","ios":"levelo://app?vid=4224257e-fa4f-405e-898c-e0ee27767d91"},"vehicle_type_id":"4","last_reported":1740913631,"current_range_meters":17600,"station_id":"ce4bhg12rcd13ifvqf70","pricing_plan_id":"cebpf4jnsgd1na2vs0mg"},{"bike_id":"58d43c66-2a54-40b4-bfcb-0487f4fe33f7","system_id":"levelo_inurba_marseille","lat":43.25141,"lon":5.39332,"is_reserved":false,"is_disabled":false,"rental_uris":{"android":"levelo://app?vid=58d43c66-2a54-40b4-bfcb-0487f4fe33f7","ios":"levelo://app?vid=58d43c66-2a54-40b4-bfcb-0487f4fe33f7"},"vehicle_type_id":"4","last_reported":1740913631,"current_range_meters":17600,"station_id":"ce4bhm12rcd13ifvqgkg","pricing_plan_id":"cebpf4jnsgd1na2vs0mg"},{"bike_id":"52c30768-823c-4f29-9a33-bf074f73acb0","system_id":"levelo_inurba_marseille","lat":43.2811,"lon":5.39668,"is_reserved":false,"is_disabled":false,"rental_uris":{"android":"levelo://app?vid=52c30768-823c-4f29-9a33-bf074f73acb0","ios":"levelo://app?vid=52c30768-823c-4f29-9a33-bf074f73acb0"},"vehicle_type_id":"4","last_reported":1740913631,"current_range_meters":17600,"station_id":"ce4bho12rcd13ifvqh2g","pricing_plan_id":"cebpf4jnsgd1na2vs0mg"},{"bike_id":"77568542-c6c8-4ffb-be54-5b7b7cb44c81","system_id":"levelo_inurba_marseille","lat":43.30136,"lon":5.38056,"is_reserved":false,"is_disabled":false,"rental_uris":{"android":"levelo://app?vid=77568542-c6c8-4ffb-be54-5b7b7cb44c81","ios":"levelo://app?vid=77568542-c6c8-4ffb-be54-5b7b7cb44c81"},"vehicle_type_id":"4","last_reported":1740913631,"current_range_meters":18000,"station_id":"ce4bgjp2rcd13ifvqbh0","pricing_plan_id":"cebpf4jnsgd1na2vs0mg"},{"bike_id":"c148623d-3270-4ea3-9e82-440826230a44","system_id":"levelo_inurba_marseille","lat":43.29584,"lon":5.36742,"is_reserved":false,"is_disabled":false,"rental_uris":{"android":"levelo://app?vid=c148623d-3270-4ea3-9e82-440826230a44","ios":"levelo://app?vid=c148623d-3270-4ea3-9e82-440826230a44"},"vehicle_type_id":"4","last_reported":1740913631,"current_range_meters":18000,"station_id":"ce4bgph2rcd13ifvqc2g","pricing_plan_id":"cebpf4jnsgd1na2vs0mg"},{"bike_id":"d7d5621a-531b-4f63-99b0-ea5b09b24407","system_id":"levelo_inurba_marseille","lat":43.24671,"lon":5.38879,"is_reserved":false,"is_disabled":false,"rental_uris":{"android":"levelo://app?vid=d7d5621a-531b-4f63-99b0-ea5b09b24407","ios":"levelo://app?vid=d7d5621a-531b-4f63-99b0-ea5b09b24407"},"vehicle_type_id":"4","last_reported":1740913631,"current_range_meters":18000,"station_id":"ce4bhg12rcd13ifvqf60","pricing_plan_id":"cebpf4jnsgd1na2vs0mg"},{"bike_id":"84e0ff70-61ba-47da-bc86-d92fd2f41654","system_id":"levelo_inurba_marseille","lat":43.24996,"lon":5.38934,"is_reserved":false,"is_disabled":false,"rental_uris":{"android":"levelo://app?vid=84e0ff70-61ba-47da-bc86-d92fd2f41654","ios":"levelo://app?vid=84e0ff70-61ba-47da-bc86-d92fd2f41654"},"vehicle_type_id":"4","last_reported":1740913631,"current_range_meters":18000,"station_id":"ce4bhgp2rcd13ifvqfd0","pricing_plan_id":"cebpf4jnsgd1na2vs0mg"},{"bike_id":"54dbf312-4c3a-41f6-bc49-e4be894e23b8","system_id":"levelo_inurba_marseille","lat":43.2396,"lon":5.36639,"is_reserved":false,"is_disabled":false,"rental_uris":{"android":"levelo://app?vid=54dbf312-4c3a-41f6-bc49-e4be894e23b8","ios":"levelo://app?vid=54dbf312-4c3a-41f6-bc49-e4be894e23b8"},"vehicle_type_id":"4","last_reported":1740913631,"current_range_meters":18000,"station_id":"ce4bhi12rcd13ifvqfp0","pricing_plan_id":"cebpf4jnsgd1na2vs0mg"},{"bike_id":"67a0de88-ba36-4298-b13d-b95a224ba097","system_id":"levelo_inurba_marseille","lat":43.270747,"lon":5.4227,"is_reserved":false,"is_disabled":false,"rental_uris":{"android":"levelo://app?vid=67a0de88-ba36-4298-b13d-b95a224ba097","ios":"levelo://app?vid=67a0de88-ba36-4298-b13d-b95a224ba097"},"vehicle_type_id":"4","last_reported":1740913631,"current_range_meters":18000,"station_id":"ce4bhk92rcd13ifvqgb0","pricing_plan_id":"cebpf4jnsgd1na2vs0mg"},{"bike_id":"32fae168-5de4-475a-bd55-4a77931437e4","system_id":"levelo_inurba_marseille","lat":43.24544,"lon":5.39532,"is_reserved":false,"is_disabled":false,"rental_uris":{"android":"levelo://app?vid=32fae168-5de4-475a-bd55-4a77931437e4","ios":"levelo://app?vid=32fae168-5de4-475a-bd55-4a77931437e4"},"vehicle_type_id":"4","last_reported":1740913631,"current_range_meters":18000,"station_id":"ce4bhlp2rcd13ifvqgjg","pricing_plan_id":"cebpf4jnsgd1na2vs0mg"},{"bike_id":"59c22e4b-6878-4940-8639-8ebd23bc2e67","system_id":"levelo_inurba_marseille","lat":43.281032,"lon":5.378201,"is_reserved":false,"is_disabled":false,"rental_uris":{"android":"levelo://app?vid=59c22e4b-6878-4940-8639-8ebd23bc2e67","ios":"levelo://app?vid=59c22e4b-6878-4940-8639-8ebd23bc2e67"},"vehicle_type_id":"4","last_reported":1740913631,"current_range_meters":18000,"station_id":"ce4bhn92rcd13ifvqgrg","pricing_plan_id":"cebpf4jnsgd1na2vs0mg"},{"bike_id":"ab34b05a-3e12-4f6f-983f-007358280f71","system_id":"levelo_inurba_marseille","lat":43.29898,"lon":5.43673,"is_reserved":false,"is_disabled":false,"rental_uris":{"android":"levelo://app?vid=ab34b05a-3e12-4f6f-983f-007358280f71","ios":"levelo://app?vid=ab34b05a-3e12-4f6f-983f-007358280f71"},"vehicle_type_id":"4","last_reported":1740913631,"current_range_meters":18000,"station_id":"ce4bhpp2rcd13ifvqhfg","pricing_plan_id":"cebpf4jnsgd1na2vs0mg"},{"bike_id":"815d7400-5b5f-493d-b032-6bb79e6a8b09","system_id":"levelo_inurba_marseille","lat":43.33029,"lon":5.39036,"is_reserved":false,"is_disabled":false,"rental_uris":{"android":"levelo://app?vid=815d7400-5b5f-493d-b032-6bb79e6a8b09","ios":"levelo://app?vid=815d7400-5b5f-493d-b032-6bb79e6a8b09"},"vehicle_type_id":"4","last_reported":1740913631,"current_range_meters":18000,"station_id":"ce4bhr92rcd13ifvqhrg","pricing_plan_id":"cebpf4jnsgd1na2vs0mg"},{"bike_id":"453068aa-c17d-43bf-9cdd-03e2ddd93a1e","system_id":"levelo_inurba_marseille","lat":43.30919,"lon":5.36878,"is_reserved":false,"is_disabled":false,"rental_uris":{"android":"levelo://app?vid=453068aa-c17d-43bf-9cdd-03e2ddd93a1e","ios":"levelo://app?vid=453068aa-c17d-43bf-9cdd-03e2ddd93a1e"},"vehicle_type_id":"4","last_reported":1740913631,"current_range_meters":18800,"station_id":"ce4bgn92rcd13ifvqbvg","pricing_plan_id":"cebpf4jnsgd1na2vs0mg"},{"bike_id":"5fdb948f-14ed-4025-a3dd-2b52626a4724","system_id":"levelo_inurba_marseille","lat":43.28107,"lon":5.3783,"is_reserved":false,"is_disabled":false,"rental_uris":{"android":"levelo://app?vid=5fdb948f-14ed-4025-a3dd-2b52626a4724","ios":"levelo://app?vid=5fdb948f-14ed-4025-a3dd-2b52626a4724"},"vehicle_type_id":"4","last_reported":1740913631,"current_range_meters":18800,"station_id":"ce4bha12rcd13ifvqee0","pricing_plan_id":"cebpf4jnsgd1na2vs0mg"},{"bike_id":"0ca7e8b5-31df-4ec0-b0b3-467c94878f45","system_id":"levelo_inurba_marseille","lat":43.28271,"lon":5.35055,"is_reserved":false,"is_disabled":false,"rental_uris":{"android":"levelo://app?vid=0ca7e8b5-31df-4ec0-b0b3-467c94878f45","ios":"levelo://app?vid=0ca7e8b5-31df-4ec0-b0b3-467c94878f45"},"vehicle_type_id":"4","last_reported":1740913631,"current_range_meters":18800,"station_id":"ce4bhbp2rcd13ifvqerg","pricing_plan_id":"cebpf4jnsgd1na2vs0mg"},{"bike_id":"2d39d191-0e66-416f-893e-c43d5877a089","system_id":"levelo_inurba_marseille","lat":43.28269,"lon":5.3506,"is_reserved":false,"is_disabled":false,"rental_uris":{"android":"levelo://app?vid=2d39d191-0e66-416f-893e-c43d5877a089","ios":"levelo://app?vid=2d39d191-0e66-416f-893e-c43d5877a089"},"vehicle_type_id":"4","last_reported":1740913631,"current_range_meters":18800,"station_id":"ce4bhbp2rcd13ifvqerg","pricing_plan_id":"cebpf4jnsgd1na2vs0mg"},{"bike_id":"eb5d9bae-61e9-40c0-9bed-5bb20f6ccc63","system_id":"levelo_inurba_marseille","lat":43.2623,"lon":5.37429,"is_reserved":false,"is_disabled":false,"rental_uris":{"android":"levelo://app?vid=eb5d9bae-61e9-40c0-9bed-5bb20f6ccc63","ios":"levelo://app?vid=eb5d9bae-61e9-40c0-9bed-5bb20f6ccc63"},"vehicle_type_id":"4","last_reported":1740913631,"current_range_meters":18800,"station_id":"ce4bhgp2rcd13ifvqfc0","pricing_plan_id":"cebpf4jnsgd1na2vs0mg"},{"bike_id":"c998d71d-70fb-4a65-865b-053b01eba41f","system_id":"levelo_inurba_marseille","lat":43.27512,"lon":5.42452,"is_reserved":false,"is_disabled":false,"rental_uris":{"android":"levelo://app?vid=c998d71d-70fb-4a65-865b-053b01eba41f","ios":"levelo://app?vid=c998d71d-70fb-4a65-865b-053b01eba41f"},"vehicle_type_id":"4","last_reported":1740913631,"current_range_meters":18800,"station_id":"ce4bhn92rcd13ifvqgrg","pricing_plan_id":"cebpf4jnsgd1na2vs0mg"},{"bike_id":"c061b7bc-5719-41f5-be3c-5baded97a5f7","system_id":"levelo_inurba_marseille","lat":43.31886,"lon":5.40729,"is_reserved":false,"is_disabled":false,"rental_uris":{"android":"levelo://app?vid=c061b7bc-5719-41f5-be3c-5baded97a5f7","ios":"levelo://app?vid=c061b7bc-5719-41f5-be3c-5baded97a5f7"},"vehicle_type_id":"4","last_reported":1740913631,"current_range_meters":18800,"station_id":"ce4bhq12rcd13ifvqhig","pricing_plan_id":"cebpf4jnsgd1na2vs0mg"},{"bike_id":"76f0ecc2-74d2-4458-9089-c4bdf8553e65","system_id":"levelo_inurba_marseille","lat":43.2721,"lon":5.41861,"is_reserved":false,"is_disabled":false,"rental_uris":{"android":"levelo://app?vid=76f0ecc2-74d2-4458-9089-c4bdf8553e65","ios":"levelo://app?vid=76f0ecc2-74d2-4458-9089-c4bdf8553e65"},"vehicle_type_id":"4","last_reported":1740913631,"current_range_meters":19200,"station_id":"","pricing_plan_id":"cebpf4jnsgd1na2vs0mg"},{"bike_id":"3c32cd59-f3e4-4429-9b96-1454cba2c057","system_id":"levelo_inurba_marseille","lat":43.29584,"lon":5.36736,"is_reserved":false,"is_disabled":false,"rental_uris":{"android":"levelo://app?vid=3c32cd59-f3e4-4429-9b96-1454cba2c057","ios":"levelo://app?vid=3c32cd59-f3e4-4429-9b96-1454cba2c057"},"vehicle_type_id":"4","last_reported":1740913631,"current_range_meters":19200,"station_id":"ce4bgph2rcd13ifvqc2g","pricing_plan_id":"cebpf4jnsgd1na2vs0mg"},{"bike_id":"fc340232-711b-42bd-877d-07c90d091e4a","system_id":"levelo_inurba_marseille","lat":43.30548,"lon":5.36523,"is_reserved":false,"is_disabled":false,"rental_uris":{"android":"levelo://app?vid=fc340232-711b-42bd-877d-07c90d091e4a","ios":"levelo://app?vid=fc340232-711b-42bd-877d-07c90d091e4a"},"vehicle_type_id":"4","last_reported":1740913631,"current_range_meters":19200,"station_id":"ce4bgs12rcd13ifvqcag","pricing_plan_id":"cebpf4jnsgd1na2vs0mg"},{"bike_id":"d1c0e715-6329-4d33-8e66-23065f23123c","system_id":"levelo_inurba_marseille","lat":43.284163,"lon":5.349917,"is_reserved":false,"is_disabled":false,"rental_uris":{"android":"levelo://app?vid=d1c0e715-6329-4d33-8e66-23065f23123c","ios":"levelo://app?vid=d1c0e715-6329-4d33-8e66-23065f23123c"},"vehicle_type_id":"4","last_reported":1740913631,"current_range_meters":19200,"station_id":"ce4bhbh2rcd13ifvqepg","pricing_plan_id":"cebpf4jnsgd1na2vs0mg"},{"bike_id":"ba1ba081-a651-458b-864c-f93419b9b0b6","system_id":"levelo_inurba_marseille","lat":43.25011,"lon":5.3891,"is_reserved":false,"is_disabled":false,"rental_uris":{"android":"levelo://app?vid=ba1ba081-a651-458b-864c-f93419b9b0b6","ios":"levelo://app?vid=ba1ba081-a651-458b-864c-f93419b9b0b6"},"vehicle_type_id":"4","last_reported":1740913631,"current_range_meters":19200,"station_id":"ce4bhgp2rcd13ifvqfd0","pricing_plan_id":"cebpf4jnsgd1na2vs0mg"},{"bike_id":"b9519b76-44b7-4b2a-8116-cf6f7949d079","system_id":"levelo_inurba_marseille","lat":43.23182,"lon":5.39987,"is_reserved":false,"is_disabled":false,"rental_uris":{"android":"levelo://app?vid=b9519b76-44b7-4b2a-8116-cf6f7949d079","ios":"levelo://app?vid=b9519b76-44b7-4b2a-8116-cf6f7949d079"},"vehicle_type_id":"4","last_reported":1740913631,"current_range_meters":19200,"station_id":"ce4bhn12rcd13ifvqgqg","pricing_plan_id":"cebpf4jnsgd1na2vs0mg"},{"bike_id":"b66d4e9e-4be4-4262-bf2f-e6d1cbff9499","system_id":"levelo_inurba_marseille","lat":43.23184,"lon":5.39988,"is_reserved":false,"is_disabled":false,"rental_uris":{"android":"levelo://app?vid=b66d4e9e-4be4-4262-bf2f-e6d1cbff9499","ios":"levelo://app?vid=b66d4e9e-4be4-4262-bf2f-e6d1cbff9499"},"vehicle_type_id":"4","last_reported":1740913631,"current_range_meters":19200,"station_id":"ce4bhn12rcd13ifvqgqg","pricing_plan_id":"cebpf4jnsgd1na2vs0mg"},{"bike_id":"7308ddd5-323b-4c52-946c-6472334415a9","system_id":"levelo_inurba_marseille","lat":43.31716,"lon":5.437087,"is_reserved":false,"is_disabled":false,"rental_uris":{"android":"levelo://app?vid=7308ddd5-323b-4c52-946c-6472334415a9","ios":"levelo://app?vid=7308ddd5-323b-4c52-946c-6472334415a9"},"vehicle_type_id":"4","last_reported":1740913631,"current_range_meters":19200,"station_id":"ce4bhp92rcd13ifvqhcg","pricing_plan_id":"cebpf4jnsgd1na2vs0mg"},{"bike_id":"76394e5b-b5d3-409a-954a-e09b2559a295","system_id":"levelo_inurba_marseille","lat":43.23196,"lon":5.35561,"is_reserved":false,"is_disabled":false,"rental_uris":{"android":"levelo://app?vid=76394e5b-b5d3-409a-954a-e09b2559a295","ios":"levelo://app?vid=76394e5b-b5d3-409a-954a-e09b2559a295"},"vehicle_type_id":"4","last_reported":1740913631,"current_range_meters":19200,"station_id":"ce4bhu92rcd13ifvqi70","pricing_plan_id":"cebpf4jnsgd1na2vs0mg"},{"bike_id":"ee64b076-db53-4a07-8a61-f790fb3d7f18","system_id":"levelo_inurba_marseille","lat":43.29598,"lon":5.37335,"is_reserved":false,"is_disabled":false,"rental_uris":{"android":"levelo://app?vid=ee64b076-db53-4a07-8a61-f790fb3d7f18","ios":"levelo://app?vid=ee64b076-db53-4a07-8a61-f790fb3d7f18"},"vehicle_type_id":"4","last_reported":1740913631,"current_range_meters":19600,"station_id":"","pricing_plan_id":"cebpf4jnsgd1na2vs0mg"},{"bike_id":"3b77ce11-c991-41c5-aaeb-e13aac4b5826","system_id":"levelo_inurba_marseille","lat":43.3174,"lon":5.40493,"is_reserved":false,"is_disabled":false,"rental_uris":{"android":"levelo://app?vid=3b77ce11-c991-41c5-aaeb-e13aac4b5826","ios":"levelo://app?vid=3b77ce11-c991-41c5-aaeb-e13aac4b5826"},"vehicle_type_id":"4","last_reported":1740913631,"current_range_meters":19600,"station_id":"","pricing_plan_id":"cebpf4jnsgd1na2vs0mg"},{"bike_id":"6bb507ed-81ef-4820-85a8-c7226219068f","system_id":"levelo_inurba_marseille","lat":43.30268,"lon":5.377277,"is_reserved":false,"is_disabled":false,"rental_uris":{"android":"levelo://app?vid=6bb507ed-81ef-4820-85a8-c7226219068f","ios":"levelo://app?vid=6bb507ed-81ef-4820-85a8-c7226219068f"},"vehicle_type_id":"4","last_reported":1740913631,"current_range_meters":19600,"station_id":"ce4bguh2rcd13ifvqcj0","pricing_plan_id":"cebpf4jnsgd1na2vs0mg"},{"bike_id":"94a4d640-6bb8-4253-a5ee-f2df37d0f270","system_id":"levelo_inurba_marseille","lat":43.28658,"lon":5.37329,"is_reserved":false,"is_disabled":false,"rental_uris":{"android":"levelo://app?vid=94a4d640-6bb8-4253-a5ee-f2df37d0f270","ios":"levelo://app?vid=94a4d640-6bb8-4253-a5ee-f2df37d0f270"},"vehicle_type_id":"4","last_reported":1740913631,"current_range_meters":19600,"station_id":"ce4bh3p2rcd13ifvqdq0","pricing_plan_id":"cebpf4jnsgd1na2vs0mg"},{"bike_id":"19927be9-86ed-42b7-8daf-44a101a71b64","system_id":"levelo_inurba_marseille","lat":43.25492,"lon":5.37648,"is_reserved":false,"is_disabled":false,"rental_uris":{"android":"levelo://app?vid=19927be9-86ed-42b7-8daf-44a101a71b64","ios":"levelo://app?vid=19927be9-86ed-42b7-8daf-44a101a71b64"},"vehicle_type_id":"4","last_reported":1740913631,"current_range_meters":19600,"station_id":"ce4bhh12rcd13ifvqff0","pricing_plan_id":"cebpf4jnsgd1na2vs0mg"},{"bike_id":"51453599-2f62-4fac-9d57-fe8e056e3cd4","system_id":"levelo_inurba_marseille","lat":43.23961,"lon":5.36626,"is_reserved":false,"is_disabled":false,"rental_uris":{"android":"levelo://app?vid=51453599-2f62-4fac-9d57-fe8e056e3cd4","ios":"levelo://app?vid=51453599-2f62-4fac-9d57-fe8e056e3cd4"},"vehicle_type_id":"4","last_reported":1740913631,"current_range_meters":19600,"station_id":"ce4bhi12rcd13ifvqfp0","pricing_plan_id":"cebpf4jnsgd1na2vs0mg"},{"bike_id":"8b9b15c3-bee0-4110-b044-8c52d6fc07e0","system_id":"levelo_inurba_marseille","lat":43.26492,"lon":5.39535,"is_reserved":false,"is_disabled":false,"rental_uris":{"android":"levelo://app?vid=8b9b15c3-bee0-4110-b044-8c52d6fc07e0","ios":"levelo://app?vid=8b9b15c3-bee0-4110-b044-8c52d6fc07e0"},"vehicle_type_id":"4","last_reported":1740913631,"current_range_meters":19600,"station_id":"ce4bhi12rcd13ifvqfq0","pricing_plan_id":"cebpf4jnsgd1na2vs0mg"},{"bike_id":"9cc3751c-e0b8-4e3b-9f18-38fa1fc83ca5","system_id":"levelo_inurba_marseille","lat":43.25115,"lon":5.40319,"is_reserved":false,"is_disabled":false,"rental_uris":{"android":"levelo://app?vid=9cc3751c-e0b8-4e3b-9f18-38fa1fc83ca5","ios":"levelo://app?vid=9cc3751c-e0b8-4e3b-9f18-38fa1fc83ca5"},"vehicle_type_id":"4","last_reported":1740913631,"current_range_meters":19600,"station_id":"ce4bhlh2rcd13ifvqgig","pricing_plan_id":"cebpf4jnsgd1na2vs0mg"},{"bike_id":"21c42899-87c8-41d5-a338-00f45a726864","system_id":"levelo_inurba_marseille","lat":43.30154,"lon":5.38092,"is_reserved":false,"is_disabled":false,"rental_uris":{"android":"levelo://app?vid=21c42899-87c8-41d5-a338-00f45a726864","ios":"levelo://app?vid=21c42899-87c8-41d5-a338-00f45a726864"},"vehicle_type_id":"4","last_reported":1740913631,"current_range_meters":20000,"station_id":"ce4bgjp2rcd13ifvqbh0","pricing_plan_id":"cebpf4jnsgd1na2vs0mg"},{"bike_id":"bf98c4ee-b0fd-4186-afb5-e07b2f87243a","system_id":"levelo_inurba_marseille","lat":43.30549,"lon":5.36548,"is_reserved":false,"is_disabled":false,"rental_uris":{"android":"levelo://app?vid=bf98c4ee-b0fd-4186-afb5-e07b2f87243a","ios":"levelo://app?vid=bf98c4ee-b0fd-4186-afb5-e07b2f87243a"},"vehicle_type_id":"4","last_reported":1740913631,"current_range_meters":20000,"station_id":"ce4bgs12rcd13ifvqcag","pricing_plan_id":"cebpf4jnsgd1na2vs0mg"},{"bike_id":"8a247025-ec00-48d3-824a-482c59b16425","system_id":"levelo_inurba_marseille","lat":43.31064,"lon":5.38351,"is_reserved":false,"is_disabled":false,"rental_uris":{"android":"levelo://app?vid=8a247025-ec00-48d3-824a-482c59b16425","ios":"levelo://app?vid=8a247025-ec00-48d3-824a-482c59b16425"},"vehicle_type_id":"4","last_reported":1740913631,"current_range_meters":20000,"station_id":"ce4bgv92rcd13ifvqcr0","pricing_plan_id":"cebpf4jnsgd1na2vs0mg"},{"bike_id":"d4f82be4-aded-4ff6-8101-4b9bc31b5685","system_id":"levelo_inurba_marseille","lat":43.28412,"lon":5.37522,"is_reserved":false,"is_disabled":false,"rental_uris":{"android":"levelo://app?vid=d4f82be4-aded-4ff6-8101-4b9bc31b5685","ios":"levelo://app?vid=d4f82be4-aded-4ff6-8101-4b9bc31b5685"},"vehicle_type_id":"4","last_reported":1740913631,"current_range_meters":20000,"station_id":"ce4bh412rcd13ifvqds0","pricing_plan_id":"cebpf4jnsgd1na2vs0mg"},{"bike_id":"32d22e38-8c16-4f73-85aa-d95ae1f3e2be","system_id":"levelo_inurba_marseille","lat":43.27374,"lon":5.36247,"is_reserved":false,"is_disabled":false,"rental_uris":{"android":"levelo://app?vid=32d22e38-8c16-4f73-85aa-d95ae1f3e2be","ios":"levelo://app?vid=32d22e38-8c16-4f73-85aa-d95ae1f3e2be"},"vehicle_type_id":"4","last_reported":1740913631,"current_range_meters":20000,"station_id":"ce4bhbh2rcd13ifvqeo0","pricing_plan_id":"cebpf4jnsgd1na2vs0mg"},{"bike_id":"360cb8fb-ae2d-4942-a777-0b20fe1843ea","system_id":"levelo_inurba_marseille","lat":43.26562,"lon":5.3729,"is_reserved":false,"is_disabled":false,"rental_uris":{"android":"levelo://app?vid=360cb8fb-ae2d-4942-a777-0b20fe1843ea","ios":"levelo://app?vid=360cb8fb-ae2d-4942-a777-0b20fe1843ea"},"vehicle_type_id":"4","last_reported":1740913631,"current_range_meters":20000,"station_id":"ce4bhg12rcd13ifvqf70","pricing_plan_id":"cebpf4jnsgd1na2vs0mg"},{"bike_id":"973d3c5b-28bb-447d-b15e-2be5debdd8f7","system_id":"levelo_inurba_marseille","lat":43.26036,"lon":5.37545,"is_reserved":false,"is_disabled":false,"rental_uris":{"android":"levelo://app?vid=973d3c5b-28bb-447d-b15e-2be5debdd8f7","ios":"levelo://app?vid=973d3c5b-28bb-447d-b15e-2be5debdd8f7"},"vehicle_type_id":"4","last_reported":1740913631,"current_range_meters":20000,"station_id":"ce4bhgh2rcd13ifvqfa0","pricing_plan_id":"cebpf4jnsgd1na2vs0mg"},{"bike_id":"3f95ad96-f7a3-449f-aec5-68a5c1ffed65","system_id":"levelo_inurba_marseille","lat":43.32301,"lon":5.38272,"is_reserved":false,"is_disabled":false,"rental_uris":{"android":"levelo://app?vid=3f95ad96-f7a3-449f-aec5-68a5c1ffed65","ios":"levelo://app?vid=3f95ad96-f7a3-449f-aec5-68a5c1ffed65"},"vehicle_type_id":"4","last_reported":1740913631,"current_range_meters":20000,"station_id":"ce4bhr12rcd13ifvqhqg","pricing_plan_id":"cebpf4jnsgd1na2vs0mg"},{"bike_id":"c8d13138-5670-41b2-ac25-34f5706ff277","system_id":"levelo_inurba_marseille","lat":43.30548,"lon":5.36537,"is_reserved":false,"is_disabled":false,"rental_uris":{"android":"levelo://app?vid=c8d13138-5670-41b2-ac25-34f5706ff277","ios":"levelo://app?vid=c8d13138-5670-41b2-ac25-34f5706ff277"},"vehicle_type_id":"4","last_reported":1740913631,"current_range_meters":20400,"station_id":"ce4bgs12rcd13ifvqcag","pricing_plan_id":"cebpf4jnsgd1na2vs0mg"},{"bike_id":"0670da32-39df-4b13-ad00-1eb00ee0b99d","system_id":"levelo_inurba_marseille","lat":43.30151,"lon":5.37418,"is_reserved":false,"is_disabled":false,"rental_uris":{"android":"levelo://app?vid=0670da32-39df-4b13-ad00-1eb00ee0b99d","ios":"levelo://app?vid=0670da32-39df-4b13-ad00-1eb00ee0b99d"},"vehicle_type_id":"4","last_reported":1740913631,"current_range_meters":20400,"station_id":"ce4bgs92rcd13ifvqcc0","pricing_plan_id":"cebpf4jnsgd1na2vs0mg"},{"bike_id":"4fb82f53-d921-4e34-9bfd-63bd8822c151","system_id":"levelo_inurba_marseille","lat":43.3028,"lon":5.37687,"is_reserved":false,"is_disabled":false,"rental_uris":{"android":"levelo://app?vid=4fb82f53-d921-4e34-9bfd-63bd8822c151","ios":"levelo://app?vid=4fb82f53-d921-4e34-9bfd-63bd8822c151"},"vehicle_type_id":"4","last_reported":1740913631,"current_range_meters":20400,"station_id":"ce4bguh2rcd13ifvqcj0","pricing_plan_id":"cebpf4jnsgd1na2vs0mg"},{"bike_id":"123d5adf-8e93-46cc-93b8-80cd2a012f7c","system_id":"levelo_inurba_marseille","lat":43.27039,"lon":5.42291,"is_reserved":false,"is_disabled":false,"rental_uris":{"android":"levelo://app?vid=123d5adf-8e93-46cc-93b8-80cd2a012f7c","ios":"levelo://app?vid=123d5adf-8e93-46cc-93b8-80cd2a012f7c"},"vehicle_type_id":"4","last_reported":1740913631,"current_range_meters":20400,"station_id":"ce4bhk92rcd13ifvqgb0","pricing_plan_id":"cebpf4jnsgd1na2vs0mg"},{"bike_id":"d037b6ac-db07-40a5-97a1-5bc247a09ca6","system_id":"levelo_inurba_marseille","lat":43.25718,"lon":5.41109,"is_reserved":false,"is_disabled":false,"rental_uris":{"android":"levelo://app?vid=d037b6ac-db07-40a5-97a1-5bc247a09ca6","ios":"levelo://app?vid=d037b6ac-db07-40a5-97a1-5bc247a09ca6"},"vehicle_type_id":"4","last_reported":1740913631,"current_range_meters":20400,"station_id":"ce4bhkp2rcd13ifvqgd0","pricing_plan_id":"cebpf4jnsgd1na2vs0mg"},{"bike_id":"81389cd8-51fb-45ff-ad9c-7bca8b462d46","system_id":"levelo_inurba_marseille","lat":43.25931,"lon":5.4089,"is_reserved":false,"is_disabled":false,"rental_uris":{"android":"levelo://app?vid=81389cd8-51fb-45ff-ad9c-7bca8b462d46","ios":"levelo://app?vid=81389cd8-51fb-45ff-ad9c-7bca8b462d46"},"vehicle_type_id":"4","last_reported":1740913631,"current_range_meters":20400,"station_id":"ce4bhm92rcd13ifvqglg","pricing_plan_id":"cebpf4jnsgd1na2vs0mg"},{"bike_id":"78161bf6-54be-4660-9185-dd97c4ac7322","system_id":"levelo_inurba_marseille","lat":43.262209,"lon":5.404604,"is_reserved":false,"is_disabled":false,"rental_uris":{"android":"levelo://app?vid=78161bf6-54be-4660-9185-dd97c4ac7322","ios":"levelo://app?vid=78161bf6-54be-4660-9185-dd97c4ac7322"},"vehicle_type_id":"4","last_reported":1740913631,"current_range_meters":20400,"station_id":"ce4bhmh2rcd13ifvqgmg","pricing_plan_id":"cebpf4jnsgd1na2vs0mg"},{"bike_id":"b28485f4-de04-4b86-8d47-6740f57eb4e1","system_id":"levelo_inurba_marseille","lat":43.23152,"lon":5.43711,"is_reserved":false,"is_disabled":false,"rental_uris":{"android":"levelo://app?vid=b28485f4-de04-4b86-8d47-6740f57eb4e1","ios":"levelo://app?vid=b28485f4-de04-4b86-8d47-6740f57eb4e1"},"vehicle_type_id":"4","last_reported":1740913631,"current_range_meters":20400,"station_id":"ce4bhmp2rcd13ifvqgog","pricing_plan_id":"cebpf4jnsgd1na2vs0mg"},{"bike_id":"7512517d-ad22-427f-a405-1666b413d5cc","system_id":"levelo_inurba_marseille","lat":43.24774,"lon":5.41169,"is_reserved":false,"is_disabled":false,"rental_uris":{"android":"levelo://app?vid=7512517d-ad22-427f-a405-1666b413d5cc","ios":"levelo://app?vid=7512517d-ad22-427f-a405-1666b413d5cc"},"vehicle_type_id":"4","last_reported":1740913631,"current_range_meters":20800,"station_id":"","pricing_plan_id":"cebpf4jnsgd1na2vs0mg"},{"bike_id":"2c338e24-5f06-4b37-898d-33bf54cbbc2d","system_id":"levelo_inurba_marseille","lat":43.29785,"lon":5.3809,"is_reserved":false,"is_disabled":false,"rental_uris":{"android":"levelo://app?vid=2c338e24-5f06-4b37-898d-33bf54cbbc2d","ios":"levelo://app?vid=2c338e24-5f06-4b37-898d-33bf54cbbc2d"},"vehicle_type_id":"4","last_reported":1740913631,"current_range_meters":20800,"station_id":"ce4bgip2rcd13ifvqbb0","pricing_plan_id":"cebpf4jnsgd1na2vs0mg"},{"bike_id":"f55c35da-bdb7-4276-86ec-f2525abf359d","system_id":"levelo_inurba_marseille","lat":43.3015,"lon":5.38084,"is_reserved":false,"is_disabled":false,"rental_uris":{"android":"levelo://app?vid=f55c35da-bdb7-4276-86ec-f2525abf359d","ios":"levelo://app?vid=f55c35da-bdb7-4276-86ec-f2525abf359d"},"vehicle_type_id":"4","last_reported":1740913631,"current_range_meters":20800,"station_id":"ce4bgjp2rcd13ifvqbh0","pricing_plan_id":"cebpf4jnsgd1na2vs0mg"},{"bike_id":"3bc08441-4826-48b6-a7e2-7e3821e381df","system_id":"levelo_inurba_marseille","lat":43.28443,"lon":5.34965,"is_reserved":false,"is_disabled":false,"rental_uris":{"android":"levelo://app?vid=3bc08441-4826-48b6-a7e2-7e3821e381df","ios":"levelo://app?vid=3bc08441-4826-48b6-a7e2-7e3821e381df"},"vehicle_type_id":"4","last_reported":1740913631,"current_range_meters":20800,"station_id":"ce4bhbh2rcd13ifvqepg","pricing_plan_id":"cebpf4jnsgd1na2vs0mg"},{"bike_id":"b67e963f-beb1-4d6b-b469-1f3815d2cbbb","system_id":"levelo_inurba_marseille","lat":43.23958,"lon":5.36636,"is_reserved":false,"is_disabled":false,"rental_uris":{"android":"levelo://app?vid=b67e963f-beb1-4d6b-b469-1f3815d2cbbb","ios":"levelo://app?vid=b67e963f-beb1-4d6b-b469-1f3815d2cbbb"},"vehicle_type_id":"4","last_reported":1740913631,"current_range_meters":20800,"station_id":"ce4bhi12rcd13ifvqfp0","pricing_plan_id":"cebpf4jnsgd1na2vs0mg"},{"bike_id":"2b83e759-deef-400e-97a4-f10fe5ca1ef6","system_id":"levelo_inurba_marseille","lat":43.27499,"lon":5.42455,"is_reserved":false,"is_disabled":false,"rental_uris":{"android":"levelo://app?vid=2b83e759-deef-400e-97a4-f10fe5ca1ef6","ios":"levelo://app?vid=2b83e759-deef-400e-97a4-f10fe5ca1ef6"},"vehicle_type_id":"4","last_reported":1740913631,"current_range_meters":20800,"station_id":"ce4bhn92rcd13ifvqgrg","pricing_plan_id":"cebpf4jnsgd1na2vs0mg"},{"bike_id":"9f045b40-5fd5-4c86-8ac6-53b424617f64","system_id":"levelo_inurba_marseille","lat":43.29574,"lon":5.36744,"is_reserved":false,"is_disabled":false,"rental_uris":{"android":"levelo://app?vid=9f045b40-5fd5-4c86-8ac6-53b424617f64","ios":"levelo://app?vid=9f045b40-5fd5-4c86-8ac6-53b424617f64"},"vehicle_type_id":"4","last_reported":1740913631,"current_range_meters":21600,"station_id":"ce4bgph2rcd13ifvqc2g","pricing_plan_id":"cebpf4jnsgd1na2vs0mg"},{"bike_id":"59641d74-365a-48ad-b8e1-b562ccc1bb1f","system_id":"levelo_inurba_marseille","lat":43.287092,"lon":5.373882,"is_reserved":false,"is_disabled":false,"rental_uris":{"android":"levelo://app?vid=59641d74-365a-48ad-b8e1-b562ccc1bb1f","ios":"levelo://app?vid=59641d74-365a-48ad-b8e1-b562ccc1bb1f"},"vehicle_type_id":"4","last_reported":1740913631,"current_range_meters":21600,"station_id":"ce4bh3p2rcd13ifvqdq0","pricing_plan_id":"cebpf4jnsgd1na2vs0mg"},{"bike_id":"06bd6ce6-678e-4c96-952b-5f87ff27c497","system_id":"levelo_inurba_marseille","lat":43.2862,"lon":5.35105,"is_reserved":false,"is_disabled":false,"rental_uris":{"android":"levelo://app?vid=06bd6ce6-678e-4c96-952b-5f87ff27c497","ios":"levelo://app?vid=06bd6ce6-678e-4c96-952b-5f87ff27c497"},"vehicle_type_id":"4","last_reported":1740913631,"current_range_meters":21600,"station_id":"ce4bhch2rcd13ifvqeug","pricing_plan_id":"cebpf4jnsgd1na2vs0mg"},{"bike_id":"e1b36eeb-c151-4853-8481-576973144b6d","system_id":"levelo_inurba_marseille","lat":43.26222,"lon":5.37909,"is_reserved":false,"is_disabled":false,"rental_uris":{"android":"levelo://app?vid=e1b36eeb-c151-4853-8481-576973144b6d","ios":"levelo://app?vid=e1b36eeb-c151-4853-8481-576973144b6d"},"vehicle_type_id":"4","last_reported":1740913631,"current_range_meters":21600,"station_id":"ce4bhjp2rcd13ifvqg90","pricing_plan_id":"cebpf4jnsgd1na2vs0mg"},{"bike_id":"32d1e315-966d-45b8-926a-6d27604a3504","system_id":"levelo_inurba_marseille","lat":43.24167,"lon":5.39721,"is_reserved":false,"is_disabled":false,"rental_uris":{"android":"levelo://app?vid=32d1e315-966d-45b8-926a-6d27604a3504","ios":"levelo://app?vid=32d1e315-966d-45b8-926a-6d27604a3504"},"vehicle_type_id":"4","last_reported":1740913631,"current_range_meters":21600,"station_id":"ce4bhn12rcd13ifvqgpg","pricing_plan_id":"cebpf4jnsgd1na2vs0mg"},{"bike_id":"e393036a-bb36-4687-ba9a-ef85163fb1b6","system_id":"levelo_inurba_marseille","lat":43.31996,"lon":5.38192,"is_reserved":false,"is_disabled":false,"rental_uris":{"android":"levelo://app?vid=e393036a-bb36-4687-ba9a-ef85163fb1b6","ios":"levelo://app?vid=e393036a-bb36-4687-ba9a-ef85163fb1b6"},"vehicle_type_id":"4","last_reported":1740913631,"current_range_meters":21600,"station_id":"ce4bhr12rcd13ifvqhpg","pricing_plan_id":"cebpf4jnsgd1na2vs0mg"},{"bike_id":"b2f90bf3-216e-4fba-8af1-d08ddb746c35","system_id":"levelo_inurba_marseille","lat":43.23197,"lon":5.35552,"is_reserved":false,"is_disabled":false,"rental_uris":{"android":"levelo://app?vid=b2f90bf3-216e-4fba-8af1-d08ddb746c35","ios":"levelo://app?vid=b2f90bf3-216e-4fba-8af1-d08ddb746c35"},"vehicle_type_id":"4","last_reported":1740913631,"current_range_meters":21600,"station_id":"ce4bhu92rcd13ifvqi70","pricing_plan_id":"cebpf4jnsgd1na2vs0mg"},{"bike_id":"0b1d16a8-c879-4989-bfe7-7eb35a59ec23","system_id":"levelo_inurba_marseille","lat":43.25177,"lon":5.3782,"is_reserved":false,"is_disabled":false,"rental_uris":{"android":"levelo://app?vid=0b1d16a8-c879-4989-bfe7-7eb35a59ec23","ios":"levelo://app?vid=0b1d16a8-c879-4989-bfe7-7eb35a59ec23"},"vehicle_type_id":"4","last_reported":1740913631,"current_range_meters":22000,"station_id":"","pricing_plan_id":"cebpf4jnsgd1na2vs0mg"},{"bike_id":"05f79b85-f3d0-43dc-8446-f0e096c99a76","system_id":"levelo_inurba_marseille","lat":43.29369,"lon":5.42839,"is_reserved":false,"is_disabled":false,"rental_uris":{"android":"levelo://app?vid=05f79b85-f3d0-43dc-8446-f0e096c99a76","ios":"levelo://app?vid=05f79b85-f3d0-43dc-8446-f0e096c99a76"},"vehicle_type_id":"4","last_reported":1740913631,"current_range_meters":22000,"station_id":"","pricing_plan_id":"cebpf4jnsgd1na2vs0mg"},{"bike_id":"d72f8e46-0872-4bce-b685-4c9fcbbdac04","system_id":"levelo_inurba_marseille","lat":43.30084,"lon":5.39068,"is_reserved":false,"is_disabled":false,"rental_uris":{"android":"levelo://app?vid=d72f8e46-0872-4bce-b685-4c9fcbbdac04","ios":"levelo://app?vid=d72f8e46-0872-4bce-b685-4c9fcbbdac04"},"vehicle_type_id":"4","last_reported":1740913631,"current_range_meters":22000,"station_id":"ce4bh192rcd13ifvqdb0","pricing_plan_id":"cebpf4jnsgd1na2vs0mg"},{"bike_id":"bedf4a79-872a-4ef5-84f9-80f05a296775","system_id":"levelo_inurba_marseille","lat":43.24803,"lon":5.37451,"is_reserved":false,"is_disabled":false,"rental_uris":{"android":"levelo://app?vid=bedf4a79-872a-4ef5-84f9-80f05a296775","ios":"levelo://app?vid=bedf4a79-872a-4ef5-84f9-80f05a296775"},"vehicle_type_id":"4","last_reported":1740913631,"current_range_meters":22000,"station_id":"ce4bhgh2rcd13ifvqfb0","pricing_plan_id":"cebpf4jnsgd1na2vs0mg"},{"bike_id":"eed2ada8-dfe4-4d40-8f75-f880d9b54dc2","system_id":"levelo_inurba_marseille","lat":43.2481,"lon":5.37455,"is_reserved":false,"is_disabled":false,"rental_uris":{"android":"levelo://app?vid=eed2ada8-dfe4-4d40-8f75-f880d9b54dc2","ios":"levelo://app?vid=eed2ada8-dfe4-4d40-8f75-f880d9b54dc2"},"vehicle_type_id":"4","last_reported":1740913631,"current_range_meters":22000,"station_id":"ce4bhgh2rcd13ifvqfb0","pricing_plan_id":"cebpf4jnsgd1na2vs0mg"},{"bike_id":"4aaec2e6-2dfb-4159-821a-7a493fa8e5f4","system_id":"levelo_inurba_marseille","lat":43.25009,"lon":5.3891,"is_reserved":false,"is_disabled":false,"rental_uris":{"android":"levelo://app?vid=4aaec2e6-2dfb-4159-821a-7a493fa8e5f4","ios":"levelo://app?vid=4aaec2e6-2dfb-4159-821a-7a493fa8e5f4"},"vehicle_type_id":"4","last_reported":1740913631,"current_range_meters":22000,"station_id":"ce4bhgp2rcd13ifvqfd0","pricing_plan_id":"cebpf4jnsgd1na2vs0mg"},{"bike_id":"3ee5a299-0775-44d9-ba23-d40cc023bb32","system_id":"levelo_inurba_marseille","lat":43.27209,"lon":5.39179,"is_reserved":false,"is_disabled":false,"rental_uris":{"android":"levelo://app?vid=3ee5a299-0775-44d9-ba23-d40cc023bb32","ios":"levelo://app?vid=3ee5a299-0775-44d9-ba23-d40cc023bb32"},"vehicle_type_id":"4","last_reported":1740913631,"current_range_meters":22000,"station_id":"ce4bhhp2rcd13ifvqfm0","pricing_plan_id":"cebpf4jnsgd1na2vs0mg"},{"bike_id":"a00416df-0816-45d0-8e3a-08d0a7e69fe2","system_id":"levelo_inurba_marseille","lat":43.23072,"lon":5.35495,"is_reserved":false,"is_disabled":false,"rental_uris":{"android":"levelo://app?vid=a00416df-0816-45d0-8e3a-08d0a7e69fe2","ios":"levelo://app?vid=a00416df-0816-45d0-8e3a-08d0a7e69fe2"},"vehicle_type_id":"4","last_reported":1740913631,"current_range_meters":22000,"station_id":"cpo3342slgdg3j2ifvpg","pricing_plan_id":"cebpf4jnsgd1na2vs0mg"},{"bike_id":"4300cf9b-3f21-4db1-957e-9b9d93ea7ac9","system_id":"levelo_inurba_marseille","lat":43.31065,"lon":5.38132,"is_reserved":false,"is_disabled":false,"rental_uris":{"android":"levelo://app?vid=4300cf9b-3f21-4db1-957e-9b9d93ea7ac9","ios":"levelo://app?vid=4300cf9b-3f21-4db1-957e-9b9d93ea7ac9"},"vehicle_type_id":"4","last_reported":1740913631,"current_range_meters":22400,"station_id":"","pricing_plan_id":"cebpf4jnsgd1na2vs0mg"},{"bike_id":"0473373e-6b87-48ac-862d-4a764d87bc14","system_id":"levelo_inurba_marseille","lat":43.276253,"lon":5.361077,"is_reserved":false,"is_disabled":false,"rental_uris":{"android":"levelo://app?vid=0473373e-6b87-48ac-862d-4a764d87bc14","ios":"levelo://app?vid=0473373e-6b87-48ac-862d-4a764d87bc14"},"vehicle_type_id":"4","last_reported":1740913631,"current_range_meters":22400,"station_id":"ce4bgj92rcd13ifvqbe0","pricing_plan_id":"cebpf4jnsgd1na2vs0mg"},{"bike_id":"17cf6cdd-e1ed-4d3d-b9f8-c6cff1a8b37b","system_id":"levelo_inurba_marseille","lat":43.31691,"lon":5.40477,"is_reserved":false,"is_disabled":false,"rental_uris":{"android":"levelo://app?vid=17cf6cdd-e1ed-4d3d-b9f8-c6cff1a8b37b","ios":"levelo://app?vid=17cf6cdd-e1ed-4d3d-b9f8-c6cff1a8b37b"},"vehicle_type_id":"4","last_reported":1740913631,"current_range_meters":22400,"station_id":"ce4bh012rcd13ifvqd00","pricing_plan_id":"cebpf4jnsgd1na2vs0mg"},{"bike_id":"e4d58df5-3e91-4b47-b04c-616f26b90bb4","system_id":"levelo_inurba_marseille","lat":43.2654,"lon":5.37306,"is_reserved":false,"is_disabled":false,"rental_uris":{"android":"levelo://app?vid=e4d58df5-3e91-4b47-b04c-616f26b90bb4","ios":"levelo://app?vid=e4d58df5-3e91-4b47-b04c-616f26b90bb4"},"vehicle_type_id":"4","last_reported":1740913631,"current_range_meters":22400,"station_id":"ce4bhbp2rcd13ifvqerg","pricing_plan_id":"cebpf4jnsgd1na2vs0mg"},{"bike_id":"5ad54a13-89bc-4c57-950f-1a234e6a9e5c","system_id":"levelo_inurba_marseille","lat":43.27926,"lon":5.3959,"is_reserved":false,"is_disabled":false,"rental_uris":{"android":"levelo://app?vid=5ad54a13-89bc-4c57-950f-1a234e6a9e5c","ios":"levelo://app?vid=5ad54a13-89bc-4c57-950f-1a234e6a9e5c"},"vehicle_type_id":"4","last_reported":1740913631,"current_range_meters":22400,"station_id":"ce4bhf92rcd13ifvqf40","pricing_plan_id":"cebpf4jnsgd1na2vs0mg"},{"bike_id":"20f38489-6a1f-408b-8f3b-751e6d4f7e73","system_id":"levelo_inurba_marseille","lat":43.24662,"lon":5.38164,"is_reserved":false,"is_disabled":false,"rental_uris":{"android":"levelo://app?vid=20f38489-6a1f-408b-8f3b-751e6d4f7e73","ios":"levelo://app?vid=20f38489-6a1f-408b-8f3b-751e6d4f7e73"},"vehicle_type_id":"4","last_reported":1740913631,"current_range_meters":22400,"station_id":"ce4bhih2rcd13ifvqfr0","pricing_plan_id":"cebpf4jnsgd1na2vs0mg"},{"bike_id":"dac87b93-e3ed-458c-839f-439ca09be570","system_id":"levelo_inurba_marseille","lat":43.26201,"lon":5.37917,"is_reserved":false,"is_disabled":false,"rental_uris":{"android":"levelo://app?vid=dac87b93-e3ed-458c-839f-439ca09be570","ios":"levelo://app?vid=dac87b93-e3ed-458c-839f-439ca09be570"},"vehicle_type_id":"4","last_reported":1740913631,"current_range_meters":22400,"station_id":"ce4bhjp2rcd13ifvqg90","pricing_plan_id":"cebpf4jnsgd1na2vs0mg"},{"bike_id":"f04e9f64-fec8-4818-a25d-c29a5730cc2a","system_id":"levelo_inurba_marseille","lat":43.29555,"lon":5.42285,"is_reserved":false,"is_disabled":false,"rental_uris":{"android":"levelo://app?vid=f04e9f64-fec8-4818-a25d-c29a5730cc2a","ios":"levelo://app?vid=f04e9f64-fec8-4818-a25d-c29a5730cc2a"},"vehicle_type_id":"4","last_reported":1740913631,"current_range_meters":22400,"station_id":"ce4bhph2rcd13ifvqhdg","pricing_plan_id":"cebpf4jnsgd1na2vs0mg"},{"bike_id":"2e17766b-1aa2-4571-be1d-e669536817c7","system_id":"levelo_inurba_marseille","lat":43.30464,"lon":5.37901,"is_reserved":false,"is_disabled":false,"rental_uris":{"android":"levelo://app?vid=2e17766b-1aa2-4571-be1d-e669536817c7","ios":"levelo://app?vid=2e17766b-1aa2-4571-be1d-e669536817c7"},"vehicle_type_id":"4","last_reported":1740913631,"current_range_meters":22800,"station_id":"ce4bgup2rcd13ifvqcn0","pricing_plan_id":"cebpf4jnsgd1na2vs0mg"},{"bike_id":"00290b84-bfde-48b6-b407-a7b1212027dc","system_id":"levelo_inurba_marseille","lat":43.2924,"lon":5.40898,"is_reserved":false,"is_disabled":false,"rental_uris":{"android":"levelo://app?vid=00290b84-bfde-48b6-b407-a7b1212027dc","ios":"levelo://app?vid=00290b84-bfde-48b6-b407-a7b1212027dc"},"vehicle_type_id":"4","last_reported":1740913631,"current_range_meters":22800,"station_id":"ce4bh192rcd13ifvqdc0","pricing_plan_id":"cebpf4jnsgd1na2vs0mg"},{"bike_id":"c96f5657-3aae-4003-a911-b506e5cbd340","system_id":"levelo_inurba_marseille","lat":43.28429,"lon":5.3498,"is_reserved":false,"is_disabled":false,"rental_uris":{"android":"levelo://app?vid=c96f5657-3aae-4003-a911-b506e5cbd340","ios":"levelo://app?vid=c96f5657-3aae-4003-a911-b506e5cbd340"},"vehicle_type_id":"4","last_reported":1740913631,"current_range_meters":22800,"station_id":"ce4bhbh2rcd13ifvqepg","pricing_plan_id":"cebpf4jnsgd1na2vs0mg"},{"bike_id":"6ebbda6c-8788-4b83-a75b-13f66bebb844","system_id":"levelo_inurba_marseille","lat":43.22936,"lon":5.35375,"is_reserved":false,"is_disabled":false,"rental_uris":{"android":"levelo://app?vid=6ebbda6c-8788-4b83-a75b-13f66bebb844","ios":"levelo://app?vid=6ebbda6c-8788-4b83-a75b-13f66bebb844"},"vehicle_type_id":"4","last_reported":1740913631,"current_range_meters":22800,"station_id":"cpo3532slgdg3j2ikp40","pricing_plan_id":"cebpf4jnsgd1na2vs0mg"},