{"last_updated":1727759378,"ttl":60,"version":"2.2","data":{"bikes":[{"bike_id":"4c95d22f-e255-4c9f-aa3f-fb637b59bdd4","system_id":"levelo_inurba_marseille","lat":43.30469,"lon":5.37922,"is_reserved":false,"is_disabled":false,"rental_uris":{"android":"levelo://app?vid=4c95d22f-e255-4c9f-aa3f-fb637b59bdd4","ios":"levelo://app?vid=4c95d22f-e255-4c9f-aa3f-fb637b59bdd4"},"vehicle_type_id":"4","last_reported":1727759378,"current_range_meters":14000,"station_id":"ce4bgup2rcd13ifvqcn0","pricing_plan_id":"cebpf4jnsgd1na2vs0mg"},{"bike_id":"308fe677-f7b3-43b3-bbca-63d6ad242560","system_id":"levelo_inurba_marseille","lat":43.31993,"lon":5.38148,"is_reserved":false,"is_disabled":false,"rental_uris":{"android":"levelo://app?vid=308fe677-f7b3-43b3-bbca-63d6ad242560","ios":"levelo://app?vid=308fe677-f7b3-43b3-bbca-63d6ad242560"},"vehicle_type_id":"4","last_reported":1727759378,"current_range_meters":17600,"station_id":"ce4bhr12rcd13ifvqhpg","pricing_plan_id":"cebpf4jnsgd1na2vs0mg"},{"bike_id":"a1d0b030-8813-4a7a-8f68-1c9867238af5","system_id":"levelo_inurba_marseille","lat":43.27752,"lon":5.39297,"is_reserved":false,"is_disabled":false,"rental_uris":{"android":"levelo://app?vid=a1d0b030-8813-4a7a-8f68-1c9867238af5","ios":"levelo://app?vid=a1d0b030-8813-4a7a-8f68-1c9867238af5"},"vehicle_type_id":"4","last_reported":1727759378,"current_range_meters":12000,"station_id":"","pricing_plan_id":"cebpf4jnsgd1na2vs0mg"},{"bike_id":"4381ca69-94ed-4fb4-97b0-6e2433f67f2f","system_id":"levelo_inurba_marseille","lat":43.33719,"lon":5.39184,"is_reserved":false,"is_disabled":false,"rental_uris":{"android":"levelo://app?vid=4381ca69-94ed-4fb4-97b0-6e2433f67f2f","ios":"levelo://app?vid=4381ca69-94ed-4fb4-97b0-6e2433f67f2f"},"vehicle_type_id":"4","last_reported":1727759378,"current_range_meters":38400,"station_id":"ce4bhr92rcd13ifvqhsg","pricing_plan_id":"cebpf4jnsgd1na2vs0mg"},{"bike_id":"45278508-ffed-42b8-b0fa-7766eabb2075","system_id":"levelo_inurba_marseille","lat":43.34141,"lon":5.40904,"is_reserved":false,"is_disabled":false,"rental_uris":{"android":"levelo://app?vid=45278508-ffed-42b8-b0fa-7766eabb2075","ios":"levelo://app?vid=45278508-ffed-42b8-b0fa-7766eabb2075"},"vehicle_type_id":"4","last_reported":1727759378,"current_range_meters":36000,"station_id":"ce4bhqh2rcd13ifvqhlg","pricing_plan_id":"cebpf4jnsgd1na2vs0mg"},{"bike_id":"9eb74fb0-dfce-4f5d-a33a-440993fb0b9d","system_id":"levelo_inurba_marseille","lat":43.29642,"lon":5.40615,"is_reserved":false,"is_disabled":false,"rental_uris":{"android":"levelo://app?vid=9eb74fb0-dfce-4f5d-a33a-440993fb0b9d","ios":"levelo://app?vid=9eb74fb0-dfce-4f5d-a33a-440993fb0b9d"},"vehicle_type_id":"4","last_reported":1727759378,"current_range_meters":40000,"station_id":"ce4bh0h2rcd13ifvqd60","pricing_plan_id":"cebpf4jnsgd1na2vs0mg"},{"bike_id":"86c4c979-de11-47da-924e-27f82b5a603c","system_id":"levelo_inurba_marseille","lat":43.24393,"lon":5.37069,"is_reserved":false,"is_disabled":false,"rental_uris":{"android":"levelo://app?vid=86c4c979-de11-47da-924e-27f82b5a603c","ios":"levelo://app?vid=86c4c979-de11-47da-924e-27f82b5a603c"},"vehicle_type_id":"4","last_reported":1727759378,"current_range_meters":4800,"station_id":"ce4bhhh2rcd13ifvqfk0","pricing_plan_id":"cebpf4jnsgd1na2vs0mg"},{"bike_id":"e479204e-67ca-4fd6-8589-71c5906ec986","system_id":"levelo_inurba_marseille","lat":43.30148,"lon":5.38069,"is_reserved":false,"is_disabled":false,"rental_uris":{"android":"levelo://app?vid=e479204e-67ca-4fd6-8589-71c5906ec986","ios":"levelo://app?vid=e479204e-67ca-4fd6-8589-71c5906ec986"},"vehicle_type_id":"4","last_reported":1727759378,"current_range_meters":28000,"station_id":"ce4bgjp2rcd13ifvqbh0","pricing_plan_id":"cebpf4jnsgd1na2vs0mg"},{"bike_id":"0629e9f1-7af5-473d-bd97-c9951d8dd2d8","system_id":"levelo_inurba_marseille","lat":43.25112,"lon":5.40337,"is_reserved":false,"is_disabled":false,"rental_uris":{"android":"levelo://app?vid=0629e9f1-7af5-473d-bd97-c9951d8dd2d8","ios":"levelo://app?vid=0629e9f1-7af5-473d-bd97-c9951d8dd2d8"},"vehicle_type_id":"4","last_reported":1727759378,"current_range_meters":38800,"station_id":"ce4bhlh2rcd13ifvqgig","pricing_plan_id":"cebpf4jnsgd1na2vs0mg"},{"bike_id":"dcac54ef-85cb-4ec7-966f-afce09f873e9","system_id":"levelo_inurba_marseille","lat":43.31994,"lon":5.38149,"is_reserved":false,"is_disabled":false,"rental_uris":{"android":"levelo://app?vid=dcac54ef-85cb-4ec7-966f-afce09f873e9","ios":"levelo://app?vid=dcac54ef-85cb-4ec7-966f-afce09f873e9"},"vehicle_type_id":"4","last_reported":1727759378,"current_range_meters":21600,"station_id":"ce4bhr12rcd13ifvqhpg","pricing_plan_id":"cebpf4jnsgd1na2vs0mg"},{"bike_id":"1c006b78-d253-4b91-b794-7153290a0e66","system_id":"levelo_inurba_marseille","lat":43.31766,"lon":5.39008,"is_reserved":false,"is_disabled":false,"rental_uris":{"android":"levelo://app?vid=1c006b78-d253-4b91-b794-7153290a0e66","ios":"levelo://app?vid=1c006b78-d253-4b91-b794-7153290a0e66"},"vehicle_type_id":"4","last_reported":1727759378,"current_range_meters":38800,"station_id":"ce4bhqp2rcd13ifvqhng","pricing_plan_id":"cebpf4jnsgd1na2vs0mg"},{"bike_id":"0d31a271-58df-4c2e-a39b-bf4de9c34014","system_id":"levelo_inurba_marseille","lat":43.2417,"lon":5.36405,"is_reserved":false,"is_disabled":false,"rental_uris":{"android":"levelo://app?vid=0d31a271-58df-4c2e-a39b-bf4de9c34014","ios":"levelo://app?vid=0d31a271-58df-4c2e-a39b-bf4de9c34014"},"vehicle_type_id":"4","last_reported":1727759378,"current_range_meters":16400,"station_id":"cpo36qri1sfpv3e86is0","pricing_plan_id":"cebpf4jnsgd1na2vs0mg"},{"bike_id":"25f9f23c-4b19-46a6-97e3-06a702f41dc9","system_id":"levelo_inurba_marseille","lat":43.30453,"lon":5.37903,"is_reserved":false,"is_disabled":false,"rental_uris":{"android":"levelo://app?vid=25f9f23c-4b19-46a6-97e3-06a702f41dc9","ios":"levelo://app?vid=25f9f23c-4b19-46a6-97e3-06a702f41dc9"},"vehicle_type_id":"4","last_reported":1727759378,"current_range_meters":27200,"station_id":"ce4bgup2rcd13ifvqcn0","pricing_plan_id":"cebpf4jnsgd1na2vs0mg"},{"bike_id":"d430d7b1-396c-41b0-8215-fd0a563f41b1","system_id":"levelo_inurba_marseille","lat":43.28703,"lon":5.39981,"is_reserved":false,"is_disabled":false,"rental_uris":{"android":"levelo://app?vid=d430d7b1-396c-41b0-8215-fd0a563f41b1","ios":"levelo://app?vid=d430d7b1-396c-41b0-8215-fd0a563f41b1"},"vehicle_type_id":"4","last_reported":1727759378,"current_range_meters":38800,"station_id":"ce4bho92rcd13ifvqh3g","pricing_plan_id":"cebpf4jnsgd1na2vs0mg"},{"bike_id":"d1901d2e-eb48-424e-8a75-7377ed728a9e","system_id":"levelo_inurba_marseille","lat":43.31535,"lon":5.38021,"is_reserved":false,"is_disabled":false,"rental_uris":{"android":"levelo://app?vid=d1901d2e-eb48-424e-8a75-7377ed728a9e","ios":"levelo://app?vid=d1901d2e-eb48-424e-8a75-7377ed728a9e"},"vehicle_type_id":"4","last_reported":1727759378,"current_range_meters":37600,"station_id":"ce4bhsp2rcd13ifvqi50","pricing_plan_id":"cebpf4jnsgd1na2vs0mg"},{"bike_id":"6fc0ad42-2767-4eea-bbe6-f50e92ac93e4","system_id":"levelo_inurba_marseille","lat":43.29968,"lon":5.41345,"is_reserved":false,"is_disabled":false,"rental_uris":{"android":"levelo://app?vid=6fc0ad42-2767-4eea-bbe6-f50e92ac93e4","ios":"levelo://app?vid=6fc0ad42-2767-4eea-bbe6-f50e92ac93e4"},"vehicle_type_id":"4","last_reported":1727759378,"current_range_meters":38800,"station_id":"ce4bhp12rcd13ifvqh9g","pricing_plan_id":"cebpf4jnsgd1na2vs0mg"},{"bike_id":"bb15d45c-0c04-4ecf-83e5-5ae759de7c89","system_id":"levelo_inurba_marseille","lat":43.30594,"lon":5.39358,"is_reserved":false,"is_disabled":false,"rental_uris":{"android":"levelo://app?vid=bb15d45c-0c04-4ecf-83e5-5ae759de7c89","ios":"levelo://app?vid=bb15d45c-0c04-4ecf-83e5-5ae759de7c89"},"vehicle_type_id":"4","last_reported":1727759378,"current_range_meters":17600,"station_id":"ce4bh0p2rcd13ifvqd80","pricing_plan_id":"cebpf4jnsgd1na2vs0mg"},{"bike_id":"859f6f17-9196-4815-aa9d-5cdcef592b2a","system_id":"levelo_inurba_marseille","lat":43.28435,"lon":5.39185,"is_reserved":false,"is_disabled":false,"rental_uris":{"android":"levelo://app?vid=859f6f17-9196-4815-aa9d-5cdcef592b2a","ios":"levelo://app?vid=859f6f17-9196-4815-aa9d-5cdcef592b2a"},"vehicle_type_id":"4","last_reported":1727759378,"current_range_meters":38800,"station_id":"ce4bhoh2rcd13ifvqh5g","pricing_plan_id":"cebpf4jnsgd1na2vs0mg"},{"bike_id":"afd9a663-d401-4c20-a038-79ea960feab9","system_id":"levelo_inurba_marseille","lat":43.285339,"lon":5.359921,"is_reserved":false,"is_disabled":false,"rental_uris":{"android":"levelo://app?vid=afd9a663-d401-4c20-a038-79ea960feab9","ios":"levelo://app?vid=afd9a663-d401-4c20-a038-79ea960feab9"},"vehicle_type_id":"4","last_reported":1727759378,"current_range_meters":36400,"station_id":"ce4bgup2rcd13ifvqcn0","pricing_plan_id":"cebpf4jnsgd1na2vs0mg"},{"bike_id":"692b52da-ebae-4f02-9038-5a7809b78483","system_id":"levelo_inurba_marseille","lat":43.30797,"lon":5.43521,"is_reserved":false,"is_disabled":false,"rental_uris":{"android":"levelo://app?vid=692b52da-ebae-4f02-9038-5a7809b78483","ios":"levelo://app?vid=692b52da-ebae-4f02-9038-5a7809b78483"},"vehicle_type_id":"4","last_reported":1727759378,"current_range_meters":39200,"station_id":"ce4bhph2rcd13ifvqheg","pricing_plan_id":"cebpf4jnsgd1na2vs0mg"},{"bike_id":"5f7722c8-e5e6-4dbd-b844-991a7c2ad47c","system_id":"levelo_inurba_marseille","lat":43.28452,"lon":5.35899,"is_reserved":false,"is_disabled":false,"rental_uris":{"android":"levelo://app?vid=5f7722c8-e5e6-4dbd-b844-991a7c2ad47c","ios":"levelo://app?vid=5f7722c8-e5e6-4dbd-b844-991a7c2ad47c"},"vehicle_type_id":"4","last_reported":1727759378,"current_range_meters":34800,"station_id":"ce4bhah2rcd13ifvqei0","pricing_plan_id":"cebpf4jnsgd1na2vs0mg"},{"bike_id":"ea4335fd-97ef-4dd6-a075-cba9426e4874","system_id":"levelo_inurba_marseille","lat":43.27812,"lon":5.40717,"is_reserved":false,"is_disabled":false,"rental_uris":{"android":"levelo://app?vid=ea4335fd-97ef-4dd6-a075-cba9426e4874","ios":"levelo://app?vid=ea4335fd-97ef-4dd6-a075-cba9426e4874"},"vehicle_type_id":"4","last_reported":1727759378,"current_range_meters":38000,"station_id":"ce4bhnh2rcd13ifvqgtg","pricing_plan_id":"cebpf4jnsgd1na2vs0mg"},{"bike_id":"4bdafc63-9244-450f-9cc5-57766add025a","system_id":"levelo_inurba_marseille","lat":43.31271,"lon":5.40169,"is_reserved":false,"is_disabled":false,"rental_uris":{"android":"levelo://app?vid=4bdafc63-9244-450f-9cc5-57766add025a","ios":"levelo://app?vid=4bdafc63-9244-450f-9cc5-57766add025a"},"vehicle_type_id":"4","last_reported":1727759378,"current_range_meters":36000,"station_id":"ce4bh092rcd13ifvqd30","pricing_plan_id":"cebpf4jnsgd1na2vs0mg"},{"bike_id":"068b2f9a-ba2d-481e-a87a-d34831ca26cb","system_id":"levelo_inurba_marseille","lat":43.30144,"lon":5.38081,"is_reserved":false,"is_disabled":false,"rental_uris":{"android":"levelo://app?vid=068b2f9a-ba2d-481e-a87a-d34831ca26cb","ios":"levelo://app?vid=068b2f9a-ba2d-481e-a87a-d34831ca26cb"},"vehicle_type_id":"4","last_reported":1727759378,"current_range_meters":24800,"station_id":"ce4bgjp2rcd13ifvqbh0","pricing_plan_id":"cebpf4jnsgd1na2vs0mg"},{"bike_id":"2a3b116a-1622-41fb-9e3b-9700b558192d","system_id":"levelo_inurba_marseille","lat":43.28019,"lon":5.36087,"is_reserved":false,"is_disabled":false,"rental_uris":{"android":"levelo://app?vid=2a3b116a-1622-41fb-9e3b-9700b558192d","ios":"levelo://app?vid=2a3b116a-1622-41fb-9e3b-9700b558192d"},"vehicle_type_id":"4","last_reported":1727759378,"current_range_meters":14400,"station_id":"","pricing_plan_id":"cebpf4jnsgd1na2vs0mg"},{"bike_id":"961b57d5-ac43-4638-9217-7a2a3548a865","system_id":"levelo_inurba_marseille","lat":43.30947,"lon":5.39041,"is_reserved":false,"is_disabled":false,"rental_uris":{"android":"levelo://app?vid=961b57d5-ac43-4638-9217-7a2a3548a865","ios":"levelo://app?vid=961b57d5-ac43-4638-9217-7a2a3548a865"},"vehicle_type_id":"4","last_reported":1727759378,"current_range_meters":38800,"station_id":"ce4bgup2rcd13ifvqco0","pricing_plan_id":"cebpf4jnsgd1na2vs0mg"},{"bike_id":"c6310a53-842c-4c40-97d7-b8b3158dce16","system_id":"levelo_inurba_marseille","lat":43.31064,"lon":5.38359,"is_reserved":false,"is_disabled":false,"rental_uris":{"android":"levelo://app?vid=c6310a53-842c-4c40-97d7-b8b3158dce16","ios":"levelo://app?vid=c6310a53-842c-4c40-97d7-b8b3158dce16"},"vehicle_type_id":"4","last_reported":1727759378,"current_range_meters":21600,"station_id":"ce4bgv92rcd13ifvqcr0","pricing_plan_id":"cebpf4jnsgd1na2vs0mg"},{"bike_id":"4f06ead8-fca4-4dd6-a4e5-5ed87e045694","system_id":"levelo_inurba_marseille","lat":43.25718,"lon":5.4111,"is_reserved":false,"is_disabled":false,"rental_uris":{"android":"levelo://app?vid=4f06ead8-fca4-4dd6-a4e5-5ed87e045694","ios":"levelo://app?vid=4f06ead8-fca4-4dd6-a4e5-5ed87e045694"},"vehicle_type_id":"4","last_reported":1727759378,"current_range_meters":27600,"station_id":"ce4bhkp2rcd13ifvqgd0","pricing_plan_id":"cebpf4jnsgd1na2vs0mg"},{"bike_id":"3f5205da-c6a9-4034-acd8-b9e43a5c01dd","system_id":"levelo_inurba_marseille","lat":43.30461,"lon":5.379,"is_reserved":false,"is_disabled":false,"rental_uris":{"android":"levelo://app?vid=3f5205da-c6a9-4034-acd8-b9e43a5c01dd","ios":"levelo://app?vid=3f5205da-c6a9-4034-acd8-b9e43a5c01dd"},"vehicle_type_id":"4","last_reported":1727759378,"current_range_meters":28400,"station_id":"ce4bgup2rcd13ifvqcn0","pricing_plan_id":"cebpf4jnsgd1na2vs0mg"},{"bike_id":"032c00f6-88ea-4c58-b489-61e768ed6a1c","system_id":"levelo_inurba_marseille","lat":43.32337,"lon":5.40619,"is_reserved":false,"is_disabled":false,"rental_uris":{"android":"levelo://app?vid=032c00f6-88ea-4c58-b489-61e768ed6a1c","ios":"levelo://app?vid=032c00f6-88ea-4c58-b489-61e768ed6a1c"},"vehicle_type_id":"4","last_reported":1727759378,"current_range_meters":36000,"station_id":"ce4bhq92rcd13ifvqhjg","pricing_plan_id":"cebpf4jnsgd1na2vs0mg"},{"bike_id":"42f236e7-a370-4e2a-8144-184c4e55d3b5","system_id":"levelo_inurba_marseille","lat":43.28668,"lon":5.36352,"is_reserved":false,"is_disabled":false,"rental_uris":{"android":"levelo://app?vid=42f236e7-a370-4e2a-8144-184c4e55d3b5","ios":"levelo://app?vid=42f236e7-a370-4e2a-8144-184c4e55d3b5"},"vehicle_type_id":"4","last_reported":1727759378,"current_range_meters":39200,"station_id":"ce4bhah2rcd13ifvqej0","pricing_plan_id":"cebpf4jnsgd1na2vs0mg"},{"bike_id":"3a2a10a5-6b1f-4bb7-9e95-436e732a6364","system_id":"levelo_inurba_marseille","lat":43.31888,"lon":5.40723,"is_reserved":false,"is_disabled":false,"rental_uris":{"android":"levelo://app?vid=3a2a10a5-6b1f-4bb7-9e95-436e732a6364","ios":"levelo://app?vid=3a2a10a5-6b1f-4bb7-9e95-436e732a6364"},"vehicle_type_id":"4","last_reported":1727759378,"current_range_meters":38800,"station_id":"ce4bhq12rcd13ifvqhig","pricing_plan_id":"cebpf4jnsgd1na2vs0mg"},{"bike_id":"6fd4fe66-0c29-4c23-a8bc-4dd99e44ea36","system_id":"levelo_inurba_marseille","lat":43.284061,"lon":5.375229,"is_reserved":false,"is_disabled":false,"rental_uris":{"android":"levelo://app?vid=6fd4fe66-0c29-4c23-a8bc-4dd99e44ea36","ios":"levelo://app?vid=6fd4fe66-0c29-4c23-a8bc-4dd99e44ea36"},"vehicle_type_id":"4","last_reported":1727759378,"current_range_meters":38000,"station_id":"ce4bh412rcd13ifvqds0","pricing_plan_id":"cebpf4jnsgd1na2vs0mg"},{"bike_id":"7078a88a-c6ad-4e42-a03d-585647e9b75d","system_id":"levelo_inurba_marseille","lat":43.27487,"lon":5.42454,"is_reserved":false,"is_disabled":false,"rental_uris":{"android":"levelo://app?vid=7078a88a-c6ad-4e42-a03d-585647e9b75d","ios":"levelo://app?vid=7078a88a-c6ad-4e42-a03d-585647e9b75d"},"vehicle_type_id":"4","last_reported":1727759378,"current_range_meters":38800,"station_id":"ce4bhn92rcd13ifvqgrg","pricing_plan_id":"cebpf4jnsgd1na2vs0mg"},{"bike_id":"9fc0059e-c96e-482f-b5a5-911df430f0c1","system_id":"levelo_inurba_marseille","lat":43.25083,"lon":5.39517,"is_reserved":false,"is_disabled":false,"rental_uris":{"android":"levelo://app?vid=9fc0059e-c96e-482f-b5a5-911df430f0c1","ios":"levelo://app?vid=9fc0059e-c96e-482f-b5a5-911df430f0c1"},"vehicle_type_id":"4","last_reported":1727759378,"current_range_meters":20000,"station_id":"ce4bhm12rcd13ifvqgkg","pricing_plan_id":"cebpf4jnsgd1na2vs0mg"},{"bike_id":"f6005f79-8ab7-4000-9d10-147791cdc683","system_id":"levelo_inurba_marseille","lat":43.24392,"lon":5.37054,"is_reserved":false,"is_disabled":false,"rental_uris":{"android":"levelo://app?vid=f6005f79-8ab7-4000-9d10-147791cdc683","ios":"levelo://app?vid=f6005f79-8ab7-4000-9d10-147791cdc683"},"vehicle_type_id":"4","last_reported":1727759378,"current_range_meters":38800,"station_id":"ce4bhhh2rcd13ifvqfk0","pricing_plan_id":"cebpf4jnsgd1na2vs0mg"},{"bike_id":"fbbfacba-bf16-4285-a767-b4a178fcb375","system_id":"levelo_inurba_marseille","lat":43.29032,"lon":5.39969,"is_reserved":false,"is_disabled":false,"rental_uris":{"android":"levelo://app?vid=fbbfacba-bf16-4285-a767-b4a178fcb375","ios":"levelo://app?vid=fbbfacba-bf16-4285-a767-b4a178fcb375"},"vehicle_type_id":"4","last_reported":1727759378,"current_range_meters":37600,"station_id":"ce4bh392rcd13ifvqdm0","pricing_plan_id":"cebpf4jnsgd1na2vs0mg"},{"bike_id":"fd582551-3059-4b96-b662-c8ffde0eef18","system_id":"levelo_inurba_marseille","lat":43.30927,"lon":5.40147,"is_reserved":false,"is_disabled":false,"rental_uris":{"android":"levelo://app?vid=fd582551-3059-4b96-b662-c8ffde0eef18","ios":"levelo://app?vid=fd582551-3059-4b96-b662-c8ffde0eef18"},"vehicle_type_id":"4","last_reported":1727759378,"current_range_meters":9600,"station_id":"ce4bgvp2rcd13ifvqct0","pricing_plan_id":"cebpf4jnsgd1na2vs0mg"},{"bike_id":"4bd261ba-c4cf-4bb8-9671-fd42e4200df1","system_id":"levelo_inurba_marseille","lat":43.28362,"lon":5.38626,"is_reserved":false,"is_disabled":false,"rental_uris":{"android":"levelo://app?vid=4bd261ba-c4cf-4bb8-9671-fd42e4200df1","ios":"levelo://app?vid=4bd261ba-c4cf-4bb8-9671-fd42e4200df1"},"vehicle_type_id":"4","last_reported":1727759378,"current_range_meters":38800,"station_id":"ce4bh492rcd13ifvqdvg","pricing_plan_id":"cebpf4jnsgd1na2vs0mg"},{"bike_id":"6b183cd8-2f6b-485a-b86b-7ee498d9e2cc","system_id":"levelo_inurba_marseille","lat":43.27498,"lon":5.42444,"is_reserved":false,"is_disabled":false,"rental_uris":{"android":"levelo://app?vid=6b183cd8-2f6b-485a-b86b-7ee498d9e2cc","ios":"levelo://app?vid=6b183cd8-2f6b-485a-b86b-7ee498d9e2cc"},"vehicle_type_id":"4","last_reported":1727759378,"current_range_meters":38800,"station_id":"ce4bhn92rcd13ifvqgrg","pricing_plan_id":"cebpf4jnsgd1na2vs0mg"},{"bike_id":"1fbfcdac-570c-450f-b663-6cf9642fc3d9","system_id":"levelo_inurba_marseille","lat":43.30652,"lon":5.40081,"is_reserved":false,"is_disabled":false,"rental_uris":{"android":"levelo://app?vid=1fbfcdac-570c-450f-b663-6cf9642fc3d9","ios":"levelo://app?vid=1fbfcdac-570c-450f-b663-6cf9642fc3d9"},"vehicle_type_id":"4","last_reported":1727759378,"current_range_meters":38800,"station_id":"ce4bh112rcd13ifvqda0","pricing_plan_id":"cebpf4jnsgd1na2vs0mg"},{"bike_id":"771e3987-61f1-4090-9be5-bfbeac734e63","system_id":"levelo_inurba_marseille","lat":43.28268,"lon":5.35062,"is_reserved":false,"is_disabled":false,"rental_uris":{"android":"levelo://app?vid=771e3987-61f1-4090-9be5-bfbeac734e63","ios":"levelo://app?vid=771e3987-61f1-4090-9be5-bfbeac734e63"},"vehicle_type_id":"4","last_reported":1727759378,"current_range_meters":11200,"station_id":"ce4bhbp2rcd13ifvqerg","pricing_plan_id":"cebpf4jnsgd1na2vs0mg"},{"bike_id":"331bf754-18c5-49b3-a53c-f5ee9aaecd7b","system_id":"levelo_inurba_marseille","lat":43.31485,"lon":5.37305,"is_reserved":false,"is_disabled":false,"rental_uris":{"android":"levelo://app?vid=331bf754-18c5-49b3-a53c-f5ee9aaecd7b","ios":"levelo://app?vid=331bf754-18c5-49b3-a53c-f5ee9aaecd7b"},"vehicle_type_id":"4","last_reported":1727759378,"current_range_meters":37600,"station_id":"ce4bgt12rcd13ifvqcd0","pricing_plan_id":"cebpf4jnsgd1na2vs0mg"},{"bike_id":"ac066f27-895d-417a-b557-bc08bf23f951","system_id":"levelo_inurba_marseille","lat":43.24395,"lon":5.37059,"is_reserved":false,"is_disabled":false,"rental_uris":{"android":"levelo://app?vid=ac066f27-895d-417a-b557-bc08bf23f951","ios":"levelo://app?vid=ac066f27-895d-417a-b557-bc08bf23f951"},"vehicle_type_id":"4","last_reported":1727759378,"current_range_meters":37600,"station_id":"ce4bhhh2rcd13ifvqfk0","pricing_plan_id":"cebpf4jnsgd1na2vs0mg"},{"bike_id":"d9685031-e7c0-43a0-83cb-41ae49fb0e29","system_id":"levelo_inurba_marseille","lat":43.30592,"lon":5.39354,"is_reserved":false,"is_disabled":false,"rental_uris":{"android":"levelo://app?vid=d9685031-e7c0-43a0-83cb-41ae49fb0e29","ios":"levelo://app?vid=d9685031-e7c0-43a0-83cb-41ae49fb0e29"},"vehicle_type_id":"4","last_reported":1727759378,"current_range_meters":32800,"station_id":"ce4bh0p2rcd13ifvqd80","pricing_plan_id":"cebpf4jnsgd1na2vs0mg"},{"bike_id":"2ac9143f-13d8-44dc-a8de-64b3e8c1fc73","system_id":"levelo_inurba_marseille","lat":43.28436,"lon":5.39193,"is_reserved":false,"is_disabled":false,"rental_uris":{"android":"levelo://app?vid=2ac9143f-13d8-44dc-a8de-64b3e8c1fc73","ios":"levelo://app?vid=2ac9143f-13d8-44dc-a8de-64b3e8c1fc73"},"vehicle_type_id":"4","last_reported":1727759378,"current_range_meters":39200,"station_id":"ce4bhoh2rcd13ifvqh5g","pricing_plan_id":"cebpf4jnsgd1na2vs0mg"},{"bike_id":"e33b5774-bead-4005-8787-a219fad5a46e","system_id":"levelo_inurba_marseille","lat":43.22933,"lon":5.35379,"is_reserved":false,"is_disabled":false,"rental_uris":{"android":"levelo://app?vid=e33b5774-bead-4005-8787-a219fad5a46e","ios":"levelo://app?vid=e33b5774-bead-4005-8787-a219fad5a46e"},"vehicle_type_id":"4","last_reported":1727759378,"current_range_meters":38000,"station_id":"cpo3532slgdg3j2ikp40","pricing_plan_id":"cebpf4jnsgd1na2vs0mg"},{"bike_id":"10ae53f8-5d5f-4ea6-8026-811ac8e269da","system_id":"levelo_inurba_marseille","lat":43.27202,"lon":5.39173,"is_reserved":false,"is_disabled":false,"rental_uris":{"android":"levelo://app?vid=10ae53f8-5d5f-4ea6-8026-811ac8e269da","ios":"levelo://app?vid=10ae53f8-5d5f-4ea6-8026-811ac8e269da"},"vehicle_type_id":"4","last_reported":1727759378,"current_range_meters":3600,"station_id":"ce4bhhp2rcd13ifvqfm0","pricing_plan_id":"cebpf4jnsgd1na2vs0mg"},{"bike_id":"5da57b22-3ba2-4b50-a433-4bb78b8882bb","system_id":"levelo_inurba_marseille","lat":43.29045,"lon":5.35918,"is_reserved":false,"is_disabled":false,"rental_uris":{"android":"levelo://app?vid=5da57b22-3ba2-4b50-a433-4bb78b8882bb","ios":"levelo://app?vid=5da57b22-3ba2-4b50-a433-4bb78b8882bb"},"vehicle_type_id":"4","last_reported":1727759378,"current_range_meters":39200,"station_id":"ce4bha92rcd13ifvqeg0","pricing_plan_id":"cebpf4jnsgd1na2vs0mg"},{"bike_id":"d106df73-0f94-4ce9-b9fe-3f7e7fa30584","system_id":"levelo_inurba_marseille","lat":43.29514,"lon":5.39402,"is_reserved":false,"is_disabled":false,"rental_uris":{"android":"levelo://app?vid=d106df73-0f94-4ce9-b9fe-3f7e7fa30584","ios":"levelo://app?vid=d106df73-0f94-4ce9-b9fe-3f7e7fa30584"},"vehicle_type_id":"4","last_reported":1727759378,"current_range_meters":13600,"station_id":"ce4bh292rcd13ifvqdf0","pricing_plan_id":"cebpf4jnsgd1na2vs0mg"},{"bike_id":"4ca8fc43-7223-4a26-9506-42cde5d42328","system_id":"levelo_inurba_marseille","lat":43.30461,"lon":5.37901,"is_reserved":false,"is_disabled":false,"rental_uris":{"android":"levelo://app?vid=4ca8fc43-7223-4a26-9506-42cde5d42328","ios":"levelo://app?vid=4ca8fc43-7223-4a26-9506-42cde5d42328"},"vehicle_type_id":"4","last_reported":1727759378,"current_range_meters":4400,"station_id":"ce4bgup2rcd13ifvqcn0","pricing_plan_id":"cebpf4jnsgd1na2vs0mg"},{"bike_id":"5da9ad07-5c53-4cb7-a3fb-6c01d385f84b","system_id":"levelo_inurba_marseille","lat":43.24666,"lon":5.3816,"is_reserved":false,"is_disabled":false,"rental_uris":{"android":"levelo://app?vid=5da9ad07-5c53-4cb7-a3fb-6c01d385f84b","ios":"levelo://app?vid=5da9ad07-5c53-4cb7-a3fb-6c01d385f84b"},"vehicle_type_id":"4","last_reported":1727759378,"current_range_meters":38800,"station_id":"ce4bhih2rcd13ifvqfr0","pricing_plan_id":"cebpf4jnsgd1na2vs0mg"},{"bike_id":"22e65e0a-096d-4887-a119-61dcd48b6861","system_id":"levelo_inurba_marseille","lat":43.32481,"lon":5.36571,"is_reserved":false,"is_disabled":false,"rental_uris":{"android":"levelo://app?vid=22e65e0a-096d-4887-a119-61dcd48b6861","ios":"levelo://app?vid=22e65e0a-096d-4887-a119-61dcd48b6861"},"vehicle_type_id":"4","last_reported":1727759378,"current_range_meters":39200,"station_id":"ce4bhs12rcd13ifvqhvg","pricing_plan_id":"cebpf4jnsgd1na2vs0mg"},{"bike_id":"3648acaf-9a07-42d1-9b82-54e90669d334","system_id":"levelo_inurba_marseille","lat":43.24174,"lon":5.39725,"is_reserved":false,"is_disabled":false,"rental_uris":{"android":"levelo://app?vid=3648acaf-9a07-42d1-9b82-54e90669d334","ios":"levelo://app?vid=3648acaf-9a07-42d1-9b82-54e90669d334"},"vehicle_type_id":"4","last_reported":1727759378,"current_range_meters":38400,"station_id":"ce4bhn12rcd13ifvqgpg","pricing_plan_id":"cebpf4jnsgd1na2vs0mg"},{"bike_id":"fe5454b1-a52f-4f6c-9287-e09a12de6e53","system_id":"levelo_inurba_marseille","lat":43.24801,"lon":5.37456,"is_reserved":false,"is_disabled":false,"rental_uris":{"android":"levelo://app?vid=fe5454b1-a52f-4f6c-9287-e09a12de6e53","ios":"levelo://app?vid=fe5454b1-a52f-4f6c-9287-e09a12de6e53"},"vehicle_type_id":"4","last_reported":1727759378,"current_range_meters":38800,"station_id":"ce4bhgh2rcd13ifvqfb0","pricing_plan_id":"cebpf4jnsgd1na2vs0mg"},{"bike_id":"4c7e3c0d-4983-42af-ba97-4d8f2a1c7ae5","system_id":"levelo_inurba_marseille","lat":43.31995,"lon":5.38146,"is_reserved":false,"is_disabled":false,"rental_uris":{"android":"levelo://app?vid=4c7e3c0d-4983-42af-ba97-4d8f2a1c7ae5","ios":"levelo://app?vid=4c7e3c0d-4983-42af-ba97-4d8f2a1c7ae5"},"vehicle_type_id":"4","last_reported":1727759378,"current_range_meters":38800,"station_id":"ce4bhr12rcd13ifvqhpg","pricing_plan_id":"cebpf4jnsgd1na2vs0mg"},{"bike_id":"7fb5d065-2ef8-4492-8b6f-c63a16373982","system_id":"levelo_inurba_marseille","lat":43.30538,"lon":5.36561,"is_reserved":false,"is_disabled":false,"rental_uris":{"android":"levelo://app?vid=7fb5d065-2ef8-4492-8b6f-c63a16373982","ios":"levelo://app?vid=7fb5d065-2ef8-4492-8b6f-c63a16373982"},"vehicle_type_id":"4","last_reported":1727759378,"current_range_meters":30000,"station_id":"ce4bgs12rcd13ifvqcag","pricing_plan_id":"cebpf4jnsgd1na2vs0mg"},{"bike_id":"f3796b83-d0ff-4e28-ab91-f20a8aacf6fc","system_id":"levelo_inurba_marseille","lat":43.28732,"lon":5.36092,"is_reserved":false,"is_disabled":false,"rental_uris":{"android":"levelo://app?vid=f3796b83-d0ff-4e28-ab91-f20a8aacf6fc","ios":"levelo://app?vid=f3796b83-d0ff-4e28-ab91-f20a8aacf6fc"},"vehicle_type_id":"4","last_reported":1727759378,"current_range_meters":36800,"station_id":"cki0cbj6b192h4jlfktg","pricing_plan_id":"cebpf4jnsgd1na2vs0mg"},{"bike_id":"acffb2a1-6858-40f3-b3f8-9ca2ae0dad68","system_id":"levelo_inurba_marseille","lat":43.28939,"lon":5.39636,"is_reserved":false,"is_disabled":false,"rental_uris":{"android":"levelo://app?vid=acffb2a1-6858-40f3-b3f8-9ca2ae0dad68","ios":"levelo://app?vid=acffb2a1-6858-40f3-b3f8-9ca2ae0dad68"},"vehicle_type_id":"4","last_reported":1727759378,"current_range_meters":38400,"station_id":"ce4bh3h2rcd13ifvqdn0","pricing_plan_id":"cebpf4jnsgd1na2vs0mg"},{"bike_id":"5dbf8eb5-61aa-4f3c-ae3e-9d25cdeafbe1","system_id":"levelo_inurba_marseille","lat":43.31997,"lon":5.3815,"is_reserved":false,"is_disabled":false,"rental_uris":{"android":"levelo://app?vid=5dbf8eb5-61aa-4f3c-ae3e-9d25cdeafbe1","ios":"levelo://app?vid=5dbf8eb5-61aa-4f3c-ae3e-9d25cdeafbe1"},"vehicle_type_id":"4","last_reported":1727759378,"current_range_meters":38800,"station_id":"ce4bhr12rcd13ifvqhpg","pricing_plan_id":"cebpf4jnsgd1na2vs0mg"},{"bike_id":"cd1b2a3e-a454-4fcd-9e85-c389c955b12e","system_id":"levelo_inurba_marseille","lat":43.27918,"lon":5.39585,"is_reserved":false,"is_disabled":false,"rental_uris":{"android":"levelo://app?vid=cd1b2a3e-a454-4fcd-9e85-c389c955b12e","ios":"levelo://app?vid=cd1b2a3e-a454-4fcd-9e85-c389c955b12e"},"vehicle_type_id":"4","last_reported":1727759378,"current_range_meters":16400,"station_id":"ce4bhf92rcd13ifvqf40","pricing_plan_id":"cebpf4jnsgd1na2vs0mg"},{"bike_id":"ada71883-4a66-4523-b9de-ac95acea5059","system_id":"levelo_inurba_marseille","lat":43.30801,"lon":5.43527,"is_reserved":false,"is_disabled":false,"rental_uris":{"android":"levelo://app?vid=ada71883-4a66-4523-b9de-ac95acea5059","ios":"levelo://app?vid=ada71883-4a66-4523-b9de-ac95acea5059"},"vehicle_type_id":"4","last_reported":1727759378,"current_range_meters":36800,"station_id":"ce4bhph2rcd13ifvqheg","pricing_plan_id":"cebpf4jnsgd1na2vs0mg"},{"bike_id":"964dc427-98a1-4551-bb29-59b66c476780","system_id":"levelo_inurba_marseille","lat":43.26946,"lon":5.4025,"is_reserved":false,"is_disabled":false,"rental_uris":{"android":"levelo://app?vid=964dc427-98a1-4551-bb29-59b66c476780","ios":"levelo://app?vid=964dc427-98a1-4551-bb29-59b66c476780"},"vehicle_type_id":"4","last_reported":1727759378,"current_range_meters":38000,"station_id":"cjm6bp8fraef2m0cb0m0","pricing_plan_id":"cebpf4jnsgd1na2vs0mg"},{"bike_id":"b1a97cb7-4a07-4276-b4d0-a8c6af98ab72","system_id":"levelo_inurba_marseille","lat":43.29506,"lon":5.39398,"is_reserved":false,"is_disabled":false,"rental_uris":{"android":"levelo://app?vid=b1a97cb7-4a07-4276-b4d0-a8c6af98ab72","ios":"levelo://app?vid=b1a97cb7-4a07-4276-b4d0-a8c6af98ab72"},"vehicle_type_id":"4","last_reported":1727759378,"current_range_meters":38800,"station_id":"ce4bh292rcd13ifvqdf0","pricing_plan_id":"cebpf4jnsgd1na2vs0mg"},{"bike_id":"aa2b390e-4c45-4f84-909c-e24af45d5d9f","system_id":"levelo_inurba_marseille","lat":43.29553,"lon":5.42285,"is_reserved":false,"is_disabled":false,"rental_uris":{"android":"levelo://app?vid=aa2b390e-4c45-4f84-909c-e24af45d5d9f","ios":"levelo://app?vid=aa2b390e-4c45-4f84-909c-e24af45d5d9f"},"vehicle_type_id":"4","last_reported":1727759378,"current_range_meters":38400,"station_id":"ce4bhph2rcd13ifvqhdg","pricing_plan_id":"cebpf4jnsgd1na2vs0mg"},{"bike_id":"e9e2bec2-b3a7-4a3c-aeb7-bb25da1b7406","system_id":"levelo_inurba_marseille","lat":43.31675,"lon":5.40476,"is_reserved":false,"is_disabled":false,"rental_uris":{"android":"levelo://app?vid=e9e2bec2-b3a7-4a3c-aeb7-bb25da1b7406","ios":"levelo://app?vid=e9e2bec2-b3a7-4a3c-aeb7-bb25da1b7406"},"vehicle_type_id":"4","last_reported":1727759378,"current_range_meters":19600,"station_id":"ce4bh012rcd13ifvqd00","pricing_plan_id":"cebpf4jnsgd1na2vs0mg"},{"bike_id":"bb92264b-4817-4113-812f-867682ef15b3","system_id":"levelo_inurba_marseille","lat":43.3149,"lon":5.3731,"is_reserved":false,"is_disabled":false,"rental_uris":{"android":"levelo://app?vid=bb92264b-4817-4113-812f-867682ef15b3","ios":"levelo://app?vid=bb92264b-4817-4113-812f-867682ef15b3"},"vehicle_type_id":"4","last_reported":1727759378,"current_range_meters":35200,"station_id":"ce4bgt12rcd13ifvqcd0","pricing_plan_id":"cebpf4jnsgd1na2vs0mg"},{"bike_id":"6639f068-b377-4358-a681-7e5b57758a71","system_id":"levelo_inurba_marseille","lat":43.29413,"lon":5.38634,"is_reserved":false,"is_disabled":false,"rental_uris":{"android":"levelo://app?vid=6639f068-b377-4358-a681-7e5b57758a71","ios":"levelo://app?vid=6639f068-b377-4358-a681-7e5b57758a71"},"vehicle_type_id":"4","last_reported":1727759378,"current_range_meters":38000,"station_id":"ce4bh2h2rcd13ifvqdh0","pricing_plan_id":"cebpf4jnsgd1na2vs0mg"},{"bike_id":"e16e97b3-f1a5-4dfb-a258-135f4936a5e7","system_id":"levelo_inurba_marseille","lat":43.31075,"lon":5.38348,"is_reserved":false,"is_disabled":false,"rental_uris":{"android":"levelo://app?vid=e16e97b3-f1a5-4dfb-a258-135f4936a5e7","ios":"levelo://app?vid=e16e97b3-f1a5-4dfb-a258-135f4936a5e7"},"vehicle_type_id":"4","last_reported":1727759378,"current_range_meters":38400,"station_id":"ce4bgv92rcd13ifvqcr0","pricing_plan_id":"cebpf4jnsgd1na2vs0mg"},{"bike_id":"5d34d44a-5657-4046-9997-746fa7323ea5","system_id":"levelo_inurba_marseille","lat":43.32549,"lon":5.41414,"is_reserved":false,"is_disabled":false,"rental_uris":{"android":"levelo://app?vid=5d34d44a-5657-4046-9997-746fa7323ea5","ios":"levelo://app?vid=5d34d44a-5657-4046-9997-746fa7323ea5"},"vehicle_type_id":"4","last_reported":1727759378,"current_range_meters":38000,"station_id":"ce4bhq12rcd13ifvqhhg","pricing_plan_id":"cebpf4jnsgd1na2vs0mg"},{"bike_id":"0025408f-f6c1-481f-9d54-9a4f4861dd4c","system_id":"levelo_inurba_marseille","lat":43.31277,"lon":5.40163,"is_reserved":false,"is_disabled":false,"rental_uris":{"android":"levelo://app?vid=0025408f-f6c1-481f-9d54-9a4f4861dd4c","ios":"levelo://app?vid=0025408f-f6c1-481f-9d54-9a4f4861dd4c"},"vehicle_type_id":"4","last_reported":1727759378,"current_range_meters":6000,"station_id":"ce4bh092rcd13ifvqd30","pricing_plan_id":"cebpf4jnsgd1na2vs0mg"},{"bike_id":"7f22fe26-60be-4e80-bc02-56eb1bf11ce6","system_id":"levelo_inurba_marseille","lat":43.25106,"lon":5.40328,"is_reserved":false,"is_disabled":false,"rental_uris":{"android":"levelo://app?vid=7f22fe26-60be-4e80-bc02-56eb1bf11ce6","ios":"levelo://app?vid=7f22fe26-60be-4e80-bc02-56eb1bf11ce6"},"vehicle_type_id":"4","last_reported":1727759378,"current_range_meters":38800,"station_id":"ce4bhlh2rcd13ifvqgig","pricing_plan_id":"cebpf4jnsgd1na2vs0mg"},{"bike_id":"a85ce21b-5ed7-46cd-a8e6-5ed48ca6beaf","system_id":"levelo_inurba_marseille","lat":43.26783,"lon":5.39422,"is_reserved":false,"is_disabled":false,"rental_uris":{"android":"levelo://app?vid=a85ce21b-5ed7-46cd-a8e6-5ed48ca6beaf","ios":"levelo://app?vid=a85ce21b-5ed7-46cd-a8e6-5ed48ca6beaf"},"vehicle_type_id":"4","last_reported":1727759378,"current_range_meters":38400,"station_id":"ce4bhh12rcd13ifvqfg0","pricing_plan_id":"cebpf4jnsgd1na2vs0mg"},{"bike_id":"95233c5f-f9ca-484b-86fa-16a68e32bc0a","system_id":"levelo_inurba_marseille","lat":43.30427,"lon":5.39754,"is_reserved":false,"is_disabled":false,"rental_uris":{"android":"levelo://app?vid=95233c5f-f9ca-484b-86fa-16a68e32bc0a","ios":"levelo://app?vid=95233c5f-f9ca-484b-86fa-16a68e32bc0a"},"vehicle_type_id":"4","last_reported":1727759378,"current_range_meters":37600,"station_id":"ce4bh092rcd13ifvqd20","pricing_plan_id":"cebpf4jnsgd1na2vs0mg"},{"bike_id":"63f10e86-8660-4331-a40e-1476b016bc7b","system_id":"levelo_inurba_marseille","lat":43.23431,"lon":5.35944,"is_reserved":false,"is_disabled":false,"rental_uris":{"android":"levelo://app?vid=63f10e86-8660-4331-a40e-1476b016bc7b","ios":"levelo://app?vid=63f10e86-8660-4331-a40e-1476b016bc7b"},"vehicle_type_id":"4","last_reported":1727759378,"current_range_meters":32400,"station_id":"","pricing_plan_id":"cebpf4jnsgd1na2vs0mg"},{"bike_id":"b20d6650-28ae-4a04-bb72-c5bb4182ce39","system_id":"levelo_inurba_marseille","lat":43.31536,"lon":5.3803,"is_reserved":false,"is_disabled":false,"rental_uris":{"android":"levelo://app?vid=b20d6650-28ae-4a04-bb72-c5bb4182ce39","ios":"levelo://app?vid=b20d6650-28ae-4a04-bb72-c5bb4182ce39"},"vehicle_type_id":"4","last_reported":1727759378,"current_range_meters":7200,"station_id":"ce4bhsp2rcd13ifvqi50","pricing_plan_id":"cebpf4jnsgd1na2vs0mg"},{"bike_id":"85f8698a-70fa-4c5f-bc37-d5b672eac777","system_id":"levelo_inurba_marseille","lat":43.28103,"lon":5.37853,"is_reserved":false,"is_disabled":false,"rental_uris":{"android":"levelo://app?vid=85f8698a-70fa-4c5f-bc37-d5b672eac777","ios":"levelo://app?vid=85f8698a-70fa-4c5f-bc37-d5b672eac777"},"vehicle_type_id":"4","last_reported":1727759378,"current_range_meters":36000,"station_id":"ce4bha12rcd13ifvqee0","pricing_plan_id":"cebpf4jnsgd1na2vs0mg"},{"bike_id":"2a57891e-38a9-487a-8477-b737cb35bb34","system_id":"levelo_inurba_marseille","lat":43.30939,"lon":5.4014,"is_reserved":false,"is_disabled":false,"rental_uris":{"android":"levelo://app?vid=2a57891e-38a9-487a-8477-b737cb35bb34","ios":"levelo://app?vid=2a57891e-38a9-487a-8477-b737cb35bb34"},"vehicle_type_id":"4","last_reported":1727759378,"current_range_meters":36400,"station_id":"ce4bgvp2rcd13ifvqct0","pricing_plan_id":"cebpf4jnsgd1na2vs0mg"},{"bike_id":"0768601a-63fc-48b6-af0b-e3c24f752213","system_id":"levelo_inurba_marseille","lat":43.33716,"lon":5.3918,"is_reserved":false,"is_disabled":false,"rental_uris":{"android":"levelo://app?vid=0768601a-63fc-48b6-af0b-e3c24f752213","ios":"levelo://app?vid=0768601a-63fc-48b6-af0b-e3c24f752213"},"vehicle_type_id":"4","last_reported":1727759378,"current_range_meters":8800,"station_id":"ce4bhr92rcd13ifvqhsg","pricing_plan_id":"cebpf4jnsgd1na2vs0mg"},{"bike_id":"338c802c-f8cb-430f-a8d1-f33bdd0ead8a","system_id":"levelo_inurba_marseille","lat":43.24394,"lon":5.37065,"is_reserved":false,"is_disabled":false,"rental_uris":{"android":"levelo://app?vid=338c802c-f8cb-430f-a8d1-f33bdd0ead8a","ios":"levelo://app?vid=338c802c-f8cb-430f-a8d1-f33bdd0ead8a"},"vehicle_type_id":"4","last_reported":1727759378,"current_range_meters":38800,"station_id":"ce4bhhh2rcd13ifvqfk0","pricing_plan_id":"cebpf4jnsgd1na2vs0mg"},{"bike_id":"d8e5e8c2-ae26-4e8a-b2f8-144fc3a14157","system_id":"levelo_inurba_marseille","lat":43.305391,"lon":5.384256,"is_reserved":false,"is_disabled":false,"rental_uris":{"android":"levelo://app?vid=d8e5e8c2-ae26-4e8a-b2f8-144fc3a14157","ios":"levelo://app?vid=d8e5e8c2-ae26-4e8a-b2f8-144fc3a14157"},"vehicle_type_id":"4","last_reported":1727759378,"current_range_meters":38800,"station_id":"ce4bgg92rcd13ifvqb30","pricing_plan_id":"cebpf4jnsgd1na2vs0mg"},{"bike_id":"847f88c4-d44a-4f8f-b26a-e93b93fedb5c","system_id":"levelo_inurba_marseille","lat":43.31278,"lon":5.40165,"is_reserved":false,"is_disabled":false,"rental_uris":{"android":"levelo://app?vid=847f88c4-d44a-4f8f-b26a-e93b93fedb5c","ios":"levelo://app?vid=847f88c4-d44a-4f8f-b26a-e93b93fedb5c"},"vehicle_type_id":"4","last_reported":1727759378,"current_range_meters":38800,"station_id":"ce4bh092rcd13ifvqd30","pricing_plan_id":"cebpf4jnsgd1na2vs0mg"},{"bike_id":"1e37e45a-ffba-4ff3-bbd3-5a2788cc89b2","system_id":"levelo_inurba_marseille","lat":43.33604,"lon":5.41031,"is_reserved":false,"is_disabled":false,"rental_uris":{"android":"levelo://app?vid=1e37e45a-ffba-4ff3-bbd3-5a2788cc89b2","ios":"levelo://app?vid=1e37e45a-ffba-4ff3-bbd3-5a2788cc89b2"},"vehicle_type_id":"4","last_reported":1727759378,"current_range_meters":38800,"station_id":"ce4bhqh2rcd13ifvqhmg","pricing_plan_id":"cebpf4jnsgd1na2vs0mg"},{"bike_id":"c7c8be41-8ab6-4808-a6c3-69923c56de0d","system_id":"levelo_inurba_marseille","lat":43.30774,"lon":5.37648,"is_reserved":false,"is_disabled":false,"rental_uris":{"android":"levelo://app?vid=c7c8be41-8ab6-4808-a6c3-69923c56de0d","ios":"levelo://app?vid=c7c8be41-8ab6-4808-a6c3-69923c56de0d"},"vehicle_type_id":"4","last_reported":1727759378,"current_range_meters":38800,"station_id":"ce4bgv92rcd13ifvqcq0","pricing_plan_id":"cebpf4jnsgd1na2vs0mg"},{"bike_id":"e2daef4f-c38f-4a92-bfd2-cae3d37e0507","system_id":"levelo_inurba_marseille","lat":43.30948,"lon":5.39032,"is_reserved":false,"is_disabled":false,"rental_uris":{"android":"levelo://app?vid=e2daef4f-c38f-4a92-bfd2-cae3d37e0507","ios":"levelo://app?vid=e2daef4f-c38f-4a92-bfd2-cae3d37e0507"},"vehicle_type_id":"4","last_reported":1727759378,"current_range_meters":38800,"station_id":"ce4bgup2rcd13ifvqco0","pricing_plan_id":"cebpf4jnsgd1na2vs0mg"},{"bike_id":"f587029b-345a-4061-8199-21049f1466f6","system_id":"levelo_inurba_marseille","lat":43.33021,"lon":5.3904,"is_reserved":false,"is_disabled":false,"rental_uris":{"android":"levelo://app?vid=f587029b-345a-4061-8199-21049f1466f6","ios":"levelo://app?vid=f587029b-345a-4061-8199-21049f1466f6"},"vehicle_type_id":"4","last_reported":1727759378,"current_range_meters":28800,"station_id":"ce4bhr92rcd13ifvqhrg","pricing_plan_id":"cebpf4jnsgd1na2vs0mg"},{"bike_id":"0d77effa-5a61-4fbc-bb28-d38022cbf155","system_id":"levelo_inurba_marseille","lat":43.2558,"lon":5.38238,"is_reserved":false,"is_disabled":false,"rental_uris":{"android":"levelo://app?vid=0d77effa-5a61-4fbc-bb28-d38022cbf155","ios":"levelo://app?vid=0d77effa-5a61-4fbc-bb28-d38022cbf155"},"vehicle_type_id":"4","last_reported":1727759378,"current_range_meters":30000,"station_id":"ce4bhih2rcd13ifvqfs0","pricing_plan_id":"cebpf4jnsgd1na2vs0mg"},{"bike_id":"c8410ec8-cbe8-4c9b-acfa-53ae85a8ad89","system_id":"levelo_inurba_marseille","lat":43.26806,"lon":5.40271,"is_reserved":false,"is_disabled":false,"rental_uris":{"android":"levelo://app?vid=c8410ec8-cbe8-4c9b-acfa-53ae85a8ad89","ios":"levelo://app?vid=c8410ec8-cbe8-4c9b-acfa-53ae85a8ad89"},"vehicle_type_id":"4","last_reported":1727759378,"current_range_meters":38400,"station_id":"ce501612rcd8frsf0b60","pricing_plan_id":"cebpf4jnsgd1na2vs0mg"},{"bike_id":"8c4ebe2e-3d3c-4180-9998-d97ba634f764","system_id":"levelo_inurba_marseille","lat":43.27946,"lon":5.41035,"is_reserved":false,"is_disabled":false,"rental_uris":{"android":"levelo://app?vid=8c4ebe2e-3d3c-4180-9998-d97ba634f764","ios":"levelo://app?vid=8c4ebe2e-3d3c-4180-9998-d97ba634f764"},"vehicle_type_id":"4","last_reported":1727759378,"current_range_meters":38800,"station_id":"ce4bhnp2rcd13ifvqh0g","pricing_plan_id":"cebpf4jnsgd1na2vs0mg"},{"bike_id":"2e6c6ae0-8107-47a9-a900-543202f5f130","system_id":"levelo_inurba_marseille","lat":43.28925,"lon":5.3839,"is_reserved":false,"is_disabled":false,"rental_uris":{"android":"levelo://app?vid=2e6c6ae0-8107-47a9-a900-543202f5f130","ios":"levelo://app?vid=2e6c6ae0-8107-47a9-a900-543202f5f130"},"vehicle_type_id":"4","last_reported":1727759378,"current_range_meters":38800,"station_id":"ce4bh612rcd13ifvqe6g","pricing_plan_id":"cebpf4jnsgd1na2vs0mg"},{"bike_id":"1bb3362e-1348-4669-97c0-391a9a4ae007","system_id":"levelo_inurba_marseille","lat":43.29266,"lon":5.4012,"is_reserved":false,"is_disabled":false,"rental_uris":{"android":"levelo://app?vid=1bb3362e-1348-4669-97c0-391a9a4ae007","ios":"levelo://app?vid=1bb3362e-1348-4669-97c0-391a9a4ae007"},"vehicle_type_id":"4","last_reported":1727759378,"current_range_meters":38800,"station_id":"ce4bh312rcd13ifvqdk0","pricing_plan_id":"cebpf4jnsgd1na2vs0mg"},{"bike_id":"564ab5aa-2480-4970-8b4c-304e5443c6ac","system_id":"levelo_inurba_marseille","lat":43.25718,"lon":5.41115,"is_reserved":false,"is_disabled":false,"rental_uris":{"android":"levelo://app?vid=564ab5aa-2480-4970-8b4c-304e5443c6ac","ios":"levelo://app?vid=564ab5aa-2480-4970-8b4c-304e5443c6ac"},"vehicle_type_id":"4","last_reported":1727759378,"current_range_meters":28000,"station_id":"ce4bhkp2rcd13ifvqgd0","pricing_plan_id":"cebpf4jnsgd1na2vs0mg"},{"bike_id":"1556b97b-7055-4c02-9b93-26a9e32683bd","system_id":"levelo_inurba_marseille","lat":43.27171,"lon":5.4099,"is_reserved":false,"is_disabled":false,"rental_uris":{"android":"levelo://app?vid=1556b97b-7055-4c02-9b93-26a9e32683bd","ios":"levelo://app?vid=1556b97b-7055-4c02-9b93-26a9e32683bd"},"vehicle_type_id":"4","last_reported":1727759378,"current_range_meters":38800,"station_id":"ce4bhl12rcd13ifvqgf0","pricing_plan_id":"cebpf4jnsgd1na2vs0mg"},{"bike_id":"ea86d9aa-3025-4e42-a879-d59d63acfa56","system_id":"levelo_inurba_marseille","lat":43.3236,"lon":5.38879,"is_reserved":false,"is_disabled":false,"rental_uris":{"android":"levelo://app?vid=ea86d9aa-3025-4e42-a879-d59d63acfa56","ios":"levelo://app?vid=ea86d9aa-3025-4e42-a879-d59d63acfa56"},"vehicle_type_id":"4","last_reported":1727759378,"current_range_meters":38400,"station_id":"ce4bhqp2rcd13ifvqhog","pricing_plan_id":"cebpf4jnsgd1na2vs0mg"},{"bike_id":"a34c92e4-877c-46ba-8bf4-74109a2755f3","system_id":"levelo_inurba_marseille","lat":43.27174,"lon":5.40989,"is_reserved":false,"is_disabled":false,"rental_uris":{"android":"levelo://app?vid=a34c92e4-877c-46ba-8bf4-74109a2755f3","ios":"levelo://app?vid=a34c92e4-877c-46ba-8bf4-74109a2755f3"},"vehicle_type_id":"4","last_reported":1727759378,"current_range_meters":38800,"station_id":"ce4bhl12rcd13ifvqgf0","pricing_plan_id":"cebpf4jnsgd1na2vs0mg"},{"bike_id":"b07279f0-0817-4a51-ba92-c54a03d00832","system_id":"levelo_inurba_marseille","lat":43.26501,"lon":5.39517,"is_reserved":false,"is_disabled":false,"rental_uris":{"android":"levelo://app?vid=b07279f0-0817-4a51-ba92-c54a03d00832","ios":"levelo://app?vid=b07279f0-0817-4a51-ba92-c54a03d00832"},"vehicle_type_id":"4","last_reported":1727759378,"current_range_meters":38000,"station_id":"ce4bhi12rcd13ifvqfq0","pricing_plan_id":"cebpf4jnsgd1na2vs0mg"},{"bike_id":"d4bf0cfc-9960-41ec-af81-381bb44a761f","system_id":"levelo_inurba_marseille","lat":43.31069,"lon":5.38357,"is_reserved":false,"is_disabled":false,"rental_uris":{"android":"levelo://app?vid=d4bf0cfc-9960-41ec-af81-381bb44a761f","ios":"levelo://app?vid=d4bf0cfc-9960-41ec-af81-381bb44a761f"},"vehicle_type_id":"4","last_reported":1727759378,"current_range_meters":38400,"station_id":"ce4bgv92rcd13ifvqcr0","pricing_plan_id":"cebpf4jnsgd1na2vs0mg"},{"bike_id":"17cc47b6-dc31-4d70-a81e-bc0afd588111","system_id":"levelo_inurba_marseille","lat":43.28423,"lon":5.34983,"is_reserved":false,"is_disabled":false,"rental_uris":{"android":"levelo://app?vid=17cc47b6-dc31-4d70-a81e-bc0afd588111","ios":"levelo://app?vid=17cc47b6-dc31-4d70-a81e-bc0afd588111"},"vehicle_type_id":"4","last_reported":1727759378,"current_range_meters":31200,"station_id":"ce4bhbh2rcd13ifvqepg","pricing_plan_id":"cebpf4jnsgd1na2vs0mg"},{"bike_id":"63628fa5-24d1-4385-b1fa-6d6d980e5207","system_id":"levelo_inurba_marseille","lat":43.27323,"lon":5.39098,"is_reserved":false,"is_disabled":false,"rental_uris":{"android":"levelo://app?vid=63628fa5-24d1-4385-b1fa-6d6d980e5207","ios":"levelo://app?vid=63628fa5-24d1-4385-b1fa-6d6d980e5207"},"vehicle_type_id":"4","last_reported":1727759378,"current_range_meters":38000,"station_id":"ce4bhgp2rcd13ifvqfe0","pricing_plan_id":"cebpf4jnsgd1na2vs0mg"},{"bike_id":"96d10b1f-6b81-4134-a8c4-3a4bf34c7275","system_id":"levelo_inurba_marseille","lat":43.2963,"lon":5.40596,"is_reserved":false,"is_disabled":false,"rental_uris":{"android":"levelo://app?vid=96d10b1f-6b81-4134-a8c4-3a4bf34c7275","ios":"levelo://app?vid=96d10b1f-6b81-4134-a8c4-3a4bf34c7275"},"vehicle_type_id":"4","last_reported":1727759378,"current_range_meters":37600,"station_id":"ce4bh0h2rcd13ifvqd60","pricing_plan_id":"cebpf4jnsgd1na2vs0mg"},{"bike_id":"59dea60b-0868-493c-8d4e-1efd870d8b0c","system_id":"levelo_inurba_marseille","lat":43.31542,"lon":5.38032,"is_reserved":false,"is_disabled":false,"rental_uris":{"android":"levelo://app?vid=59dea60b-0868-493c-8d4e-1efd870d8b0c","ios":"levelo://app?vid=59dea60b-0868-493c-8d4e-1efd870d8b0c"},"vehicle_type_id":"4","last_reported":1727759378,"current_range_meters":6800,"station_id":"ce4bhsp2rcd13ifvqi50","pricing_plan_id":"cebpf4jnsgd1na2vs0mg"},{"bike_id":"6810347e-438f-4289-8ab8-7fb274f04548","system_id":"levelo_inurba_marseille","lat":43.30476,"lon":5.37919,"is_reserved":false,"is_disabled":false,"rental_uris":{"android":"levelo://app?vid=6810347e-438f-4289-8ab8-7fb274f04548","ios":"levelo://app?vid=6810347e-438f-4289-8ab8-7fb274f04548"},"vehicle_type_id":"4","last_reported":1727759378,"current_range_meters":36800,"station_id":"ce4bgup2rcd13ifvqcn0","pricing_plan_id":"cebpf4jnsgd1na2vs0mg"},{"bike_id":"252eed4b-d9b5-40ca-a9a7-2425c5c96f31","system_id":"levelo_inurba_marseille","lat":43.28463,"lon":5.35893,"is_reserved":false,"is_disabled":false,"rental_uris":{"android":"levelo://app?vid=252eed4b-d9b5-40ca-a9a7-2425c5c96f31","ios":"levelo://app?vid=252eed4b-d9b5-40ca-a9a7-2425c5c96f31"},"vehicle_type_id":"4","last_reported":1727759378,"current_range_meters":38800,"station_id":"ce4bhah2rcd13ifvqei0","pricing_plan_id":"cebpf4jnsgd1na2vs0mg"},{"bike_id":"5d220f3e-7476-41f2-ac05-780114b00dd2","system_id":"levelo_inurba_marseille","lat":43.30476,"lon":5.37913,"is_reserved":false,"is_disabled":false,"rental_uris":{"android":"levelo://app?vid=5d220f3e-7476-41f2-ac05-780114b00dd2","ios":"levelo://app?vid=5d220f3e-7476-41f2-ac05-780114b00dd2"},"vehicle_type_id":"4","last_reported":1727759378,"current_range_meters":38000,"station_id":"ce4bgup2rcd13ifvqcn0","pricing_plan_id":"cebpf4jnsgd1na2vs0mg"},{"bike_id":"75ef3e54-5b82-441e-9a61-553bb61c675d","system_id":"levelo_inurba_marseille","lat":43.30557,"lon":5.38427,"is_reserved":false,"is_disabled":false,"rental_uris":{"android":"levelo://app?vid=75ef3e54-5b82-441e-9a61-553bb61c675d","ios":"levelo://app?vid=75ef3e54-5b82-441e-9a61-553bb61c675d"},"vehicle_type_id":"4","last_reported":1727759378,"current_range_meters":22400,"station_id":"ce4bgg92rcd13ifvqb30","pricing_plan_id":"cebpf4jnsgd1na2vs0mg"},{"bike_id":"dd126ad6-3005-4e97-ba0b-180dc274239b","system_id":"levelo_inurba_marseille","lat":43.2843,"lon":5.39187,"is_reserved":false,"is_disabled":false,"rental_uris":{"android":"levelo://app?vid=dd126ad6-3005-4e97-ba0b-180dc274239b","ios":"levelo://app?vid=dd126ad6-3005-4e97-ba0b-180dc274239b"},"vehicle_type_id":"4","last_reported":1727759378,"current_range_meters":38800,"station_id":"ce4bhoh2rcd13ifvqh5g","pricing_plan_id":"cebpf4jnsgd1na2vs0mg"},{"bike_id":"426a8d51-60eb-455f-908a-b13db90b3250","system_id":"levelo_inurba_marseille","lat":43.28711,"lon":5.39988,"is_reserved":false,"is_disabled":false,"rental_uris":{"android":"levelo://app?vid=426a8d51-60eb-455f-908a-b13db90b3250","ios":"levelo://app?vid=426a8d51-60eb-455f-908a-b13db90b3250"},"vehicle_type_id":"4","last_reported":1727759378,"current_range_meters":26000,"station_id":"ce4bho92rcd13ifvqh3g","pricing_plan_id":"cebpf4jnsgd1na2vs0mg"},{"bike_id":"7ca9a03e-5469-4981-b42c-d69f72ea598c","system_id":"levelo_inurba_marseille","lat":43.29788,"lon":5.39335,"is_reserved":false,"is_disabled":false,"rental_uris":{"android":"levelo://app?vid=7ca9a03e-5469-4981-b42c-d69f72ea598c","ios":"levelo://app?vid=7ca9a03e-5469-4981-b42c-d69f72ea598c"},"vehicle_type_id":"4","last_reported":1727759378,"current_range_meters":31200,"station_id":"chh1huq6cuj3fo74tm60","pricing_plan_id":"cebpf4jnsgd1na2vs0mg"},{"bike_id":"634ea072-51cb-416d-afd6-0d1b956f5964","system_id":"levelo_inurba_marseille","lat":43.26554,"lon":5.37284,"is_reserved":false,"is_disabled":false,"rental_uris":{"android":"levelo://app?vid=634ea072-51cb-416d-afd6-0d1b956f5964","ios":"levelo://app?vid=634ea072-51cb-416d-afd6-0d1b956f5964"},"vehicle_type_id":"4","last_reported":1727759378,"current_range_meters":38000,"station_id":"ce4bhg12rcd13ifvqf70","pricing_plan_id":"cebpf4jnsgd1na2vs0mg"},{"bike_id":"0c273724-94b8-41b2-89ed-ccb2c19aea09","system_id":"levelo_inurba_marseille","lat":43.27843,"lon":5.39208,"is_reserved":false,"is_disabled":false,"rental_uris":{"android":"levelo://app?vid=0c273724-94b8-41b2-89ed-ccb2c19aea09","ios":"levelo://app?vid=0c273724-94b8-41b2-89ed-ccb2c19aea09"},"vehicle_type_id":"4","last_reported":1727759378,"current_range_meters":38800,"station_id":"ce4bhjp2rcd13ifvqga0","pricing_plan_id":"cebpf4jnsgd1na2vs0mg"},{"bike_id":"b5d12c42-07bc-4fb6-847a-db804002b50a","system_id":"levelo_inurba_marseille","lat":43.31278,"lon":5.40164,"is_reserved":false,"is_disabled":false,"rental_uris":{"android":"levelo://app?vid=b5d12c42-07bc-4fb6-847a-db804002b50a","ios":"levelo://app?vid=b5d12c42-07bc-4fb6-847a-db804002b50a"},"vehicle_type_id":"4","last_reported":1727759378,"current_range_meters":38000,"station_id":"ce4bh092rcd13ifvqd30","pricing_plan_id":"cebpf4jnsgd1na2vs0mg"},{"bike_id":"5e0ac19d-f167-483b-938a-772ef86e05c6","system_id":"levelo_inurba_marseille","lat":43.3064,"lon":5.40089,"is_reserved":false,"is_disabled":false,"rental_uris":{"android":"levelo://app?vid=5e0ac19d-f167-483b-938a-772ef86e05c6","ios":"levelo://app?vid=5e0ac19d-f167-483b-938a-772ef86e05c6"},"vehicle_type_id":"4","last_reported":1727759378,"current_range_meters":38800,"station_id":"ce4bh112rcd13ifvqda0","pricing_plan_id":"cebpf4jnsgd1na2vs0mg"},{"bike_id":"adf7a01d-ac11-418a-b84d-2fd8ee25364e","system_id":"levelo_inurba_marseille","lat":43.29249,"lon":5.40908,"is_reserved":false,"is_disabled":false,"rental_uris":{"android":"levelo://app?vid=adf7a01d-ac11-418a-b84d-2fd8ee25364e","ios":"levelo://app?vid=adf7a01d-ac11-418a-b84d-2fd8ee25364e"},"vehicle_type_id":"4","last_reported":1727759378,"current_range_meters":38800,"station_id":"ce4bh192rcd13ifvqdc0","pricing_plan_id":"cebpf4jnsgd1na2vs0mg"},{"bike_id":"bae7c130-8843-4768-9c38-13bfc8059882","system_id":"levelo_inurba_marseille","lat":43.30651,"lon":5.40075,"is_reserved":false,"is_disabled":false,"rental_uris":{"android":"levelo://app?vid=bae7c130-8843-4768-9c38-13bfc8059882","ios":"levelo://app?vid=bae7c130-8843-4768-9c38-13bfc8059882"},"vehicle_type_id":"4","last_reported":1727759378,"current_range_meters":38400,"station_id":"ce4bh112rcd13ifvqda0","pricing_plan_id":"cebpf4jnsgd1na2vs0mg"},{"bike_id":"ff3321d0-5940-42b8-9fd8-ad85ac490d4e","system_id":"levelo_inurba_marseille","lat":43.26561,"lon":5.37292,"is_reserved":false,"is_disabled":false,"rental_uris":{"android":"levelo://app?vid=ff3321d0-5940-42b8-9fd8-ad85ac490d4e","ios":"levelo://app?vid=ff3321d0-5940-42b8-9fd8-ad85ac490d4e"},"vehicle_type_id":"4","last_reported":1727759378,"current_range_meters":8800,"station_id":"ce4bhg12rcd13ifvqf70","pricing_plan_id":"cebpf4jnsgd1na2vs0mg"},{"bike_id":"d9aa2af3-d6e7-45ae-9671-de00650f6fc2","system_id":"levelo_inurba_marseille","lat":43.25,"lon":5.38925,"is_reserved":false,"is_disabled":false,"rental_uris":{"android":"levelo://app?vid=d9aa2af3-d6e7-45ae-9671-de00650f6fc2","ios":"levelo://app?vid=d9aa2af3-d6e7-45ae-9671-de00650f6fc2"},"vehicle_type_id":"4","last_reported":1727759378,"current_range_meters":36800,"station_id":"ce4bhgp2rcd13ifvqfd0","pricing_plan_id":"cebpf4jnsgd1na2vs0mg"},{"bike_id":"8348ce12-ff0e-49a0-833d-0e92ac879452","system_id":"levelo_inurba_marseille","lat":43.30797,"lon":5.43518,"is_reserved":false,"is_disabled":false,"rental_uris":{"android":"levelo://app?vid=8348ce12-ff0e-49a0-833d-0e92ac879452","ios":"levelo://app?vid=8348ce12-ff0e-49a0-833d-0e92ac879452"},"vehicle_type_id":"4","last_reported":1727759378,"current_range_meters":38400,"station_id":"ce4bhph2rcd13ifvqheg","pricing_plan_id":"cebpf4jnsgd1na2vs0mg"},{"bike_id":"663bff65-1b90-4b20-85e5-0c2e8b4191cf","system_id":"levelo_inurba_marseille","lat":43.29523,"lon":5.39409,"is_reserved":false,"is_disabled":false,"rental_uris":{"android":"levelo://app?vid=663bff65-1b90-4b20-85e5-0c2e8b4191cf","ios":"levelo://app?vid=663bff65-1b90-4b20-85e5-0c2e8b4191cf"},"vehicle_type_id":"4","last_reported":1727759378,"current_range_meters":38400,"station_id":"ce4bh292rcd13ifvqdf0","pricing_plan_id":"cebpf4jnsgd1na2vs0mg"},{"bike_id":"acd2a23b-7b3a-4c57-bcfe-c6aaba52a3ea","system_id":"levelo_inurba_marseille","lat":43.32334,"lon":5.40625,"is_reserved":false,"is_disabled":false,"rental_uris":{"android":"levelo://app?vid=acd2a23b-7b3a-4c57-bcfe-c6aaba52a3ea","ios":"levelo://app?vid=acd2a23b-7b3a-4c57-bcfe-c6aaba52a3ea"},"vehicle_type_id":"4","last_reported":1727759378,"current_range_meters":25200,"station_id":"ce4bhq92rcd13ifvqhjg","pricing_plan_id":"cebpf4jnsgd1na2vs0mg"},{"bike_id":"e6089f1e-de3b-4f07-9c9a-f45c6ba10db0","system_id":"levelo_inurba_marseille","lat":43.30067,"lon":5.40339,"is_reserved":false,"is_disabled":false,"rental_uris":{"android":"levelo://app?vid=e6089f1e-de3b-4f07-9c9a-f45c6ba10db0","ios":"levelo://app?vid=e6089f1e-de3b-4f07-9c9a-f45c6ba10db0"},"vehicle_type_id":"4","last_reported":1727759378,"current_range_meters":3600,"station_id":"","pricing_plan_id":"cebpf4jnsgd1na2vs0mg"},{"bike_id":"d7cf5dc8-8d54-4b0f-9baf-5793617bc839","system_id":"levelo_inurba_marseille","lat":43.322924,"lon":5.382744,"is_reserved":false,"is_disabled":false,"rental_uris":{"android":"levelo://app?vid=d7cf5dc8-8d54-4b0f-9baf-5793617bc839","ios":"levelo://app?vid=d7cf5dc8-8d54-4b0f-9baf-5793617bc839"},"vehicle_type_id":"4","last_reported":1727759378,"current_range_meters":2800,"station_id":"ce4bhr12rcd13ifvqhqg","pricing_plan_id":"cebpf4jnsgd1na2vs0mg"},{"bike_id":"c2839713-efd5-4335-8a8f-dd99413e9b91","system_id":"levelo_inurba_marseille","lat":43.28935,"lon":5.36402,"is_reserved":false,"is_disabled":false,"rental_uris":{"android":"levelo://app?vid=c2839713-efd5-4335-8a8f-dd99413e9b91","ios":"levelo://app?vid=c2839713-efd5-4335-8a8f-dd99413e9b91"},"vehicle_type_id":"4","last_reported":1727759378,"current_range_meters":38400,"station_id":"ce4bhc92rcd13ifvqetg","pricing_plan_id":"cebpf4jnsgd1na2vs0mg"},{"bike_id":"10d2f8c5-4f68-45c8-92e8-fe9584570ce7","system_id":"levelo_inurba_marseille","lat":43.31347,"lon":5.38487,"is_reserved":false,"is_disabled":false,"rental_uris":{"android":"levelo://app?vid=10d2f8c5-4f68-45c8-92e8-fe9584570ce7","ios":"levelo://app?vid=10d2f8c5-4f68-45c8-92e8-fe9584570ce7"},"vehicle_type_id":"4","last_reported":1727759378,"current_range_meters":38400,"station_id":"ce4bgt92rcd13ifvqcf0","pricing_plan_id":"cebpf4jnsgd1na2vs0mg"},{"bike_id":"d6ffa2c3-066f-4c7d-a8e6-c609e6b3e9bb","system_id":"levelo_inurba_marseille","lat":43.28458,"lon":5.35887,"is_reserved":false,"is_disabled":false,"rental_uris":{"android":"levelo://app?vid=d6ffa2c3-066f-4c7d-a8e6-c609e6b3e9bb","ios":"levelo://app?vid=d6ffa2c3-066f-4c7d-a8e6-c609e6b3e9bb"},"vehicle_type_id":"4","last_reported":1727759378,"current_range_meters":38800,"station_id":"ce4bhah2rcd13ifvqei0","pricing_plan_id":"cebpf4jnsgd1na2vs0mg"},{"bike_id":"ef5ff992-3135-4db7-8076-1469dc2fc6da","system_id":"levelo_inurba_marseille","lat":43.32483,"lon":5.36577,"is_reserved":false,"is_disabled":false,"rental_uris":{"android":"levelo://app?vid=ef5ff992-3135-4db7-8076-1469dc2fc6da","ios":"levelo://app?vid=ef5ff992-3135-4db7-8076-1469dc2fc6da"},"vehicle_type_id":"4","last_reported":1727759378,"current_range_meters":24800,"station_id":"ce4bhs12rcd13ifvqhvg","pricing_plan_id":"cebpf4jnsgd1na2vs0mg"},{"bike_id":"c89309bb-86e2-4db1-88cc-1861e4c8c527","system_id":"levelo_inurba_marseille","lat":43.23186,"lon":5.39974,"is_reserved":false,"is_disabled":false,"rental_uris":{"android":"levelo://app?vid=c89309bb-86e2-4db1-88cc-1861e4c8c527","ios":"levelo://app?vid=c89309bb-86e2-4db1-88cc-1861e4c8c527"},"vehicle_type_id":"4","last_reported":1727759378,"current_range_meters":38800,"station_id":"ce4bhn12rcd13ifvqgqg","pricing_plan_id":"cebpf4jnsgd1na2vs0mg"},{"bike_id":"ee4b0160-15c4-4141-9c7a-16e047c14938","system_id":"levelo_inurba_marseille","lat":43.3139,"lon":5.38218,"is_reserved":false,"is_disabled":false,"rental_uris":{"android":"levelo://app?vid=ee4b0160-15c4-4141-9c7a-16e047c14938","ios":"levelo://app?vid=ee4b0160-15c4-4141-9c7a-16e047c14938"},"vehicle_type_id":"4","last_reported":1727759378,"current_range_meters":16000,"station_id":"","pricing_plan_id":"cebpf4jnsgd1na2vs0mg"},{"bike_id":"b62d6379-59a7-4691-a2f0-792a1a7e22cd","system_id":"levelo_inurba_marseille","lat":43.27214,"lon":5.39179,"is_reserved":false,"is_disabled":false,"rental_uris":{"android":"levelo://app?vid=b62d6379-59a7-4691-a2f0-792a1a7e22cd","ios":"levelo://app?vid=b62d6379-59a7-4691-a2f0-792a1a7e22cd"},"vehicle_type_id":"4","last_reported":1727759378,"current_range_meters":32800,"station_id":"ce4bhhp2rcd13ifvqfm0","pricing_plan_id":"cebpf4jnsgd1na2vs0mg"},{"bike_id":"d995d233-d2fe-4db9-b69b-baa1337469bf","system_id":"levelo_inurba_marseille","lat":43.26718,"lon":5.40135,"is_reserved":false,"is_disabled":false,"rental_uris":{"android":"levelo://app?vid=d995d233-d2fe-4db9-b69b-baa1337469bf","ios":"levelo://app?vid=d995d233-d2fe-4db9-b69b-baa1337469bf"},"vehicle_type_id":"4","last_reported":1727759378,"current_range_meters":14800,"station_id":"ce4bhm92rcd13ifvqglg","pricing_plan_id":"cebpf4jnsgd1na2vs0mg"},{"bike_id":"5e69ae33-160d-4783-89d6-90c6180facdf","system_id":"levelo_inurba_marseille","lat":43.2693,"lon":5.40254,"is_reserved":false,"is_disabled":false,"rental_uris":{"android":"levelo://app?vid=5e69ae33-160d-4783-89d6-90c6180facdf","ios":"levelo://app?vid=5e69ae33-160d-4783-89d6-90c6180facdf"},"vehicle_type_id":"4","last_reported":1727759378,"current_range_meters":38800,"station_id":"cjm6bp8fraef2m0cb0m0","pricing_plan_id":"cebpf4jnsgd1na2vs0mg"},{"bike_id":"dd7787d1-957c-4990-9c8a-fe91ad017aef","system_id":"levelo_inurba_marseille","lat":43.26953,"lon":5.38637,"is_reserved":false,"is_disabled":false,"rental_uris":{"android":"levelo://app?vid=dd7787d1-957c-4990-9c8a-fe91ad017aef","ios":"levelo://app?vid=dd7787d1-957c-4990-9c8a-fe91ad017aef"},"vehicle_type_id":"4","last_reported":1727759378,"current_range_meters":36800,"station_id":"ce4bhh92rcd13ifvqfh0","pricing_plan_id":"cebpf4jnsgd1na2vs0mg"},{"bike_id":"cecfd5d5-1681-43a8-ad9b-52dfd6a88e80","system_id":"levelo_inurba_marseille","lat":43.28338,"lon":5.38114,"is_reserved":false,"is_disabled":false,"rental_uris":{"android":"levelo://app?vid=cecfd5d5-1681-43a8-ad9b-52dfd6a88e80","ios":"levelo://app?vid=cecfd5d5-1681-43a8-ad9b-52dfd6a88e80"},"vehicle_type_id":"4","last_reported":1727759378,"current_range_meters":30000,"station_id":"ce4bh412rcd13ifvqdr0","pricing_plan_id":"cebpf4jnsgd1na2vs0mg"},{"bike_id":"7efd4502-9028-4534-8a5a-b236283648c9","system_id":"levelo_inurba_marseille","lat":43.31756,"lon":5.39012,"is_reserved":false,"is_disabled":false,"rental_uris":{"android":"levelo://app?vid=7efd4502-9028-4534-8a5a-b236283648c9","ios":"levelo://app?vid=7efd4502-9028-4534-8a5a-b236283648c9"},"vehicle_type_id":"4","last_reported":1727759378,"current_range_meters":38800,"station_id":"ce4bhqp2rcd13ifvqhng","pricing_plan_id":"cebpf4jnsgd1na2vs0mg"},{"bike_id":"a1027a8a-6add-4e47-ab64-7ddfc5e202e1","system_id":"levelo_inurba_marseille","lat":43.2607,"lon":5.39398,"is_reserved":false,"is_disabled":false,"rental_uris":{"android":"levelo://app?vid=a1027a8a-6add-4e47-ab64-7ddfc5e202e1","ios":"levelo://app?vid=a1027a8a-6add-4e47-ab64-7ddfc5e202e1"},"vehicle_type_id":"4","last_reported":1727759378,"current_range_meters":38400,"station_id":"ce4bhh92rcd13ifvqfj0","pricing_plan_id":"cebpf4jnsgd1na2vs0mg"},{"bike_id":"8a48edaf-4228-4b40-b0eb-bafdcc58b952","system_id":"levelo_inurba_marseille","lat":43.3093,"lon":5.40147,"is_reserved":false,"is_disabled":false,"rental_uris":{"android":"levelo://app?vid=8a48edaf-4228-4b40-b0eb-bafdcc58b952","ios":"levelo://app?vid=8a48edaf-4228-4b40-b0eb-bafdcc58b952"},"vehicle_type_id":"4","last_reported":1727759378,"current_range_meters":33200,"station_id":"ce4bgvp2rcd13ifvqct0","pricing_plan_id":"cebpf4jnsgd1na2vs0mg"},{"bike_id":"fcad1394-88f4-4f6d-962a-33c383ee7e38","system_id":"levelo_inurba_marseille","lat":43.30476,"lon":5.3792,"is_reserved":false,"is_disabled":false,"rental_uris":{"android":"levelo://app?vid=fcad1394-88f4-4f6d-962a-33c383ee7e38","ios":"levelo://app?vid=fcad1394-88f4-4f6d-962a-33c383ee7e38"},"vehicle_type_id":"4","last_reported":1727759378,"current_range_meters":31200,"station_id":"ce4bgup2rcd13ifvqcn0","pricing_plan_id":"cebpf4jnsgd1na2vs0mg"},{"bike_id":"b0717965-b0ff-4bf2-bf41-bc2cb3d457ce","system_id":"levelo_inurba_marseille","lat":43.27938,"lon":5.41038,"is_reserved":false,"is_disabled":false,"rental_uris":{"android":"levelo://app?vid=b0717965-b0ff-4bf2-bf41-bc2cb3d457ce","ios":"levelo://app?vid=b0717965-b0ff-4bf2-bf41-bc2cb3d457ce"},"vehicle_type_id":"4","last_reported":1727759378,"current_range_meters":38800,"station_id":"ce4bhnp2rcd13ifvqh0g","pricing_plan_id":"cebpf4jnsgd1na2vs0mg"},{"bike_id":"b652f429-09b8-4697-9c1b-3b9adc3c55d8","system_id":"levelo_inurba_marseille","lat":43.26871,"lon":5.39135,"is_reserved":false,"is_disabled":false,"rental_uris":{"android":"levelo://app?vid=b652f429-09b8-4697-9c1b-3b9adc3c55d8","ios":"levelo://app?vid=b652f429-09b8-4697-9c1b-3b9adc3c55d8"},"vehicle_type_id":"4","last_reported":1727759378,"current_range_meters":8800,"station_id":"","pricing_plan_id":"cebpf4jnsgd1na2vs0mg"},{"bike_id":"f13a9d32-ac22-4629-8783-b2b7d51902b2","system_id":"levelo_inurba_marseille","lat":43.2928,"lon":5.40134,"is_reserved":false,"is_disabled":false,"rental_uris":{"android":"levelo://app?vid=f13a9d32-ac22-4629-8783-b2b7d51902b2","ios":"levelo://app?vid=f13a9d32-ac22-4629-8783-b2b7d51902b2"},"vehicle_type_id":"4","last_reported":1727759378,"current_range_meters":30000,"station_id":"ce4bh312rcd13ifvqdk0","pricing_plan_id":"cebpf4jnsgd1na2vs0mg"},{"bike_id":"4ce16e06-b46e-4c1c-95a1-84a90a8e7281","system_id":"levelo_inurba_marseille","lat":43.27067,"lon":5.42276,"is_reserved":false,"is_disabled":false,"rental_uris":{"android":"levelo://app?vid=4ce16e06-b46e-4c1c-95a1-84a90a8e7281","ios":"levelo://app?vid=4ce16e06-b46e-4c1c-95a1-84a90a8e7281"},"vehicle_type_id":"4","last_reported":1727759378,"current_range_meters":40000,"station_id":"ce4bhk92rcd13ifvqgb0","pricing_plan_id":"cebpf4jnsgd1na2vs0mg"},{"bike_id":"42a1a0df-b0d0-4ccf-abd0-ef18fd093cf4","system_id":"levelo_inurba_marseille","lat":43.2512,"lon":5.40322,"is_reserved":false,"is_disabled":false,"rental_uris":{"android":"levelo://app?vid=42a1a0df-b0d0-4ccf-abd0-ef18fd093cf4","ios":"levelo://app?vid=42a1a0df-b0d0-4ccf-abd0-ef18fd093cf4"},"vehicle_type_id":"4","last_reported":1727759378,"current_range_meters":38800,"station_id":"ce4bhlh2rcd13ifvqgig","pricing_plan_id":"cebpf4jnsgd1na2vs0mg"},{"bike_id":"786fac57-4b3b-44df-9f37-db347f577860","system_id":"levelo_inurba_marseille","lat":43.26782,"lon":5.39422,"is_reserved":false,"is_disabled":false,"rental_uris":{"android":"levelo://app?vid=786fac57-4b3b-44df-9f37-db347f577860","ios":"levelo://app?vid=786fac57-4b3b-44df-9f37-db347f577860"},"vehicle_type_id":"4","last_reported":1727759378,"current_range_meters":38400,"station_id":"ce4bhh12rcd13ifvqfg0","pricing_plan_id":"cebpf4jnsgd1na2vs0mg"},{"bike_id":"84b23ce4-48bc-44b0-ae9e-344bdb47e1bc","system_id":"levelo_inurba_marseille","lat":43.29009,"lon":5.35614,"is_reserved":false,"is_disabled":false,"rental_uris":{"android":"levelo://app?vid=84b23ce4-48bc-44b0-ae9e-344bdb47e1bc","ios":"levelo://app?vid=84b23ce4-48bc-44b0-ae9e-344bdb47e1bc"},"vehicle_type_id":"4","last_reported":1727759378,"current_range_meters":32000,"station_id":"ce4bhb92rcd13ifvqen0","pricing_plan_id":"cebpf4jnsgd1na2vs0mg"},{"bike_id":"11177cfa-2f4f-4a0e-b4d1-daf8a3d9ea88","system_id":"levelo_inurba_marseille","lat":43.31069,"lon":5.38347,"is_reserved":false,"is_disabled":false,"rental_uris":{"android":"levelo://app?vid=11177cfa-2f4f-4a0e-b4d1-daf8a3d9ea88","ios":"levelo://app?vid=11177cfa-2f4f-4a0e-b4d1-daf8a3d9ea88"},"vehicle_type_id":"4","last_reported":1727759378,"current_range_meters":37600,"station_id":"ce4bgv92rcd13ifvqcr0","pricing_plan_id":"cebpf4jnsgd1na2vs0mg"},{"bike_id":"ed25d164-ab48-4db9-804f-8cc31882d100","system_id":"levelo_inurba_marseille","lat":43.31491,"lon":5.37303,"is_reserved":false,"is_disabled":false,"rental_uris":{"android":"levelo://app?vid=ed25d164-ab48-4db9-804f-8cc31882d100","ios":"levelo://app?vid=ed25d164-ab48-4db9-804f-8cc31882d100"},"vehicle_type_id":"4","last_reported":1727759378,"current_range_meters":24800,"station_id":"ce4bgt12rcd13ifvqcd0","pricing_plan_id":"cebpf4jnsgd1na2vs0mg"},{"bike_id":"c64b4215-54dc-4f69-92e1-5cf1019d6fff","system_id":"levelo_inurba_marseille","lat":43.31759,"lon":5.39018,"is_reserved":false,"is_disabled":false,"rental_uris":{"android":"levelo://app?vid=c64b4215-54dc-4f69-92e1-5cf1019d6fff","ios":"levelo://app?vid=c64b4215-54dc-4f69-92e1-5cf1019d6fff"},"vehicle_type_id":"4","last_reported":1727759378,"current_range_meters":38000,"station_id":"ce4bhqp2rcd13ifvqhng","pricing_plan_id":"cebpf4jnsgd1na2vs0mg"},{"bike_id":"e4be49b0-8a10-41c6-89ae-fc8d90e19ba5","system_id":"levelo_inurba_marseille","lat":43.33723,"lon":5.39188,"is_reserved":false,"is_disabled":false,"rental_uris":{"android":"levelo://app?vid=e4be49b0-8a10-41c6-89ae-fc8d90e19ba5","ios":"levelo://app?vid=e4be49b0-8a10-41c6-89ae-fc8d90e19ba5"},"vehicle_type_id":"4","last_reported":1727759378,"current_range_meters":38000,"station_id":"ce4bhr92rcd13ifvqhsg","pricing_plan_id":"cebpf4jnsgd1na2vs0mg"},{"bike_id":"1e9e9232-fb31-4735-b9ba-3e1dcfa10a86","system_id":"levelo_inurba_marseille","lat":43.28707,"lon":5.39985,"is_reserved":false,"is_disabled":false,"rental_uris":{"android":"levelo://app?vid=1e9e9232-fb31-4735-b9ba-3e1dcfa10a86","ios":"levelo://app?vid=1e9e9232-fb31-4735-b9ba-3e1dcfa10a86"},"vehicle_type_id":"4","last_reported":1727759378,"current_range_meters":26000,"station_id":"ce4bho92rcd13ifvqh3g","pricing_plan_id":"cebpf4jnsgd1na2vs0mg"},{"bike_id":"9535a422-21bd-4d3b-82ec-0ddd79cceaee","system_id":"levelo_inurba_marseille","lat":43.2448,"lon":5.37253,"is_reserved":false,"is_disabled":false,"rental_uris":{"android":"levelo://app?vid=9535a422-21bd-4d3b-82ec-0ddd79cceaee","ios":"levelo://app?vid=9535a422-21bd-4d3b-82ec-0ddd79cceaee"},"vehicle_type_id":"4","last_reported":1727759378,"current_range_meters":10800,"station_id":"","pricing_plan_id":"cebpf4jnsgd1na2vs0mg"},{"bike_id":"3d0fedc9-7688-408e-b497-e4629a55bdac","system_id":"levelo_inurba_marseille","lat":43.30902,"lon":5.37025,"is_reserved":false,"is_disabled":false,"rental_uris":{"android":"levelo://app?vid=3d0fedc9-7688-408e-b497-e4629a55bdac","ios":"levelo://app?vid=3d0fedc9-7688-408e-b497-e4629a55bdac"},"vehicle_type_id":"4","last_reported":1727759378,"current_range_meters":17200,"station_id":"","pricing_plan_id":"cebpf4jnsgd1na2vs0mg"},{"bike_id":"cf2728b2-144a-40c9-8d35-5d2bffaca613","system_id":"levelo_inurba_marseille","lat":43.22934,"lon":5.35386,"is_reserved":false,"is_disabled":false,"rental_uris":{"android":"levelo://app?vid=cf2728b2-144a-40c9-8d35-5d2bffaca613","ios":"levelo://app?vid=cf2728b2-144a-40c9-8d35-5d2bffaca613"},"vehicle_type_id":"4","last_reported":1727759378,"current_range_meters":36400,"station_id":"cpo3532slgdg3j2ikp40","pricing_plan_id":"cebpf4jnsgd1na2vs0mg"},{"bike_id":"fd016b7e-f1d5-4a8e-bddb-6ebb54293737","system_id":"levelo_inurba_marseille","lat":43.29191,"lon":5.39312,"is_reserved":false,"is_disabled":false,"rental_uris":{"android":"levelo://app?vid=fd016b7e-f1d5-4a8e-bddb-6ebb54293737","ios":"levelo://app?vid=fd016b7e-f1d5-4a8e-bddb-6ebb54293737"},"vehicle_type_id":"4","last_reported":1727759378,"current_range_meters":37600,"station_id":"ce4bh192rcd13ifvqdd0","pricing_plan_id":"cebpf4jnsgd1na2vs0mg"},{"bike_id":"342f7a85-79ac-43c6-96d8-b65eb6217827","system_id":"levelo_inurba_marseille","lat":43.29629,"lon":5.40596,"is_reserved":false,"is_disabled":false,"rental_uris":{"android":"levelo://app?vid=342f7a85-79ac-43c6-96d8-b65eb6217827","ios":"levelo://app?vid=342f7a85-79ac-43c6-96d8-b65eb6217827"},"vehicle_type_id":"4","last_reported":1727759378,"current_range_meters":37600,"station_id":"ce4bh0h2rcd13ifvqd60","pricing_plan_id":"cebpf4jnsgd1na2vs0mg"},{"bike_id":"501061ae-0e07-408f-ba4d-5e9df87b6299","system_id":"levelo_inurba_marseille","lat":43.27066,"lon":5.42275,"is_reserved":false,"is_disabled":false,"rental_uris":{"android":"levelo://app?vid=501061ae-0e07-408f-ba4d-5e9df87b6299","ios":"levelo://app?vid=501061ae-0e07-408f-ba4d-5e9df87b6299"},"vehicle_type_id":"4","last_reported":1727759378,"current_range_meters":40000,"station_id":"ce4bhk92rcd13ifvqgb0","pricing_plan_id":"cebpf4jnsgd1na2vs0mg"},{"bike_id":"beccbcaa-028a-45ce-9110-5727c2f5a1d9","system_id":"levelo_inurba_marseille","lat":43.33025,"lon":5.39037,"is_reserved":false,"is_disabled":false,"rental_uris":{"android":"levelo://app?vid=beccbcaa-028a-45ce-9110-5727c2f5a1d9","ios":"levelo://app?vid=beccbcaa-028a-45ce-9110-5727c2f5a1d9"},"vehicle_type_id":"4","last_reported":1727759378,"current_range_meters":28800,"station_id":"ce4bhr92rcd13ifvqhrg","pricing_plan_id":"cebpf4jnsgd1na2vs0mg"},{"bike_id":"ce865a1a-6d84-4642-b6a8-718ff5f00af0","system_id":"levelo_inurba_marseille","lat":43.28461,"lon":5.35892,"is_reserved":false,"is_disabled":false,"rental_uris":{"android":"levelo://app?vid=ce865a1a-6d84-4642-b6a8-718ff5f00af0","ios":"levelo://app?vid=ce865a1a-6d84-4642-b6a8-718ff5f00af0"},"vehicle_type_id":"4","last_reported":1727759378,"current_range_meters":37600,"station_id":"ce4bhah2rcd13ifvqei0","pricing_plan_id":"cebpf4jnsgd1na2vs0mg"},{"bike_id":"ca982a33-bcc1-41d9-8388-8671af91acb9","system_id":"levelo_inurba_marseille","lat":43.2407,"lon":5.37757,"is_reserved":false,"is_disabled":false,"rental_uris":{"android":"levelo://app?vid=ca982a33-bcc1-41d9-8388-8671af91acb9","ios":"levelo://app?vid=ca982a33-bcc1-41d9-8388-8671af91acb9"},"vehicle_type_id":"4","last_reported":1727759378,"current_range_meters":38800,"station_id":"ce4bhnp2rcd13ifvqgvg","pricing_plan_id":"cebpf4jnsgd1na2vs0mg"},{"bike_id":"4ecc44b7-63bf-434f-a208-9c91e4693c0f","system_id":"levelo_inurba_marseille","lat":43.28365,"lon":5.38626,"is_reserved":false,"is_disabled":false,"rental_uris":{"android":"levelo://app?vid=4ecc44b7-63bf-434f-a208-9c91e4693c0f","ios":"levelo://app?vid=4ecc44b7-63bf-434f-a208-9c91e4693c0f"},"vehicle_type_id":"4","last_reported":1727759378,"current_range_meters":38000,"station_id":"ce4bh492rcd13ifvqdvg","pricing_plan_id":"cebpf4jnsgd1na2vs0mg"},{"bike_id":"7f35fd56-dbfb-4f54-8ce2-264a744c5cc5","system_id":"levelo_inurba_marseille","lat":43.29251,"lon":5.40914,"is_reserved":false,"is_disabled":false,"rental_uris":{"android":"levelo://app?vid=7f35fd56-dbfb-4f54-8ce2-264a744c5cc5","ios":"levelo://app?vid=7f35fd56-dbfb-4f54-8ce2-264a744c5cc5"},"vehicle_type_id":"4","last_reported":1727759378,"current_range_meters":12400,"station_id":"ce4bh192rcd13ifvqdc0","pricing_plan_id":"cebpf4jnsgd1na2vs0mg"},{"bike_id":"88bc6409-e51c-4b9c-88b5-3d3c5c3a5cf0","system_id":"levelo_inurba_marseille","lat":43.28458,"lon":5.35893,"is_reserved":false,"is_disabled":false,"rental_uris":{"android":"levelo://app?vid=88bc6409-e51c-4b9c-88b5-3d3c5c3a5cf0","ios":"levelo://app?vid=88bc6409-e51c-4b9c-88b5-3d3c5c3a5cf0"},"vehicle_type_id":"4","last_reported":1727759378,"current_range_meters":28800,"station_id":"ce4bhah2rcd13ifvqei0","pricing_plan_id":"cebpf4jnsgd1na2vs0mg"},{"bike_id":"c93fa33d-fafc-4158-bf8d-0714053cb97d","system_id":"levelo_inurba_marseille","lat":43.30589,"lon":5.39347,"is_reserved":false,"is_disabled":false,"rental_uris":{"android":"levelo://app?vid=c93fa33d-fafc-4158-bf8d-0714053cb97d","ios":"levelo://app?vid=c93fa33d-fafc-4158-bf8d-0714053cb97d"},"vehicle_type_id":"4","last_reported":1727759378,"current_range_meters":38800,"station_id":"ce4bh0p2rcd13ifvqd80","pricing_plan_id":"cebpf4jnsgd1na2vs0mg"},{"bike_id":"edc8fd59-f02b-4117-881e-c3f94441fed4","system_id":"levelo_inurba_marseille","lat":43.2979,"lon":5.39338,"is_reserved":false,"is_disabled":false,"rental_uris":{"android":"levelo://app?vid=edc8fd59-f02b-4117-881e-c3f94441fed4","ios":"levelo://app?vid=edc8fd59-f02b-4117-881e-c3f94441fed4"},"vehicle_type_id":"4","last_reported":1727759378,"current_range_meters":38000,"station_id":"chh1huq6cuj3fo74tm60","pricing_plan_id":"cebpf4jnsgd1na2vs0mg"},{"bike_id":"c2df8cca-733f-41c2-9a75-8eb5b646f167","system_id":"levelo_inurba_marseille","lat":43.25578,"lon":5.38242,"is_reserved":false,"is_disabled":false,"rental_uris":{"android":"levelo://app?vid=c2df8cca-733f-41c2-9a75-8eb5b646f167","ios":"levelo://app?vid=c2df8cca-733f-41c2-9a75-8eb5b646f167"},"vehicle_type_id":"4","last_reported":1727759378,"current_range_meters":38800,"station_id":"ce4bhih2rcd13ifvqfs0","pricing_plan_id":"cebpf4jnsgd1na2vs0mg"},{"bike_id":"5122379c-5b6a-4c2e-97c3-6ecb28531e6c","system_id":"levelo_inurba_marseille","lat":43.29629,"lon":5.40604,"is_reserved":false,"is_disabled":false,"rental_uris":{"android":"levelo://app?vid=5122379c-5b6a-4c2e-97c3-6ecb28531e6c","ios":"levelo://app?vid=5122379c-5b6a-4c2e-97c3-6ecb28531e6c"},"vehicle_type_id":"4","last_reported":1727759378,"current_range_meters":38800,"station_id":"ce4bh0h2rcd13ifvqd60","pricing_plan_id":"cebpf4jnsgd1na2vs0mg"},{"bike_id":"4344e88d-d63b-439b-b84e-a3d8f0b577d9","system_id":"levelo_inurba_marseille","lat":43.31275,"lon":5.40165,"is_reserved":false,"is_disabled":false,"rental_uris":{"android":"levelo://app?vid=4344e88d-d63b-439b-b84e-a3d8f0b577d9","ios":"levelo://app?vid=4344e88d-d63b-439b-b84e-a3d8f0b577d9"},"vehicle_type_id":"4","last_reported":1727759378,"current_range_meters":33600,"station_id":"ce4bh092rcd13ifvqd30","pricing_plan_id":"cebpf4jnsgd1na2vs0mg"},{"bike_id":"b65e26fd-4436-42b6-869d-ffed6ad30e88","system_id":"levelo_inurba_marseille","lat":43.323628,"lon":5.388798,"is_reserved":false,"is_disabled":false,"rental_uris":{"android":"levelo://app?vid=b65e26fd-4436-42b6-869d-ffed6ad30e88","ios":"levelo://app?vid=b65e26fd-4436-42b6-869d-ffed6ad30e88"},"vehicle_type_id":"4","last_reported":1727759378,"current_range_meters":16400,"station_id":"ce4bhqp2rcd13ifvqhog","pricing_plan_id":"cebpf4jnsgd1na2vs0mg"},{"bike_id":"87ba9259-be9f-4eba-96ba-6440bb7ae36c","system_id":"levelo_inurba_marseille","lat":43.30432,"lon":5.38886,"is_reserved":false,"is_disabled":false,"rental_uris":{"android":"levelo://app?vid=87ba9259-be9f-4eba-96ba-6440bb7ae36c","ios":"levelo://app?vid=87ba9259-be9f-4eba-96ba-6440bb7ae36c"},"vehicle_type_id":"4","last_reported":1727759378,"current_range_meters":38800,"station_id":"ce4bgk12rcd13ifvqbi0","pricing_plan_id":"cebpf4jnsgd1na2vs0mg"},{"bike_id":"fcf5ce1a-6c26-44a9-b8f5-fb98a260f732","system_id":"levelo_inurba_marseille","lat":43.27989,"lon":5.41652,"is_reserved":false,"is_disabled":false,"rental_uris":{"android":"levelo://app?vid=fcf5ce1a-6c26-44a9-b8f5-fb98a260f732","ios":"levelo://app?vid=fcf5ce1a-6c26-44a9-b8f5-fb98a260f732"},"vehicle_type_id":"4","last_reported":1727759378,"current_range_meters":38800,"station_id":"ce4bho12rcd13ifvqh1g","pricing_plan_id":"cebpf4jnsgd1na2vs0mg"},{"bike_id":"6bee1d75-122b-46ce-ab4f-d74b6c7fc900","system_id":"levelo_inurba_marseille","lat":43.290609,"lon":5.375692,"is_reserved":false,"is_disabled":false,"rental_uris":{"android":"levelo://app?vid=6bee1d75-122b-46ce-ab4f-d74b6c7fc900","ios":"levelo://app?vid=6bee1d75-122b-46ce-ab4f-d74b6c7fc900"},"vehicle_type_id":"4","last_reported":1727759378,"current_range_meters":24800,"station_id":"ce4bh692rcd13ifvqe90","pricing_plan_id":"cebpf4jnsgd1na2vs0mg"},{"bike_id":"3aac640d-bda1-4a4d-848e-dbd6b047d11d","system_id":"levelo_inurba_marseille","lat":43.28271,"lon":5.35074,"is_reserved":false,"is_disabled":false,"rental_uris":{"android":"levelo://app?vid=3aac640d-bda1-4a4d-848e-dbd6b047d11d","ios":"levelo://app?vid=3aac640d-bda1-4a4d-848e-dbd6b047d11d"},"vehicle_type_id":"4","last_reported":1727759378,"current_range_meters":38800,"station_id":"ce4bhbp2rcd13ifvqerg","pricing_plan_id":"cebpf4jnsgd1na2vs0mg"},{"bike_id":"93f6d91d-2d5b-4059-aa0c-da38c1e3dfc2","system_id":"levelo_inurba_marseille","lat":43.26943,"lon":5.4025,"is_reserved":false,"is_disabled":false,"rental_uris":{"android":"levelo://app?vid=93f6d91d-2d5b-4059-aa0c-da38c1e3dfc2","ios":"levelo://app?vid=93f6d91d-2d5b-4059-aa0c-da38c1e3dfc2"},"vehicle_type_id":"4","last_reported":1727759378,"current_range_meters":39200,"station_id":"cjm6bp8fraef2m0cb0m0","pricing_plan_id":"cebpf4jnsgd1na2vs0mg"},{"bike_id":"0d53950e-9f3f-42de-bc0d-2f7e6b2ff3ee","system_id":"levelo_inurba_marseille","lat":43.26204,"lon":5.37919,"is_reserved":false,"is_disabled":false,"rental_uris":{"android":"levelo://app?vid=0d53950e-9f3f-42de-bc0d-2f7e6b2ff3ee","ios":"levelo://app?vid=0d53950e-9f3f-42de-bc0d-2f7e6b2ff3ee"},"vehicle_type_id":"4","last_reported":1727759378,"current_range_meters":37600,"station_id":"ce4bhjp2rcd13ifvqg90","pricing_plan_id":"cebpf4jnsgd1na2vs0mg"},{"bike_id":"ba83e128-9396-4ff5-a14b-f47b70296f60","system_id":"levelo_inurba_marseille","lat":43.28346,"lon":5.38102,"is_reserved":false,"is_disabled":false,"rental_uris":{"android":"levelo://app?vid=ba83e128-9396-4ff5-a14b-f47b70296f60","ios":"levelo://app?vid=ba83e128-9396-4ff5-a14b-f47b70296f60"},"vehicle_type_id":"4","last_reported":1727759378,"current_range_meters":38800,"station_id":"ce4bh412rcd13ifvqdr0","pricing_plan_id":"cebpf4jnsgd1na2vs0mg"},{"bike_id":"2f83ee8c-fed5-4ebd-9125-0f70befdf84e","system_id":"levelo_inurba_marseille","lat":43.31708,"lon":5.37752,"is_reserved":false,"is_disabled":false,"rental_uris":{"android":"levelo://app?vid=2f83ee8c-fed5-4ebd-9125-0f70befdf84e","ios":"levelo://app?vid=2f83ee8c-fed5-4ebd-9125-0f70befdf84e"},"vehicle_type_id":"4","last_reported":1727759378,"current_range_meters":38800,"station_id":"ce4bgth2rcd13ifvqch0","pricing_plan_id":"cebpf4jnsgd1na2vs0mg"},{"bike_id":"bbfa1072-43cd-4cc7-bf78-556e11e70d56","system_id":"levelo_inurba_marseille","lat":43.26776,"lon":5.3942,"is_reserved":false,"is_disabled":false,"rental_uris":{"android":"levelo://app?vid=bbfa1072-43cd-4cc7-bf78-556e11e70d56","ios":"levelo://app?vid=bbfa1072-43cd-4cc7-bf78-556e11e70d56"},"vehicle_type_id":"4","last_reported":1727759378,"current_range_meters":38800,"station_id":"ce4bhh12rcd13ifvqfg0","pricing_plan_id":"cebpf4jnsgd1na2vs0mg"},{"bike_id":"273a6653-fd88-4828-87f0-37876e614bfc","system_id":"levelo_inurba_marseille","lat":43.3015,"lon":5.38081,"is_reserved":false,"is_disabled":false,"rental_uris":{"android":"levelo://app?vid=273a6653-fd88-4828-87f0-37876e614bfc","ios":"levelo://app?vid=273a6653-fd88-4828-87f0-37876e614bfc"},"vehicle_type_id":"4","last_reported":1727759378,"current_range_meters":4800,"station_id":"ce4bgjp2rcd13ifvqbh0","pricing_plan_id":"cebpf4jnsgd1na2vs0mg"},{"bike_id":"310586a2-3827-41b0-860f-34a70ac9e7f4","system_id":"levelo_inurba_marseille","lat":43.29894,"lon":5.43664,"is_reserved":false,"is_disabled":false,"rental_uris":{"android":"levelo://app?vid=310586a2-3827-41b0-860f-34a70ac9e7f4","ios":"levelo://app?vid=310586a2-3827-41b0-860f-34a70ac9e7f4"},"vehicle_type_id":"4","last_reported":1727759378,"current_range_meters":17600,"station_id":"ce4bhpp2rcd13ifvqhfg","pricing_plan_id":"cebpf4jnsgd1na2vs0mg"},{"bike_id":"6c8b150e-97b9-405a-9707-935fc4bddd17","system_id":"levelo_inurba_marseille","lat":43.28153,"lon":5.4265,"is_reserved":false,"is_disabled":false,"rental_uris":{"android":"levelo://app?vid=6c8b150e-97b9-405a-9707-935fc4bddd17","ios":"levelo://app?vid=6c8b150e-97b9-405a-9707-935fc4bddd17"},"vehicle_type_id":"4","last_reported":1727759378,"current_range_meters":38000,"station_id":"ce4bhnh2rcd13ifvqgug","pricing_plan_id":"cebpf4jnsgd1na2vs0mg"},{"bike_id":"18354a97-2a1f-47bd-b525-a3d682496f94","system_id":"levelo_inurba_marseille","lat":43.27997,"lon":5.40014,"is_reserved":false,"is_disabled":false,"rental_uris":{"android":"levelo://app?vid=18354a97-2a1f-47bd-b525-a3d682496f94","ios":"levelo://app?vid=18354a97-2a1f-47bd-b525-a3d682496f94"},"vehicle_type_id":"4","last_reported":1727759378,"current_range_meters":7200,"station_id":"ce4bho92rcd13ifvqh4g","pricing_plan_id":"cebpf4jnsgd1na2vs0mg"},{"bike_id":"e58fa8f9-8559-4a91-a560-ba74b12c8674","system_id":"levelo_inurba_marseille","lat":43.28405,"lon":5.37511,"is_reserved":false,"is_disabled":false,"rental_uris":{"android":"levelo://app?vid=e58fa8f9-8559-4a91-a560-ba74b12c8674","ios":"levelo://app?vid=e58fa8f9-8559-4a91-a560-ba74b12c8674"},"vehicle_type_id":"4","last_reported":1727759378,"current_range_meters":38800,"station_id":"ce4bh412rcd13ifvqds0","pricing_plan_id":"cebpf4jnsgd1na2vs0mg"},{"bike_id":"4e43fa03-c891-4a45-ab77-971a049c5b0b","system_id":"levelo_inurba_marseille","lat":43.2794,"lon":5.41037,"is_reserved":false,"is_disabled":false,"rental_uris":{"android":"levelo://app?vid=4e43fa03-c891-4a45-ab77-971a049c5b0b","ios":"levelo://app?vid=4e43fa03-c891-4a45-ab77-971a049c5b0b"},"vehicle_type_id":"4","last_reported":1727759378,"current_range_meters":38800,"station_id":"ce4bhnp2rcd13ifvqh0g","pricing_plan_id":"cebpf4jnsgd1na2vs0mg"},{"bike_id":"378ba320-ac32-4abf-8e49-d3a4d70036ab","system_id":"levelo_inurba_marseille","lat":43.31758,"lon":5.39013,"is_reserved":false,"is_disabled":false,"rental_uris":{"android":"levelo://app?vid=378ba320-ac32-4abf-8e49-d3a4d70036ab","ios":"levelo://app?vid=378ba320-ac32-4abf-8e49-d3a4d70036ab"},"vehicle_type_id":"4","last_reported":1727759378,"current_range_meters":38000,"station_id":"ce4bhqp2rcd13ifvqhng","pricing_plan_id":"cebpf4jnsgd1na2vs0mg"},{"bike_id":"7f16d137-9a1b-4cc7-8bb0-ba1a6b63931b","system_id":"levelo_inurba_marseille","lat":43.31234,"lon":5.36861,"is_reserved":false,"is_disabled":false,"rental_uris":{"android":"levelo://app?vid=7f16d137-9a1b-4cc7-8bb0-ba1a6b63931b","ios":"levelo://app?vid=7f16d137-9a1b-4cc7-8bb0-ba1a6b63931b"},"vehicle_type_id":"4","last_reported":1727759378,"current_range_meters":38000,"station_id":"ce4bgl92rcd13ifvqbq0","pricing_plan_id":"cebpf4jnsgd1na2vs0mg"},{"bike_id":"2efcfcc0-a286-4da7-8289-e729128b3728","system_id":"levelo_inurba_marseille","lat":43.31227,"lon":5.36859,"is_reserved":false,"is_disabled":false,"rental_uris":{"android":"levelo://app?vid=2efcfcc0-a286-4da7-8289-e729128b3728","ios":"levelo://app?vid=2efcfcc0-a286-4da7-8289-e729128b3728"},"vehicle_type_id":"4","last_reported":1727759378,"current_range_meters":38000,"station_id":"ce4bgl92rcd13ifvqbq0","pricing_plan_id":"cebpf4jnsgd1na2vs0mg"},{"bike_id":"7cb7e074-6876-4d77-9851-6c29bdc1f8c8","system_id":"levelo_inurba_marseille","lat":43.24546,"lon":5.39526,"is_reserved":false,"is_disabled":false,"rental_uris":{"android":"levelo://app?vid=7cb7e074-6876-4d77-9851-6c29bdc1f8c8","ios":"levelo://app?vid=7cb7e074-6876-4d77-9851-6c29bdc1f8c8"},"vehicle_type_id":"4","last_reported":1727759378,"current_range_meters":38400,"station_id":"ce4bhlp2rcd13ifvqgjg","pricing_plan_id":"cebpf4jnsgd1na2vs0mg"},{"bike_id":"06bd9621-75bd-4542-8f45-ea5c37bd6833","system_id":"levelo_inurba_marseille","lat":43.31713,"lon":5.437,"is_reserved":false,"is_disabled":false,"rental_uris":{"android":"levelo://app?vid=06bd9621-75bd-4542-8f45-ea5c37bd6833","ios":"levelo://app?vid=06bd9621-75bd-4542-8f45-ea5c37bd6833"},"vehicle_type_id":"4","last_reported":1727759378,"current_range_meters":38800,"station_id":"ce4bhp92rcd13ifvqhcg","pricing_plan_id":"cebpf4jnsgd1na2vs0mg"},{"bike_id":"689f1662-22e9-4367-8cfa-1364af11698f","system_id":"levelo_inurba_marseille","lat":43.262043,"lon":5.379209,"is_reserved":false,"is_disabled":false,"rental_uris":{"android":"levelo://app?vid=689f1662-22e9-4367-8cfa-1364af11698f","ios":"levelo://app?vid=689f1662-22e9-4367-8cfa-1364af11698f"},"vehicle_type_id":"4","last_reported":1727759378,"current_range_meters":38000,"station_id":"ce4bhjp2rcd13ifvqg90","pricing_plan_id":"cebpf4jnsgd1na2vs0mg"},{"bike_id":"a2ead7c0-9648-4d47-b3ce-5755c5c88bf2","system_id":"levelo_inurba_marseille","lat":43.29275,"lon":5.40132,"is_reserved":false,"is_disabled":false,"rental_uris":{"android":"levelo://app?vid=a2ead7c0-9648-4d47-b3ce-5755c5c88bf2","ios":"levelo://app?vid=a2ead7c0-9648-4d47-b3ce-5755c5c88bf2"},"vehicle_type_id":"4","last_reported":1727759378,"current_range_meters":28800,"station_id":"ce4bh312rcd13ifvqdk0","pricing_plan_id":"cebpf4jnsgd1na2vs0mg"},{"bike_id":"c0d15641-dd0b-40ca-88d5-cec1b9183073","system_id":"levelo_inurba_marseille","lat":43.28459,"lon":5.35892,"is_reserved":false,"is_disabled":false,"rental_uris":{"android":"levelo://app?vid=c0d15641-dd0b-40ca-88d5-cec1b9183073","ios":"levelo://app?vid=c0d15641-dd0b-40ca-88d5-cec1b9183073"},"vehicle_type_id":"4","last_reported":1727759378,"current_range_meters":38800,"station_id":"ce4bhah2rcd13ifvqei0","pricing_plan_id":"cebpf4jnsgd1na2vs0mg"},{"bike_id":"ef87f0bc-9f56-42d5-a876-3e3c771c451c","system_id":"levelo_inurba_marseille","lat":43.29269,"lon":5.40127,"is_reserved":false,"is_disabled":false,"rental_uris":{"android":"levelo://app?vid=ef87f0bc-9f56-42d5-a876-3e3c771c451c","ios":"levelo://app?vid=ef87f0bc-9f56-42d5-a876-3e3c771c451c"},"vehicle_type_id":"4","last_reported":1727759378,"current_range_meters":38800,"station_id":"ce4bh312rcd13ifvqdk0","pricing_plan_id":"cebpf4jnsgd1na2vs0mg"},{"bike_id":"19cb5be1-8cd6-4eb4-95f4-bfb6b327cce1","system_id":"levelo_inurba_marseille","lat":43.25579,"lon":5.38223,"is_reserved":false,"is_disabled":false,"rental_uris":{"android":"levelo://app?vid=19cb5be1-8cd6-4eb4-95f4-bfb6b327cce1","ios":"levelo://app?vid=19cb5be1-8cd6-4eb4-95f4-bfb6b327cce1"},"vehicle_type_id":"4","last_reported":1727759378,"current_range_meters":30800,"station_id":"ce4bhih2rcd13ifvqfs0","pricing_plan_id":"cebpf4jnsgd1na2vs0mg"},{"bike_id":"0286604c-ebcd-4b76-ab34-035b2515523e","system_id":"levelo_inurba_marseille","lat":43.30461,"lon":5.379,"is_reserved":false,"is_disabled":false,"rental_uris":{"android":"levelo://app?vid=0286604c-ebcd-4b76-ab34-035b2515523e","ios":"levelo://app?vid=0286604c-ebcd-4b76-ab34-035b2515523e"},"vehicle_type_id":"4","last_reported":1727759378,"current_range_meters":35200,"station_id":"ce4bgup2rcd13ifvqcn0","pricing_plan_id":"cebpf4jnsgd1na2vs0mg"},{"bike_id":"f3864e04-91b1-4fcc-b092-8ad39cd2a320","system_id":"levelo_inurba_marseille","lat":43.28682,"lon":5.38673,"is_reserved":false,"is_disabled":false,"rental_uris":{"android":"levelo://app?vid=f3864e04-91b1-4fcc-b092-8ad39cd2a320","ios":"levelo://app?vid=f3864e04-91b1-4fcc-b092-8ad39cd2a320"},"vehicle_type_id":"4","last_reported":1727759378,"current_range_meters":38800,"station_id":"ce4bh492rcd13ifvqdug","pricing_plan_id":"cebpf4jnsgd1na2vs0mg"},{"bike_id":"625b5f47-7e62-42f9-9d8b-f639d9667495","system_id":"levelo_inurba_marseille","lat":43.28033,"lon":5.36935,"is_reserved":false,"is_disabled":false,"rental_uris":{"android":"levelo://app?vid=625b5f47-7e62-42f9-9d8b-f639d9667495","ios":"levelo://app?vid=625b5f47-7e62-42f9-9d8b-f639d9667495"},"vehicle_type_id":"4","last_reported":1727759378,"current_range_meters":6400,"station_id":"ce4bha12rcd13ifvqef0","pricing_plan_id":"cebpf4jnsgd1na2vs0mg"},{"bike_id":"d354de6e-09c2-44ea-a629-0b4ea5bc66ff","system_id":"levelo_inurba_marseille","lat":43.28508,"lon":5.39132,"is_reserved":false,"is_disabled":false,"rental_uris":{"android":"levelo://app?vid=d354de6e-09c2-44ea-a629-0b4ea5bc66ff","ios":"levelo://app?vid=d354de6e-09c2-44ea-a629-0b4ea5bc66ff"},"vehicle_type_id":"4","last_reported":1727759378,"current_range_meters":19200,"station_id":"ce4bh3p2rcd13ifvqdp0","pricing_plan_id":"cebpf4jnsgd1na2vs0mg"},{"bike_id":"c85834c1-4a71-485f-a432-5961eb7995aa","system_id":"levelo_inurba_marseille","lat":43.30656,"lon":5.40078,"is_reserved":false,"is_disabled":false,"rental_uris":{"android":"levelo://app?vid=c85834c1-4a71-485f-a432-5961eb7995aa","ios":"levelo://app?vid=c85834c1-4a71-485f-a432-5961eb7995aa"},"vehicle_type_id":"4","last_reported":1727759378,"current_range_meters":38800,"station_id":"ce4bh112rcd13ifvqda0","pricing_plan_id":"cebpf4jnsgd1na2vs0mg"},{"bike_id":"bf31d161-a87a-4f7f-9f2e-88c28947a498","system_id":"levelo_inurba_marseille","lat":43.2871,"lon":5.37356,"is_reserved":false,"is_disabled":false,"rental_uris":{"android":"levelo://app?vid=bf31d161-a87a-4f7f-9f2e-88c28947a498","ios":"levelo://app?vid=bf31d161-a87a-4f7f-9f2e-88c28947a498"},"vehicle_type_id":"4","last_reported":1727759378,"current_range_meters":37600,"station_id":"ce4bh3p2rcd13ifvqdq0","pricing_plan_id":"cebpf4jnsgd1na2vs0mg"},{"bike_id":"72b65fa5-82ee-4f3a-8898-f694f1981ae1","system_id":"levelo_inurba_marseille","lat":43.29272,"lon":5.36852,"is_reserved":false,"is_disabled":false,"rental_uris":{"android":"levelo://app?vid=72b65fa5-82ee-4f3a-8898-f694f1981ae1","ios":"levelo://app?vid=72b65fa5-82ee-4f3a-8898-f694f1981ae1"},"vehicle_type_id":"4","last_reported":1727759378,"current_range_meters":38400,"station_id":"ce4bhbp2rcd13ifvqesg","pricing_plan_id":"cebpf4jnsgd1na2vs0mg"},{"bike_id":"f51efe2d-4655-49cf-b160-96906858d437","system_id":"levelo_inurba_marseille","lat":43.28108,"lon":5.37834,"is_reserved":false,"is_disabled":false,"rental_uris":{"android":"levelo://app?vid=f51efe2d-4655-49cf-b160-96906858d437","ios":"levelo://app?vid=f51efe2d-4655-49cf-b160-96906858d437"},"vehicle_type_id":"4","last_reported":1727759378,"current_range_meters":38800,"station_id":"ce4bha12rcd13ifvqee0","pricing_plan_id":"cebpf4jnsgd1na2vs0mg"},{"bike_id":"b2586d7f-0035-4565-9d82-49b4efe88b28","system_id":"levelo_inurba_marseille","lat":43.27215,"lon":5.39169,"is_reserved":false,"is_disabled":false,"rental_uris":{"android":"levelo://app?vid=b2586d7f-0035-4565-9d82-49b4efe88b28","ios":"levelo://app?vid=b2586d7f-0035-4565-9d82-49b4efe88b28"},"vehicle_type_id":"4","last_reported":1727759378,"current_range_meters":12000,"station_id":"","pricing_plan_id":"cebpf4jnsgd1na2vs0mg"},{"bike_id":"d3329261-bcf8-4d34-a85a-51710066765c","system_id":"levelo_inurba_marseille","lat":43.31485,"lon":5.37304,"is_reserved":false,"is_disabled":false,"rental_uris":{"android":"levelo://app?vid=d3329261-bcf8-4d34-a85a-51710066765c","ios":"levelo://app?vid=d3329261-bcf8-4d34-a85a-51710066765c"},"vehicle_type_id":"4","last_reported":1727759378,"current_range_meters":38800,"station_id":"ce4bgt12rcd13ifvqcd0","pricing_plan_id":"cebpf4jnsgd1na2vs0mg"},{"bike_id":"ae7464ad-529a-4efd-b996-61c01b643231","system_id":"levelo_inurba_marseille","lat":43.25503,"lon":5.37655,"is_reserved":false,"is_disabled":false,"rental_uris":{"android":"levelo://app?vid=ae7464ad-529a-4efd-b996-61c01b643231","ios":"levelo://app?vid=ae7464ad-529a-4efd-b996-61c01b643231"},"vehicle_type_id":"4","last_reported":1727759378,"current_range_meters":39200,"station_id":"ce4bhh12rcd13ifvqff0","pricing_plan_id":"cebpf4jnsgd1na2vs0mg"},{"bike_id":"6c4a97ef-ed56-4d85-98d9-463a709b63f3","system_id":"levelo_inurba_marseille","lat":43.24194,"lon":5.40554,"is_reserved":false,"is_disabled":false,"rental_uris":{"android":"levelo://app?vid=6c4a97ef-ed56-4d85-98d9-463a709b63f3","ios":"levelo://app?vid=6c4a97ef-ed56-4d85-98d9-463a709b63f3"},"vehicle_type_id":"4","last_reported":1727759378,"current_range_meters":20400,"station_id":"","pricing_plan_id":"cebpf4jnsgd1na2vs0mg"},{"bike_id":"ab80b424-bfc5-4709-9b95-a2bee6a56f64","system_id":"levelo_inurba_marseille","lat":43.32288,"lon":5.38266,"is_reserved":false,"is_disabled":false,"rental_uris":{"android":"levelo://app?vid=ab80b424-bfc5-4709-9b95-a2bee6a56f64","ios":"levelo://app?vid=ab80b424-bfc5-4709-9b95-a2bee6a56f64"},"vehicle_type_id":"4","last_reported":1727759378,"current_range_meters":38800,"station_id":"ce4bhr12rcd13ifvqhqg","pricing_plan_id":"cebpf4jnsgd1na2vs0mg"},{"bike_id":"2bfd4452-d854-4ea1-8b71-db38f940202a","system_id":"levelo_inurba_marseille","lat":43.288398,"lon":5.393208,"is_reserved":false,"is_disabled":false,"rental_uris":{"android":"levelo://app?vid=2bfd4452-d854-4ea1-8b71-db38f940202a","ios":"levelo://app?vid=2bfd4452-d854-4ea1-8b71-db38f940202a"},"vehicle_type_id":"4","last_reported":1727759378,"current_range_meters":36000,"station_id":"ce4bgrp2rcd13ifvqc9g","pricing_plan_id":"cebpf4jnsgd1na2vs0mg"},{"bike_id":"0c4fffa3-0dd9-4a0b-b4a5-965eae5d787a","system_id":"levelo_inurba_marseille","lat":43.25123,"lon":5.40318,"is_reserved":false,"is_disabled":false,"rental_uris":{"android":"levelo://app?vid=0c4fffa3-0dd9-4a0b-b4a5-965eae5d787a","ios":"levelo://app?vid=0c4fffa3-0dd9-4a0b-b4a5-965eae5d787a"},"vehicle_type_id":"4","last_reported":1727759378,"current_range_meters":38800,"station_id":"ce4bhlh2rcd13ifvqgig","pricing_plan_id":"cebpf4jnsgd1na2vs0mg"},{"bike_id":"1de48ce3-2380-4855-86f3-e3c06c2e7d1f","system_id":"levelo_inurba_marseille","lat":43.29034,"lon":5.39958,"is_reserved":false,"is_disabled":false,"rental_uris":{"android":"levelo://app?vid=1de48ce3-2380-4855-86f3-e3c06c2e7d1f","ios":"levelo://app?vid=1de48ce3-2380-4855-86f3-e3c06c2e7d1f"},"vehicle_type_id":"4","last_reported":1727759378,"current_range_meters":32000,"station_id":"ce4bh392rcd13ifvqdm0","pricing_plan_id":"cebpf4jnsgd1na2vs0mg"},{"bike_id":"e146b5d0-59bf-491d-8f1e-463e89e952b1","system_id":"levelo_inurba_marseille","lat":43.23189,"lon":5.39989,"is_reserved":false,"is_disabled":false,"rental_uris":{"android":"levelo://app?vid=e146b5d0-59bf-491d-8f1e-463e89e952b1","ios":"levelo://app?vid=e146b5d0-59bf-491d-8f1e-463e89e952b1"},"vehicle_type_id":"4","last_reported":1727759378,"current_range_meters":38800,"station_id":"ce4bhn12rcd13ifvqgqg","pricing_plan_id":"cebpf4jnsgd1na2vs0mg"},{"bike_id":"39b4fab6-0cc5-490f-b542-51791f19b118","system_id":"levelo_inurba_marseille","lat":43.30535,"lon":5.38425,"is_reserved":false,"is_disabled":false,"rental_uris":{"android":"levelo://app?vid=39b4fab6-0cc5-490f-b542-51791f19b118","ios":"levelo://app?vid=39b4fab6-0cc5-490f-b542-51791f19b118"},"vehicle_type_id":"4","last_reported":1727759378,"current_range_meters":38800,"station_id":"ce4bgg92rcd13ifvqb30","pricing_plan_id":"cebpf4jnsgd1na2vs0mg"},{"bike_id":"798c4278-1622-4c86-8893-fc54c9358653","system_id":"levelo_inurba_marseille","lat":43.25081,"lon":5.39509,"is_reserved":false,"is_disabled":false,"rental_uris":{"android":"levelo://app?vid=798c4278-1622-4c86-8893-fc54c9358653","ios":"levelo://app?vid=798c4278-1622-4c86-8893-fc54c9358653"},"vehicle_type_id":"4","last_reported":1727759378,"current_range_meters":30800,"station_id":"ce4bhm12rcd13ifvqgkg","pricing_plan_id":"cebpf4jnsgd1na2vs0mg"},{"bike_id":"a12211cf-5812-442b-975a-5b9ba044ba32","system_id":"levelo_inurba_marseille","lat":43.31272,"lon":5.40164,"is_reserved":false,"is_disabled":false,"rental_uris":{"android":"levelo://app?vid=a12211cf-5812-442b-975a-5b9ba044ba32","ios":"levelo://app?vid=a12211cf-5812-442b-975a-5b9ba044ba32"},"vehicle_type_id":"4","last_reported":1727759378,"current_range_meters":38800,"station_id":"ce4bh092rcd13ifvqd30","pricing_plan_id":"cebpf4jnsgd1na2vs0mg"},{"bike_id":"f493192b-13c6-47a1-9573-739dd32e633f","system_id":"levelo_inurba_marseille","lat":43.337444,"lon":5.374475,"is_reserved":false,"is_disabled":false,"rental_uris":{"android":"levelo://app?vid=f493192b-13c6-47a1-9573-739dd32e633f","ios":"levelo://app?vid=f493192b-13c6-47a1-9573-739dd32e633f"},"vehicle_type_id":"4","last_reported":1727759378,"current_range_meters":18800,"station_id":"","pricing_plan_id":"cebpf4jnsgd1na2vs0mg"},{"bike_id":"2f91abf2-1367-48a5-a243-2fc940a07d67","system_id":"levelo_inurba_marseille","lat":43.2737,"lon":5.36257,"is_reserved":false,"is_disabled":false,"rental_uris":{"android":"levelo://app?vid=2f91abf2-1367-48a5-a243-2fc940a07d67","ios":"levelo://app?vid=2f91abf2-1367-48a5-a243-2fc940a07d67"},"vehicle_type_id":"4","last_reported":1727759378,"current_range_meters":38000,"station_id":"ce4bhbh2rcd13ifvqeo0","pricing_plan_id":"cebpf4jnsgd1na2vs0mg"},{"bike_id":"27d64a42-abc6-4d9a-b978-66f234b01e3b","system_id":"levelo_inurba_marseille","lat":43.30539,"lon":5.38432,"is_reserved":false,"is_disabled":false,"rental_uris":{"android":"levelo://app?vid=27d64a42-abc6-4d9a-b978-66f234b01e3b","ios":"levelo://app?vid=27d64a42-abc6-4d9a-b978-66f234b01e3b"},"vehicle_type_id":"4","last_reported":1727759378,"current_range_meters":38800,"station_id":"ce4bgg92rcd13ifvqb30","pricing_plan_id":"cebpf4jnsgd1na2vs0mg"},{"bike_id":"815d75ab-59db-49f2-9d6c-a851d5f73245","system_id":"levelo_inurba_marseille","lat":43.32293,"lon":5.38271,"is_reserved":false,"is_disabled":false,"rental_uris":{"android":"levelo://app?vid=815d75ab-59db-49f2-9d6c-a851d5f73245","ios":"levelo://app?vid=815d75ab-59db-49f2-9d6c-a851d5f73245"},"vehicle_type_id":"4","last_reported":1727759378,"current_range_meters":32400,"station_id":"ce4bhr12rcd13ifvqhqg","pricing_plan_id":"cebpf4jnsgd1na2vs0mg"},{"bike_id":"ce6166ea-c4ad-4ecf-8cb6-35a2f13ea8fd","system_id":"levelo_inurba_marseille","lat":43.23959,"lon":5.3662,"is_reserved":false,"is_disabled":false,"rental_uris":{"android":"levelo://app?vid=ce6166ea-c4ad-4ecf-8cb6-35a2f13ea8fd","ios":"levelo://app?vid=ce6166ea-c4ad-4ecf-8cb6-35a2f13ea8fd"},"vehicle_type_id":"4","last_reported":1727759378,"current_range_meters":18800,"station_id":"ce4bhi12rcd13ifvqfp0","pricing_plan_id":"cebpf4jnsgd1na2vs0mg"},{"bike_id":"25e3a668-37a3-42b9-adc4-cba370d49ac9","system_id":"levelo_inurba_marseille","lat":43.31271,"lon":5.40165,"is_reserved":false,"is_disabled":false,"rental_uris":{"android":"levelo://app?vid=25e3a668-37a3-42b9-adc4-cba370d49ac9","ios":"levelo://app?vid=25e3a668-37a3-42b9-adc4-cba370d49ac9"},"vehicle_type_id":"4","last_reported":1727759378,"current_range_meters":16000,"station_id":"ce4bh092rcd13ifvqd30","pricing_plan_id":"cebpf4jnsgd1na2vs0mg"},{"bike_id":"485f04ad-1fa1-4a10-9d6b-f81cec43194f","system_id":"levelo_inurba_marseille","lat":43.28408,"lon":5.3752,"is_reserved":false,"is_disabled":false,"rental_uris":{"android":"levelo://app?vid=485f04ad-1fa1-4a10-9d6b-f81cec43194f","ios":"levelo://app?vid=485f04ad-1fa1-4a10-9d6b-f81cec43194f"},"vehicle_type_id":"4","last_reported":1727759378,"current_range_meters":38800,"station_id":"ce4bh412rcd13ifvqds0","pricing_plan_id":"cebpf4jnsgd1na2vs0mg"},{"bike_id":"38fee11a-0b57-4ec4-a69d-24b167c1c4d5","system_id":"levelo_inurba_marseille","lat":43.3032,"lon":5.36906,"is_reserved":false,"is_disabled":false,"rental_uris":{"android":"levelo://app?vid=38fee11a-0b57-4ec4-a69d-24b167c1c4d5","ios":"levelo://app?vid=38fee11a-0b57-4ec4-a69d-24b167c1c4d5"},"vehicle_type_id":"4","last_reported":1727759378,"current_range_meters":39200,"station_id":"ce4bgqh2rcd13ifvqc5g","pricing_plan_id":"cebpf4jnsgd1na2vs0mg"},