{"last_updated":1736556387,"ttl":60,"version":"2.2","data":{"bikes":[{"bike_id":"14a8245a-9128-40d3-8265-cf1423d2fdc8","system_id":"levelo_inurba_marseille","lat":43.24808,"lon":5.37454,"is_reserved":false,"is_disabled":false,"rental_uris":{"android":"levelo://app?vid=14a8245a-9128-40d3-8265-cf1423d2fdc8","ios":"levelo://app?vid=14a8245a-9128-40d3-8265-cf1423d2fdc8"},"vehicle_type_id":"4","last_reported":1736556388,"current_range_meters":38800,"station_id":"ce4bhgh2rcd13ifvqfb0","pricing_plan_id":"cebpf4jnsgd1na2vs0mg"},{"bike_id":"d4b06b90-36bb-4ab0-af4e-3334c9d4e6d4","system_id":"levelo_inurba_marseille","lat":43.23404,"lon":5.35871,"is_reserved":false,"is_disabled":false,"rental_uris":{"android":"levelo://app?vid=d4b06b90-36bb-4ab0-af4e-3334c9d4e6d4","ios":"levelo://app?vid=d4b06b90-36bb-4ab0-af4e-3334c9d4e6d4"},"vehicle_type_id":"4","last_reported":1736556388,"current_range_meters":8400,"station_id":"","pricing_plan_id":"cebpf4jnsgd1na2vs0mg"},{"bike_id":"9ff24b9e-60a3-48d4-8cde-0ae6dfde2dc8","system_id":"levelo_inurba_marseille","lat":43.33029,"lon":5.39042,"is_reserved":false,"is_disabled":false,"rental_uris":{"android":"levelo://app?vid=9ff24b9e-60a3-48d4-8cde-0ae6dfde2dc8","ios":"levelo://app?vid=9ff24b9e-60a3-48d4-8cde-0ae6dfde2dc8"},"vehicle_type_id":"4","last_reported":1736556388,"current_range_meters":31200,"station_id":"ce4bhr92rcd13ifvqhrg","pricing_plan_id":"cebpf4jnsgd1na2vs0mg"},{"bike_id":"79a7df46-a7ca-4d27-97af-0883a0d4aacd","system_id":"levelo_inurba_marseille","lat":43.24816,"lon":5.37464,"is_reserved":false,"is_disabled":false,"rental_uris":{"android":"levelo://app?vid=79a7df46-a7ca-4d27-97af-0883a0d4aacd","ios":"levelo://app?vid=79a7df46-a7ca-4d27-97af-0883a0d4aacd"},"vehicle_type_id":"4","last_reported":1736556388,"current_range_meters":35200,"station_id":"ce4bhgh2rcd13ifvqfb0","pricing_plan_id":"cebpf4jnsgd1na2vs0mg"},{"bike_id":"42034ff5-e6b0-40c2-8baa-a33bc13731d4","system_id":"levelo_inurba_marseille","lat":43.25928,"lon":5.40897,"is_reserved":false,"is_disabled":true,"rental_uris":{"android":"levelo://app?vid=42034ff5-e6b0-40c2-8baa-a33bc13731d4","ios":"levelo://app?vid=42034ff5-e6b0-40c2-8baa-a33bc13731d4"},"vehicle_type_id":"4","last_reported":1736556388,"current_range_meters":27600,"station_id":"ce4bhm92rcd13ifvqglg","pricing_plan_id":"cebpf4jnsgd1na2vs0mg"},{"bike_id":"2776acb0-e784-4db3-9704-ed4ff8ea7b58","system_id":"levelo_inurba_marseille","lat":43.27971,"lon":5.38728,"is_reserved":false,"is_disabled":false,"rental_uris":{"android":"levelo://app?vid=2776acb0-e784-4db3-9704-ed4ff8ea7b58","ios":"levelo://app?vid=2776acb0-e784-4db3-9704-ed4ff8ea7b58"},"vehicle_type_id":"4","last_reported":1736556388,"current_range_meters":15200,"station_id":"ce4bhg12rcd13ifvqf80","pricing_plan_id":"cebpf4jnsgd1na2vs0mg"},{"bike_id":"02fa8d23-b641-466a-8661-f76f63fb8c6e","system_id":"levelo_inurba_marseille","lat":43.31531,"lon":5.38059,"is_reserved":false,"is_disabled":false,"rental_uris":{"android":"levelo://app?vid=02fa8d23-b641-466a-8661-f76f63fb8c6e","ios":"levelo://app?vid=02fa8d23-b641-466a-8661-f76f63fb8c6e"},"vehicle_type_id":"4","last_reported":1736556388,"current_range_meters":39200,"station_id":"ce4bhsp2rcd13ifvqi50","pricing_plan_id":"cebpf4jnsgd1na2vs0mg"},{"bike_id":"0fe425bb-f9c2-47cb-b4cc-f55ce66357e3","system_id":"levelo_inurba_marseille","lat":43.24056,"lon":5.37753,"is_reserved":false,"is_disabled":false,"rental_uris":{"android":"levelo://app?vid=0fe425bb-f9c2-47cb-b4cc-f55ce66357e3","ios":"levelo://app?vid=0fe425bb-f9c2-47cb-b4cc-f55ce66357e3"},"vehicle_type_id":"4","last_reported":1736556388,"current_range_meters":38800,"station_id":"ce4bhnp2rcd13ifvqgvg","pricing_plan_id":"cebpf4jnsgd1na2vs0mg"},{"bike_id":"d2f823e9-4311-4ea5-8493-dc6417fe0a04","system_id":"levelo_inurba_marseille","lat":43.28416,"lon":5.34987,"is_reserved":false,"is_disabled":true,"rental_uris":{"android":"levelo://app?vid=d2f823e9-4311-4ea5-8493-dc6417fe0a04","ios":"levelo://app?vid=d2f823e9-4311-4ea5-8493-dc6417fe0a04"},"vehicle_type_id":"4","last_reported":1736556388,"current_range_meters":2800,"station_id":"ce4bhbh2rcd13ifvqepg","pricing_plan_id":"cebpf4jnsgd1na2vs0mg"},{"bike_id":"a444a04d-7a75-4bb0-b921-23a4f692b157","system_id":"levelo_inurba_marseille","lat":43.246531,"lon":5.388937,"is_reserved":false,"is_disabled":false,"rental_uris":{"android":"levelo://app?vid=a444a04d-7a75-4bb0-b921-23a4f692b157","ios":"levelo://app?vid=a444a04d-7a75-4bb0-b921-23a4f692b157"},"vehicle_type_id":"4","last_reported":1736556388,"current_range_meters":22000,"station_id":"ce4bhg12rcd13ifvqf60","pricing_plan_id":"cebpf4jnsgd1na2vs0mg"},{"bike_id":"b246f170-19e2-4621-9322-d904efe8f685","system_id":"levelo_inurba_marseille","lat":43.33608,"lon":5.41037,"is_reserved":false,"is_disabled":false,"rental_uris":{"android":"levelo://app?vid=b246f170-19e2-4621-9322-d904efe8f685","ios":"levelo://app?vid=b246f170-19e2-4621-9322-d904efe8f685"},"vehicle_type_id":"4","last_reported":1736556388,"current_range_meters":3200,"station_id":"ce4bhqh2rcd13ifvqhmg","pricing_plan_id":"cebpf4jnsgd1na2vs0mg"},{"bike_id":"42b2945a-873e-44b2-ae60-3504061c9f79","system_id":"levelo_inurba_marseille","lat":43.28274,"lon":5.35078,"is_reserved":false,"is_disabled":false,"rental_uris":{"android":"levelo://app?vid=42b2945a-873e-44b2-ae60-3504061c9f79","ios":"levelo://app?vid=42b2945a-873e-44b2-ae60-3504061c9f79"},"vehicle_type_id":"4","last_reported":1736556388,"current_range_meters":12800,"station_id":"ce4bhbp2rcd13ifvqerg","pricing_plan_id":"cebpf4jnsgd1na2vs0mg"},{"bike_id":"4a1197e9-1d8f-4601-b512-fd7b383aeec4","system_id":"levelo_inurba_marseille","lat":43.2396,"lon":5.36646,"is_reserved":false,"is_disabled":false,"rental_uris":{"android":"levelo://app?vid=4a1197e9-1d8f-4601-b512-fd7b383aeec4","ios":"levelo://app?vid=4a1197e9-1d8f-4601-b512-fd7b383aeec4"},"vehicle_type_id":"4","last_reported":1736556388,"current_range_meters":22000,"station_id":"ce4bhi12rcd13ifvqfp0","pricing_plan_id":"cebpf4jnsgd1na2vs0mg"},{"bike_id":"5e751dc9-d0f7-485e-a2a1-1e43b64bc915","system_id":"levelo_inurba_marseille","lat":43.28578,"lon":5.39494,"is_reserved":false,"is_disabled":false,"rental_uris":{"android":"levelo://app?vid=5e751dc9-d0f7-485e-a2a1-1e43b64bc915","ios":"levelo://app?vid=5e751dc9-d0f7-485e-a2a1-1e43b64bc915"},"vehicle_type_id":"4","last_reported":1736556388,"current_range_meters":35200,"station_id":"ce4bh292rcd13ifvqdg0","pricing_plan_id":"cebpf4jnsgd1na2vs0mg"},{"bike_id":"7d80a78b-0e36-49c4-9d6e-50edf6ca6450","system_id":"levelo_inurba_marseille","lat":43.28011,"lon":5.41687,"is_reserved":false,"is_disabled":false,"rental_uris":{"android":"levelo://app?vid=7d80a78b-0e36-49c4-9d6e-50edf6ca6450","ios":"levelo://app?vid=7d80a78b-0e36-49c4-9d6e-50edf6ca6450"},"vehicle_type_id":"4","last_reported":1736556388,"current_range_meters":39200,"station_id":"ce4bho12rcd13ifvqh1g","pricing_plan_id":"cebpf4jnsgd1na2vs0mg"},{"bike_id":"f27315e5-5b6e-4c1c-bf3c-bb19556d13a1","system_id":"levelo_inurba_marseille","lat":43.33617,"lon":5.41033,"is_reserved":false,"is_disabled":false,"rental_uris":{"android":"levelo://app?vid=f27315e5-5b6e-4c1c-bf3c-bb19556d13a1","ios":"levelo://app?vid=f27315e5-5b6e-4c1c-bf3c-bb19556d13a1"},"vehicle_type_id":"4","last_reported":1736556388,"current_range_meters":38800,"station_id":"ce4bhqh2rcd13ifvqhmg","pricing_plan_id":"cebpf4jnsgd1na2vs0mg"},{"bike_id":"91e92e19-3b30-4f9d-9cb8-e0e26630b776","system_id":"levelo_inurba_marseille","lat":43.25866,"lon":5.399,"is_reserved":false,"is_disabled":false,"rental_uris":{"android":"levelo://app?vid=91e92e19-3b30-4f9d-9cb8-e0e26630b776","ios":"levelo://app?vid=91e92e19-3b30-4f9d-9cb8-e0e26630b776"},"vehicle_type_id":"4","last_reported":1736556388,"current_range_meters":28000,"station_id":"ce4bhl92rcd13ifvqghg","pricing_plan_id":"cebpf4jnsgd1na2vs0mg"},{"bike_id":"853d56cd-3451-4764-beab-a40e85523b05","system_id":"levelo_inurba_marseille","lat":43.24653,"lon":5.38894,"is_reserved":false,"is_disabled":false,"rental_uris":{"android":"levelo://app?vid=853d56cd-3451-4764-beab-a40e85523b05","ios":"levelo://app?vid=853d56cd-3451-4764-beab-a40e85523b05"},"vehicle_type_id":"4","last_reported":1736556388,"current_range_meters":6400,"station_id":"ce4bhg12rcd13ifvqf60","pricing_plan_id":"cebpf4jnsgd1na2vs0mg"},{"bike_id":"2c1e6826-ba01-47fd-9f3c-08c7df023fd8","system_id":"levelo_inurba_marseille","lat":43.28463,"lon":5.35891,"is_reserved":false,"is_disabled":false,"rental_uris":{"android":"levelo://app?vid=2c1e6826-ba01-47fd-9f3c-08c7df023fd8","ios":"levelo://app?vid=2c1e6826-ba01-47fd-9f3c-08c7df023fd8"},"vehicle_type_id":"4","last_reported":1736556388,"current_range_meters":20400,"station_id":"ce4bhah2rcd13ifvqei0","pricing_plan_id":"cebpf4jnsgd1na2vs0mg"},{"bike_id":"004c2ac5-7f25-4e48-8a80-9a02537f6ba6","system_id":"levelo_inurba_marseille","lat":43.32123,"lon":5.36761,"is_reserved":false,"is_disabled":false,"rental_uris":{"android":"levelo://app?vid=004c2ac5-7f25-4e48-8a80-9a02537f6ba6","ios":"levelo://app?vid=004c2ac5-7f25-4e48-8a80-9a02537f6ba6"},"vehicle_type_id":"4","last_reported":1736556388,"current_range_meters":33200,"station_id":"ce4bhrh2rcd13ifvqhug","pricing_plan_id":"cebpf4jnsgd1na2vs0mg"},{"bike_id":"6a8dc65c-8c47-4239-8815-8efa2acdc338","system_id":"levelo_inurba_marseille","lat":43.28022,"lon":5.41679,"is_reserved":false,"is_disabled":true,"rental_uris":{"android":"levelo://app?vid=6a8dc65c-8c47-4239-8815-8efa2acdc338","ios":"levelo://app?vid=6a8dc65c-8c47-4239-8815-8efa2acdc338"},"vehicle_type_id":"4","last_reported":1736556388,"current_range_meters":12800,"station_id":"ce4bho12rcd13ifvqh1g","pricing_plan_id":"cebpf4jnsgd1na2vs0mg"},{"bike_id":"2f457c0c-5283-4f66-b319-69a87ce07d89","system_id":"levelo_inurba_marseille","lat":43.25012,"lon":5.38912,"is_reserved":false,"is_disabled":false,"rental_uris":{"android":"levelo://app?vid=2f457c0c-5283-4f66-b319-69a87ce07d89","ios":"levelo://app?vid=2f457c0c-5283-4f66-b319-69a87ce07d89"},"vehicle_type_id":"4","last_reported":1736556388,"current_range_meters":33200,"station_id":"ce4bhgp2rcd13ifvqfd0","pricing_plan_id":"cebpf4jnsgd1na2vs0mg"},{"bike_id":"aca9d58c-8821-4d79-88c1-67c3a044952f","system_id":"levelo_inurba_marseille","lat":43.33022,"lon":5.3904,"is_reserved":false,"is_disabled":false,"rental_uris":{"android":"levelo://app?vid=aca9d58c-8821-4d79-88c1-67c3a044952f","ios":"levelo://app?vid=aca9d58c-8821-4d79-88c1-67c3a044952f"},"vehicle_type_id":"4","last_reported":1736556388,"current_range_meters":24000,"station_id":"ce4bhr92rcd13ifvqhrg","pricing_plan_id":"cebpf4jnsgd1na2vs0mg"},{"bike_id":"86cd1141-6e96-4c04-94b3-22ca752a46a1","system_id":"levelo_inurba_marseille","lat":43.2319,"lon":5.399827,"is_reserved":false,"is_disabled":false,"rental_uris":{"android":"levelo://app?vid=86cd1141-6e96-4c04-94b3-22ca752a46a1","ios":"levelo://app?vid=86cd1141-6e96-4c04-94b3-22ca752a46a1"},"vehicle_type_id":"4","last_reported":1736556388,"current_range_meters":39200,"station_id":"ce4bhn12rcd13ifvqgqg","pricing_plan_id":"cebpf4jnsgd1na2vs0mg"},{"bike_id":"0754a3a6-d8ad-4e11-a0fd-2e381f851794","system_id":"levelo_inurba_marseille","lat":43.33733,"lon":5.39198,"is_reserved":false,"is_disabled":false,"rental_uris":{"android":"levelo://app?vid=0754a3a6-d8ad-4e11-a0fd-2e381f851794","ios":"levelo://app?vid=0754a3a6-d8ad-4e11-a0fd-2e381f851794"},"vehicle_type_id":"4","last_reported":1736556388,"current_range_meters":38800,"station_id":"ce4bhr92rcd13ifvqhsg","pricing_plan_id":"cebpf4jnsgd1na2vs0mg"},{"bike_id":"ba43f1cb-442f-415b-aaf2-ab3a50e56056","system_id":"levelo_inurba_marseille","lat":43.23964,"lon":5.36665,"is_reserved":false,"is_disabled":false,"rental_uris":{"android":"levelo://app?vid=ba43f1cb-442f-415b-aaf2-ab3a50e56056","ios":"levelo://app?vid=ba43f1cb-442f-415b-aaf2-ab3a50e56056"},"vehicle_type_id":"4","last_reported":1736556388,"current_range_meters":11600,"station_id":"ce4bhi12rcd13ifvqfp0","pricing_plan_id":"cebpf4jnsgd1na2vs0mg"},{"bike_id":"50bd41a2-4134-4514-bd21-8188f8f923aa","system_id":"levelo_inurba_marseille","lat":43.2871,"lon":5.40001,"is_reserved":false,"is_disabled":true,"rental_uris":{"android":"levelo://app?vid=50bd41a2-4134-4514-bd21-8188f8f923aa","ios":"levelo://app?vid=50bd41a2-4134-4514-bd21-8188f8f923aa"},"vehicle_type_id":"4","last_reported":1736556388,"current_range_meters":400,"station_id":"ce4bho92rcd13ifvqh3g","pricing_plan_id":"cebpf4jnsgd1na2vs0mg"},{"bike_id":"c1dea8eb-dedb-48c3-82b9-ba4d059a0755","system_id":"levelo_inurba_marseille","lat":43.26551,"lon":5.37292,"is_reserved":false,"is_disabled":true,"rental_uris":{"android":"levelo://app?vid=c1dea8eb-dedb-48c3-82b9-ba4d059a0755","ios":"levelo://app?vid=c1dea8eb-dedb-48c3-82b9-ba4d059a0755"},"vehicle_type_id":"4","last_reported":1736556388,"current_range_meters":11200,"station_id":"ce4bhg12rcd13ifvqf70","pricing_plan_id":"cebpf4jnsgd1na2vs0mg"},{"bike_id":"666c0c92-428a-4f95-8531-2a4d6f4a5bb0","system_id":"levelo_inurba_marseille","lat":43.246791,"lon":5.381683,"is_reserved":false,"is_disabled":false,"rental_uris":{"android":"levelo://app?vid=666c0c92-428a-4f95-8531-2a4d6f4a5bb0","ios":"levelo://app?vid=666c0c92-428a-4f95-8531-2a4d6f4a5bb0"},"vehicle_type_id":"4","last_reported":1736556388,"current_range_meters":9600,"station_id":"ce4bhih2rcd13ifvqfr0","pricing_plan_id":"cebpf4jnsgd1na2vs0mg"},{"bike_id":"3e35ef7b-3237-4c6e-a7b1-693543e13672","system_id":"levelo_inurba_marseille","lat":43.24665,"lon":5.38889,"is_reserved":false,"is_disabled":false,"rental_uris":{"android":"levelo://app?vid=3e35ef7b-3237-4c6e-a7b1-693543e13672","ios":"levelo://app?vid=3e35ef7b-3237-4c6e-a7b1-693543e13672"},"vehicle_type_id":"4","last_reported":1736556388,"current_range_meters":30800,"station_id":"ce4bhg12rcd13ifvqf60","pricing_plan_id":"cebpf4jnsgd1na2vs0mg"},{"bike_id":"018b1dec-e598-4953-b405-2ab1506b9d97","system_id":"levelo_inurba_marseille","lat":43.29007,"lon":5.35616,"is_reserved":false,"is_disabled":false,"rental_uris":{"android":"levelo://app?vid=018b1dec-e598-4953-b405-2ab1506b9d97","ios":"levelo://app?vid=018b1dec-e598-4953-b405-2ab1506b9d97"},"vehicle_type_id":"4","last_reported":1736556388,"current_range_meters":28800,"station_id":"ce4bhb92rcd13ifvqen0","pricing_plan_id":"cebpf4jnsgd1na2vs0mg"},{"bike_id":"f1fed00d-7214-4615-a882-fc8ac039a804","system_id":"levelo_inurba_marseille","lat":43.31727,"lon":5.42398,"is_reserved":false,"is_disabled":false,"rental_uris":{"android":"levelo://app?vid=f1fed00d-7214-4615-a882-fc8ac039a804","ios":"levelo://app?vid=f1fed00d-7214-4615-a882-fc8ac039a804"},"vehicle_type_id":"4","last_reported":1736556388,"current_range_meters":16000,"station_id":"ce4bhp92rcd13ifvqhbg","pricing_plan_id":"cebpf4jnsgd1na2vs0mg"},{"bike_id":"71cf82d9-2798-42b4-a4cc-4ab59dd88803","system_id":"levelo_inurba_marseille","lat":43.23188,"lon":5.39992,"is_reserved":false,"is_disabled":false,"rental_uris":{"android":"levelo://app?vid=71cf82d9-2798-42b4-a4cc-4ab59dd88803","ios":"levelo://app?vid=71cf82d9-2798-42b4-a4cc-4ab59dd88803"},"vehicle_type_id":"4","last_reported":1736556388,"current_range_meters":9200,"station_id":"ce4bhn12rcd13ifvqgqg","pricing_plan_id":"cebpf4jnsgd1na2vs0mg"},{"bike_id":"dcb2126a-d21d-4ccc-8dd5-f93c643abd4d","system_id":"levelo_inurba_marseille","lat":43.28927,"lon":5.3841,"is_reserved":false,"is_disabled":true,"rental_uris":{"android":"levelo://app?vid=dcb2126a-d21d-4ccc-8dd5-f93c643abd4d","ios":"levelo://app?vid=dcb2126a-d21d-4ccc-8dd5-f93c643abd4d"},"vehicle_type_id":"4","last_reported":1736556388,"current_range_meters":10000,"station_id":"ce4bh612rcd13ifvqe6g","pricing_plan_id":"cebpf4jnsgd1na2vs0mg"},{"bike_id":"40aa582d-815a-4ab4-b49f-d3b3d622ee04","system_id":"levelo_inurba_marseille","lat":43.23066,"lon":5.35498,"is_reserved":false,"is_disabled":false,"rental_uris":{"android":"levelo://app?vid=40aa582d-815a-4ab4-b49f-d3b3d622ee04","ios":"levelo://app?vid=40aa582d-815a-4ab4-b49f-d3b3d622ee04"},"vehicle_type_id":"4","last_reported":1736556388,"current_range_meters":38800,"station_id":"cpo3342slgdg3j2ifvpg","pricing_plan_id":"cebpf4jnsgd1na2vs0mg"},{"bike_id":"6b750947-fb43-40e2-9931-495446cc2b3f","system_id":"levelo_inurba_marseille","lat":43.22917,"lon":5.35385,"is_reserved":false,"is_disabled":false,"rental_uris":{"android":"levelo://app?vid=6b750947-fb43-40e2-9931-495446cc2b3f","ios":"levelo://app?vid=6b750947-fb43-40e2-9931-495446cc2b3f"},"vehicle_type_id":"4","last_reported":1736556388,"current_range_meters":38800,"station_id":"cpo3532slgdg3j2ikp40","pricing_plan_id":"cebpf4jnsgd1na2vs0mg"},{"bike_id":"c8e997c0-8580-4d0f-8d9f-0766596381e1","system_id":"levelo_inurba_marseille","lat":43.34019,"lon":5.37548,"is_reserved":false,"is_disabled":false,"rental_uris":{"android":"levelo://app?vid=c8e997c0-8580-4d0f-8d9f-0766596381e1","ios":"levelo://app?vid=c8e997c0-8580-4d0f-8d9f-0766596381e1"},"vehicle_type_id":"4","last_reported":1736556388,"current_range_meters":8000,"station_id":"","pricing_plan_id":"cebpf4jnsgd1na2vs0mg"},{"bike_id":"cdd6ea3b-b2d4-4fc4-9a6f-f8f110676853","system_id":"levelo_inurba_marseille","lat":43.27687,"lon":5.38392,"is_reserved":false,"is_disabled":false,"rental_uris":{"android":"levelo://app?vid=cdd6ea3b-b2d4-4fc4-9a6f-f8f110676853","ios":"levelo://app?vid=cdd6ea3b-b2d4-4fc4-9a6f-f8f110676853"},"vehicle_type_id":"4","last_reported":1736556388,"current_range_meters":29600,"station_id":"ce4bhh92rcd13ifvqfi0","pricing_plan_id":"cebpf4jnsgd1na2vs0mg"},{"bike_id":"5b79b006-d7c3-4b04-9541-c9d77e2d63cb","system_id":"levelo_inurba_marseille","lat":43.31714,"lon":5.40451,"is_reserved":false,"is_disabled":true,"rental_uris":{"android":"levelo://app?vid=5b79b006-d7c3-4b04-9541-c9d77e2d63cb","ios":"levelo://app?vid=5b79b006-d7c3-4b04-9541-c9d77e2d63cb"},"vehicle_type_id":"4","last_reported":1736556388,"current_range_meters":14400,"station_id":"ce4bh012rcd13ifvqd00","pricing_plan_id":"cebpf4jnsgd1na2vs0mg"},{"bike_id":"1f5ef9f6-050f-4f79-a9ce-badba66ed461","system_id":"levelo_inurba_marseille","lat":43.28623,"lon":5.4003,"is_reserved":false,"is_disabled":false,"rental_uris":{"android":"levelo://app?vid=1f5ef9f6-050f-4f79-a9ce-badba66ed461","ios":"levelo://app?vid=1f5ef9f6-050f-4f79-a9ce-badba66ed461"},"vehicle_type_id":"4","last_reported":1736556388,"current_range_meters":22800,"station_id":"","pricing_plan_id":"cebpf4jnsgd1na2vs0mg"},{"bike_id":"56bddece-92f9-4ae4-872a-f4e44198a5cb","system_id":"levelo_inurba_marseille","lat":43.2867,"lon":5.36356,"is_reserved":false,"is_disabled":false,"rental_uris":{"android":"levelo://app?vid=56bddece-92f9-4ae4-872a-f4e44198a5cb","ios":"levelo://app?vid=56bddece-92f9-4ae4-872a-f4e44198a5cb"},"vehicle_type_id":"4","last_reported":1736556388,"current_range_meters":22000,"station_id":"ce4bhah2rcd13ifvqej0","pricing_plan_id":"cebpf4jnsgd1na2vs0mg"},{"bike_id":"79da2544-1cc6-4479-aa5c-48161bc5839b","system_id":"levelo_inurba_marseille","lat":43.30418,"lon":5.39718,"is_reserved":false,"is_disabled":true,"rental_uris":{"android":"levelo://app?vid=79da2544-1cc6-4479-aa5c-48161bc5839b","ios":"levelo://app?vid=79da2544-1cc6-4479-aa5c-48161bc5839b"},"vehicle_type_id":"4","last_reported":1736556388,"current_range_meters":28800,"station_id":"ce4bh092rcd13ifvqd20","pricing_plan_id":"cebpf4jnsgd1na2vs0mg"},{"bike_id":"8c51b07a-8e07-48bf-b1a9-e9c7292766b1","system_id":"levelo_inurba_marseille","lat":43.25727,"lon":5.41117,"is_reserved":false,"is_disabled":false,"rental_uris":{"android":"levelo://app?vid=8c51b07a-8e07-48bf-b1a9-e9c7292766b1","ios":"levelo://app?vid=8c51b07a-8e07-48bf-b1a9-e9c7292766b1"},"vehicle_type_id":"4","last_reported":1736556388,"current_range_meters":6800,"station_id":"ce4bhkp2rcd13ifvqgd0","pricing_plan_id":"cebpf4jnsgd1na2vs0mg"},{"bike_id":"6d907632-b7a4-409f-98d5-031bae93ab87","system_id":"levelo_inurba_marseille","lat":43.23961,"lon":5.3663,"is_reserved":false,"is_disabled":false,"rental_uris":{"android":"levelo://app?vid=6d907632-b7a4-409f-98d5-031bae93ab87","ios":"levelo://app?vid=6d907632-b7a4-409f-98d5-031bae93ab87"},"vehicle_type_id":"4","last_reported":1736556388,"current_range_meters":38400,"station_id":"ce4bhi12rcd13ifvqfp0","pricing_plan_id":"cebpf4jnsgd1na2vs0mg"},{"bike_id":"eb9b2df2-fdc1-4d66-abed-6bda4748c4f1","system_id":"levelo_inurba_marseille","lat":43.26213,"lon":5.37921,"is_reserved":false,"is_disabled":false,"rental_uris":{"android":"levelo://app?vid=eb9b2df2-fdc1-4d66-abed-6bda4748c4f1","ios":"levelo://app?vid=eb9b2df2-fdc1-4d66-abed-6bda4748c4f1"},"vehicle_type_id":"4","last_reported":1736556388,"current_range_meters":29600,"station_id":"ce4bhjp2rcd13ifvqg90","pricing_plan_id":"cebpf4jnsgd1na2vs0mg"},{"bike_id":"7b59f827-07b3-4c19-b479-2db551fc450c","system_id":"levelo_inurba_marseille","lat":43.30972,"lon":5.39031,"is_reserved":false,"is_disabled":false,"rental_uris":{"android":"levelo://app?vid=7b59f827-07b3-4c19-b479-2db551fc450c","ios":"levelo://app?vid=7b59f827-07b3-4c19-b479-2db551fc450c"},"vehicle_type_id":"4","last_reported":1736556388,"current_range_meters":24800,"station_id":"ce4bgup2rcd13ifvqco0","pricing_plan_id":"cebpf4jnsgd1na2vs0mg"},{"bike_id":"4e36486e-78ed-45f0-99d4-e2d2e858abb4","system_id":"levelo_inurba_marseille","lat":43.28943,"lon":5.396293,"is_reserved":false,"is_disabled":false,"rental_uris":{"android":"levelo://app?vid=4e36486e-78ed-45f0-99d4-e2d2e858abb4","ios":"levelo://app?vid=4e36486e-78ed-45f0-99d4-e2d2e858abb4"},"vehicle_type_id":"4","last_reported":1736556388,"current_range_meters":19600,"station_id":"ce4bh3h2rcd13ifvqdn0","pricing_plan_id":"cebpf4jnsgd1na2vs0mg"},{"bike_id":"163ffa4a-baf2-4065-94d8-9dc091ab662d","system_id":"levelo_inurba_marseille","lat":43.27951,"lon":5.41043,"is_reserved":false,"is_disabled":false,"rental_uris":{"android":"levelo://app?vid=163ffa4a-baf2-4065-94d8-9dc091ab662d","ios":"levelo://app?vid=163ffa4a-baf2-4065-94d8-9dc091ab662d"},"vehicle_type_id":"4","last_reported":1736556388,"current_range_meters":28400,"station_id":"ce4bhnp2rcd13ifvqh0g","pricing_plan_id":"cebpf4jnsgd1na2vs0mg"},{"bike_id":"6b764e8c-1a43-46a3-97d7-14881c8e848c","system_id":"levelo_inurba_marseille","lat":43.25824,"lon":5.39433,"is_reserved":false,"is_disabled":false,"rental_uris":{"android":"levelo://app?vid=6b764e8c-1a43-46a3-97d7-14881c8e848c","ios":"levelo://app?vid=6b764e8c-1a43-46a3-97d7-14881c8e848c"},"vehicle_type_id":"4","last_reported":1736556388,"current_range_meters":38800,"station_id":"ce4bhip2rcd13ifvqft0","pricing_plan_id":"cebpf4jnsgd1na2vs0mg"},{"bike_id":"d8327471-e10e-4e1d-a46b-c43156fc0620","system_id":"levelo_inurba_marseille","lat":43.26793,"lon":5.39413,"is_reserved":false,"is_disabled":true,"rental_uris":{"android":"levelo://app?vid=d8327471-e10e-4e1d-a46b-c43156fc0620","ios":"levelo://app?vid=d8327471-e10e-4e1d-a46b-c43156fc0620"},"vehicle_type_id":"4","last_reported":1736556388,"current_range_meters":1200,"station_id":"ce4bhh12rcd13ifvqfg0","pricing_plan_id":"cebpf4jnsgd1na2vs0mg"},{"bike_id":"f404313a-b453-4ed2-9cf2-f503539db699","system_id":"levelo_inurba_marseille","lat":43.27986,"lon":5.40007,"is_reserved":false,"is_disabled":true,"rental_uris":{"android":"levelo://app?vid=f404313a-b453-4ed2-9cf2-f503539db699","ios":"levelo://app?vid=f404313a-b453-4ed2-9cf2-f503539db699"},"vehicle_type_id":"4","last_reported":1736556388,"current_range_meters":3600,"station_id":"ce4bho92rcd13ifvqh4g","pricing_plan_id":"cebpf4jnsgd1na2vs0mg"},{"bike_id":"be7cb983-263e-4fb2-bba0-39d4210e0eee","system_id":"levelo_inurba_marseille","lat":43.30794,"lon":5.37649,"is_reserved":false,"is_disabled":false,"rental_uris":{"android":"levelo://app?vid=be7cb983-263e-4fb2-bba0-39d4210e0eee","ios":"levelo://app?vid=be7cb983-263e-4fb2-bba0-39d4210e0eee"},"vehicle_type_id":"4","last_reported":1736556388,"current_range_meters":9600,"station_id":"ce4bgv92rcd13ifvqcq0","pricing_plan_id":"cebpf4jnsgd1na2vs0mg"},{"bike_id":"58804d2d-088a-45f1-b5c0-22e26cb045f7","system_id":"levelo_inurba_marseille","lat":43.28673,"lon":5.38674,"is_reserved":false,"is_disabled":false,"rental_uris":{"android":"levelo://app?vid=58804d2d-088a-45f1-b5c0-22e26cb045f7","ios":"levelo://app?vid=58804d2d-088a-45f1-b5c0-22e26cb045f7"},"vehicle_type_id":"4","last_reported":1736556388,"current_range_meters":38000,"station_id":"ce4bh492rcd13ifvqdug","pricing_plan_id":"cebpf4jnsgd1na2vs0mg"},{"bike_id":"1e4652f2-30e2-4f03-86f9-f7057516dcd0","system_id":"levelo_inurba_marseille","lat":43.29676,"lon":5.40234,"is_reserved":false,"is_disabled":false,"rental_uris":{"android":"levelo://app?vid=1e4652f2-30e2-4f03-86f9-f7057516dcd0","ios":"levelo://app?vid=1e4652f2-30e2-4f03-86f9-f7057516dcd0"},"vehicle_type_id":"4","last_reported":1736556388,"current_range_meters":24400,"station_id":"","pricing_plan_id":"cebpf4jnsgd1na2vs0mg"},{"bike_id":"19d715c7-bf0c-49d4-a0f5-6323174c4131","system_id":"levelo_inurba_marseille","lat":43.28939,"lon":5.36633,"is_reserved":false,"is_disabled":false,"rental_uris":{"android":"levelo://app?vid=19d715c7-bf0c-49d4-a0f5-6323174c4131","ios":"levelo://app?vid=19d715c7-bf0c-49d4-a0f5-6323174c4131"},"vehicle_type_id":"4","last_reported":1736556388,"current_range_meters":38800,"station_id":"ce4bhap2rcd13ifvqek0","pricing_plan_id":"cebpf4jnsgd1na2vs0mg"},{"bike_id":"4fe9a578-bb1b-4c06-a180-e2c3473d1475","system_id":"levelo_inurba_marseille","lat":43.308,"lon":5.38158,"is_reserved":false,"is_disabled":false,"rental_uris":{"android":"levelo://app?vid=4fe9a578-bb1b-4c06-a180-e2c3473d1475","ios":"levelo://app?vid=4fe9a578-bb1b-4c06-a180-e2c3473d1475"},"vehicle_type_id":"4","last_reported":1736556388,"current_range_meters":31200,"station_id":"ce4bgt12rcd13ifvqce0","pricing_plan_id":"cebpf4jnsgd1na2vs0mg"},{"bike_id":"c0b21104-fdbd-4548-a6af-f0a8553ce1f9","system_id":"levelo_inurba_marseille","lat":43.33009,"lon":5.39048,"is_reserved":false,"is_disabled":false,"rental_uris":{"android":"levelo://app?vid=c0b21104-fdbd-4548-a6af-f0a8553ce1f9","ios":"levelo://app?vid=c0b21104-fdbd-4548-a6af-f0a8553ce1f9"},"vehicle_type_id":"4","last_reported":1736556388,"current_range_meters":18000,"station_id":"ce4bhr92rcd13ifvqhrg","pricing_plan_id":"cebpf4jnsgd1na2vs0mg"},{"bike_id":"426ee80e-06b0-4d0f-86a5-ea8ad64aaa11","system_id":"levelo_inurba_marseille","lat":43.28925,"lon":5.43788,"is_reserved":false,"is_disabled":false,"rental_uris":{"android":"levelo://app?vid=426ee80e-06b0-4d0f-86a5-ea8ad64aaa11","ios":"levelo://app?vid=426ee80e-06b0-4d0f-86a5-ea8ad64aaa11"},"vehicle_type_id":"4","last_reported":1736556388,"current_range_meters":19600,"station_id":"","pricing_plan_id":"cebpf4jnsgd1na2vs0mg"},{"bike_id":"f4ba1f99-e6f4-494e-88e3-098ca5ac79ff","system_id":"levelo_inurba_marseille","lat":43.278428,"lon":5.392088,"is_reserved":false,"is_disabled":false,"rental_uris":{"android":"levelo://app?vid=f4ba1f99-e6f4-494e-88e3-098ca5ac79ff","ios":"levelo://app?vid=f4ba1f99-e6f4-494e-88e3-098ca5ac79ff"},"vehicle_type_id":"4","last_reported":1736556388,"current_range_meters":29600,"station_id":"ce4bhjp2rcd13ifvqga0","pricing_plan_id":"cebpf4jnsgd1na2vs0mg"},{"bike_id":"0305a46a-8828-4eb8-9b74-a0ed320d40a1","system_id":"levelo_inurba_marseille","lat":43.302692,"lon":5.37701,"is_reserved":false,"is_disabled":false,"rental_uris":{"android":"levelo://app?vid=0305a46a-8828-4eb8-9b74-a0ed320d40a1","ios":"levelo://app?vid=0305a46a-8828-4eb8-9b74-a0ed320d40a1"},"vehicle_type_id":"4","last_reported":1736556388,"current_range_meters":16800,"station_id":"ce4bguh2rcd13ifvqcj0","pricing_plan_id":"cebpf4jnsgd1na2vs0mg"},{"bike_id":"f4649fbc-df91-4234-a3ba-5f8e7e2f6f23","system_id":"levelo_inurba_marseille","lat":43.29797,"lon":5.39347,"is_reserved":false,"is_disabled":false,"rental_uris":{"android":"levelo://app?vid=f4649fbc-df91-4234-a3ba-5f8e7e2f6f23","ios":"levelo://app?vid=f4649fbc-df91-4234-a3ba-5f8e7e2f6f23"},"vehicle_type_id":"4","last_reported":1736556388,"current_range_meters":38800,"station_id":"chh1huq6cuj3fo74tm60","pricing_plan_id":"cebpf4jnsgd1na2vs0mg"},{"bike_id":"314d0b94-da02-4586-aafe-32947b2151c1","system_id":"levelo_inurba_marseille","lat":43.25838,"lon":5.39406,"is_reserved":false,"is_disabled":true,"rental_uris":{"android":"levelo://app?vid=314d0b94-da02-4586-aafe-32947b2151c1","ios":"levelo://app?vid=314d0b94-da02-4586-aafe-32947b2151c1"},"vehicle_type_id":"4","last_reported":1736556388,"current_range_meters":7200,"station_id":"ce4bhip2rcd13ifvqft0","pricing_plan_id":"cebpf4jnsgd1na2vs0mg"},{"bike_id":"ff83f4be-66ea-4e71-9ae6-0d26428845e5","system_id":"levelo_inurba_marseille","lat":43.30798,"lon":5.38147,"is_reserved":false,"is_disabled":false,"rental_uris":{"android":"levelo://app?vid=ff83f4be-66ea-4e71-9ae6-0d26428845e5","ios":"levelo://app?vid=ff83f4be-66ea-4e71-9ae6-0d26428845e5"},"vehicle_type_id":"4","last_reported":1736556388,"current_range_meters":30800,"station_id":"ce4bgt12rcd13ifvqce0","pricing_plan_id":"cebpf4jnsgd1na2vs0mg"},{"bike_id":"b27cc99f-6b66-4ab0-833d-ef1cae10794f","system_id":"levelo_inurba_marseille","lat":43.25891,"lon":5.39908,"is_reserved":false,"is_disabled":false,"rental_uris":{"android":"levelo://app?vid=b27cc99f-6b66-4ab0-833d-ef1cae10794f","ios":"levelo://app?vid=b27cc99f-6b66-4ab0-833d-ef1cae10794f"},"vehicle_type_id":"4","last_reported":1736556388,"current_range_meters":38800,"station_id":"ce4bhl92rcd13ifvqghg","pricing_plan_id":"cebpf4jnsgd1na2vs0mg"},{"bike_id":"ac0e8162-b3fd-4541-ab8c-fac6912321c6","system_id":"levelo_inurba_marseille","lat":43.2997,"lon":5.38485,"is_reserved":false,"is_disabled":true,"rental_uris":{"android":"levelo://app?vid=ac0e8162-b3fd-4541-ab8c-fac6912321c6","ios":"levelo://app?vid=ac0e8162-b3fd-4541-ab8c-fac6912321c6"},"vehicle_type_id":"4","last_reported":1736556388,"current_range_meters":26800,"station_id":"ce4bgj92rcd13ifvqbd0","pricing_plan_id":"cebpf4jnsgd1na2vs0mg"},{"bike_id":"64e22768-79ef-4593-847f-a621c4893945","system_id":"levelo_inurba_marseille","lat":43.31534,"lon":5.38025,"is_reserved":false,"is_disabled":false,"rental_uris":{"android":"levelo://app?vid=64e22768-79ef-4593-847f-a621c4893945","ios":"levelo://app?vid=64e22768-79ef-4593-847f-a621c4893945"},"vehicle_type_id":"4","last_reported":1736556388,"current_range_meters":38800,"station_id":"ce4bhsp2rcd13ifvqi50","pricing_plan_id":"cebpf4jnsgd1na2vs0mg"},{"bike_id":"f4dbc556-58b0-4dfd-be99-18a51c032520","system_id":"levelo_inurba_marseille","lat":43.24198,"lon":5.39733,"is_reserved":false,"is_disabled":true,"rental_uris":{"android":"levelo://app?vid=f4dbc556-58b0-4dfd-be99-18a51c032520","ios":"levelo://app?vid=f4dbc556-58b0-4dfd-be99-18a51c032520"},"vehicle_type_id":"4","last_reported":1736556388,"current_range_meters":38800,"station_id":"ce4bhn12rcd13ifvqgpg","pricing_plan_id":"cebpf4jnsgd1na2vs0mg"},{"bike_id":"45708e5e-3e3e-40c3-8c6e-65ddf5480e9c","system_id":"levelo_inurba_marseille","lat":43.29229,"lon":5.39334,"is_reserved":false,"is_disabled":false,"rental_uris":{"android":"levelo://app?vid=45708e5e-3e3e-40c3-8c6e-65ddf5480e9c","ios":"levelo://app?vid=45708e5e-3e3e-40c3-8c6e-65ddf5480e9c"},"vehicle_type_id":"4","last_reported":1736556388,"current_range_meters":30000,"station_id":"ce4bh192rcd13ifvqdd0","pricing_plan_id":"cebpf4jnsgd1na2vs0mg"},{"bike_id":"d2916d76-3bbb-46d8-809e-46d373125475","system_id":"levelo_inurba_marseille","lat":43.28438,"lon":5.35005,"is_reserved":false,"is_disabled":false,"rental_uris":{"android":"levelo://app?vid=d2916d76-3bbb-46d8-809e-46d373125475","ios":"levelo://app?vid=d2916d76-3bbb-46d8-809e-46d373125475"},"vehicle_type_id":"4","last_reported":1736556388,"current_range_meters":9200,"station_id":"ce4bhbh2rcd13ifvqepg","pricing_plan_id":"cebpf4jnsgd1na2vs0mg"},{"bike_id":"441d2b48-7037-41b0-bd6b-b8b0699bf5bc","system_id":"levelo_inurba_marseille","lat":43.2885,"lon":5.39391,"is_reserved":false,"is_disabled":false,"rental_uris":{"android":"levelo://app?vid=441d2b48-7037-41b0-bd6b-b8b0699bf5bc","ios":"levelo://app?vid=441d2b48-7037-41b0-bd6b-b8b0699bf5bc"},"vehicle_type_id":"4","last_reported":1736556388,"current_range_meters":38400,"station_id":"ce4bh2p2rcd13ifvqdi0","pricing_plan_id":"cebpf4jnsgd1na2vs0mg"},{"bike_id":"a5e4d5b9-beaf-4ced-9d51-43016de8a5b8","system_id":"levelo_inurba_marseille","lat":43.268063,"lon":5.402597,"is_reserved":false,"is_disabled":false,"rental_uris":{"android":"levelo://app?vid=a5e4d5b9-beaf-4ced-9d51-43016de8a5b8","ios":"levelo://app?vid=a5e4d5b9-beaf-4ced-9d51-43016de8a5b8"},"vehicle_type_id":"4","last_reported":1736556388,"current_range_meters":22400,"station_id":"ce501612rcd8frsf0b60","pricing_plan_id":"cebpf4jnsgd1na2vs0mg"},{"bike_id":"615a1e6f-4735-4f02-948e-aeb057bf64eb","system_id":"levelo_inurba_marseille","lat":43.27997,"lon":5.40014,"is_reserved":false,"is_disabled":false,"rental_uris":{"android":"levelo://app?vid=615a1e6f-4735-4f02-948e-aeb057bf64eb","ios":"levelo://app?vid=615a1e6f-4735-4f02-948e-aeb057bf64eb"},"vehicle_type_id":"4","last_reported":1736556388,"current_range_meters":38400,"station_id":"ce4bho92rcd13ifvqh4g","pricing_plan_id":"cebpf4jnsgd1na2vs0mg"},{"bike_id":"91f08773-c91a-4f38-920c-34bd7fd2d0eb","system_id":"levelo_inurba_marseille","lat":43.30433,"lon":5.39744,"is_reserved":false,"is_disabled":false,"rental_uris":{"android":"levelo://app?vid=91f08773-c91a-4f38-920c-34bd7fd2d0eb","ios":"levelo://app?vid=91f08773-c91a-4f38-920c-34bd7fd2d0eb"},"vehicle_type_id":"4","last_reported":1736556388,"current_range_meters":37600,"station_id":"ce4bh092rcd13ifvqd20","pricing_plan_id":"cebpf4jnsgd1na2vs0mg"},{"bike_id":"80609ff8-7d7d-4ae2-9159-aea837c7c52b","system_id":"levelo_inurba_marseille","lat":43.23944,"lon":5.36659,"is_reserved":false,"is_disabled":false,"rental_uris":{"android":"levelo://app?vid=80609ff8-7d7d-4ae2-9159-aea837c7c52b","ios":"levelo://app?vid=80609ff8-7d7d-4ae2-9159-aea837c7c52b"},"vehicle_type_id":"4","last_reported":1736556388,"current_range_meters":12800,"station_id":"ce4bhi12rcd13ifvqfp0","pricing_plan_id":"cebpf4jnsgd1na2vs0mg"},{"bike_id":"a54e3103-dd05-4edc-b802-d77e205514d2","system_id":"levelo_inurba_marseille","lat":43.255014,"lon":5.376522,"is_reserved":false,"is_disabled":false,"rental_uris":{"android":"levelo://app?vid=a54e3103-dd05-4edc-b802-d77e205514d2","ios":"levelo://app?vid=a54e3103-dd05-4edc-b802-d77e205514d2"},"vehicle_type_id":"4","last_reported":1736556388,"current_range_meters":27600,"station_id":"ce4bhh12rcd13ifvqff0","pricing_plan_id":"cebpf4jnsgd1na2vs0mg"},{"bike_id":"35828faa-18e0-4956-b613-39471aef9dd1","system_id":"levelo_inurba_marseille","lat":43.31483,"lon":5.37242,"is_reserved":false,"is_disabled":false,"rental_uris":{"android":"levelo://app?vid=35828faa-18e0-4956-b613-39471aef9dd1","ios":"levelo://app?vid=35828faa-18e0-4956-b613-39471aef9dd1"},"vehicle_type_id":"4","last_reported":1736556388,"current_range_meters":38000,"station_id":"","pricing_plan_id":"cebpf4jnsgd1na2vs0mg"},{"bike_id":"9a4095d4-46b8-46be-833d-038ed2c6ac0d","system_id":"levelo_inurba_marseille","lat":43.29058,"lon":5.37172,"is_reserved":false,"is_disabled":false,"rental_uris":{"android":"levelo://app?vid=9a4095d4-46b8-46be-833d-038ed2c6ac0d","ios":"levelo://app?vid=9a4095d4-46b8-46be-833d-038ed2c6ac0d"},"vehicle_type_id":"4","last_reported":1736556388,"current_range_meters":36400,"station_id":"ce4bh5p2rcd13ifvqe4g","pricing_plan_id":"cebpf4jnsgd1na2vs0mg"},{"bike_id":"4c98b426-117a-4c85-9df8-d16e360d8aed","system_id":"levelo_inurba_marseille","lat":43.31171,"lon":5.38698,"is_reserved":false,"is_disabled":false,"rental_uris":{"android":"levelo://app?vid=4c98b426-117a-4c85-9df8-d16e360d8aed","ios":"levelo://app?vid=4c98b426-117a-4c85-9df8-d16e360d8aed"},"vehicle_type_id":"4","last_reported":1736556388,"current_range_meters":27600,"station_id":"ce4bgv12rcd13ifvqcp0","pricing_plan_id":"cebpf4jnsgd1na2vs0mg"},{"bike_id":"5edb9b21-4917-4f45-9961-6635931db922","system_id":"levelo_inurba_marseille","lat":43.22931,"lon":5.35385,"is_reserved":false,"is_disabled":false,"rental_uris":{"android":"levelo://app?vid=5edb9b21-4917-4f45-9961-6635931db922","ios":"levelo://app?vid=5edb9b21-4917-4f45-9961-6635931db922"},"vehicle_type_id":"4","last_reported":1736556388,"current_range_meters":38800,"station_id":"cpo3532slgdg3j2ikp40","pricing_plan_id":"cebpf4jnsgd1na2vs0mg"},{"bike_id":"6c16b955-c13c-49a6-a5bb-29559922d02c","system_id":"levelo_inurba_marseille","lat":43.23963,"lon":5.36619,"is_reserved":false,"is_disabled":false,"rental_uris":{"android":"levelo://app?vid=6c16b955-c13c-49a6-a5bb-29559922d02c","ios":"levelo://app?vid=6c16b955-c13c-49a6-a5bb-29559922d02c"},"vehicle_type_id":"4","last_reported":1736556388,"current_range_meters":24000,"station_id":"ce4bhi12rcd13ifvqfp0","pricing_plan_id":"cebpf4jnsgd1na2vs0mg"},{"bike_id":"acc57c46-0c06-4767-b429-edb19e5dc1a2","system_id":"levelo_inurba_marseille","lat":43.30124,"lon":5.39834,"is_reserved":false,"is_disabled":true,"rental_uris":{"android":"levelo://app?vid=acc57c46-0c06-4767-b429-edb19e5dc1a2","ios":"levelo://app?vid=acc57c46-0c06-4767-b429-edb19e5dc1a2"},"vehicle_type_id":"4","last_reported":1736556388,"current_range_meters":29600,"station_id":"ce4bh0h2rcd13ifvqd40","pricing_plan_id":"cebpf4jnsgd1na2vs0mg"},{"bike_id":"816f16d8-6ff0-4785-861d-d7f867697579","system_id":"levelo_inurba_marseille","lat":43.3154,"lon":5.38031,"is_reserved":false,"is_disabled":false,"rental_uris":{"android":"levelo://app?vid=816f16d8-6ff0-4785-861d-d7f867697579","ios":"levelo://app?vid=816f16d8-6ff0-4785-861d-d7f867697579"},"vehicle_type_id":"4","last_reported":1736556388,"current_range_meters":39200,"station_id":"ce4bhsp2rcd13ifvqi50","pricing_plan_id":"cebpf4jnsgd1na2vs0mg"},{"bike_id":"7f297130-5859-40f6-8adb-5ad46eabf70c","system_id":"levelo_inurba_marseille","lat":43.308944,"lon":5.396718,"is_reserved":false,"is_disabled":false,"rental_uris":{"android":"levelo://app?vid=7f297130-5859-40f6-8adb-5ad46eabf70c","ios":"levelo://app?vid=7f297130-5859-40f6-8adb-5ad46eabf70c"},"vehicle_type_id":"4","last_reported":1736556388,"current_range_meters":27600,"station_id":"ce4bh012rcd13ifvqcv0","pricing_plan_id":"cebpf4jnsgd1na2vs0mg"},{"bike_id":"ccb1b754-1c55-42c8-a839-f81bb658ca10","system_id":"levelo_inurba_marseille","lat":43.31512,"lon":5.373,"is_reserved":false,"is_disabled":false,"rental_uris":{"android":"levelo://app?vid=ccb1b754-1c55-42c8-a839-f81bb658ca10","ios":"levelo://app?vid=ccb1b754-1c55-42c8-a839-f81bb658ca10"},"vehicle_type_id":"4","last_reported":1736556388,"current_range_meters":38800,"station_id":"ce4bgt12rcd13ifvqcd0","pricing_plan_id":"cebpf4jnsgd1na2vs0mg"},{"bike_id":"5a712bf8-b4ee-4f68-ab45-f981662d215e","system_id":"levelo_inurba_marseille","lat":43.313286,"lon":5.396822,"is_reserved":false,"is_disabled":false,"rental_uris":{"android":"levelo://app?vid=5a712bf8-b4ee-4f68-ab45-f981662d215e","ios":"levelo://app?vid=5a712bf8-b4ee-4f68-ab45-f981662d215e"},"vehicle_type_id":"4","last_reported":1736556388,"current_range_meters":30400,"station_id":"ce4bgvp2rcd13ifvqcu0","pricing_plan_id":"cebpf4jnsgd1na2vs0mg"},{"bike_id":"45eea650-4b89-4e4f-bf73-620e8795e240","system_id":"levelo_inurba_marseille","lat":43.26932,"lon":5.38914,"is_reserved":false,"is_disabled":false,"rental_uris":{"android":"levelo://app?vid=45eea650-4b89-4e4f-bf73-620e8795e240","ios":"levelo://app?vid=45eea650-4b89-4e4f-bf73-620e8795e240"},"vehicle_type_id":"4","last_reported":1736556388,"current_range_meters":38000,"station_id":"ce4bhhh2rcd13ifvqfl0","pricing_plan_id":"cebpf4jnsgd1na2vs0mg"},{"bike_id":"6be0c4ce-0844-4f84-87fd-0c954d6de298","system_id":"levelo_inurba_marseille","lat":43.28708,"lon":5.37402,"is_reserved":false,"is_disabled":false,"rental_uris":{"android":"levelo://app?vid=6be0c4ce-0844-4f84-87fd-0c954d6de298","ios":"levelo://app?vid=6be0c4ce-0844-4f84-87fd-0c954d6de298"},"vehicle_type_id":"4","last_reported":1736556388,"current_range_meters":29600,"station_id":"ce4bh3p2rcd13ifvqdq0","pricing_plan_id":"cebpf4jnsgd1na2vs0mg"},{"bike_id":"534c6702-dfa1-401b-970b-2ac69bdd882a","system_id":"levelo_inurba_marseille","lat":43.24083,"lon":5.37757,"is_reserved":false,"is_disabled":false,"rental_uris":{"android":"levelo://app?vid=534c6702-dfa1-401b-970b-2ac69bdd882a","ios":"levelo://app?vid=534c6702-dfa1-401b-970b-2ac69bdd882a"},"vehicle_type_id":"4","last_reported":1736556388,"current_range_meters":30800,"station_id":"ce4bhnp2rcd13ifvqgvg","pricing_plan_id":"cebpf4jnsgd1na2vs0mg"},{"bike_id":"066fc890-cce1-4b7e-a941-320c51e991c9","system_id":"levelo_inurba_marseille","lat":43.23963,"lon":5.36628,"is_reserved":false,"is_disabled":false,"rental_uris":{"android":"levelo://app?vid=066fc890-cce1-4b7e-a941-320c51e991c9","ios":"levelo://app?vid=066fc890-cce1-4b7e-a941-320c51e991c9"},"vehicle_type_id":"4","last_reported":1736556388,"current_range_meters":24400,"station_id":"ce4bhi12rcd13ifvqfp0","pricing_plan_id":"cebpf4jnsgd1na2vs0mg"},{"bike_id":"1f320d40-5106-4360-ae07-0c583456ec9f","system_id":"levelo_inurba_marseille","lat":43.28454,"lon":5.35896,"is_reserved":false,"is_disabled":false,"rental_uris":{"android":"levelo://app?vid=1f320d40-5106-4360-ae07-0c583456ec9f","ios":"levelo://app?vid=1f320d40-5106-4360-ae07-0c583456ec9f"},"vehicle_type_id":"4","last_reported":1736556388,"current_range_meters":36800,"station_id":"ce4bhah2rcd13ifvqei0","pricing_plan_id":"cebpf4jnsgd1na2vs0mg"},{"bike_id":"375be35c-f252-4a1c-9a01-188df748f2f1","system_id":"levelo_inurba_marseille","lat":43.279923,"lon":5.40013,"is_reserved":false,"is_disabled":false,"rental_uris":{"android":"levelo://app?vid=375be35c-f252-4a1c-9a01-188df748f2f1","ios":"levelo://app?vid=375be35c-f252-4a1c-9a01-188df748f2f1"},"vehicle_type_id":"4","last_reported":1736556388,"current_range_meters":33600,"station_id":"ce4bho92rcd13ifvqh4g","pricing_plan_id":"cebpf4jnsgd1na2vs0mg"},{"bike_id":"b1cd05bd-cc6d-452b-8b8c-f24ee7fb627f","system_id":"levelo_inurba_marseille","lat":43.25832,"lon":5.39416,"is_reserved":false,"is_disabled":false,"rental_uris":{"android":"levelo://app?vid=b1cd05bd-cc6d-452b-8b8c-f24ee7fb627f","ios":"levelo://app?vid=b1cd05bd-cc6d-452b-8b8c-f24ee7fb627f"},"vehicle_type_id":"4","last_reported":1736556388,"current_range_meters":34800,"station_id":"ce4bhip2rcd13ifvqft0","pricing_plan_id":"cebpf4jnsgd1na2vs0mg"},{"bike_id":"920798f7-7e0f-4faf-94c5-26499c6ea003","system_id":"levelo_inurba_marseille","lat":43.29806,"lon":5.40406,"is_reserved":false,"is_disabled":false,"rental_uris":{"android":"levelo://app?vid=920798f7-7e0f-4faf-94c5-26499c6ea003","ios":"levelo://app?vid=920798f7-7e0f-4faf-94c5-26499c6ea003"},"vehicle_type_id":"4","last_reported":1736556388,"current_range_meters":36000,"station_id":"ce4bh112rcd13ifvqd90","pricing_plan_id":"cebpf4jnsgd1na2vs0mg"},{"bike_id":"200f3726-f376-4e1a-b922-6fa633b9c4ac","system_id":"levelo_inurba_marseille","lat":43.24677,"lon":5.38183,"is_reserved":false,"is_disabled":false,"rental_uris":{"android":"levelo://app?vid=200f3726-f376-4e1a-b922-6fa633b9c4ac","ios":"levelo://app?vid=200f3726-f376-4e1a-b922-6fa633b9c4ac"},"vehicle_type_id":"4","last_reported":1736556388,"current_range_meters":8400,"station_id":"ce4bhih2rcd13ifvqfr0","pricing_plan_id":"cebpf4jnsgd1na2vs0mg"},{"bike_id":"b94841c1-eb31-4836-a3e0-47119f4d34b1","system_id":"levelo_inurba_marseille","lat":43.31171,"lon":5.38726,"is_reserved":false,"is_disabled":false,"rental_uris":{"android":"levelo://app?vid=b94841c1-eb31-4836-a3e0-47119f4d34b1","ios":"levelo://app?vid=b94841c1-eb31-4836-a3e0-47119f4d34b1"},"vehicle_type_id":"4","last_reported":1736556388,"current_range_meters":9200,"station_id":"ce4bgv12rcd13ifvqcp0","pricing_plan_id":"cebpf4jnsgd1na2vs0mg"},{"bike_id":"f7248333-c3ea-4047-84a5-689947d7b51f","system_id":"levelo_inurba_marseille","lat":43.29968,"lon":5.41317,"is_reserved":false,"is_disabled":false,"rental_uris":{"android":"levelo://app?vid=f7248333-c3ea-4047-84a5-689947d7b51f","ios":"levelo://app?vid=f7248333-c3ea-4047-84a5-689947d7b51f"},"vehicle_type_id":"4","last_reported":1736556388,"current_range_meters":37600,"station_id":"ce4bhp12rcd13ifvqh9g","pricing_plan_id":"cebpf4jnsgd1na2vs0mg"},{"bike_id":"d20173c0-2c44-4618-9a6e-7640bc98f56e","system_id":"levelo_inurba_marseille","lat":43.27911,"lon":5.39599,"is_reserved":false,"is_disabled":false,"rental_uris":{"android":"levelo://app?vid=d20173c0-2c44-4618-9a6e-7640bc98f56e","ios":"levelo://app?vid=d20173c0-2c44-4618-9a6e-7640bc98f56e"},"vehicle_type_id":"4","last_reported":1736556388,"current_range_meters":10000,"station_id":"ce4bhf92rcd13ifvqf40","pricing_plan_id":"cebpf4jnsgd1na2vs0mg"},{"bike_id":"2c9dd628-c688-4c37-b6d2-d665ced3ed71","system_id":"levelo_inurba_marseille","lat":43.25014,"lon":5.38915,"is_reserved":false,"is_disabled":false,"rental_uris":{"android":"levelo://app?vid=2c9dd628-c688-4c37-b6d2-d665ced3ed71","ios":"levelo://app?vid=2c9dd628-c688-4c37-b6d2-d665ced3ed71"},"vehicle_type_id":"4","last_reported":1736556388,"current_range_meters":38800,"station_id":"ce4bhgp2rcd13ifvqfd0","pricing_plan_id":"cebpf4jnsgd1na2vs0mg"},{"bike_id":"471bf253-796f-4272-a47b-069ce2ba791e","system_id":"levelo_inurba_marseille","lat":43.30267,"lon":5.40048,"is_reserved":false,"is_disabled":false,"rental_uris":{"android":"levelo://app?vid=471bf253-796f-4272-a47b-069ce2ba791e","ios":"levelo://app?vid=471bf253-796f-4272-a47b-069ce2ba791e"},"vehicle_type_id":"4","last_reported":1736556388,"current_range_meters":38800,"station_id":"ce4bgvh2rcd13ifvqcs0","pricing_plan_id":"cebpf4jnsgd1na2vs0mg"},{"bike_id":"85077f2d-96d6-4799-acc0-68a7354da011","system_id":"levelo_inurba_marseille","lat":43.25496,"lon":5.37648,"is_reserved":false,"is_disabled":false,"rental_uris":{"android":"levelo://app?vid=85077f2d-96d6-4799-acc0-68a7354da011","ios":"levelo://app?vid=85077f2d-96d6-4799-acc0-68a7354da011"},"vehicle_type_id":"4","last_reported":1736556388,"current_range_meters":35600,"station_id":"ce4bhh12rcd13ifvqff0","pricing_plan_id":"cebpf4jnsgd1na2vs0mg"},{"bike_id":"6f5d218f-db1a-4b96-bcf2-b235eea71c2f","system_id":"levelo_inurba_marseille","lat":43.25532,"lon":5.37671,"is_reserved":false,"is_disabled":false,"rental_uris":{"android":"levelo://app?vid=6f5d218f-db1a-4b96-bcf2-b235eea71c2f","ios":"levelo://app?vid=6f5d218f-db1a-4b96-bcf2-b235eea71c2f"},"vehicle_type_id":"4","last_reported":1736556388,"current_range_meters":6800,"station_id":"ce4bhh12rcd13ifvqff0","pricing_plan_id":"cebpf4jnsgd1na2vs0mg"},{"bike_id":"0734aaa2-3547-415d-bfbd-0fccaa1be7a4","system_id":"levelo_inurba_marseille","lat":43.23208,"lon":5.40026,"is_reserved":false,"is_disabled":false,"rental_uris":{"android":"levelo://app?vid=0734aaa2-3547-415d-bfbd-0fccaa1be7a4","ios":"levelo://app?vid=0734aaa2-3547-415d-bfbd-0fccaa1be7a4"},"vehicle_type_id":"4","last_reported":1736556388,"current_range_meters":20800,"station_id":"ce4bhn12rcd13ifvqgqg","pricing_plan_id":"cebpf4jnsgd1na2vs0mg"},{"bike_id":"bc72b692-fa80-4572-afe8-0e7949eae868","system_id":"levelo_inurba_marseille","lat":43.33739,"lon":5.37436,"is_reserved":false,"is_disabled":false,"rental_uris":{"android":"levelo://app?vid=bc72b692-fa80-4572-afe8-0e7949eae868","ios":"levelo://app?vid=bc72b692-fa80-4572-afe8-0e7949eae868"},"vehicle_type_id":"4","last_reported":1736556388,"current_range_meters":25200,"station_id":"","pricing_plan_id":"cebpf4jnsgd1na2vs0mg"},{"bike_id":"f034f60e-f6a5-493d-81f8-11f969db77cf","system_id":"levelo_inurba_marseille","lat":43.286741,"lon":5.363589,"is_reserved":false,"is_disabled":false,"rental_uris":{"android":"levelo://app?vid=f034f60e-f6a5-493d-81f8-11f969db77cf","ios":"levelo://app?vid=f034f60e-f6a5-493d-81f8-11f969db77cf"},"vehicle_type_id":"4","last_reported":1736556388,"current_range_meters":26800,"station_id":"ce4bhah2rcd13ifvqej0","pricing_plan_id":"cebpf4jnsgd1na2vs0mg"},{"bike_id":"403b6456-c595-432f-9fb5-fe207e40ff7b","system_id":"levelo_inurba_marseille","lat":43.27181,"lon":5.40977,"is_reserved":false,"is_disabled":false,"rental_uris":{"android":"levelo://app?vid=403b6456-c595-432f-9fb5-fe207e40ff7b","ios":"levelo://app?vid=403b6456-c595-432f-9fb5-fe207e40ff7b"},"vehicle_type_id":"4","last_reported":1736556388,"current_range_meters":38800,"station_id":"ce4bhl12rcd13ifvqgf0","pricing_plan_id":"cebpf4jnsgd1na2vs0mg"},{"bike_id":"80a08fd3-fa00-4b67-be1b-c755a4a26f1d","system_id":"levelo_inurba_marseille","lat":43.28722,"lon":5.37947,"is_reserved":false,"is_disabled":false,"rental_uris":{"android":"levelo://app?vid=80a08fd3-fa00-4b67-be1b-c755a4a26f1d","ios":"levelo://app?vid=80a08fd3-fa00-4b67-be1b-c755a4a26f1d"},"vehicle_type_id":"4","last_reported":1736556388,"current_range_meters":33600,"station_id":"ce4bh9p2rcd13ifvqec0","pricing_plan_id":"cebpf4jnsgd1na2vs0mg"},{"bike_id":"7a61ca5c-939f-45d9-96aa-ea2ea3b556a7","system_id":"levelo_inurba_marseille","lat":43.28962,"lon":5.36626,"is_reserved":false,"is_disabled":false,"rental_uris":{"android":"levelo://app?vid=7a61ca5c-939f-45d9-96aa-ea2ea3b556a7","ios":"levelo://app?vid=7a61ca5c-939f-45d9-96aa-ea2ea3b556a7"},"vehicle_type_id":"4","last_reported":1736556388,"current_range_meters":17600,"station_id":"ce4bhap2rcd13ifvqek0","pricing_plan_id":"cebpf4jnsgd1na2vs0mg"},{"bike_id":"616ca5d9-9002-4edc-8e69-a5555dc3713a","system_id":"levelo_inurba_marseille","lat":43.30272,"lon":5.37719,"is_reserved":false,"is_disabled":false,"rental_uris":{"android":"levelo://app?vid=616ca5d9-9002-4edc-8e69-a5555dc3713a","ios":"levelo://app?vid=616ca5d9-9002-4edc-8e69-a5555dc3713a"},"vehicle_type_id":"4","last_reported":1736556388,"current_range_meters":25200,"station_id":"ce4bguh2rcd13ifvqcj0","pricing_plan_id":"cebpf4jnsgd1na2vs0mg"},{"bike_id":"7e9a745e-c82d-4677-a3f0-c081269f42e9","system_id":"levelo_inurba_marseille","lat":43.29011,"lon":5.35622,"is_reserved":false,"is_disabled":false,"rental_uris":{"android":"levelo://app?vid=7e9a745e-c82d-4677-a3f0-c081269f42e9","ios":"levelo://app?vid=7e9a745e-c82d-4677-a3f0-c081269f42e9"},"vehicle_type_id":"4","last_reported":1736556388,"current_range_meters":28800,"station_id":"ce4bhb92rcd13ifvqen0","pricing_plan_id":"cebpf4jnsgd1na2vs0mg"},{"bike_id":"30e4531b-e8e8-4b15-9b00-7df43c117db1","system_id":"levelo_inurba_marseille","lat":43.311646,"lon":5.387074,"is_reserved":false,"is_disabled":false,"rental_uris":{"android":"levelo://app?vid=30e4531b-e8e8-4b15-9b00-7df43c117db1","ios":"levelo://app?vid=30e4531b-e8e8-4b15-9b00-7df43c117db1"},"vehicle_type_id":"4","last_reported":1736556388,"current_range_meters":24400,"station_id":"ce4bgv12rcd13ifvqcp0","pricing_plan_id":"cebpf4jnsgd1na2vs0mg"},{"bike_id":"dd94d798-0f12-40fb-bff3-b8fae7bc2945","system_id":"levelo_inurba_marseille","lat":43.264987,"lon":5.395451,"is_reserved":false,"is_disabled":false,"rental_uris":{"android":"levelo://app?vid=dd94d798-0f12-40fb-bff3-b8fae7bc2945","ios":"levelo://app?vid=dd94d798-0f12-40fb-bff3-b8fae7bc2945"},"vehicle_type_id":"4","last_reported":1736556388,"current_range_meters":38800,"station_id":"ce4bhi12rcd13ifvqfq0","pricing_plan_id":"cebpf4jnsgd1na2vs0mg"},{"bike_id":"e28483d1-4b50-47d3-8f68-bbbc48a67024","system_id":"levelo_inurba_marseille","lat":43.290637,"lon":5.371669,"is_reserved":false,"is_disabled":true,"rental_uris":{"android":"levelo://app?vid=e28483d1-4b50-47d3-8f68-bbbc48a67024","ios":"levelo://app?vid=e28483d1-4b50-47d3-8f68-bbbc48a67024"},"vehicle_type_id":"4","last_reported":1736556388,"current_range_meters":30000,"station_id":"ce4bh5p2rcd13ifvqe4g","pricing_plan_id":"cebpf4jnsgd1na2vs0mg"},{"bike_id":"1d4a8f95-f17f-4c5f-8510-b75a9f17f9a0","system_id":"levelo_inurba_marseille","lat":43.31353,"lon":5.38504,"is_reserved":false,"is_disabled":false,"rental_uris":{"android":"levelo://app?vid=1d4a8f95-f17f-4c5f-8510-b75a9f17f9a0","ios":"levelo://app?vid=1d4a8f95-f17f-4c5f-8510-b75a9f17f9a0"},"vehicle_type_id":"4","last_reported":1736556388,"current_range_meters":25600,"station_id":"ce4bgt92rcd13ifvqcf0","pricing_plan_id":"cebpf4jnsgd1na2vs0mg"},{"bike_id":"82b556fb-1e29-46d6-967a-3d3f7c9da2ae","system_id":"levelo_inurba_marseille","lat":43.23962,"lon":5.3664,"is_reserved":false,"is_disabled":false,"rental_uris":{"android":"levelo://app?vid=82b556fb-1e29-46d6-967a-3d3f7c9da2ae","ios":"levelo://app?vid=82b556fb-1e29-46d6-967a-3d3f7c9da2ae"},"vehicle_type_id":"4","last_reported":1736556388,"current_range_meters":23200,"station_id":"ce4bhi12rcd13ifvqfp0","pricing_plan_id":"cebpf4jnsgd1na2vs0mg"},{"bike_id":"0da916ad-7fc3-43b9-a34a-22ae57eaaf04","system_id":"levelo_inurba_marseille","lat":43.29557,"lon":5.42302,"is_reserved":false,"is_disabled":false,"rental_uris":{"android":"levelo://app?vid=0da916ad-7fc3-43b9-a34a-22ae57eaaf04","ios":"levelo://app?vid=0da916ad-7fc3-43b9-a34a-22ae57eaaf04"},"vehicle_type_id":"4","last_reported":1736556388,"current_range_meters":38000,"station_id":"ce4bhph2rcd13ifvqhdg","pricing_plan_id":"cebpf4jnsgd1na2vs0mg"},{"bike_id":"ea85eaf0-fde0-43c4-b882-10e3bd598be8","system_id":"levelo_inurba_marseille","lat":43.25117,"lon":5.40317,"is_reserved":false,"is_disabled":true,"rental_uris":{"android":"levelo://app?vid=ea85eaf0-fde0-43c4-b882-10e3bd598be8","ios":"levelo://app?vid=ea85eaf0-fde0-43c4-b882-10e3bd598be8"},"vehicle_type_id":"4","last_reported":1736556388,"current_range_meters":7200,"station_id":"ce4bhlh2rcd13ifvqgig","pricing_plan_id":"cebpf4jnsgd1na2vs0mg"},{"bike_id":"b837481b-24aa-46e4-906e-af2915acc640","system_id":"levelo_inurba_marseille","lat":43.29919,"lon":5.37481,"is_reserved":false,"is_disabled":false,"rental_uris":{"android":"levelo://app?vid=b837481b-24aa-46e4-906e-af2915acc640","ios":"levelo://app?vid=b837481b-24aa-46e4-906e-af2915acc640"},"vehicle_type_id":"4","last_reported":1736556388,"current_range_meters":38400,"station_id":"ce4bgjh2rcd13ifvqbg0","pricing_plan_id":"cebpf4jnsgd1na2vs0mg"},{"bike_id":"7a0a8a69-615c-43f3-a001-073b74f4a57b","system_id":"levelo_inurba_marseille","lat":43.25592,"lon":5.38232,"is_reserved":false,"is_disabled":false,"rental_uris":{"android":"levelo://app?vid=7a0a8a69-615c-43f3-a001-073b74f4a57b","ios":"levelo://app?vid=7a0a8a69-615c-43f3-a001-073b74f4a57b"},"vehicle_type_id":"4","last_reported":1736556388,"current_range_meters":25200,"station_id":"ce4bhih2rcd13ifvqfs0","pricing_plan_id":"cebpf4jnsgd1na2vs0mg"},{"bike_id":"83b551bf-f2fc-4dad-a913-91d0e1a6bcff","system_id":"levelo_inurba_marseille","lat":43.31079,"lon":5.38375,"is_reserved":false,"is_disabled":false,"rental_uris":{"android":"levelo://app?vid=83b551bf-f2fc-4dad-a913-91d0e1a6bcff","ios":"levelo://app?vid=83b551bf-f2fc-4dad-a913-91d0e1a6bcff"},"vehicle_type_id":"4","last_reported":1736556388,"current_range_meters":17200,"station_id":"ce4bgv92rcd13ifvqcr0","pricing_plan_id":"cebpf4jnsgd1na2vs0mg"},{"bike_id":"04b99ebe-7927-40e6-9554-a7aa6d8ff5da","system_id":"levelo_inurba_marseille","lat":43.3303,"lon":5.39043,"is_reserved":false,"is_disabled":false,"rental_uris":{"android":"levelo://app?vid=04b99ebe-7927-40e6-9554-a7aa6d8ff5da","ios":"levelo://app?vid=04b99ebe-7927-40e6-9554-a7aa6d8ff5da"},"vehicle_type_id":"4","last_reported":1736556388,"current_range_meters":38800,"station_id":"ce4bhr92rcd13ifvqhrg","pricing_plan_id":"cebpf4jnsgd1na2vs0mg"},{"bike_id":"00ce025b-3337-4565-8d1c-47adff4217d7","system_id":"levelo_inurba_marseille","lat":43.24549,"lon":5.39531,"is_reserved":false,"is_disabled":false,"rental_uris":{"android":"levelo://app?vid=00ce025b-3337-4565-8d1c-47adff4217d7","ios":"levelo://app?vid=00ce025b-3337-4565-8d1c-47adff4217d7"},"vehicle_type_id":"4","last_reported":1736556388,"current_range_meters":38800,"station_id":"ce4bhlp2rcd13ifvqgjg","pricing_plan_id":"cebpf4jnsgd1na2vs0mg"},{"bike_id":"b984475e-70f5-478d-a365-e48ebf91675f","system_id":"levelo_inurba_marseille","lat":43.29541,"lon":5.38552,"is_reserved":false,"is_disabled":true,"rental_uris":{"android":"levelo://app?vid=b984475e-70f5-478d-a365-e48ebf91675f","ios":"levelo://app?vid=b984475e-70f5-478d-a365-e48ebf91675f"},"vehicle_type_id":"4","last_reported":1736556388,"current_range_meters":0,"station_id":"ce4bgih2rcd13ifvqba0","pricing_plan_id":"cebpf4jnsgd1na2vs0mg"},{"bike_id":"e2cf5614-606d-46e0-bba1-511a39a5ccf3","system_id":"levelo_inurba_marseille","lat":43.30947,"lon":5.40148,"is_reserved":false,"is_disabled":false,"rental_uris":{"android":"levelo://app?vid=e2cf5614-606d-46e0-bba1-511a39a5ccf3","ios":"levelo://app?vid=e2cf5614-606d-46e0-bba1-511a39a5ccf3"},"vehicle_type_id":"4","last_reported":1736556388,"current_range_meters":37600,"station_id":"ce4bgvp2rcd13ifvqct0","pricing_plan_id":"cebpf4jnsgd1na2vs0mg"},{"bike_id":"cc5bfdca-3fd8-4a9e-a290-bbf7a69ec432","system_id":"levelo_inurba_marseille","lat":43.27945,"lon":5.41045,"is_reserved":false,"is_disabled":false,"rental_uris":{"android":"levelo://app?vid=cc5bfdca-3fd8-4a9e-a290-bbf7a69ec432","ios":"levelo://app?vid=cc5bfdca-3fd8-4a9e-a290-bbf7a69ec432"},"vehicle_type_id":"4","last_reported":1736556388,"current_range_meters":28800,"station_id":"ce4bhnp2rcd13ifvqh0g","pricing_plan_id":"cebpf4jnsgd1na2vs0mg"},{"bike_id":"c659b38a-f5c3-4a38-b728-280247010d6a","system_id":"levelo_inurba_marseille","lat":43.288543,"lon":5.393283,"is_reserved":false,"is_disabled":false,"rental_uris":{"android":"levelo://app?vid=c659b38a-f5c3-4a38-b728-280247010d6a","ios":"levelo://app?vid=c659b38a-f5c3-4a38-b728-280247010d6a"},"vehicle_type_id":"4","last_reported":1736556388,"current_range_meters":38800,"station_id":"ce4bh2p2rcd13ifvqdi0","pricing_plan_id":"cebpf4jnsgd1na2vs0mg"},{"bike_id":"28a1db78-56fc-4c29-bd72-a3e3c1895393","system_id":"levelo_inurba_marseille","lat":43.29791,"lon":5.3934,"is_reserved":false,"is_disabled":false,"rental_uris":{"android":"levelo://app?vid=28a1db78-56fc-4c29-bd72-a3e3c1895393","ios":"levelo://app?vid=28a1db78-56fc-4c29-bd72-a3e3c1895393"},"vehicle_type_id":"4","last_reported":1736556388,"current_range_meters":38800,"station_id":"chh1huq6cuj3fo74tm60","pricing_plan_id":"cebpf4jnsgd1na2vs0mg"},{"bike_id":"d4e77abc-3bbc-4e4b-a5bc-6b106cd5b9ec","system_id":"levelo_inurba_marseille","lat":43.31073,"lon":5.38345,"is_reserved":false,"is_disabled":false,"rental_uris":{"android":"levelo://app?vid=d4e77abc-3bbc-4e4b-a5bc-6b106cd5b9ec","ios":"levelo://app?vid=d4e77abc-3bbc-4e4b-a5bc-6b106cd5b9ec"},"vehicle_type_id":"4","last_reported":1736556388,"current_range_meters":38800,"station_id":"ce4bgv92rcd13ifvqcr0","pricing_plan_id":"cebpf4jnsgd1na2vs0mg"},{"bike_id":"848b8a79-1822-452e-a5b1-f1121411546d","system_id":"levelo_inurba_marseille","lat":43.24527,"lon":5.39551,"is_reserved":false,"is_disabled":false,"rental_uris":{"android":"levelo://app?vid=848b8a79-1822-452e-a5b1-f1121411546d","ios":"levelo://app?vid=848b8a79-1822-452e-a5b1-f1121411546d"},"vehicle_type_id":"4","last_reported":1736556388,"current_range_meters":17200,"station_id":"ce4bhlp2rcd13ifvqgjg","pricing_plan_id":"cebpf4jnsgd1na2vs0mg"},{"bike_id":"29bd74f6-2d23-419f-a342-bfe9a1997636","system_id":"levelo_inurba_marseille","lat":43.28709,"lon":5.39978,"is_reserved":false,"is_disabled":false,"rental_uris":{"android":"levelo://app?vid=29bd74f6-2d23-419f-a342-bfe9a1997636","ios":"levelo://app?vid=29bd74f6-2d23-419f-a342-bfe9a1997636"},"vehicle_type_id":"4","last_reported":1736556388,"current_range_meters":26000,"station_id":"ce4bho92rcd13ifvqh3g","pricing_plan_id":"cebpf4jnsgd1na2vs0mg"},{"bike_id":"0bcc64a9-b35b-445e-951b-117593e1c83a","system_id":"levelo_inurba_marseille","lat":43.27808,"lon":5.40714,"is_reserved":false,"is_disabled":false,"rental_uris":{"android":"levelo://app?vid=0bcc64a9-b35b-445e-951b-117593e1c83a","ios":"levelo://app?vid=0bcc64a9-b35b-445e-951b-117593e1c83a"},"vehicle_type_id":"4","last_reported":1736556388,"current_range_meters":34000,"station_id":"ce4bhnh2rcd13ifvqgtg","pricing_plan_id":"cebpf4jnsgd1na2vs0mg"},{"bike_id":"f50e03a1-c4e4-4707-bea2-6e599638f4e4","system_id":"levelo_inurba_marseille","lat":43.28943,"lon":5.36401,"is_reserved":false,"is_disabled":false,"rental_uris":{"android":"levelo://app?vid=f50e03a1-c4e4-4707-bea2-6e599638f4e4","ios":"levelo://app?vid=f50e03a1-c4e4-4707-bea2-6e599638f4e4"},"vehicle_type_id":"4","last_reported":1736556388,"current_range_meters":19200,"station_id":"ce4bhc92rcd13ifvqetg","pricing_plan_id":"cebpf4jnsgd1na2vs0mg"},{"bike_id":"aad17fe9-5eb4-4717-a51a-da7e6a7942e4","system_id":"levelo_inurba_marseille","lat":43.31495,"lon":5.37313,"is_reserved":false,"is_disabled":false,"rental_uris":{"android":"levelo://app?vid=aad17fe9-5eb4-4717-a51a-da7e6a7942e4","ios":"levelo://app?vid=aad17fe9-5eb4-4717-a51a-da7e6a7942e4"},"vehicle_type_id":"4","last_reported":1736556388,"current_range_meters":9200,"station_id":"ce4bgt12rcd13ifvqcd0","pricing_plan_id":"cebpf4jnsgd1na2vs0mg"},{"bike_id":"a65c46ae-456f-4ee3-8a9f-a2ed306f68c3","system_id":"levelo_inurba_marseille","lat":43.28658,"lon":5.36355,"is_reserved":false,"is_disabled":false,"rental_uris":{"android":"levelo://app?vid=a65c46ae-456f-4ee3-8a9f-a2ed306f68c3","ios":"levelo://app?vid=a65c46ae-456f-4ee3-8a9f-a2ed306f68c3"},"vehicle_type_id":"4","last_reported":1736556388,"current_range_meters":28000,"station_id":"ce4bhah2rcd13ifvqej0","pricing_plan_id":"cebpf4jnsgd1na2vs0mg"},{"bike_id":"bb09aba3-e725-4db5-9d0b-860b910730c7","system_id":"levelo_inurba_marseille","lat":43.31328,"lon":5.39689,"is_reserved":false,"is_disabled":true,"rental_uris":{"android":"levelo://app?vid=bb09aba3-e725-4db5-9d0b-860b910730c7","ios":"levelo://app?vid=bb09aba3-e725-4db5-9d0b-860b910730c7"},"vehicle_type_id":"4","last_reported":1736556388,"current_range_meters":3600,"station_id":"ce4bgvp2rcd13ifvqcu0","pricing_plan_id":"cebpf4jnsgd1na2vs0mg"},{"bike_id":"dc39ef56-0762-469c-bd56-a1581f605a94","system_id":"levelo_inurba_marseille","lat":43.25574,"lon":5.38239,"is_reserved":false,"is_disabled":false,"rental_uris":{"android":"levelo://app?vid=dc39ef56-0762-469c-bd56-a1581f605a94","ios":"levelo://app?vid=dc39ef56-0762-469c-bd56-a1581f605a94"},"vehicle_type_id":"4","last_reported":1736556388,"current_range_meters":28000,"station_id":"ce4bhih2rcd13ifvqfs0","pricing_plan_id":"cebpf4jnsgd1na2vs0mg"},{"bike_id":"1ff4d6af-d168-4206-80a1-8f85ab0c0a00","system_id":"levelo_inurba_marseille","lat":43.25858,"lon":5.39919,"is_reserved":false,"is_disabled":true,"rental_uris":{"android":"levelo://app?vid=1ff4d6af-d168-4206-80a1-8f85ab0c0a00","ios":"levelo://app?vid=1ff4d6af-d168-4206-80a1-8f85ab0c0a00"},"vehicle_type_id":"4","last_reported":1736556388,"current_range_meters":20800,"station_id":"ce4bhl92rcd13ifvqghg","pricing_plan_id":"cebpf4jnsgd1na2vs0mg"},{"bike_id":"6a8a7e32-0f66-4fdd-a2b8-81f2afb9b4a8","system_id":"levelo_inurba_marseille","lat":43.23968,"lon":5.36633,"is_reserved":false,"is_disabled":false,"rental_uris":{"android":"levelo://app?vid=6a8a7e32-0f66-4fdd-a2b8-81f2afb9b4a8","ios":"levelo://app?vid=6a8a7e32-0f66-4fdd-a2b8-81f2afb9b4a8"},"vehicle_type_id":"4","last_reported":1736556388,"current_range_meters":18000,"station_id":"ce4bhi12rcd13ifvqfp0","pricing_plan_id":"cebpf4jnsgd1na2vs0mg"},{"bike_id":"9372a32c-c5f7-4d01-983e-5ac3eb8cf48f","system_id":"levelo_inurba_marseille","lat":43.29599,"lon":5.38101,"is_reserved":false,"is_disabled":false,"rental_uris":{"android":"levelo://app?vid=9372a32c-c5f7-4d01-983e-5ac3eb8cf48f","ios":"levelo://app?vid=9372a32c-c5f7-4d01-983e-5ac3eb8cf48f"},"vehicle_type_id":"4","last_reported":1736556388,"current_range_meters":22400,"station_id":"ce4bgl12rcd13ifvqbo0","pricing_plan_id":"cebpf4jnsgd1na2vs0mg"},{"bike_id":"1d174f3c-56fd-4bd2-841f-15687ff97534","system_id":"levelo_inurba_marseille","lat":43.30131,"lon":5.39855,"is_reserved":false,"is_disabled":true,"rental_uris":{"android":"levelo://app?vid=1d174f3c-56fd-4bd2-841f-15687ff97534","ios":"levelo://app?vid=1d174f3c-56fd-4bd2-841f-15687ff97534"},"vehicle_type_id":"4","last_reported":1736556388,"current_range_meters":0,"station_id":"ce4bh0h2rcd13ifvqd40","pricing_plan_id":"cebpf4jnsgd1na2vs0mg"},{"bike_id":"750dedb6-a00f-4b07-bc2f-3484aab220a6","system_id":"levelo_inurba_marseille","lat":43.33018,"lon":5.39035,"is_reserved":false,"is_disabled":false,"rental_uris":{"android":"levelo://app?vid=750dedb6-a00f-4b07-bc2f-3484aab220a6","ios":"levelo://app?vid=750dedb6-a00f-4b07-bc2f-3484aab220a6"},"vehicle_type_id":"4","last_reported":1736556388,"current_range_meters":38000,"station_id":"ce4bhr92rcd13ifvqhrg","pricing_plan_id":"cebpf4jnsgd1na2vs0mg"},{"bike_id":"43ba9551-a568-4286-a5dd-a27e49b977c2","system_id":"levelo_inurba_marseille","lat":43.25727,"lon":5.41121,"is_reserved":false,"is_disabled":false,"rental_uris":{"android":"levelo://app?vid=43ba9551-a568-4286-a5dd-a27e49b977c2","ios":"levelo://app?vid=43ba9551-a568-4286-a5dd-a27e49b977c2"},"vehicle_type_id":"4","last_reported":1736556388,"current_range_meters":38000,"station_id":"ce4bhkp2rcd13ifvqgd0","pricing_plan_id":"cebpf4jnsgd1na2vs0mg"},{"bike_id":"d4b9ec52-492e-41b6-8dae-be3aec56cf81","system_id":"levelo_inurba_marseille","lat":43.286193,"lon":5.35094,"is_reserved":false,"is_disabled":false,"rental_uris":{"android":"levelo://app?vid=d4b9ec52-492e-41b6-8dae-be3aec56cf81","ios":"levelo://app?vid=d4b9ec52-492e-41b6-8dae-be3aec56cf81"},"vehicle_type_id":"4","last_reported":1736556388,"current_range_meters":8800,"station_id":"ce4bhch2rcd13ifvqeug","pricing_plan_id":"cebpf4jnsgd1na2vs0mg"},{"bike_id":"e041ed2a-1ada-4409-8815-abd8eb3a5e49","system_id":"levelo_inurba_marseille","lat":43.30127,"lon":5.39866,"is_reserved":false,"is_disabled":false,"rental_uris":{"android":"levelo://app?vid=e041ed2a-1ada-4409-8815-abd8eb3a5e49","ios":"levelo://app?vid=e041ed2a-1ada-4409-8815-abd8eb3a5e49"},"vehicle_type_id":"4","last_reported":1736556388,"current_range_meters":24000,"station_id":"ce4bh0h2rcd13ifvqd40","pricing_plan_id":"cebpf4jnsgd1na2vs0mg"},{"bike_id":"2b4cffb3-77ea-48e3-baee-701d676c1001","system_id":"levelo_inurba_marseille","lat":43.26074,"lon":5.38722,"is_reserved":false,"is_disabled":false,"rental_uris":{"android":"levelo://app?vid=2b4cffb3-77ea-48e3-baee-701d676c1001","ios":"levelo://app?vid=2b4cffb3-77ea-48e3-baee-701d676c1001"},"vehicle_type_id":"4","last_reported":1736556388,"current_range_meters":8800,"station_id":"","pricing_plan_id":"cebpf4jnsgd1na2vs0mg"},{"bike_id":"10f7d31a-ef8d-4e8a-acbf-8aa9a8c72143","system_id":"levelo_inurba_marseille","lat":43.24425,"lon":5.37077,"is_reserved":false,"is_disabled":false,"rental_uris":{"android":"levelo://app?vid=10f7d31a-ef8d-4e8a-acbf-8aa9a8c72143","ios":"levelo://app?vid=10f7d31a-ef8d-4e8a-acbf-8aa9a8c72143"},"vehicle_type_id":"4","last_reported":1736556388,"current_range_meters":20400,"station_id":"ce4bhhh2rcd13ifvqfk0","pricing_plan_id":"cebpf4jnsgd1na2vs0mg"},{"bike_id":"229a4a9e-a4d6-48f4-a974-2872d0fec353","system_id":"levelo_inurba_marseille","lat":43.261922,"lon":5.37449,"is_reserved":false,"is_disabled":false,"rental_uris":{"android":"levelo://app?vid=229a4a9e-a4d6-48f4-a974-2872d0fec353","ios":"levelo://app?vid=229a4a9e-a4d6-48f4-a974-2872d0fec353"},"vehicle_type_id":"4","last_reported":1736556388,"current_range_meters":26800,"station_id":"ce4bhgp2rcd13ifvqfc0","pricing_plan_id":"cebpf4jnsgd1na2vs0mg"},{"bike_id":"f0c080b7-cc84-4ae6-b5d3-19e354905365","system_id":"levelo_inurba_marseille","lat":43.29025,"lon":5.38163,"is_reserved":false,"is_disabled":true,"rental_uris":{"android":"levelo://app?vid=f0c080b7-cc84-4ae6-b5d3-19e354905365","ios":"levelo://app?vid=f0c080b7-cc84-4ae6-b5d3-19e354905365"},"vehicle_type_id":"4","last_reported":1736556388,"current_range_meters":37600,"station_id":"ce4bh4p2rcd13ifvqe1g","pricing_plan_id":"cebpf4jnsgd1na2vs0mg"},{"bike_id":"86c26674-463c-4247-bb38-fb36dd08faa8","system_id":"levelo_inurba_marseille","lat":43.28412,"lon":5.37516,"is_reserved":false,"is_disabled":false,"rental_uris":{"android":"levelo://app?vid=86c26674-463c-4247-bb38-fb36dd08faa8","ios":"levelo://app?vid=86c26674-463c-4247-bb38-fb36dd08faa8"},"vehicle_type_id":"4","last_reported":1736556388,"current_range_meters":35200,"station_id":"ce4bh412rcd13ifvqds0","pricing_plan_id":"cebpf4jnsgd1na2vs0mg"},{"bike_id":"ae29e0de-7b5a-45d6-ace3-313c5e88010a","system_id":"levelo_inurba_marseille","lat":43.28033,"lon":5.41684,"is_reserved":false,"is_disabled":true,"rental_uris":{"android":"levelo://app?vid=ae29e0de-7b5a-45d6-ace3-313c5e88010a","ios":"levelo://app?vid=ae29e0de-7b5a-45d6-ace3-313c5e88010a"},"vehicle_type_id":"4","last_reported":1736556388,"current_range_meters":3200,"station_id":"ce4bho12rcd13ifvqh1g","pricing_plan_id":"cebpf4jnsgd1na2vs0mg"},{"bike_id":"ad5bd6e1-29eb-4f42-a2b8-2dd6f2411a0c","system_id":"levelo_inurba_marseille","lat":43.29824,"lon":5.38089,"is_reserved":false,"is_disabled":true,"rental_uris":{"android":"levelo://app?vid=ad5bd6e1-29eb-4f42-a2b8-2dd6f2411a0c","ios":"levelo://app?vid=ad5bd6e1-29eb-4f42-a2b8-2dd6f2411a0c"},"vehicle_type_id":"4","last_reported":1736556388,"current_range_meters":38800,"station_id":"ce4bgip2rcd13ifvqbb0","pricing_plan_id":"cebpf4jnsgd1na2vs0mg"},{"bike_id":"572f0254-11cf-4ef2-b3f9-66737ed8298a","system_id":"levelo_inurba_marseille","lat":43.28416,"lon":5.34995,"is_reserved":false,"is_disabled":true,"rental_uris":{"android":"levelo://app?vid=572f0254-11cf-4ef2-b3f9-66737ed8298a","ios":"levelo://app?vid=572f0254-11cf-4ef2-b3f9-66737ed8298a"},"vehicle_type_id":"4","last_reported":1736556388,"current_range_meters":800,"station_id":"ce4bhbh2rcd13ifvqepg","pricing_plan_id":"cebpf4jnsgd1na2vs0mg"},{"bike_id":"81e650fb-946f-4e41-a04f-8169232bb99d","system_id":"levelo_inurba_marseille","lat":43.23196,"lon":5.39983,"is_reserved":false,"is_disabled":false,"rental_uris":{"android":"levelo://app?vid=81e650fb-946f-4e41-a04f-8169232bb99d","ios":"levelo://app?vid=81e650fb-946f-4e41-a04f-8169232bb99d"},"vehicle_type_id":"4","last_reported":1736556388,"current_range_meters":33200,"station_id":"ce4bhn12rcd13ifvqgqg","pricing_plan_id":"cebpf4jnsgd1na2vs0mg"},{"bike_id":"8f967504-15cc-48ff-b1cf-0ee3fd28d4c6","system_id":"levelo_inurba_marseille","lat":43.23968,"lon":5.36638,"is_reserved":false,"is_disabled":false,"rental_uris":{"android":"levelo://app?vid=8f967504-15cc-48ff-b1cf-0ee3fd28d4c6","ios":"levelo://app?vid=8f967504-15cc-48ff-b1cf-0ee3fd28d4c6"},"vehicle_type_id":"4","last_reported":1736556388,"current_range_meters":28000,"station_id":"ce4bhi12rcd13ifvqfp0","pricing_plan_id":"cebpf4jnsgd1na2vs0mg"},{"bike_id":"f0fb8bfb-285b-4d03-adbf-fe52517bb93c","system_id":"levelo_inurba_marseille","lat":43.23217,"lon":5.3554,"is_reserved":false,"is_disabled":false,"rental_uris":{"android":"levelo://app?vid=f0fb8bfb-285b-4d03-adbf-fe52517bb93c","ios":"levelo://app?vid=f0fb8bfb-285b-4d03-adbf-fe52517bb93c"},"vehicle_type_id":"4","last_reported":1736556388,"current_range_meters":38800,"station_id":"ce4bhu92rcd13ifvqi70","pricing_plan_id":"cebpf4jnsgd1na2vs0mg"},{"bike_id":"2699aa44-e054-4052-825f-54a662a06c6e","system_id":"levelo_inurba_marseille","lat":43.231858,"lon":5.399745,"is_reserved":false,"is_disabled":false,"rental_uris":{"android":"levelo://app?vid=2699aa44-e054-4052-825f-54a662a06c6e","ios":"levelo://app?vid=2699aa44-e054-4052-825f-54a662a06c6e"},"vehicle_type_id":"4","last_reported":1736556388,"current_range_meters":38800,"station_id":"ce4bhn12rcd13ifvqgqg","pricing_plan_id":"cebpf4jnsgd1na2vs0mg"},{"bike_id":"61754fba-3376-4768-8c7c-511ea5daf5e6","system_id":"levelo_inurba_marseille","lat":43.314435,"lon":5.373752,"is_reserved":false,"is_disabled":false,"rental_uris":{"android":"levelo://app?vid=61754fba-3376-4768-8c7c-511ea5daf5e6","ios":"levelo://app?vid=61754fba-3376-4768-8c7c-511ea5daf5e6"},"vehicle_type_id":"4","last_reported":1736556388,"current_range_meters":3600,"station_id":"","pricing_plan_id":"cebpf4jnsgd1na2vs0mg"},{"bike_id":"cba70eaf-cd97-45b6-851b-b4f063d3d708","system_id":"levelo_inurba_marseille","lat":43.28723,"lon":5.37941,"is_reserved":false,"is_disabled":false,"rental_uris":{"android":"levelo://app?vid=cba70eaf-cd97-45b6-851b-b4f063d3d708","ios":"levelo://app?vid=cba70eaf-cd97-45b6-851b-b4f063d3d708"},"vehicle_type_id":"4","last_reported":1736556388,"current_range_meters":28400,"station_id":"ce4bh9p2rcd13ifvqec0","pricing_plan_id":"cebpf4jnsgd1na2vs0mg"},{"bike_id":"a6bab0bb-085a-41b1-b8e2-10de2a66914c","system_id":"levelo_inurba_marseille","lat":43.31118,"lon":5.3776,"is_reserved":false,"is_disabled":false,"rental_uris":{"android":"levelo://app?vid=a6bab0bb-085a-41b1-b8e2-10de2a66914c","ios":"levelo://app?vid=a6bab0bb-085a-41b1-b8e2-10de2a66914c"},"vehicle_type_id":"4","last_reported":1736556388,"current_range_meters":20000,"station_id":"ce4bgt92rcd13ifvqcg0","pricing_plan_id":"cebpf4jnsgd1na2vs0mg"},{"bike_id":"30653996-9326-4bca-864c-21ac92f61041","system_id":"levelo_inurba_marseille","lat":43.24649,"lon":5.38905,"is_reserved":false,"is_disabled":false,"rental_uris":{"android":"levelo://app?vid=30653996-9326-4bca-864c-21ac92f61041","ios":"levelo://app?vid=30653996-9326-4bca-864c-21ac92f61041"},"vehicle_type_id":"4","last_reported":1736556388,"current_range_meters":35600,"station_id":"ce4bhg12rcd13ifvqf60","pricing_plan_id":"cebpf4jnsgd1na2vs0mg"},{"bike_id":"adcbc14e-e2fe-4b1d-9a5c-4991fa8d3d69","system_id":"levelo_inurba_marseille","lat":43.28998,"lon":5.3563,"is_reserved":false,"is_disabled":true,"rental_uris":{"android":"levelo://app?vid=adcbc14e-e2fe-4b1d-9a5c-4991fa8d3d69","ios":"levelo://app?vid=adcbc14e-e2fe-4b1d-9a5c-4991fa8d3d69"},"vehicle_type_id":"4","last_reported":1736556388,"current_range_meters":38800,"station_id":"ce4bhb92rcd13ifvqen0","pricing_plan_id":"cebpf4jnsgd1na2vs0mg"},{"bike_id":"bed24a32-106d-49f4-8d2d-17f021b9dbe6","system_id":"levelo_inurba_marseille","lat":43.27503,"lon":5.42454,"is_reserved":false,"is_disabled":true,"rental_uris":{"android":"levelo://app?vid=bed24a32-106d-49f4-8d2d-17f021b9dbe6","ios":"levelo://app?vid=bed24a32-106d-49f4-8d2d-17f021b9dbe6"},"vehicle_type_id":"4","last_reported":1736556388,"current_range_meters":3200,"station_id":"ce4bhn92rcd13ifvqgrg","pricing_plan_id":"cebpf4jnsgd1na2vs0mg"},{"bike_id":"fd64c8a3-a4fc-42da-8d2c-308cff8a2a4f","system_id":"levelo_inurba_marseille","lat":43.3027,"lon":5.40083,"is_reserved":false,"is_disabled":false,"rental_uris":{"android":"levelo://app?vid=fd64c8a3-a4fc-42da-8d2c-308cff8a2a4f","ios":"levelo://app?vid=fd64c8a3-a4fc-42da-8d2c-308cff8a2a4f"},"vehicle_type_id":"4","last_reported":1736556388,"current_range_meters":38800,"station_id":"ce4bgvh2rcd13ifvqcs0","pricing_plan_id":"cebpf4jnsgd1na2vs0mg"},{"bike_id":"c66e15bc-7891-4f68-b535-870a87aaa807","system_id":"levelo_inurba_marseille","lat":43.292599,"lon":5.409006,"is_reserved":false,"is_disabled":false,"rental_uris":{"android":"levelo://app?vid=c66e15bc-7891-4f68-b535-870a87aaa807","ios":"levelo://app?vid=c66e15bc-7891-4f68-b535-870a87aaa807"},"vehicle_type_id":"4","last_reported":1736556388,"current_range_meters":39200,"station_id":"ce4bh192rcd13ifvqdc0","pricing_plan_id":"cebpf4jnsgd1na2vs0mg"},{"bike_id":"51098504-36bc-46da-bc89-d62c2a5ea627","system_id":"levelo_inurba_marseille","lat":43.29431,"lon":5.38632,"is_reserved":false,"is_disabled":true,"rental_uris":{"android":"levelo://app?vid=51098504-36bc-46da-bc89-d62c2a5ea627","ios":"levelo://app?vid=51098504-36bc-46da-bc89-d62c2a5ea627"},"vehicle_type_id":"4","last_reported":1736556388,"current_range_meters":2000,"station_id":"ce4bh2h2rcd13ifvqdh0","pricing_plan_id":"cebpf4jnsgd1na2vs0mg"},{"bike_id":"d20a774b-60d4-4fea-8501-140e94d9ac48","system_id":"levelo_inurba_marseille","lat":43.27123,"lon":5.38503,"is_reserved":false,"is_disabled":false,"rental_uris":{"android":"levelo://app?vid=d20a774b-60d4-4fea-8501-140e94d9ac48","ios":"levelo://app?vid=d20a774b-60d4-4fea-8501-140e94d9ac48"},"vehicle_type_id":"4","last_reported":1736556388,"current_range_meters":30800,"station_id":"","pricing_plan_id":"cebpf4jnsgd1na2vs0mg"},{"bike_id":"b704bf42-2bc7-4506-b669-8ca7a3330fef","system_id":"levelo_inurba_marseille","lat":43.28144,"lon":5.42617,"is_reserved":false,"is_disabled":true,"rental_uris":{"android":"levelo://app?vid=b704bf42-2bc7-4506-b669-8ca7a3330fef","ios":"levelo://app?vid=b704bf42-2bc7-4506-b669-8ca7a3330fef"},"vehicle_type_id":"4","last_reported":1736556388,"current_range_meters":34800,"station_id":"ce4bhnh2rcd13ifvqgug","pricing_plan_id":"cebpf4jnsgd1na2vs0mg"},{"bike_id":"04c144bb-885d-4367-8bc8-e2ccfca26ca3","system_id":"levelo_inurba_marseille","lat":43.31502,"lon":5.38902,"is_reserved":false,"is_disabled":true,"rental_uris":{"android":"levelo://app?vid=04c144bb-885d-4367-8bc8-e2ccfca26ca3","ios":"levelo://app?vid=04c144bb-885d-4367-8bc8-e2ccfca26ca3"},"vehicle_type_id":"4","last_reported":1736556388,"current_range_meters":24400,"station_id":"","pricing_plan_id":"cebpf4jnsgd1na2vs0mg"},{"bike_id":"fc409626-cf3b-4f65-bf74-11f59f5d8632","system_id":"levelo_inurba_marseille","lat":43.28661,"lon":5.36358,"is_reserved":false,"is_disabled":false,"rental_uris":{"android":"levelo://app?vid=fc409626-cf3b-4f65-bf74-11f59f5d8632","ios":"levelo://app?vid=fc409626-cf3b-4f65-bf74-11f59f5d8632"},"vehicle_type_id":"4","last_reported":1736556388,"current_range_meters":38800,"station_id":"ce4bhah2rcd13ifvqej0","pricing_plan_id":"cebpf4jnsgd1na2vs0mg"},{"bike_id":"1987856f-76cd-431b-a3f6-7cd1fa990954","system_id":"levelo_inurba_marseille","lat":43.29022,"lon":5.39992,"is_reserved":false,"is_disabled":false,"rental_uris":{"android":"levelo://app?vid=1987856f-76cd-431b-a3f6-7cd1fa990954","ios":"levelo://app?vid=1987856f-76cd-431b-a3f6-7cd1fa990954"},"vehicle_type_id":"4","last_reported":1736556388,"current_range_meters":27200,"station_id":"ce4bh392rcd13ifvqdm0","pricing_plan_id":"cebpf4jnsgd1na2vs0mg"},{"bike_id":"ef656606-4429-4ee4-bc24-929ad2bc221a","system_id":"levelo_inurba_marseille","lat":43.2873,"lon":5.36081,"is_reserved":false,"is_disabled":false,"rental_uris":{"android":"levelo://app?vid=ef656606-4429-4ee4-bc24-929ad2bc221a","ios":"levelo://app?vid=ef656606-4429-4ee4-bc24-929ad2bc221a"},"vehicle_type_id":"4","last_reported":1736556388,"current_range_meters":23200,"station_id":"cki0cbj6b192h4jlfktg","pricing_plan_id":"cebpf4jnsgd1na2vs0mg"},{"bike_id":"ede473a8-4ad3-4177-9dfc-dc40ae6098e2","system_id":"levelo_inurba_marseille","lat":43.24658,"lon":5.38167,"is_reserved":false,"is_disabled":false,"rental_uris":{"android":"levelo://app?vid=ede473a8-4ad3-4177-9dfc-dc40ae6098e2","ios":"levelo://app?vid=ede473a8-4ad3-4177-9dfc-dc40ae6098e2"},"vehicle_type_id":"4","last_reported":1736556388,"current_range_meters":9200,"station_id":"ce4bhih2rcd13ifvqfr0","pricing_plan_id":"cebpf4jnsgd1na2vs0mg"},{"bike_id":"e2744ec8-2f1a-4025-9ec0-6a07f5db3fc4","system_id":"levelo_inurba_marseille","lat":43.25488,"lon":5.37617,"is_reserved":false,"is_disabled":false,"rental_uris":{"android":"levelo://app?vid=e2744ec8-2f1a-4025-9ec0-6a07f5db3fc4","ios":"levelo://app?vid=e2744ec8-2f1a-4025-9ec0-6a07f5db3fc4"},"vehicle_type_id":"4","last_reported":1736556388,"current_range_meters":38800,"station_id":"ce4bhh12rcd13ifvqff0","pricing_plan_id":"cebpf4jnsgd1na2vs0mg"},{"bike_id":"39e8b8db-a45b-47ac-924f-708d2b3bef9a","system_id":"levelo_inurba_marseille","lat":43.28636,"lon":5.35094,"is_reserved":false,"is_disabled":false,"rental_uris":{"android":"levelo://app?vid=39e8b8db-a45b-47ac-924f-708d2b3bef9a","ios":"levelo://app?vid=39e8b8db-a45b-47ac-924f-708d2b3bef9a"},"vehicle_type_id":"4","last_reported":1736556388,"current_range_meters":16400,"station_id":"ce4bhch2rcd13ifvqeug","pricing_plan_id":"cebpf4jnsgd1na2vs0mg"},{"bike_id":"cc759f92-165c-46f7-84dc-07726493697c","system_id":"levelo_inurba_marseille","lat":43.28079,"lon":5.39658,"is_reserved":false,"is_disabled":false,"rental_uris":{"android":"levelo://app?vid=cc759f92-165c-46f7-84dc-07726493697c","ios":"levelo://app?vid=cc759f92-165c-46f7-84dc-07726493697c"},"vehicle_type_id":"4","last_reported":1736556388,"current_range_meters":30000,"station_id":"ce4bho12rcd13ifvqh2g","pricing_plan_id":"cebpf4jnsgd1na2vs0mg"},{"bike_id":"9c413fb1-8955-4528-ba15-78d41b7bda61","system_id":"levelo_inurba_marseille","lat":43.28722,"lon":5.36091,"is_reserved":false,"is_disabled":false,"rental_uris":{"android":"levelo://app?vid=9c413fb1-8955-4528-ba15-78d41b7bda61","ios":"levelo://app?vid=9c413fb1-8955-4528-ba15-78d41b7bda61"},"vehicle_type_id":"4","last_reported":1736556388,"current_range_meters":38800,"station_id":"cki0cbj6b192h4jlfktg","pricing_plan_id":"cebpf4jnsgd1na2vs0mg"},{"bike_id":"a162f690-22ef-4988-a0e7-fe716f9acaef","system_id":"levelo_inurba_marseille","lat":43.27945,"lon":5.41053,"is_reserved":false,"is_disabled":false,"rental_uris":{"android":"levelo://app?vid=a162f690-22ef-4988-a0e7-fe716f9acaef","ios":"levelo://app?vid=a162f690-22ef-4988-a0e7-fe716f9acaef"},"vehicle_type_id":"4","last_reported":1736556388,"current_range_meters":16400,"station_id":"ce4bhnp2rcd13ifvqh0g","pricing_plan_id":"cebpf4jnsgd1na2vs0mg"},{"bike_id":"9be01537-e054-45c4-92d8-0b0eb1e034b4","system_id":"levelo_inurba_marseille","lat":43.27801,"lon":5.40682,"is_reserved":false,"is_disabled":false,"rental_uris":{"android":"levelo://app?vid=9be01537-e054-45c4-92d8-0b0eb1e034b4","ios":"levelo://app?vid=9be01537-e054-45c4-92d8-0b0eb1e034b4"},"vehicle_type_id":"4","last_reported":1736556388,"current_range_meters":38800,"station_id":"ce4bhnh2rcd13ifvqgtg","pricing_plan_id":"cebpf4jnsgd1na2vs0mg"},{"bike_id":"549b2a88-afcc-4453-ba1b-9f5cfe516f32","system_id":"levelo_inurba_marseille","lat":43.28669,"lon":5.38681,"is_reserved":false,"is_disabled":false,"rental_uris":{"android":"levelo://app?vid=549b2a88-afcc-4453-ba1b-9f5cfe516f32","ios":"levelo://app?vid=549b2a88-afcc-4453-ba1b-9f5cfe516f32"},"vehicle_type_id":"4","last_reported":1736556388,"current_range_meters":31200,"station_id":"ce4bh492rcd13ifvqdug","pricing_plan_id":"cebpf4jnsgd1na2vs0mg"},{"bike_id":"e2544aba-a350-44bf-ba9f-d261b2f4eb98","system_id":"levelo_inurba_marseille","lat":43.279419,"lon":5.410474,"is_reserved":false,"is_disabled":false,"rental_uris":{"android":"levelo://app?vid=e2544aba-a350-44bf-ba9f-d261b2f4eb98","ios":"levelo://app?vid=e2544aba-a350-44bf-ba9f-d261b2f4eb98"},"vehicle_type_id":"4","last_reported":1736556388,"current_range_meters":38800,"station_id":"ce4bhnp2rcd13ifvqh0g","pricing_plan_id":"cebpf4jnsgd1na2vs0mg"},{"bike_id":"e6f7d7e2-d224-4aea-aab6-683e10be3675","system_id":"levelo_inurba_marseille","lat":43.28845,"lon":5.35866,"is_reserved":false,"is_disabled":false,"rental_uris":{"android":"levelo://app?vid=e6f7d7e2-d224-4aea-aab6-683e10be3675","ios":"levelo://app?vid=e6f7d7e2-d224-4aea-aab6-683e10be3675"},"vehicle_type_id":"4","last_reported":1736556388,"current_range_meters":35200,"station_id":"ce4bhb12rcd13ifvqem0","pricing_plan_id":"cebpf4jnsgd1na2vs0mg"},{"bike_id":"4b4b3bc7-2235-4f9b-942f-2041db4f9891","system_id":"levelo_inurba_marseille","lat":43.31712,"lon":5.3777,"is_reserved":false,"is_disabled":false,"rental_uris":{"android":"levelo://app?vid=4b4b3bc7-2235-4f9b-942f-2041db4f9891","ios":"levelo://app?vid=4b4b3bc7-2235-4f9b-942f-2041db4f9891"},"vehicle_type_id":"4","last_reported":1736556388,"current_range_meters":37600,"station_id":"ce4bgth2rcd13ifvqch0","pricing_plan_id":"cebpf4jnsgd1na2vs0mg"},{"bike_id":"afad99be-e102-4cf5-b8cf-eaca3ffdc579","system_id":"levelo_inurba_marseille","lat":43.303113,"lon":5.368837,"is_reserved":false,"is_disabled":false,"rental_uris":{"android":"levelo://app?vid=afad99be-e102-4cf5-b8cf-eaca3ffdc579","ios":"levelo://app?vid=afad99be-e102-4cf5-b8cf-eaca3ffdc579"},"vehicle_type_id":"4","last_reported":1736556388,"current_range_meters":18800,"station_id":"ce4bgqh2rcd13ifvqc5g","pricing_plan_id":"cebpf4jnsgd1na2vs0mg"},{"bike_id":"f6071aa5-be8a-4ad9-aee5-14dfd3eef30b","system_id":"levelo_inurba_marseille","lat":43.31488,"lon":5.37288,"is_reserved":false,"is_disabled":false,"rental_uris":{"android":"levelo://app?vid=f6071aa5-be8a-4ad9-aee5-14dfd3eef30b","ios":"levelo://app?vid=f6071aa5-be8a-4ad9-aee5-14dfd3eef30b"},"vehicle_type_id":"4","last_reported":1736556388,"current_range_meters":38800,"station_id":"ce4bgt12rcd13ifvqcd0","pricing_plan_id":"cebpf4jnsgd1na2vs0mg"},{"bike_id":"1e2223a2-c032-49e7-8dbf-982df86a0520","system_id":"levelo_inurba_marseille","lat":43.22937,"lon":5.35379,"is_reserved":false,"is_disabled":false,"rental_uris":{"android":"levelo://app?vid=1e2223a2-c032-49e7-8dbf-982df86a0520","ios":"levelo://app?vid=1e2223a2-c032-49e7-8dbf-982df86a0520"},"vehicle_type_id":"4","last_reported":1736556388,"current_range_meters":30400,"station_id":"cpo3532slgdg3j2ikp40","pricing_plan_id":"cebpf4jnsgd1na2vs0mg"},{"bike_id":"a721f413-f936-41e2-9679-406a51d64fec","system_id":"levelo_inurba_marseille","lat":43.290344,"lon":5.399604,"is_reserved":false,"is_disabled":false,"rental_uris":{"android":"levelo://app?vid=a721f413-f936-41e2-9679-406a51d64fec","ios":"levelo://app?vid=a721f413-f936-41e2-9679-406a51d64fec"},"vehicle_type_id":"4","last_reported":1736556388,"current_range_meters":36400,"station_id":"ce4bh392rcd13ifvqdm0","pricing_plan_id":"cebpf4jnsgd1na2vs0mg"},{"bike_id":"aa8ac0ca-89b2-472c-abe3-0a86d5057c87","system_id":"levelo_inurba_marseille","lat":43.26062,"lon":5.3939,"is_reserved":false,"is_disabled":false,"rental_uris":{"android":"levelo://app?vid=aa8ac0ca-89b2-472c-abe3-0a86d5057c87","ios":"levelo://app?vid=aa8ac0ca-89b2-472c-abe3-0a86d5057c87"},"vehicle_type_id":"4","last_reported":1736556388,"current_range_meters":8000,"station_id":"ce4bhh92rcd13ifvqfj0","pricing_plan_id":"cebpf4jnsgd1na2vs0mg"},{"bike_id":"5f2cf356-122a-4d24-85ba-e38bc4612223","system_id":"levelo_inurba_marseille","lat":43.25586,"lon":5.38232,"is_reserved":false,"is_disabled":true,"rental_uris":{"android":"levelo://app?vid=5f2cf356-122a-4d24-85ba-e38bc4612223","ios":"levelo://app?vid=5f2cf356-122a-4d24-85ba-e38bc4612223"},"vehicle_type_id":"4","last_reported":1736556388,"current_range_meters":36000,"station_id":"ce4bhih2rcd13ifvqfs0","pricing_plan_id":"cebpf4jnsgd1na2vs0mg"},{"bike_id":"be8a233f-ad85-41b2-af03-bfa1e3033438","system_id":"levelo_inurba_marseille","lat":43.23179,"lon":5.35547,"is_reserved":false,"is_disabled":false,"rental_uris":{"android":"levelo://app?vid=be8a233f-ad85-41b2-af03-bfa1e3033438","ios":"levelo://app?vid=be8a233f-ad85-41b2-af03-bfa1e3033438"},"vehicle_type_id":"4","last_reported":1736556388,"current_range_meters":22800,"station_id":"ce4bhu92rcd13ifvqi70","pricing_plan_id":"cebpf4jnsgd1na2vs0mg"},{"bike_id":"d7284d59-0fa0-4e55-88c3-9102035d8a99","system_id":"levelo_inurba_marseille","lat":43.30229,"lon":5.40043,"is_reserved":false,"is_disabled":true,"rental_uris":{"android":"levelo://app?vid=d7284d59-0fa0-4e55-88c3-9102035d8a99","ios":"levelo://app?vid=d7284d59-0fa0-4e55-88c3-9102035d8a99"},"vehicle_type_id":"4","last_reported":1736556388,"current_range_meters":11200,"station_id":"","pricing_plan_id":"cebpf4jnsgd1na2vs0mg"},{"bike_id":"c5d1d69e-d576-4c18-9575-313b82dc76db","system_id":"levelo_inurba_marseille","lat":43.28606,"lon":5.37091,"is_reserved":false,"is_disabled":false,"rental_uris":{"android":"levelo://app?vid=c5d1d69e-d576-4c18-9575-313b82dc76db","ios":"levelo://app?vid=c5d1d69e-d576-4c18-9575-313b82dc76db"},"vehicle_type_id":"4","last_reported":1736556388,"current_range_meters":26800,"station_id":"ce4bht12rcd13ifvqi60","pricing_plan_id":"cebpf4jnsgd1na2vs0mg"},{"bike_id":"6f217313-e82a-4ced-ad03-cd53b8b45ef1","system_id":"levelo_inurba_marseille","lat":43.29883,"lon":5.37801,"is_reserved":false,"is_disabled":false,"rental_uris":{"android":"levelo://app?vid=6f217313-e82a-4ced-ad03-cd53b8b45ef1","ios":"levelo://app?vid=6f217313-e82a-4ced-ad03-cd53b8b45ef1"},"vehicle_type_id":"4","last_reported":1736556388,"current_range_meters":18000,"station_id":"","pricing_plan_id":"cebpf4jnsgd1na2vs0mg"},{"bike_id":"b876579a-43f8-43c9-8c62-2271791ec4c2","system_id":"levelo_inurba_marseille","lat":43.28701,"lon":5.37366,"is_reserved":false,"is_disabled":false,"rental_uris":{"android":"levelo://app?vid=b876579a-43f8-43c9-8c62-2271791ec4c2","ios":"levelo://app?vid=b876579a-43f8-43c9-8c62-2271791ec4c2"},"vehicle_type_id":"4","last_reported":1736556388,"current_range_meters":36800,"station_id":"ce4bh3p2rcd13ifvqdq0","pricing_plan_id":"cebpf4jnsgd1na2vs0mg"},{"bike_id":"18408ae9-67a3-4b12-af80-7b64bfc1f57a","system_id":"levelo_inurba_marseille","lat":43.29251,"lon":5.40904,"is_reserved":false,"is_disabled":false,"rental_uris":{"android":"levelo://app?vid=18408ae9-67a3-4b12-af80-7b64bfc1f57a","ios":"levelo://app?vid=18408ae9-67a3-4b12-af80-7b64bfc1f57a"},"vehicle_type_id":"4","last_reported":1736556388,"current_range_meters":22800,"station_id":"ce4bh192rcd13ifvqdc0","pricing_plan_id":"cebpf4jnsgd1na2vs0mg"},{"bike_id":"57f5a8a9-f2e5-4673-966d-ca04b8d8c8e6","system_id":"levelo_inurba_marseille","lat":43.31125,"lon":5.37769,"is_reserved":false,"is_disabled":false,"rental_uris":{"android":"levelo://app?vid=57f5a8a9-f2e5-4673-966d-ca04b8d8c8e6","ios":"levelo://app?vid=57f5a8a9-f2e5-4673-966d-ca04b8d8c8e6"},"vehicle_type_id":"4","last_reported":1736556388,"current_range_meters":8400,"station_id":"ce4bgt92rcd13ifvqcg0","pricing_plan_id":"cebpf4jnsgd1na2vs0mg"},{"bike_id":"85427a88-99f5-4856-b496-8ef79c1ec2f5","system_id":"levelo_inurba_marseille","lat":43.24675,"lon":5.38162,"is_reserved":false,"is_disabled":false,"rental_uris":{"android":"levelo://app?vid=85427a88-99f5-4856-b496-8ef79c1ec2f5","ios":"levelo://app?vid=85427a88-99f5-4856-b496-8ef79c1ec2f5"},"vehicle_type_id":"4","last_reported":1736556388,"current_range_meters":36400,"station_id":"ce4bhih2rcd13ifvqfr0","pricing_plan_id":"cebpf4jnsgd1na2vs0mg"},{"bike_id":"65388605-1a70-4c58-b461-d0046c57c728","system_id":"levelo_inurba_marseille","lat":43.31478,"lon":5.37265,"is_reserved":false,"is_disabled":false,"rental_uris":{"android":"levelo://app?vid=65388605-1a70-4c58-b461-d0046c57c728","ios":"levelo://app?vid=65388605-1a70-4c58-b461-d0046c57c728"},"vehicle_type_id":"4","last_reported":1736556388,"current_range_meters":17200,"station_id":"ce4bgt12rcd13ifvqcd0","pricing_plan_id":"cebpf4jnsgd1na2vs0mg"},{"bike_id":"6d62c332-8463-4361-8de6-c419ab720f3d","system_id":"levelo_inurba_marseille","lat":43.28085,"lon":5.39629,"is_reserved":false,"is_disabled":false,"rental_uris":{"android":"levelo://app?vid=6d62c332-8463-4361-8de6-c419ab720f3d","ios":"levelo://app?vid=6d62c332-8463-4361-8de6-c419ab720f3d"},"vehicle_type_id":"4","last_reported":1736556388,"current_range_meters":29600,"station_id":"ce4bho12rcd13ifvqh2g","pricing_plan_id":"cebpf4jnsgd1na2vs0mg"},{"bike_id":"15d282da-837a-46ee-b861-d05a52aef175","system_id":"levelo_inurba_marseille","lat":43.28937,"lon":5.36397,"is_reserved":false,"is_disabled":false,"rental_uris":{"android":"levelo://app?vid=15d282da-837a-46ee-b861-d05a52aef175","ios":"levelo://app?vid=15d282da-837a-46ee-b861-d05a52aef175"},"vehicle_type_id":"4","last_reported":1736556388,"current_range_meters":30000,"station_id":"ce4bhc92rcd13ifvqetg","pricing_plan_id":"cebpf4jnsgd1na2vs0mg"},{"bike_id":"10b087d3-b27a-4384-ae75-250401046e12","system_id":"levelo_inurba_marseille","lat":43.31532,"lon":5.38047,"is_reserved":false,"is_disabled":false,"rental_uris":{"android":"levelo://app?vid=10b087d3-b27a-4384-ae75-250401046e12","ios":"levelo://app?vid=10b087d3-b27a-4384-ae75-250401046e12"},"vehicle_type_id":"4","last_reported":1736556388,"current_range_meters":38800,"station_id":"ce4bhsp2rcd13ifvqi50","pricing_plan_id":"cebpf4jnsgd1na2vs0mg"},{"bike_id":"1f5315b2-4c8d-4b58-8a00-db530f7f67cc","system_id":"levelo_inurba_marseille","lat":43.27953,"lon":5.41042,"is_reserved":false,"is_disabled":false,"rental_uris":{"android":"levelo://app?vid=1f5315b2-4c8d-4b58-8a00-db530f7f67cc","ios":"levelo://app?vid=1f5315b2-4c8d-4b58-8a00-db530f7f67cc"},"vehicle_type_id":"4","last_reported":1736556388,"current_range_meters":17200,"station_id":"ce4bhnp2rcd13ifvqh0g","pricing_plan_id":"cebpf4jnsgd1na2vs0mg"},{"bike_id":"ad28bd53-1c8c-44ea-9a1c-1e5a5b2498fe","system_id":"levelo_inurba_marseille","lat":43.24154,"lon":5.36438,"is_reserved":false,"is_disabled":false,"rental_uris":{"android":"levelo://app?vid=ad28bd53-1c8c-44ea-9a1c-1e5a5b2498fe","ios":"levelo://app?vid=ad28bd53-1c8c-44ea-9a1c-1e5a5b2498fe"},"vehicle_type_id":"4","last_reported":1736556388,"current_range_meters":8400,"station_id":"cpo36qri1sfpv3e86is0","pricing_plan_id":"cebpf4jnsgd1na2vs0mg"},{"bike_id":"30b4f19a-5b8b-4ac5-8a89-8b14fe041003","system_id":"levelo_inurba_marseille","lat":43.24806,"lon":5.37448,"is_reserved":false,"is_disabled":false,"rental_uris":{"android":"levelo://app?vid=30b4f19a-5b8b-4ac5-8a89-8b14fe041003","ios":"levelo://app?vid=30b4f19a-5b8b-4ac5-8a89-8b14fe041003"},"vehicle_type_id":"4","last_reported":1736556388,"current_range_meters":21600,"station_id":"ce4bhgh2rcd13ifvqfb0","pricing_plan_id":"cebpf4jnsgd1na2vs0mg"},{"bike_id":"ad746cf8-4245-4698-b3cf-55cfec0266f7","system_id":"levelo_inurba_marseille","lat":43.25873,"lon":5.39899,"is_reserved":false,"is_disabled":false,"rental_uris":{"android":"levelo://app?vid=ad746cf8-4245-4698-b3cf-55cfec0266f7","ios":"levelo://app?vid=ad746cf8-4245-4698-b3cf-55cfec0266f7"},"vehicle_type_id":"4","last_reported":1736556388,"current_range_meters":6400,"station_id":"ce4bhl92rcd13ifvqghg","pricing_plan_id":"cebpf4jnsgd1na2vs0mg"},{"bike_id":"dbd9b530-fed1-4d45-bb60-d02086423e0f","system_id":"levelo_inurba_marseille","lat":43.2718,"lon":5.40993,"is_reserved":false,"is_disabled":false,"rental_uris":{"android":"levelo://app?vid=dbd9b530-fed1-4d45-bb60-d02086423e0f","ios":"levelo://app?vid=dbd9b530-fed1-4d45-bb60-d02086423e0f"},"vehicle_type_id":"4","last_reported":1736556388,"current_range_meters":38800,"station_id":"ce4bhl12rcd13ifvqgf0","pricing_plan_id":"cebpf4jnsgd1na2vs0mg"},{"bike_id":"04dafb08-87ad-4cfe-be8b-3c9f0fe86a42","system_id":"levelo_inurba_marseille","lat":43.25828,"lon":5.39436,"is_reserved":false,"is_disabled":false,"rental_uris":{"android":"levelo://app?vid=04dafb08-87ad-4cfe-be8b-3c9f0fe86a42","ios":"levelo://app?vid=04dafb08-87ad-4cfe-be8b-3c9f0fe86a42"},"vehicle_type_id":"4","last_reported":1736556388,"current_range_meters":18000,"station_id":"ce4bhip2rcd13ifvqft0","pricing_plan_id":"cebpf4jnsgd1na2vs0mg"},{"bike_id":"866de4ab-32e5-46eb-8b57-d9e04aca0660","system_id":"levelo_inurba_marseille","lat":43.29867,"lon":5.38918,"is_reserved":false,"is_disabled":false,"rental_uris":{"android":"levelo://app?vid=866de4ab-32e5-46eb-8b57-d9e04aca0660","ios":"levelo://app?vid=866de4ab-32e5-46eb-8b57-d9e04aca0660"},"vehicle_type_id":"4","last_reported":1736556388,"current_range_meters":12800,"station_id":"ce4bh392rcd13ifvqdl0","pricing_plan_id":"cebpf4jnsgd1na2vs0mg"},{"bike_id":"b5a31aab-1574-4a6b-8401-1e0a2c59ce4b","system_id":"levelo_inurba_marseille","lat":43.27845,"lon":5.39218,"is_reserved":false,"is_disabled":false,"rental_uris":{"android":"levelo://app?vid=b5a31aab-1574-4a6b-8401-1e0a2c59ce4b","ios":"levelo://app?vid=b5a31aab-1574-4a6b-8401-1e0a2c59ce4b"},"vehicle_type_id":"4","last_reported":1736556388,"current_range_meters":24800,"station_id":"ce4bhjp2rcd13ifvqga0","pricing_plan_id":"cebpf4jnsgd1na2vs0mg"},{"bike_id":"2d18369b-801b-4b4a-903b-d976e9a33c0d","system_id":"levelo_inurba_marseille","lat":43.258201,"lon":5.394364,"is_reserved":false,"is_disabled":false,"rental_uris":{"android":"levelo://app?vid=2d18369b-801b-4b4a-903b-d976e9a33c0d","ios":"levelo://app?vid=2d18369b-801b-4b4a-903b-d976e9a33c0d"},"vehicle_type_id":"4","last_reported":1736556388,"current_range_meters":32400,"station_id":"ce4bhip2rcd13ifvqft0","pricing_plan_id":"cebpf4jnsgd1na2vs0mg"},{"bike_id":"8b88170d-e695-4530-8583-a66b3ec41a93","system_id":"levelo_inurba_marseille","lat":43.33618,"lon":5.41039,"is_reserved":false,"is_disabled":false,"rental_uris":{"android":"levelo://app?vid=8b88170d-e695-4530-8583-a66b3ec41a93","ios":"levelo://app?vid=8b88170d-e695-4530-8583-a66b3ec41a93"},"vehicle_type_id":"4","last_reported":1736556388,"current_range_meters":14800,"station_id":"ce4bhqh2rcd13ifvqhmg","pricing_plan_id":"cebpf4jnsgd1na2vs0mg"},{"bike_id":"3a16c1ee-f720-45eb-bdaf-ae71c9e16faf","system_id":"levelo_inurba_marseille","lat":43.32541,"lon":5.4142,"is_reserved":false,"is_disabled":false,"rental_uris":{"android":"levelo://app?vid=3a16c1ee-f720-45eb-bdaf-ae71c9e16faf","ios":"levelo://app?vid=3a16c1ee-f720-45eb-bdaf-ae71c9e16faf"},"vehicle_type_id":"4","last_reported":1736556388,"current_range_meters":17200,"station_id":"ce4bhq12rcd13ifvqhhg","pricing_plan_id":"cebpf4jnsgd1na2vs0mg"},{"bike_id":"b8acbba0-a715-4ced-a2aa-0517db10ac9d","system_id":"levelo_inurba_marseille","lat":43.229252,"lon":5.353794,"is_reserved":false,"is_disabled":true,"rental_uris":{"android":"levelo://app?vid=b8acbba0-a715-4ced-a2aa-0517db10ac9d","ios":"levelo://app?vid=b8acbba0-a715-4ced-a2aa-0517db10ac9d"},"vehicle_type_id":"4","last_reported":1736556388,"current_range_meters":38000,"station_id":"cpo3532slgdg3j2ikp40","pricing_plan_id":"cebpf4jnsgd1na2vs0mg"},{"bike_id":"93eae98b-5ccf-4ee7-9d96-0e4060f411f2","system_id":"levelo_inurba_marseille","lat":43.239638,"lon":5.366371,"is_reserved":false,"is_disabled":false,"rental_uris":{"android":"levelo://app?vid=93eae98b-5ccf-4ee7-9d96-0e4060f411f2","ios":"levelo://app?vid=93eae98b-5ccf-4ee7-9d96-0e4060f411f2"},"vehicle_type_id":"4","last_reported":1736556388,"current_range_meters":30000,"station_id":"ce4bhi12rcd13ifvqfp0","pricing_plan_id":"cebpf4jnsgd1na2vs0mg"},{"bike_id":"55d6bc39-d199-4c02-aa2e-392175452eee","system_id":"levelo_inurba_marseille","lat":43.24665,"lon":5.38149,"is_reserved":false,"is_disabled":false,"rental_uris":{"android":"levelo://app?vid=55d6bc39-d199-4c02-aa2e-392175452eee","ios":"levelo://app?vid=55d6bc39-d199-4c02-aa2e-392175452eee"},"vehicle_type_id":"4","last_reported":1736556388,"current_range_meters":16400,"station_id":"ce4bhih2rcd13ifvqfr0","pricing_plan_id":"cebpf4jnsgd1na2vs0mg"},{"bike_id":"47894883-9411-4bd7-8b31-81ed1947cbf2","system_id":"levelo_inurba_marseille","lat":43.28007,"lon":5.41686,"is_reserved":false,"is_disabled":false,"rental_uris":{"android":"levelo://app?vid=47894883-9411-4bd7-8b31-81ed1947cbf2","ios":"levelo://app?vid=47894883-9411-4bd7-8b31-81ed1947cbf2"},"vehicle_type_id":"4","last_reported":1736556388,"current_range_meters":21600,"station_id":"ce4bho12rcd13ifvqh1g","pricing_plan_id":"cebpf4jnsgd1na2vs0mg"},{"bike_id":"97bcb446-6bb9-47e4-954c-ada27848fb90","system_id":"levelo_inurba_marseille","lat":43.29273,"lon":5.40927,"is_reserved":false,"is_disabled":false,"rental_uris":{"android":"levelo://app?vid=97bcb446-6bb9-47e4-954c-ada27848fb90","ios":"levelo://app?vid=97bcb446-6bb9-47e4-954c-ada27848fb90"},"vehicle_type_id":"4","last_reported":1736556388,"current_range_meters":39200,"station_id":"ce4bh192rcd13ifvqdc0","pricing_plan_id":"cebpf4jnsgd1na2vs0mg"},{"bike_id":"eb58e795-69d2-4128-9bac-5bf120e11b19","system_id":"levelo_inurba_marseille","lat":43.313357,"lon":5.37328,"is_reserved":false,"is_disabled":false,"rental_uris":{"android":"levelo://app?vid=eb58e795-69d2-4128-9bac-5bf120e11b19","ios":"levelo://app?vid=eb58e795-69d2-4128-9bac-5bf120e11b19"},"vehicle_type_id":"4","last_reported":1736556388,"current_range_meters":28000,"station_id":"","pricing_plan_id":"cebpf4jnsgd1na2vs0mg"},{"bike_id":"492eaeaa-12ec-45d5-becd-2f0b35e16c8d","system_id":"levelo_inurba_marseille","lat":43.24176,"lon":5.36384,"is_reserved":false,"is_disabled":false,"rental_uris":{"android":"levelo://app?vid=492eaeaa-12ec-45d5-becd-2f0b35e16c8d","ios":"levelo://app?vid=492eaeaa-12ec-45d5-becd-2f0b35e16c8d"},"vehicle_type_id":"4","last_reported":1736556388,"current_range_meters":11200,"station_id":"cpo36qri1sfpv3e86is0","pricing_plan_id":"cebpf4jnsgd1na2vs0mg"},{"bike_id":"a76bdc52-670b-42f0-a6bc-f0e47359d3dd","system_id":"levelo_inurba_marseille","lat":43.27188,"lon":5.41003,"is_reserved":false,"is_disabled":false,"rental_uris":{"android":"levelo://app?vid=a76bdc52-670b-42f0-a6bc-f0e47359d3dd","ios":"levelo://app?vid=a76bdc52-670b-42f0-a6bc-f0e47359d3dd"},"vehicle_type_id":"4","last_reported":1736556388,"current_range_meters":38000,"station_id":"ce4bhl12rcd13ifvqgf0","pricing_plan_id":"cebpf4jnsgd1na2vs0mg"},{"bike_id":"377730c6-0336-4c78-9c46-cdee41ff19a9","system_id":"levelo_inurba_marseille","lat":43.28023,"lon":5.41107,"is_reserved":false,"is_disabled":false,"rental_uris":{"android":"levelo://app?vid=377730c6-0336-4c78-9c46-cdee41ff19a9","ios":"levelo://app?vid=377730c6-0336-4c78-9c46-cdee41ff19a9"},"vehicle_type_id":"4","last_reported":1736556388,"current_range_meters":3600,"station_id":"","pricing_plan_id":"cebpf4jnsgd1na2vs0mg"},