{"last_updated":1765966413,"ttl":60,"version":"2.2","data":{"bikes":[{"bike_id":"0f3cc95a-e76b-4d68-a1b7-dc07a280336f","system_id":"levelo_inurba_marseille","lat":43.337444,"lon":5.374475,"is_reserved":false,"is_disabled":false,"rental_uris":{"android":"levelo://app?vid=0f3cc95a-e76b-4d68-a1b7-dc07a280336f","ios":"levelo://app?vid=0f3cc95a-e76b-4d68-a1b7-dc07a280336f"},"vehicle_type_id":"4","last_reported":1765966414,"current_range_meters":0,"station_id":"","pricing_plan_id":"cebpf4jnsgd1na2vs0mg"},{"bike_id":"9546d5b8-2fdf-496f-821d-ce7763849fd4","system_id":"levelo_inurba_marseille","lat":43.337444,"lon":5.374475,"is_reserved":false,"is_disabled":false,"rental_uris":{"android":"levelo://app?vid=9546d5b8-2fdf-496f-821d-ce7763849fd4","ios":"levelo://app?vid=9546d5b8-2fdf-496f-821d-ce7763849fd4"},"vehicle_type_id":"4","last_reported":1765966414,"current_range_meters":0,"station_id":"","pricing_plan_id":"cebpf4jnsgd1na2vs0mg"},{"bike_id":"0dd0820b-8098-4492-b3d6-693fe4c49ff5","system_id":"levelo_inurba_marseille","lat":43.337444,"lon":5.374475,"is_reserved":false,"is_disabled":false,"rental_uris":{"android":"levelo://app?vid=0dd0820b-8098-4492-b3d6-693fe4c49ff5","ios":"levelo://app?vid=0dd0820b-8098-4492-b3d6-693fe4c49ff5"},"vehicle_type_id":"4","last_reported":1765966414,"current_range_meters":0,"station_id":"","pricing_plan_id":"cebpf4jnsgd1na2vs0mg"},{"bike_id":"b72042e2-ef81-4ffe-a8ce-6cca34e74f67","system_id":"levelo_inurba_marseille","lat":43.337444,"lon":5.374475,"is_reserved":false,"is_disabled":false,"rental_uris":{"android":"levelo://app?vid=b72042e2-ef81-4ffe-a8ce-6cca34e74f67","ios":"levelo://app?vid=b72042e2-ef81-4ffe-a8ce-6cca34e74f67"},"vehicle_type_id":"4","last_reported":1765966414,"current_range_meters":0,"station_id":"","pricing_plan_id":"cebpf4jnsgd1na2vs0mg"},{"bike_id":"fd905d4f-b55b-4d47-a37e-1c50218e97f2","system_id":"levelo_inurba_marseille","lat":43.337444,"lon":5.374475,"is_reserved":false,"is_disabled":false,"rental_uris":{"android":"levelo://app?vid=fd905d4f-b55b-4d47-a37e-1c50218e97f2","ios":"levelo://app?vid=fd905d4f-b55b-4d47-a37e-1c50218e97f2"},"vehicle_type_id":"4","last_reported":1765966414,"current_range_meters":0,"station_id":"","pricing_plan_id":"cebpf4jnsgd1na2vs0mg"},{"bike_id":"8c46ddd2-1683-4248-8390-aa1f64088d54","system_id":"levelo_inurba_marseille","lat":43.337444,"lon":5.374475,"is_reserved":false,"is_disabled":false,"rental_uris":{"android":"levelo://app?vid=8c46ddd2-1683-4248-8390-aa1f64088d54","ios":"levelo://app?vid=8c46ddd2-1683-4248-8390-aa1f64088d54"},"vehicle_type_id":"4","last_reported":1765966414,"current_range_meters":0,"station_id":"","pricing_plan_id":"cebpf4jnsgd1na2vs0mg"},{"bike_id":"3a3887b8-fe73-48c9-aaa5-bb4eac1a4c30","system_id":"levelo_inurba_marseille","lat":43.337444,"lon":5.374475,"is_reserved":false,"is_disabled":false,"rental_uris":{"android":"levelo://app?vid=3a3887b8-fe73-48c9-aaa5-bb4eac1a4c30","ios":"levelo://app?vid=3a3887b8-fe73-48c9-aaa5-bb4eac1a4c30"},"vehicle_type_id":"4","last_reported":1765966414,"current_range_meters":0,"station_id":"","pricing_plan_id":"cebpf4jnsgd1na2vs0mg"},{"bike_id":"bc7513c6-013d-41cb-92a4-b6fe817369a5","system_id":"levelo_inurba_marseille","lat":43.337444,"lon":5.374475,"is_reserved":false,"is_disabled":false,"rental_uris":{"android":"levelo://app?vid=bc7513c6-013d-41cb-92a4-b6fe817369a5","ios":"levelo://app?vid=bc7513c6-013d-41cb-92a4-b6fe817369a5"},"vehicle_type_id":"4","last_reported":1765966414,"current_range_meters":0,"station_id":"","pricing_plan_id":"cebpf4jnsgd1na2vs0mg"},{"bike_id":"fe081859-53ce-4bcb-b52e-39e4390a6baa","system_id":"levelo_inurba_marseille","lat":43.337444,"lon":5.374475,"is_reserved":false,"is_disabled":false,"rental_uris":{"android":"levelo://app?vid=fe081859-53ce-4bcb-b52e-39e4390a6baa","ios":"levelo://app?vid=fe081859-53ce-4bcb-b52e-39e4390a6baa"},"vehicle_type_id":"4","last_reported":1765966414,"current_range_meters":0,"station_id":"","pricing_plan_id":"cebpf4jnsgd1na2vs0mg"},{"bike_id":"1a936ebd-3089-48df-9e06-3b361bfd2c99","system_id":"levelo_inurba_marseille","lat":43.337444,"lon":5.374475,"is_reserved":false,"is_disabled":false,"rental_uris":{"android":"levelo://app?vid=1a936ebd-3089-48df-9e06-3b361bfd2c99","ios":"levelo://app?vid=1a936ebd-3089-48df-9e06-3b361bfd2c99"},"vehicle_type_id":"4","last_reported":1765966414,"current_range_meters":0,"station_id":"","pricing_plan_id":"cebpf4jnsgd1na2vs0mg"},{"bike_id":"ea8098b9-0d50-4a14-a60b-cf24388d94f9","system_id":"levelo_inurba_marseille","lat":43.337444,"lon":5.374475,"is_reserved":false,"is_disabled":false,"rental_uris":{"android":"levelo://app?vid=ea8098b9-0d50-4a14-a60b-cf24388d94f9","ios":"levelo://app?vid=ea8098b9-0d50-4a14-a60b-cf24388d94f9"},"vehicle_type_id":"4","last_reported":1765966414,"current_range_meters":0,"station_id":"","pricing_plan_id":"cebpf4jnsgd1na2vs0mg"},{"bike_id":"695105f8-6a7f-488e-8d3c-962a9f043918","system_id":"levelo_inurba_marseille","lat":43.337444,"lon":5.374475,"is_reserved":false,"is_disabled":false,"rental_uris":{"android":"levelo://app?vid=695105f8-6a7f-488e-8d3c-962a9f043918","ios":"levelo://app?vid=695105f8-6a7f-488e-8d3c-962a9f043918"},"vehicle_type_id":"4","last_reported":1765966414,"current_range_meters":0,"station_id":"","pricing_plan_id":"cebpf4jnsgd1na2vs0mg"},{"bike_id":"3dc80901-237e-4812-9bbb-60628c388160","system_id":"levelo_inurba_marseille","lat":43.337444,"lon":5.374475,"is_reserved":false,"is_disabled":false,"rental_uris":{"android":"levelo://app?vid=3dc80901-237e-4812-9bbb-60628c388160","ios":"levelo://app?vid=3dc80901-237e-4812-9bbb-60628c388160"},"vehicle_type_id":"4","last_reported":1765966414,"current_range_meters":0,"station_id":"","pricing_plan_id":"cebpf4jnsgd1na2vs0mg"},{"bike_id":"acff4e1f-7da0-4027-aa85-7f3594d6f0e8","system_id":"levelo_inurba_marseille","lat":43.337444,"lon":5.374475,"is_reserved":false,"is_disabled":false,"rental_uris":{"android":"levelo://app?vid=acff4e1f-7da0-4027-aa85-7f3594d6f0e8","ios":"levelo://app?vid=acff4e1f-7da0-4027-aa85-7f3594d6f0e8"},"vehicle_type_id":"4","last_reported":1765966414,"current_range_meters":0,"station_id":"","pricing_plan_id":"cebpf4jnsgd1na2vs0mg"},{"bike_id":"3575b79a-78fa-401b-91a7-b0172c89201c","system_id":"levelo_inurba_marseille","lat":43.337444,"lon":5.374475,"is_reserved":false,"is_disabled":false,"rental_uris":{"android":"levelo://app?vid=3575b79a-78fa-401b-91a7-b0172c89201c","ios":"levelo://app?vid=3575b79a-78fa-401b-91a7-b0172c89201c"},"vehicle_type_id":"4","last_reported":1765966414,"current_range_meters":0,"station_id":"","pricing_plan_id":"cebpf4jnsgd1na2vs0mg"},{"bike_id":"57b06d01-a33f-476a-b6d4-44b1aac912bd","system_id":"levelo_inurba_marseille","lat":43.337444,"lon":5.374475,"is_reserved":false,"is_disabled":false,"rental_uris":{"android":"levelo://app?vid=57b06d01-a33f-476a-b6d4-44b1aac912bd","ios":"levelo://app?vid=57b06d01-a33f-476a-b6d4-44b1aac912bd"},"vehicle_type_id":"4","last_reported":1765966414,"current_range_meters":0,"station_id":"","pricing_plan_id":"cebpf4jnsgd1na2vs0mg"},{"bike_id":"fbd5f854-c473-435b-8e32-6001de254b84","system_id":"levelo_inurba_marseille","lat":43.337444,"lon":5.374475,"is_reserved":false,"is_disabled":false,"rental_uris":{"android":"levelo://app?vid=fbd5f854-c473-435b-8e32-6001de254b84","ios":"levelo://app?vid=fbd5f854-c473-435b-8e32-6001de254b84"},"vehicle_type_id":"4","last_reported":1765966414,"current_range_meters":0,"station_id":"","pricing_plan_id":"cebpf4jnsgd1na2vs0mg"},{"bike_id":"7b86b746-c185-490b-8242-f5b7e35cd60b","system_id":"levelo_inurba_marseille","lat":43.337444,"lon":5.374475,"is_reserved":false,"is_disabled":false,"rental_uris":{"android":"levelo://app?vid=7b86b746-c185-490b-8242-f5b7e35cd60b","ios":"levelo://app?vid=7b86b746-c185-490b-8242-f5b7e35cd60b"},"vehicle_type_id":"4","last_reported":1765966414,"current_range_meters":0,"station_id":"","pricing_plan_id":"cebpf4jnsgd1na2vs0mg"},{"bike_id":"6e526977-bb40-4432-9a97-0929e5006cd8","system_id":"levelo_inurba_marseille","lat":43.337444,"lon":5.374475,"is_reserved":false,"is_disabled":false,"rental_uris":{"android":"levelo://app?vid=6e526977-bb40-4432-9a97-0929e5006cd8","ios":"levelo://app?vid=6e526977-bb40-4432-9a97-0929e5006cd8"},"vehicle_type_id":"4","last_reported":1765966414,"current_range_meters":0,"station_id":"","pricing_plan_id":"cebpf4jnsgd1na2vs0mg"},{"bike_id":"29581df9-3342-49cc-9011-7326103cdbee","system_id":"levelo_inurba_marseille","lat":43.337444,"lon":5.374475,"is_reserved":false,"is_disabled":false,"rental_uris":{"android":"levelo://app?vid=29581df9-3342-49cc-9011-7326103cdbee","ios":"levelo://app?vid=29581df9-3342-49cc-9011-7326103cdbee"},"vehicle_type_id":"4","last_reported":1765966414,"current_range_meters":0,"station_id":"","pricing_plan_id":"cebpf4jnsgd1na2vs0mg"},{"bike_id":"0a07d333-8401-479e-a4ad-1807f9d5bdc8","system_id":"levelo_inurba_marseille","lat":43.337444,"lon":5.374475,"is_reserved":false,"is_disabled":false,"rental_uris":{"android":"levelo://app?vid=0a07d333-8401-479e-a4ad-1807f9d5bdc8","ios":"levelo://app?vid=0a07d333-8401-479e-a4ad-1807f9d5bdc8"},"vehicle_type_id":"4","last_reported":1765966414,"current_range_meters":0,"station_id":"","pricing_plan_id":"cebpf4jnsgd1na2vs0mg"},{"bike_id":"14322d8a-67f6-439c-bcb4-372883135eab","system_id":"levelo_inurba_marseille","lat":43.337444,"lon":5.374475,"is_reserved":false,"is_disabled":false,"rental_uris":{"android":"levelo://app?vid=14322d8a-67f6-439c-bcb4-372883135eab","ios":"levelo://app?vid=14322d8a-67f6-439c-bcb4-372883135eab"},"vehicle_type_id":"4","last_reported":1765966414,"current_range_meters":0,"station_id":"","pricing_plan_id":"cebpf4jnsgd1na2vs0mg"},{"bike_id":"2676db2a-b5ca-4c59-9b64-be1e7000c350","system_id":"levelo_inurba_marseille","lat":43.337444,"lon":5.374475,"is_reserved":false,"is_disabled":false,"rental_uris":{"android":"levelo://app?vid=2676db2a-b5ca-4c59-9b64-be1e7000c350","ios":"levelo://app?vid=2676db2a-b5ca-4c59-9b64-be1e7000c350"},"vehicle_type_id":"4","last_reported":1765966414,"current_range_meters":0,"station_id":"","pricing_plan_id":"cebpf4jnsgd1na2vs0mg"},{"bike_id":"aa05c83d-dbf9-4a3e-988e-a9563e1d750b","system_id":"levelo_inurba_marseille","lat":43.337444,"lon":5.374475,"is_reserved":false,"is_disabled":false,"rental_uris":{"android":"levelo://app?vid=aa05c83d-dbf9-4a3e-988e-a9563e1d750b","ios":"levelo://app?vid=aa05c83d-dbf9-4a3e-988e-a9563e1d750b"},"vehicle_type_id":"4","last_reported":1765966414,"current_range_meters":0,"station_id":"","pricing_plan_id":"cebpf4jnsgd1na2vs0mg"},{"bike_id":"6b2e21a2-f371-4445-bf15-f812071a77a5","system_id":"levelo_inurba_marseille","lat":43.337444,"lon":5.374475,"is_reserved":false,"is_disabled":false,"rental_uris":{"android":"levelo://app?vid=6b2e21a2-f371-4445-bf15-f812071a77a5","ios":"levelo://app?vid=6b2e21a2-f371-4445-bf15-f812071a77a5"},"vehicle_type_id":"4","last_reported":1765966414,"current_range_meters":0,"station_id":"","pricing_plan_id":"cebpf4jnsgd1na2vs0mg"},{"bike_id":"cf610a85-7084-4166-8078-11783ee0a6fc","system_id":"levelo_inurba_marseille","lat":43.337444,"lon":5.374475,"is_reserved":false,"is_disabled":false,"rental_uris":{"android":"levelo://app?vid=cf610a85-7084-4166-8078-11783ee0a6fc","ios":"levelo://app?vid=cf610a85-7084-4166-8078-11783ee0a6fc"},"vehicle_type_id":"4","last_reported":1765966414,"current_range_meters":0,"station_id":"","pricing_plan_id":"cebpf4jnsgd1na2vs0mg"},{"bike_id":"eeaef50f-0b39-4ab4-8d30-b0b238ab27ce","system_id":"levelo_inurba_marseille","lat":43.337444,"lon":5.374475,"is_reserved":false,"is_disabled":false,"rental_uris":{"android":"levelo://app?vid=eeaef50f-0b39-4ab4-8d30-b0b238ab27ce","ios":"levelo://app?vid=eeaef50f-0b39-4ab4-8d30-b0b238ab27ce"},"vehicle_type_id":"4","last_reported":1765966414,"current_range_meters":0,"station_id":"","pricing_plan_id":"cebpf4jnsgd1na2vs0mg"},{"bike_id":"5e41f1be-1499-4beb-acb2-2d06f424198f","system_id":"levelo_inurba_marseille","lat":43.337444,"lon":5.374475,"is_reserved":false,"is_disabled":false,"rental_uris":{"android":"levelo://app?vid=5e41f1be-1499-4beb-acb2-2d06f424198f","ios":"levelo://app?vid=5e41f1be-1499-4beb-acb2-2d06f424198f"},"vehicle_type_id":"4","last_reported":1765966414,"current_range_meters":0,"station_id":"","pricing_plan_id":"cebpf4jnsgd1na2vs0mg"},{"bike_id":"0b7b279c-eae7-480b-90ce-9a6ffacb2c7d","system_id":"levelo_inurba_marseille","lat":43.337444,"lon":5.374475,"is_reserved":false,"is_disabled":false,"rental_uris":{"android":"levelo://app?vid=0b7b279c-eae7-480b-90ce-9a6ffacb2c7d","ios":"levelo://app?vid=0b7b279c-eae7-480b-90ce-9a6ffacb2c7d"},"vehicle_type_id":"4","last_reported":1765966414,"current_range_meters":0,"station_id":"","pricing_plan_id":"cebpf4jnsgd1na2vs0mg"},{"bike_id":"7a4de459-53d4-4987-9e65-b43f63f5583d","system_id":"levelo_inurba_marseille","lat":43.337444,"lon":5.374475,"is_reserved":false,"is_disabled":false,"rental_uris":{"android":"levelo://app?vid=7a4de459-53d4-4987-9e65-b43f63f5583d","ios":"levelo://app?vid=7a4de459-53d4-4987-9e65-b43f63f5583d"},"vehicle_type_id":"4","last_reported":1765966414,"current_range_meters":0,"station_id":"","pricing_plan_id":"cebpf4jnsgd1na2vs0mg"},{"bike_id":"7b772cd4-ede2-43cc-9fa4-dec9ec9a0e7a","system_id":"levelo_inurba_marseille","lat":43.337444,"lon":5.374475,"is_reserved":false,"is_disabled":false,"rental_uris":{"android":"levelo://app?vid=7b772cd4-ede2-43cc-9fa4-dec9ec9a0e7a","ios":"levelo://app?vid=7b772cd4-ede2-43cc-9fa4-dec9ec9a0e7a"},"vehicle_type_id":"4","last_reported":1765966414,"current_range_meters":0,"station_id":"","pricing_plan_id":"cebpf4jnsgd1na2vs0mg"},{"bike_id":"9ba4a474-b2bf-4e80-9d0d-77bb3e4a825a","system_id":"levelo_inurba_marseille","lat":43.337444,"lon":5.374475,"is_reserved":false,"is_disabled":false,"rental_uris":{"android":"levelo://app?vid=9ba4a474-b2bf-4e80-9d0d-77bb3e4a825a","ios":"levelo://app?vid=9ba4a474-b2bf-4e80-9d0d-77bb3e4a825a"},"vehicle_type_id":"4","last_reported":1765966414,"current_range_meters":0,"station_id":"","pricing_plan_id":"cebpf4jnsgd1na2vs0mg"},{"bike_id":"92a62d17-5740-4144-948e-8194da33f79a","system_id":"levelo_inurba_marseille","lat":43.337444,"lon":5.374475,"is_reserved":false,"is_disabled":false,"rental_uris":{"android":"levelo://app?vid=92a62d17-5740-4144-948e-8194da33f79a","ios":"levelo://app?vid=92a62d17-5740-4144-948e-8194da33f79a"},"vehicle_type_id":"4","last_reported":1765966414,"current_range_meters":0,"station_id":"","pricing_plan_id":"cebpf4jnsgd1na2vs0mg"},{"bike_id":"80ef0a5f-7ec6-41b1-8e91-24254e6dba3d","system_id":"levelo_inurba_marseille","lat":43.337444,"lon":5.374475,"is_reserved":false,"is_disabled":false,"rental_uris":{"android":"levelo://app?vid=80ef0a5f-7ec6-41b1-8e91-24254e6dba3d","ios":"levelo://app?vid=80ef0a5f-7ec6-41b1-8e91-24254e6dba3d"},"vehicle_type_id":"4","last_reported":1765966414,"current_range_meters":0,"station_id":"","pricing_plan_id":"cebpf4jnsgd1na2vs0mg"},{"bike_id":"82cc75f3-b595-4a45-ade2-d55205875aa2","system_id":"levelo_inurba_marseille","lat":43.337444,"lon":5.374475,"is_reserved":false,"is_disabled":false,"rental_uris":{"android":"levelo://app?vid=82cc75f3-b595-4a45-ade2-d55205875aa2","ios":"levelo://app?vid=82cc75f3-b595-4a45-ade2-d55205875aa2"},"vehicle_type_id":"4","last_reported":1765966414,"current_range_meters":0,"station_id":"","pricing_plan_id":"cebpf4jnsgd1na2vs0mg"},{"bike_id":"80567d45-9fbf-4b66-9635-815ab85bc963","system_id":"levelo_inurba_marseille","lat":43.28495,"lon":5.38394,"is_reserved":false,"is_disabled":false,"rental_uris":{"android":"levelo://app?vid=80567d45-9fbf-4b66-9635-815ab85bc963","ios":"levelo://app?vid=80567d45-9fbf-4b66-9635-815ab85bc963"},"vehicle_type_id":"4","last_reported":1765966414,"current_range_meters":2800,"station_id":"ce4bh512rcd13ifvqe3g","pricing_plan_id":"cebpf4jnsgd1na2vs0mg"},{"bike_id":"74318dd8-1691-4b91-b1e4-1899d7815c78","system_id":"levelo_inurba_marseille","lat":43.21191,"lon":5.3508,"is_reserved":false,"is_disabled":false,"rental_uris":{"android":"levelo://app?vid=74318dd8-1691-4b91-b1e4-1899d7815c78","ios":"levelo://app?vid=74318dd8-1691-4b91-b1e4-1899d7815c78"},"vehicle_type_id":"4","last_reported":1765966414,"current_range_meters":2800,"station_id":"st_cvj6sg6p6f1abm77japg","pricing_plan_id":"cebpf4jnsgd1na2vs0mg"},{"bike_id":"8189813d-e947-4ba8-8b23-3c6c2f9a8af7","system_id":"levelo_inurba_marseille","lat":43.30151,"lon":5.38081,"is_reserved":false,"is_disabled":false,"rental_uris":{"android":"levelo://app?vid=8189813d-e947-4ba8-8b23-3c6c2f9a8af7","ios":"levelo://app?vid=8189813d-e947-4ba8-8b23-3c6c2f9a8af7"},"vehicle_type_id":"4","last_reported":1765966414,"current_range_meters":2800,"station_id":"ce4bgjp2rcd13ifvqbh0","pricing_plan_id":"cebpf4jnsgd1na2vs0mg"},{"bike_id":"bee5f29c-17ec-4d6a-b731-2c856acb548f","system_id":"levelo_inurba_marseille","lat":43.337538,"lon":5.374581,"is_reserved":false,"is_disabled":false,"rental_uris":{"android":"levelo://app?vid=bee5f29c-17ec-4d6a-b731-2c856acb548f","ios":"levelo://app?vid=bee5f29c-17ec-4d6a-b731-2c856acb548f"},"vehicle_type_id":"4","last_reported":1765966414,"current_range_meters":2800,"station_id":"","pricing_plan_id":"cebpf4jnsgd1na2vs0mg"},{"bike_id":"1a7fa844-051e-4bbd-9518-95fe010d57f1","system_id":"levelo_inurba_marseille","lat":43.28443,"lon":5.39903,"is_reserved":false,"is_disabled":false,"rental_uris":{"android":"levelo://app?vid=1a7fa844-051e-4bbd-9518-95fe010d57f1","ios":"levelo://app?vid=1a7fa844-051e-4bbd-9518-95fe010d57f1"},"vehicle_type_id":"4","last_reported":1765966414,"current_range_meters":2800,"station_id":"","pricing_plan_id":"cebpf4jnsgd1na2vs0mg"},{"bike_id":"0004e816-d3b7-4f20-b1a8-3493530fc6c0","system_id":"levelo_inurba_marseille","lat":43.23857,"lon":5.3734,"is_reserved":false,"is_disabled":false,"rental_uris":{"android":"levelo://app?vid=0004e816-d3b7-4f20-b1a8-3493530fc6c0","ios":"levelo://app?vid=0004e816-d3b7-4f20-b1a8-3493530fc6c0"},"vehicle_type_id":"4","last_reported":1765966414,"current_range_meters":2800,"station_id":"","pricing_plan_id":"cebpf4jnsgd1na2vs0mg"},{"bike_id":"9366b54d-3d5e-4e2f-a20d-49d0ce57f0ef","system_id":"levelo_inurba_marseille","lat":43.31085,"lon":5.42437,"is_reserved":false,"is_disabled":false,"rental_uris":{"android":"levelo://app?vid=9366b54d-3d5e-4e2f-a20d-49d0ce57f0ef","ios":"levelo://app?vid=9366b54d-3d5e-4e2f-a20d-49d0ce57f0ef"},"vehicle_type_id":"4","last_reported":1765966414,"current_range_meters":3200,"station_id":"ce4bhp92rcd13ifvqhag","pricing_plan_id":"cebpf4jnsgd1na2vs0mg"},{"bike_id":"70c1675e-c886-4d5e-b814-c9d52a2cb113","system_id":"levelo_inurba_marseille","lat":43.32483,"lon":5.38305,"is_reserved":false,"is_disabled":false,"rental_uris":{"android":"levelo://app?vid=70c1675e-c886-4d5e-b814-c9d52a2cb113","ios":"levelo://app?vid=70c1675e-c886-4d5e-b814-c9d52a2cb113"},"vehicle_type_id":"4","last_reported":1765966414,"current_range_meters":3200,"station_id":"st_d4asgbiv49dc73anf9m0","pricing_plan_id":"cebpf4jnsgd1na2vs0mg"},{"bike_id":"df842758-540d-4c8d-ba9b-fdd90d8cbe8d","system_id":"levelo_inurba_marseille","lat":43.2991,"lon":5.38153,"is_reserved":false,"is_disabled":false,"rental_uris":{"android":"levelo://app?vid=df842758-540d-4c8d-ba9b-fdd90d8cbe8d","ios":"levelo://app?vid=df842758-540d-4c8d-ba9b-fdd90d8cbe8d"},"vehicle_type_id":"4","last_reported":1765966414,"current_range_meters":3200,"station_id":"ce4bgj12rcd13ifvqbc0","pricing_plan_id":"cebpf4jnsgd1na2vs0mg"},{"bike_id":"0d04367a-2738-41fb-8bc5-77b89893b507","system_id":"levelo_inurba_marseille","lat":43.2119,"lon":5.35073,"is_reserved":false,"is_disabled":false,"rental_uris":{"android":"levelo://app?vid=0d04367a-2738-41fb-8bc5-77b89893b507","ios":"levelo://app?vid=0d04367a-2738-41fb-8bc5-77b89893b507"},"vehicle_type_id":"4","last_reported":1765966414,"current_range_meters":3200,"station_id":"","pricing_plan_id":"cebpf4jnsgd1na2vs0mg"},{"bike_id":"d3eb1a28-60f7-4eab-a9be-915a03b25c99","system_id":"levelo_inurba_marseille","lat":43.337444,"lon":5.374475,"is_reserved":false,"is_disabled":false,"rental_uris":{"android":"levelo://app?vid=d3eb1a28-60f7-4eab-a9be-915a03b25c99","ios":"levelo://app?vid=d3eb1a28-60f7-4eab-a9be-915a03b25c99"},"vehicle_type_id":"4","last_reported":1765966414,"current_range_meters":3200,"station_id":"","pricing_plan_id":"cebpf4jnsgd1na2vs0mg"},{"bike_id":"58fe3c41-c31c-418f-8b03-ed2ed0f7c8fd","system_id":"levelo_inurba_marseille","lat":43.30117,"lon":5.36524,"is_reserved":false,"is_disabled":false,"rental_uris":{"android":"levelo://app?vid=58fe3c41-c31c-418f-8b03-ed2ed0f7c8fd","ios":"levelo://app?vid=58fe3c41-c31c-418f-8b03-ed2ed0f7c8fd"},"vehicle_type_id":"4","last_reported":1765966414,"current_range_meters":3600,"station_id":"","pricing_plan_id":"cebpf4jnsgd1na2vs0mg"},{"bike_id":"45a564a9-4ba8-424c-8236-35cac9a77a99","system_id":"levelo_inurba_marseille","lat":43.287066,"lon":5.373676,"is_reserved":false,"is_disabled":false,"rental_uris":{"android":"levelo://app?vid=45a564a9-4ba8-424c-8236-35cac9a77a99","ios":"levelo://app?vid=45a564a9-4ba8-424c-8236-35cac9a77a99"},"vehicle_type_id":"4","last_reported":1765966414,"current_range_meters":3600,"station_id":"ce4bh3p2rcd13ifvqdq0","pricing_plan_id":"cebpf4jnsgd1na2vs0mg"},{"bike_id":"85299ce6-7d31-4779-8540-b094a53082ba","system_id":"levelo_inurba_marseille","lat":43.24809,"lon":5.37466,"is_reserved":false,"is_disabled":false,"rental_uris":{"android":"levelo://app?vid=85299ce6-7d31-4779-8540-b094a53082ba","ios":"levelo://app?vid=85299ce6-7d31-4779-8540-b094a53082ba"},"vehicle_type_id":"4","last_reported":1765966414,"current_range_meters":4000,"station_id":"ce4bhgh2rcd13ifvqfb0","pricing_plan_id":"cebpf4jnsgd1na2vs0mg"},{"bike_id":"0c2c5140-af06-486a-a322-d624aecbcc21","system_id":"levelo_inurba_marseille","lat":43.24545,"lon":5.40004,"is_reserved":false,"is_disabled":false,"rental_uris":{"android":"levelo://app?vid=0c2c5140-af06-486a-a322-d624aecbcc21","ios":"levelo://app?vid=0c2c5140-af06-486a-a322-d624aecbcc21"},"vehicle_type_id":"4","last_reported":1765966414,"current_range_meters":4000,"station_id":"","pricing_plan_id":"cebpf4jnsgd1na2vs0mg"},{"bike_id":"3464140a-fa4d-4baa-a277-f0b733016dfb","system_id":"levelo_inurba_marseille","lat":43.316035,"lon":5.379218,"is_reserved":false,"is_disabled":false,"rental_uris":{"android":"levelo://app?vid=3464140a-fa4d-4baa-a277-f0b733016dfb","ios":"levelo://app?vid=3464140a-fa4d-4baa-a277-f0b733016dfb"},"vehicle_type_id":"4","last_reported":1765966414,"current_range_meters":4000,"station_id":"","pricing_plan_id":"cebpf4jnsgd1na2vs0mg"},{"bike_id":"2da5bfd2-5c84-458b-9c4a-75ce61f02198","system_id":"levelo_inurba_marseille","lat":43.29263,"lon":5.38438,"is_reserved":false,"is_disabled":false,"rental_uris":{"android":"levelo://app?vid=2da5bfd2-5c84-458b-9c4a-75ce61f02198","ios":"levelo://app?vid=2da5bfd2-5c84-458b-9c4a-75ce61f02198"},"vehicle_type_id":"4","last_reported":1765966414,"current_range_meters":4000,"station_id":"ce4bh692rcd13ifvqea0","pricing_plan_id":"cebpf4jnsgd1na2vs0mg"},{"bike_id":"0791b656-466b-4b40-bc91-95f22aa4d575","system_id":"levelo_inurba_marseille","lat":43.31537,"lon":5.38037,"is_reserved":false,"is_disabled":false,"rental_uris":{"android":"levelo://app?vid=0791b656-466b-4b40-bc91-95f22aa4d575","ios":"levelo://app?vid=0791b656-466b-4b40-bc91-95f22aa4d575"},"vehicle_type_id":"4","last_reported":1765966414,"current_range_meters":4400,"station_id":"ce4bhsp2rcd13ifvqi50","pricing_plan_id":"cebpf4jnsgd1na2vs0mg"},{"bike_id":"f6852b2d-962f-40cb-8410-8401c8ba1c30","system_id":"levelo_inurba_marseille","lat":43.273837,"lon":5.36238,"is_reserved":false,"is_disabled":false,"rental_uris":{"android":"levelo://app?vid=f6852b2d-962f-40cb-8410-8401c8ba1c30","ios":"levelo://app?vid=f6852b2d-962f-40cb-8410-8401c8ba1c30"},"vehicle_type_id":"4","last_reported":1765966414,"current_range_meters":4400,"station_id":"ce4bhbh2rcd13ifvqeo0","pricing_plan_id":"cebpf4jnsgd1na2vs0mg"},{"bike_id":"d6808b6f-5df2-4878-a1e8-910e03305a8b","system_id":"levelo_inurba_marseille","lat":43.29089,"lon":5.38121,"is_reserved":false,"is_disabled":false,"rental_uris":{"android":"levelo://app?vid=d6808b6f-5df2-4878-a1e8-910e03305a8b","ios":"levelo://app?vid=d6808b6f-5df2-4878-a1e8-910e03305a8b"},"vehicle_type_id":"4","last_reported":1765966414,"current_range_meters":4800,"station_id":"","pricing_plan_id":"cebpf4jnsgd1na2vs0mg"},{"bike_id":"5d150475-3238-4cd2-9535-55042535b07d","system_id":"levelo_inurba_marseille","lat":43.28155,"lon":5.42639,"is_reserved":false,"is_disabled":false,"rental_uris":{"android":"levelo://app?vid=5d150475-3238-4cd2-9535-55042535b07d","ios":"levelo://app?vid=5d150475-3238-4cd2-9535-55042535b07d"},"vehicle_type_id":"4","last_reported":1765966414,"current_range_meters":4800,"station_id":"ce4bhnh2rcd13ifvqgug","pricing_plan_id":"cebpf4jnsgd1na2vs0mg"},{"bike_id":"3ca60de7-a1f7-4000-9cbe-4bf96a1cfcde","system_id":"levelo_inurba_marseille","lat":43.26216,"lon":5.37451,"is_reserved":false,"is_disabled":false,"rental_uris":{"android":"levelo://app?vid=3ca60de7-a1f7-4000-9cbe-4bf96a1cfcde","ios":"levelo://app?vid=3ca60de7-a1f7-4000-9cbe-4bf96a1cfcde"},"vehicle_type_id":"4","last_reported":1765966414,"current_range_meters":4800,"station_id":"ce4bhgp2rcd13ifvqfc0","pricing_plan_id":"cebpf4jnsgd1na2vs0mg"},{"bike_id":"3a1ad7ed-d1d6-49bd-a6a0-f1fb83371d17","system_id":"levelo_inurba_marseille","lat":43.31524,"lon":5.3804,"is_reserved":false,"is_disabled":false,"rental_uris":{"android":"levelo://app?vid=3a1ad7ed-d1d6-49bd-a6a0-f1fb83371d17","ios":"levelo://app?vid=3a1ad7ed-d1d6-49bd-a6a0-f1fb83371d17"},"vehicle_type_id":"4","last_reported":1765966414,"current_range_meters":5600,"station_id":"ce4bhsp2rcd13ifvqi50","pricing_plan_id":"cebpf4jnsgd1na2vs0mg"},{"bike_id":"3e0f4bae-09ea-42f4-b644-a123cd496943","system_id":"levelo_inurba_marseille","lat":43.295793,"lon":5.375027,"is_reserved":false,"is_disabled":false,"rental_uris":{"android":"levelo://app?vid=3e0f4bae-09ea-42f4-b644-a123cd496943","ios":"levelo://app?vid=3e0f4bae-09ea-42f4-b644-a123cd496943"},"vehicle_type_id":"4","last_reported":1765966414,"current_range_meters":5600,"station_id":"ce4bgh92rcd13ifvqb50","pricing_plan_id":"cebpf4jnsgd1na2vs0mg"},{"bike_id":"dc9374ea-1509-45c4-bbb3-1920c3fe9025","system_id":"levelo_inurba_marseille","lat":43.287222,"lon":5.360881,"is_reserved":false,"is_disabled":false,"rental_uris":{"android":"levelo://app?vid=dc9374ea-1509-45c4-bbb3-1920c3fe9025","ios":"levelo://app?vid=dc9374ea-1509-45c4-bbb3-1920c3fe9025"},"vehicle_type_id":"4","last_reported":1765966414,"current_range_meters":5600,"station_id":"cki0cbj6b192h4jlfktg","pricing_plan_id":"cebpf4jnsgd1na2vs0mg"},{"bike_id":"c2acd36a-0c71-41d9-89d7-35ccb2abf7a1","system_id":"levelo_inurba_marseille","lat":43.30528,"lon":5.38423,"is_reserved":false,"is_disabled":true,"rental_uris":{"android":"levelo://app?vid=c2acd36a-0c71-41d9-89d7-35ccb2abf7a1","ios":"levelo://app?vid=c2acd36a-0c71-41d9-89d7-35ccb2abf7a1"},"vehicle_type_id":"4","last_reported":1765966414,"current_range_meters":6000,"station_id":"ce4bgg92rcd13ifvqb30","pricing_plan_id":"cebpf4jnsgd1na2vs0mg"},{"bike_id":"e80bbef2-7750-4acf-9aa4-0308d4323fdf","system_id":"levelo_inurba_marseille","lat":43.309639,"lon":5.390232,"is_reserved":false,"is_disabled":false,"rental_uris":{"android":"levelo://app?vid=e80bbef2-7750-4acf-9aa4-0308d4323fdf","ios":"levelo://app?vid=e80bbef2-7750-4acf-9aa4-0308d4323fdf"},"vehicle_type_id":"4","last_reported":1765966414,"current_range_meters":6000,"station_id":"ce4bgup2rcd13ifvqco0","pricing_plan_id":"cebpf4jnsgd1na2vs0mg"},{"bike_id":"5157eb73-540a-40e7-89fb-109ab114fde6","system_id":"levelo_inurba_marseille","lat":43.28859,"lon":5.42507,"is_reserved":false,"is_disabled":false,"rental_uris":{"android":"levelo://app?vid=5157eb73-540a-40e7-89fb-109ab114fde6","ios":"levelo://app?vid=5157eb73-540a-40e7-89fb-109ab114fde6"},"vehicle_type_id":"4","last_reported":1765966414,"current_range_meters":6000,"station_id":"st_d3b462108ojc7389ooeg","pricing_plan_id":"cebpf4jnsgd1na2vs0mg"},{"bike_id":"11c677ea-03a1-4efc-9779-02fe1c2263ad","system_id":"levelo_inurba_marseille","lat":43.29007,"lon":5.3561,"is_reserved":false,"is_disabled":false,"rental_uris":{"android":"levelo://app?vid=11c677ea-03a1-4efc-9779-02fe1c2263ad","ios":"levelo://app?vid=11c677ea-03a1-4efc-9779-02fe1c2263ad"},"vehicle_type_id":"4","last_reported":1765966414,"current_range_meters":6400,"station_id":"ce4bhb92rcd13ifvqen0","pricing_plan_id":"cebpf4jnsgd1na2vs0mg"},{"bike_id":"e95826ef-97ce-444b-990e-16b680e5ce63","system_id":"levelo_inurba_marseille","lat":43.23068,"lon":5.35491,"is_reserved":false,"is_disabled":false,"rental_uris":{"android":"levelo://app?vid=e95826ef-97ce-444b-990e-16b680e5ce63","ios":"levelo://app?vid=e95826ef-97ce-444b-990e-16b680e5ce63"},"vehicle_type_id":"4","last_reported":1765966414,"current_range_meters":6400,"station_id":"cpo3342slgdg3j2ifvpg","pricing_plan_id":"cebpf4jnsgd1na2vs0mg"},{"bike_id":"59ea7474-933c-40d2-8aff-e234e2bcb56b","system_id":"levelo_inurba_marseille","lat":43.29173,"lon":5.3716,"is_reserved":false,"is_disabled":false,"rental_uris":{"android":"levelo://app?vid=59ea7474-933c-40d2-8aff-e234e2bcb56b","ios":"levelo://app?vid=59ea7474-933c-40d2-8aff-e234e2bcb56b"},"vehicle_type_id":"4","last_reported":1765966414,"current_range_meters":6400,"station_id":"ce4bha92rcd13ifvqeh0","pricing_plan_id":"cebpf4jnsgd1na2vs0mg"},{"bike_id":"57584f6d-1fc1-4cfc-bf71-59dd6edb5787","system_id":"levelo_inurba_marseille","lat":43.291991,"lon":5.357935,"is_reserved":false,"is_disabled":false,"rental_uris":{"android":"levelo://app?vid=57584f6d-1fc1-4cfc-bf71-59dd6edb5787","ios":"levelo://app?vid=57584f6d-1fc1-4cfc-bf71-59dd6edb5787"},"vehicle_type_id":"4","last_reported":1765966414,"current_range_meters":6400,"station_id":"ce4bhb12rcd13ifvqel0","pricing_plan_id":"cebpf4jnsgd1na2vs0mg"},{"bike_id":"2cd9312c-4ea4-464a-b003-d9661cb2263e","system_id":"levelo_inurba_marseille","lat":43.309461,"lon":5.390359,"is_reserved":false,"is_disabled":false,"rental_uris":{"android":"levelo://app?vid=2cd9312c-4ea4-464a-b003-d9661cb2263e","ios":"levelo://app?vid=2cd9312c-4ea4-464a-b003-d9661cb2263e"},"vehicle_type_id":"4","last_reported":1765966414,"current_range_meters":6400,"station_id":"ce4bhch2rcd13ifvqeug","pricing_plan_id":"cebpf4jnsgd1na2vs0mg"},{"bike_id":"6b49bcc6-8706-4836-bb39-d35f3b3d6f05","system_id":"levelo_inurba_marseille","lat":43.28539,"lon":5.44104,"is_reserved":false,"is_disabled":false,"rental_uris":{"android":"levelo://app?vid=6b49bcc6-8706-4836-bb39-d35f3b3d6f05","ios":"levelo://app?vid=6b49bcc6-8706-4836-bb39-d35f3b3d6f05"},"vehicle_type_id":"4","last_reported":1765966414,"current_range_meters":6400,"station_id":"st_d3j3df2ikq2c7380ej80","pricing_plan_id":"cebpf4jnsgd1na2vs0mg"},{"bike_id":"bf3cea95-6a43-4667-95cc-c1ea5265ca0c","system_id":"levelo_inurba_marseille","lat":43.28375,"lon":5.3864,"is_reserved":false,"is_disabled":false,"rental_uris":{"android":"levelo://app?vid=bf3cea95-6a43-4667-95cc-c1ea5265ca0c","ios":"levelo://app?vid=bf3cea95-6a43-4667-95cc-c1ea5265ca0c"},"vehicle_type_id":"4","last_reported":1765966414,"current_range_meters":6400,"station_id":"ce4bh492rcd13ifvqdvg","pricing_plan_id":"cebpf4jnsgd1na2vs0mg"},{"bike_id":"472257be-9e18-4b0d-babd-e26ec7d69992","system_id":"levelo_inurba_marseille","lat":43.286171,"lon":5.351092,"is_reserved":false,"is_disabled":false,"rental_uris":{"android":"levelo://app?vid=472257be-9e18-4b0d-babd-e26ec7d69992","ios":"levelo://app?vid=472257be-9e18-4b0d-babd-e26ec7d69992"},"vehicle_type_id":"4","last_reported":1765966414,"current_range_meters":6400,"station_id":"ce4bhch2rcd13ifvqeug","pricing_plan_id":"cebpf4jnsgd1na2vs0mg"},{"bike_id":"f78d83b2-e46c-424a-b560-1f11ed327790","system_id":"levelo_inurba_marseille","lat":43.2736,"lon":5.36265,"is_reserved":false,"is_disabled":false,"rental_uris":{"android":"levelo://app?vid=f78d83b2-e46c-424a-b560-1f11ed327790","ios":"levelo://app?vid=f78d83b2-e46c-424a-b560-1f11ed327790"},"vehicle_type_id":"4","last_reported":1765966414,"current_range_meters":6800,"station_id":"ce4bhbh2rcd13ifvqeo0","pricing_plan_id":"cebpf4jnsgd1na2vs0mg"},{"bike_id":"ec38b80b-f7f6-4c54-ad11-a6b4bb427e4b","system_id":"levelo_inurba_marseille","lat":43.26944,"lon":5.38643,"is_reserved":false,"is_disabled":false,"rental_uris":{"android":"levelo://app?vid=ec38b80b-f7f6-4c54-ad11-a6b4bb427e4b","ios":"levelo://app?vid=ec38b80b-f7f6-4c54-ad11-a6b4bb427e4b"},"vehicle_type_id":"4","last_reported":1765966414,"current_range_meters":6800,"station_id":"ce4bhh92rcd13ifvqfh0","pricing_plan_id":"cebpf4jnsgd1na2vs0mg"},{"bike_id":"343fe7d0-3d78-4db3-9459-a24be8980043","system_id":"levelo_inurba_marseille","lat":43.29423,"lon":5.3839,"is_reserved":false,"is_disabled":false,"rental_uris":{"android":"levelo://app?vid=343fe7d0-3d78-4db3-9459-a24be8980043","ios":"levelo://app?vid=343fe7d0-3d78-4db3-9459-a24be8980043"},"vehicle_type_id":"4","last_reported":1765966414,"current_range_meters":6800,"station_id":"","pricing_plan_id":"cebpf4jnsgd1na2vs0mg"},{"bike_id":"eea34bab-4717-491f-b5bc-9f7f86ab695e","system_id":"levelo_inurba_marseille","lat":43.295772,"lon":5.375178,"is_reserved":false,"is_disabled":false,"rental_uris":{"android":"levelo://app?vid=eea34bab-4717-491f-b5bc-9f7f86ab695e","ios":"levelo://app?vid=eea34bab-4717-491f-b5bc-9f7f86ab695e"},"vehicle_type_id":"4","last_reported":1765966414,"current_range_meters":6800,"station_id":"ce4bgh92rcd13ifvqb50","pricing_plan_id":"cebpf4jnsgd1na2vs0mg"},{"bike_id":"283c734a-9c39-4452-9b72-a1d1c4eb8c50","system_id":"levelo_inurba_marseille","lat":43.302099,"lon":5.394564,"is_reserved":false,"is_disabled":true,"rental_uris":{"android":"levelo://app?vid=283c734a-9c39-4452-9b72-a1d1c4eb8c50","ios":"levelo://app?vid=283c734a-9c39-4452-9b72-a1d1c4eb8c50"},"vehicle_type_id":"4","last_reported":1765966414,"current_range_meters":7200,"station_id":"","pricing_plan_id":"cebpf4jnsgd1na2vs0mg"},{"bike_id":"168944bc-143d-4235-a87c-58523f4f4dd7","system_id":"levelo_inurba_marseille","lat":43.29631,"lon":5.38083,"is_reserved":false,"is_disabled":true,"rental_uris":{"android":"levelo://app?vid=168944bc-143d-4235-a87c-58523f4f4dd7","ios":"levelo://app?vid=168944bc-143d-4235-a87c-58523f4f4dd7"},"vehicle_type_id":"4","last_reported":1765966414,"current_range_meters":7200,"station_id":"ce4bgl12rcd13ifvqbo0","pricing_plan_id":"cebpf4jnsgd1na2vs0mg"},{"bike_id":"b5de3dc8-191d-41f1-a993-dd1eca7db6fc","system_id":"levelo_inurba_marseille","lat":43.31044,"lon":5.39348,"is_reserved":false,"is_disabled":false,"rental_uris":{"android":"levelo://app?vid=b5de3dc8-191d-41f1-a993-dd1eca7db6fc","ios":"levelo://app?vid=b5de3dc8-191d-41f1-a993-dd1eca7db6fc"},"vehicle_type_id":"4","last_reported":1765966414,"current_range_meters":7200,"station_id":"","pricing_plan_id":"cebpf4jnsgd1na2vs0mg"},{"bike_id":"43642bae-3ea3-40d5-b685-75639072eb17","system_id":"levelo_inurba_marseille","lat":43.30733,"lon":5.42431,"is_reserved":false,"is_disabled":false,"rental_uris":{"android":"levelo://app?vid=43642bae-3ea3-40d5-b685-75639072eb17","ios":"levelo://app?vid=43642bae-3ea3-40d5-b685-75639072eb17"},"vehicle_type_id":"4","last_reported":1765966414,"current_range_meters":7200,"station_id":"st_cvj6ca6bvosntc0bfgr0","pricing_plan_id":"cebpf4jnsgd1na2vs0mg"},{"bike_id":"b295f149-6f30-42d9-9a04-10ccdf776d03","system_id":"levelo_inurba_marseille","lat":43.29731,"lon":5.37686,"is_reserved":false,"is_disabled":false,"rental_uris":{"android":"levelo://app?vid=b295f149-6f30-42d9-9a04-10ccdf776d03","ios":"levelo://app?vid=b295f149-6f30-42d9-9a04-10ccdf776d03"},"vehicle_type_id":"4","last_reported":1765966414,"current_range_meters":7200,"station_id":"ce4bgkh2rcd13ifvqbl0","pricing_plan_id":"cebpf4jnsgd1na2vs0mg"},{"bike_id":"c9e6665f-b026-43de-af69-64ad30f60e50","system_id":"levelo_inurba_marseille","lat":43.24665,"lon":5.38155,"is_reserved":false,"is_disabled":false,"rental_uris":{"android":"levelo://app?vid=c9e6665f-b026-43de-af69-64ad30f60e50","ios":"levelo://app?vid=c9e6665f-b026-43de-af69-64ad30f60e50"},"vehicle_type_id":"4","last_reported":1765966414,"current_range_meters":7200,"station_id":"ce4bhih2rcd13ifvqfr0","pricing_plan_id":"cebpf4jnsgd1na2vs0mg"},{"bike_id":"67be8c3b-4400-403c-b56e-31f2a51931e7","system_id":"levelo_inurba_marseille","lat":43.2319,"lon":5.35546,"is_reserved":false,"is_disabled":true,"rental_uris":{"android":"levelo://app?vid=67be8c3b-4400-403c-b56e-31f2a51931e7","ios":"levelo://app?vid=67be8c3b-4400-403c-b56e-31f2a51931e7"},"vehicle_type_id":"4","last_reported":1765966414,"current_range_meters":8000,"station_id":"ce4bhu92rcd13ifvqi70","pricing_plan_id":"cebpf4jnsgd1na2vs0mg"},{"bike_id":"62319f52-bb5a-47c6-bf63-d8b31ecb59b3","system_id":"levelo_inurba_marseille","lat":43.26464,"lon":5.37359,"is_reserved":false,"is_disabled":false,"rental_uris":{"android":"levelo://app?vid=62319f52-bb5a-47c6-bf63-d8b31ecb59b3","ios":"levelo://app?vid=62319f52-bb5a-47c6-bf63-d8b31ecb59b3"},"vehicle_type_id":"4","last_reported":1765966414,"current_range_meters":8000,"station_id":"","pricing_plan_id":"cebpf4jnsgd1na2vs0mg"},{"bike_id":"860586bd-84d4-43ba-af58-7f526b0205ca","system_id":"levelo_inurba_marseille","lat":43.3142,"lon":5.37438,"is_reserved":false,"is_disabled":false,"rental_uris":{"android":"levelo://app?vid=860586bd-84d4-43ba-af58-7f526b0205ca","ios":"levelo://app?vid=860586bd-84d4-43ba-af58-7f526b0205ca"},"vehicle_type_id":"4","last_reported":1765966414,"current_range_meters":8000,"station_id":"","pricing_plan_id":"cebpf4jnsgd1na2vs0mg"},{"bike_id":"f9ba0bc8-1678-4550-8ab9-06ec3e215e8d","system_id":"levelo_inurba_marseille","lat":43.337444,"lon":5.374475,"is_reserved":false,"is_disabled":false,"rental_uris":{"android":"levelo://app?vid=f9ba0bc8-1678-4550-8ab9-06ec3e215e8d","ios":"levelo://app?vid=f9ba0bc8-1678-4550-8ab9-06ec3e215e8d"},"vehicle_type_id":"4","last_reported":1765966414,"current_range_meters":8000,"station_id":"","pricing_plan_id":"cebpf4jnsgd1na2vs0mg"},{"bike_id":"77e0d0eb-6af8-474d-83a5-2b5e4ff0d935","system_id":"levelo_inurba_marseille","lat":43.24619,"lon":5.43153,"is_reserved":false,"is_disabled":true,"rental_uris":{"android":"levelo://app?vid=77e0d0eb-6af8-474d-83a5-2b5e4ff0d935","ios":"levelo://app?vid=77e0d0eb-6af8-474d-83a5-2b5e4ff0d935"},"vehicle_type_id":"4","last_reported":1765966414,"current_range_meters":8000,"station_id":"st_d2m6c4gdas8pm72e190g","pricing_plan_id":"cebpf4jnsgd1na2vs0mg"},{"bike_id":"a5917622-232f-4da8-8438-468c637cc745","system_id":"levelo_inurba_marseille","lat":43.3042,"lon":5.41275,"is_reserved":false,"is_disabled":false,"rental_uris":{"android":"levelo://app?vid=a5917622-232f-4da8-8438-468c637cc745","ios":"levelo://app?vid=a5917622-232f-4da8-8438-468c637cc745"},"vehicle_type_id":"4","last_reported":1765966414,"current_range_meters":8000,"station_id":"ce4bhop2rcd13ifvqh8g","pricing_plan_id":"cebpf4jnsgd1na2vs0mg"},{"bike_id":"5f9115dc-47d2-4bdb-be36-56ac4d2294b3","system_id":"levelo_inurba_marseille","lat":43.307449,"lon":5.424355,"is_reserved":false,"is_disabled":false,"rental_uris":{"android":"levelo://app?vid=5f9115dc-47d2-4bdb-be36-56ac4d2294b3","ios":"levelo://app?vid=5f9115dc-47d2-4bdb-be36-56ac4d2294b3"},"vehicle_type_id":"4","last_reported":1765966414,"current_range_meters":8000,"station_id":"st_cvj6ca6bvosntc0bfgr0","pricing_plan_id":"cebpf4jnsgd1na2vs0mg"},{"bike_id":"c0169118-793d-4f58-83a7-1547c18869c0","system_id":"levelo_inurba_marseille","lat":43.2733,"lon":5.39092,"is_reserved":false,"is_disabled":true,"rental_uris":{"android":"levelo://app?vid=c0169118-793d-4f58-83a7-1547c18869c0","ios":"levelo://app?vid=c0169118-793d-4f58-83a7-1547c18869c0"},"vehicle_type_id":"4","last_reported":1765966414,"current_range_meters":8000,"station_id":"ce4bhgp2rcd13ifvqfe0","pricing_plan_id":"cebpf4jnsgd1na2vs0mg"},{"bike_id":"b85e7c1d-8d2c-4b07-83c8-c5272ce33ca0","system_id":"levelo_inurba_marseille","lat":43.27815,"lon":5.40735,"is_reserved":false,"is_disabled":true,"rental_uris":{"android":"levelo://app?vid=b85e7c1d-8d2c-4b07-83c8-c5272ce33ca0","ios":"levelo://app?vid=b85e7c1d-8d2c-4b07-83c8-c5272ce33ca0"},"vehicle_type_id":"4","last_reported":1765966414,"current_range_meters":8000,"station_id":"ce4bhnh2rcd13ifvqgtg","pricing_plan_id":"cebpf4jnsgd1na2vs0mg"},{"bike_id":"661bcc35-b2a5-486f-a0f0-77f5b81a0d0d","system_id":"levelo_inurba_marseille","lat":43.30372,"lon":5.424954,"is_reserved":false,"is_disabled":false,"rental_uris":{"android":"levelo://app?vid=661bcc35-b2a5-486f-a0f0-77f5b81a0d0d","ios":"levelo://app?vid=661bcc35-b2a5-486f-a0f0-77f5b81a0d0d"},"vehicle_type_id":"4","last_reported":1765966414,"current_range_meters":8000,"station_id":"ce4bhoh2rcd13ifvqh6g","pricing_plan_id":"cebpf4jnsgd1na2vs0mg"},{"bike_id":"90f357fd-4c0f-4c8b-96c8-9cf3e3651b28","system_id":"levelo_inurba_marseille","lat":43.28272,"lon":5.35047,"is_reserved":false,"is_disabled":false,"rental_uris":{"android":"levelo://app?vid=90f357fd-4c0f-4c8b-96c8-9cf3e3651b28","ios":"levelo://app?vid=90f357fd-4c0f-4c8b-96c8-9cf3e3651b28"},"vehicle_type_id":"4","last_reported":1765966414,"current_range_meters":8400,"station_id":"ce4bhbp2rcd13ifvqerg","pricing_plan_id":"cebpf4jnsgd1na2vs0mg"},{"bike_id":"d0c81cd9-bcb1-46de-85cc-999523e8d872","system_id":"levelo_inurba_marseille","lat":43.30436,"lon":5.37094,"is_reserved":false,"is_disabled":false,"rental_uris":{"android":"levelo://app?vid=d0c81cd9-bcb1-46de-85cc-999523e8d872","ios":"levelo://app?vid=d0c81cd9-bcb1-46de-85cc-999523e8d872"},"vehicle_type_id":"4","last_reported":1765966414,"current_range_meters":8400,"station_id":"","pricing_plan_id":"cebpf4jnsgd1na2vs0mg"},{"bike_id":"572fd032-f62a-46e0-ab46-89098c0755dc","system_id":"levelo_inurba_marseille","lat":43.29782,"lon":5.38123,"is_reserved":false,"is_disabled":true,"rental_uris":{"android":"levelo://app?vid=572fd032-f62a-46e0-ab46-89098c0755dc","ios":"levelo://app?vid=572fd032-f62a-46e0-ab46-89098c0755dc"},"vehicle_type_id":"4","last_reported":1765966414,"current_range_meters":8400,"station_id":"ce4bgip2rcd13ifvqbb0","pricing_plan_id":"cebpf4jnsgd1na2vs0mg"},{"bike_id":"929cf538-0f17-44b1-998a-c48280fa525c","system_id":"levelo_inurba_marseille","lat":43.27489,"lon":5.4244,"is_reserved":false,"is_disabled":true,"rental_uris":{"android":"levelo://app?vid=929cf538-0f17-44b1-998a-c48280fa525c","ios":"levelo://app?vid=929cf538-0f17-44b1-998a-c48280fa525c"},"vehicle_type_id":"4","last_reported":1765966414,"current_range_meters":8400,"station_id":"ce4bhn92rcd13ifvqgrg","pricing_plan_id":"cebpf4jnsgd1na2vs0mg"},{"bike_id":"ab4ef196-e8fa-4fab-81e9-8ad3ad4973f7","system_id":"levelo_inurba_marseille","lat":43.2706,"lon":5.42274,"is_reserved":false,"is_disabled":true,"rental_uris":{"android":"levelo://app?vid=ab4ef196-e8fa-4fab-81e9-8ad3ad4973f7","ios":"levelo://app?vid=ab4ef196-e8fa-4fab-81e9-8ad3ad4973f7"},"vehicle_type_id":"4","last_reported":1765966414,"current_range_meters":8400,"station_id":"ce4bhk92rcd13ifvqgb0","pricing_plan_id":"cebpf4jnsgd1na2vs0mg"},{"bike_id":"40153267-46e1-4ff3-b83e-d46301ea8576","system_id":"levelo_inurba_marseille","lat":43.298771,"lon":5.397581,"is_reserved":false,"is_disabled":false,"rental_uris":{"android":"levelo://app?vid=40153267-46e1-4ff3-b83e-d46301ea8576","ios":"levelo://app?vid=40153267-46e1-4ff3-b83e-d46301ea8576"},"vehicle_type_id":"4","last_reported":1765966414,"current_range_meters":8400,"station_id":"","pricing_plan_id":"cebpf4jnsgd1na2vs0mg"},{"bike_id":"0755d58c-6cfa-4bc9-9586-1adf91178797","system_id":"levelo_inurba_marseille","lat":43.24992,"lon":5.38932,"is_reserved":false,"is_disabled":false,"rental_uris":{"android":"levelo://app?vid=0755d58c-6cfa-4bc9-9586-1adf91178797","ios":"levelo://app?vid=0755d58c-6cfa-4bc9-9586-1adf91178797"},"vehicle_type_id":"4","last_reported":1765966414,"current_range_meters":8400,"station_id":"ce4bhgp2rcd13ifvqfd0","pricing_plan_id":"cebpf4jnsgd1na2vs0mg"},{"bike_id":"7b9bd5de-20ee-492a-91cc-3964972326b2","system_id":"levelo_inurba_marseille","lat":43.29485,"lon":5.38288,"is_reserved":false,"is_disabled":false,"rental_uris":{"android":"levelo://app?vid=7b9bd5de-20ee-492a-91cc-3964972326b2","ios":"levelo://app?vid=7b9bd5de-20ee-492a-91cc-3964972326b2"},"vehicle_type_id":"4","last_reported":1765966414,"current_range_meters":8400,"station_id":"","pricing_plan_id":"cebpf4jnsgd1na2vs0mg"},{"bike_id":"b2d0bee3-8553-4527-a831-d1e903999f00","system_id":"levelo_inurba_marseille","lat":43.316791,"lon":5.375612,"is_reserved":false,"is_disabled":false,"rental_uris":{"android":"levelo://app?vid=b2d0bee3-8553-4527-a831-d1e903999f00","ios":"levelo://app?vid=b2d0bee3-8553-4527-a831-d1e903999f00"},"vehicle_type_id":"4","last_reported":1765966414,"current_range_meters":8800,"station_id":"","pricing_plan_id":"cebpf4jnsgd1na2vs0mg"},{"bike_id":"7eaed911-52ff-45ed-b3ff-cd17f37407d1","system_id":"levelo_inurba_marseille","lat":43.28233,"lon":5.349027,"is_reserved":false,"is_disabled":false,"rental_uris":{"android":"levelo://app?vid=7eaed911-52ff-45ed-b3ff-cd17f37407d1","ios":"levelo://app?vid=7eaed911-52ff-45ed-b3ff-cd17f37407d1"},"vehicle_type_id":"4","last_reported":1765966414,"current_range_meters":8800,"station_id":"","pricing_plan_id":"cebpf4jnsgd1na2vs0mg"},{"bike_id":"f5c06492-8ff7-4eb9-a21d-99dd280e7db4","system_id":"levelo_inurba_marseille","lat":43.29807,"lon":5.44063,"is_reserved":false,"is_disabled":false,"rental_uris":{"android":"levelo://app?vid=f5c06492-8ff7-4eb9-a21d-99dd280e7db4","ios":"levelo://app?vid=f5c06492-8ff7-4eb9-a21d-99dd280e7db4"},"vehicle_type_id":"4","last_reported":1765966414,"current_range_meters":8800,"station_id":"st_d3jp68qikq2c7381ktn0","pricing_plan_id":"cebpf4jnsgd1na2vs0mg"},{"bike_id":"4199f6d3-05df-40b7-9c8b-0f25de669f31","system_id":"levelo_inurba_marseille","lat":43.292716,"lon":5.36848,"is_reserved":false,"is_disabled":false,"rental_uris":{"android":"levelo://app?vid=4199f6d3-05df-40b7-9c8b-0f25de669f31","ios":"levelo://app?vid=4199f6d3-05df-40b7-9c8b-0f25de669f31"},"vehicle_type_id":"4","last_reported":1765966414,"current_range_meters":8800,"station_id":"ce4bhbp2rcd13ifvqesg","pricing_plan_id":"cebpf4jnsgd1na2vs0mg"},{"bike_id":"9726ba8a-51eb-4113-948d-f9a8c60d84b2","system_id":"levelo_inurba_marseille","lat":43.30461,"lon":5.37909,"is_reserved":false,"is_disabled":false,"rental_uris":{"android":"levelo://app?vid=9726ba8a-51eb-4113-948d-f9a8c60d84b2","ios":"levelo://app?vid=9726ba8a-51eb-4113-948d-f9a8c60d84b2"},"vehicle_type_id":"4","last_reported":1765966414,"current_range_meters":8800,"station_id":"ce4bgup2rcd13ifvqcn0","pricing_plan_id":"cebpf4jnsgd1na2vs0mg"},{"bike_id":"71eb1a16-88e0-457c-a111-7bb97e3f4d31","system_id":"levelo_inurba_marseille","lat":43.285334,"lon":5.441005,"is_reserved":false,"is_disabled":false,"rental_uris":{"android":"levelo://app?vid=71eb1a16-88e0-457c-a111-7bb97e3f4d31","ios":"levelo://app?vid=71eb1a16-88e0-457c-a111-7bb97e3f4d31"},"vehicle_type_id":"4","last_reported":1765966414,"current_range_meters":9200,"station_id":"st_d3j3df2ikq2c7380ej80","pricing_plan_id":"cebpf4jnsgd1na2vs0mg"},{"bike_id":"43f1e5b6-6733-49f3-afee-4b272067dec8","system_id":"levelo_inurba_marseille","lat":43.24153,"lon":5.3642,"is_reserved":false,"is_disabled":false,"rental_uris":{"android":"levelo://app?vid=43f1e5b6-6733-49f3-afee-4b272067dec8","ios":"levelo://app?vid=43f1e5b6-6733-49f3-afee-4b272067dec8"},"vehicle_type_id":"4","last_reported":1765966414,"current_range_meters":9200,"station_id":"cpo36qri1sfpv3e86is0","pricing_plan_id":"cebpf4jnsgd1na2vs0mg"},{"bike_id":"b72b4b9f-5152-4574-9524-99c2334d5734","system_id":"levelo_inurba_marseille","lat":43.27943,"lon":5.4104,"is_reserved":false,"is_disabled":false,"rental_uris":{"android":"levelo://app?vid=b72b4b9f-5152-4574-9524-99c2334d5734","ios":"levelo://app?vid=b72b4b9f-5152-4574-9524-99c2334d5734"},"vehicle_type_id":"4","last_reported":1765966414,"current_range_meters":9200,"station_id":"ce4bhnp2rcd13ifvqh0g","pricing_plan_id":"cebpf4jnsgd1na2vs0mg"},{"bike_id":"36ca5b20-ca80-4cb2-bcd1-60ad71c55028","system_id":"levelo_inurba_marseille","lat":43.2668,"lon":5.38271,"is_reserved":false,"is_disabled":false,"rental_uris":{"android":"levelo://app?vid=36ca5b20-ca80-4cb2-bcd1-60ad71c55028","ios":"levelo://app?vid=36ca5b20-ca80-4cb2-bcd1-60ad71c55028"},"vehicle_type_id":"4","last_reported":1765966414,"current_range_meters":9200,"station_id":"ce4bhg92rcd13ifvqf90","pricing_plan_id":"cebpf4jnsgd1na2vs0mg"},{"bike_id":"1d0e32e5-819a-49ec-8a57-6456d6553b6f","system_id":"levelo_inurba_marseille","lat":43.24189,"lon":5.3973,"is_reserved":false,"is_disabled":false,"rental_uris":{"android":"levelo://app?vid=1d0e32e5-819a-49ec-8a57-6456d6553b6f","ios":"levelo://app?vid=1d0e32e5-819a-49ec-8a57-6456d6553b6f"},"vehicle_type_id":"4","last_reported":1765966414,"current_range_meters":9200,"station_id":"ce4bhn12rcd13ifvqgpg","pricing_plan_id":"cebpf4jnsgd1na2vs0mg"},{"bike_id":"c207d154-2a6e-4f87-9688-1e794e636894","system_id":"levelo_inurba_marseille","lat":43.229309,"lon":5.353792,"is_reserved":false,"is_disabled":false,"rental_uris":{"android":"levelo://app?vid=c207d154-2a6e-4f87-9688-1e794e636894","ios":"levelo://app?vid=c207d154-2a6e-4f87-9688-1e794e636894"},"vehicle_type_id":"4","last_reported":1765966414,"current_range_meters":9200,"station_id":"cpo3532slgdg3j2ikp40","pricing_plan_id":"cebpf4jnsgd1na2vs0mg"},{"bike_id":"03d77e42-9077-44b7-a023-b18e6472f707","system_id":"levelo_inurba_marseille","lat":43.21194,"lon":5.35079,"is_reserved":false,"is_disabled":false,"rental_uris":{"android":"levelo://app?vid=03d77e42-9077-44b7-a023-b18e6472f707","ios":"levelo://app?vid=03d77e42-9077-44b7-a023-b18e6472f707"},"vehicle_type_id":"4","last_reported":1765966414,"current_range_meters":9200,"station_id":"st_cvj6sg6p6f1abm77japg","pricing_plan_id":"cebpf4jnsgd1na2vs0mg"},{"bike_id":"17941308-d1b2-4923-b83f-cd6b60634fd9","system_id":"levelo_inurba_marseille","lat":43.30466,"lon":5.37913,"is_reserved":false,"is_disabled":false,"rental_uris":{"android":"levelo://app?vid=17941308-d1b2-4923-b83f-cd6b60634fd9","ios":"levelo://app?vid=17941308-d1b2-4923-b83f-cd6b60634fd9"},"vehicle_type_id":"4","last_reported":1765966414,"current_range_meters":9200,"station_id":"ce4bgup2rcd13ifvqcn0","pricing_plan_id":"cebpf4jnsgd1na2vs0mg"},{"bike_id":"6fcebd1a-d429-41f6-b96d-ab07a87d0ccd","system_id":"levelo_inurba_marseille","lat":43.28373,"lon":5.38637,"is_reserved":false,"is_disabled":false,"rental_uris":{"android":"levelo://app?vid=6fcebd1a-d429-41f6-b96d-ab07a87d0ccd","ios":"levelo://app?vid=6fcebd1a-d429-41f6-b96d-ab07a87d0ccd"},"vehicle_type_id":"4","last_reported":1765966414,"current_range_meters":9600,"station_id":"ce4bh492rcd13ifvqdvg","pricing_plan_id":"cebpf4jnsgd1na2vs0mg"},{"bike_id":"0422e653-2ff3-40f9-9073-9729ad474232","system_id":"levelo_inurba_marseille","lat":43.256801,"lon":5.411152,"is_reserved":false,"is_disabled":false,"rental_uris":{"android":"levelo://app?vid=0422e653-2ff3-40f9-9073-9729ad474232","ios":"levelo://app?vid=0422e653-2ff3-40f9-9073-9729ad474232"},"vehicle_type_id":"4","last_reported":1765966414,"current_range_meters":9600,"station_id":"ce4bhkp2rcd13ifvqgd0","pricing_plan_id":"cebpf4jnsgd1na2vs0mg"},{"bike_id":"ad5077e7-adfd-4460-ab6e-dc27206627c9","system_id":"levelo_inurba_marseille","lat":43.237827,"lon":5.366309,"is_reserved":false,"is_disabled":false,"rental_uris":{"android":"levelo://app?vid=ad5077e7-adfd-4460-ab6e-dc27206627c9","ios":"levelo://app?vid=ad5077e7-adfd-4460-ab6e-dc27206627c9"},"vehicle_type_id":"4","last_reported":1765966414,"current_range_meters":9600,"station_id":"st_d3nk18o9ro0c73en2l3g","pricing_plan_id":"cebpf4jnsgd1na2vs0mg"},{"bike_id":"54f8fe26-ad2a-40ba-8e6d-e7235d52405d","system_id":"levelo_inurba_marseille","lat":43.25333,"lon":5.42159,"is_reserved":false,"is_disabled":true,"rental_uris":{"android":"levelo://app?vid=54f8fe26-ad2a-40ba-8e6d-e7235d52405d","ios":"levelo://app?vid=54f8fe26-ad2a-40ba-8e6d-e7235d52405d"},"vehicle_type_id":"4","last_reported":1765966414,"current_range_meters":9600,"station_id":"st_d2m65c5bi1j21697t3ng","pricing_plan_id":"cebpf4jnsgd1na2vs0mg"},{"bike_id":"4d48063d-7043-48ed-9926-f9fbf99121d3","system_id":"levelo_inurba_marseille","lat":43.31176,"lon":5.36879,"is_reserved":false,"is_disabled":false,"rental_uris":{"android":"levelo://app?vid=4d48063d-7043-48ed-9926-f9fbf99121d3","ios":"levelo://app?vid=4d48063d-7043-48ed-9926-f9fbf99121d3"},"vehicle_type_id":"4","last_reported":1765966414,"current_range_meters":9600,"station_id":"","pricing_plan_id":"cebpf4jnsgd1na2vs0mg"},{"bike_id":"79774207-e718-4713-aff9-e4ed58b624c9","system_id":"levelo_inurba_marseille","lat":43.301426,"lon":5.374219,"is_reserved":false,"is_disabled":false,"rental_uris":{"android":"levelo://app?vid=79774207-e718-4713-aff9-e4ed58b624c9","ios":"levelo://app?vid=79774207-e718-4713-aff9-e4ed58b624c9"},"vehicle_type_id":"4","last_reported":1765966414,"current_range_meters":9600,"station_id":"ce4bgs92rcd13ifvqcc0","pricing_plan_id":"cebpf4jnsgd1na2vs0mg"},{"bike_id":"0f954251-5e55-4f5f-9747-36a09fff8a56","system_id":"levelo_inurba_marseille","lat":43.27337,"lon":5.39121,"is_reserved":false,"is_disabled":false,"rental_uris":{"android":"levelo://app?vid=0f954251-5e55-4f5f-9747-36a09fff8a56","ios":"levelo://app?vid=0f954251-5e55-4f5f-9747-36a09fff8a56"},"vehicle_type_id":"4","last_reported":1765966414,"current_range_meters":9600,"station_id":"ce4bhgp2rcd13ifvqfe0","pricing_plan_id":"cebpf4jnsgd1na2vs0mg"},{"bike_id":"fcb7265f-af18-4037-8b23-1066b4cf8b35","system_id":"levelo_inurba_marseille","lat":43.305342,"lon":5.365319,"is_reserved":false,"is_disabled":false,"rental_uris":{"android":"levelo://app?vid=fcb7265f-af18-4037-8b23-1066b4cf8b35","ios":"levelo://app?vid=fcb7265f-af18-4037-8b23-1066b4cf8b35"},"vehicle_type_id":"4","last_reported":1765966414,"current_range_meters":9600,"station_id":"ce4bgs12rcd13ifvqcag","pricing_plan_id":"cebpf4jnsgd1na2vs0mg"},{"bike_id":"6b2073a2-5df3-44d3-9b01-4b8173586f34","system_id":"levelo_inurba_marseille","lat":43.26381,"lon":5.41077,"is_reserved":false,"is_disabled":false,"rental_uris":{"android":"levelo://app?vid=6b2073a2-5df3-44d3-9b01-4b8173586f34","ios":"levelo://app?vid=6b2073a2-5df3-44d3-9b01-4b8173586f34"},"vehicle_type_id":"4","last_reported":1765966414,"current_range_meters":10000,"station_id":"st_d4e5ca6na9uc73bfl5fg","pricing_plan_id":"cebpf4jnsgd1na2vs0mg"},{"bike_id":"bdec3b25-1ef1-4f5b-bb7c-5dba5dbc125f","system_id":"levelo_inurba_marseille","lat":43.3194,"lon":5.372894,"is_reserved":false,"is_disabled":false,"rental_uris":{"android":"levelo://app?vid=bdec3b25-1ef1-4f5b-bb7c-5dba5dbc125f","ios":"levelo://app?vid=bdec3b25-1ef1-4f5b-bb7c-5dba5dbc125f"},"vehicle_type_id":"4","last_reported":1765966414,"current_range_meters":10000,"station_id":"","pricing_plan_id":"cebpf4jnsgd1na2vs0mg"},{"bike_id":"5cde72fc-6b41-4764-bcbf-9fc9dff4199e","system_id":"levelo_inurba_marseille","lat":43.337538,"lon":5.374581,"is_reserved":false,"is_disabled":false,"rental_uris":{"android":"levelo://app?vid=5cde72fc-6b41-4764-bcbf-9fc9dff4199e","ios":"levelo://app?vid=5cde72fc-6b41-4764-bcbf-9fc9dff4199e"},"vehicle_type_id":"4","last_reported":1765966414,"current_range_meters":10000,"station_id":"","pricing_plan_id":"cebpf4jnsgd1na2vs0mg"},{"bike_id":"cb5fb5c4-3bd8-4960-9377-b1a41b4ca74b","system_id":"levelo_inurba_marseille","lat":43.23163,"lon":5.43695,"is_reserved":false,"is_disabled":true,"rental_uris":{"android":"levelo://app?vid=cb5fb5c4-3bd8-4960-9377-b1a41b4ca74b","ios":"levelo://app?vid=cb5fb5c4-3bd8-4960-9377-b1a41b4ca74b"},"vehicle_type_id":"4","last_reported":1765966414,"current_range_meters":10000,"station_id":"ce4bhmp2rcd13ifvqgog","pricing_plan_id":"cebpf4jnsgd1na2vs0mg"},{"bike_id":"9206b8c8-fef3-42ca-a6e9-3e43dc948d3b","system_id":"levelo_inurba_marseille","lat":43.29867,"lon":5.39746,"is_reserved":false,"is_disabled":false,"rental_uris":{"android":"levelo://app?vid=9206b8c8-fef3-42ca-a6e9-3e43dc948d3b","ios":"levelo://app?vid=9206b8c8-fef3-42ca-a6e9-3e43dc948d3b"},"vehicle_type_id":"4","last_reported":1765966414,"current_range_meters":10000,"station_id":"","pricing_plan_id":"cebpf4jnsgd1na2vs0mg"},{"bike_id":"0757412c-3a83-462e-90dd-86301f3f0506","system_id":"levelo_inurba_marseille","lat":43.3015,"lon":5.380674,"is_reserved":false,"is_disabled":false,"rental_uris":{"android":"levelo://app?vid=0757412c-3a83-462e-90dd-86301f3f0506","ios":"levelo://app?vid=0757412c-3a83-462e-90dd-86301f3f0506"},"vehicle_type_id":"4","last_reported":1765966414,"current_range_meters":10000,"station_id":"","pricing_plan_id":"cebpf4jnsgd1na2vs0mg"},{"bike_id":"89f5a425-6334-463b-8fab-6805660c96eb","system_id":"levelo_inurba_marseille","lat":43.31285,"lon":5.36831,"is_reserved":false,"is_disabled":false,"rental_uris":{"android":"levelo://app?vid=89f5a425-6334-463b-8fab-6805660c96eb","ios":"levelo://app?vid=89f5a425-6334-463b-8fab-6805660c96eb"},"vehicle_type_id":"4","last_reported":1765966414,"current_range_meters":10000,"station_id":"","pricing_plan_id":"cebpf4jnsgd1na2vs0mg"},{"bike_id":"15c757bc-97dd-4fce-b499-42d9f825680b","system_id":"levelo_inurba_marseille","lat":43.3014,"lon":5.43119,"is_reserved":false,"is_disabled":false,"rental_uris":{"android":"levelo://app?vid=15c757bc-97dd-4fce-b499-42d9f825680b","ios":"levelo://app?vid=15c757bc-97dd-4fce-b499-42d9f825680b"},"vehicle_type_id":"4","last_reported":1765966414,"current_range_meters":10000,"station_id":"st_d3js3co5814s73ftftug","pricing_plan_id":"cebpf4jnsgd1na2vs0mg"},{"bike_id":"9c940a40-b936-44a2-ad95-f586c1b68cc7","system_id":"levelo_inurba_marseille","lat":43.25932,"lon":5.40918,"is_reserved":false,"is_disabled":true,"rental_uris":{"android":"levelo://app?vid=9c940a40-b936-44a2-ad95-f586c1b68cc7","ios":"levelo://app?vid=9c940a40-b936-44a2-ad95-f586c1b68cc7"},"vehicle_type_id":"4","last_reported":1765966414,"current_range_meters":10000,"station_id":"ce4bhm92rcd13ifvqglg","pricing_plan_id":"cebpf4jnsgd1na2vs0mg"},{"bike_id":"4c0adb54-e09e-48f3-baae-3a20f0af4e72","system_id":"levelo_inurba_marseille","lat":43.33573,"lon":5.41037,"is_reserved":false,"is_disabled":false,"rental_uris":{"android":"levelo://app?vid=4c0adb54-e09e-48f3-baae-3a20f0af4e72","ios":"levelo://app?vid=4c0adb54-e09e-48f3-baae-3a20f0af4e72"},"vehicle_type_id":"4","last_reported":1765966414,"current_range_meters":10000,"station_id":"ce4bhqh2rcd13ifvqhmg","pricing_plan_id":"cebpf4jnsgd1na2vs0mg"},{"bike_id":"c4640e4c-04db-4488-9b72-36331244d61e","system_id":"levelo_inurba_marseille","lat":43.22563,"lon":5.41645,"is_reserved":false,"is_disabled":false,"rental_uris":{"android":"levelo://app?vid=c4640e4c-04db-4488-9b72-36331244d61e","ios":"levelo://app?vid=c4640e4c-04db-4488-9b72-36331244d61e"},"vehicle_type_id":"4","last_reported":1765966414,"current_range_meters":10000,"station_id":"st_d2o4gvlbi1j2169b742g","pricing_plan_id":"cebpf4jnsgd1na2vs0mg"},{"bike_id":"6a26ef33-8204-4bf8-bbbb-122b1a4410f3","system_id":"levelo_inurba_marseille","lat":43.272947,"lon":5.410863,"is_reserved":false,"is_disabled":false,"rental_uris":{"android":"levelo://app?vid=6a26ef33-8204-4bf8-bbbb-122b1a4410f3","ios":"levelo://app?vid=6a26ef33-8204-4bf8-bbbb-122b1a4410f3"},"vehicle_type_id":"4","last_reported":1765966414,"current_range_meters":10800,"station_id":"","pricing_plan_id":"cebpf4jnsgd1na2vs0mg"},{"bike_id":"68a1a689-fa3e-415a-bb72-b9f5b6529d1b","system_id":"levelo_inurba_marseille","lat":43.299344,"lon":5.365563,"is_reserved":false,"is_disabled":false,"rental_uris":{"android":"levelo://app?vid=68a1a689-fa3e-415a-bb72-b9f5b6529d1b","ios":"levelo://app?vid=68a1a689-fa3e-415a-bb72-b9f5b6529d1b"},"vehicle_type_id":"4","last_reported":1765966414,"current_range_meters":10800,"station_id":"","pricing_plan_id":"cebpf4jnsgd1na2vs0mg"},{"bike_id":"36032bfd-9c4b-41e4-9af5-15488cecd6ae","system_id":"levelo_inurba_marseille","lat":43.33025,"lon":5.39038,"is_reserved":false,"is_disabled":false,"rental_uris":{"android":"levelo://app?vid=36032bfd-9c4b-41e4-9af5-15488cecd6ae","ios":"levelo://app?vid=36032bfd-9c4b-41e4-9af5-15488cecd6ae"},"vehicle_type_id":"4","last_reported":1765966414,"current_range_meters":10800,"station_id":"ce4bhr92rcd13ifvqhrg","pricing_plan_id":"cebpf4jnsgd1na2vs0mg"},{"bike_id":"ce4f78ce-191c-4147-9cd8-b18111113313","system_id":"levelo_inurba_marseille","lat":43.31097,"lon":5.36913,"is_reserved":false,"is_disabled":false,"rental_uris":{"android":"levelo://app?vid=ce4f78ce-191c-4147-9cd8-b18111113313","ios":"levelo://app?vid=ce4f78ce-191c-4147-9cd8-b18111113313"},"vehicle_type_id":"4","last_reported":1765966414,"current_range_meters":10800,"station_id":"","pricing_plan_id":"cebpf4jnsgd1na2vs0mg"},{"bike_id":"889b5538-5518-43d3-98c5-0df486ced8da","system_id":"levelo_inurba_marseille","lat":43.29378,"lon":5.37854,"is_reserved":false,"is_disabled":true,"rental_uris":{"android":"levelo://app?vid=889b5538-5518-43d3-98c5-0df486ced8da","ios":"levelo://app?vid=889b5538-5518-43d3-98c5-0df486ced8da"},"vehicle_type_id":"4","last_reported":1765966414,"current_range_meters":11200,"station_id":"ce4bgjh2rcd13ifvqbf0","pricing_plan_id":"cebpf4jnsgd1na2vs0mg"},{"bike_id":"fcddb508-236d-428b-9038-c3ba4ac2e194","system_id":"levelo_inurba_marseille","lat":43.317346,"lon":5.376436,"is_reserved":false,"is_disabled":false,"rental_uris":{"android":"levelo://app?vid=fcddb508-236d-428b-9038-c3ba4ac2e194","ios":"levelo://app?vid=fcddb508-236d-428b-9038-c3ba4ac2e194"},"vehicle_type_id":"4","last_reported":1765966414,"current_range_meters":11200,"station_id":"","pricing_plan_id":"cebpf4jnsgd1na2vs0mg"},{"bike_id":"ffad4bd9-4c33-46ad-ab7a-a535ff4339c5","system_id":"levelo_inurba_marseille","lat":43.276744,"lon":5.388771,"is_reserved":false,"is_disabled":false,"rental_uris":{"android":"levelo://app?vid=ffad4bd9-4c33-46ad-ab7a-a535ff4339c5","ios":"levelo://app?vid=ffad4bd9-4c33-46ad-ab7a-a535ff4339c5"},"vehicle_type_id":"4","last_reported":1765966414,"current_range_meters":11200,"station_id":"ce4bhi12rcd13ifvqfo0","pricing_plan_id":"cebpf4jnsgd1na2vs0mg"},{"bike_id":"83ae917c-7fe4-47bf-a2eb-2d59c3f51a7e","system_id":"levelo_inurba_marseille","lat":43.265576,"lon":5.372854,"is_reserved":false,"is_disabled":false,"rental_uris":{"android":"levelo://app?vid=83ae917c-7fe4-47bf-a2eb-2d59c3f51a7e","ios":"levelo://app?vid=83ae917c-7fe4-47bf-a2eb-2d59c3f51a7e"},"vehicle_type_id":"4","last_reported":1765966414,"current_range_meters":11200,"station_id":"ce4bhih2rcd13ifvqfr0","pricing_plan_id":"cebpf4jnsgd1na2vs0mg"},{"bike_id":"c979a21f-bcaf-4c34-8e28-1104d1a2a623","system_id":"levelo_inurba_marseille","lat":43.32499,"lon":5.38294,"is_reserved":false,"is_disabled":false,"rental_uris":{"android":"levelo://app?vid=c979a21f-bcaf-4c34-8e28-1104d1a2a623","ios":"levelo://app?vid=c979a21f-bcaf-4c34-8e28-1104d1a2a623"},"vehicle_type_id":"4","last_reported":1765966414,"current_range_meters":11200,"station_id":"st_d4asgbiv49dc73anf9m0","pricing_plan_id":"cebpf4jnsgd1na2vs0mg"},{"bike_id":"2a06acbd-ead5-4352-b15b-b94ed28d6d2e","system_id":"levelo_inurba_marseille","lat":43.337646,"lon":5.374436,"is_reserved":false,"is_disabled":false,"rental_uris":{"android":"levelo://app?vid=2a06acbd-ead5-4352-b15b-b94ed28d6d2e","ios":"levelo://app?vid=2a06acbd-ead5-4352-b15b-b94ed28d6d2e"},"vehicle_type_id":"4","last_reported":1765966414,"current_range_meters":11200,"station_id":"","pricing_plan_id":"cebpf4jnsgd1na2vs0mg"},{"bike_id":"8dc0f41d-9492-4bf7-82ec-ac2860636811","system_id":"levelo_inurba_marseille","lat":43.24172,"lon":5.36387,"is_reserved":false,"is_disabled":false,"rental_uris":{"android":"levelo://app?vid=8dc0f41d-9492-4bf7-82ec-ac2860636811","ios":"levelo://app?vid=8dc0f41d-9492-4bf7-82ec-ac2860636811"},"vehicle_type_id":"4","last_reported":1765966414,"current_range_meters":11200,"station_id":"cpo36qri1sfpv3e86is0","pricing_plan_id":"cebpf4jnsgd1na2vs0mg"},{"bike_id":"23c77aab-e0a6-42f5-b7a1-3bd6707fe7ea","system_id":"levelo_inurba_marseille","lat":43.30552,"lon":5.36571,"is_reserved":false,"is_disabled":false,"rental_uris":{"android":"levelo://app?vid=23c77aab-e0a6-42f5-b7a1-3bd6707fe7ea","ios":"levelo://app?vid=23c77aab-e0a6-42f5-b7a1-3bd6707fe7ea"},"vehicle_type_id":"4","last_reported":1765966414,"current_range_meters":11200,"station_id":"ce4bgs12rcd13ifvqcag","pricing_plan_id":"cebpf4jnsgd1na2vs0mg"},{"bike_id":"2767f57f-39fa-4688-8cd5-1803c9b01059","system_id":"levelo_inurba_marseille","lat":43.28154,"lon":5.42637,"is_reserved":false,"is_disabled":false,"rental_uris":{"android":"levelo://app?vid=2767f57f-39fa-4688-8cd5-1803c9b01059","ios":"levelo://app?vid=2767f57f-39fa-4688-8cd5-1803c9b01059"},"vehicle_type_id":"4","last_reported":1765966414,"current_range_meters":11200,"station_id":"ce4bhnh2rcd13ifvqgug","pricing_plan_id":"cebpf4jnsgd1na2vs0mg"},{"bike_id":"5c770126-be0f-4320-9b77-8c906c744b81","system_id":"levelo_inurba_marseille","lat":43.26797,"lon":5.39376,"is_reserved":false,"is_disabled":false,"rental_uris":{"android":"levelo://app?vid=5c770126-be0f-4320-9b77-8c906c744b81","ios":"levelo://app?vid=5c770126-be0f-4320-9b77-8c906c744b81"},"vehicle_type_id":"4","last_reported":1765966414,"current_range_meters":11200,"station_id":"ce4bhh12rcd13ifvqfg0","pricing_plan_id":"cebpf4jnsgd1na2vs0mg"},{"bike_id":"ef1b7ebd-307f-4305-88c9-4f48fc52bf62","system_id":"levelo_inurba_marseille","lat":43.27936,"lon":5.41041,"is_reserved":false,"is_disabled":false,"rental_uris":{"android":"levelo://app?vid=ef1b7ebd-307f-4305-88c9-4f48fc52bf62","ios":"levelo://app?vid=ef1b7ebd-307f-4305-88c9-4f48fc52bf62"},"vehicle_type_id":"4","last_reported":1765966414,"current_range_meters":11200,"station_id":"ce4bhnp2rcd13ifvqh0g","pricing_plan_id":"cebpf4jnsgd1na2vs0mg"},{"bike_id":"a6a2b2eb-9fac-4a15-8bbe-853cd503e49d","system_id":"levelo_inurba_marseille","lat":43.31709,"lon":5.43708,"is_reserved":false,"is_disabled":false,"rental_uris":{"android":"levelo://app?vid=a6a2b2eb-9fac-4a15-8bbe-853cd503e49d","ios":"levelo://app?vid=a6a2b2eb-9fac-4a15-8bbe-853cd503e49d"},"vehicle_type_id":"4","last_reported":1765966414,"current_range_meters":11200,"station_id":"ce4bhp92rcd13ifvqhcg","pricing_plan_id":"cebpf4jnsgd1na2vs0mg"},{"bike_id":"9f2f990e-a17c-4f6c-a4a5-29e0700c6330","system_id":"levelo_inurba_marseille","lat":43.30539,"lon":5.36723,"is_reserved":false,"is_disabled":false,"rental_uris":{"android":"levelo://app?vid=9f2f990e-a17c-4f6c-a4a5-29e0700c6330","ios":"levelo://app?vid=9f2f990e-a17c-4f6c-a4a5-29e0700c6330"},"vehicle_type_id":"4","last_reported":1765966414,"current_range_meters":11600,"station_id":"ce4bgrp2rcd13ifvqc9g","pricing_plan_id":"cebpf4jnsgd1na2vs0mg"},{"bike_id":"3d317ca5-a272-4f93-9659-2870a09a79ff","system_id":"levelo_inurba_marseille","lat":43.301387,"lon":5.374236,"is_reserved":false,"is_disabled":false,"rental_uris":{"android":"levelo://app?vid=3d317ca5-a272-4f93-9659-2870a09a79ff","ios":"levelo://app?vid=3d317ca5-a272-4f93-9659-2870a09a79ff"},"vehicle_type_id":"4","last_reported":1765966414,"current_range_meters":11600,"station_id":"ce4bgs92rcd13ifvqcc0","pricing_plan_id":"cebpf4jnsgd1na2vs0mg"},{"bike_id":"1f825f20-8f06-4ed8-8eb4-0e4a8ab8b02f","system_id":"levelo_inurba_marseille","lat":43.3054,"lon":5.38434,"is_reserved":false,"is_disabled":true,"rental_uris":{"android":"levelo://app?vid=1f825f20-8f06-4ed8-8eb4-0e4a8ab8b02f","ios":"levelo://app?vid=1f825f20-8f06-4ed8-8eb4-0e4a8ab8b02f"},"vehicle_type_id":"4","last_reported":1765966414,"current_range_meters":11600,"station_id":"ce4bgg92rcd13ifvqb30","pricing_plan_id":"cebpf4jnsgd1na2vs0mg"},{"bike_id":"cdb61098-51b6-4e45-be90-432658d7e75b","system_id":"levelo_inurba_marseille","lat":43.28415,"lon":5.37513,"is_reserved":false,"is_disabled":false,"rental_uris":{"android":"levelo://app?vid=cdb61098-51b6-4e45-be90-432658d7e75b","ios":"levelo://app?vid=cdb61098-51b6-4e45-be90-432658d7e75b"},"vehicle_type_id":"4","last_reported":1765966414,"current_range_meters":11600,"station_id":"ce4bh412rcd13ifvqds0","pricing_plan_id":"cebpf4jnsgd1na2vs0mg"},{"bike_id":"64d3f0fd-9e78-4bae-bfcb-039a7cf4c89a","system_id":"levelo_inurba_marseille","lat":43.29182,"lon":5.3716,"is_reserved":false,"is_disabled":false,"rental_uris":{"android":"levelo://app?vid=64d3f0fd-9e78-4bae-bfcb-039a7cf4c89a","ios":"levelo://app?vid=64d3f0fd-9e78-4bae-bfcb-039a7cf4c89a"},"vehicle_type_id":"4","last_reported":1765966414,"current_range_meters":11600,"station_id":"ce4bha92rcd13ifvqeh0","pricing_plan_id":"cebpf4jnsgd1na2vs0mg"},{"bike_id":"e83afe53-3337-4912-ab64-57122f432691","system_id":"levelo_inurba_marseille","lat":43.243894,"lon":5.370692,"is_reserved":false,"is_disabled":false,"rental_uris":{"android":"levelo://app?vid=e83afe53-3337-4912-ab64-57122f432691","ios":"levelo://app?vid=e83afe53-3337-4912-ab64-57122f432691"},"vehicle_type_id":"4","last_reported":1765966414,"current_range_meters":11600,"station_id":"ce4bhhh2rcd13ifvqfk0","pricing_plan_id":"cebpf4jnsgd1na2vs0mg"},{"bike_id":"ff1ef74c-1d9b-4f32-b5fc-466b83d26736","system_id":"levelo_inurba_marseille","lat":43.29044,"lon":5.39936,"is_reserved":false,"is_disabled":false,"rental_uris":{"android":"levelo://app?vid=ff1ef74c-1d9b-4f32-b5fc-466b83d26736","ios":"levelo://app?vid=ff1ef74c-1d9b-4f32-b5fc-466b83d26736"},"vehicle_type_id":"4","last_reported":1765966414,"current_range_meters":12000,"station_id":"ce4bh392rcd13ifvqdm0","pricing_plan_id":"cebpf4jnsgd1na2vs0mg"},{"bike_id":"de6b23d7-5f5f-485b-b794-ee9794378476","system_id":"levelo_inurba_marseille","lat":43.30899,"lon":5.36852,"is_reserved":false,"is_disabled":false,"rental_uris":{"android":"levelo://app?vid=de6b23d7-5f5f-485b-b794-ee9794378476","ios":"levelo://app?vid=de6b23d7-5f5f-485b-b794-ee9794378476"},"vehicle_type_id":"4","last_reported":1765966414,"current_range_meters":12000,"station_id":"ce4bgn92rcd13ifvqbvg","pricing_plan_id":"cebpf4jnsgd1na2vs0mg"},{"bike_id":"68a49bec-68cb-4a5a-a61d-1d00087445d7","system_id":"levelo_inurba_marseille","lat":43.28424,"lon":5.34975,"is_reserved":false,"is_disabled":false,"rental_uris":{"android":"levelo://app?vid=68a49bec-68cb-4a5a-a61d-1d00087445d7","ios":"levelo://app?vid=68a49bec-68cb-4a5a-a61d-1d00087445d7"},"vehicle_type_id":"4","last_reported":1765966414,"current_range_meters":12000,"station_id":"ce4bhbh2rcd13ifvqepg","pricing_plan_id":"cebpf4jnsgd1na2vs0mg"},{"bike_id":"a7fb6309-2b67-48fd-a604-7555499decdb","system_id":"levelo_inurba_marseille","lat":43.24144,"lon":5.36422,"is_reserved":false,"is_disabled":false,"rental_uris":{"android":"levelo://app?vid=a7fb6309-2b67-48fd-a604-7555499decdb","ios":"levelo://app?vid=a7fb6309-2b67-48fd-a604-7555499decdb"},"vehicle_type_id":"4","last_reported":1765966414,"current_range_meters":12000,"station_id":"cpo36qri1sfpv3e86is0","pricing_plan_id":"cebpf4jnsgd1na2vs0mg"},{"bike_id":"7470f7ec-7c1d-489b-a8f1-7507a064b9c8","system_id":"levelo_inurba_marseille","lat":43.284785,"lon":5.483899,"is_reserved":false,"is_disabled":false,"rental_uris":{"android":"levelo://app?vid=7470f7ec-7c1d-489b-a8f1-7507a064b9c8","ios":"levelo://app?vid=7470f7ec-7c1d-489b-a8f1-7507a064b9c8"},"vehicle_type_id":"4","last_reported":1765966414,"current_range_meters":12000,"station_id":"st_d3svhcjqgbts73a3dn0g","pricing_plan_id":"cebpf4jnsgd1na2vs0mg"},{"bike_id":"998cd9fe-3721-44c5-a5a3-2b7b38823677","system_id":"levelo_inurba_marseille","lat":43.29036,"lon":5.39985,"is_reserved":false,"is_disabled":false,"rental_uris":{"android":"levelo://app?vid=998cd9fe-3721-44c5-a5a3-2b7b38823677","ios":"levelo://app?vid=998cd9fe-3721-44c5-a5a3-2b7b38823677"},"vehicle_type_id":"4","last_reported":1765966414,"current_range_meters":12000,"station_id":"ce4bh392rcd13ifvqdm0","pricing_plan_id":"cebpf4jnsgd1na2vs0mg"},{"bike_id":"6593c432-f7f2-4812-8c75-5263e2ac59f7","system_id":"levelo_inurba_marseille","lat":43.31173,"lon":5.38713,"is_reserved":false,"is_disabled":false,"rental_uris":{"android":"levelo://app?vid=6593c432-f7f2-4812-8c75-5263e2ac59f7","ios":"levelo://app?vid=6593c432-f7f2-4812-8c75-5263e2ac59f7"},"vehicle_type_id":"4","last_reported":1765966414,"current_range_meters":12000,"station_id":"ce4bgv12rcd13ifvqcp0","pricing_plan_id":"cebpf4jnsgd1na2vs0mg"},{"bike_id":"4651291d-dd37-44b8-91ca-f4fe7c9a4167","system_id":"levelo_inurba_marseille","lat":43.28876,"lon":5.42516,"is_reserved":false,"is_disabled":false,"rental_uris":{"android":"levelo://app?vid=4651291d-dd37-44b8-91ca-f4fe7c9a4167","ios":"levelo://app?vid=4651291d-dd37-44b8-91ca-f4fe7c9a4167"},"vehicle_type_id":"4","last_reported":1765966414,"current_range_meters":12000,"station_id":"st_d3b462108ojc7389ooeg","pricing_plan_id":"cebpf4jnsgd1na2vs0mg"},{"bike_id":"65fa0266-c642-4f7e-9943-7e25c06fef3c","system_id":"levelo_inurba_marseille","lat":43.30481,"lon":5.37899,"is_reserved":false,"is_disabled":false,"rental_uris":{"android":"levelo://app?vid=65fa0266-c642-4f7e-9943-7e25c06fef3c","ios":"levelo://app?vid=65fa0266-c642-4f7e-9943-7e25c06fef3c"},"vehicle_type_id":"4","last_reported":1765966414,"current_range_meters":12000,"station_id":"ce4bgup2rcd13ifvqcn0","pricing_plan_id":"cebpf4jnsgd1na2vs0mg"},{"bike_id":"6e071e61-9d6e-4a02-8914-eba8c7f9027d","system_id":"levelo_inurba_marseille","lat":43.28453,"lon":5.38418,"is_reserved":false,"is_disabled":false,"rental_uris":{"android":"levelo://app?vid=6e071e61-9d6e-4a02-8914-eba8c7f9027d","ios":"levelo://app?vid=6e071e61-9d6e-4a02-8914-eba8c7f9027d"},"vehicle_type_id":"4","last_reported":1765966414,"current_range_meters":12000,"station_id":"ce4bh512rcd13ifvqe3g","pricing_plan_id":"cebpf4jnsgd1na2vs0mg"},{"bike_id":"0f28b80e-ee7f-47f3-9eea-fe09714ef2c4","system_id":"levelo_inurba_marseille","lat":43.337538,"lon":5.374581,"is_reserved":false,"is_disabled":false,"rental_uris":{"android":"levelo://app?vid=0f28b80e-ee7f-47f3-9eea-fe09714ef2c4","ios":"levelo://app?vid=0f28b80e-ee7f-47f3-9eea-fe09714ef2c4"},"vehicle_type_id":"4","last_reported":1765966414,"current_range_meters":12000,"station_id":"","pricing_plan_id":"cebpf4jnsgd1na2vs0mg"},{"bike_id":"eed18767-05c9-4c1e-a884-f815f273a381","system_id":"levelo_inurba_marseille","lat":43.29189,"lon":5.39317,"is_reserved":false,"is_disabled":true,"rental_uris":{"android":"levelo://app?vid=eed18767-05c9-4c1e-a884-f815f273a381","ios":"levelo://app?vid=eed18767-05c9-4c1e-a884-f815f273a381"},"vehicle_type_id":"4","last_reported":1765966414,"current_range_meters":12000,"station_id":"ce4bh192rcd13ifvqdd0","pricing_plan_id":"cebpf4jnsgd1na2vs0mg"},{"bike_id":"11ff9e87-6b6f-4f5a-a786-789002e8cd89","system_id":"levelo_inurba_marseille","lat":43.29267,"lon":5.38439,"is_reserved":false,"is_disabled":false,"rental_uris":{"android":"levelo://app?vid=11ff9e87-6b6f-4f5a-a786-789002e8cd89","ios":"levelo://app?vid=11ff9e87-6b6f-4f5a-a786-789002e8cd89"},"vehicle_type_id":"4","last_reported":1765966414,"current_range_meters":12000,"station_id":"ce4bh692rcd13ifvqea0","pricing_plan_id":"cebpf4jnsgd1na2vs0mg"},{"bike_id":"d6e38455-2d3a-48a2-ba3c-d6b06380af87","system_id":"levelo_inurba_marseille","lat":43.29027,"lon":5.38647,"is_reserved":false,"is_disabled":false,"rental_uris":{"android":"levelo://app?vid=d6e38455-2d3a-48a2-ba3c-d6b06380af87","ios":"levelo://app?vid=d6e38455-2d3a-48a2-ba3c-d6b06380af87"},"vehicle_type_id":"4","last_reported":1765966414,"current_range_meters":12000,"station_id":"ce4bh4p2rcd13ifvqe0g","pricing_plan_id":"cebpf4jnsgd1na2vs0mg"},{"bike_id":"32441d0c-d102-4763-b3c4-eda5fe1b0f26","system_id":"levelo_inurba_marseille","lat":43.29936,"lon":5.36502,"is_reserved":false,"is_disabled":false,"rental_uris":{"android":"levelo://app?vid=32441d0c-d102-4763-b3c4-eda5fe1b0f26","ios":"levelo://app?vid=32441d0c-d102-4763-b3c4-eda5fe1b0f26"},"vehicle_type_id":"4","last_reported":1765966414,"current_range_meters":12400,"station_id":"ce4bgm92rcd13ifvqbr0","pricing_plan_id":"cebpf4jnsgd1na2vs0mg"},{"bike_id":"e52f4ad0-f100-40eb-810c-c2bfb55704c4","system_id":"levelo_inurba_marseille","lat":43.321069,"lon":5.367717,"is_reserved":false,"is_disabled":false,"rental_uris":{"android":"levelo://app?vid=e52f4ad0-f100-40eb-810c-c2bfb55704c4","ios":"levelo://app?vid=e52f4ad0-f100-40eb-810c-c2bfb55704c4"},"vehicle_type_id":"4","last_reported":1765966414,"current_range_meters":12400,"station_id":"ce4bhrh2rcd13ifvqhug","pricing_plan_id":"cebpf4jnsgd1na2vs0mg"},{"bike_id":"5dbbaf71-5bf4-4b66-9f4a-70eee407faa1","system_id":"levelo_inurba_marseille","lat":43.27323,"lon":5.39096,"is_reserved":false,"is_disabled":false,"rental_uris":{"android":"levelo://app?vid=5dbbaf71-5bf4-4b66-9f4a-70eee407faa1","ios":"levelo://app?vid=5dbbaf71-5bf4-4b66-9f4a-70eee407faa1"},"vehicle_type_id":"4","last_reported":1765966414,"current_range_meters":12400,"station_id":"ce4bhgp2rcd13ifvqfe0","pricing_plan_id":"cebpf4jnsgd1na2vs0mg"},{"bike_id":"6eaf6cc4-b10f-435b-a4c3-93e897f6c344","system_id":"levelo_inurba_marseille","lat":43.29805,"lon":5.44082,"is_reserved":false,"is_disabled":false,"rental_uris":{"android":"levelo://app?vid=6eaf6cc4-b10f-435b-a4c3-93e897f6c344","ios":"levelo://app?vid=6eaf6cc4-b10f-435b-a4c3-93e897f6c344"},"vehicle_type_id":"4","last_reported":1765966414,"current_range_meters":12800,"station_id":"st_d3jp68qikq2c7381ktn0","pricing_plan_id":"cebpf4jnsgd1na2vs0mg"},{"bike_id":"0a2d81af-c789-4426-af29-b843e405024e","system_id":"levelo_inurba_marseille","lat":43.26937,"lon":5.38644,"is_reserved":false,"is_disabled":false,"rental_uris":{"android":"levelo://app?vid=0a2d81af-c789-4426-af29-b843e405024e","ios":"levelo://app?vid=0a2d81af-c789-4426-af29-b843e405024e"},"vehicle_type_id":"4","last_reported":1765966414,"current_range_meters":12800,"station_id":"ce4bhh92rcd13ifvqfh0","pricing_plan_id":"cebpf4jnsgd1na2vs0mg"},{"bike_id":"9b9600b0-cd27-4095-ac5f-7e9a0053afea","system_id":"levelo_inurba_marseille","lat":43.26217,"lon":5.38757,"is_reserved":false,"is_disabled":false,"rental_uris":{"android":"levelo://app?vid=9b9600b0-cd27-4095-ac5f-7e9a0053afea","ios":"levelo://app?vid=9b9600b0-cd27-4095-ac5f-7e9a0053afea"},"vehicle_type_id":"4","last_reported":1765966414,"current_range_meters":12800,"station_id":"","pricing_plan_id":"cebpf4jnsgd1na2vs0mg"},{"bike_id":"bc2a9f34-eb4c-4326-8288-2a761dd948c9","system_id":"levelo_inurba_marseille","lat":43.29006,"lon":5.3561,"is_reserved":false,"is_disabled":false,"rental_uris":{"android":"levelo://app?vid=bc2a9f34-eb4c-4326-8288-2a761dd948c9","ios":"levelo://app?vid=bc2a9f34-eb4c-4326-8288-2a761dd948c9"},"vehicle_type_id":"4","last_reported":1765966414,"current_range_meters":12800,"station_id":"ce4bhb92rcd13ifvqen0","pricing_plan_id":"cebpf4jnsgd1na2vs0mg"},{"bike_id":"cae1478d-1268-4134-aa1e-c58d3eaf9d38","system_id":"levelo_inurba_marseille","lat":43.31885,"lon":5.40059,"is_reserved":false,"is_disabled":false,"rental_uris":{"android":"levelo://app?vid=cae1478d-1268-4134-aa1e-c58d3eaf9d38","ios":"levelo://app?vid=cae1478d-1268-4134-aa1e-c58d3eaf9d38"},"vehicle_type_id":"4","last_reported":1765966414,"current_range_meters":13600,"station_id":"","pricing_plan_id":"cebpf4jnsgd1na2vs0mg"},{"bike_id":"65b84533-8741-46b9-bb0d-285d5fc69333","system_id":"levelo_inurba_marseille","lat":43.29736,"lon":5.37694,"is_reserved":false,"is_disabled":false,"rental_uris":{"android":"levelo://app?vid=65b84533-8741-46b9-bb0d-285d5fc69333","ios":"levelo://app?vid=65b84533-8741-46b9-bb0d-285d5fc69333"},"vehicle_type_id":"4","last_reported":1765966414,"current_range_meters":13600,"station_id":"ce4bgkh2rcd13ifvqbl0","pricing_plan_id":"cebpf4jnsgd1na2vs0mg"},{"bike_id":"0917b6d6-7025-49d8-b40a-e9bc03c75580","system_id":"levelo_inurba_marseille","lat":43.303,"lon":5.37703,"is_reserved":false,"is_disabled":false,"rental_uris":{"android":"levelo://app?vid=0917b6d6-7025-49d8-b40a-e9bc03c75580","ios":"levelo://app?vid=0917b6d6-7025-49d8-b40a-e9bc03c75580"},"vehicle_type_id":"4","last_reported":1765966414,"current_range_meters":13600,"station_id":"ce4bguh2rcd13ifvqcj0","pricing_plan_id":"cebpf4jnsgd1na2vs0mg"},{"bike_id":"2432f99d-27f2-42ef-b3e6-f7e71f39a4f6","system_id":"levelo_inurba_marseille","lat":43.30132,"lon":5.36862,"is_reserved":false,"is_disabled":false,"rental_uris":{"android":"levelo://app?vid=2432f99d-27f2-42ef-b3e6-f7e71f39a4f6","ios":"levelo://app?vid=2432f99d-27f2-42ef-b3e6-f7e71f39a4f6"},"vehicle_type_id":"4","last_reported":1765966414,"current_range_meters":13600,"station_id":"","pricing_plan_id":"cebpf4jnsgd1na2vs0mg"},{"bike_id":"7d23da5f-a139-4702-b52d-5260a27b337d","system_id":"levelo_inurba_marseille","lat":43.260223,"lon":5.37556,"is_reserved":false,"is_disabled":false,"rental_uris":{"android":"levelo://app?vid=7d23da5f-a139-4702-b52d-5260a27b337d","ios":"levelo://app?vid=7d23da5f-a139-4702-b52d-5260a27b337d"},"vehicle_type_id":"4","last_reported":1765966414,"current_range_meters":13600,"station_id":"ce4bhgh2rcd13ifvqfa0","pricing_plan_id":"cebpf4jnsgd1na2vs0mg"},{"bike_id":"944976cd-b26b-4bca-85db-11ae3d8d41e2","system_id":"levelo_inurba_marseille","lat":43.24074,"lon":5.377661,"is_reserved":false,"is_disabled":false,"rental_uris":{"android":"levelo://app?vid=944976cd-b26b-4bca-85db-11ae3d8d41e2","ios":"levelo://app?vid=944976cd-b26b-4bca-85db-11ae3d8d41e2"},"vehicle_type_id":"4","last_reported":1765966414,"current_range_meters":13600,"station_id":"ce4bhnp2rcd13ifvqgvg","pricing_plan_id":"cebpf4jnsgd1na2vs0mg"},{"bike_id":"da412e87-e258-41de-87d9-cdf74d2bd733","system_id":"levelo_inurba_marseille","lat":43.29529,"lon":5.39034,"is_reserved":false,"is_disabled":false,"rental_uris":{"android":"levelo://app?vid=da412e87-e258-41de-87d9-cdf74d2bd733","ios":"levelo://app?vid=da412e87-e258-41de-87d9-cdf74d2bd733"},"vehicle_type_id":"4","last_reported":1765966414,"current_range_meters":14000,"station_id":"ce4bh3p2rcd13ifvqdp0","pricing_plan_id":"cebpf4jnsgd1na2vs0mg"},{"bike_id":"f8a860be-9af5-4c9d-882d-9b730e70a7f7","system_id":"levelo_inurba_marseille","lat":43.299135,"lon":5.38137,"is_reserved":false,"is_disabled":true,"rental_uris":{"android":"levelo://app?vid=f8a860be-9af5-4c9d-882d-9b730e70a7f7","ios":"levelo://app?vid=f8a860be-9af5-4c9d-882d-9b730e70a7f7"},"vehicle_type_id":"4","last_reported":1765966414,"current_range_meters":14000,"station_id":"","pricing_plan_id":"cebpf4jnsgd1na2vs0mg"},{"bike_id":"540065f4-b9cc-492a-8ee2-e6cfe606f95e","system_id":"levelo_inurba_marseille","lat":43.33723,"lon":5.3748,"is_reserved":false,"is_disabled":false,"rental_uris":{"android":"levelo://app?vid=540065f4-b9cc-492a-8ee2-e6cfe606f95e","ios":"levelo://app?vid=540065f4-b9cc-492a-8ee2-e6cfe606f95e"},"vehicle_type_id":"4","last_reported":1765966414,"current_range_meters":14000,"station_id":"","pricing_plan_id":"cebpf4jnsgd1na2vs0mg"},{"bike_id":"d1464135-ab7e-45e7-9454-ed9b224df88e","system_id":"levelo_inurba_marseille","lat":43.30144,"lon":5.38069,"is_reserved":false,"is_disabled":false,"rental_uris":{"android":"levelo://app?vid=d1464135-ab7e-45e7-9454-ed9b224df88e","ios":"levelo://app?vid=d1464135-ab7e-45e7-9454-ed9b224df88e"},"vehicle_type_id":"4","last_reported":1765966414,"current_range_meters":14000,"station_id":"ce4bgjp2rcd13ifvqbh0","pricing_plan_id":"cebpf4jnsgd1na2vs0mg"},{"bike_id":"3abe0285-d755-443b-9694-eb8b26ac2c6e","system_id":"levelo_inurba_marseille","lat":43.31223,"lon":5.36841,"is_reserved":false,"is_disabled":false,"rental_uris":{"android":"levelo://app?vid=3abe0285-d755-443b-9694-eb8b26ac2c6e","ios":"levelo://app?vid=3abe0285-d755-443b-9694-eb8b26ac2c6e"},"vehicle_type_id":"4","last_reported":1765966414,"current_range_meters":14000,"station_id":"ce4bgl92rcd13ifvqbq0","pricing_plan_id":"cebpf4jnsgd1na2vs0mg"},{"bike_id":"2758a80f-1172-41a1-ae2b-dc1951044d13","system_id":"levelo_inurba_marseille","lat":43.28843,"lon":5.39305,"is_reserved":false,"is_disabled":false,"rental_uris":{"android":"levelo://app?vid=2758a80f-1172-41a1-ae2b-dc1951044d13","ios":"levelo://app?vid=2758a80f-1172-41a1-ae2b-dc1951044d13"},"vehicle_type_id":"4","last_reported":1765966414,"current_range_meters":14000,"station_id":"ce4bh2p2rcd13ifvqdi0","pricing_plan_id":"cebpf4jnsgd1na2vs0mg"},{"bike_id":"4370a362-f75f-4d2e-880f-0348c9d578f0","system_id":"levelo_inurba_marseille","lat":43.30462,"lon":5.37911,"is_reserved":false,"is_disabled":false,"rental_uris":{"android":"levelo://app?vid=4370a362-f75f-4d2e-880f-0348c9d578f0","ios":"levelo://app?vid=4370a362-f75f-4d2e-880f-0348c9d578f0"},"vehicle_type_id":"4","last_reported":1765966414,"current_range_meters":14000,"station_id":"ce4bgup2rcd13ifvqcn0","pricing_plan_id":"cebpf4jnsgd1na2vs0mg"},{"bike_id":"5c2a36a5-a603-4fee-9053-34c85e1d4355","system_id":"levelo_inurba_marseille","lat":43.28857,"lon":5.393,"is_reserved":false,"is_disabled":false,"rental_uris":{"android":"levelo://app?vid=5c2a36a5-a603-4fee-9053-34c85e1d4355","ios":"levelo://app?vid=5c2a36a5-a603-4fee-9053-34c85e1d4355"},"vehicle_type_id":"4","last_reported":1765966414,"current_range_meters":14000,"station_id":"ce4bh2p2rcd13ifvqdi0","pricing_plan_id":"cebpf4jnsgd1na2vs0mg"},{"bike_id":"72393a95-42a5-49b8-b7d7-bab87b9932e6","system_id":"levelo_inurba_marseille","lat":43.31474,"lon":5.45382,"is_reserved":false,"is_disabled":false,"rental_uris":{"android":"levelo://app?vid=72393a95-42a5-49b8-b7d7-bab87b9932e6","ios":"levelo://app?vid=72393a95-42a5-49b8-b7d7-bab87b9932e6"},"vehicle_type_id":"4","last_reported":1765966414,"current_range_meters":14000,"station_id":"","pricing_plan_id":"cebpf4jnsgd1na2vs0mg"},{"bike_id":"e539de40-cc85-4550-81f1-cc76c8b5ff7d","system_id":"levelo_inurba_marseille","lat":43.32098,"lon":5.3682,"is_reserved":false,"is_disabled":false,"rental_uris":{"android":"levelo://app?vid=e539de40-cc85-4550-81f1-cc76c8b5ff7d","ios":"levelo://app?vid=e539de40-cc85-4550-81f1-cc76c8b5ff7d"},"vehicle_type_id":"4","last_reported":1765966414,"current_range_meters":14400,"station_id":"ce4bhrh2rcd13ifvqhug","pricing_plan_id":"cebpf4jnsgd1na2vs0mg"},{"bike_id":"3936242b-2358-4d12-9b79-302250a3e053","system_id":"levelo_inurba_marseille","lat":43.26687,"lon":5.38276,"is_reserved":false,"is_disabled":false,"rental_uris":{"android":"levelo://app?vid=3936242b-2358-4d12-9b79-302250a3e053","ios":"levelo://app?vid=3936242b-2358-4d12-9b79-302250a3e053"},"vehicle_type_id":"4","last_reported":1765966414,"current_range_meters":14400,"station_id":"ce4bhg92rcd13ifvqf90","pricing_plan_id":"cebpf4jnsgd1na2vs0mg"},{"bike_id":"0eaebf46-1bd1-4aaf-b805-fb25a3bcd61e","system_id":"levelo_inurba_marseille","lat":43.29816,"lon":5.44066,"is_reserved":false,"is_disabled":false,"rental_uris":{"android":"levelo://app?vid=0eaebf46-1bd1-4aaf-b805-fb25a3bcd61e","ios":"levelo://app?vid=0eaebf46-1bd1-4aaf-b805-fb25a3bcd61e"},"vehicle_type_id":"4","last_reported":1765966414,"current_range_meters":14400,"station_id":"st_d3jp68qikq2c7381ktn0","pricing_plan_id":"cebpf4jnsgd1na2vs0mg"},{"bike_id":"babcbf2f-3149-4397-bed0-fc9fb158d7ef","system_id":"levelo_inurba_marseille","lat":43.27804,"lon":5.40726,"is_reserved":false,"is_disabled":false,"rental_uris":{"android":"levelo://app?vid=babcbf2f-3149-4397-bed0-fc9fb158d7ef","ios":"levelo://app?vid=babcbf2f-3149-4397-bed0-fc9fb158d7ef"},"vehicle_type_id":"4","last_reported":1765966414,"current_range_meters":14400,"station_id":"ce4bhnh2rcd13ifvqgtg","pricing_plan_id":"cebpf4jnsgd1na2vs0mg"},{"bike_id":"2ab38362-024b-4170-8845-f37ff2703bc4","system_id":"levelo_inurba_marseille","lat":43.3054,"lon":5.36709,"is_reserved":false,"is_disabled":false,"rental_uris":{"android":"levelo://app?vid=2ab38362-024b-4170-8845-f37ff2703bc4","ios":"levelo://app?vid=2ab38362-024b-4170-8845-f37ff2703bc4"},"vehicle_type_id":"4","last_reported":1765966414,"current_range_meters":14400,"station_id":"ce4bgrp2rcd13ifvqc9g","pricing_plan_id":"cebpf4jnsgd1na2vs0mg"},{"bike_id":"c42cb838-06e1-489e-9fd0-0c3e226398cb","system_id":"levelo_inurba_marseille","lat":43.22563,"lon":5.41636,"is_reserved":false,"is_disabled":false,"rental_uris":{"android":"levelo://app?vid=c42cb838-06e1-489e-9fd0-0c3e226398cb","ios":"levelo://app?vid=c42cb838-06e1-489e-9fd0-0c3e226398cb"},"vehicle_type_id":"4","last_reported":1765966414,"current_range_meters":14400,"station_id":"st_d2o4gvlbi1j2169b742g","pricing_plan_id":"cebpf4jnsgd1na2vs0mg"},{"bike_id":"fe8b4597-b860-43e8-b7a3-80a16126a1b9","system_id":"levelo_inurba_marseille","lat":43.31335,"lon":5.3672,"is_reserved":false,"is_disabled":false,"rental_uris":{"android":"levelo://app?vid=fe8b4597-b860-43e8-b7a3-80a16126a1b9","ios":"levelo://app?vid=fe8b4597-b860-43e8-b7a3-80a16126a1b9"},"vehicle_type_id":"4","last_reported":1765966414,"current_range_meters":14800,"station_id":"ce4bgr92rcd13ifvqc6g","pricing_plan_id":"cebpf4jnsgd1na2vs0mg"},{"bike_id":"f71a1f1b-61c3-4937-b8ae-ba9d31ea3cd4","system_id":"levelo_inurba_marseille","lat":43.3121,"lon":5.36586,"is_reserved":false,"is_disabled":false,"rental_uris":{"android":"levelo://app?vid=f71a1f1b-61c3-4937-b8ae-ba9d31ea3cd4","ios":"levelo://app?vid=f71a1f1b-61c3-4937-b8ae-ba9d31ea3cd4"},"vehicle_type_id":"4","last_reported":1765966414,"current_range_meters":14800,"station_id":"","pricing_plan_id":"cebpf4jnsgd1na2vs0mg"},{"bike_id":"eea538cb-a33c-4d44-b728-d965ec2c0585","system_id":"levelo_inurba_marseille","lat":43.25003,"lon":5.38927,"is_reserved":false,"is_disabled":false,"rental_uris":{"android":"levelo://app?vid=eea538cb-a33c-4d44-b728-d965ec2c0585","ios":"levelo://app?vid=eea538cb-a33c-4d44-b728-d965ec2c0585"},"vehicle_type_id":"4","last_reported":1765966414,"current_range_meters":14800,"station_id":"ce4bhgp2rcd13ifvqfd0","pricing_plan_id":"cebpf4jnsgd1na2vs0mg"},{"bike_id":"c4014b09-0cea-4e6e-a54b-3dd5f2e0015d","system_id":"levelo_inurba_marseille","lat":43.250124,"lon":5.38941,"is_reserved":false,"is_disabled":false,"rental_uris":{"android":"levelo://app?vid=c4014b09-0cea-4e6e-a54b-3dd5f2e0015d","ios":"levelo://app?vid=c4014b09-0cea-4e6e-a54b-3dd5f2e0015d"},"vehicle_type_id":"4","last_reported":1765966414,"current_range_meters":14800,"station_id":"ce4bhgp2rcd13ifvqfd0","pricing_plan_id":"cebpf4jnsgd1na2vs0mg"},{"bike_id":"fedcd8c6-9dd1-49f7-a439-c3d118a3a7ba","system_id":"levelo_inurba_marseille","lat":43.32116,"lon":5.36779,"is_reserved":false,"is_disabled":false,"rental_uris":{"android":"levelo://app?vid=fedcd8c6-9dd1-49f7-a439-c3d118a3a7ba","ios":"levelo://app?vid=fedcd8c6-9dd1-49f7-a439-c3d118a3a7ba"},"vehicle_type_id":"4","last_reported":1765966414,"current_range_meters":14800,"station_id":"ce4bhrh2rcd13ifvqhug","pricing_plan_id":"cebpf4jnsgd1na2vs0mg"},{"bike_id":"577e8dfa-855d-43ff-8683-4513a6d95873","system_id":"levelo_inurba_marseille","lat":43.2406,"lon":5.37746,"is_reserved":false,"is_disabled":false,"rental_uris":{"android":"levelo://app?vid=577e8dfa-855d-43ff-8683-4513a6d95873","ios":"levelo://app?vid=577e8dfa-855d-43ff-8683-4513a6d95873"},"vehicle_type_id":"4","last_reported":1765966414,"current_range_meters":14800,"station_id":"ce4bhnp2rcd13ifvqgvg","pricing_plan_id":"cebpf4jnsgd1na2vs0mg"},{"bike_id":"8d483768-adea-4cdf-aef8-e32bc413d2f4","system_id":"levelo_inurba_marseille","lat":43.3131,"lon":5.36785,"is_reserved":false,"is_disabled":false,"rental_uris":{"android":"levelo://app?vid=8d483768-adea-4cdf-aef8-e32bc413d2f4","ios":"levelo://app?vid=8d483768-adea-4cdf-aef8-e32bc413d2f4"},"vehicle_type_id":"4","last_reported":1765966414,"current_range_meters":14800,"station_id":"","pricing_plan_id":"cebpf4jnsgd1na2vs0mg"},{"bike_id":"3f85392e-7751-4fbe-9206-afff2b3033e2","system_id":"levelo_inurba_marseille","lat":43.30385,"lon":5.42479,"is_reserved":false,"is_disabled":false,"rental_uris":{"android":"levelo://app?vid=3f85392e-7751-4fbe-9206-afff2b3033e2","ios":"levelo://app?vid=3f85392e-7751-4fbe-9206-afff2b3033e2"},"vehicle_type_id":"4","last_reported":1765966414,"current_range_meters":14800,"station_id":"ce4bhoh2rcd13ifvqh6g","pricing_plan_id":"cebpf4jnsgd1na2vs0mg"},{"bike_id":"4b01f8a6-209f-46c8-9a08-4b43bc02774a","system_id":"levelo_inurba_marseille","lat":43.29869,"lon":5.39735,"is_reserved":false,"is_disabled":false,"rental_uris":{"android":"levelo://app?vid=4b01f8a6-209f-46c8-9a08-4b43bc02774a","ios":"levelo://app?vid=4b01f8a6-209f-46c8-9a08-4b43bc02774a"},"vehicle_type_id":"4","last_reported":1765966414,"current_range_meters":14800,"station_id":"","pricing_plan_id":"cebpf4jnsgd1na2vs0mg"},{"bike_id":"158731ae-35de-4fbb-b786-82a8edec8251","system_id":"levelo_inurba_marseille","lat":43.25733,"lon":5.41121,"is_reserved":false,"is_disabled":false,"rental_uris":{"android":"levelo://app?vid=158731ae-35de-4fbb-b786-82a8edec8251","ios":"levelo://app?vid=158731ae-35de-4fbb-b786-82a8edec8251"},"vehicle_type_id":"4","last_reported":1765966414,"current_range_meters":14800,"station_id":"ce4bhkp2rcd13ifvqgd0","pricing_plan_id":"cebpf4jnsgd1na2vs0mg"},{"bike_id":"c8b33099-20de-4b2f-9ae6-264b7841e2f3","system_id":"levelo_inurba_marseille","lat":43.30279,"lon":5.37708,"is_reserved":false,"is_disabled":false,"rental_uris":{"android":"levelo://app?vid=c8b33099-20de-4b2f-9ae6-264b7841e2f3","ios":"levelo://app?vid=c8b33099-20de-4b2f-9ae6-264b7841e2f3"},"vehicle_type_id":"4","last_reported":1765966414,"current_range_meters":14800,"station_id":"ce4bguh2rcd13ifvqcj0","pricing_plan_id":"cebpf4jnsgd1na2vs0mg"},{"bike_id":"026e8651-2767-4fc0-b1c3-2f40b04d4561","system_id":"levelo_inurba_marseille","lat":43.28477,"lon":5.48396,"is_reserved":false,"is_disabled":false,"rental_uris":{"android":"levelo://app?vid=026e8651-2767-4fc0-b1c3-2f40b04d4561","ios":"levelo://app?vid=026e8651-2767-4fc0-b1c3-2f40b04d4561"},"vehicle_type_id":"4","last_reported":1765966414,"current_range_meters":15200,"station_id":"st_d3svhcjqgbts73a3dn0g","pricing_plan_id":"cebpf4jnsgd1na2vs0mg"},{"bike_id":"ef2740e6-10ef-49eb-8eec-9c1e65855def","system_id":"levelo_inurba_marseille","lat":43.295525,"lon":5.374827,"is_reserved":false,"is_disabled":false,"rental_uris":{"android":"levelo://app?vid=ef2740e6-10ef-49eb-8eec-9c1e65855def","ios":"levelo://app?vid=ef2740e6-10ef-49eb-8eec-9c1e65855def"},"vehicle_type_id":"4","last_reported":1765966414,"current_range_meters":15200,"station_id":"ce4bgh92rcd13ifvqb50","pricing_plan_id":"cebpf4jnsgd1na2vs0mg"},{"bike_id":"fa6f92d2-8437-4f8d-b03f-3c3f142f8390","system_id":"levelo_inurba_marseille","lat":43.28425,"lon":5.38735,"is_reserved":false,"is_disabled":false,"rental_uris":{"android":"levelo://app?vid=fa6f92d2-8437-4f8d-b03f-3c3f142f8390","ios":"levelo://app?vid=fa6f92d2-8437-4f8d-b03f-3c3f142f8390"},"vehicle_type_id":"4","last_reported":1765966414,"current_range_meters":15200,"station_id":"","pricing_plan_id":"cebpf4jnsgd1na2vs0mg"},{"bike_id":"50d33456-bf1c-4376-ba8b-e3d3d2f0e44a","system_id":"levelo_inurba_marseille","lat":43.29039,"lon":5.39959,"is_reserved":false,"is_disabled":false,"rental_uris":{"android":"levelo://app?vid=50d33456-bf1c-4376-ba8b-e3d3d2f0e44a","ios":"levelo://app?vid=50d33456-bf1c-4376-ba8b-e3d3d2f0e44a"},"vehicle_type_id":"4","last_reported":1765966414,"current_range_meters":15200,"station_id":"ce4bh392rcd13ifvqdm0","pricing_plan_id":"cebpf4jnsgd1na2vs0mg"},{"bike_id":"6b16acc7-a80b-4f96-ae73-b1410de5081b","system_id":"levelo_inurba_marseille","lat":43.28638,"lon":5.35102,"is_reserved":false,"is_disabled":false,"rental_uris":{"android":"levelo://app?vid=6b16acc7-a80b-4f96-ae73-b1410de5081b","ios":"levelo://app?vid=6b16acc7-a80b-4f96-ae73-b1410de5081b"},"vehicle_type_id":"4","last_reported":1765966414,"current_range_meters":15200,"station_id":"ce4bhch2rcd13ifvqeug","pricing_plan_id":"cebpf4jnsgd1na2vs0mg"},{"bike_id":"57bf9f67-9522-40c4-82f0-435099d363f7","system_id":"levelo_inurba_marseille","lat":43.323636,"lon":5.367516,"is_reserved":false,"is_disabled":false,"rental_uris":{"android":"levelo://app?vid=57bf9f67-9522-40c4-82f0-435099d363f7","ios":"levelo://app?vid=57bf9f67-9522-40c4-82f0-435099d363f7"},"vehicle_type_id":"4","last_reported":1765966414,"current_range_meters":15200,"station_id":"ce4bhsh2rcd13ifvqi2g","pricing_plan_id":"cebpf4jnsgd1na2vs0mg"},{"bike_id":"1229dd0c-cd94-4b46-af8f-e1c364f379f7","system_id":"levelo_inurba_marseille","lat":43.2316,"lon":5.4371,"is_reserved":false,"is_disabled":true,"rental_uris":{"android":"levelo://app?vid=1229dd0c-cd94-4b46-af8f-e1c364f379f7","ios":"levelo://app?vid=1229dd0c-cd94-4b46-af8f-e1c364f379f7"},"vehicle_type_id":"4","last_reported":1765966414,"current_range_meters":15200,"station_id":"ce4bhmp2rcd13ifvqgog","pricing_plan_id":"cebpf4jnsgd1na2vs0mg"},{"bike_id":"a7382c73-0a3e-465a-92e8-c55bb496ab8e","system_id":"levelo_inurba_marseille","lat":43.25124,"lon":5.4032,"is_reserved":false,"is_disabled":false,"rental_uris":{"android":"levelo://app?vid=a7382c73-0a3e-465a-92e8-c55bb496ab8e","ios":"levelo://app?vid=a7382c73-0a3e-465a-92e8-c55bb496ab8e"},"vehicle_type_id":"4","last_reported":1765966414,"current_range_meters":15200,"station_id":"ce4bhlh2rcd13ifvqgig","pricing_plan_id":"cebpf4jnsgd1na2vs0mg"},{"bike_id":"cb0842d7-93bc-4351-8f3b-fffed7b4f15a","system_id":"levelo_inurba_marseille","lat":43.26946,"lon":5.3863,"is_reserved":false,"is_disabled":false,"rental_uris":{"android":"levelo://app?vid=cb0842d7-93bc-4351-8f3b-fffed7b4f15a","ios":"levelo://app?vid=cb0842d7-93bc-4351-8f3b-fffed7b4f15a"},"vehicle_type_id":"4","last_reported":1765966414,"current_range_meters":16000,"station_id":"ce4bhh92rcd13ifvqfh0","pricing_plan_id":"cebpf4jnsgd1na2vs0mg"},{"bike_id":"e9d5c8fd-011f-4aa0-b95a-a78c8e676e23","system_id":"levelo_inurba_marseille","lat":43.33602,"lon":5.41017,"is_reserved":false,"is_disabled":false,"rental_uris":{"android":"levelo://app?vid=e9d5c8fd-011f-4aa0-b95a-a78c8e676e23","ios":"levelo://app?vid=e9d5c8fd-011f-4aa0-b95a-a78c8e676e23"},"vehicle_type_id":"4","last_reported":1765966414,"current_range_meters":16000,"station_id":"ce4bhqh2rcd13ifvqhmg","pricing_plan_id":"cebpf4jnsgd1na2vs0mg"},{"bike_id":"46300de1-2118-46f4-bf10-bd61a7328e2b","system_id":"levelo_inurba_marseille","lat":43.26676,"lon":5.39614,"is_reserved":false,"is_disabled":false,"rental_uris":{"android":"levelo://app?vid=46300de1-2118-46f4-bf10-bd61a7328e2b","ios":"levelo://app?vid=46300de1-2118-46f4-bf10-bd61a7328e2b"},"vehicle_type_id":"4","last_reported":1765966414,"current_range_meters":16000,"station_id":"","pricing_plan_id":"cebpf4jnsgd1na2vs0mg"},{"bike_id":"7ff51734-7635-4e26-ba98-c2660f473ff2","system_id":"levelo_inurba_marseille","lat":43.23067,"lon":5.35496,"is_reserved":false,"is_disabled":false,"rental_uris":{"android":"levelo://app?vid=7ff51734-7635-4e26-ba98-c2660f473ff2","ios":"levelo://app?vid=7ff51734-7635-4e26-ba98-c2660f473ff2"},"vehicle_type_id":"4","last_reported":1765966414,"current_range_meters":16000,"station_id":"cpo3342slgdg3j2ifvpg","pricing_plan_id":"cebpf4jnsgd1na2vs0mg"},{"bike_id":"38d66c43-4ebd-4d4a-9b0f-fcb1404bb6e8","system_id":"levelo_inurba_marseille","lat":43.25588,"lon":5.3808,"is_reserved":false,"is_disabled":false,"rental_uris":{"android":"levelo://app?vid=38d66c43-4ebd-4d4a-9b0f-fcb1404bb6e8","ios":"levelo://app?vid=38d66c43-4ebd-4d4a-9b0f-fcb1404bb6e8"},"vehicle_type_id":"4","last_reported":1765966414,"current_range_meters":16000,"station_id":"ce4bhih2rcd13ifvqfs0","pricing_plan_id":"cebpf4jnsgd1na2vs0mg"},{"bike_id":"d8f07d1b-53a5-403f-ab47-71b960091a07","system_id":"levelo_inurba_marseille","lat":43.33537,"lon":5.3748,"is_reserved":false,"is_disabled":false,"rental_uris":{"android":"levelo://app?vid=d8f07d1b-53a5-403f-ab47-71b960091a07","ios":"levelo://app?vid=d8f07d1b-53a5-403f-ab47-71b960091a07"},"vehicle_type_id":"4","last_reported":1765966414,"current_range_meters":16000,"station_id":"st_d46tts09ee8s73dlu43g","pricing_plan_id":"cebpf4jnsgd1na2vs0mg"},{"bike_id":"a2fe9bea-c83b-4540-9993-b21511028686","system_id":"levelo_inurba_marseille","lat":43.33749,"lon":5.37487,"is_reserved":false,"is_disabled":false,"rental_uris":{"android":"levelo://app?vid=a2fe9bea-c83b-4540-9993-b21511028686","ios":"levelo://app?vid=a2fe9bea-c83b-4540-9993-b21511028686"},"vehicle_type_id":"4","last_reported":1765966414,"current_range_meters":16000,"station_id":"","pricing_plan_id":"cebpf4jnsgd1na2vs0mg"},{"bike_id":"1c5dead3-188b-41b2-9359-9797d9a1af54","system_id":"levelo_inurba_marseille","lat":43.24385,"lon":5.37056,"is_reserved":false,"is_disabled":false,"rental_uris":{"android":"levelo://app?vid=1c5dead3-188b-41b2-9359-9797d9a1af54","ios":"levelo://app?vid=1c5dead3-188b-41b2-9359-9797d9a1af54"},"vehicle_type_id":"4","last_reported":1765966414,"current_range_meters":16000,"station_id":"ce4bhhh2rcd13ifvqfk0","pricing_plan_id":"cebpf4jnsgd1na2vs0mg"},