{"last_updated":1761077505,"ttl":60,"version":"2.2","data":{"bikes":[{"bike_id":"d8a0f4f8-3964-402e-924c-3470748785aa","system_id":"levelo_inurba_marseille","lat":43.337444,"lon":5.374475,"is_reserved":false,"is_disabled":false,"rental_uris":{"android":"levelo://app?vid=d8a0f4f8-3964-402e-924c-3470748785aa","ios":"levelo://app?vid=d8a0f4f8-3964-402e-924c-3470748785aa"},"vehicle_type_id":"4","last_reported":1761077505,"current_range_meters":0,"station_id":"","pricing_plan_id":"cebpf4jnsgd1na2vs0mg"},{"bike_id":"da8b70b9-5b18-498b-b895-16f1ef066668","system_id":"levelo_inurba_marseille","lat":43.28672,"lon":5.38674,"is_reserved":false,"is_disabled":false,"rental_uris":{"android":"levelo://app?vid=da8b70b9-5b18-498b-b895-16f1ef066668","ios":"levelo://app?vid=da8b70b9-5b18-498b-b895-16f1ef066668"},"vehicle_type_id":"4","last_reported":1761077505,"current_range_meters":2800,"station_id":"ce4bh492rcd13ifvqdug","pricing_plan_id":"cebpf4jnsgd1na2vs0mg"},{"bike_id":"ce815519-ee02-42b1-90ec-8ff10f216cd4","system_id":"levelo_inurba_marseille","lat":43.260135,"lon":5.415869,"is_reserved":false,"is_disabled":false,"rental_uris":{"android":"levelo://app?vid=ce815519-ee02-42b1-90ec-8ff10f216cd4","ios":"levelo://app?vid=ce815519-ee02-42b1-90ec-8ff10f216cd4"},"vehicle_type_id":"4","last_reported":1761077505,"current_range_meters":2800,"station_id":"","pricing_plan_id":"cebpf4jnsgd1na2vs0mg"},{"bike_id":"9528b951-2322-4682-93e4-d43747e2a8d4","system_id":"levelo_inurba_marseille","lat":43.28433,"lon":5.39179,"is_reserved":false,"is_disabled":false,"rental_uris":{"android":"levelo://app?vid=9528b951-2322-4682-93e4-d43747e2a8d4","ios":"levelo://app?vid=9528b951-2322-4682-93e4-d43747e2a8d4"},"vehicle_type_id":"4","last_reported":1761077505,"current_range_meters":2800,"station_id":"ce4bhoh2rcd13ifvqh5g","pricing_plan_id":"cebpf4jnsgd1na2vs0mg"},{"bike_id":"1a17656d-0348-409b-8ea1-3b1405c6cb21","system_id":"levelo_inurba_marseille","lat":43.28678,"lon":5.38671,"is_reserved":false,"is_disabled":false,"rental_uris":{"android":"levelo://app?vid=1a17656d-0348-409b-8ea1-3b1405c6cb21","ios":"levelo://app?vid=1a17656d-0348-409b-8ea1-3b1405c6cb21"},"vehicle_type_id":"4","last_reported":1761077505,"current_range_meters":3200,"station_id":"ce4bh492rcd13ifvqdug","pricing_plan_id":"cebpf4jnsgd1na2vs0mg"},{"bike_id":"fbb75000-48f5-4dbe-aa37-aa4a8d769d08","system_id":"levelo_inurba_marseille","lat":43.2118,"lon":5.35072,"is_reserved":false,"is_disabled":false,"rental_uris":{"android":"levelo://app?vid=fbb75000-48f5-4dbe-aa37-aa4a8d769d08","ios":"levelo://app?vid=fbb75000-48f5-4dbe-aa37-aa4a8d769d08"},"vehicle_type_id":"4","last_reported":1761077505,"current_range_meters":3200,"station_id":"st_cvj6sg6p6f1abm77japg","pricing_plan_id":"cebpf4jnsgd1na2vs0mg"},{"bike_id":"78a0dc8b-3b9d-41f7-a3a3-18ec054e3617","system_id":"levelo_inurba_marseille","lat":43.30968,"lon":5.3812,"is_reserved":false,"is_disabled":false,"rental_uris":{"android":"levelo://app?vid=78a0dc8b-3b9d-41f7-a3a3-18ec054e3617","ios":"levelo://app?vid=78a0dc8b-3b9d-41f7-a3a3-18ec054e3617"},"vehicle_type_id":"4","last_reported":1761077505,"current_range_meters":3200,"station_id":"","pricing_plan_id":"cebpf4jnsgd1na2vs0mg"},{"bike_id":"4aba9dec-2974-4873-8770-618bc787840f","system_id":"levelo_inurba_marseille","lat":43.26225,"lon":5.4047,"is_reserved":false,"is_disabled":false,"rental_uris":{"android":"levelo://app?vid=4aba9dec-2974-4873-8770-618bc787840f","ios":"levelo://app?vid=4aba9dec-2974-4873-8770-618bc787840f"},"vehicle_type_id":"4","last_reported":1761077505,"current_range_meters":3600,"station_id":"ce4bhmh2rcd13ifvqgmg","pricing_plan_id":"cebpf4jnsgd1na2vs0mg"},{"bike_id":"1fd43941-7bba-4f99-99db-104027a53a3c","system_id":"levelo_inurba_marseille","lat":43.2439,"lon":5.37075,"is_reserved":false,"is_disabled":false,"rental_uris":{"android":"levelo://app?vid=1fd43941-7bba-4f99-99db-104027a53a3c","ios":"levelo://app?vid=1fd43941-7bba-4f99-99db-104027a53a3c"},"vehicle_type_id":"4","last_reported":1761077505,"current_range_meters":3600,"station_id":"ce4bhhh2rcd13ifvqfk0","pricing_plan_id":"cebpf4jnsgd1na2vs0mg"},{"bike_id":"212a9329-66c4-44b3-8186-4a3357c4630e","system_id":"levelo_inurba_marseille","lat":43.29238,"lon":5.38097,"is_reserved":false,"is_disabled":false,"rental_uris":{"android":"levelo://app?vid=212a9329-66c4-44b3-8186-4a3357c4630e","ios":"levelo://app?vid=212a9329-66c4-44b3-8186-4a3357c4630e"},"vehicle_type_id":"4","last_reported":1761077505,"current_range_meters":4400,"station_id":"","pricing_plan_id":"cebpf4jnsgd1na2vs0mg"},{"bike_id":"cfd2cdda-d347-4e07-b691-031226946d40","system_id":"levelo_inurba_marseille","lat":43.287205,"lon":5.360865,"is_reserved":false,"is_disabled":false,"rental_uris":{"android":"levelo://app?vid=cfd2cdda-d347-4e07-b691-031226946d40","ios":"levelo://app?vid=cfd2cdda-d347-4e07-b691-031226946d40"},"vehicle_type_id":"4","last_reported":1761077505,"current_range_meters":4400,"station_id":"cki0cbj6b192h4jlfktg","pricing_plan_id":"cebpf4jnsgd1na2vs0mg"},{"bike_id":"4e9fef70-0019-4525-b002-fdec15bfe8e8","system_id":"levelo_inurba_marseille","lat":43.326578,"lon":5.409895,"is_reserved":false,"is_disabled":false,"rental_uris":{"android":"levelo://app?vid=4e9fef70-0019-4525-b002-fdec15bfe8e8","ios":"levelo://app?vid=4e9fef70-0019-4525-b002-fdec15bfe8e8"},"vehicle_type_id":"4","last_reported":1761077505,"current_range_meters":4800,"station_id":"ce4bhpp2rcd13ifvqhgg","pricing_plan_id":"cebpf4jnsgd1na2vs0mg"},{"bike_id":"b341d32d-daad-43b9-8434-865822e60a82","system_id":"levelo_inurba_marseille","lat":43.27058,"lon":5.40259,"is_reserved":false,"is_disabled":false,"rental_uris":{"android":"levelo://app?vid=b341d32d-daad-43b9-8434-865822e60a82","ios":"levelo://app?vid=b341d32d-daad-43b9-8434-865822e60a82"},"vehicle_type_id":"4","last_reported":1761077505,"current_range_meters":4800,"station_id":"ce4bhk92rcd13ifvqgc0","pricing_plan_id":"cebpf4jnsgd1na2vs0mg"},{"bike_id":"5e7fbbc4-a806-46f9-8b57-7796c9f99dc1","system_id":"levelo_inurba_marseille","lat":43.30196,"lon":5.36609,"is_reserved":false,"is_disabled":false,"rental_uris":{"android":"levelo://app?vid=5e7fbbc4-a806-46f9-8b57-7796c9f99dc1","ios":"levelo://app?vid=5e7fbbc4-a806-46f9-8b57-7796c9f99dc1"},"vehicle_type_id":"4","last_reported":1761077505,"current_range_meters":5600,"station_id":"ce4bgrh2rcd13ifvqc8g","pricing_plan_id":"cebpf4jnsgd1na2vs0mg"},{"bike_id":"7caedf13-0e6c-4e85-89b1-5b84714fee23","system_id":"levelo_inurba_marseille","lat":43.286087,"lon":5.370657,"is_reserved":false,"is_disabled":false,"rental_uris":{"android":"levelo://app?vid=7caedf13-0e6c-4e85-89b1-5b84714fee23","ios":"levelo://app?vid=7caedf13-0e6c-4e85-89b1-5b84714fee23"},"vehicle_type_id":"4","last_reported":1761077505,"current_range_meters":5600,"station_id":"ce4bht12rcd13ifvqi60","pricing_plan_id":"cebpf4jnsgd1na2vs0mg"},{"bike_id":"6a6bdb6e-185d-4c5c-95b7-2034fa001261","system_id":"levelo_inurba_marseille","lat":43.30935,"lon":5.4014,"is_reserved":false,"is_disabled":false,"rental_uris":{"android":"levelo://app?vid=6a6bdb6e-185d-4c5c-95b7-2034fa001261","ios":"levelo://app?vid=6a6bdb6e-185d-4c5c-95b7-2034fa001261"},"vehicle_type_id":"4","last_reported":1761077505,"current_range_meters":6000,"station_id":"ce4bgvp2rcd13ifvqct0","pricing_plan_id":"cebpf4jnsgd1na2vs0mg"},{"bike_id":"c037874f-e454-4d1e-9f03-b485b4dbd4f2","system_id":"levelo_inurba_marseille","lat":43.291846,"lon":5.370596,"is_reserved":false,"is_disabled":false,"rental_uris":{"android":"levelo://app?vid=c037874f-e454-4d1e-9f03-b485b4dbd4f2","ios":"levelo://app?vid=c037874f-e454-4d1e-9f03-b485b4dbd4f2"},"vehicle_type_id":"4","last_reported":1761077505,"current_range_meters":6000,"station_id":"","pricing_plan_id":"cebpf4jnsgd1na2vs0mg"},{"bike_id":"a568e6dd-160c-4c52-8b70-2412c493b526","system_id":"levelo_inurba_marseille","lat":43.22568,"lon":5.41635,"is_reserved":false,"is_disabled":false,"rental_uris":{"android":"levelo://app?vid=a568e6dd-160c-4c52-8b70-2412c493b526","ios":"levelo://app?vid=a568e6dd-160c-4c52-8b70-2412c493b526"},"vehicle_type_id":"4","last_reported":1761077505,"current_range_meters":6000,"station_id":"st_d2o4gvlbi1j2169b742g","pricing_plan_id":"cebpf4jnsgd1na2vs0mg"},{"bike_id":"c04f9120-086d-47fb-86c9-7eb28f177b53","system_id":"levelo_inurba_marseille","lat":43.274678,"lon":5.424337,"is_reserved":false,"is_disabled":false,"rental_uris":{"android":"levelo://app?vid=c04f9120-086d-47fb-86c9-7eb28f177b53","ios":"levelo://app?vid=c04f9120-086d-47fb-86c9-7eb28f177b53"},"vehicle_type_id":"4","last_reported":1761077505,"current_range_meters":6000,"station_id":"ce4bhn92rcd13ifvqgrg","pricing_plan_id":"cebpf4jnsgd1na2vs0mg"},{"bike_id":"29ea3fd7-d426-4d92-af9c-fe4d8d0b9c60","system_id":"levelo_inurba_marseille","lat":43.27985,"lon":5.38725,"is_reserved":false,"is_disabled":false,"rental_uris":{"android":"levelo://app?vid=29ea3fd7-d426-4d92-af9c-fe4d8d0b9c60","ios":"levelo://app?vid=29ea3fd7-d426-4d92-af9c-fe4d8d0b9c60"},"vehicle_type_id":"4","last_reported":1761077505,"current_range_meters":6400,"station_id":"ce4bhg12rcd13ifvqf80","pricing_plan_id":"cebpf4jnsgd1na2vs0mg"},{"bike_id":"23d2e327-9a1c-43f9-a1d7-2fca27e96f84","system_id":"levelo_inurba_marseille","lat":43.27355,"lon":5.41496,"is_reserved":false,"is_disabled":false,"rental_uris":{"android":"levelo://app?vid=23d2e327-9a1c-43f9-a1d7-2fca27e96f84","ios":"levelo://app?vid=23d2e327-9a1c-43f9-a1d7-2fca27e96f84"},"vehicle_type_id":"4","last_reported":1761077505,"current_range_meters":6400,"station_id":"","pricing_plan_id":"cebpf4jnsgd1na2vs0mg"},{"bike_id":"98490d11-db71-4361-ab96-f0addd49d050","system_id":"levelo_inurba_marseille","lat":43.30003,"lon":5.37353,"is_reserved":false,"is_disabled":false,"rental_uris":{"android":"levelo://app?vid=98490d11-db71-4361-ab96-f0addd49d050","ios":"levelo://app?vid=98490d11-db71-4361-ab96-f0addd49d050"},"vehicle_type_id":"4","last_reported":1761077505,"current_range_meters":6400,"station_id":"","pricing_plan_id":"cebpf4jnsgd1na2vs0mg"},{"bike_id":"5358d4d0-c0ca-463c-adbb-bfb4d9389da2","system_id":"levelo_inurba_marseille","lat":43.29067,"lon":5.37162,"is_reserved":false,"is_disabled":false,"rental_uris":{"android":"levelo://app?vid=5358d4d0-c0ca-463c-adbb-bfb4d9389da2","ios":"levelo://app?vid=5358d4d0-c0ca-463c-adbb-bfb4d9389da2"},"vehicle_type_id":"4","last_reported":1761077505,"current_range_meters":6400,"station_id":"ce4bh5p2rcd13ifvqe4g","pricing_plan_id":"cebpf4jnsgd1na2vs0mg"},{"bike_id":"6d8da19b-0143-43ba-a2b6-b774a32597d4","system_id":"levelo_inurba_marseille","lat":43.28152,"lon":5.34768,"is_reserved":false,"is_disabled":false,"rental_uris":{"android":"levelo://app?vid=6d8da19b-0143-43ba-a2b6-b774a32597d4","ios":"levelo://app?vid=6d8da19b-0143-43ba-a2b6-b774a32597d4"},"vehicle_type_id":"4","last_reported":1761077505,"current_range_meters":6800,"station_id":"","pricing_plan_id":"cebpf4jnsgd1na2vs0mg"},{"bike_id":"32fe13f3-1998-41d4-a763-4eea85838a36","system_id":"levelo_inurba_marseille","lat":43.2861,"lon":5.37064,"is_reserved":false,"is_disabled":false,"rental_uris":{"android":"levelo://app?vid=32fe13f3-1998-41d4-a763-4eea85838a36","ios":"levelo://app?vid=32fe13f3-1998-41d4-a763-4eea85838a36"},"vehicle_type_id":"4","last_reported":1761077505,"current_range_meters":6800,"station_id":"ce4bht12rcd13ifvqi60","pricing_plan_id":"cebpf4jnsgd1na2vs0mg"},{"bike_id":"04018adf-9b7e-4f75-95a6-f2dca1881420","system_id":"levelo_inurba_marseille","lat":43.21768,"lon":5.34587,"is_reserved":false,"is_disabled":true,"rental_uris":{"android":"levelo://app?vid=04018adf-9b7e-4f75-95a6-f2dca1881420","ios":"levelo://app?vid=04018adf-9b7e-4f75-95a6-f2dca1881420"},"vehicle_type_id":"4","last_reported":1761077505,"current_range_meters":6800,"station_id":"st_cvj6r9ubvosntc0bgbag","pricing_plan_id":"cebpf4jnsgd1na2vs0mg"},{"bike_id":"8952652d-181d-4647-99e0-dd7c8dc8f72d","system_id":"levelo_inurba_marseille","lat":43.28562,"lon":5.4409,"is_reserved":false,"is_disabled":false,"rental_uris":{"android":"levelo://app?vid=8952652d-181d-4647-99e0-dd7c8dc8f72d","ios":"levelo://app?vid=8952652d-181d-4647-99e0-dd7c8dc8f72d"},"vehicle_type_id":"4","last_reported":1761077505,"current_range_meters":7200,"station_id":"st_d3j3df2ikq2c7380ej80","pricing_plan_id":"cebpf4jnsgd1na2vs0mg"},{"bike_id":"945abdc7-5f89-487f-9eb9-d0fac2f93b59","system_id":"levelo_inurba_marseille","lat":43.29605,"lon":5.38101,"is_reserved":false,"is_disabled":false,"rental_uris":{"android":"levelo://app?vid=945abdc7-5f89-487f-9eb9-d0fac2f93b59","ios":"levelo://app?vid=945abdc7-5f89-487f-9eb9-d0fac2f93b59"},"vehicle_type_id":"4","last_reported":1761077505,"current_range_meters":7200,"station_id":"ce4bgl12rcd13ifvqbo0","pricing_plan_id":"cebpf4jnsgd1na2vs0mg"},{"bike_id":"2f1a7d43-6bcf-41d7-8d23-ebde3846745a","system_id":"levelo_inurba_marseille","lat":43.29036,"lon":5.38635,"is_reserved":false,"is_disabled":false,"rental_uris":{"android":"levelo://app?vid=2f1a7d43-6bcf-41d7-8d23-ebde3846745a","ios":"levelo://app?vid=2f1a7d43-6bcf-41d7-8d23-ebde3846745a"},"vehicle_type_id":"4","last_reported":1761077505,"current_range_meters":7200,"station_id":"ce4bh4p2rcd13ifvqe0g","pricing_plan_id":"cebpf4jnsgd1na2vs0mg"},{"bike_id":"5579785c-3a11-4952-8185-13727af029d5","system_id":"levelo_inurba_marseille","lat":43.28572,"lon":5.39486,"is_reserved":false,"is_disabled":false,"rental_uris":{"android":"levelo://app?vid=5579785c-3a11-4952-8185-13727af029d5","ios":"levelo://app?vid=5579785c-3a11-4952-8185-13727af029d5"},"vehicle_type_id":"4","last_reported":1761077505,"current_range_meters":7200,"station_id":"ce4bh292rcd13ifvqdg0","pricing_plan_id":"cebpf4jnsgd1na2vs0mg"},{"bike_id":"9000d598-4615-4375-b3e1-b7516ad2df50","system_id":"levelo_inurba_marseille","lat":43.29274,"lon":5.38318,"is_reserved":false,"is_disabled":false,"rental_uris":{"android":"levelo://app?vid=9000d598-4615-4375-b3e1-b7516ad2df50","ios":"levelo://app?vid=9000d598-4615-4375-b3e1-b7516ad2df50"},"vehicle_type_id":"4","last_reported":1761077505,"current_range_meters":7200,"station_id":"","pricing_plan_id":"cebpf4jnsgd1na2vs0mg"},{"bike_id":"ccf52927-a9d1-4898-8ca8-889ca18bdda0","system_id":"levelo_inurba_marseille","lat":43.29501,"lon":5.43296,"is_reserved":false,"is_disabled":false,"rental_uris":{"android":"levelo://app?vid=ccf52927-a9d1-4898-8ca8-889ca18bdda0","ios":"levelo://app?vid=ccf52927-a9d1-4898-8ca8-889ca18bdda0"},"vehicle_type_id":"4","last_reported":1761077505,"current_range_meters":7200,"station_id":"st_d3j5ugp08ojc73fj9d10","pricing_plan_id":"cebpf4jnsgd1na2vs0mg"},{"bike_id":"b919b036-501d-4946-9ddc-e4552b9394ce","system_id":"levelo_inurba_marseille","lat":43.29704,"lon":5.36606,"is_reserved":false,"is_disabled":false,"rental_uris":{"android":"levelo://app?vid=b919b036-501d-4946-9ddc-e4552b9394ce","ios":"levelo://app?vid=b919b036-501d-4946-9ddc-e4552b9394ce"},"vehicle_type_id":"4","last_reported":1761077505,"current_range_meters":7200,"station_id":"ce4bgn12rcd13ifvqbt0","pricing_plan_id":"cebpf4jnsgd1na2vs0mg"},{"bike_id":"bf8ec125-d0e1-4669-93ef-7d5ad0ddea3a","system_id":"levelo_inurba_marseille","lat":43.27244,"lon":5.40067,"is_reserved":false,"is_disabled":false,"rental_uris":{"android":"levelo://app?vid=bf8ec125-d0e1-4669-93ef-7d5ad0ddea3a","ios":"levelo://app?vid=bf8ec125-d0e1-4669-93ef-7d5ad0ddea3a"},"vehicle_type_id":"4","last_reported":1761077505,"current_range_meters":8000,"station_id":"","pricing_plan_id":"cebpf4jnsgd1na2vs0mg"},{"bike_id":"a7c7675d-e06c-4794-bdda-4ac8c78a31c6","system_id":"levelo_inurba_marseille","lat":43.28269,"lon":5.35066,"is_reserved":false,"is_disabled":true,"rental_uris":{"android":"levelo://app?vid=a7c7675d-e06c-4794-bdda-4ac8c78a31c6","ios":"levelo://app?vid=a7c7675d-e06c-4794-bdda-4ac8c78a31c6"},"vehicle_type_id":"4","last_reported":1761077505,"current_range_meters":8000,"station_id":"ce4bhbp2rcd13ifvqerg","pricing_plan_id":"cebpf4jnsgd1na2vs0mg"},{"bike_id":"e7cb61d9-84d9-41c0-8427-00fc6a9e436b","system_id":"levelo_inurba_marseille","lat":43.3108,"lon":5.37532,"is_reserved":false,"is_disabled":false,"rental_uris":{"android":"levelo://app?vid=e7cb61d9-84d9-41c0-8427-00fc6a9e436b","ios":"levelo://app?vid=e7cb61d9-84d9-41c0-8427-00fc6a9e436b"},"vehicle_type_id":"4","last_reported":1761077505,"current_range_meters":8000,"station_id":"","pricing_plan_id":"cebpf4jnsgd1na2vs0mg"},{"bike_id":"c4432b73-0adb-475d-83b3-18f6e7bba483","system_id":"levelo_inurba_marseille","lat":43.33066,"lon":5.39596,"is_reserved":false,"is_disabled":false,"rental_uris":{"android":"levelo://app?vid=c4432b73-0adb-475d-83b3-18f6e7bba483","ios":"levelo://app?vid=c4432b73-0adb-475d-83b3-18f6e7bba483"},"vehicle_type_id":"4","last_reported":1761077505,"current_range_meters":8000,"station_id":"","pricing_plan_id":"cebpf4jnsgd1na2vs0mg"},{"bike_id":"4bb6d993-b33c-4862-ab4c-59be979be62e","system_id":"levelo_inurba_marseille","lat":43.292581,"lon":5.409086,"is_reserved":false,"is_disabled":false,"rental_uris":{"android":"levelo://app?vid=4bb6d993-b33c-4862-ab4c-59be979be62e","ios":"levelo://app?vid=4bb6d993-b33c-4862-ab4c-59be979be62e"},"vehicle_type_id":"4","last_reported":1761077505,"current_range_meters":8400,"station_id":"ce4bh192rcd13ifvqdc0","pricing_plan_id":"cebpf4jnsgd1na2vs0mg"},{"bike_id":"f7a07b58-cadd-44ad-9aec-67b79048708f","system_id":"levelo_inurba_marseille","lat":43.304308,"lon":5.405861,"is_reserved":false,"is_disabled":false,"rental_uris":{"android":"levelo://app?vid=f7a07b58-cadd-44ad-9aec-67b79048708f","ios":"levelo://app?vid=f7a07b58-cadd-44ad-9aec-67b79048708f"},"vehicle_type_id":"4","last_reported":1761077505,"current_range_meters":8400,"station_id":"","pricing_plan_id":"cebpf4jnsgd1na2vs0mg"},{"bike_id":"bedab86a-a42b-4d3b-a255-7e555fb6da4b","system_id":"levelo_inurba_marseille","lat":43.28828,"lon":5.45167,"is_reserved":false,"is_disabled":false,"rental_uris":{"android":"levelo://app?vid=bedab86a-a42b-4d3b-a255-7e555fb6da4b","ios":"levelo://app?vid=bedab86a-a42b-4d3b-a255-7e555fb6da4b"},"vehicle_type_id":"4","last_reported":1761077505,"current_range_meters":8800,"station_id":"","pricing_plan_id":"cebpf4jnsgd1na2vs0mg"},{"bike_id":"b05fa741-189f-40ae-a89c-2977a62785fc","system_id":"levelo_inurba_marseille","lat":43.28454,"lon":5.39182,"is_reserved":false,"is_disabled":false,"rental_uris":{"android":"levelo://app?vid=b05fa741-189f-40ae-a89c-2977a62785fc","ios":"levelo://app?vid=b05fa741-189f-40ae-a89c-2977a62785fc"},"vehicle_type_id":"4","last_reported":1761077505,"current_range_meters":8800,"station_id":"ce4bhoh2rcd13ifvqh5g","pricing_plan_id":"cebpf4jnsgd1na2vs0mg"},{"bike_id":"a2e131f8-3c9f-478a-b394-6a9db5f46a7a","system_id":"levelo_inurba_marseille","lat":43.30131,"lon":5.37428,"is_reserved":false,"is_disabled":true,"rental_uris":{"android":"levelo://app?vid=a2e131f8-3c9f-478a-b394-6a9db5f46a7a","ios":"levelo://app?vid=a2e131f8-3c9f-478a-b394-6a9db5f46a7a"},"vehicle_type_id":"4","last_reported":1761077505,"current_range_meters":8800,"station_id":"ce4bgs92rcd13ifvqcc0","pricing_plan_id":"cebpf4jnsgd1na2vs0mg"},{"bike_id":"f2ff0ade-5361-46d8-ab78-69bd403c3483","system_id":"levelo_inurba_marseille","lat":43.28226,"lon":5.3498,"is_reserved":false,"is_disabled":false,"rental_uris":{"android":"levelo://app?vid=f2ff0ade-5361-46d8-ab78-69bd403c3483","ios":"levelo://app?vid=f2ff0ade-5361-46d8-ab78-69bd403c3483"},"vehicle_type_id":"4","last_reported":1761077505,"current_range_meters":8800,"station_id":"","pricing_plan_id":"cebpf4jnsgd1na2vs0mg"},{"bike_id":"b57659f4-d3ee-4dae-9f8a-459796f973b4","system_id":"levelo_inurba_marseille","lat":43.25336,"lon":5.42173,"is_reserved":false,"is_disabled":false,"rental_uris":{"android":"levelo://app?vid=b57659f4-d3ee-4dae-9f8a-459796f973b4","ios":"levelo://app?vid=b57659f4-d3ee-4dae-9f8a-459796f973b4"},"vehicle_type_id":"4","last_reported":1761077505,"current_range_meters":8800,"station_id":"st_d2m65c5bi1j21697t3ng","pricing_plan_id":"cebpf4jnsgd1na2vs0mg"},{"bike_id":"adb6da43-a790-4bbe-8cdb-8fa1e5d17796","system_id":"levelo_inurba_marseille","lat":43.3175,"lon":5.38585,"is_reserved":false,"is_disabled":true,"rental_uris":{"android":"levelo://app?vid=adb6da43-a790-4bbe-8cdb-8fa1e5d17796","ios":"levelo://app?vid=adb6da43-a790-4bbe-8cdb-8fa1e5d17796"},"vehicle_type_id":"4","last_reported":1761077505,"current_range_meters":8800,"station_id":"","pricing_plan_id":"cebpf4jnsgd1na2vs0mg"},{"bike_id":"21410bfa-4d90-4b37-9b7a-1a763c36872d","system_id":"levelo_inurba_marseille","lat":43.29369,"lon":5.3784,"is_reserved":false,"is_disabled":false,"rental_uris":{"android":"levelo://app?vid=21410bfa-4d90-4b37-9b7a-1a763c36872d","ios":"levelo://app?vid=21410bfa-4d90-4b37-9b7a-1a763c36872d"},"vehicle_type_id":"4","last_reported":1761077505,"current_range_meters":9200,"station_id":"ce4bgjh2rcd13ifvqbf0","pricing_plan_id":"cebpf4jnsgd1na2vs0mg"},{"bike_id":"4154d683-e72a-4592-9e60-2a3872848698","system_id":"levelo_inurba_marseille","lat":43.28474,"lon":5.48393,"is_reserved":false,"is_disabled":false,"rental_uris":{"android":"levelo://app?vid=4154d683-e72a-4592-9e60-2a3872848698","ios":"levelo://app?vid=4154d683-e72a-4592-9e60-2a3872848698"},"vehicle_type_id":"4","last_reported":1761077505,"current_range_meters":9200,"station_id":"st_d3jp68qikq2c7381ktn0","pricing_plan_id":"cebpf4jnsgd1na2vs0mg"},{"bike_id":"b3368da1-faef-43a4-ada4-73d0de7687c7","system_id":"levelo_inurba_marseille","lat":43.31571,"lon":5.38755,"is_reserved":false,"is_disabled":true,"rental_uris":{"android":"levelo://app?vid=b3368da1-faef-43a4-ada4-73d0de7687c7","ios":"levelo://app?vid=b3368da1-faef-43a4-ada4-73d0de7687c7"},"vehicle_type_id":"4","last_reported":1761077505,"current_range_meters":9200,"station_id":"","pricing_plan_id":"cebpf4jnsgd1na2vs0mg"},{"bike_id":"fe998b17-9d85-477f-b92c-87f6ebb6e1b3","system_id":"levelo_inurba_marseille","lat":43.2448,"lon":5.36951,"is_reserved":false,"is_disabled":false,"rental_uris":{"android":"levelo://app?vid=fe998b17-9d85-477f-b92c-87f6ebb6e1b3","ios":"levelo://app?vid=fe998b17-9d85-477f-b92c-87f6ebb6e1b3"},"vehicle_type_id":"4","last_reported":1761077505,"current_range_meters":9600,"station_id":"","pricing_plan_id":"cebpf4jnsgd1na2vs0mg"},{"bike_id":"3d068a7d-8c2c-4f97-8d7d-54140fa95800","system_id":"levelo_inurba_marseille","lat":43.27343,"lon":5.39868,"is_reserved":false,"is_disabled":false,"rental_uris":{"android":"levelo://app?vid=3d068a7d-8c2c-4f97-8d7d-54140fa95800","ios":"levelo://app?vid=3d068a7d-8c2c-4f97-8d7d-54140fa95800"},"vehicle_type_id":"4","last_reported":1761077505,"current_range_meters":9600,"station_id":"","pricing_plan_id":"cebpf4jnsgd1na2vs0mg"},{"bike_id":"609e8845-7ae3-4c4f-97f5-856dd3a8b490","system_id":"levelo_inurba_marseille","lat":43.28869,"lon":5.42514,"is_reserved":false,"is_disabled":false,"rental_uris":{"android":"levelo://app?vid=609e8845-7ae3-4c4f-97f5-856dd3a8b490","ios":"levelo://app?vid=609e8845-7ae3-4c4f-97f5-856dd3a8b490"},"vehicle_type_id":"4","last_reported":1761077505,"current_range_meters":10000,"station_id":"st_d3b462108ojc7389ooeg","pricing_plan_id":"cebpf4jnsgd1na2vs0mg"},{"bike_id":"b7e41c34-cad5-468c-aadc-3ef8a1845b5a","system_id":"levelo_inurba_marseille","lat":43.28166,"lon":5.36125,"is_reserved":false,"is_disabled":false,"rental_uris":{"android":"levelo://app?vid=b7e41c34-cad5-468c-aadc-3ef8a1845b5a","ios":"levelo://app?vid=b7e41c34-cad5-468c-aadc-3ef8a1845b5a"},"vehicle_type_id":"4","last_reported":1761077505,"current_range_meters":10000,"station_id":"","pricing_plan_id":"cebpf4jnsgd1na2vs0mg"},{"bike_id":"62c15caa-5f10-4cd4-8ef6-8d3eb2f2da83","system_id":"levelo_inurba_marseille","lat":43.29571,"lon":5.37524,"is_reserved":false,"is_disabled":false,"rental_uris":{"android":"levelo://app?vid=62c15caa-5f10-4cd4-8ef6-8d3eb2f2da83","ios":"levelo://app?vid=62c15caa-5f10-4cd4-8ef6-8d3eb2f2da83"},"vehicle_type_id":"4","last_reported":1761077505,"current_range_meters":10000,"station_id":"ce4bgh92rcd13ifvqb50","pricing_plan_id":"cebpf4jnsgd1na2vs0mg"},{"bike_id":"54a7471e-8675-4b3b-a7a5-316aa76bbcbc","system_id":"levelo_inurba_marseille","lat":43.2792,"lon":5.40439,"is_reserved":false,"is_disabled":false,"rental_uris":{"android":"levelo://app?vid=54a7471e-8675-4b3b-a7a5-316aa76bbcbc","ios":"levelo://app?vid=54a7471e-8675-4b3b-a7a5-316aa76bbcbc"},"vehicle_type_id":"4","last_reported":1761077505,"current_range_meters":10000,"station_id":"","pricing_plan_id":"cebpf4jnsgd1na2vs0mg"},{"bike_id":"19840955-f9d6-49c1-86e8-b7616b7da32c","system_id":"levelo_inurba_marseille","lat":43.33134,"lon":5.39115,"is_reserved":false,"is_disabled":true,"rental_uris":{"android":"levelo://app?vid=19840955-f9d6-49c1-86e8-b7616b7da32c","ios":"levelo://app?vid=19840955-f9d6-49c1-86e8-b7616b7da32c"},"vehicle_type_id":"4","last_reported":1761077505,"current_range_meters":10000,"station_id":"","pricing_plan_id":"cebpf4jnsgd1na2vs0mg"},{"bike_id":"49cabdc5-ab59-45bc-b0af-456b5f3dbb0b","system_id":"levelo_inurba_marseille","lat":43.2956,"lon":5.38548,"is_reserved":false,"is_disabled":false,"rental_uris":{"android":"levelo://app?vid=49cabdc5-ab59-45bc-b0af-456b5f3dbb0b","ios":"levelo://app?vid=49cabdc5-ab59-45bc-b0af-456b5f3dbb0b"},"vehicle_type_id":"4","last_reported":1761077505,"current_range_meters":10000,"station_id":"ce4bgih2rcd13ifvqba0","pricing_plan_id":"cebpf4jnsgd1na2vs0mg"},{"bike_id":"66bec76d-d7e9-4a1e-a715-39e56334bf96","system_id":"levelo_inurba_marseille","lat":43.28277,"lon":5.3964,"is_reserved":false,"is_disabled":false,"rental_uris":{"android":"levelo://app?vid=66bec76d-d7e9-4a1e-a715-39e56334bf96","ios":"levelo://app?vid=66bec76d-d7e9-4a1e-a715-39e56334bf96"},"vehicle_type_id":"4","last_reported":1761077505,"current_range_meters":10800,"station_id":"","pricing_plan_id":"cebpf4jnsgd1na2vs0mg"},{"bike_id":"9ba320bb-a319-4194-b38c-0c81bc4f0720","system_id":"levelo_inurba_marseille","lat":43.288574,"lon":5.358492,"is_reserved":false,"is_disabled":false,"rental_uris":{"android":"levelo://app?vid=9ba320bb-a319-4194-b38c-0c81bc4f0720","ios":"levelo://app?vid=9ba320bb-a319-4194-b38c-0c81bc4f0720"},"vehicle_type_id":"4","last_reported":1761077505,"current_range_meters":10800,"station_id":"ce4bhb12rcd13ifvqem0","pricing_plan_id":"cebpf4jnsgd1na2vs0mg"},{"bike_id":"0d2e46fe-0558-48b3-b26c-4cc4fbbe50c1","system_id":"levelo_inurba_marseille","lat":43.307661,"lon":5.37255,"is_reserved":false,"is_disabled":false,"rental_uris":{"android":"levelo://app?vid=0d2e46fe-0558-48b3-b26c-4cc4fbbe50c1","ios":"levelo://app?vid=0d2e46fe-0558-48b3-b26c-4cc4fbbe50c1"},"vehicle_type_id":"4","last_reported":1761077505,"current_range_meters":10800,"station_id":"ce4bguh2rcd13ifvqckg","pricing_plan_id":"cebpf4jnsgd1na2vs0mg"},{"bike_id":"da3c5d5d-639d-4a11-88e1-f7b9c2ad220a","system_id":"levelo_inurba_marseille","lat":43.316813,"lon":5.377511,"is_reserved":false,"is_disabled":true,"rental_uris":{"android":"levelo://app?vid=da3c5d5d-639d-4a11-88e1-f7b9c2ad220a","ios":"levelo://app?vid=da3c5d5d-639d-4a11-88e1-f7b9c2ad220a"},"vehicle_type_id":"4","last_reported":1761077505,"current_range_meters":10800,"station_id":"ce4bgth2rcd13ifvqch0","pricing_plan_id":"cebpf4jnsgd1na2vs0mg"},{"bike_id":"b1e01f76-34b6-4521-a483-ac2e8db39d64","system_id":"levelo_inurba_marseille","lat":43.29536,"lon":5.38529,"is_reserved":false,"is_disabled":false,"rental_uris":{"android":"levelo://app?vid=b1e01f76-34b6-4521-a483-ac2e8db39d64","ios":"levelo://app?vid=b1e01f76-34b6-4521-a483-ac2e8db39d64"},"vehicle_type_id":"4","last_reported":1761077505,"current_range_meters":11200,"station_id":"ce4bgih2rcd13ifvqba0","pricing_plan_id":"cebpf4jnsgd1na2vs0mg"},{"bike_id":"c4d17d81-19cf-4697-a9b1-d780d189ed78","system_id":"levelo_inurba_marseille","lat":43.25147,"lon":5.40324,"is_reserved":false,"is_disabled":true,"rental_uris":{"android":"levelo://app?vid=c4d17d81-19cf-4697-a9b1-d780d189ed78","ios":"levelo://app?vid=c4d17d81-19cf-4697-a9b1-d780d189ed78"},"vehicle_type_id":"4","last_reported":1761077505,"current_range_meters":11200,"station_id":"","pricing_plan_id":"cebpf4jnsgd1na2vs0mg"},{"bike_id":"42be0c24-ec7f-47c6-8c36-d3b1e642637b","system_id":"levelo_inurba_marseille","lat":43.2781,"lon":5.40715,"is_reserved":false,"is_disabled":false,"rental_uris":{"android":"levelo://app?vid=42be0c24-ec7f-47c6-8c36-d3b1e642637b","ios":"levelo://app?vid=42be0c24-ec7f-47c6-8c36-d3b1e642637b"},"vehicle_type_id":"4","last_reported":1761077505,"current_range_meters":11200,"station_id":"ce4bhnh2rcd13ifvqgtg","pricing_plan_id":"cebpf4jnsgd1na2vs0mg"},{"bike_id":"9527195b-2a2f-4358-923c-8861b47674a5","system_id":"levelo_inurba_marseille","lat":43.283606,"lon":5.386459,"is_reserved":false,"is_disabled":false,"rental_uris":{"android":"levelo://app?vid=9527195b-2a2f-4358-923c-8861b47674a5","ios":"levelo://app?vid=9527195b-2a2f-4358-923c-8861b47674a5"},"vehicle_type_id":"4","last_reported":1761077505,"current_range_meters":11200,"station_id":"ce4bh492rcd13ifvqdvg","pricing_plan_id":"cebpf4jnsgd1na2vs0mg"},{"bike_id":"380aa70e-b568-4044-9571-2f99d393b4a7","system_id":"levelo_inurba_marseille","lat":43.29432,"lon":5.39756,"is_reserved":false,"is_disabled":false,"rental_uris":{"android":"levelo://app?vid=380aa70e-b568-4044-9571-2f99d393b4a7","ios":"levelo://app?vid=380aa70e-b568-4044-9571-2f99d393b4a7"},"vehicle_type_id":"4","last_reported":1761077505,"current_range_meters":11200,"station_id":"ce4bh3h2rcd13ifvqdo0","pricing_plan_id":"cebpf4jnsgd1na2vs0mg"},{"bike_id":"bcd66d32-5d50-47d9-84c1-43a45bec083f","system_id":"levelo_inurba_marseille","lat":43.28344,"lon":5.38109,"is_reserved":false,"is_disabled":false,"rental_uris":{"android":"levelo://app?vid=bcd66d32-5d50-47d9-84c1-43a45bec083f","ios":"levelo://app?vid=bcd66d32-5d50-47d9-84c1-43a45bec083f"},"vehicle_type_id":"4","last_reported":1761077505,"current_range_meters":11200,"station_id":"ce4bh412rcd13ifvqdr0","pricing_plan_id":"cebpf4jnsgd1na2vs0mg"},{"bike_id":"b78ccf64-461e-4994-9f5c-be844b45e1f0","system_id":"levelo_inurba_marseille","lat":43.30925,"lon":5.40137,"is_reserved":false,"is_disabled":false,"rental_uris":{"android":"levelo://app?vid=b78ccf64-461e-4994-9f5c-be844b45e1f0","ios":"levelo://app?vid=b78ccf64-461e-4994-9f5c-be844b45e1f0"},"vehicle_type_id":"4","last_reported":1761077505,"current_range_meters":11200,"station_id":"ce4bgvp2rcd13ifvqct0","pricing_plan_id":"cebpf4jnsgd1na2vs0mg"},{"bike_id":"2f09c01d-689c-4521-97af-b4ef07cad168","system_id":"levelo_inurba_marseille","lat":43.22569,"lon":5.41622,"is_reserved":false,"is_disabled":false,"rental_uris":{"android":"levelo://app?vid=2f09c01d-689c-4521-97af-b4ef07cad168","ios":"levelo://app?vid=2f09c01d-689c-4521-97af-b4ef07cad168"},"vehicle_type_id":"4","last_reported":1761077505,"current_range_meters":11200,"station_id":"st_d2o4gvlbi1j2169b742g","pricing_plan_id":"cebpf4jnsgd1na2vs0mg"},{"bike_id":"62d24c96-42b0-41ae-ac9e-db7d8d58cee0","system_id":"levelo_inurba_marseille","lat":43.24545,"lon":5.39516,"is_reserved":false,"is_disabled":false,"rental_uris":{"android":"levelo://app?vid=62d24c96-42b0-41ae-ac9e-db7d8d58cee0","ios":"levelo://app?vid=62d24c96-42b0-41ae-ac9e-db7d8d58cee0"},"vehicle_type_id":"4","last_reported":1761077505,"current_range_meters":11200,"station_id":"ce4bhlp2rcd13ifvqgjg","pricing_plan_id":"cebpf4jnsgd1na2vs0mg"},{"bike_id":"33ac3a37-e314-46ed-a3cb-93545f53343d","system_id":"levelo_inurba_marseille","lat":43.25007,"lon":5.38894,"is_reserved":false,"is_disabled":true,"rental_uris":{"android":"levelo://app?vid=33ac3a37-e314-46ed-a3cb-93545f53343d","ios":"levelo://app?vid=33ac3a37-e314-46ed-a3cb-93545f53343d"},"vehicle_type_id":"4","last_reported":1761077505,"current_range_meters":11600,"station_id":"ce4bhgp2rcd13ifvqfd0","pricing_plan_id":"cebpf4jnsgd1na2vs0mg"},{"bike_id":"83933163-fad8-44b5-9f90-b50cf024ca56","system_id":"levelo_inurba_marseille","lat":43.29026,"lon":5.38619,"is_reserved":false,"is_disabled":false,"rental_uris":{"android":"levelo://app?vid=83933163-fad8-44b5-9f90-b50cf024ca56","ios":"levelo://app?vid=83933163-fad8-44b5-9f90-b50cf024ca56"},"vehicle_type_id":"4","last_reported":1761077505,"current_range_meters":11600,"station_id":"ce4bh4p2rcd13ifvqe0g","pricing_plan_id":"cebpf4jnsgd1na2vs0mg"},{"bike_id":"2630da69-35bf-48d5-a333-08dbf071eb16","system_id":"levelo_inurba_marseille","lat":43.28856,"lon":5.35887,"is_reserved":false,"is_disabled":false,"rental_uris":{"android":"levelo://app?vid=2630da69-35bf-48d5-a333-08dbf071eb16","ios":"levelo://app?vid=2630da69-35bf-48d5-a333-08dbf071eb16"},"vehicle_type_id":"4","last_reported":1761077505,"current_range_meters":11600,"station_id":"ce4bhb12rcd13ifvqem0","pricing_plan_id":"cebpf4jnsgd1na2vs0mg"},{"bike_id":"f9901775-1852-4e93-a6c8-f343e646d38b","system_id":"levelo_inurba_marseille","lat":43.28663,"lon":5.36358,"is_reserved":false,"is_disabled":false,"rental_uris":{"android":"levelo://app?vid=f9901775-1852-4e93-a6c8-f343e646d38b","ios":"levelo://app?vid=f9901775-1852-4e93-a6c8-f343e646d38b"},"vehicle_type_id":"4","last_reported":1761077505,"current_range_meters":11600,"station_id":"ce4bhah2rcd13ifvqej0","pricing_plan_id":"cebpf4jnsgd1na2vs0mg"},{"bike_id":"9983e0a7-14f3-4c38-82f4-003ad5e8975e","system_id":"levelo_inurba_marseille","lat":43.31269,"lon":5.40163,"is_reserved":false,"is_disabled":false,"rental_uris":{"android":"levelo://app?vid=9983e0a7-14f3-4c38-82f4-003ad5e8975e","ios":"levelo://app?vid=9983e0a7-14f3-4c38-82f4-003ad5e8975e"},"vehicle_type_id":"4","last_reported":1761077505,"current_range_meters":11600,"station_id":"ce4bh092rcd13ifvqd30","pricing_plan_id":"cebpf4jnsgd1na2vs0mg"},{"bike_id":"bd874281-49fb-4c96-81bc-f1ea47b15dae","system_id":"levelo_inurba_marseille","lat":43.28269,"lon":5.35064,"is_reserved":false,"is_disabled":false,"rental_uris":{"android":"levelo://app?vid=bd874281-49fb-4c96-81bc-f1ea47b15dae","ios":"levelo://app?vid=bd874281-49fb-4c96-81bc-f1ea47b15dae"},"vehicle_type_id":"4","last_reported":1761077505,"current_range_meters":11600,"station_id":"ce4bhbp2rcd13ifvqerg","pricing_plan_id":"cebpf4jnsgd1na2vs0mg"},{"bike_id":"d3dca961-1ccb-4556-ab82-2bf3a0d9a406","system_id":"levelo_inurba_marseille","lat":43.292583,"lon":5.376167,"is_reserved":false,"is_disabled":false,"rental_uris":{"android":"levelo://app?vid=d3dca961-1ccb-4556-ab82-2bf3a0d9a406","ios":"levelo://app?vid=d3dca961-1ccb-4556-ab82-2bf3a0d9a406"},"vehicle_type_id":"4","last_reported":1761077505,"current_range_meters":11600,"station_id":"ce4bgi12rcd13ifvqb80","pricing_plan_id":"cebpf4jnsgd1na2vs0mg"},{"bike_id":"5df8d2bd-c3c3-45d4-b3bb-7cb639ab5c47","system_id":"levelo_inurba_marseille","lat":43.31754,"lon":5.38971,"is_reserved":false,"is_disabled":false,"rental_uris":{"android":"levelo://app?vid=5df8d2bd-c3c3-45d4-b3bb-7cb639ab5c47","ios":"levelo://app?vid=5df8d2bd-c3c3-45d4-b3bb-7cb639ab5c47"},"vehicle_type_id":"4","last_reported":1761077505,"current_range_meters":11600,"station_id":"ce4bhqp2rcd13ifvqhng","pricing_plan_id":"cebpf4jnsgd1na2vs0mg"},{"bike_id":"b8457e49-45d1-4539-8d31-1eb0283df508","system_id":"levelo_inurba_marseille","lat":43.33161,"lon":5.35508,"is_reserved":false,"is_disabled":false,"rental_uris":{"android":"levelo://app?vid=b8457e49-45d1-4539-8d31-1eb0283df508","ios":"levelo://app?vid=b8457e49-45d1-4539-8d31-1eb0283df508"},"vehicle_type_id":"4","last_reported":1761077505,"current_range_meters":12000,"station_id":"","pricing_plan_id":"cebpf4jnsgd1na2vs0mg"},{"bike_id":"3a7250a7-ce89-4667-9284-9575655d9712","system_id":"levelo_inurba_marseille","lat":43.30243,"lon":5.40055,"is_reserved":false,"is_disabled":false,"rental_uris":{"android":"levelo://app?vid=3a7250a7-ce89-4667-9284-9575655d9712","ios":"levelo://app?vid=3a7250a7-ce89-4667-9284-9575655d9712"},"vehicle_type_id":"4","last_reported":1761077505,"current_range_meters":12400,"station_id":"ce4bgvh2rcd13ifvqcs0","pricing_plan_id":"cebpf4jnsgd1na2vs0mg"},{"bike_id":"4c0a5d73-60b7-4822-a290-6e489f4a946f","system_id":"levelo_inurba_marseille","lat":43.28492,"lon":5.38517,"is_reserved":false,"is_disabled":true,"rental_uris":{"android":"levelo://app?vid=4c0a5d73-60b7-4822-a290-6e489f4a946f","ios":"levelo://app?vid=4c0a5d73-60b7-4822-a290-6e489f4a946f"},"vehicle_type_id":"4","last_reported":1761077505,"current_range_meters":12400,"station_id":"ce4bh8p2rcd13ifvqeb0","pricing_plan_id":"cebpf4jnsgd1na2vs0mg"},{"bike_id":"a0eb47f9-a594-42df-913d-732b5c65fd0a","system_id":"levelo_inurba_marseille","lat":43.30448,"lon":5.38898,"is_reserved":false,"is_disabled":false,"rental_uris":{"android":"levelo://app?vid=a0eb47f9-a594-42df-913d-732b5c65fd0a","ios":"levelo://app?vid=a0eb47f9-a594-42df-913d-732b5c65fd0a"},"vehicle_type_id":"4","last_reported":1761077505,"current_range_meters":12400,"station_id":"ce4bgk12rcd13ifvqbi0","pricing_plan_id":"cebpf4jnsgd1na2vs0mg"},{"bike_id":"e750c38e-e66e-4897-a12e-f5b69d48beda","system_id":"levelo_inurba_marseille","lat":43.291992,"lon":5.393244,"is_reserved":false,"is_disabled":false,"rental_uris":{"android":"levelo://app?vid=e750c38e-e66e-4897-a12e-f5b69d48beda","ios":"levelo://app?vid=e750c38e-e66e-4897-a12e-f5b69d48beda"},"vehicle_type_id":"4","last_reported":1761077505,"current_range_meters":12400,"station_id":"ce4bh192rcd13ifvqdd0","pricing_plan_id":"cebpf4jnsgd1na2vs0mg"},{"bike_id":"f77be9cc-1ec5-4789-9bc8-5d65bfd10840","system_id":"levelo_inurba_marseille","lat":43.30804,"lon":5.38149,"is_reserved":false,"is_disabled":false,"rental_uris":{"android":"levelo://app?vid=f77be9cc-1ec5-4789-9bc8-5d65bfd10840","ios":"levelo://app?vid=f77be9cc-1ec5-4789-9bc8-5d65bfd10840"},"vehicle_type_id":"4","last_reported":1761077505,"current_range_meters":12800,"station_id":"ce4bgt12rcd13ifvqce0","pricing_plan_id":"cebpf4jnsgd1na2vs0mg"},{"bike_id":"1c3f929b-9404-4238-be16-5939b872255f","system_id":"levelo_inurba_marseille","lat":43.318178,"lon":5.423959,"is_reserved":false,"is_disabled":false,"rental_uris":{"android":"levelo://app?vid=1c3f929b-9404-4238-be16-5939b872255f","ios":"levelo://app?vid=1c3f929b-9404-4238-be16-5939b872255f"},"vehicle_type_id":"4","last_reported":1761077505,"current_range_meters":12800,"station_id":"ce4bhp92rcd13ifvqhbg","pricing_plan_id":"cebpf4jnsgd1na2vs0mg"},{"bike_id":"7829e850-4d23-4bab-812e-03d2e8174e00","system_id":"levelo_inurba_marseille","lat":43.29779,"lon":5.37103,"is_reserved":false,"is_disabled":false,"rental_uris":{"android":"levelo://app?vid=7829e850-4d23-4bab-812e-03d2e8174e00","ios":"levelo://app?vid=7829e850-4d23-4bab-812e-03d2e8174e00"},"vehicle_type_id":"4","last_reported":1761077505,"current_range_meters":12800,"station_id":"ce4bgop2rcd13ifvqc1g","pricing_plan_id":"cebpf4jnsgd1na2vs0mg"},{"bike_id":"785c2316-a56c-4d34-a783-cb92c5d66a88","system_id":"levelo_inurba_marseille","lat":43.275925,"lon":5.384035,"is_reserved":false,"is_disabled":false,"rental_uris":{"android":"levelo://app?vid=785c2316-a56c-4d34-a783-cb92c5d66a88","ios":"levelo://app?vid=785c2316-a56c-4d34-a783-cb92c5d66a88"},"vehicle_type_id":"4","last_reported":1761077505,"current_range_meters":12800,"station_id":"ce4bhh92rcd13ifvqfi0","pricing_plan_id":"cebpf4jnsgd1na2vs0mg"},{"bike_id":"e0807e04-f7b8-4ea4-a3f9-f6baf8c84c9f","system_id":"levelo_inurba_marseille","lat":43.28038,"lon":5.36946,"is_reserved":false,"is_disabled":false,"rental_uris":{"android":"levelo://app?vid=e0807e04-f7b8-4ea4-a3f9-f6baf8c84c9f","ios":"levelo://app?vid=e0807e04-f7b8-4ea4-a3f9-f6baf8c84c9f"},"vehicle_type_id":"4","last_reported":1761077505,"current_range_meters":12800,"station_id":"ce4bha12rcd13ifvqef0","pricing_plan_id":"cebpf4jnsgd1na2vs0mg"},{"bike_id":"b60abccb-de88-4ed4-ba45-b9d122d23ed4","system_id":"levelo_inurba_marseille","lat":43.29571,"lon":5.39968,"is_reserved":false,"is_disabled":false,"rental_uris":{"android":"levelo://app?vid=b60abccb-de88-4ed4-ba45-b9d122d23ed4","ios":"levelo://app?vid=b60abccb-de88-4ed4-ba45-b9d122d23ed4"},"vehicle_type_id":"4","last_reported":1761077505,"current_range_meters":12800,"station_id":"ce4bh312rcd13ifvqdj0","pricing_plan_id":"cebpf4jnsgd1na2vs0mg"},{"bike_id":"0b30e03d-67bd-4ebb-8f7f-3e90efdd8518","system_id":"levelo_inurba_marseille","lat":43.32346,"lon":5.38887,"is_reserved":false,"is_disabled":false,"rental_uris":{"android":"levelo://app?vid=0b30e03d-67bd-4ebb-8f7f-3e90efdd8518","ios":"levelo://app?vid=0b30e03d-67bd-4ebb-8f7f-3e90efdd8518"},"vehicle_type_id":"4","last_reported":1761077505,"current_range_meters":12800,"station_id":"ce4bhqp2rcd13ifvqhog","pricing_plan_id":"cebpf4jnsgd1na2vs0mg"},{"bike_id":"22c660ad-ddf4-4958-a393-4acd861a2ace","system_id":"levelo_inurba_marseille","lat":43.280926,"lon":5.377933,"is_reserved":false,"is_disabled":false,"rental_uris":{"android":"levelo://app?vid=22c660ad-ddf4-4958-a393-4acd861a2ace","ios":"levelo://app?vid=22c660ad-ddf4-4958-a393-4acd861a2ace"},"vehicle_type_id":"4","last_reported":1761077505,"current_range_meters":13600,"station_id":"ce4bha12rcd13ifvqee0","pricing_plan_id":"cebpf4jnsgd1na2vs0mg"},{"bike_id":"b047a8d6-1e45-45ee-b80b-62194dcb8a5c","system_id":"levelo_inurba_marseille","lat":43.28669,"lon":5.36352,"is_reserved":false,"is_disabled":false,"rental_uris":{"android":"levelo://app?vid=b047a8d6-1e45-45ee-b80b-62194dcb8a5c","ios":"levelo://app?vid=b047a8d6-1e45-45ee-b80b-62194dcb8a5c"},"vehicle_type_id":"4","last_reported":1761077505,"current_range_meters":13600,"station_id":"ce4bhah2rcd13ifvqej0","pricing_plan_id":"cebpf4jnsgd1na2vs0mg"},{"bike_id":"8a817369-3b87-4d0a-964b-9af556fbe111","system_id":"levelo_inurba_marseille","lat":43.305725,"lon":5.393495,"is_reserved":false,"is_disabled":false,"rental_uris":{"android":"levelo://app?vid=8a817369-3b87-4d0a-964b-9af556fbe111","ios":"levelo://app?vid=8a817369-3b87-4d0a-964b-9af556fbe111"},"vehicle_type_id":"4","last_reported":1761077505,"current_range_meters":13600,"station_id":"ce4bh0p2rcd13ifvqd80","pricing_plan_id":"cebpf4jnsgd1na2vs0mg"},{"bike_id":"77f5b891-81b4-4d86-8920-e7f705c3abfc","system_id":"levelo_inurba_marseille","lat":43.24676,"lon":5.38159,"is_reserved":false,"is_disabled":false,"rental_uris":{"android":"levelo://app?vid=77f5b891-81b4-4d86-8920-e7f705c3abfc","ios":"levelo://app?vid=77f5b891-81b4-4d86-8920-e7f705c3abfc"},"vehicle_type_id":"4","last_reported":1761077505,"current_range_meters":13600,"station_id":"ce4bhih2rcd13ifvqfr0","pricing_plan_id":"cebpf4jnsgd1na2vs0mg"},{"bike_id":"d38bb17a-4ac6-4da6-829b-fc2ffe260364","system_id":"levelo_inurba_marseille","lat":43.31902,"lon":5.40749,"is_reserved":false,"is_disabled":true,"rental_uris":{"android":"levelo://app?vid=d38bb17a-4ac6-4da6-829b-fc2ffe260364","ios":"levelo://app?vid=d38bb17a-4ac6-4da6-829b-fc2ffe260364"},"vehicle_type_id":"4","last_reported":1761077505,"current_range_meters":14000,"station_id":"ce4bhq12rcd13ifvqhig","pricing_plan_id":"cebpf4jnsgd1na2vs0mg"},{"bike_id":"3201e625-69d5-420e-838c-f4c3f44666ef","system_id":"levelo_inurba_marseille","lat":43.33796,"lon":5.37435,"is_reserved":false,"is_disabled":false,"rental_uris":{"android":"levelo://app?vid=3201e625-69d5-420e-838c-f4c3f44666ef","ios":"levelo://app?vid=3201e625-69d5-420e-838c-f4c3f44666ef"},"vehicle_type_id":"4","last_reported":1761077505,"current_range_meters":14000,"station_id":"","pricing_plan_id":"cebpf4jnsgd1na2vs0mg"},{"bike_id":"ee83e065-d9fc-44f0-9d9f-6da9daf8092d","system_id":"levelo_inurba_marseille","lat":43.29527,"lon":5.38542,"is_reserved":false,"is_disabled":false,"rental_uris":{"android":"levelo://app?vid=ee83e065-d9fc-44f0-9d9f-6da9daf8092d","ios":"levelo://app?vid=ee83e065-d9fc-44f0-9d9f-6da9daf8092d"},"vehicle_type_id":"4","last_reported":1761077505,"current_range_meters":14000,"station_id":"ce4bgih2rcd13ifvqba0","pricing_plan_id":"cebpf4jnsgd1na2vs0mg"},{"bike_id":"9e400146-c0c5-4f9e-be86-49897f46d89b","system_id":"levelo_inurba_marseille","lat":43.28036,"lon":5.36955,"is_reserved":false,"is_disabled":false,"rental_uris":{"android":"levelo://app?vid=9e400146-c0c5-4f9e-be86-49897f46d89b","ios":"levelo://app?vid=9e400146-c0c5-4f9e-be86-49897f46d89b"},"vehicle_type_id":"4","last_reported":1761077505,"current_range_meters":14000,"station_id":"ce4bha12rcd13ifvqef0","pricing_plan_id":"cebpf4jnsgd1na2vs0mg"},{"bike_id":"bfb49ac8-7cd7-4abf-87fe-e5eac64a56b2","system_id":"levelo_inurba_marseille","lat":43.23961,"lon":5.36629,"is_reserved":false,"is_disabled":false,"rental_uris":{"android":"levelo://app?vid=bfb49ac8-7cd7-4abf-87fe-e5eac64a56b2","ios":"levelo://app?vid=bfb49ac8-7cd7-4abf-87fe-e5eac64a56b2"},"vehicle_type_id":"4","last_reported":1761077505,"current_range_meters":14000,"station_id":"ce4bhi12rcd13ifvqfp0","pricing_plan_id":"cebpf4jnsgd1na2vs0mg"},{"bike_id":"dcbac89b-d2e6-45b6-a5ad-666bb33b1a34","system_id":"levelo_inurba_marseille","lat":43.257928,"lon":5.396584,"is_reserved":false,"is_disabled":false,"rental_uris":{"android":"levelo://app?vid=dcbac89b-d2e6-45b6-a5ad-666bb33b1a34","ios":"levelo://app?vid=dcbac89b-d2e6-45b6-a5ad-666bb33b1a34"},"vehicle_type_id":"4","last_reported":1761077505,"current_range_meters":14000,"station_id":"","pricing_plan_id":"cebpf4jnsgd1na2vs0mg"},{"bike_id":"02f7835e-8895-43db-bc46-dc0659a292d5","system_id":"levelo_inurba_marseille","lat":43.29331,"lon":5.3707,"is_reserved":false,"is_disabled":false,"rental_uris":{"android":"levelo://app?vid=02f7835e-8895-43db-bc46-dc0659a292d5","ios":"levelo://app?vid=02f7835e-8895-43db-bc46-dc0659a292d5"},"vehicle_type_id":"4","last_reported":1761077505,"current_range_meters":14000,"station_id":"","pricing_plan_id":"cebpf4jnsgd1na2vs0mg"},{"bike_id":"d374eee5-eb3e-4e2e-b52e-f0b176d0b62c","system_id":"levelo_inurba_marseille","lat":43.271728,"lon":5.409974,"is_reserved":false,"is_disabled":false,"rental_uris":{"android":"levelo://app?vid=d374eee5-eb3e-4e2e-b52e-f0b176d0b62c","ios":"levelo://app?vid=d374eee5-eb3e-4e2e-b52e-f0b176d0b62c"},"vehicle_type_id":"4","last_reported":1761077505,"current_range_meters":14000,"station_id":"ce4bhl12rcd13ifvqgf0","pricing_plan_id":"cebpf4jnsgd1na2vs0mg"},{"bike_id":"d83ba3b5-f05f-4b3f-995a-05ad1a505367","system_id":"levelo_inurba_marseille","lat":43.31717,"lon":5.42395,"is_reserved":false,"is_disabled":false,"rental_uris":{"android":"levelo://app?vid=d83ba3b5-f05f-4b3f-995a-05ad1a505367","ios":"levelo://app?vid=d83ba3b5-f05f-4b3f-995a-05ad1a505367"},"vehicle_type_id":"4","last_reported":1761077505,"current_range_meters":14400,"station_id":"ce4bhp92rcd13ifvqhbg","pricing_plan_id":"cebpf4jnsgd1na2vs0mg"},{"bike_id":"050e0292-4fab-40c8-925e-41fe8741d54c","system_id":"levelo_inurba_marseille","lat":43.28947,"lon":5.38391,"is_reserved":false,"is_disabled":false,"rental_uris":{"android":"levelo://app?vid=050e0292-4fab-40c8-925e-41fe8741d54c","ios":"levelo://app?vid=050e0292-4fab-40c8-925e-41fe8741d54c"},"vehicle_type_id":"4","last_reported":1761077505,"current_range_meters":14400,"station_id":"ce4bh612rcd13ifvqe6g","pricing_plan_id":"cebpf4jnsgd1na2vs0mg"},{"bike_id":"6dd4a7ee-8152-4659-892f-16378cbee1a5","system_id":"levelo_inurba_marseille","lat":43.29444,"lon":5.39743,"is_reserved":false,"is_disabled":false,"rental_uris":{"android":"levelo://app?vid=6dd4a7ee-8152-4659-892f-16378cbee1a5","ios":"levelo://app?vid=6dd4a7ee-8152-4659-892f-16378cbee1a5"},"vehicle_type_id":"4","last_reported":1761077505,"current_range_meters":14400,"station_id":"ce4bh3h2rcd13ifvqdo0","pricing_plan_id":"cebpf4jnsgd1na2vs0mg"},{"bike_id":"323bf2de-3bb4-4b4c-b330-b19ea807dbf5","system_id":"levelo_inurba_marseille","lat":43.31068,"lon":5.38348,"is_reserved":false,"is_disabled":true,"rental_uris":{"android":"levelo://app?vid=323bf2de-3bb4-4b4c-b330-b19ea807dbf5","ios":"levelo://app?vid=323bf2de-3bb4-4b4c-b330-b19ea807dbf5"},"vehicle_type_id":"4","last_reported":1761077505,"current_range_meters":14400,"station_id":"ce4bgv92rcd13ifvqcr0","pricing_plan_id":"cebpf4jnsgd1na2vs0mg"},{"bike_id":"2c20ce77-04c5-4eed-a053-801c8e8d1b46","system_id":"levelo_inurba_marseille","lat":43.240688,"lon":5.377609,"is_reserved":false,"is_disabled":false,"rental_uris":{"android":"levelo://app?vid=2c20ce77-04c5-4eed-a053-801c8e8d1b46","ios":"levelo://app?vid=2c20ce77-04c5-4eed-a053-801c8e8d1b46"},"vehicle_type_id":"4","last_reported":1761077505,"current_range_meters":14400,"station_id":"ce4bhnp2rcd13ifvqgvg","pricing_plan_id":"cebpf4jnsgd1na2vs0mg"},{"bike_id":"6e283e8e-679d-4109-91c6-7241c217822f","system_id":"levelo_inurba_marseille","lat":43.28932,"lon":5.36643,"is_reserved":false,"is_disabled":false,"rental_uris":{"android":"levelo://app?vid=6e283e8e-679d-4109-91c6-7241c217822f","ios":"levelo://app?vid=6e283e8e-679d-4109-91c6-7241c217822f"},"vehicle_type_id":"4","last_reported":1761077505,"current_range_meters":14400,"station_id":"ce4bhap2rcd13ifvqek0","pricing_plan_id":"cebpf4jnsgd1na2vs0mg"},{"bike_id":"e158b5e3-0b91-4f03-9493-a8035b21b767","system_id":"levelo_inurba_marseille","lat":43.317565,"lon":5.390135,"is_reserved":false,"is_disabled":false,"rental_uris":{"android":"levelo://app?vid=e158b5e3-0b91-4f03-9493-a8035b21b767","ios":"levelo://app?vid=e158b5e3-0b91-4f03-9493-a8035b21b767"},"vehicle_type_id":"4","last_reported":1761077505,"current_range_meters":14800,"station_id":"ce4bhqp2rcd13ifvqhng","pricing_plan_id":"cebpf4jnsgd1na2vs0mg"},{"bike_id":"9bc111fd-29f3-4cb1-9beb-495913568111","system_id":"levelo_inurba_marseille","lat":43.31274,"lon":5.40173,"is_reserved":false,"is_disabled":false,"rental_uris":{"android":"levelo://app?vid=9bc111fd-29f3-4cb1-9beb-495913568111","ios":"levelo://app?vid=9bc111fd-29f3-4cb1-9beb-495913568111"},"vehicle_type_id":"4","last_reported":1761077505,"current_range_meters":14800,"station_id":"ce4bh092rcd13ifvqd30","pricing_plan_id":"cebpf4jnsgd1na2vs0mg"},{"bike_id":"89dd87c4-c8d0-4de7-8902-2b0447e67475","system_id":"levelo_inurba_marseille","lat":43.31232,"lon":5.36877,"is_reserved":false,"is_disabled":false,"rental_uris":{"android":"levelo://app?vid=89dd87c4-c8d0-4de7-8902-2b0447e67475","ios":"levelo://app?vid=89dd87c4-c8d0-4de7-8902-2b0447e67475"},"vehicle_type_id":"4","last_reported":1761077505,"current_range_meters":14800,"station_id":"","pricing_plan_id":"cebpf4jnsgd1na2vs0mg"},{"bike_id":"6003e7b4-0db9-4a2a-a64e-5c04746430c3","system_id":"levelo_inurba_marseille","lat":43.3093,"lon":5.40142,"is_reserved":false,"is_disabled":false,"rental_uris":{"android":"levelo://app?vid=6003e7b4-0db9-4a2a-a64e-5c04746430c3","ios":"levelo://app?vid=6003e7b4-0db9-4a2a-a64e-5c04746430c3"},"vehicle_type_id":"4","last_reported":1761077505,"current_range_meters":14800,"station_id":"ce4bgvp2rcd13ifvqct0","pricing_plan_id":"cebpf4jnsgd1na2vs0mg"},{"bike_id":"388e1b61-6d3e-40ad-adbf-c44f85ff4473","system_id":"levelo_inurba_marseille","lat":43.25517,"lon":5.37652,"is_reserved":false,"is_disabled":false,"rental_uris":{"android":"levelo://app?vid=388e1b61-6d3e-40ad-adbf-c44f85ff4473","ios":"levelo://app?vid=388e1b61-6d3e-40ad-adbf-c44f85ff4473"},"vehicle_type_id":"4","last_reported":1761077505,"current_range_meters":14800,"station_id":"ce4bhh12rcd13ifvqff0","pricing_plan_id":"cebpf4jnsgd1na2vs0mg"},{"bike_id":"4859d202-5dad-49c9-9955-c92097024800","system_id":"levelo_inurba_marseille","lat":43.29538,"lon":5.38546,"is_reserved":false,"is_disabled":false,"rental_uris":{"android":"levelo://app?vid=4859d202-5dad-49c9-9955-c92097024800","ios":"levelo://app?vid=4859d202-5dad-49c9-9955-c92097024800"},"vehicle_type_id":"4","last_reported":1761077505,"current_range_meters":14800,"station_id":"ce4bgih2rcd13ifvqba0","pricing_plan_id":"cebpf4jnsgd1na2vs0mg"},{"bike_id":"a79c6bd1-700c-48dd-854c-b0af28c99022","system_id":"levelo_inurba_marseille","lat":43.2463,"lon":5.43145,"is_reserved":false,"is_disabled":false,"rental_uris":{"android":"levelo://app?vid=a79c6bd1-700c-48dd-854c-b0af28c99022","ios":"levelo://app?vid=a79c6bd1-700c-48dd-854c-b0af28c99022"},"vehicle_type_id":"4","last_reported":1761077505,"current_range_meters":14800,"station_id":"st_d2m6c4gdas8pm72e190g","pricing_plan_id":"cebpf4jnsgd1na2vs0mg"},{"bike_id":"146c2516-bef0-44a7-b04d-fb80b55a97f2","system_id":"levelo_inurba_marseille","lat":43.30127,"lon":5.43115,"is_reserved":false,"is_disabled":false,"rental_uris":{"android":"levelo://app?vid=146c2516-bef0-44a7-b04d-fb80b55a97f2","ios":"levelo://app?vid=146c2516-bef0-44a7-b04d-fb80b55a97f2"},"vehicle_type_id":"4","last_reported":1761077505,"current_range_meters":15200,"station_id":"st_d3js3co5814s73ftftug","pricing_plan_id":"cebpf4jnsgd1na2vs0mg"},{"bike_id":"d175e9f5-e998-401c-8446-c42d1172247c","system_id":"levelo_inurba_marseille","lat":43.29526,"lon":5.39031,"is_reserved":false,"is_disabled":false,"rental_uris":{"android":"levelo://app?vid=d175e9f5-e998-401c-8446-c42d1172247c","ios":"levelo://app?vid=d175e9f5-e998-401c-8446-c42d1172247c"},"vehicle_type_id":"4","last_reported":1761077505,"current_range_meters":15200,"station_id":"ce4bh3p2rcd13ifvqdp0","pricing_plan_id":"cebpf4jnsgd1na2vs0mg"},{"bike_id":"ebe488b1-06cb-4b11-a16d-766dd25be857","system_id":"levelo_inurba_marseille","lat":43.280899,"lon":5.393042,"is_reserved":false,"is_disabled":false,"rental_uris":{"android":"levelo://app?vid=ebe488b1-06cb-4b11-a16d-766dd25be857","ios":"levelo://app?vid=ebe488b1-06cb-4b11-a16d-766dd25be857"},"vehicle_type_id":"4","last_reported":1761077505,"current_range_meters":15200,"station_id":"ce4bhoh2rcd13ifvqh5g","pricing_plan_id":"cebpf4jnsgd1na2vs0mg"},{"bike_id":"fc1bc7a0-b184-4250-aa8b-f4ac3d63bf77","system_id":"levelo_inurba_marseille","lat":43.26229,"lon":5.40451,"is_reserved":false,"is_disabled":false,"rental_uris":{"android":"levelo://app?vid=fc1bc7a0-b184-4250-aa8b-f4ac3d63bf77","ios":"levelo://app?vid=fc1bc7a0-b184-4250-aa8b-f4ac3d63bf77"},"vehicle_type_id":"4","last_reported":1761077505,"current_range_meters":15200,"station_id":"ce4bhmh2rcd13ifvqgmg","pricing_plan_id":"cebpf4jnsgd1na2vs0mg"},{"bike_id":"23d6a212-ff7f-450b-95e3-06f76be2ff8e","system_id":"levelo_inurba_marseille","lat":43.28097,"lon":5.39629,"is_reserved":false,"is_disabled":false,"rental_uris":{"android":"levelo://app?vid=23d6a212-ff7f-450b-95e3-06f76be2ff8e","ios":"levelo://app?vid=23d6a212-ff7f-450b-95e3-06f76be2ff8e"},"vehicle_type_id":"4","last_reported":1761077505,"current_range_meters":16000,"station_id":"ce4bho12rcd13ifvqh2g","pricing_plan_id":"cebpf4jnsgd1na2vs0mg"},{"bike_id":"2f2afaa0-2d28-48b9-b514-876a5e7d38c4","system_id":"levelo_inurba_marseille","lat":43.28227,"lon":5.39061,"is_reserved":false,"is_disabled":false,"rental_uris":{"android":"levelo://app?vid=2f2afaa0-2d28-48b9-b514-876a5e7d38c4","ios":"levelo://app?vid=2f2afaa0-2d28-48b9-b514-876a5e7d38c4"},"vehicle_type_id":"4","last_reported":1761077505,"current_range_meters":16000,"station_id":"ce4bhn92rcd13ifvqgsg","pricing_plan_id":"cebpf4jnsgd1na2vs0mg"},{"bike_id":"64d9e813-4fd3-4955-9199-a35ddf1a26f6","system_id":"levelo_inurba_marseille","lat":43.241657,"lon":5.364055,"is_reserved":false,"is_disabled":false,"rental_uris":{"android":"levelo://app?vid=64d9e813-4fd3-4955-9199-a35ddf1a26f6","ios":"levelo://app?vid=64d9e813-4fd3-4955-9199-a35ddf1a26f6"},"vehicle_type_id":"4","last_reported":1761077505,"current_range_meters":16000,"station_id":"cpo36qri1sfpv3e86is0","pricing_plan_id":"cebpf4jnsgd1na2vs0mg"},{"bike_id":"197aca6c-07ff-4cc6-97eb-2bdb88d086ec","system_id":"levelo_inurba_marseille","lat":43.284979,"lon":5.35006,"is_reserved":false,"is_disabled":false,"rental_uris":{"android":"levelo://app?vid=197aca6c-07ff-4cc6-97eb-2bdb88d086ec","ios":"levelo://app?vid=197aca6c-07ff-4cc6-97eb-2bdb88d086ec"},"vehicle_type_id":"4","last_reported":1761077505,"current_range_meters":16000,"station_id":"ce4bhbh2rcd13ifvqepg","pricing_plan_id":"cebpf4jnsgd1na2vs0mg"},{"bike_id":"7806f0ad-3899-40a9-8ada-cd96a2aba1eb","system_id":"levelo_inurba_marseille","lat":43.28944,"lon":5.36412,"is_reserved":false,"is_disabled":false,"rental_uris":{"android":"levelo://app?vid=7806f0ad-3899-40a9-8ada-cd96a2aba1eb","ios":"levelo://app?vid=7806f0ad-3899-40a9-8ada-cd96a2aba1eb"},"vehicle_type_id":"4","last_reported":1761077505,"current_range_meters":16000,"station_id":"ce4bhc92rcd13ifvqetg","pricing_plan_id":"cebpf4jnsgd1na2vs0mg"},{"bike_id":"bcac21ff-5f96-434a-bbd3-f15b93d38d84","system_id":"levelo_inurba_marseille","lat":43.280642,"lon":5.352788,"is_reserved":false,"is_disabled":false,"rental_uris":{"android":"levelo://app?vid=bcac21ff-5f96-434a-bbd3-f15b93d38d84","ios":"levelo://app?vid=bcac21ff-5f96-434a-bbd3-f15b93d38d84"},"vehicle_type_id":"4","last_reported":1761077505,"current_range_meters":16000,"station_id":"","pricing_plan_id":"cebpf4jnsgd1na2vs0mg"},{"bike_id":"a630ed88-3f05-4926-bbab-8387ab6b6a28","system_id":"levelo_inurba_marseille","lat":43.23149,"lon":5.43693,"is_reserved":false,"is_disabled":true,"rental_uris":{"android":"levelo://app?vid=a630ed88-3f05-4926-bbab-8387ab6b6a28","ios":"levelo://app?vid=a630ed88-3f05-4926-bbab-8387ab6b6a28"},"vehicle_type_id":"4","last_reported":1761077505,"current_range_meters":16000,"station_id":"ce4bhmp2rcd13ifvqgog","pricing_plan_id":"cebpf4jnsgd1na2vs0mg"},{"bike_id":"4e7e8f57-06ea-4923-b3c1-ea91802d5920","system_id":"levelo_inurba_marseille","lat":43.279904,"lon":5.416435,"is_reserved":false,"is_disabled":false,"rental_uris":{"android":"levelo://app?vid=4e7e8f57-06ea-4923-b3c1-ea91802d5920","ios":"levelo://app?vid=4e7e8f57-06ea-4923-b3c1-ea91802d5920"},"vehicle_type_id":"4","last_reported":1761077505,"current_range_meters":16000,"station_id":"ce4bho12rcd13ifvqh1g","pricing_plan_id":"cebpf4jnsgd1na2vs0mg"},{"bike_id":"4d49c897-b0fd-4635-a1c9-89d76ebe8453","system_id":"levelo_inurba_marseille","lat":43.29536,"lon":5.3853,"is_reserved":false,"is_disabled":false,"rental_uris":{"android":"levelo://app?vid=4d49c897-b0fd-4635-a1c9-89d76ebe8453","ios":"levelo://app?vid=4d49c897-b0fd-4635-a1c9-89d76ebe8453"},"vehicle_type_id":"4","last_reported":1761077505,"current_range_meters":16000,"station_id":"ce4bgih2rcd13ifvqba0","pricing_plan_id":"cebpf4jnsgd1na2vs0mg"},{"bike_id":"cf3a4a75-d73c-4c66-ac51-2e243e7e1c00","system_id":"levelo_inurba_marseille","lat":43.29544,"lon":5.38546,"is_reserved":false,"is_disabled":false,"rental_uris":{"android":"levelo://app?vid=cf3a4a75-d73c-4c66-ac51-2e243e7e1c00","ios":"levelo://app?vid=cf3a4a75-d73c-4c66-ac51-2e243e7e1c00"},"vehicle_type_id":"4","last_reported":1761077505,"current_range_meters":16400,"station_id":"ce4bgih2rcd13ifvqba0","pricing_plan_id":"cebpf4jnsgd1na2vs0mg"},{"bike_id":"c705d97c-f01c-4c67-bcff-c7d83dbc5f90","system_id":"levelo_inurba_marseille","lat":43.25497,"lon":5.37648,"is_reserved":false,"is_disabled":false,"rental_uris":{"android":"levelo://app?vid=c705d97c-f01c-4c67-bcff-c7d83dbc5f90","ios":"levelo://app?vid=c705d97c-f01c-4c67-bcff-c7d83dbc5f90"},"vehicle_type_id":"4","last_reported":1761077505,"current_range_meters":16400,"station_id":"ce4bhh12rcd13ifvqff0","pricing_plan_id":"cebpf4jnsgd1na2vs0mg"},{"bike_id":"0fc4d80c-3f3e-407d-a23c-7b085437a9a8","system_id":"levelo_inurba_marseille","lat":43.26557,"lon":5.3729,"is_reserved":false,"is_disabled":false,"rental_uris":{"android":"levelo://app?vid=0fc4d80c-3f3e-407d-a23c-7b085437a9a8","ios":"levelo://app?vid=0fc4d80c-3f3e-407d-a23c-7b085437a9a8"},"vehicle_type_id":"4","last_reported":1761077505,"current_range_meters":16400,"station_id":"ce4bhg12rcd13ifvqf70","pricing_plan_id":"cebpf4jnsgd1na2vs0mg"},{"bike_id":"6692e090-9792-45dd-b639-89e41212fa24","system_id":"levelo_inurba_marseille","lat":43.31308,"lon":5.3848,"is_reserved":false,"is_disabled":true,"rental_uris":{"android":"levelo://app?vid=6692e090-9792-45dd-b639-89e41212fa24","ios":"levelo://app?vid=6692e090-9792-45dd-b639-89e41212fa24"},"vehicle_type_id":"4","last_reported":1761077505,"current_range_meters":16400,"station_id":"","pricing_plan_id":"cebpf4jnsgd1na2vs0mg"},{"bike_id":"7c2a94d8-7026-4d4a-8f6c-43ca41b1f9fe","system_id":"levelo_inurba_marseille","lat":43.29577,"lon":5.36745,"is_reserved":false,"is_disabled":false,"rental_uris":{"android":"levelo://app?vid=7c2a94d8-7026-4d4a-8f6c-43ca41b1f9fe","ios":"levelo://app?vid=7c2a94d8-7026-4d4a-8f6c-43ca41b1f9fe"},"vehicle_type_id":"4","last_reported":1761077505,"current_range_meters":16400,"station_id":"ce4bgph2rcd13ifvqc2g","pricing_plan_id":"cebpf4jnsgd1na2vs0mg"},{"bike_id":"46e71a08-7e6c-4660-87ec-495dba3c6628","system_id":"levelo_inurba_marseille","lat":43.29662,"lon":5.36256,"is_reserved":false,"is_disabled":false,"rental_uris":{"android":"levelo://app?vid=46e71a08-7e6c-4660-87ec-495dba3c6628","ios":"levelo://app?vid=46e71a08-7e6c-4660-87ec-495dba3c6628"},"vehicle_type_id":"4","last_reported":1761077505,"current_range_meters":16400,"station_id":"","pricing_plan_id":"cebpf4jnsgd1na2vs0mg"},{"bike_id":"4970dc4d-8cf1-4f95-a468-969a12174cf8","system_id":"levelo_inurba_marseille","lat":43.28031,"lon":5.3696,"is_reserved":false,"is_disabled":false,"rental_uris":{"android":"levelo://app?vid=4970dc4d-8cf1-4f95-a468-969a12174cf8","ios":"levelo://app?vid=4970dc4d-8cf1-4f95-a468-969a12174cf8"},"vehicle_type_id":"4","last_reported":1761077505,"current_range_meters":16400,"station_id":"ce4bha12rcd13ifvqef0","pricing_plan_id":"cebpf4jnsgd1na2vs0mg"},{"bike_id":"37d01fc8-4b4d-4652-a489-1254eb9d4c80","system_id":"levelo_inurba_marseille","lat":43.34076,"lon":5.40411,"is_reserved":false,"is_disabled":false,"rental_uris":{"android":"levelo://app?vid=37d01fc8-4b4d-4652-a489-1254eb9d4c80","ios":"levelo://app?vid=37d01fc8-4b4d-4652-a489-1254eb9d4c80"},"vehicle_type_id":"4","last_reported":1761077505,"current_range_meters":16400,"station_id":"","pricing_plan_id":"cebpf4jnsgd1na2vs0mg"},{"bike_id":"5f0c4e6e-8342-4b95-87f4-4062bdcd73ed","system_id":"levelo_inurba_marseille","lat":43.29422,"lon":5.38613,"is_reserved":false,"is_disabled":false,"rental_uris":{"android":"levelo://app?vid=5f0c4e6e-8342-4b95-87f4-4062bdcd73ed","ios":"levelo://app?vid=5f0c4e6e-8342-4b95-87f4-4062bdcd73ed"},"vehicle_type_id":"4","last_reported":1761077505,"current_range_meters":16400,"station_id":"","pricing_plan_id":"cebpf4jnsgd1na2vs0mg"},{"bike_id":"6812c4d6-7176-4b3b-bc78-0a2d0536d7ab","system_id":"levelo_inurba_marseille","lat":43.31889,"lon":5.40735,"is_reserved":false,"is_disabled":false,"rental_uris":{"android":"levelo://app?vid=6812c4d6-7176-4b3b-bc78-0a2d0536d7ab","ios":"levelo://app?vid=6812c4d6-7176-4b3b-bc78-0a2d0536d7ab"},"vehicle_type_id":"4","last_reported":1761077505,"current_range_meters":16400,"station_id":"ce4bhq12rcd13ifvqhig","pricing_plan_id":"cebpf4jnsgd1na2vs0mg"},{"bike_id":"b869754e-ab30-4b29-93e2-c3b579cde905","system_id":"levelo_inurba_marseille","lat":43.270554,"lon":5.383084,"is_reserved":false,"is_disabled":false,"rental_uris":{"android":"levelo://app?vid=b869754e-ab30-4b29-93e2-c3b579cde905","ios":"levelo://app?vid=b869754e-ab30-4b29-93e2-c3b579cde905"},"vehicle_type_id":"4","last_reported":1761077505,"current_range_meters":16400,"station_id":"st_d3n2fo6cfp8s73cte1j0","pricing_plan_id":"cebpf4jnsgd1na2vs0mg"},{"bike_id":"e97fdad0-6b2d-4ae0-8462-b73762c6c8da","system_id":"levelo_inurba_marseille","lat":43.24663,"lon":5.38146,"is_reserved":false,"is_disabled":false,"rental_uris":{"android":"levelo://app?vid=e97fdad0-6b2d-4ae0-8462-b73762c6c8da","ios":"levelo://app?vid=e97fdad0-6b2d-4ae0-8462-b73762c6c8da"},"vehicle_type_id":"4","last_reported":1761077505,"current_range_meters":16800,"station_id":"ce4bhih2rcd13ifvqfr0","pricing_plan_id":"cebpf4jnsgd1na2vs0mg"},{"bike_id":"e97cee2c-2821-4589-ad0d-39b7b7c16139","system_id":"levelo_inurba_marseille","lat":43.29612,"lon":5.37715,"is_reserved":false,"is_disabled":true,"rental_uris":{"android":"levelo://app?vid=e97cee2c-2821-4589-ad0d-39b7b7c16139","ios":"levelo://app?vid=e97cee2c-2821-4589-ad0d-39b7b7c16139"},"vehicle_type_id":"4","last_reported":1761077505,"current_range_meters":16800,"station_id":"ce4bgi92rcd13ifvqb90","pricing_plan_id":"cebpf4jnsgd1na2vs0mg"},{"bike_id":"396aaa55-c35f-41fc-8337-93bac25c9dde","system_id":"levelo_inurba_marseille","lat":43.29233,"lon":5.35567,"is_reserved":false,"is_disabled":false,"rental_uris":{"android":"levelo://app?vid=396aaa55-c35f-41fc-8337-93bac25c9dde","ios":"levelo://app?vid=396aaa55-c35f-41fc-8337-93bac25c9dde"},"vehicle_type_id":"4","last_reported":1761077505,"current_range_meters":16800,"station_id":"","pricing_plan_id":"cebpf4jnsgd1na2vs0mg"},{"bike_id":"464bd8a3-6573-4884-b980-774e68ad4ab1","system_id":"levelo_inurba_marseille","lat":43.27179,"lon":5.40982,"is_reserved":false,"is_disabled":false,"rental_uris":{"android":"levelo://app?vid=464bd8a3-6573-4884-b980-774e68ad4ab1","ios":"levelo://app?vid=464bd8a3-6573-4884-b980-774e68ad4ab1"},"vehicle_type_id":"4","last_reported":1761077505,"current_range_meters":16800,"station_id":"ce4bhl12rcd13ifvqgf0","pricing_plan_id":"cebpf4jnsgd1na2vs0mg"},{"bike_id":"53c6235b-6e0c-4c8b-8256-bfcb035bd976","system_id":"levelo_inurba_marseille","lat":43.28472,"lon":5.38401,"is_reserved":false,"is_disabled":false,"rental_uris":{"android":"levelo://app?vid=53c6235b-6e0c-4c8b-8256-bfcb035bd976","ios":"levelo://app?vid=53c6235b-6e0c-4c8b-8256-bfcb035bd976"},"vehicle_type_id":"4","last_reported":1761077505,"current_range_meters":16800,"station_id":"ce4bh512rcd13ifvqe3g","pricing_plan_id":"cebpf4jnsgd1na2vs0mg"},{"bike_id":"308f8cba-b1f6-4e99-be2f-64867b2154b0","system_id":"levelo_inurba_marseille","lat":43.28698,"lon":5.37388,"is_reserved":false,"is_disabled":false,"rental_uris":{"android":"levelo://app?vid=308f8cba-b1f6-4e99-be2f-64867b2154b0","ios":"levelo://app?vid=308f8cba-b1f6-4e99-be2f-64867b2154b0"},"vehicle_type_id":"4","last_reported":1761077505,"current_range_meters":16800,"station_id":"ce4bh3p2rcd13ifvqdq0","pricing_plan_id":"cebpf4jnsgd1na2vs0mg"},{"bike_id":"1076dde3-8639-4cf4-bcda-71235bfc34ae","system_id":"levelo_inurba_marseille","lat":43.29546,"lon":5.3854,"is_reserved":false,"is_disabled":false,"rental_uris":{"android":"levelo://app?vid=1076dde3-8639-4cf4-bcda-71235bfc34ae","ios":"levelo://app?vid=1076dde3-8639-4cf4-bcda-71235bfc34ae"},"vehicle_type_id":"4","last_reported":1761077505,"current_range_meters":17200,"station_id":"ce4bgih2rcd13ifvqba0","pricing_plan_id":"cebpf4jnsgd1na2vs0mg"},{"bike_id":"d00f4c2a-3594-49b4-b41c-198467814d53","system_id":"levelo_inurba_marseille","lat":43.24074,"lon":5.37742,"is_reserved":false,"is_disabled":false,"rental_uris":{"android":"levelo://app?vid=d00f4c2a-3594-49b4-b41c-198467814d53","ios":"levelo://app?vid=d00f4c2a-3594-49b4-b41c-198467814d53"},"vehicle_type_id":"4","last_reported":1761077505,"current_range_meters":17200,"station_id":"ce4bhnp2rcd13ifvqgvg","pricing_plan_id":"cebpf4jnsgd1na2vs0mg"},{"bike_id":"c3ea6a13-2909-4818-a4ac-ba6b4120ef87","system_id":"levelo_inurba_marseille","lat":43.295281,"lon":5.385363,"is_reserved":false,"is_disabled":false,"rental_uris":{"android":"levelo://app?vid=c3ea6a13-2909-4818-a4ac-ba6b4120ef87","ios":"levelo://app?vid=c3ea6a13-2909-4818-a4ac-ba6b4120ef87"},"vehicle_type_id":"4","last_reported":1761077505,"current_range_meters":17200,"station_id":"ce4bgih2rcd13ifvqba0","pricing_plan_id":"cebpf4jnsgd1na2vs0mg"},{"bike_id":"17377fec-cd98-4e6d-8185-9791e1d12e79","system_id":"levelo_inurba_marseille","lat":43.29314,"lon":5.3718,"is_reserved":false,"is_disabled":false,"rental_uris":{"android":"levelo://app?vid=17377fec-cd98-4e6d-8185-9791e1d12e79","ios":"levelo://app?vid=17377fec-cd98-4e6d-8185-9791e1d12e79"},"vehicle_type_id":"4","last_reported":1761077505,"current_range_meters":17200,"station_id":"ce4bgh92rcd13ifvqb40","pricing_plan_id":"cebpf4jnsgd1na2vs0mg"},{"bike_id":"1ae4f4ba-cdf3-4681-97bc-7048fb9fbd77","system_id":"levelo_inurba_marseille","lat":43.27817,"lon":5.39217,"is_reserved":false,"is_disabled":false,"rental_uris":{"android":"levelo://app?vid=1ae4f4ba-cdf3-4681-97bc-7048fb9fbd77","ios":"levelo://app?vid=1ae4f4ba-cdf3-4681-97bc-7048fb9fbd77"},"vehicle_type_id":"4","last_reported":1761077505,"current_range_meters":17200,"station_id":"ce4bhjp2rcd13ifvqga0","pricing_plan_id":"cebpf4jnsgd1na2vs0mg"},{"bike_id":"089d4cb1-ba21-4116-9c9b-9fa8bd0b9a0b","system_id":"levelo_inurba_marseille","lat":43.30598,"lon":5.39353,"is_reserved":false,"is_disabled":false,"rental_uris":{"android":"levelo://app?vid=089d4cb1-ba21-4116-9c9b-9fa8bd0b9a0b","ios":"levelo://app?vid=089d4cb1-ba21-4116-9c9b-9fa8bd0b9a0b"},"vehicle_type_id":"4","last_reported":1761077505,"current_range_meters":17200,"station_id":"ce4bh0p2rcd13ifvqd80","pricing_plan_id":"cebpf4jnsgd1na2vs0mg"},{"bike_id":"a03e674e-6b92-4f08-91a0-49a582814e89","system_id":"levelo_inurba_marseille","lat":43.24179,"lon":5.39729,"is_reserved":false,"is_disabled":true,"rental_uris":{"android":"levelo://app?vid=a03e674e-6b92-4f08-91a0-49a582814e89","ios":"levelo://app?vid=a03e674e-6b92-4f08-91a0-49a582814e89"},"vehicle_type_id":"4","last_reported":1761077505,"current_range_meters":17200,"station_id":"ce4bhn12rcd13ifvqgpg","pricing_plan_id":"cebpf4jnsgd1na2vs0mg"},{"bike_id":"7325e0d5-1f64-42eb-8859-a9816ead8f9d","system_id":"levelo_inurba_marseille","lat":43.28488,"lon":5.3843,"is_reserved":false,"is_disabled":false,"rental_uris":{"android":"levelo://app?vid=7325e0d5-1f64-42eb-8859-a9816ead8f9d","ios":"levelo://app?vid=7325e0d5-1f64-42eb-8859-a9816ead8f9d"},"vehicle_type_id":"4","last_reported":1761077505,"current_range_meters":17200,"station_id":"ce4bh512rcd13ifvqe3g","pricing_plan_id":"cebpf4jnsgd1na2vs0mg"},{"bike_id":"55c7a453-1df8-47bd-b584-9d37339773fa","system_id":"levelo_inurba_marseille","lat":43.32176,"lon":5.38859,"is_reserved":false,"is_disabled":false,"rental_uris":{"android":"levelo://app?vid=55c7a453-1df8-47bd-b584-9d37339773fa","ios":"levelo://app?vid=55c7a453-1df8-47bd-b584-9d37339773fa"},"vehicle_type_id":"4","last_reported":1761077505,"current_range_meters":17600,"station_id":"","pricing_plan_id":"cebpf4jnsgd1na2vs0mg"},{"bike_id":"0fcb097a-da7e-421a-af94-af87c3557481","system_id":"levelo_inurba_marseille","lat":43.29476,"lon":5.43286,"is_reserved":false,"is_disabled":false,"rental_uris":{"android":"levelo://app?vid=0fcb097a-da7e-421a-af94-af87c3557481","ios":"levelo://app?vid=0fcb097a-da7e-421a-af94-af87c3557481"},"vehicle_type_id":"4","last_reported":1761077505,"current_range_meters":17600,"station_id":"st_d3j5ugp08ojc73fj9d10","pricing_plan_id":"cebpf4jnsgd1na2vs0mg"},{"bike_id":"5b2fb394-b654-4cda-abea-19d87e1a4938","system_id":"levelo_inurba_marseille","lat":43.240822,"lon":5.377519,"is_reserved":false,"is_disabled":false,"rental_uris":{"android":"levelo://app?vid=5b2fb394-b654-4cda-abea-19d87e1a4938","ios":"levelo://app?vid=5b2fb394-b654-4cda-abea-19d87e1a4938"},"vehicle_type_id":"4","last_reported":1761077505,"current_range_meters":17600,"station_id":"ce4bhnp2rcd13ifvqgvg","pricing_plan_id":"cebpf4jnsgd1na2vs0mg"},{"bike_id":"431d1b90-a61f-4e77-9edc-43bc7e93ecb0","system_id":"levelo_inurba_marseille","lat":43.30263,"lon":5.40072,"is_reserved":false,"is_disabled":false,"rental_uris":{"android":"levelo://app?vid=431d1b90-a61f-4e77-9edc-43bc7e93ecb0","ios":"levelo://app?vid=431d1b90-a61f-4e77-9edc-43bc7e93ecb0"},"vehicle_type_id":"4","last_reported":1761077505,"current_range_meters":17600,"station_id":"ce4bgvh2rcd13ifvqcs0","pricing_plan_id":"cebpf4jnsgd1na2vs0mg"},{"bike_id":"56c8c584-6136-4c4c-b1d5-e38b41f24523","system_id":"levelo_inurba_marseille","lat":43.267672,"lon":5.378123,"is_reserved":false,"is_disabled":false,"rental_uris":{"android":"levelo://app?vid=56c8c584-6136-4c4c-b1d5-e38b41f24523","ios":"levelo://app?vid=56c8c584-6136-4c4c-b1d5-e38b41f24523"},"vehicle_type_id":"4","last_reported":1761077505,"current_range_meters":17600,"station_id":"ce4bhg12rcd13ifvqf70","pricing_plan_id":"cebpf4jnsgd1na2vs0mg"},{"bike_id":"aa8d0579-c936-4d46-bc5d-182afe53443d","system_id":"levelo_inurba_marseille","lat":43.28841,"lon":5.3931,"is_reserved":false,"is_disabled":false,"rental_uris":{"android":"levelo://app?vid=aa8d0579-c936-4d46-bc5d-182afe53443d","ios":"levelo://app?vid=aa8d0579-c936-4d46-bc5d-182afe53443d"},"vehicle_type_id":"4","last_reported":1761077505,"current_range_meters":17600,"station_id":"ce4bh2p2rcd13ifvqdi0","pricing_plan_id":"cebpf4jnsgd1na2vs0mg"},{"bike_id":"de11f970-f070-4c6b-97f0-c0c05608ca93","system_id":"levelo_inurba_marseille","lat":43.3089,"lon":5.39632,"is_reserved":false,"is_disabled":false,"rental_uris":{"android":"levelo://app?vid=de11f970-f070-4c6b-97f0-c0c05608ca93","ios":"levelo://app?vid=de11f970-f070-4c6b-97f0-c0c05608ca93"},"vehicle_type_id":"4","last_reported":1761077505,"current_range_meters":17600,"station_id":"ce4bh012rcd13ifvqcv0","pricing_plan_id":"cebpf4jnsgd1na2vs0mg"},{"bike_id":"8517d2ad-4627-4d5c-b43d-563f1cd29009","system_id":"levelo_inurba_marseille","lat":43.30448,"lon":5.36844,"is_reserved":false,"is_disabled":false,"rental_uris":{"android":"levelo://app?vid=8517d2ad-4627-4d5c-b43d-563f1cd29009","ios":"levelo://app?vid=8517d2ad-4627-4d5c-b43d-563f1cd29009"},"vehicle_type_id":"4","last_reported":1761077505,"current_range_meters":18000,"station_id":"","pricing_plan_id":"cebpf4jnsgd1na2vs0mg"},{"bike_id":"7840c083-bb60-4fe6-b75c-9eac856f5096","system_id":"levelo_inurba_marseille","lat":43.297966,"lon":5.371096,"is_reserved":false,"is_disabled":false,"rental_uris":{"android":"levelo://app?vid=7840c083-bb60-4fe6-b75c-9eac856f5096","ios":"levelo://app?vid=7840c083-bb60-4fe6-b75c-9eac856f5096"},"vehicle_type_id":"4","last_reported":1761077505,"current_range_meters":18000,"station_id":"ce4bgop2rcd13ifvqc1g","pricing_plan_id":"cebpf4jnsgd1na2vs0mg"},{"bike_id":"09438769-f7b8-4321-99f5-2a5ce4383407","system_id":"levelo_inurba_marseille","lat":43.3117,"lon":5.38731,"is_reserved":false,"is_disabled":false,"rental_uris":{"android":"levelo://app?vid=09438769-f7b8-4321-99f5-2a5ce4383407","ios":"levelo://app?vid=09438769-f7b8-4321-99f5-2a5ce4383407"},"vehicle_type_id":"4","last_reported":1761077505,"current_range_meters":18000,"station_id":"ce4bgv12rcd13ifvqcp0","pricing_plan_id":"cebpf4jnsgd1na2vs0mg"},{"bike_id":"39971c2d-fffd-44b6-88ec-21cf5c9da271","system_id":"levelo_inurba_marseille","lat":43.25333,"lon":5.42168,"is_reserved":false,"is_disabled":false,"rental_uris":{"android":"levelo://app?vid=39971c2d-fffd-44b6-88ec-21cf5c9da271","ios":"levelo://app?vid=39971c2d-fffd-44b6-88ec-21cf5c9da271"},"vehicle_type_id":"4","last_reported":1761077505,"current_range_meters":18000,"station_id":"st_d2m65c5bi1j21697t3ng","pricing_plan_id":"cebpf4jnsgd1na2vs0mg"},{"bike_id":"b61e6817-4496-4ad7-ab43-b524af2e26e5","system_id":"levelo_inurba_marseille","lat":43.2866,"lon":5.38661,"is_reserved":false,"is_disabled":false,"rental_uris":{"android":"levelo://app?vid=b61e6817-4496-4ad7-ab43-b524af2e26e5","ios":"levelo://app?vid=b61e6817-4496-4ad7-ab43-b524af2e26e5"},"vehicle_type_id":"4","last_reported":1761077505,"current_range_meters":18000,"station_id":"","pricing_plan_id":"cebpf4jnsgd1na2vs0mg"},{"bike_id":"39d028de-70c8-4d26-84ce-4c16a8f902b0","system_id":"levelo_inurba_marseille","lat":43.2958,"lon":5.39976,"is_reserved":false,"is_disabled":false,"rental_uris":{"android":"levelo://app?vid=39d028de-70c8-4d26-84ce-4c16a8f902b0","ios":"levelo://app?vid=39d028de-70c8-4d26-84ce-4c16a8f902b0"},"vehicle_type_id":"4","last_reported":1761077505,"current_range_meters":18000,"station_id":"ce4bh312rcd13ifvqdj0","pricing_plan_id":"cebpf4jnsgd1na2vs0mg"},{"bike_id":"07e992db-48e1-481b-a50e-3b491cfc1455","system_id":"levelo_inurba_marseille","lat":43.31991,"lon":5.41291,"is_reserved":false,"is_disabled":false,"rental_uris":{"android":"levelo://app?vid=07e992db-48e1-481b-a50e-3b491cfc1455","ios":"levelo://app?vid=07e992db-48e1-481b-a50e-3b491cfc1455"},"vehicle_type_id":"4","last_reported":1761077505,"current_range_meters":18000,"station_id":"","pricing_plan_id":"cebpf4jnsgd1na2vs0mg"},{"bike_id":"ca9ec66b-e4f4-4b30-93ef-0865bce333e4","system_id":"levelo_inurba_marseille","lat":43.29536,"lon":5.38516,"is_reserved":false,"is_disabled":false,"rental_uris":{"android":"levelo://app?vid=ca9ec66b-e4f4-4b30-93ef-0865bce333e4","ios":"levelo://app?vid=ca9ec66b-e4f4-4b30-93ef-0865bce333e4"},"vehicle_type_id":"4","last_reported":1761077505,"current_range_meters":18000,"station_id":"ce4bgih2rcd13ifvqba0","pricing_plan_id":"cebpf4jnsgd1na2vs0mg"},{"bike_id":"eebaff45-f078-4c97-b906-b4e2a47c3dc4","system_id":"levelo_inurba_marseille","lat":43.29786,"lon":5.38763,"is_reserved":false,"is_disabled":false,"rental_uris":{"android":"levelo://app?vid=eebaff45-f078-4c97-b906-b4e2a47c3dc4","ios":"levelo://app?vid=eebaff45-f078-4c97-b906-b4e2a47c3dc4"},"vehicle_type_id":"4","last_reported":1761077505,"current_range_meters":18000,"station_id":"","pricing_plan_id":"cebpf4jnsgd1na2vs0mg"},{"bike_id":"6c6c8f78-4b52-4042-b284-7aedf9af2bf4","system_id":"levelo_inurba_marseille","lat":43.28975,"lon":5.37877,"is_reserved":false,"is_disabled":false,"rental_uris":{"android":"levelo://app?vid=6c6c8f78-4b52-4042-b284-7aedf9af2bf4","ios":"levelo://app?vid=6c6c8f78-4b52-4042-b284-7aedf9af2bf4"},"vehicle_type_id":"4","last_reported":1761077505,"current_range_meters":18800,"station_id":"ce4bh9p2rcd13ifvqed0","pricing_plan_id":"cebpf4jnsgd1na2vs0mg"},{"bike_id":"bbd08cf4-31da-4d68-b46e-697f80190f23","system_id":"levelo_inurba_marseille","lat":43.27181,"lon":5.41006,"is_reserved":false,"is_disabled":false,"rental_uris":{"android":"levelo://app?vid=bbd08cf4-31da-4d68-b46e-697f80190f23","ios":"levelo://app?vid=bbd08cf4-31da-4d68-b46e-697f80190f23"},"vehicle_type_id":"4","last_reported":1761077505,"current_range_meters":18800,"station_id":"ce4bhl12rcd13ifvqgf0","pricing_plan_id":"cebpf4jnsgd1na2vs0mg"},{"bike_id":"e2b21b94-f1f1-457a-80aa-2e53da69f7d8","system_id":"levelo_inurba_marseille","lat":43.31486,"lon":5.37311,"is_reserved":false,"is_disabled":false,"rental_uris":{"android":"levelo://app?vid=e2b21b94-f1f1-457a-80aa-2e53da69f7d8","ios":"levelo://app?vid=e2b21b94-f1f1-457a-80aa-2e53da69f7d8"},"vehicle_type_id":"4","last_reported":1761077505,"current_range_meters":18800,"station_id":"ce4bgt12rcd13ifvqcd0","pricing_plan_id":"cebpf4jnsgd1na2vs0mg"},{"bike_id":"0bfa1008-b1d1-4f95-81ce-2f09bf25d6ec","system_id":"levelo_inurba_marseille","lat":43.28754,"lon":5.38568,"is_reserved":false,"is_disabled":false,"rental_uris":{"android":"levelo://app?vid=0bfa1008-b1d1-4f95-81ce-2f09bf25d6ec","ios":"levelo://app?vid=0bfa1008-b1d1-4f95-81ce-2f09bf25d6ec"},"vehicle_type_id":"4","last_reported":1761077505,"current_range_meters":18800,"station_id":"","pricing_plan_id":"cebpf4jnsgd1na2vs0mg"},{"bike_id":"415179a7-2d88-422a-bebd-ab5d5bf72e3d","system_id":"levelo_inurba_marseille","lat":43.319933,"lon":5.381566,"is_reserved":false,"is_disabled":false,"rental_uris":{"android":"levelo://app?vid=415179a7-2d88-422a-bebd-ab5d5bf72e3d","ios":"levelo://app?vid=415179a7-2d88-422a-bebd-ab5d5bf72e3d"},"vehicle_type_id":"4","last_reported":1761077505,"current_range_meters":18800,"station_id":"ce4bhr12rcd13ifvqhpg","pricing_plan_id":"cebpf4jnsgd1na2vs0mg"},{"bike_id":"3d7013be-dfe4-430a-97e8-197a834810ee","system_id":"levelo_inurba_marseille","lat":43.24648,"lon":5.38888,"is_reserved":false,"is_disabled":false,"rental_uris":{"android":"levelo://app?vid=3d7013be-dfe4-430a-97e8-197a834810ee","ios":"levelo://app?vid=3d7013be-dfe4-430a-97e8-197a834810ee"},"vehicle_type_id":"4","last_reported":1761077505,"current_range_meters":19200,"station_id":"ce4bhg12rcd13ifvqf60","pricing_plan_id":"cebpf4jnsgd1na2vs0mg"},{"bike_id":"9870a68d-ae62-4bec-82c3-a7443a850bdc","system_id":"levelo_inurba_marseille","lat":43.312357,"lon":5.378043,"is_reserved":false,"is_disabled":false,"rental_uris":{"android":"levelo://app?vid=9870a68d-ae62-4bec-82c3-a7443a850bdc","ios":"levelo://app?vid=9870a68d-ae62-4bec-82c3-a7443a850bdc"},"vehicle_type_id":"4","last_reported":1761077505,"current_range_meters":19200,"station_id":"","pricing_plan_id":"cebpf4jnsgd1na2vs0mg"},{"bike_id":"a7852824-e2a4-479b-99b4-cb953138df6f","system_id":"levelo_inurba_marseille","lat":43.22944,"lon":5.35378,"is_reserved":false,"is_disabled":false,"rental_uris":{"android":"levelo://app?vid=a7852824-e2a4-479b-99b4-cb953138df6f","ios":"levelo://app?vid=a7852824-e2a4-479b-99b4-cb953138df6f"},"vehicle_type_id":"4","last_reported":1761077505,"current_range_meters":19200,"station_id":"cpo3532slgdg3j2ikp40","pricing_plan_id":"cebpf4jnsgd1na2vs0mg"},{"bike_id":"e01c0407-9fea-4afc-844a-8e1d738fcda5","system_id":"levelo_inurba_marseille","lat":43.24201,"lon":5.36362,"is_reserved":false,"is_disabled":false,"rental_uris":{"android":"levelo://app?vid=e01c0407-9fea-4afc-844a-8e1d738fcda5","ios":"levelo://app?vid=e01c0407-9fea-4afc-844a-8e1d738fcda5"},"vehicle_type_id":"4","last_reported":1761077505,"current_range_meters":19200,"station_id":"cpo36qri1sfpv3e86is0","pricing_plan_id":"cebpf4jnsgd1na2vs0mg"},{"bike_id":"0289d540-3ab2-4058-8d5f-f384081982dd","system_id":"levelo_inurba_marseille","lat":43.29511,"lon":5.38536,"is_reserved":false,"is_disabled":false,"rental_uris":{"android":"levelo://app?vid=0289d540-3ab2-4058-8d5f-f384081982dd","ios":"levelo://app?vid=0289d540-3ab2-4058-8d5f-f384081982dd"},"vehicle_type_id":"4","last_reported":1761077505,"current_range_meters":19200,"station_id":"ce4bgih2rcd13ifvqba0","pricing_plan_id":"cebpf4jnsgd1na2vs0mg"},{"bike_id":"618a9c44-e479-45b6-b144-58d3228e3132","system_id":"levelo_inurba_marseille","lat":43.24646,"lon":5.38869,"is_reserved":false,"is_disabled":false,"rental_uris":{"android":"levelo://app?vid=618a9c44-e479-45b6-b144-58d3228e3132","ios":"levelo://app?vid=618a9c44-e479-45b6-b144-58d3228e3132"},"vehicle_type_id":"4","last_reported":1761077505,"current_range_meters":19200,"station_id":"ce4bhg12rcd13ifvqf60","pricing_plan_id":"cebpf4jnsgd1na2vs0mg"},{"bike_id":"72e9e74e-f521-43f9-afe4-4bb83ba08fa7","system_id":"levelo_inurba_marseille","lat":43.292647,"lon":5.384373,"is_reserved":false,"is_disabled":false,"rental_uris":{"android":"levelo://app?vid=72e9e74e-f521-43f9-afe4-4bb83ba08fa7","ios":"levelo://app?vid=72e9e74e-f521-43f9-afe4-4bb83ba08fa7"},"vehicle_type_id":"4","last_reported":1761077505,"current_range_meters":19200,"station_id":"ce4bh692rcd13ifvqea0","pricing_plan_id":"cebpf4jnsgd1na2vs0mg"},{"bike_id":"289b230a-29f5-4376-83f4-304d3980e189","system_id":"levelo_inurba_marseille","lat":43.28483,"lon":5.38403,"is_reserved":false,"is_disabled":false,"rental_uris":{"android":"levelo://app?vid=289b230a-29f5-4376-83f4-304d3980e189","ios":"levelo://app?vid=289b230a-29f5-4376-83f4-304d3980e189"},"vehicle_type_id":"4","last_reported":1761077505,"current_range_meters":19200,"station_id":"ce4bh512rcd13ifvqe3g","pricing_plan_id":"cebpf4jnsgd1na2vs0mg"},{"bike_id":"73e0321b-2ae7-44e3-bd27-ed59494547b1","system_id":"levelo_inurba_marseille","lat":43.27933,"lon":5.41094,"is_reserved":false,"is_disabled":false,"rental_uris":{"android":"levelo://app?vid=73e0321b-2ae7-44e3-bd27-ed59494547b1","ios":"levelo://app?vid=73e0321b-2ae7-44e3-bd27-ed59494547b1"},"vehicle_type_id":"4","last_reported":1761077505,"current_range_meters":19200,"station_id":"ce4bhnp2rcd13ifvqh0g","pricing_plan_id":"cebpf4jnsgd1na2vs0mg"},{"bike_id":"9d8bcd8e-8ecf-425f-98ef-b7c9398172e2","system_id":"levelo_inurba_marseille","lat":43.32356,"lon":5.36753,"is_reserved":false,"is_disabled":false,"rental_uris":{"android":"levelo://app?vid=9d8bcd8e-8ecf-425f-98ef-b7c9398172e2","ios":"levelo://app?vid=9d8bcd8e-8ecf-425f-98ef-b7c9398172e2"},"vehicle_type_id":"4","last_reported":1761077505,"current_range_meters":19200,"station_id":"ce4bhsh2rcd13ifvqi2g","pricing_plan_id":"cebpf4jnsgd1na2vs0mg"},{"bike_id":"74a48bc3-2325-4a2b-a709-af187880e6b0","system_id":"levelo_inurba_marseille","lat":43.31725,"lon":5.42387,"is_reserved":false,"is_disabled":false,"rental_uris":{"android":"levelo://app?vid=74a48bc3-2325-4a2b-a709-af187880e6b0","ios":"levelo://app?vid=74a48bc3-2325-4a2b-a709-af187880e6b0"},"vehicle_type_id":"4","last_reported":1761077505,"current_range_meters":19200,"station_id":"ce4bhp92rcd13ifvqhbg","pricing_plan_id":"cebpf4jnsgd1na2vs0mg"},{"bike_id":"dfab2aee-fa0f-4edc-ba1a-453183342d6e","system_id":"levelo_inurba_marseille","lat":43.28105,"lon":5.37835,"is_reserved":false,"is_disabled":false,"rental_uris":{"android":"levelo://app?vid=dfab2aee-fa0f-4edc-ba1a-453183342d6e","ios":"levelo://app?vid=dfab2aee-fa0f-4edc-ba1a-453183342d6e"},"vehicle_type_id":"4","last_reported":1761077505,"current_range_meters":19200,"station_id":"ce4bha12rcd13ifvqee0","pricing_plan_id":"cebpf4jnsgd1na2vs0mg"},{"bike_id":"98e308ba-c366-4ae3-b56c-096955d0f9df","system_id":"levelo_inurba_marseille","lat":43.2792,"lon":5.39588,"is_reserved":false,"is_disabled":false,"rental_uris":{"android":"levelo://app?vid=98e308ba-c366-4ae3-b56c-096955d0f9df","ios":"levelo://app?vid=98e308ba-c366-4ae3-b56c-096955d0f9df"},"vehicle_type_id":"4","last_reported":1761077505,"current_range_meters":19200,"station_id":"ce4bhf92rcd13ifvqf40","pricing_plan_id":"cebpf4jnsgd1na2vs0mg"},{"bike_id":"d599766f-13ba-4ccb-9669-3db338b97e3c","system_id":"levelo_inurba_marseille","lat":43.31113,"lon":5.37764,"is_reserved":false,"is_disabled":false,"rental_uris":{"android":"levelo://app?vid=d599766f-13ba-4ccb-9669-3db338b97e3c","ios":"levelo://app?vid=d599766f-13ba-4ccb-9669-3db338b97e3c"},"vehicle_type_id":"4","last_reported":1761077505,"current_range_meters":19600,"station_id":"ce4bgt92rcd13ifvqcg0","pricing_plan_id":"cebpf4jnsgd1na2vs0mg"},{"bike_id":"ee94b253-5a8f-4b7c-b21d-91c3ee7e7c96","system_id":"levelo_inurba_marseille","lat":43.28727,"lon":5.37941,"is_reserved":false,"is_disabled":true,"rental_uris":{"android":"levelo://app?vid=ee94b253-5a8f-4b7c-b21d-91c3ee7e7c96","ios":"levelo://app?vid=ee94b253-5a8f-4b7c-b21d-91c3ee7e7c96"},"vehicle_type_id":"4","last_reported":1761077505,"current_range_meters":19600,"station_id":"ce4bh9p2rcd13ifvqec0","pricing_plan_id":"cebpf4jnsgd1na2vs0mg"},{"bike_id":"21242832-1afa-4abf-a424-b15ba740ba04","system_id":"levelo_inurba_marseille","lat":43.28717,"lon":5.37927,"is_reserved":false,"is_disabled":false,"rental_uris":{"android":"levelo://app?vid=21242832-1afa-4abf-a424-b15ba740ba04","ios":"levelo://app?vid=21242832-1afa-4abf-a424-b15ba740ba04"},"vehicle_type_id":"4","last_reported":1761077505,"current_range_meters":20000,"station_id":"ce4bh9p2rcd13ifvqec0","pricing_plan_id":"cebpf4jnsgd1na2vs0mg"},{"bike_id":"4b8a08de-0958-48f0-ba99-b0f65890d14f","system_id":"levelo_inurba_marseille","lat":43.2837,"lon":5.38641,"is_reserved":false,"is_disabled":false,"rental_uris":{"android":"levelo://app?vid=4b8a08de-0958-48f0-ba99-b0f65890d14f","ios":"levelo://app?vid=4b8a08de-0958-48f0-ba99-b0f65890d14f"},"vehicle_type_id":"4","last_reported":1761077505,"current_range_meters":20000,"station_id":"ce4bh492rcd13ifvqdvg","pricing_plan_id":"cebpf4jnsgd1na2vs0mg"},{"bike_id":"0ec4ef5d-d495-417b-9bb4-a7234e30b1f5","system_id":"levelo_inurba_marseille","lat":43.24544,"lon":5.39519,"is_reserved":false,"is_disabled":true,"rental_uris":{"android":"levelo://app?vid=0ec4ef5d-d495-417b-9bb4-a7234e30b1f5","ios":"levelo://app?vid=0ec4ef5d-d495-417b-9bb4-a7234e30b1f5"},"vehicle_type_id":"4","last_reported":1761077505,"current_range_meters":20000,"station_id":"ce4bhlp2rcd13ifvqgjg","pricing_plan_id":"cebpf4jnsgd1na2vs0mg"},{"bike_id":"e5a5320d-263d-4203-ba1a-701bde19789e","system_id":"levelo_inurba_marseille","lat":43.2928,"lon":5.40166,"is_reserved":false,"is_disabled":false,"rental_uris":{"android":"levelo://app?vid=e5a5320d-263d-4203-ba1a-701bde19789e","ios":"levelo://app?vid=e5a5320d-263d-4203-ba1a-701bde19789e"},"vehicle_type_id":"4","last_reported":1761077505,"current_range_meters":20000,"station_id":"ce4bh312rcd13ifvqdk0","pricing_plan_id":"cebpf4jnsgd1na2vs0mg"},{"bike_id":"7aa0a957-9fc3-471b-ab6e-2507c5886af7","system_id":"levelo_inurba_marseille","lat":43.262297,"lon":5.404704,"is_reserved":false,"is_disabled":false,"rental_uris":{"android":"levelo://app?vid=7aa0a957-9fc3-471b-ab6e-2507c5886af7","ios":"levelo://app?vid=7aa0a957-9fc3-471b-ab6e-2507c5886af7"},"vehicle_type_id":"4","last_reported":1761077505,"current_range_meters":20000,"station_id":"ce4bhmh2rcd13ifvqgmg","pricing_plan_id":"cebpf4jnsgd1na2vs0mg"},{"bike_id":"89d8739f-4b8e-4f60-8f43-e495253557db","system_id":"levelo_inurba_marseille","lat":43.28536,"lon":5.44097,"is_reserved":false,"is_disabled":false,"rental_uris":{"android":"levelo://app?vid=89d8739f-4b8e-4f60-8f43-e495253557db","ios":"levelo://app?vid=89d8739f-4b8e-4f60-8f43-e495253557db"},"vehicle_type_id":"4","last_reported":1761077505,"current_range_meters":20000,"station_id":"st_d3j3df2ikq2c7380ej80","pricing_plan_id":"cebpf4jnsgd1na2vs0mg"},{"bike_id":"f943f823-d9e2-4f69-9794-8ee1bed89cda","system_id":"levelo_inurba_marseille","lat":43.2417,"lon":5.36397,"is_reserved":false,"is_disabled":false,"rental_uris":{"android":"levelo://app?vid=f943f823-d9e2-4f69-9794-8ee1bed89cda","ios":"levelo://app?vid=f943f823-d9e2-4f69-9794-8ee1bed89cda"},"vehicle_type_id":"4","last_reported":1761077505,"current_range_meters":20000,"station_id":"cpo36qri1sfpv3e86is0","pricing_plan_id":"cebpf4jnsgd1na2vs0mg"},{"bike_id":"b3b13e92-d401-45af-ad84-a41c7bbeb5fe","system_id":"levelo_inurba_marseille","lat":43.3098,"lon":5.37505,"is_reserved":false,"is_disabled":false,"rental_uris":{"android":"levelo://app?vid=b3b13e92-d401-45af-ad84-a41c7bbeb5fe","ios":"levelo://app?vid=b3b13e92-d401-45af-ad84-a41c7bbeb5fe"},"vehicle_type_id":"4","last_reported":1761077505,"current_range_meters":20000,"station_id":"","pricing_plan_id":"cebpf4jnsgd1na2vs0mg"},{"bike_id":"34130888-7081-4e94-827a-c12d43393837","system_id":"levelo_inurba_marseille","lat":43.23774,"lon":5.36653,"is_reserved":false,"is_disabled":false,"rental_uris":{"android":"levelo://app?vid=34130888-7081-4e94-827a-c12d43393837","ios":"levelo://app?vid=34130888-7081-4e94-827a-c12d43393837"},"vehicle_type_id":"4","last_reported":1761077505,"current_range_meters":20000,"station_id":"st_d3nk18o9ro0c73en2l3g","pricing_plan_id":"cebpf4jnsgd1na2vs0mg"},{"bike_id":"5600f07e-8fb4-4fed-ab6f-893639ad73e4","system_id":"levelo_inurba_marseille","lat":43.27616,"lon":5.36107,"is_reserved":false,"is_disabled":false,"rental_uris":{"android":"levelo://app?vid=5600f07e-8fb4-4fed-ab6f-893639ad73e4","ios":"levelo://app?vid=5600f07e-8fb4-4fed-ab6f-893639ad73e4"},"vehicle_type_id":"4","last_reported":1761077505,"current_range_meters":20000,"station_id":"ce4bgj92rcd13ifvqbe0","pricing_plan_id":"cebpf4jnsgd1na2vs0mg"},{"bike_id":"f49a30d4-adb6-4243-9f1b-e41328b19b7e","system_id":"levelo_inurba_marseille","lat":43.29542,"lon":5.38534,"is_reserved":false,"is_disabled":false,"rental_uris":{"android":"levelo://app?vid=f49a30d4-adb6-4243-9f1b-e41328b19b7e","ios":"levelo://app?vid=f49a30d4-adb6-4243-9f1b-e41328b19b7e"},"vehicle_type_id":"4","last_reported":1761077505,"current_range_meters":20000,"station_id":"ce4bgih2rcd13ifvqba0","pricing_plan_id":"cebpf4jnsgd1na2vs0mg"},{"bike_id":"0b5c4f4d-8dd9-462c-9a70-b7e268b5d1bf","system_id":"levelo_inurba_marseille","lat":43.29919,"lon":5.37485,"is_reserved":false,"is_disabled":false,"rental_uris":{"android":"levelo://app?vid=0b5c4f4d-8dd9-462c-9a70-b7e268b5d1bf","ios":"levelo://app?vid=0b5c4f4d-8dd9-462c-9a70-b7e268b5d1bf"},"vehicle_type_id":"4","last_reported":1761077505,"current_range_meters":20400,"station_id":"ce4bgjh2rcd13ifvqbg0","pricing_plan_id":"cebpf4jnsgd1na2vs0mg"},{"bike_id":"7232bb60-2fbd-40fd-9d41-97ab2f0d9f37","system_id":"levelo_inurba_marseille","lat":43.24098,"lon":5.41345,"is_reserved":false,"is_disabled":false,"rental_uris":{"android":"levelo://app?vid=7232bb60-2fbd-40fd-9d41-97ab2f0d9f37","ios":"levelo://app?vid=7232bb60-2fbd-40fd-9d41-97ab2f0d9f37"},"vehicle_type_id":"4","last_reported":1761077505,"current_range_meters":20400,"station_id":"","pricing_plan_id":"cebpf4jnsgd1na2vs0mg"},{"bike_id":"cac0463e-3aac-4898-92bd-9e81e6122b89","system_id":"levelo_inurba_marseille","lat":43.28108,"lon":5.40127,"is_reserved":false,"is_disabled":false,"rental_uris":{"android":"levelo://app?vid=cac0463e-3aac-4898-92bd-9e81e6122b89","ios":"levelo://app?vid=cac0463e-3aac-4898-92bd-9e81e6122b89"},"vehicle_type_id":"4","last_reported":1761077505,"current_range_meters":20400,"station_id":"","pricing_plan_id":"cebpf4jnsgd1na2vs0mg"},{"bike_id":"fabe01e6-e39a-42c6-bb68-6378fe2a2d01","system_id":"levelo_inurba_marseille","lat":43.27949,"lon":5.4104,"is_reserved":false,"is_disabled":false,"rental_uris":{"android":"levelo://app?vid=fabe01e6-e39a-42c6-bb68-6378fe2a2d01","ios":"levelo://app?vid=fabe01e6-e39a-42c6-bb68-6378fe2a2d01"},"vehicle_type_id":"4","last_reported":1761077505,"current_range_meters":20400,"station_id":"ce4bhnp2rcd13ifvqh0g","pricing_plan_id":"cebpf4jnsgd1na2vs0mg"},{"bike_id":"c8c0fa58-a519-4343-9887-b0c694f93aef","system_id":"levelo_inurba_marseille","lat":43.288589,"lon":5.425132,"is_reserved":false,"is_disabled":false,"rental_uris":{"android":"levelo://app?vid=c8c0fa58-a519-4343-9887-b0c694f93aef","ios":"levelo://app?vid=c8c0fa58-a519-4343-9887-b0c694f93aef"},"vehicle_type_id":"4","last_reported":1761077505,"current_range_meters":20400,"station_id":"st_d3b462108ojc7389ooeg","pricing_plan_id":"cebpf4jnsgd1na2vs0mg"},{"bike_id":"61525fe3-26d4-4c5c-a075-e59599c296c4","system_id":"levelo_inurba_marseille","lat":43.31446,"lon":5.39306,"is_reserved":false,"is_disabled":false,"rental_uris":{"android":"levelo://app?vid=61525fe3-26d4-4c5c-a075-e59599c296c4","ios":"levelo://app?vid=61525fe3-26d4-4c5c-a075-e59599c296c4"},"vehicle_type_id":"4","last_reported":1761077505,"current_range_meters":20400,"station_id":"","pricing_plan_id":"cebpf4jnsgd1na2vs0mg"},{"bike_id":"9d7f3a6e-0b4c-41cd-9b1c-7b029025d66d","system_id":"levelo_inurba_marseille","lat":43.28175,"lon":5.42637,"is_reserved":false,"is_disabled":false,"rental_uris":{"android":"levelo://app?vid=9d7f3a6e-0b4c-41cd-9b1c-7b029025d66d","ios":"levelo://app?vid=9d7f3a6e-0b4c-41cd-9b1c-7b029025d66d"},"vehicle_type_id":"4","last_reported":1761077505,"current_range_meters":20400,"station_id":"ce4bhnh2rcd13ifvqgug","pricing_plan_id":"cebpf4jnsgd1na2vs0mg"},{"bike_id":"58dc9567-5152-41da-9572-9b47df2fa2d7","system_id":"levelo_inurba_marseille","lat":43.27814,"lon":5.40701,"is_reserved":false,"is_disabled":false,"rental_uris":{"android":"levelo://app?vid=58dc9567-5152-41da-9572-9b47df2fa2d7","ios":"levelo://app?vid=58dc9567-5152-41da-9572-9b47df2fa2d7"},"vehicle_type_id":"4","last_reported":1761077505,"current_range_meters":20400,"station_id":"ce4bhnh2rcd13ifvqgtg","pricing_plan_id":"cebpf4jnsgd1na2vs0mg"},{"bike_id":"7c86cd41-0d7c-439c-a272-a4550010fdaf","system_id":"levelo_inurba_marseille","lat":43.25719,"lon":5.41089,"is_reserved":false,"is_disabled":true,"rental_uris":{"android":"levelo://app?vid=7c86cd41-0d7c-439c-a272-a4550010fdaf","ios":"levelo://app?vid=7c86cd41-0d7c-439c-a272-a4550010fdaf"},"vehicle_type_id":"4","last_reported":1761077505,"current_range_meters":20400,"station_id":"ce4bhkp2rcd13ifvqgd0","pricing_plan_id":"cebpf4jnsgd1na2vs0mg"},{"bike_id":"6cb13ad7-4051-45ec-99f1-4c86765e0ca5","system_id":"levelo_inurba_marseille","lat":43.298023,"lon":5.381016,"is_reserved":false,"is_disabled":false,"rental_uris":{"android":"levelo://app?vid=6cb13ad7-4051-45ec-99f1-4c86765e0ca5","ios":"levelo://app?vid=6cb13ad7-4051-45ec-99f1-4c86765e0ca5"},"vehicle_type_id":"4","last_reported":1761077505,"current_range_meters":20800,"station_id":"ce4bgip2rcd13ifvqbb0","pricing_plan_id":"cebpf4jnsgd1na2vs0mg"},{"bike_id":"f04e3ab5-ced7-4af8-b997-19eceefb150c","system_id":"levelo_inurba_marseille","lat":43.296143,"lon":5.37154,"is_reserved":false,"is_disabled":false,"rental_uris":{"android":"levelo://app?vid=f04e3ab5-ced7-4af8-b997-19eceefb150c","ios":"levelo://app?vid=f04e3ab5-ced7-4af8-b997-19eceefb150c"},"vehicle_type_id":"4","last_reported":1761077505,"current_range_meters":20800,"station_id":"ce4bgnh2rcd13ifvqc0g","pricing_plan_id":"cebpf4jnsgd1na2vs0mg"},{"bike_id":"53e8f805-53df-4804-875d-4bbc0bc8b461","system_id":"levelo_inurba_marseille","lat":43.27815,"lon":5.40701,"is_reserved":false,"is_disabled":false,"rental_uris":{"android":"levelo://app?vid=53e8f805-53df-4804-875d-4bbc0bc8b461","ios":"levelo://app?vid=53e8f805-53df-4804-875d-4bbc0bc8b461"},"vehicle_type_id":"4","last_reported":1761077505,"current_range_meters":20800,"station_id":"ce4bhnh2rcd13ifvqgtg","pricing_plan_id":"cebpf4jnsgd1na2vs0mg"},{"bike_id":"a09d408c-fc08-41f6-a7cc-68aad1463d35","system_id":"levelo_inurba_marseille","lat":43.29267,"lon":5.38436,"is_reserved":false,"is_disabled":false,"rental_uris":{"android":"levelo://app?vid=a09d408c-fc08-41f6-a7cc-68aad1463d35","ios":"levelo://app?vid=a09d408c-fc08-41f6-a7cc-68aad1463d35"},"vehicle_type_id":"4","last_reported":1761077505,"current_range_meters":20800,"station_id":"ce4bh692rcd13ifvqea0","pricing_plan_id":"cebpf4jnsgd1na2vs0mg"},{"bike_id":"62f0a2f8-d352-4580-a096-e8ce56ffccdb","system_id":"levelo_inurba_marseille","lat":43.321234,"lon":5.367741,"is_reserved":false,"is_disabled":false,"rental_uris":{"android":"levelo://app?vid=62f0a2f8-d352-4580-a096-e8ce56ffccdb","ios":"levelo://app?vid=62f0a2f8-d352-4580-a096-e8ce56ffccdb"},"vehicle_type_id":"4","last_reported":1761077505,"current_range_meters":20800,"station_id":"ce4bhrh2rcd13ifvqhug","pricing_plan_id":"cebpf4jnsgd1na2vs0mg"},{"bike_id":"47872406-060e-41a7-8b75-5c72652f38a6","system_id":"levelo_inurba_marseille","lat":43.28224,"lon":5.39073,"is_reserved":false,"is_disabled":false,"rental_uris":{"android":"levelo://app?vid=47872406-060e-41a7-8b75-5c72652f38a6","ios":"levelo://app?vid=47872406-060e-41a7-8b75-5c72652f38a6"},"vehicle_type_id":"4","last_reported":1761077505,"current_range_meters":20800,"station_id":"ce4bhn92rcd13ifvqgsg","pricing_plan_id":"cebpf4jnsgd1na2vs0mg"},{"bike_id":"fc088b50-e903-4413-b68e-3a2b8a695866","system_id":"levelo_inurba_marseille","lat":43.24631,"lon":5.43143,"is_reserved":false,"is_disabled":false,"rental_uris":{"android":"levelo://app?vid=fc088b50-e903-4413-b68e-3a2b8a695866","ios":"levelo://app?vid=fc088b50-e903-4413-b68e-3a2b8a695866"},"vehicle_type_id":"4","last_reported":1761077505,"current_range_meters":20800,"station_id":"st_d2m6c4gdas8pm72e190g","pricing_plan_id":"cebpf4jnsgd1na2vs0mg"},{"bike_id":"39a6a27f-e091-462b-b668-4d4d415aa680","system_id":"levelo_inurba_marseille","lat":43.31176,"lon":5.38674,"is_reserved":false,"is_disabled":false,"rental_uris":{"android":"levelo://app?vid=39a6a27f-e091-462b-b668-4d4d415aa680","ios":"levelo://app?vid=39a6a27f-e091-462b-b668-4d4d415aa680"},"vehicle_type_id":"4","last_reported":1761077505,"current_range_meters":20800,"station_id":"ce4bgv12rcd13ifvqcp0","pricing_plan_id":"cebpf4jnsgd1na2vs0mg"},{"bike_id":"de72d7d9-1a8a-4e16-8700-83632985e44d","system_id":"levelo_inurba_marseille","lat":43.299194,"lon":5.374763,"is_reserved":false,"is_disabled":false,"rental_uris":{"android":"levelo://app?vid=de72d7d9-1a8a-4e16-8700-83632985e44d","ios":"levelo://app?vid=de72d7d9-1a8a-4e16-8700-83632985e44d"},"vehicle_type_id":"4","last_reported":1761077505,"current_range_meters":20800,"station_id":"ce4bgjh2rcd13ifvqbg0","pricing_plan_id":"cebpf4jnsgd1na2vs0mg"},{"bike_id":"26540bf4-4219-4c2f-8aa3-0a79d1a3cee0","system_id":"levelo_inurba_marseille","lat":43.29023,"lon":5.38133,"is_reserved":false,"is_disabled":false,"rental_uris":{"android":"levelo://app?vid=26540bf4-4219-4c2f-8aa3-0a79d1a3cee0","ios":"levelo://app?vid=26540bf4-4219-4c2f-8aa3-0a79d1a3cee0"},"vehicle_type_id":"4","last_reported":1761077505,"current_range_meters":20800,"station_id":"ce4bh4p2rcd13ifvqe1g","pricing_plan_id":"cebpf4jnsgd1na2vs0mg"},{"bike_id":"9225b383-9698-440b-bc47-cf3b5ffb3cb2","system_id":"levelo_inurba_marseille","lat":43.31332,"lon":5.39677,"is_reserved":false,"is_disabled":false,"rental_uris":{"android":"levelo://app?vid=9225b383-9698-440b-bc47-cf3b5ffb3cb2","ios":"levelo://app?vid=9225b383-9698-440b-bc47-cf3b5ffb3cb2"},"vehicle_type_id":"4","last_reported":1761077505,"current_range_meters":20800,"station_id":"ce4bgvp2rcd13ifvqcu0","pricing_plan_id":"cebpf4jnsgd1na2vs0mg"},{"bike_id":"e5028a4d-025a-41c7-8b58-958687977dd4","system_id":"levelo_inurba_marseille","lat":43.29919,"lon":5.38814,"is_reserved":false,"is_disabled":false,"rental_uris":{"android":"levelo://app?vid=e5028a4d-025a-41c7-8b58-958687977dd4","ios":"levelo://app?vid=e5028a4d-025a-41c7-8b58-958687977dd4"},"vehicle_type_id":"4","last_reported":1761077505,"current_range_meters":21600,"station_id":"","pricing_plan_id":"cebpf4jnsgd1na2vs0mg"},{"bike_id":"6dedb052-20a2-44cd-aeba-04edee226593","system_id":"levelo_inurba_marseille","lat":43.22573,"lon":5.41618,"is_reserved":false,"is_disabled":false,"rental_uris":{"android":"levelo://app?vid=6dedb052-20a2-44cd-aeba-04edee226593","ios":"levelo://app?vid=6dedb052-20a2-44cd-aeba-04edee226593"},