{"last_updated":1750007318,"ttl":60,"version":"2.2","data":{"bikes":[{"bike_id":"b31f0139-170f-4194-984f-4386218a1e9d","system_id":"levelo_inurba_marseille","lat":43.33771,"lon":5.37424,"is_reserved":false,"is_disabled":true,"rental_uris":{"android":"levelo://app?vid=b31f0139-170f-4194-984f-4386218a1e9d","ios":"levelo://app?vid=b31f0139-170f-4194-984f-4386218a1e9d"},"vehicle_type_id":"4","last_reported":1750007318,"current_range_meters":0,"station_id":"","pricing_plan_id":"cebpf4jnsgd1na2vs0mg"},{"bike_id":"1acfb620-cad7-48c0-8901-d7a5b74a5b65","system_id":"levelo_inurba_marseille","lat":43.33751,"lon":5.37456,"is_reserved":false,"is_disabled":true,"rental_uris":{"android":"levelo://app?vid=1acfb620-cad7-48c0-8901-d7a5b74a5b65","ios":"levelo://app?vid=1acfb620-cad7-48c0-8901-d7a5b74a5b65"},"vehicle_type_id":"4","last_reported":1750007318,"current_range_meters":0,"station_id":"","pricing_plan_id":"cebpf4jnsgd1na2vs0mg"},{"bike_id":"bf89d78c-eb96-40d5-beb0-f402ef102cc1","system_id":"levelo_inurba_marseille","lat":43.337444,"lon":5.374475,"is_reserved":false,"is_disabled":true,"rental_uris":{"android":"levelo://app?vid=bf89d78c-eb96-40d5-beb0-f402ef102cc1","ios":"levelo://app?vid=bf89d78c-eb96-40d5-beb0-f402ef102cc1"},"vehicle_type_id":"4","last_reported":1750007318,"current_range_meters":0,"station_id":"","pricing_plan_id":"cebpf4jnsgd1na2vs0mg"},{"bike_id":"3d6ef34c-1ec6-4ed3-88e4-07359f729c42","system_id":"levelo_inurba_marseille","lat":43.27567,"lon":5.43386,"is_reserved":false,"is_disabled":true,"rental_uris":{"android":"levelo://app?vid=3d6ef34c-1ec6-4ed3-88e4-07359f729c42","ios":"levelo://app?vid=3d6ef34c-1ec6-4ed3-88e4-07359f729c42"},"vehicle_type_id":"4","last_reported":1750007318,"current_range_meters":0,"station_id":"","pricing_plan_id":"cebpf4jnsgd1na2vs0mg"},{"bike_id":"5077581b-cebb-46fc-ba69-4fa8272d4810","system_id":"levelo_inurba_marseille","lat":43.21357,"lon":5.3552,"is_reserved":false,"is_disabled":true,"rental_uris":{"android":"levelo://app?vid=5077581b-cebb-46fc-ba69-4fa8272d4810","ios":"levelo://app?vid=5077581b-cebb-46fc-ba69-4fa8272d4810"},"vehicle_type_id":"4","last_reported":1750007318,"current_range_meters":0,"station_id":"","pricing_plan_id":"cebpf4jnsgd1na2vs0mg"},{"bike_id":"b700b739-d84e-40eb-a0b6-5cbfa9485ee2","system_id":"levelo_inurba_marseille","lat":43.27847,"lon":5.42191,"is_reserved":false,"is_disabled":true,"rental_uris":{"android":"levelo://app?vid=b700b739-d84e-40eb-a0b6-5cbfa9485ee2","ios":"levelo://app?vid=b700b739-d84e-40eb-a0b6-5cbfa9485ee2"},"vehicle_type_id":"4","last_reported":1750007318,"current_range_meters":0,"station_id":"","pricing_plan_id":"cebpf4jnsgd1na2vs0mg"},{"bike_id":"97421c04-2630-4fc1-9da9-b17d88602c5f","system_id":"levelo_inurba_marseille","lat":43.337682,"lon":5.374519,"is_reserved":false,"is_disabled":true,"rental_uris":{"android":"levelo://app?vid=97421c04-2630-4fc1-9da9-b17d88602c5f","ios":"levelo://app?vid=97421c04-2630-4fc1-9da9-b17d88602c5f"},"vehicle_type_id":"4","last_reported":1750007318,"current_range_meters":0,"station_id":"","pricing_plan_id":"cebpf4jnsgd1na2vs0mg"},{"bike_id":"ac061617-9a3c-4de6-bd1d-cee5ca15e0fc","system_id":"levelo_inurba_marseille","lat":43.28298,"lon":5.38772,"is_reserved":false,"is_disabled":true,"rental_uris":{"android":"levelo://app?vid=ac061617-9a3c-4de6-bd1d-cee5ca15e0fc","ios":"levelo://app?vid=ac061617-9a3c-4de6-bd1d-cee5ca15e0fc"},"vehicle_type_id":"4","last_reported":1750007318,"current_range_meters":0,"station_id":"","pricing_plan_id":"cebpf4jnsgd1na2vs0mg"},{"bike_id":"ebf89cec-3e1a-4275-9cd0-a3d19d69b5cf","system_id":"levelo_inurba_marseille","lat":43.27978,"lon":5.38486,"is_reserved":false,"is_disabled":true,"rental_uris":{"android":"levelo://app?vid=ebf89cec-3e1a-4275-9cd0-a3d19d69b5cf","ios":"levelo://app?vid=ebf89cec-3e1a-4275-9cd0-a3d19d69b5cf"},"vehicle_type_id":"4","last_reported":1750007318,"current_range_meters":0,"station_id":"","pricing_plan_id":"cebpf4jnsgd1na2vs0mg"},{"bike_id":"8d60347d-541c-40fb-90ca-203bf6bd520a","system_id":"levelo_inurba_marseille","lat":43.271269,"lon":5.363938,"is_reserved":false,"is_disabled":true,"rental_uris":{"android":"levelo://app?vid=8d60347d-541c-40fb-90ca-203bf6bd520a","ios":"levelo://app?vid=8d60347d-541c-40fb-90ca-203bf6bd520a"},"vehicle_type_id":"4","last_reported":1750007318,"current_range_meters":0,"station_id":"","pricing_plan_id":"cebpf4jnsgd1na2vs0mg"},{"bike_id":"98afa141-26c5-45c8-a0a6-15fd54ac73ab","system_id":"levelo_inurba_marseille","lat":43.215364,"lon":5.347397,"is_reserved":false,"is_disabled":true,"rental_uris":{"android":"levelo://app?vid=98afa141-26c5-45c8-a0a6-15fd54ac73ab","ios":"levelo://app?vid=98afa141-26c5-45c8-a0a6-15fd54ac73ab"},"vehicle_type_id":"4","last_reported":1750007318,"current_range_meters":0,"station_id":"","pricing_plan_id":"cebpf4jnsgd1na2vs0mg"},{"bike_id":"492f4bbd-1190-4ef2-b66a-479ffe91b09b","system_id":"levelo_inurba_marseille","lat":43.337444,"lon":5.374475,"is_reserved":false,"is_disabled":true,"rental_uris":{"android":"levelo://app?vid=492f4bbd-1190-4ef2-b66a-479ffe91b09b","ios":"levelo://app?vid=492f4bbd-1190-4ef2-b66a-479ffe91b09b"},"vehicle_type_id":"4","last_reported":1750007318,"current_range_meters":0,"station_id":"","pricing_plan_id":"cebpf4jnsgd1na2vs0mg"},{"bike_id":"a9b6bf99-4070-4437-bb20-72962ae30b90","system_id":"levelo_inurba_marseille","lat":43.27458,"lon":5.36387,"is_reserved":false,"is_disabled":true,"rental_uris":{"android":"levelo://app?vid=a9b6bf99-4070-4437-bb20-72962ae30b90","ios":"levelo://app?vid=a9b6bf99-4070-4437-bb20-72962ae30b90"},"vehicle_type_id":"4","last_reported":1750007318,"current_range_meters":0,"station_id":"","pricing_plan_id":"cebpf4jnsgd1na2vs0mg"},{"bike_id":"fa05ef90-2f96-42e6-976a-fbe90644d3f8","system_id":"levelo_inurba_marseille","lat":43.31332,"lon":5.39686,"is_reserved":false,"is_disabled":true,"rental_uris":{"android":"levelo://app?vid=fa05ef90-2f96-42e6-976a-fbe90644d3f8","ios":"levelo://app?vid=fa05ef90-2f96-42e6-976a-fbe90644d3f8"},"vehicle_type_id":"4","last_reported":1750007318,"current_range_meters":0,"station_id":"ce4bgvp2rcd13ifvqcu0","pricing_plan_id":"cebpf4jnsgd1na2vs0mg"},{"bike_id":"d7d93872-802d-4c38-a179-7a91a2f1b9a6","system_id":"levelo_inurba_marseille","lat":43.29023,"lon":5.38636,"is_reserved":false,"is_disabled":true,"rental_uris":{"android":"levelo://app?vid=d7d93872-802d-4c38-a179-7a91a2f1b9a6","ios":"levelo://app?vid=d7d93872-802d-4c38-a179-7a91a2f1b9a6"},"vehicle_type_id":"4","last_reported":1750007318,"current_range_meters":0,"station_id":"ce4bh4p2rcd13ifvqe0g","pricing_plan_id":"cebpf4jnsgd1na2vs0mg"},{"bike_id":"c0c0df3c-3d34-45a9-b85b-365b7ff484d7","system_id":"levelo_inurba_marseille","lat":43.29036,"lon":5.38641,"is_reserved":false,"is_disabled":true,"rental_uris":{"android":"levelo://app?vid=c0c0df3c-3d34-45a9-b85b-365b7ff484d7","ios":"levelo://app?vid=c0c0df3c-3d34-45a9-b85b-365b7ff484d7"},"vehicle_type_id":"4","last_reported":1750007318,"current_range_meters":0,"station_id":"ce4bh4p2rcd13ifvqe0g","pricing_plan_id":"cebpf4jnsgd1na2vs0mg"},{"bike_id":"9c0f407c-4815-4140-802a-6f62751729c0","system_id":"levelo_inurba_marseille","lat":43.28042,"lon":5.36936,"is_reserved":false,"is_disabled":true,"rental_uris":{"android":"levelo://app?vid=9c0f407c-4815-4140-802a-6f62751729c0","ios":"levelo://app?vid=9c0f407c-4815-4140-802a-6f62751729c0"},"vehicle_type_id":"4","last_reported":1750007318,"current_range_meters":0,"station_id":"ce4bha12rcd13ifvqef0","pricing_plan_id":"cebpf4jnsgd1na2vs0mg"},{"bike_id":"be10b70f-19d1-4c99-a78f-db1d2f4b3422","system_id":"levelo_inurba_marseille","lat":43.2904,"lon":5.35913,"is_reserved":false,"is_disabled":true,"rental_uris":{"android":"levelo://app?vid=be10b70f-19d1-4c99-a78f-db1d2f4b3422","ios":"levelo://app?vid=be10b70f-19d1-4c99-a78f-db1d2f4b3422"},"vehicle_type_id":"4","last_reported":1750007318,"current_range_meters":0,"station_id":"ce4bha92rcd13ifvqeg0","pricing_plan_id":"cebpf4jnsgd1na2vs0mg"},{"bike_id":"134a8da3-9a53-40e8-bf7c-0e6bffdf2926","system_id":"levelo_inurba_marseille","lat":43.27978,"lon":5.38733,"is_reserved":false,"is_disabled":true,"rental_uris":{"android":"levelo://app?vid=134a8da3-9a53-40e8-bf7c-0e6bffdf2926","ios":"levelo://app?vid=134a8da3-9a53-40e8-bf7c-0e6bffdf2926"},"vehicle_type_id":"4","last_reported":1750007318,"current_range_meters":0,"station_id":"ce4bhg12rcd13ifvqf80","pricing_plan_id":"cebpf4jnsgd1na2vs0mg"},{"bike_id":"ae704f00-591d-4fdc-89d9-0fa5250f5369","system_id":"levelo_inurba_marseille","lat":43.24807,"lon":5.3745,"is_reserved":false,"is_disabled":true,"rental_uris":{"android":"levelo://app?vid=ae704f00-591d-4fdc-89d9-0fa5250f5369","ios":"levelo://app?vid=ae704f00-591d-4fdc-89d9-0fa5250f5369"},"vehicle_type_id":"4","last_reported":1750007318,"current_range_meters":0,"station_id":"ce4bhgh2rcd13ifvqfb0","pricing_plan_id":"cebpf4jnsgd1na2vs0mg"},{"bike_id":"609bf5b6-b65d-43a3-a5fc-65a92c3604a2","system_id":"levelo_inurba_marseille","lat":43.25505,"lon":5.37649,"is_reserved":false,"is_disabled":true,"rental_uris":{"android":"levelo://app?vid=609bf5b6-b65d-43a3-a5fc-65a92c3604a2","ios":"levelo://app?vid=609bf5b6-b65d-43a3-a5fc-65a92c3604a2"},"vehicle_type_id":"4","last_reported":1750007318,"current_range_meters":0,"station_id":"ce4bhh12rcd13ifvqff0","pricing_plan_id":"cebpf4jnsgd1na2vs0mg"},{"bike_id":"1a053efc-6835-4fe3-8b2d-e42486c2efbb","system_id":"levelo_inurba_marseille","lat":43.2317,"lon":5.43686,"is_reserved":false,"is_disabled":true,"rental_uris":{"android":"levelo://app?vid=1a053efc-6835-4fe3-8b2d-e42486c2efbb","ios":"levelo://app?vid=1a053efc-6835-4fe3-8b2d-e42486c2efbb"},"vehicle_type_id":"4","last_reported":1750007318,"current_range_meters":0,"station_id":"ce4bhmp2rcd13ifvqgog","pricing_plan_id":"cebpf4jnsgd1na2vs0mg"},{"bike_id":"a84e6087-806a-470b-a3ce-22118dac393c","system_id":"levelo_inurba_marseille","lat":43.22959,"lon":5.35364,"is_reserved":false,"is_disabled":false,"rental_uris":{"android":"levelo://app?vid=a84e6087-806a-470b-a3ce-22118dac393c","ios":"levelo://app?vid=a84e6087-806a-470b-a3ce-22118dac393c"},"vehicle_type_id":"4","last_reported":1750007318,"current_range_meters":0,"station_id":"cpo3532slgdg3j2ikp40","pricing_plan_id":"cebpf4jnsgd1na2vs0mg"},{"bike_id":"9aea8b8c-7d2c-47e6-9e92-fd12236b644f","system_id":"levelo_inurba_marseille","lat":43.21749,"lon":5.34608,"is_reserved":false,"is_disabled":true,"rental_uris":{"android":"levelo://app?vid=9aea8b8c-7d2c-47e6-9e92-fd12236b644f","ios":"levelo://app?vid=9aea8b8c-7d2c-47e6-9e92-fd12236b644f"},"vehicle_type_id":"4","last_reported":1750007318,"current_range_meters":0,"station_id":"st_cvj6r9ubvosntc0bgbag","pricing_plan_id":"cebpf4jnsgd1na2vs0mg"},{"bike_id":"1c74c4fa-6f25-4155-b5f2-d54a04000263","system_id":"levelo_inurba_marseille","lat":43.27667,"lon":5.38881,"is_reserved":false,"is_disabled":true,"rental_uris":{"android":"levelo://app?vid=1c74c4fa-6f25-4155-b5f2-d54a04000263","ios":"levelo://app?vid=1c74c4fa-6f25-4155-b5f2-d54a04000263"},"vehicle_type_id":"4","last_reported":1750007318,"current_range_meters":400,"station_id":"ce4bhi12rcd13ifvqfo0","pricing_plan_id":"cebpf4jnsgd1na2vs0mg"},{"bike_id":"108ec32b-e109-4022-882b-0366e381f7d9","system_id":"levelo_inurba_marseille","lat":43.26235,"lon":5.4045,"is_reserved":false,"is_disabled":true,"rental_uris":{"android":"levelo://app?vid=108ec32b-e109-4022-882b-0366e381f7d9","ios":"levelo://app?vid=108ec32b-e109-4022-882b-0366e381f7d9"},"vehicle_type_id":"4","last_reported":1750007318,"current_range_meters":400,"station_id":"ce4bhmh2rcd13ifvqgmg","pricing_plan_id":"cebpf4jnsgd1na2vs0mg"},{"bike_id":"53af25b6-3dad-4571-946e-e930012223f6","system_id":"levelo_inurba_marseille","lat":43.24068,"lon":5.37765,"is_reserved":false,"is_disabled":true,"rental_uris":{"android":"levelo://app?vid=53af25b6-3dad-4571-946e-e930012223f6","ios":"levelo://app?vid=53af25b6-3dad-4571-946e-e930012223f6"},"vehicle_type_id":"4","last_reported":1750007318,"current_range_meters":400,"station_id":"ce4bhnp2rcd13ifvqgvg","pricing_plan_id":"cebpf4jnsgd1na2vs0mg"},{"bike_id":"1a540248-a6cf-4e5e-a4ae-884e51c78236","system_id":"levelo_inurba_marseille","lat":43.23201,"lon":5.3554,"is_reserved":false,"is_disabled":true,"rental_uris":{"android":"levelo://app?vid=1a540248-a6cf-4e5e-a4ae-884e51c78236","ios":"levelo://app?vid=1a540248-a6cf-4e5e-a4ae-884e51c78236"},"vehicle_type_id":"4","last_reported":1750007318,"current_range_meters":400,"station_id":"ce4bhu92rcd13ifvqi70","pricing_plan_id":"cebpf4jnsgd1na2vs0mg"},{"bike_id":"326ccd81-27c7-4490-9f18-14471d43ad36","system_id":"levelo_inurba_marseille","lat":43.26943,"lon":5.40255,"is_reserved":false,"is_disabled":true,"rental_uris":{"android":"levelo://app?vid=326ccd81-27c7-4490-9f18-14471d43ad36","ios":"levelo://app?vid=326ccd81-27c7-4490-9f18-14471d43ad36"},"vehicle_type_id":"4","last_reported":1750007318,"current_range_meters":400,"station_id":"cjm6bp8fraef2m0cb0m0","pricing_plan_id":"cebpf4jnsgd1na2vs0mg"},{"bike_id":"70d4eee3-760d-4eb8-8d46-0070302ef670","system_id":"levelo_inurba_marseille","lat":43.30944,"lon":5.39037,"is_reserved":false,"is_disabled":true,"rental_uris":{"android":"levelo://app?vid=70d4eee3-760d-4eb8-8d46-0070302ef670","ios":"levelo://app?vid=70d4eee3-760d-4eb8-8d46-0070302ef670"},"vehicle_type_id":"4","last_reported":1750007318,"current_range_meters":800,"station_id":"ce4bgup2rcd13ifvqco0","pricing_plan_id":"cebpf4jnsgd1na2vs0mg"},{"bike_id":"1261ae94-6599-4c76-a9a9-5db55c520c8e","system_id":"levelo_inurba_marseille","lat":43.30127,"lon":5.39859,"is_reserved":false,"is_disabled":true,"rental_uris":{"android":"levelo://app?vid=1261ae94-6599-4c76-a9a9-5db55c520c8e","ios":"levelo://app?vid=1261ae94-6599-4c76-a9a9-5db55c520c8e"},"vehicle_type_id":"4","last_reported":1750007318,"current_range_meters":800,"station_id":"ce4bh0h2rcd13ifvqd40","pricing_plan_id":"cebpf4jnsgd1na2vs0mg"},{"bike_id":"ad64d93b-bc63-42f4-a289-aa020c14501e","system_id":"levelo_inurba_marseille","lat":43.28509,"lon":5.38442,"is_reserved":false,"is_disabled":true,"rental_uris":{"android":"levelo://app?vid=ad64d93b-bc63-42f4-a289-aa020c14501e","ios":"levelo://app?vid=ad64d93b-bc63-42f4-a289-aa020c14501e"},"vehicle_type_id":"4","last_reported":1750007318,"current_range_meters":800,"station_id":"ce4bh512rcd13ifvqe3g","pricing_plan_id":"cebpf4jnsgd1na2vs0mg"},{"bike_id":"2a83ae2f-a99a-4a3e-9402-1e60d522e115","system_id":"levelo_inurba_marseille","lat":43.21178,"lon":5.35067,"is_reserved":false,"is_disabled":true,"rental_uris":{"android":"levelo://app?vid=2a83ae2f-a99a-4a3e-9402-1e60d522e115","ios":"levelo://app?vid=2a83ae2f-a99a-4a3e-9402-1e60d522e115"},"vehicle_type_id":"4","last_reported":1750007318,"current_range_meters":800,"station_id":"st_cvj6sg6p6f1abm77japg","pricing_plan_id":"cebpf4jnsgd1na2vs0mg"},{"bike_id":"375cf6e2-9084-4098-ab27-8d4a8a4f6660","system_id":"levelo_inurba_marseille","lat":43.22502,"lon":5.34786,"is_reserved":false,"is_disabled":true,"rental_uris":{"android":"levelo://app?vid=375cf6e2-9084-4098-ab27-8d4a8a4f6660","ios":"levelo://app?vid=375cf6e2-9084-4098-ab27-8d4a8a4f6660"},"vehicle_type_id":"4","last_reported":1750007318,"current_range_meters":1200,"station_id":"","pricing_plan_id":"cebpf4jnsgd1na2vs0mg"},{"bike_id":"db44adc3-05fc-4613-a668-5d6bbeee6e27","system_id":"levelo_inurba_marseille","lat":43.3107,"lon":5.38349,"is_reserved":false,"is_disabled":true,"rental_uris":{"android":"levelo://app?vid=db44adc3-05fc-4613-a668-5d6bbeee6e27","ios":"levelo://app?vid=db44adc3-05fc-4613-a668-5d6bbeee6e27"},"vehicle_type_id":"4","last_reported":1750007318,"current_range_meters":1200,"station_id":"ce4bgv92rcd13ifvqcr0","pricing_plan_id":"cebpf4jnsgd1na2vs0mg"},{"bike_id":"90c6a26a-6086-4159-9d77-af6271101814","system_id":"levelo_inurba_marseille","lat":43.3133,"lon":5.39684,"is_reserved":false,"is_disabled":true,"rental_uris":{"android":"levelo://app?vid=90c6a26a-6086-4159-9d77-af6271101814","ios":"levelo://app?vid=90c6a26a-6086-4159-9d77-af6271101814"},"vehicle_type_id":"4","last_reported":1750007318,"current_range_meters":1200,"station_id":"ce4bgvp2rcd13ifvqcu0","pricing_plan_id":"cebpf4jnsgd1na2vs0mg"},{"bike_id":"f27b1777-053f-4d4d-8553-278d48d892ab","system_id":"levelo_inurba_marseille","lat":43.28049,"lon":5.36934,"is_reserved":false,"is_disabled":true,"rental_uris":{"android":"levelo://app?vid=f27b1777-053f-4d4d-8553-278d48d892ab","ios":"levelo://app?vid=f27b1777-053f-4d4d-8553-278d48d892ab"},"vehicle_type_id":"4","last_reported":1750007318,"current_range_meters":1200,"station_id":"ce4bha12rcd13ifvqef0","pricing_plan_id":"cebpf4jnsgd1na2vs0mg"},{"bike_id":"549a5a19-4650-47f2-bbe9-285279feefa9","system_id":"levelo_inurba_marseille","lat":43.29902,"lon":5.38133,"is_reserved":false,"is_disabled":true,"rental_uris":{"android":"levelo://app?vid=549a5a19-4650-47f2-bbe9-285279feefa9","ios":"levelo://app?vid=549a5a19-4650-47f2-bbe9-285279feefa9"},"vehicle_type_id":"4","last_reported":1750007318,"current_range_meters":1600,"station_id":"ce4bgj12rcd13ifvqbc0","pricing_plan_id":"cebpf4jnsgd1na2vs0mg"},{"bike_id":"b3ddd6f9-1f19-4f81-88e9-b6bb0d346b55","system_id":"levelo_inurba_marseille","lat":43.30152,"lon":5.38093,"is_reserved":false,"is_disabled":true,"rental_uris":{"android":"levelo://app?vid=b3ddd6f9-1f19-4f81-88e9-b6bb0d346b55","ios":"levelo://app?vid=b3ddd6f9-1f19-4f81-88e9-b6bb0d346b55"},"vehicle_type_id":"4","last_reported":1750007318,"current_range_meters":1600,"station_id":"ce4bgjp2rcd13ifvqbh0","pricing_plan_id":"cebpf4jnsgd1na2vs0mg"},{"bike_id":"2b0ea2a5-3d65-4c59-9896-8bd7591f0d29","system_id":"levelo_inurba_marseille","lat":43.27373,"lon":5.3626,"is_reserved":false,"is_disabled":true,"rental_uris":{"android":"levelo://app?vid=2b0ea2a5-3d65-4c59-9896-8bd7591f0d29","ios":"levelo://app?vid=2b0ea2a5-3d65-4c59-9896-8bd7591f0d29"},"vehicle_type_id":"4","last_reported":1750007318,"current_range_meters":1600,"station_id":"ce4bhbh2rcd13ifvqeo0","pricing_plan_id":"cebpf4jnsgd1na2vs0mg"},{"bike_id":"18feaa31-4de9-4760-94e1-1d1e2887975a","system_id":"levelo_inurba_marseille","lat":43.28413,"lon":5.34991,"is_reserved":false,"is_disabled":true,"rental_uris":{"android":"levelo://app?vid=18feaa31-4de9-4760-94e1-1d1e2887975a","ios":"levelo://app?vid=18feaa31-4de9-4760-94e1-1d1e2887975a"},"vehicle_type_id":"4","last_reported":1750007318,"current_range_meters":1600,"station_id":"ce4bhbh2rcd13ifvqepg","pricing_plan_id":"cebpf4jnsgd1na2vs0mg"},{"bike_id":"c79e65ba-cfec-44b0-a30d-b10362544258","system_id":"levelo_inurba_marseille","lat":43.29279,"lon":5.36837,"is_reserved":false,"is_disabled":true,"rental_uris":{"android":"levelo://app?vid=c79e65ba-cfec-44b0-a30d-b10362544258","ios":"levelo://app?vid=c79e65ba-cfec-44b0-a30d-b10362544258"},"vehicle_type_id":"4","last_reported":1750007318,"current_range_meters":1600,"station_id":"ce4bhbp2rcd13ifvqesg","pricing_plan_id":"cebpf4jnsgd1na2vs0mg"},{"bike_id":"7d052c54-9a68-42e1-8e14-80fcc0f21935","system_id":"levelo_inurba_marseille","lat":43.24388,"lon":5.3706,"is_reserved":false,"is_disabled":true,"rental_uris":{"android":"levelo://app?vid=7d052c54-9a68-42e1-8e14-80fcc0f21935","ios":"levelo://app?vid=7d052c54-9a68-42e1-8e14-80fcc0f21935"},"vehicle_type_id":"4","last_reported":1750007318,"current_range_meters":1600,"station_id":"ce4bhhh2rcd13ifvqfk0","pricing_plan_id":"cebpf4jnsgd1na2vs0mg"},{"bike_id":"812bccce-fe45-4eb2-a4f8-fb64bc4c7135","system_id":"levelo_inurba_marseille","lat":43.2872,"lon":5.36096,"is_reserved":false,"is_disabled":true,"rental_uris":{"android":"levelo://app?vid=812bccce-fe45-4eb2-a4f8-fb64bc4c7135","ios":"levelo://app?vid=812bccce-fe45-4eb2-a4f8-fb64bc4c7135"},"vehicle_type_id":"4","last_reported":1750007318,"current_range_meters":1600,"station_id":"cki0cbj6b192h4jlfktg","pricing_plan_id":"cebpf4jnsgd1na2vs0mg"},{"bike_id":"d2b15c81-4897-422c-a7af-18ba78cf20b6","system_id":"levelo_inurba_marseille","lat":43.305947,"lon":5.393485,"is_reserved":false,"is_disabled":true,"rental_uris":{"android":"levelo://app?vid=d2b15c81-4897-422c-a7af-18ba78cf20b6","ios":"levelo://app?vid=d2b15c81-4897-422c-a7af-18ba78cf20b6"},"vehicle_type_id":"4","last_reported":1750007318,"current_range_meters":2000,"station_id":"ce4bh0p2rcd13ifvqd80","pricing_plan_id":"cebpf4jnsgd1na2vs0mg"},{"bike_id":"fb439ca4-b3be-4562-93e9-17f572c4b1f7","system_id":"levelo_inurba_marseille","lat":43.295192,"lon":5.390442,"is_reserved":false,"is_disabled":false,"rental_uris":{"android":"levelo://app?vid=fb439ca4-b3be-4562-93e9-17f572c4b1f7","ios":"levelo://app?vid=fb439ca4-b3be-4562-93e9-17f572c4b1f7"},"vehicle_type_id":"4","last_reported":1750007318,"current_range_meters":2800,"station_id":"ce4bh3p2rcd13ifvqdp0","pricing_plan_id":"cebpf4jnsgd1na2vs0mg"},{"bike_id":"11b86c98-8922-44ee-8dd6-3f389c2ab3b0","system_id":"levelo_inurba_marseille","lat":43.28673,"lon":5.38664,"is_reserved":false,"is_disabled":false,"rental_uris":{"android":"levelo://app?vid=11b86c98-8922-44ee-8dd6-3f389c2ab3b0","ios":"levelo://app?vid=11b86c98-8922-44ee-8dd6-3f389c2ab3b0"},"vehicle_type_id":"4","last_reported":1750007318,"current_range_meters":2800,"station_id":"ce4bh492rcd13ifvqdug","pricing_plan_id":"cebpf4jnsgd1na2vs0mg"},{"bike_id":"bde04411-bc7a-45e9-813f-52f18cf4b908","system_id":"levelo_inurba_marseille","lat":43.2439,"lon":5.37056,"is_reserved":false,"is_disabled":false,"rental_uris":{"android":"levelo://app?vid=bde04411-bc7a-45e9-813f-52f18cf4b908","ios":"levelo://app?vid=bde04411-bc7a-45e9-813f-52f18cf4b908"},"vehicle_type_id":"4","last_reported":1750007318,"current_range_meters":2800,"station_id":"ce4bhhh2rcd13ifvqfk0","pricing_plan_id":"cebpf4jnsgd1na2vs0mg"},{"bike_id":"c318f4b5-8e11-4a96-831a-1f76c138ff93","system_id":"levelo_inurba_marseille","lat":43.29601,"lon":5.381,"is_reserved":false,"is_disabled":false,"rental_uris":{"android":"levelo://app?vid=c318f4b5-8e11-4a96-831a-1f76c138ff93","ios":"levelo://app?vid=c318f4b5-8e11-4a96-831a-1f76c138ff93"},"vehicle_type_id":"4","last_reported":1750007318,"current_range_meters":3200,"station_id":"ce4bgl12rcd13ifvqbo0","pricing_plan_id":"cebpf4jnsgd1na2vs0mg"},{"bike_id":"b04c4519-d7c8-4509-8016-5b91fcbc67b5","system_id":"levelo_inurba_marseille","lat":43.28924,"lon":5.38397,"is_reserved":false,"is_disabled":false,"rental_uris":{"android":"levelo://app?vid=b04c4519-d7c8-4509-8016-5b91fcbc67b5","ios":"levelo://app?vid=b04c4519-d7c8-4509-8016-5b91fcbc67b5"},"vehicle_type_id":"4","last_reported":1750007318,"current_range_meters":3200,"station_id":"ce4bh612rcd13ifvqe6g","pricing_plan_id":"cebpf4jnsgd1na2vs0mg"},{"bike_id":"f2da1afa-df9c-48ba-aedb-60c37813142b","system_id":"levelo_inurba_marseille","lat":43.33025,"lon":5.39045,"is_reserved":false,"is_disabled":false,"rental_uris":{"android":"levelo://app?vid=f2da1afa-df9c-48ba-aedb-60c37813142b","ios":"levelo://app?vid=f2da1afa-df9c-48ba-aedb-60c37813142b"},"vehicle_type_id":"4","last_reported":1750007318,"current_range_meters":3200,"station_id":"ce4bhr92rcd13ifvqhrg","pricing_plan_id":"cebpf4jnsgd1na2vs0mg"},{"bike_id":"19f36125-5356-4c09-86ba-b894f9e8107a","system_id":"levelo_inurba_marseille","lat":43.29165,"lon":5.3759,"is_reserved":false,"is_disabled":false,"rental_uris":{"android":"levelo://app?vid=19f36125-5356-4c09-86ba-b894f9e8107a","ios":"levelo://app?vid=19f36125-5356-4c09-86ba-b894f9e8107a"},"vehicle_type_id":"4","last_reported":1750007318,"current_range_meters":4400,"station_id":"","pricing_plan_id":"cebpf4jnsgd1na2vs0mg"},{"bike_id":"8d7b485a-e9cc-46f7-ba89-aa869886c6d7","system_id":"levelo_inurba_marseille","lat":43.29292,"lon":5.37459,"is_reserved":false,"is_disabled":false,"rental_uris":{"android":"levelo://app?vid=8d7b485a-e9cc-46f7-ba89-aa869886c6d7","ios":"levelo://app?vid=8d7b485a-e9cc-46f7-ba89-aa869886c6d7"},"vehicle_type_id":"4","last_reported":1750007318,"current_range_meters":4400,"station_id":"ce4bgi12rcd13ifvqb70","pricing_plan_id":"cebpf4jnsgd1na2vs0mg"},{"bike_id":"3d5d24db-2c70-4d65-9b58-ed0d17dc6aad","system_id":"levelo_inurba_marseille","lat":43.23958,"lon":5.36622,"is_reserved":false,"is_disabled":false,"rental_uris":{"android":"levelo://app?vid=3d5d24db-2c70-4d65-9b58-ed0d17dc6aad","ios":"levelo://app?vid=3d5d24db-2c70-4d65-9b58-ed0d17dc6aad"},"vehicle_type_id":"4","last_reported":1750007318,"current_range_meters":4400,"station_id":"ce4bhi12rcd13ifvqfp0","pricing_plan_id":"cebpf4jnsgd1na2vs0mg"},{"bike_id":"6f6b150a-5043-48d3-9eaa-bb930e1dc35e","system_id":"levelo_inurba_marseille","lat":43.245482,"lon":5.395234,"is_reserved":false,"is_disabled":false,"rental_uris":{"android":"levelo://app?vid=6f6b150a-5043-48d3-9eaa-bb930e1dc35e","ios":"levelo://app?vid=6f6b150a-5043-48d3-9eaa-bb930e1dc35e"},"vehicle_type_id":"4","last_reported":1750007318,"current_range_meters":4400,"station_id":"ce4bhlp2rcd13ifvqgjg","pricing_plan_id":"cebpf4jnsgd1na2vs0mg"},{"bike_id":"2ab31527-f915-4286-b3a0-0beafd2cdd50","system_id":"levelo_inurba_marseille","lat":43.30007,"lon":5.37027,"is_reserved":false,"is_disabled":false,"rental_uris":{"android":"levelo://app?vid=2ab31527-f915-4286-b3a0-0beafd2cdd50","ios":"levelo://app?vid=2ab31527-f915-4286-b3a0-0beafd2cdd50"},"vehicle_type_id":"4","last_reported":1750007318,"current_range_meters":4800,"station_id":"","pricing_plan_id":"cebpf4jnsgd1na2vs0mg"},{"bike_id":"24934152-1ece-4542-ba7a-a19b5e4ebc94","system_id":"levelo_inurba_marseille","lat":43.28616,"lon":5.35105,"is_reserved":false,"is_disabled":false,"rental_uris":{"android":"levelo://app?vid=24934152-1ece-4542-ba7a-a19b5e4ebc94","ios":"levelo://app?vid=24934152-1ece-4542-ba7a-a19b5e4ebc94"},"vehicle_type_id":"4","last_reported":1750007318,"current_range_meters":4800,"station_id":"ce4bhch2rcd13ifvqeug","pricing_plan_id":"cebpf4jnsgd1na2vs0mg"},{"bike_id":"d3fc5c46-36d6-49a9-b900-479f9118158e","system_id":"levelo_inurba_marseille","lat":43.26681,"lon":5.38266,"is_reserved":false,"is_disabled":false,"rental_uris":{"android":"levelo://app?vid=d3fc5c46-36d6-49a9-b900-479f9118158e","ios":"levelo://app?vid=d3fc5c46-36d6-49a9-b900-479f9118158e"},"vehicle_type_id":"4","last_reported":1750007318,"current_range_meters":4800,"station_id":"ce4bhg92rcd13ifvqf90","pricing_plan_id":"cebpf4jnsgd1na2vs0mg"},{"bike_id":"6d36a31c-5523-4c34-88ab-c62eb24a43a4","system_id":"levelo_inurba_marseille","lat":43.26204,"lon":5.37444,"is_reserved":false,"is_disabled":false,"rental_uris":{"android":"levelo://app?vid=6d36a31c-5523-4c34-88ab-c62eb24a43a4","ios":"levelo://app?vid=6d36a31c-5523-4c34-88ab-c62eb24a43a4"},"vehicle_type_id":"4","last_reported":1750007318,"current_range_meters":4800,"station_id":"ce4bhgp2rcd13ifvqfc0","pricing_plan_id":"cebpf4jnsgd1na2vs0mg"},{"bike_id":"09c84132-7417-47b9-ad25-0669f578175b","system_id":"levelo_inurba_marseille","lat":43.29789,"lon":5.38113,"is_reserved":false,"is_disabled":false,"rental_uris":{"android":"levelo://app?vid=09c84132-7417-47b9-ad25-0669f578175b","ios":"levelo://app?vid=09c84132-7417-47b9-ad25-0669f578175b"},"vehicle_type_id":"4","last_reported":1750007318,"current_range_meters":5600,"station_id":"ce4bgip2rcd13ifvqbb0","pricing_plan_id":"cebpf4jnsgd1na2vs0mg"},{"bike_id":"610b0cae-f855-4352-a91d-c0b85cd9bbfb","system_id":"levelo_inurba_marseille","lat":43.291726,"lon":5.375303,"is_reserved":false,"is_disabled":false,"rental_uris":{"android":"levelo://app?vid=610b0cae-f855-4352-a91d-c0b85cd9bbfb","ios":"levelo://app?vid=610b0cae-f855-4352-a91d-c0b85cd9bbfb"},"vehicle_type_id":"4","last_reported":1750007318,"current_range_meters":5600,"station_id":"ce4bh692rcd13ifvqe90","pricing_plan_id":"cebpf4jnsgd1na2vs0mg"},{"bike_id":"a749a792-6ef0-471e-9e39-11adf5645dc5","system_id":"levelo_inurba_marseille","lat":43.21742,"lon":5.34604,"is_reserved":false,"is_disabled":false,"rental_uris":{"android":"levelo://app?vid=a749a792-6ef0-471e-9e39-11adf5645dc5","ios":"levelo://app?vid=a749a792-6ef0-471e-9e39-11adf5645dc5"},"vehicle_type_id":"4","last_reported":1750007318,"current_range_meters":5600,"station_id":"st_cvj6r9ubvosntc0bgbag","pricing_plan_id":"cebpf4jnsgd1na2vs0mg"},{"bike_id":"5e4f39a2-528b-4479-9ccf-3e785344323c","system_id":"levelo_inurba_marseille","lat":43.3053,"lon":5.36713,"is_reserved":false,"is_disabled":false,"rental_uris":{"android":"levelo://app?vid=5e4f39a2-528b-4479-9ccf-3e785344323c","ios":"levelo://app?vid=5e4f39a2-528b-4479-9ccf-3e785344323c"},"vehicle_type_id":"4","last_reported":1750007318,"current_range_meters":6000,"station_id":"ce4bgrp2rcd13ifvqc9g","pricing_plan_id":"cebpf4jnsgd1na2vs0mg"},{"bike_id":"5a1c7b1a-033b-4b2c-953e-e48207c333bd","system_id":"levelo_inurba_marseille","lat":43.30428,"lon":5.39748,"is_reserved":false,"is_disabled":false,"rental_uris":{"android":"levelo://app?vid=5a1c7b1a-033b-4b2c-953e-e48207c333bd","ios":"levelo://app?vid=5a1c7b1a-033b-4b2c-953e-e48207c333bd"},"vehicle_type_id":"4","last_reported":1750007318,"current_range_meters":6000,"station_id":"ce4bh092rcd13ifvqd20","pricing_plan_id":"cebpf4jnsgd1na2vs0mg"},{"bike_id":"357558f0-8b10-41dc-8e13-5c366ecd37b5","system_id":"levelo_inurba_marseille","lat":43.21187,"lon":5.35074,"is_reserved":false,"is_disabled":false,"rental_uris":{"android":"levelo://app?vid=357558f0-8b10-41dc-8e13-5c366ecd37b5","ios":"levelo://app?vid=357558f0-8b10-41dc-8e13-5c366ecd37b5"},"vehicle_type_id":"4","last_reported":1750007318,"current_range_meters":6000,"station_id":"st_cvj6sg6p6f1abm77japg","pricing_plan_id":"cebpf4jnsgd1na2vs0mg"},{"bike_id":"8e29ddd3-1418-4180-a11f-6e5d41c09ef3","system_id":"levelo_inurba_marseille","lat":43.28166,"lon":5.35161,"is_reserved":false,"is_disabled":false,"rental_uris":{"android":"levelo://app?vid=8e29ddd3-1418-4180-a11f-6e5d41c09ef3","ios":"levelo://app?vid=8e29ddd3-1418-4180-a11f-6e5d41c09ef3"},"vehicle_type_id":"4","last_reported":1750007318,"current_range_meters":6800,"station_id":"","pricing_plan_id":"cebpf4jnsgd1na2vs0mg"},{"bike_id":"4d352f80-9e87-4330-abd7-947a09e9cc4b","system_id":"levelo_inurba_marseille","lat":43.25722,"lon":5.41112,"is_reserved":false,"is_disabled":false,"rental_uris":{"android":"levelo://app?vid=4d352f80-9e87-4330-abd7-947a09e9cc4b","ios":"levelo://app?vid=4d352f80-9e87-4330-abd7-947a09e9cc4b"},"vehicle_type_id":"4","last_reported":1750007318,"current_range_meters":6800,"station_id":"ce4bhkp2rcd13ifvqgd0","pricing_plan_id":"cebpf4jnsgd1na2vs0mg"},{"bike_id":"010af991-83d9-46a9-9a26-d4d626b03970","system_id":"levelo_inurba_marseille","lat":43.293089,"lon":5.371757,"is_reserved":false,"is_disabled":true,"rental_uris":{"android":"levelo://app?vid=010af991-83d9-46a9-9a26-d4d626b03970","ios":"levelo://app?vid=010af991-83d9-46a9-9a26-d4d626b03970"},"vehicle_type_id":"4","last_reported":1750007318,"current_range_meters":7200,"station_id":"ce4bgh92rcd13ifvqb40","pricing_plan_id":"cebpf4jnsgd1na2vs0mg"},{"bike_id":"fb6cb43b-92f2-4f08-8753-a17fae54fb99","system_id":"levelo_inurba_marseille","lat":43.30464,"lon":5.37906,"is_reserved":false,"is_disabled":false,"rental_uris":{"android":"levelo://app?vid=fb6cb43b-92f2-4f08-8753-a17fae54fb99","ios":"levelo://app?vid=fb6cb43b-92f2-4f08-8753-a17fae54fb99"},"vehicle_type_id":"4","last_reported":1750007318,"current_range_meters":7200,"station_id":"ce4bgup2rcd13ifvqcn0","pricing_plan_id":"cebpf4jnsgd1na2vs0mg"},{"bike_id":"724caf0a-a332-4c79-8ade-ed4cdbc1a79b","system_id":"levelo_inurba_marseille","lat":43.31324,"lon":5.39707,"is_reserved":false,"is_disabled":false,"rental_uris":{"android":"levelo://app?vid=724caf0a-a332-4c79-8ade-ed4cdbc1a79b","ios":"levelo://app?vid=724caf0a-a332-4c79-8ade-ed4cdbc1a79b"},"vehicle_type_id":"4","last_reported":1750007318,"current_range_meters":7200,"station_id":"ce4bgvp2rcd13ifvqcu0","pricing_plan_id":"cebpf4jnsgd1na2vs0mg"},{"bike_id":"a5605d9c-1d6c-47ae-b81d-6e65cb8eb85c","system_id":"levelo_inurba_marseille","lat":43.26063,"lon":5.39403,"is_reserved":false,"is_disabled":false,"rental_uris":{"android":"levelo://app?vid=a5605d9c-1d6c-47ae-b81d-6e65cb8eb85c","ios":"levelo://app?vid=a5605d9c-1d6c-47ae-b81d-6e65cb8eb85c"},"vehicle_type_id":"4","last_reported":1750007318,"current_range_meters":7200,"station_id":"ce4bhh92rcd13ifvqfj0","pricing_plan_id":"cebpf4jnsgd1na2vs0mg"},{"bike_id":"f5a46044-bcf9-4b0e-acb0-f69cb64cf842","system_id":"levelo_inurba_marseille","lat":43.29629,"lon":5.40595,"is_reserved":false,"is_disabled":false,"rental_uris":{"android":"levelo://app?vid=f5a46044-bcf9-4b0e-acb0-f69cb64cf842","ios":"levelo://app?vid=f5a46044-bcf9-4b0e-acb0-f69cb64cf842"},"vehicle_type_id":"4","last_reported":1750007318,"current_range_meters":8000,"station_id":"ce4bh0h2rcd13ifvqd60","pricing_plan_id":"cebpf4jnsgd1na2vs0mg"},{"bike_id":"4bc78641-4d17-41ec-8d24-5a883318f70f","system_id":"levelo_inurba_marseille","lat":43.29549,"lon":5.42291,"is_reserved":false,"is_disabled":false,"rental_uris":{"android":"levelo://app?vid=4bc78641-4d17-41ec-8d24-5a883318f70f","ios":"levelo://app?vid=4bc78641-4d17-41ec-8d24-5a883318f70f"},"vehicle_type_id":"4","last_reported":1750007318,"current_range_meters":8000,"station_id":"ce4bhph2rcd13ifvqhdg","pricing_plan_id":"cebpf4jnsgd1na2vs0mg"},{"bike_id":"fe5775bb-e210-47a7-9a7f-c1f8e572a958","system_id":"levelo_inurba_marseille","lat":43.23153,"lon":5.43714,"is_reserved":false,"is_disabled":false,"rental_uris":{"android":"levelo://app?vid=fe5775bb-e210-47a7-9a7f-c1f8e572a958","ios":"levelo://app?vid=fe5775bb-e210-47a7-9a7f-c1f8e572a958"},"vehicle_type_id":"4","last_reported":1750007318,"current_range_meters":8400,"station_id":"ce4bhmp2rcd13ifvqgog","pricing_plan_id":"cebpf4jnsgd1na2vs0mg"},{"bike_id":"2eb2516b-5f9f-4f58-8493-07049b393727","system_id":"levelo_inurba_marseille","lat":43.33729,"lon":5.39197,"is_reserved":false,"is_disabled":false,"rental_uris":{"android":"levelo://app?vid=2eb2516b-5f9f-4f58-8493-07049b393727","ios":"levelo://app?vid=2eb2516b-5f9f-4f58-8493-07049b393727"},"vehicle_type_id":"4","last_reported":1750007318,"current_range_meters":8400,"station_id":"ce4bhr92rcd13ifvqhsg","pricing_plan_id":"cebpf4jnsgd1na2vs0mg"},{"bike_id":"8e394b31-37fa-486e-8478-ae4d2be78be4","system_id":"levelo_inurba_marseille","lat":43.295767,"lon":5.375257,"is_reserved":false,"is_disabled":false,"rental_uris":{"android":"levelo://app?vid=8e394b31-37fa-486e-8478-ae4d2be78be4","ios":"levelo://app?vid=8e394b31-37fa-486e-8478-ae4d2be78be4"},"vehicle_type_id":"4","last_reported":1750007318,"current_range_meters":8800,"station_id":"ce4bgh92rcd13ifvqb50","pricing_plan_id":"cebpf4jnsgd1na2vs0mg"},{"bike_id":"ffa8444f-a84b-49fd-aa56-50cb025c7a93","system_id":"levelo_inurba_marseille","lat":43.212,"lon":5.35062,"is_reserved":false,"is_disabled":false,"rental_uris":{"android":"levelo://app?vid=ffa8444f-a84b-49fd-aa56-50cb025c7a93","ios":"levelo://app?vid=ffa8444f-a84b-49fd-aa56-50cb025c7a93"},"vehicle_type_id":"4","last_reported":1750007318,"current_range_meters":8800,"station_id":"st_cvj6sg6p6f1abm77japg","pricing_plan_id":"cebpf4jnsgd1na2vs0mg"},{"bike_id":"fea30cc2-fffb-4fe0-987b-8c98feba986e","system_id":"levelo_inurba_marseille","lat":43.30141,"lon":5.37423,"is_reserved":false,"is_disabled":false,"rental_uris":{"android":"levelo://app?vid=fea30cc2-fffb-4fe0-987b-8c98feba986e","ios":"levelo://app?vid=fea30cc2-fffb-4fe0-987b-8c98feba986e"},"vehicle_type_id":"4","last_reported":1750007318,"current_range_meters":9200,"station_id":"ce4bgs92rcd13ifvqcc0","pricing_plan_id":"cebpf4jnsgd1na2vs0mg"},{"bike_id":"2f0afe3d-02bb-409b-a415-aae3030b4b1c","system_id":"levelo_inurba_marseille","lat":43.313225,"lon":5.396921,"is_reserved":false,"is_disabled":false,"rental_uris":{"android":"levelo://app?vid=2f0afe3d-02bb-409b-a415-aae3030b4b1c","ios":"levelo://app?vid=2f0afe3d-02bb-409b-a415-aae3030b4b1c"},"vehicle_type_id":"4","last_reported":1750007318,"current_range_meters":9200,"station_id":"ce4bgvp2rcd13ifvqcu0","pricing_plan_id":"cebpf4jnsgd1na2vs0mg"},{"bike_id":"b6eccc57-bbc9-429d-9c95-7ff2eef16b5c","system_id":"levelo_inurba_marseille","lat":43.212753,"lon":5.350191,"is_reserved":false,"is_disabled":false,"rental_uris":{"android":"levelo://app?vid=b6eccc57-bbc9-429d-9c95-7ff2eef16b5c","ios":"levelo://app?vid=b6eccc57-bbc9-429d-9c95-7ff2eef16b5c"},"vehicle_type_id":"4","last_reported":1750007318,"current_range_meters":9200,"station_id":"st_cvj6r9ubvosntc0bgbag","pricing_plan_id":"cebpf4jnsgd1na2vs0mg"},{"bike_id":"ac466850-9a61-464b-b6df-c6eef6e07763","system_id":"levelo_inurba_marseille","lat":43.2175,"lon":5.34603,"is_reserved":false,"is_disabled":true,"rental_uris":{"android":"levelo://app?vid=ac466850-9a61-464b-b6df-c6eef6e07763","ios":"levelo://app?vid=ac466850-9a61-464b-b6df-c6eef6e07763"},"vehicle_type_id":"4","last_reported":1750007318,"current_range_meters":9200,"station_id":"st_cvj6r9ubvosntc0bgbag","pricing_plan_id":"cebpf4jnsgd1na2vs0mg"},{"bike_id":"ab98c478-c6de-4615-af52-2b658c7eb8ac","system_id":"levelo_inurba_marseille","lat":43.29532,"lon":5.38549,"is_reserved":false,"is_disabled":false,"rental_uris":{"android":"levelo://app?vid=ab98c478-c6de-4615-af52-2b658c7eb8ac","ios":"levelo://app?vid=ab98c478-c6de-4615-af52-2b658c7eb8ac"},"vehicle_type_id":"4","last_reported":1750007318,"current_range_meters":9600,"station_id":"ce4bgih2rcd13ifvqba0","pricing_plan_id":"cebpf4jnsgd1na2vs0mg"},{"bike_id":"fef433b8-cfe7-44ce-ac45-14283b324d03","system_id":"levelo_inurba_marseille","lat":43.29968,"lon":5.38497,"is_reserved":false,"is_disabled":false,"rental_uris":{"android":"levelo://app?vid=fef433b8-cfe7-44ce-ac45-14283b324d03","ios":"levelo://app?vid=fef433b8-cfe7-44ce-ac45-14283b324d03"},"vehicle_type_id":"4","last_reported":1750007318,"current_range_meters":9600,"station_id":"ce4bgj92rcd13ifvqbd0","pricing_plan_id":"cebpf4jnsgd1na2vs0mg"},{"bike_id":"2ce0c462-54ba-4a69-8310-4c5da0d48ebe","system_id":"levelo_inurba_marseille","lat":43.28355,"lon":5.38108,"is_reserved":false,"is_disabled":false,"rental_uris":{"android":"levelo://app?vid=2ce0c462-54ba-4a69-8310-4c5da0d48ebe","ios":"levelo://app?vid=2ce0c462-54ba-4a69-8310-4c5da0d48ebe"},"vehicle_type_id":"4","last_reported":1750007318,"current_range_meters":9600,"station_id":"ce4bh412rcd13ifvqdr0","pricing_plan_id":"cebpf4jnsgd1na2vs0mg"},{"bike_id":"fc6eeb15-c047-41e6-af14-edc0dcd87508","system_id":"levelo_inurba_marseille","lat":43.25733,"lon":5.41113,"is_reserved":false,"is_disabled":false,"rental_uris":{"android":"levelo://app?vid=fc6eeb15-c047-41e6-af14-edc0dcd87508","ios":"levelo://app?vid=fc6eeb15-c047-41e6-af14-edc0dcd87508"},"vehicle_type_id":"4","last_reported":1750007318,"current_range_meters":9600,"station_id":"ce4bhkp2rcd13ifvqgd0","pricing_plan_id":"cebpf4jnsgd1na2vs0mg"},{"bike_id":"d97dc030-8405-4eb1-abbf-845730c8e3dc","system_id":"levelo_inurba_marseille","lat":43.21213,"lon":5.35127,"is_reserved":false,"is_disabled":false,"rental_uris":{"android":"levelo://app?vid=d97dc030-8405-4eb1-abbf-845730c8e3dc","ios":"levelo://app?vid=d97dc030-8405-4eb1-abbf-845730c8e3dc"},"vehicle_type_id":"4","last_reported":1750007318,"current_range_meters":9600,"station_id":"st_cvj6sg6p6f1abm77japg","pricing_plan_id":"cebpf4jnsgd1na2vs0mg"},{"bike_id":"387d1fed-118c-437b-bd55-020621253e35","system_id":"levelo_inurba_marseille","lat":43.24096,"lon":5.36823,"is_reserved":false,"is_disabled":false,"rental_uris":{"android":"levelo://app?vid=387d1fed-118c-437b-bd55-020621253e35","ios":"levelo://app?vid=387d1fed-118c-437b-bd55-020621253e35"},"vehicle_type_id":"4","last_reported":1750007318,"current_range_meters":10000,"station_id":"","pricing_plan_id":"cebpf4jnsgd1na2vs0mg"},{"bike_id":"c898b74a-0bd7-4764-a909-c752ba772fdf","system_id":"levelo_inurba_marseille","lat":43.29195,"lon":5.35812,"is_reserved":false,"is_disabled":false,"rental_uris":{"android":"levelo://app?vid=c898b74a-0bd7-4764-a909-c752ba772fdf","ios":"levelo://app?vid=c898b74a-0bd7-4764-a909-c752ba772fdf"},"vehicle_type_id":"4","last_reported":1750007318,"current_range_meters":10000,"station_id":"ce4bhb12rcd13ifvqel0","pricing_plan_id":"cebpf4jnsgd1na2vs0mg"},{"bike_id":"db75b730-9a47-47f1-881e-034bd6d3354f","system_id":"levelo_inurba_marseille","lat":43.28683,"lon":5.39938,"is_reserved":false,"is_disabled":false,"rental_uris":{"android":"levelo://app?vid=db75b730-9a47-47f1-881e-034bd6d3354f","ios":"levelo://app?vid=db75b730-9a47-47f1-881e-034bd6d3354f"},"vehicle_type_id":"4","last_reported":1750007318,"current_range_meters":10000,"station_id":"ce4bho92rcd13ifvqh3g","pricing_plan_id":"cebpf4jnsgd1na2vs0mg"},{"bike_id":"ee223872-c037-4f76-83f6-bc2cd5d9e8de","system_id":"levelo_inurba_marseille","lat":43.21217,"lon":5.35078,"is_reserved":false,"is_disabled":false,"rental_uris":{"android":"levelo://app?vid=ee223872-c037-4f76-83f6-bc2cd5d9e8de","ios":"levelo://app?vid=ee223872-c037-4f76-83f6-bc2cd5d9e8de"},"vehicle_type_id":"4","last_reported":1750007318,"current_range_meters":10000,"station_id":"st_cvj6sg6p6f1abm77japg","pricing_plan_id":"cebpf4jnsgd1na2vs0mg"},{"bike_id":"4d888f10-97c2-48bc-98ff-598712936b88","system_id":"levelo_inurba_marseille","lat":43.3159,"lon":5.38889,"is_reserved":false,"is_disabled":false,"rental_uris":{"android":"levelo://app?vid=4d888f10-97c2-48bc-98ff-598712936b88","ios":"levelo://app?vid=4d888f10-97c2-48bc-98ff-598712936b88"},"vehicle_type_id":"4","last_reported":1750007318,"current_range_meters":10800,"station_id":"","pricing_plan_id":"cebpf4jnsgd1na2vs0mg"},{"bike_id":"75c026b5-c89e-4e02-9821-a749cd93ec6f","system_id":"levelo_inurba_marseille","lat":43.3047,"lon":5.3789,"is_reserved":false,"is_disabled":false,"rental_uris":{"android":"levelo://app?vid=75c026b5-c89e-4e02-9821-a749cd93ec6f","ios":"levelo://app?vid=75c026b5-c89e-4e02-9821-a749cd93ec6f"},"vehicle_type_id":"4","last_reported":1750007318,"current_range_meters":10800,"station_id":"ce4bgup2rcd13ifvqcn0","pricing_plan_id":"cebpf4jnsgd1na2vs0mg"},{"bike_id":"640a892c-692d-4ed4-8342-0b7917746949","system_id":"levelo_inurba_marseille","lat":43.29027,"lon":5.38639,"is_reserved":false,"is_disabled":false,"rental_uris":{"android":"levelo://app?vid=640a892c-692d-4ed4-8342-0b7917746949","ios":"levelo://app?vid=640a892c-692d-4ed4-8342-0b7917746949"},"vehicle_type_id":"4","last_reported":1750007318,"current_range_meters":10800,"station_id":"ce4bh4p2rcd13ifvqe0g","pricing_plan_id":"cebpf4jnsgd1na2vs0mg"},{"bike_id":"1a7d4bc9-d8c1-4807-9716-f39a0a11365e","system_id":"levelo_inurba_marseille","lat":43.23147,"lon":5.4372,"is_reserved":false,"is_disabled":false,"rental_uris":{"android":"levelo://app?vid=1a7d4bc9-d8c1-4807-9716-f39a0a11365e","ios":"levelo://app?vid=1a7d4bc9-d8c1-4807-9716-f39a0a11365e"},"vehicle_type_id":"4","last_reported":1750007318,"current_range_meters":10800,"station_id":"ce4bhmp2rcd13ifvqgog","pricing_plan_id":"cebpf4jnsgd1na2vs0mg"},{"bike_id":"1864a967-7be2-4414-94cf-03be59fd5a18","system_id":"levelo_inurba_marseille","lat":43.24077,"lon":5.37755,"is_reserved":false,"is_disabled":false,"rental_uris":{"android":"levelo://app?vid=1864a967-7be2-4414-94cf-03be59fd5a18","ios":"levelo://app?vid=1864a967-7be2-4414-94cf-03be59fd5a18"},"vehicle_type_id":"4","last_reported":1750007318,"current_range_meters":10800,"station_id":"ce4bhnp2rcd13ifvqgvg","pricing_plan_id":"cebpf4jnsgd1na2vs0mg"},{"bike_id":"d8a4f7b4-052d-4bce-ae83-b9167311e0ea","system_id":"levelo_inurba_marseille","lat":43.21181,"lon":5.35072,"is_reserved":false,"is_disabled":false,"rental_uris":{"android":"levelo://app?vid=d8a4f7b4-052d-4bce-ae83-b9167311e0ea","ios":"levelo://app?vid=d8a4f7b4-052d-4bce-ae83-b9167311e0ea"},"vehicle_type_id":"4","last_reported":1750007318,"current_range_meters":10800,"station_id":"st_cvj6sg6p6f1abm77japg","pricing_plan_id":"cebpf4jnsgd1na2vs0mg"},{"bike_id":"bf61062e-31f1-4a6f-8966-c2c74d688473","system_id":"levelo_inurba_marseille","lat":43.26963,"lon":5.38998,"is_reserved":false,"is_disabled":false,"rental_uris":{"android":"levelo://app?vid=bf61062e-31f1-4a6f-8966-c2c74d688473","ios":"levelo://app?vid=bf61062e-31f1-4a6f-8966-c2c74d688473"},"vehicle_type_id":"4","last_reported":1750007318,"current_range_meters":11200,"station_id":"","pricing_plan_id":"cebpf4jnsgd1na2vs0mg"},{"bike_id":"cb2edeff-7eff-4c8c-bc41-774236df2e49","system_id":"levelo_inurba_marseille","lat":43.32349,"lon":5.40616,"is_reserved":false,"is_disabled":false,"rental_uris":{"android":"levelo://app?vid=cb2edeff-7eff-4c8c-bc41-774236df2e49","ios":"levelo://app?vid=cb2edeff-7eff-4c8c-bc41-774236df2e49"},"vehicle_type_id":"4","last_reported":1750007318,"current_range_meters":11200,"station_id":"ce4bhq92rcd13ifvqhjg","pricing_plan_id":"cebpf4jnsgd1na2vs0mg"},{"bike_id":"3c5e4a8b-894f-4116-a283-4c85935c69fb","system_id":"levelo_inurba_marseille","lat":43.24672,"lon":5.38158,"is_reserved":false,"is_disabled":false,"rental_uris":{"android":"levelo://app?vid=3c5e4a8b-894f-4116-a283-4c85935c69fb","ios":"levelo://app?vid=3c5e4a8b-894f-4116-a283-4c85935c69fb"},"vehicle_type_id":"4","last_reported":1750007318,"current_range_meters":11600,"station_id":"ce4bhih2rcd13ifvqfr0","pricing_plan_id":"cebpf4jnsgd1na2vs0mg"},{"bike_id":"3c4d4cd2-050e-46ac-85d6-64baa38305d9","system_id":"levelo_inurba_marseille","lat":43.23202,"lon":5.35542,"is_reserved":false,"is_disabled":false,"rental_uris":{"android":"levelo://app?vid=3c4d4cd2-050e-46ac-85d6-64baa38305d9","ios":"levelo://app?vid=3c4d4cd2-050e-46ac-85d6-64baa38305d9"},"vehicle_type_id":"4","last_reported":1750007318,"current_range_meters":11600,"station_id":"ce4bhu92rcd13ifvqi70","pricing_plan_id":"cebpf4jnsgd1na2vs0mg"},{"bike_id":"a69df813-ba0d-4801-ab9d-c507c2acef65","system_id":"levelo_inurba_marseille","lat":43.29371,"lon":5.37842,"is_reserved":false,"is_disabled":false,"rental_uris":{"android":"levelo://app?vid=a69df813-ba0d-4801-ab9d-c507c2acef65","ios":"levelo://app?vid=a69df813-ba0d-4801-ab9d-c507c2acef65"},"vehicle_type_id":"4","last_reported":1750007318,"current_range_meters":12000,"station_id":"ce4bgjh2rcd13ifvqbf0","pricing_plan_id":"cebpf4jnsgd1na2vs0mg"},{"bike_id":"73d2bea6-f99d-4671-8954-580edff743bc","system_id":"levelo_inurba_marseille","lat":43.21213,"lon":5.35064,"is_reserved":false,"is_disabled":false,"rental_uris":{"android":"levelo://app?vid=73d2bea6-f99d-4671-8954-580edff743bc","ios":"levelo://app?vid=73d2bea6-f99d-4671-8954-580edff743bc"},"vehicle_type_id":"4","last_reported":1750007318,"current_range_meters":12000,"station_id":"st_cvj6sg6p6f1abm77japg","pricing_plan_id":"cebpf4jnsgd1na2vs0mg"},{"bike_id":"80d7c1dd-9c05-478f-a308-632c27a6be9f","system_id":"levelo_inurba_marseille","lat":43.27067,"lon":5.42279,"is_reserved":false,"is_disabled":false,"rental_uris":{"android":"levelo://app?vid=80d7c1dd-9c05-478f-a308-632c27a6be9f","ios":"levelo://app?vid=80d7c1dd-9c05-478f-a308-632c27a6be9f"},"vehicle_type_id":"4","last_reported":1750007318,"current_range_meters":12400,"station_id":"ce4bhk92rcd13ifvqgb0","pricing_plan_id":"cebpf4jnsgd1na2vs0mg"},{"bike_id":"e1e074f1-1b9a-426b-9d1e-fa661d8486b8","system_id":"levelo_inurba_marseille","lat":43.30418,"lon":5.41281,"is_reserved":false,"is_disabled":false,"rental_uris":{"android":"levelo://app?vid=e1e074f1-1b9a-426b-9d1e-fa661d8486b8","ios":"levelo://app?vid=e1e074f1-1b9a-426b-9d1e-fa661d8486b8"},"vehicle_type_id":"4","last_reported":1750007318,"current_range_meters":12800,"station_id":"ce4bhop2rcd13ifvqh8g","pricing_plan_id":"cebpf4jnsgd1na2vs0mg"},{"bike_id":"2319ce10-a51c-42ad-ad50-827b68e4f300","system_id":"levelo_inurba_marseille","lat":43.29704,"lon":5.37991,"is_reserved":false,"is_disabled":false,"rental_uris":{"android":"levelo://app?vid=2319ce10-a51c-42ad-ad50-827b68e4f300","ios":"levelo://app?vid=2319ce10-a51c-42ad-ad50-827b68e4f300"},"vehicle_type_id":"4","last_reported":1750007318,"current_range_meters":13600,"station_id":"","pricing_plan_id":"cebpf4jnsgd1na2vs0mg"},{"bike_id":"5bf19c18-d0ad-489b-bd15-9440a1d65b2d","system_id":"levelo_inurba_marseille","lat":43.21193,"lon":5.35071,"is_reserved":false,"is_disabled":false,"rental_uris":{"android":"levelo://app?vid=5bf19c18-d0ad-489b-bd15-9440a1d65b2d","ios":"levelo://app?vid=5bf19c18-d0ad-489b-bd15-9440a1d65b2d"},"vehicle_type_id":"4","last_reported":1750007318,"current_range_meters":13600,"station_id":"st_cvj6sg6p6f1abm77japg","pricing_plan_id":"cebpf4jnsgd1na2vs0mg"},{"bike_id":"8d05a31a-b27b-46ed-87f5-b4621a005fa9","system_id":"levelo_inurba_marseille","lat":43.23195,"lon":5.3555,"is_reserved":false,"is_disabled":false,"rental_uris":{"android":"levelo://app?vid=8d05a31a-b27b-46ed-87f5-b4621a005fa9","ios":"levelo://app?vid=8d05a31a-b27b-46ed-87f5-b4621a005fa9"},"vehicle_type_id":"4","last_reported":1750007318,"current_range_meters":14000,"station_id":"ce4bhu92rcd13ifvqi70","pricing_plan_id":"cebpf4jnsgd1na2vs0mg"},{"bike_id":"516d9f5c-a9ce-43ab-ac30-5393e9b521d3","system_id":"levelo_inurba_marseille","lat":43.23061,"lon":5.35483,"is_reserved":false,"is_disabled":false,"rental_uris":{"android":"levelo://app?vid=516d9f5c-a9ce-43ab-ac30-5393e9b521d3","ios":"levelo://app?vid=516d9f5c-a9ce-43ab-ac30-5393e9b521d3"},"vehicle_type_id":"4","last_reported":1750007318,"current_range_meters":14000,"station_id":"cpo3342slgdg3j2ifvpg","pricing_plan_id":"cebpf4jnsgd1na2vs0mg"},{"bike_id":"060b4b49-1c05-48ba-9f11-13b4737acf8d","system_id":"levelo_inurba_marseille","lat":43.2926,"lon":5.38445,"is_reserved":false,"is_disabled":false,"rental_uris":{"android":"levelo://app?vid=060b4b49-1c05-48ba-9f11-13b4737acf8d","ios":"levelo://app?vid=060b4b49-1c05-48ba-9f11-13b4737acf8d"},"vehicle_type_id":"4","last_reported":1750007318,"current_range_meters":14400,"station_id":"ce4bh692rcd13ifvqea0","pricing_plan_id":"cebpf4jnsgd1na2vs0mg"},{"bike_id":"ff2b01be-1be2-4771-9c39-884f8428d67d","system_id":"levelo_inurba_marseille","lat":43.28414,"lon":5.34992,"is_reserved":false,"is_disabled":false,"rental_uris":{"android":"levelo://app?vid=ff2b01be-1be2-4771-9c39-884f8428d67d","ios":"levelo://app?vid=ff2b01be-1be2-4771-9c39-884f8428d67d"},"vehicle_type_id":"4","last_reported":1750007318,"current_range_meters":14400,"station_id":"ce4bhbh2rcd13ifvqepg","pricing_plan_id":"cebpf4jnsgd1na2vs0mg"},{"bike_id":"9c2c3840-4fda-4621-ba7b-8a188b1f3598","system_id":"levelo_inurba_marseille","lat":43.28608,"lon":5.35108,"is_reserved":false,"is_disabled":false,"rental_uris":{"android":"levelo://app?vid=9c2c3840-4fda-4621-ba7b-8a188b1f3598","ios":"levelo://app?vid=9c2c3840-4fda-4621-ba7b-8a188b1f3598"},"vehicle_type_id":"4","last_reported":1750007318,"current_range_meters":14400,"station_id":"ce4bhch2rcd13ifvqeug","pricing_plan_id":"cebpf4jnsgd1na2vs0mg"},{"bike_id":"3e8a5d8c-4842-4fb9-9df8-529817070a63","system_id":"levelo_inurba_marseille","lat":43.26031,"lon":5.37544,"is_reserved":false,"is_disabled":false,"rental_uris":{"android":"levelo://app?vid=3e8a5d8c-4842-4fb9-9df8-529817070a63","ios":"levelo://app?vid=3e8a5d8c-4842-4fb9-9df8-529817070a63"},"vehicle_type_id":"4","last_reported":1750007318,"current_range_meters":14400,"station_id":"ce4bhgh2rcd13ifvqfa0","pricing_plan_id":"cebpf4jnsgd1na2vs0mg"},{"bike_id":"05f85104-1103-4dc3-b63c-5af735902a50","system_id":"levelo_inurba_marseille","lat":43.23151,"lon":5.43711,"is_reserved":false,"is_disabled":false,"rental_uris":{"android":"levelo://app?vid=05f85104-1103-4dc3-b63c-5af735902a50","ios":"levelo://app?vid=05f85104-1103-4dc3-b63c-5af735902a50"},"vehicle_type_id":"4","last_reported":1750007318,"current_range_meters":14400,"station_id":"ce4bhmp2rcd13ifvqgog","pricing_plan_id":"cebpf4jnsgd1na2vs0mg"},{"bike_id":"80b45b3c-ba87-43fa-b870-0769c1a72b1e","system_id":"levelo_inurba_marseille","lat":43.28267,"lon":5.35048,"is_reserved":false,"is_disabled":false,"rental_uris":{"android":"levelo://app?vid=80b45b3c-ba87-43fa-b870-0769c1a72b1e","ios":"levelo://app?vid=80b45b3c-ba87-43fa-b870-0769c1a72b1e"},"vehicle_type_id":"4","last_reported":1750007318,"current_range_meters":14800,"station_id":"ce4bhbp2rcd13ifvqerg","pricing_plan_id":"cebpf4jnsgd1na2vs0mg"},{"bike_id":"4fde51c5-c865-4000-be8d-4c9149a0096f","system_id":"levelo_inurba_marseille","lat":43.23948,"lon":5.36673,"is_reserved":false,"is_disabled":false,"rental_uris":{"android":"levelo://app?vid=4fde51c5-c865-4000-be8d-4c9149a0096f","ios":"levelo://app?vid=4fde51c5-c865-4000-be8d-4c9149a0096f"},"vehicle_type_id":"4","last_reported":1750007318,"current_range_meters":14800,"station_id":"ce4bhi12rcd13ifvqfp0","pricing_plan_id":"cebpf4jnsgd1na2vs0mg"},{"bike_id":"9a0c3f99-8244-4ee9-a116-a84f3fe33d04","system_id":"levelo_inurba_marseille","lat":43.2328,"lon":5.3565,"is_reserved":false,"is_disabled":false,"rental_uris":{"android":"levelo://app?vid=9a0c3f99-8244-4ee9-a116-a84f3fe33d04","ios":"levelo://app?vid=9a0c3f99-8244-4ee9-a116-a84f3fe33d04"},"vehicle_type_id":"4","last_reported":1750007318,"current_range_meters":15200,"station_id":"","pricing_plan_id":"cebpf4jnsgd1na2vs0mg"},{"bike_id":"d4828a01-a398-4a89-8d01-7eabe3f9c669","system_id":"levelo_inurba_marseille","lat":43.23964,"lon":5.36631,"is_reserved":false,"is_disabled":false,"rental_uris":{"android":"levelo://app?vid=d4828a01-a398-4a89-8d01-7eabe3f9c669","ios":"levelo://app?vid=d4828a01-a398-4a89-8d01-7eabe3f9c669"},"vehicle_type_id":"4","last_reported":1750007318,"current_range_meters":15200,"station_id":"ce4bhi12rcd13ifvqfp0","pricing_plan_id":"cebpf4jnsgd1na2vs0mg"},{"bike_id":"cae08f8a-9511-476d-9ad2-fc5efb61a8eb","system_id":"levelo_inurba_marseille","lat":43.21573,"lon":5.34749,"is_reserved":false,"is_disabled":false,"rental_uris":{"android":"levelo://app?vid=cae08f8a-9511-476d-9ad2-fc5efb61a8eb","ios":"levelo://app?vid=cae08f8a-9511-476d-9ad2-fc5efb61a8eb"},"vehicle_type_id":"4","last_reported":1750007318,"current_range_meters":16000,"station_id":"","pricing_plan_id":"cebpf4jnsgd1na2vs0mg"},{"bike_id":"91753df6-b383-4702-8414-24237e81fab8","system_id":"levelo_inurba_marseille","lat":43.244337,"lon":5.371573,"is_reserved":false,"is_disabled":false,"rental_uris":{"android":"levelo://app?vid=91753df6-b383-4702-8414-24237e81fab8","ios":"levelo://app?vid=91753df6-b383-4702-8414-24237e81fab8"},"vehicle_type_id":"4","last_reported":1750007318,"current_range_meters":16000,"station_id":"","pricing_plan_id":"cebpf4jnsgd1na2vs0mg"},{"bike_id":"97f8851e-21a3-4c6a-8d82-1c239c500fcb","system_id":"levelo_inurba_marseille","lat":43.273777,"lon":5.362576,"is_reserved":false,"is_disabled":false,"rental_uris":{"android":"levelo://app?vid=97f8851e-21a3-4c6a-8d82-1c239c500fcb","ios":"levelo://app?vid=97f8851e-21a3-4c6a-8d82-1c239c500fcb"},"vehicle_type_id":"4","last_reported":1750007318,"current_range_meters":16000,"station_id":"","pricing_plan_id":"cebpf4jnsgd1na2vs0mg"},{"bike_id":"0fe8d47d-0db3-437d-9239-f712b4736eb4","system_id":"levelo_inurba_marseille","lat":43.32157,"lon":5.36759,"is_reserved":false,"is_disabled":false,"rental_uris":{"android":"levelo://app?vid=0fe8d47d-0db3-437d-9239-f712b4736eb4","ios":"levelo://app?vid=0fe8d47d-0db3-437d-9239-f712b4736eb4"},"vehicle_type_id":"4","last_reported":1750007318,"current_range_meters":16000,"station_id":"","pricing_plan_id":"cebpf4jnsgd1na2vs0mg"},{"bike_id":"c6a47567-da25-491e-84a4-0a0062c46909","system_id":"levelo_inurba_marseille","lat":43.317025,"lon":5.37758,"is_reserved":false,"is_disabled":false,"rental_uris":{"android":"levelo://app?vid=c6a47567-da25-491e-84a4-0a0062c46909","ios":"levelo://app?vid=c6a47567-da25-491e-84a4-0a0062c46909"},"vehicle_type_id":"4","last_reported":1750007318,"current_range_meters":16000,"station_id":"ce4bgth2rcd13ifvqch0","pricing_plan_id":"cebpf4jnsgd1na2vs0mg"},{"bike_id":"3129ae00-a318-49cf-98fd-4c7e445a7d93","system_id":"levelo_inurba_marseille","lat":43.29802,"lon":5.40388,"is_reserved":false,"is_disabled":false,"rental_uris":{"android":"levelo://app?vid=3129ae00-a318-49cf-98fd-4c7e445a7d93","ios":"levelo://app?vid=3129ae00-a318-49cf-98fd-4c7e445a7d93"},"vehicle_type_id":"4","last_reported":1750007318,"current_range_meters":16000,"station_id":"ce4bh112rcd13ifvqd90","pricing_plan_id":"cebpf4jnsgd1na2vs0mg"},{"bike_id":"1b34b287-b900-48c9-b03b-4fea8e2f3be4","system_id":"levelo_inurba_marseille","lat":43.29433,"lon":5.39742,"is_reserved":false,"is_disabled":false,"rental_uris":{"android":"levelo://app?vid=1b34b287-b900-48c9-b03b-4fea8e2f3be4","ios":"levelo://app?vid=1b34b287-b900-48c9-b03b-4fea8e2f3be4"},"vehicle_type_id":"4","last_reported":1750007318,"current_range_meters":16000,"station_id":"ce4bh3h2rcd13ifvqdo0","pricing_plan_id":"cebpf4jnsgd1na2vs0mg"},{"bike_id":"3aa9948a-f296-425c-9159-4c0bcf61b9b5","system_id":"levelo_inurba_marseille","lat":43.29001,"lon":5.35615,"is_reserved":false,"is_disabled":false,"rental_uris":{"android":"levelo://app?vid=3aa9948a-f296-425c-9159-4c0bcf61b9b5","ios":"levelo://app?vid=3aa9948a-f296-425c-9159-4c0bcf61b9b5"},"vehicle_type_id":"4","last_reported":1750007318,"current_range_meters":16000,"station_id":"ce4bhb92rcd13ifvqen0","pricing_plan_id":"cebpf4jnsgd1na2vs0mg"},{"bike_id":"6ab6b5e9-2b2f-476c-861d-e735f21df255","system_id":"levelo_inurba_marseille","lat":43.26234,"lon":5.4045,"is_reserved":false,"is_disabled":false,"rental_uris":{"android":"levelo://app?vid=6ab6b5e9-2b2f-476c-861d-e735f21df255","ios":"levelo://app?vid=6ab6b5e9-2b2f-476c-861d-e735f21df255"},"vehicle_type_id":"4","last_reported":1750007318,"current_range_meters":16000,"station_id":"ce4bhmh2rcd13ifvqgmg","pricing_plan_id":"cebpf4jnsgd1na2vs0mg"},{"bike_id":"b3216bbf-ea7e-49f9-b09d-05ab44a14973","system_id":"levelo_inurba_marseille","lat":43.21245,"lon":5.35159,"is_reserved":false,"is_disabled":false,"rental_uris":{"android":"levelo://app?vid=b3216bbf-ea7e-49f9-b09d-05ab44a14973","ios":"levelo://app?vid=b3216bbf-ea7e-49f9-b09d-05ab44a14973"},"vehicle_type_id":"4","last_reported":1750007318,"current_range_meters":16400,"station_id":"","pricing_plan_id":"cebpf4jnsgd1na2vs0mg"},{"bike_id":"38e08ec6-738b-4a04-a092-dec10c6891d3","system_id":"levelo_inurba_marseille","lat":43.26893,"lon":5.40706,"is_reserved":false,"is_disabled":false,"rental_uris":{"android":"levelo://app?vid=38e08ec6-738b-4a04-a092-dec10c6891d3","ios":"levelo://app?vid=38e08ec6-738b-4a04-a092-dec10c6891d3"},"vehicle_type_id":"4","last_reported":1750007318,"current_range_meters":16400,"station_id":"","pricing_plan_id":"cebpf4jnsgd1na2vs0mg"},{"bike_id":"03c7dc0e-2f83-40b8-b858-efa82bce6450","system_id":"levelo_inurba_marseille","lat":43.31483,"lon":5.37309,"is_reserved":false,"is_disabled":false,"rental_uris":{"android":"levelo://app?vid=03c7dc0e-2f83-40b8-b858-efa82bce6450","ios":"levelo://app?vid=03c7dc0e-2f83-40b8-b858-efa82bce6450"},"vehicle_type_id":"4","last_reported":1750007318,"current_range_meters":16400,"station_id":"ce4bgt12rcd13ifvqcd0","pricing_plan_id":"cebpf4jnsgd1na2vs0mg"},{"bike_id":"cbed7ccc-ad57-4704-a162-4565bf909f61","system_id":"levelo_inurba_marseille","lat":43.279605,"lon":5.387229,"is_reserved":false,"is_disabled":false,"rental_uris":{"android":"levelo://app?vid=cbed7ccc-ad57-4704-a162-4565bf909f61","ios":"levelo://app?vid=cbed7ccc-ad57-4704-a162-4565bf909f61"},"vehicle_type_id":"4","last_reported":1750007318,"current_range_meters":16400,"station_id":"ce4bhg12rcd13ifvqf80","pricing_plan_id":"cebpf4jnsgd1na2vs0mg"},{"bike_id":"c7b7db49-d833-4cd8-958d-fc6fcd28572c","system_id":"levelo_inurba_marseille","lat":43.21196,"lon":5.35071,"is_reserved":false,"is_disabled":false,"rental_uris":{"android":"levelo://app?vid=c7b7db49-d833-4cd8-958d-fc6fcd28572c","ios":"levelo://app?vid=c7b7db49-d833-4cd8-958d-fc6fcd28572c"},"vehicle_type_id":"4","last_reported":1750007318,"current_range_meters":16400,"station_id":"st_cvj6sg6p6f1abm77japg","pricing_plan_id":"cebpf4jnsgd1na2vs0mg"},{"bike_id":"1a8fd5e6-f623-4a91-a999-c2a3bce0269d","system_id":"levelo_inurba_marseille","lat":43.28189,"lon":5.35006,"is_reserved":false,"is_disabled":false,"rental_uris":{"android":"levelo://app?vid=1a8fd5e6-f623-4a91-a999-c2a3bce0269d","ios":"levelo://app?vid=1a8fd5e6-f623-4a91-a999-c2a3bce0269d"},"vehicle_type_id":"4","last_reported":1750007318,"current_range_meters":16800,"station_id":"","pricing_plan_id":"cebpf4jnsgd1na2vs0mg"},{"bike_id":"1d9df16e-4abf-44d7-b6e8-a27dd4aa3ffb","system_id":"levelo_inurba_marseille","lat":43.23098,"lon":5.35702,"is_reserved":false,"is_disabled":false,"rental_uris":{"android":"levelo://app?vid=1d9df16e-4abf-44d7-b6e8-a27dd4aa3ffb","ios":"levelo://app?vid=1d9df16e-4abf-44d7-b6e8-a27dd4aa3ffb"},"vehicle_type_id":"4","last_reported":1750007318,"current_range_meters":16800,"station_id":"","pricing_plan_id":"cebpf4jnsgd1na2vs0mg"},{"bike_id":"ab1b7677-3b0f-4eb3-a198-1a900732ae70","system_id":"levelo_inurba_marseille","lat":43.29529,"lon":5.38542,"is_reserved":false,"is_disabled":false,"rental_uris":{"android":"levelo://app?vid=ab1b7677-3b0f-4eb3-a198-1a900732ae70","ios":"levelo://app?vid=ab1b7677-3b0f-4eb3-a198-1a900732ae70"},"vehicle_type_id":"4","last_reported":1750007318,"current_range_meters":16800,"station_id":"ce4bgih2rcd13ifvqba0","pricing_plan_id":"cebpf4jnsgd1na2vs0mg"},{"bike_id":"2d05de67-8d93-4d84-b991-96ebe9f21d27","system_id":"levelo_inurba_marseille","lat":43.2953,"lon":5.38542,"is_reserved":false,"is_disabled":false,"rental_uris":{"android":"levelo://app?vid=2d05de67-8d93-4d84-b991-96ebe9f21d27","ios":"levelo://app?vid=2d05de67-8d93-4d84-b991-96ebe9f21d27"},"vehicle_type_id":"4","last_reported":1750007318,"current_range_meters":16800,"station_id":"ce4bgih2rcd13ifvqba0","pricing_plan_id":"cebpf4jnsgd1na2vs0mg"},{"bike_id":"c725c101-fe2e-4dd9-92c1-a22fd087455e","system_id":"levelo_inurba_marseille","lat":43.30474,"lon":5.37894,"is_reserved":false,"is_disabled":false,"rental_uris":{"android":"levelo://app?vid=c725c101-fe2e-4dd9-92c1-a22fd087455e","ios":"levelo://app?vid=c725c101-fe2e-4dd9-92c1-a22fd087455e"},"vehicle_type_id":"4","last_reported":1750007318,"current_range_meters":16800,"station_id":"ce4bgup2rcd13ifvqcn0","pricing_plan_id":"cebpf4jnsgd1na2vs0mg"},{"bike_id":"42304720-0c4b-4e90-9e8d-ce6cb4ce1be9","system_id":"levelo_inurba_marseille","lat":43.30794,"lon":5.37653,"is_reserved":false,"is_disabled":false,"rental_uris":{"android":"levelo://app?vid=42304720-0c4b-4e90-9e8d-ce6cb4ce1be9","ios":"levelo://app?vid=42304720-0c4b-4e90-9e8d-ce6cb4ce1be9"},"vehicle_type_id":"4","last_reported":1750007318,"current_range_meters":16800,"station_id":"ce4bgv92rcd13ifvqcq0","pricing_plan_id":"cebpf4jnsgd1na2vs0mg"},{"bike_id":"2d16d2b6-c684-45ab-831f-9a77e91e8afb","system_id":"levelo_inurba_marseille","lat":43.211906,"lon":5.350745,"is_reserved":false,"is_disabled":false,"rental_uris":{"android":"levelo://app?vid=2d16d2b6-c684-45ab-831f-9a77e91e8afb","ios":"levelo://app?vid=2d16d2b6-c684-45ab-831f-9a77e91e8afb"},"vehicle_type_id":"4","last_reported":1750007318,"current_range_meters":16800,"station_id":"st_cvj6sg6p6f1abm77japg","pricing_plan_id":"cebpf4jnsgd1na2vs0mg"},{"bike_id":"cdc7b1a5-e40c-4229-915a-1c5c87e8ac2e","system_id":"levelo_inurba_marseille","lat":43.33095,"lon":5.38251,"is_reserved":false,"is_disabled":false,"rental_uris":{"android":"levelo://app?vid=cdc7b1a5-e40c-4229-915a-1c5c87e8ac2e","ios":"levelo://app?vid=cdc7b1a5-e40c-4229-915a-1c5c87e8ac2e"},"vehicle_type_id":"4","last_reported":1750007318,"current_range_meters":17200,"station_id":"","pricing_plan_id":"cebpf4jnsgd1na2vs0mg"},{"bike_id":"44ded28a-80f1-4b31-ba8c-72302ba186cc","system_id":"levelo_inurba_marseille","lat":43.28573,"lon":5.35089,"is_reserved":false,"is_disabled":false,"rental_uris":{"android":"levelo://app?vid=44ded28a-80f1-4b31-ba8c-72302ba186cc","ios":"levelo://app?vid=44ded28a-80f1-4b31-ba8c-72302ba186cc"},"vehicle_type_id":"4","last_reported":1750007318,"current_range_meters":17200,"station_id":"","pricing_plan_id":"cebpf4jnsgd1na2vs0mg"},{"bike_id":"89a18b9a-f173-477c-8619-6adb8235d04f","system_id":"levelo_inurba_marseille","lat":43.29795,"lon":5.38104,"is_reserved":false,"is_disabled":false,"rental_uris":{"android":"levelo://app?vid=89a18b9a-f173-477c-8619-6adb8235d04f","ios":"levelo://app?vid=89a18b9a-f173-477c-8619-6adb8235d04f"},"vehicle_type_id":"4","last_reported":1750007318,"current_range_meters":17200,"station_id":"ce4bgip2rcd13ifvqbb0","pricing_plan_id":"cebpf4jnsgd1na2vs0mg"},{"bike_id":"9daa3a00-df53-4648-8ebc-390e2fa9ed45","system_id":"levelo_inurba_marseille","lat":43.30135,"lon":5.39833,"is_reserved":false,"is_disabled":false,"rental_uris":{"android":"levelo://app?vid=9daa3a00-df53-4648-8ebc-390e2fa9ed45","ios":"levelo://app?vid=9daa3a00-df53-4648-8ebc-390e2fa9ed45"},"vehicle_type_id":"4","last_reported":1750007318,"current_range_meters":17200,"station_id":"ce4bh0h2rcd13ifvqd40","pricing_plan_id":"cebpf4jnsgd1na2vs0mg"},{"bike_id":"3b7d0130-31b4-4f72-a27d-74feb883a25d","system_id":"levelo_inurba_marseille","lat":43.28937,"lon":5.36393,"is_reserved":false,"is_disabled":false,"rental_uris":{"android":"levelo://app?vid=3b7d0130-31b4-4f72-a27d-74feb883a25d","ios":"levelo://app?vid=3b7d0130-31b4-4f72-a27d-74feb883a25d"},"vehicle_type_id":"4","last_reported":1750007318,"current_range_meters":17200,"station_id":"ce4bhc92rcd13ifvqetg","pricing_plan_id":"cebpf4jnsgd1na2vs0mg"},{"bike_id":"bb64479a-55e2-41f8-896f-add250ae6b09","system_id":"levelo_inurba_marseille","lat":43.28419,"lon":5.34992,"is_reserved":false,"is_disabled":false,"rental_uris":{"android":"levelo://app?vid=bb64479a-55e2-41f8-896f-add250ae6b09","ios":"levelo://app?vid=bb64479a-55e2-41f8-896f-add250ae6b09"},"vehicle_type_id":"4","last_reported":1750007318,"current_range_meters":17600,"station_id":"ce4bhbh2rcd13ifvqepg","pricing_plan_id":"cebpf4jnsgd1na2vs0mg"},{"bike_id":"b6e7f45a-1472-4e44-b991-a98fa8933543","system_id":"levelo_inurba_marseille","lat":43.21191,"lon":5.3507,"is_reserved":false,"is_disabled":false,"rental_uris":{"android":"levelo://app?vid=b6e7f45a-1472-4e44-b991-a98fa8933543","ios":"levelo://app?vid=b6e7f45a-1472-4e44-b991-a98fa8933543"},"vehicle_type_id":"4","last_reported":1750007318,"current_range_meters":17600,"station_id":"st_cvj6sg6p6f1abm77japg","pricing_plan_id":"cebpf4jnsgd1na2vs0mg"},{"bike_id":"0d51830a-756f-4f39-bdf4-2fe9707991c7","system_id":"levelo_inurba_marseille","lat":43.21189,"lon":5.35075,"is_reserved":false,"is_disabled":false,"rental_uris":{"android":"levelo://app?vid=0d51830a-756f-4f39-bdf4-2fe9707991c7","ios":"levelo://app?vid=0d51830a-756f-4f39-bdf4-2fe9707991c7"},"vehicle_type_id":"4","last_reported":1750007318,"current_range_meters":17600,"station_id":"st_cvj6sg6p6f1abm77japg","pricing_plan_id":"cebpf4jnsgd1na2vs0mg"},{"bike_id":"978a26a0-7aa1-45d9-ad87-fad9ff4de22a","system_id":"levelo_inurba_marseille","lat":43.2116,"lon":5.35109,"is_reserved":false,"is_disabled":false,"rental_uris":{"android":"levelo://app?vid=978a26a0-7aa1-45d9-ad87-fad9ff4de22a","ios":"levelo://app?vid=978a26a0-7aa1-45d9-ad87-fad9ff4de22a"},"vehicle_type_id":"4","last_reported":1750007318,"current_range_meters":18000,"station_id":"","pricing_plan_id":"cebpf4jnsgd1na2vs0mg"},{"bike_id":"f9de72c2-0951-4ee0-8d52-f0270a2fd45d","system_id":"levelo_inurba_marseille","lat":43.29418,"lon":5.38613,"is_reserved":false,"is_disabled":false,"rental_uris":{"android":"levelo://app?vid=f9de72c2-0951-4ee0-8d52-f0270a2fd45d","ios":"levelo://app?vid=f9de72c2-0951-4ee0-8d52-f0270a2fd45d"},"vehicle_type_id":"4","last_reported":1750007318,"current_range_meters":18800,"station_id":"ce4bh2h2rcd13ifvqdh0","pricing_plan_id":"cebpf4jnsgd1na2vs0mg"},{"bike_id":"f4bff9b2-4fba-4a8f-8ca1-873f835c64ed","system_id":"levelo_inurba_marseille","lat":43.24657,"lon":5.38163,"is_reserved":false,"is_disabled":false,"rental_uris":{"android":"levelo://app?vid=f4bff9b2-4fba-4a8f-8ca1-873f835c64ed","ios":"levelo://app?vid=f4bff9b2-4fba-4a8f-8ca1-873f835c64ed"},"vehicle_type_id":"4","last_reported":1750007318,"current_range_meters":18800,"station_id":"ce4bhih2rcd13ifvqfr0","pricing_plan_id":"cebpf4jnsgd1na2vs0mg"},{"bike_id":"d4d5e27e-64dd-403c-a7d1-0b5c58bccbc8","system_id":"levelo_inurba_marseille","lat":43.28721,"lon":5.36085,"is_reserved":false,"is_disabled":false,"rental_uris":{"android":"levelo://app?vid=d4d5e27e-64dd-403c-a7d1-0b5c58bccbc8","ios":"levelo://app?vid=d4d5e27e-64dd-403c-a7d1-0b5c58bccbc8"},"vehicle_type_id":"4","last_reported":1750007318,"current_range_meters":18800,"station_id":"cki0cbj6b192h4jlfktg","pricing_plan_id":"cebpf4jnsgd1na2vs0mg"},{"bike_id":"3e9aefdc-4a9f-4ea2-a365-2437f1d3cc9d","system_id":"levelo_inurba_marseille","lat":43.21771,"lon":5.34589,"is_reserved":false,"is_disabled":false,"rental_uris":{"android":"levelo://app?vid=3e9aefdc-4a9f-4ea2-a365-2437f1d3cc9d","ios":"levelo://app?vid=3e9aefdc-4a9f-4ea2-a365-2437f1d3cc9d"},"vehicle_type_id":"4","last_reported":1750007318,"current_range_meters":18800,"station_id":"st_cvj6r9ubvosntc0bgbag","pricing_plan_id":"cebpf4jnsgd1na2vs0mg"},{"bike_id":"84b43430-4d99-410c-abfb-327015b70be1","system_id":"levelo_inurba_marseille","lat":43.33147,"lon":5.38173,"is_reserved":false,"is_disabled":false,"rental_uris":{"android":"levelo://app?vid=84b43430-4d99-410c-abfb-327015b70be1","ios":"levelo://app?vid=84b43430-4d99-410c-abfb-327015b70be1"},"vehicle_type_id":"4","last_reported":1750007318,"current_range_meters":19200,"station_id":"","pricing_plan_id":"cebpf4jnsgd1na2vs0mg"},{"bike_id":"d77094f8-ba5f-4e30-80ea-98896aa3ddef","system_id":"levelo_inurba_marseille","lat":43.23958,"lon":5.36635,"is_reserved":false,"is_disabled":false,"rental_uris":{"android":"levelo://app?vid=d77094f8-ba5f-4e30-80ea-98896aa3ddef","ios":"levelo://app?vid=d77094f8-ba5f-4e30-80ea-98896aa3ddef"},"vehicle_type_id":"4","last_reported":1750007318,"current_range_meters":19200,"station_id":"ce4bhi12rcd13ifvqfp0","pricing_plan_id":"cebpf4jnsgd1na2vs0mg"},{"bike_id":"efb971b9-12e8-413c-a6eb-96a5da00fff8","system_id":"levelo_inurba_marseille","lat":43.31718,"lon":5.42401,"is_reserved":false,"is_disabled":false,"rental_uris":{"android":"levelo://app?vid=efb971b9-12e8-413c-a6eb-96a5da00fff8","ios":"levelo://app?vid=efb971b9-12e8-413c-a6eb-96a5da00fff8"},"vehicle_type_id":"4","last_reported":1750007318,"current_range_meters":19200,"station_id":"ce4bhp92rcd13ifvqhbg","pricing_plan_id":"cebpf4jnsgd1na2vs0mg"},{"bike_id":"b200674b-2afa-40ff-b238-2359448b6baf","system_id":"levelo_inurba_marseille","lat":43.23211,"lon":5.35541,"is_reserved":false,"is_disabled":false,"rental_uris":{"android":"levelo://app?vid=b200674b-2afa-40ff-b238-2359448b6baf","ios":"levelo://app?vid=b200674b-2afa-40ff-b238-2359448b6baf"},"vehicle_type_id":"4","last_reported":1750007318,"current_range_meters":19200,"station_id":"ce4bhu92rcd13ifvqi70","pricing_plan_id":"cebpf4jnsgd1na2vs0mg"},{"bike_id":"011d9f3f-2654-4b9a-a804-395d5992c6c9","system_id":"levelo_inurba_marseille","lat":43.26941,"lon":5.40244,"is_reserved":false,"is_disabled":false,"rental_uris":{"android":"levelo://app?vid=011d9f3f-2654-4b9a-a804-395d5992c6c9","ios":"levelo://app?vid=011d9f3f-2654-4b9a-a804-395d5992c6c9"},"vehicle_type_id":"4","last_reported":1750007318,"current_range_meters":19200,"station_id":"cjm6bp8fraef2m0cb0m0","pricing_plan_id":"cebpf4jnsgd1na2vs0mg"},{"bike_id":"07ee301f-219d-458d-8161-006e5fc4301e","system_id":"levelo_inurba_marseille","lat":43.23065,"lon":5.35486,"is_reserved":false,"is_disabled":false,"rental_uris":{"android":"levelo://app?vid=07ee301f-219d-458d-8161-006e5fc4301e","ios":"levelo://app?vid=07ee301f-219d-458d-8161-006e5fc4301e"},"vehicle_type_id":"4","last_reported":1750007318,"current_range_meters":19200,"station_id":"cpo3342slgdg3j2ifvpg","pricing_plan_id":"cebpf4jnsgd1na2vs0mg"},{"bike_id":"6f904e79-074e-44f7-a4ee-8b0cd00a4a95","system_id":"levelo_inurba_marseille","lat":43.21203,"lon":5.35079,"is_reserved":false,"is_disabled":false,"rental_uris":{"android":"levelo://app?vid=6f904e79-074e-44f7-a4ee-8b0cd00a4a95","ios":"levelo://app?vid=6f904e79-074e-44f7-a4ee-8b0cd00a4a95"},"vehicle_type_id":"4","last_reported":1750007318,"current_range_meters":19200,"station_id":"st_cvj6sg6p6f1abm77japg","pricing_plan_id":"cebpf4jnsgd1na2vs0mg"},{"bike_id":"6459601e-8fe8-4eba-a8dd-95b6b60e6691","system_id":"levelo_inurba_marseille","lat":43.28037,"lon":5.35108,"is_reserved":false,"is_disabled":false,"rental_uris":{"android":"levelo://app?vid=6459601e-8fe8-4eba-a8dd-95b6b60e6691","ios":"levelo://app?vid=6459601e-8fe8-4eba-a8dd-95b6b60e6691"},"vehicle_type_id":"4","last_reported":1750007318,"current_range_meters":19600,"station_id":"","pricing_plan_id":"cebpf4jnsgd1na2vs0mg"},{"bike_id":"826f0ca3-e5fc-4cf8-8696-cb1fe62172b3","system_id":"levelo_inurba_marseille","lat":43.21198,"lon":5.350768,"is_reserved":false,"is_disabled":false,"rental_uris":{"android":"levelo://app?vid=826f0ca3-e5fc-4cf8-8696-cb1fe62172b3","ios":"levelo://app?vid=826f0ca3-e5fc-4cf8-8696-cb1fe62172b3"},"vehicle_type_id":"4","last_reported":1750007318,"current_range_meters":19600,"station_id":"","pricing_plan_id":"cebpf4jnsgd1na2vs0mg"},{"bike_id":"b31d3165-d5e1-4bc6-a607-ca1a1c981148","system_id":"levelo_inurba_marseille","lat":43.27585,"lon":5.41737,"is_reserved":false,"is_disabled":false,"rental_uris":{"android":"levelo://app?vid=b31d3165-d5e1-4bc6-a607-ca1a1c981148","ios":"levelo://app?vid=b31d3165-d5e1-4bc6-a607-ca1a1c981148"},"vehicle_type_id":"4","last_reported":1750007318,"current_range_meters":19600,"station_id":"","pricing_plan_id":"cebpf4jnsgd1na2vs0mg"},{"bike_id":"901e3163-8a41-462b-935b-f1df17638901","system_id":"levelo_inurba_marseille","lat":43.2927,"lon":5.38439,"is_reserved":false,"is_disabled":false,"rental_uris":{"android":"levelo://app?vid=901e3163-8a41-462b-935b-f1df17638901","ios":"levelo://app?vid=901e3163-8a41-462b-935b-f1df17638901"},"vehicle_type_id":"4","last_reported":1750007318,"current_range_meters":19600,"station_id":"ce4bh692rcd13ifvqea0","pricing_plan_id":"cebpf4jnsgd1na2vs0mg"},{"bike_id":"ab27ac5c-ef75-403a-850b-e0d9f203b623","system_id":"levelo_inurba_marseille","lat":43.22501,"lon":5.34779,"is_reserved":false,"is_disabled":false,"rental_uris":{"android":"levelo://app?vid=ab27ac5c-ef75-403a-850b-e0d9f203b623","ios":"levelo://app?vid=ab27ac5c-ef75-403a-850b-e0d9f203b623"},"vehicle_type_id":"4","last_reported":1750007318,"current_range_meters":19600,"station_id":"st_cvj5dfep6f1abm77gieg","pricing_plan_id":"cebpf4jnsgd1na2vs0mg"},{"bike_id":"f4960cb7-92f3-48e4-a1cc-a2b8a605a4b3","system_id":"levelo_inurba_marseille","lat":43.337656,"lon":5.374268,"is_reserved":false,"is_disabled":false,"rental_uris":{"android":"levelo://app?vid=f4960cb7-92f3-48e4-a1cc-a2b8a605a4b3","ios":"levelo://app?vid=f4960cb7-92f3-48e4-a1cc-a2b8a605a4b3"},"vehicle_type_id":"4","last_reported":1750007318,"current_range_meters":20000,"station_id":"","pricing_plan_id":"cebpf4jnsgd1na2vs0mg"},{"bike_id":"bd7bc889-0ace-44ba-adc2-5e336bdf27e2","system_id":"levelo_inurba_marseille","lat":43.30995,"lon":5.37463,"is_reserved":false,"is_disabled":false,"rental_uris":{"android":"levelo://app?vid=bd7bc889-0ace-44ba-adc2-5e336bdf27e2","ios":"levelo://app?vid=bd7bc889-0ace-44ba-adc2-5e336bdf27e2"},"vehicle_type_id":"4","last_reported":1750007318,"current_range_meters":20000,"station_id":"","pricing_plan_id":"cebpf4jnsgd1na2vs0mg"},{"bike_id":"1796ef0e-b55d-430a-98e5-00e800191852","system_id":"levelo_inurba_marseille","lat":43.24803,"lon":5.37449,"is_reserved":false,"is_disabled":false,"rental_uris":{"android":"levelo://app?vid=1796ef0e-b55d-430a-98e5-00e800191852","ios":"levelo://app?vid=1796ef0e-b55d-430a-98e5-00e800191852"},"vehicle_type_id":"4","last_reported":1750007318,"current_range_meters":20000,"station_id":"ce4bhgh2rcd13ifvqfb0","pricing_plan_id":"cebpf4jnsgd1na2vs0mg"},{"bike_id":"d407bde8-8212-4dee-a290-de2b03fa2147","system_id":"levelo_inurba_marseille","lat":43.239661,"lon":5.366281,"is_reserved":false,"is_disabled":false,"rental_uris":{"android":"levelo://app?vid=d407bde8-8212-4dee-a290-de2b03fa2147","ios":"levelo://app?vid=d407bde8-8212-4dee-a290-de2b03fa2147"},"vehicle_type_id":"4","last_reported":1750007318,"current_range_meters":20000,"station_id":"ce4bhi12rcd13ifvqfp0","pricing_plan_id":"cebpf4jnsgd1na2vs0mg"},{"bike_id":"0c2a49df-e98d-4050-983f-f8516fb4137e","system_id":"levelo_inurba_marseille","lat":43.217379,"lon":5.346007,"is_reserved":false,"is_disabled":false,"rental_uris":{"android":"levelo://app?vid=0c2a49df-e98d-4050-983f-f8516fb4137e","ios":"levelo://app?vid=0c2a49df-e98d-4050-983f-f8516fb4137e"},"vehicle_type_id":"4","last_reported":1750007318,"current_range_meters":20000,"station_id":"st_cvj6r9ubvosntc0bgbag","pricing_plan_id":"cebpf4jnsgd1na2vs0mg"},{"bike_id":"603f222b-b101-4c35-9371-127c445889b7","system_id":"levelo_inurba_marseille","lat":43.2121,"lon":5.35048,"is_reserved":false,"is_disabled":false,"rental_uris":{"android":"levelo://app?vid=603f222b-b101-4c35-9371-127c445889b7","ios":"levelo://app?vid=603f222b-b101-4c35-9371-127c445889b7"},"vehicle_type_id":"4","last_reported":1750007318,"current_range_meters":20400,"station_id":"","pricing_plan_id":"cebpf4jnsgd1na2vs0mg"},{"bike_id":"6f1f219d-edcd-4b67-a17e-33c050fade7f","system_id":"levelo_inurba_marseille","lat":43.30248,"lon":5.40069,"is_reserved":false,"is_disabled":false,"rental_uris":{"android":"levelo://app?vid=6f1f219d-edcd-4b67-a17e-33c050fade7f","ios":"levelo://app?vid=6f1f219d-edcd-4b67-a17e-33c050fade7f"},"vehicle_type_id":"4","last_reported":1750007318,"current_range_meters":20800,"station_id":"ce4bgvh2rcd13ifvqcs0","pricing_plan_id":"cebpf4jnsgd1na2vs0mg"},{"bike_id":"1d25db03-13c0-48a6-bf59-d3fbf5c9de7b","system_id":"levelo_inurba_marseille","lat":43.23967,"lon":5.36629,"is_reserved":false,"is_disabled":false,"rental_uris":{"android":"levelo://app?vid=1d25db03-13c0-48a6-bf59-d3fbf5c9de7b","ios":"levelo://app?vid=1d25db03-13c0-48a6-bf59-d3fbf5c9de7b"},"vehicle_type_id":"4","last_reported":1750007318,"current_range_meters":20800,"station_id":"ce4bhi12rcd13ifvqfp0","pricing_plan_id":"cebpf4jnsgd1na2vs0mg"},{"bike_id":"1ac79cd5-ec23-43d3-b4f8-ceb61207651b","system_id":"levelo_inurba_marseille","lat":43.32109,"lon":5.36767,"is_reserved":false,"is_disabled":false,"rental_uris":{"android":"levelo://app?vid=1ac79cd5-ec23-43d3-b4f8-ceb61207651b","ios":"levelo://app?vid=1ac79cd5-ec23-43d3-b4f8-ceb61207651b"},"vehicle_type_id":"4","last_reported":1750007318,"current_range_meters":20800,"station_id":"ce4bhrh2rcd13ifvqhug","pricing_plan_id":"cebpf4jnsgd1na2vs0mg"},{"bike_id":"4971e09a-6fa0-4d6b-8fcb-78ca44f02791","system_id":"levelo_inurba_marseille","lat":43.3021,"lon":5.45345,"is_reserved":false,"is_disabled":false,"rental_uris":{"android":"levelo://app?vid=4971e09a-6fa0-4d6b-8fcb-78ca44f02791","ios":"levelo://app?vid=4971e09a-6fa0-4d6b-8fcb-78ca44f02791"},"vehicle_type_id":"4","last_reported":1750007318,"current_range_meters":21600,"station_id":"","pricing_plan_id":"cebpf4jnsgd1na2vs0mg"},{"bike_id":"dc442b2e-85af-4e3b-84a7-eff4c023aa11","system_id":"levelo_inurba_marseille","lat":43.31333,"lon":5.39692,"is_reserved":false,"is_disabled":false,"rental_uris":{"android":"levelo://app?vid=dc442b2e-85af-4e3b-84a7-eff4c023aa11","ios":"levelo://app?vid=dc442b2e-85af-4e3b-84a7-eff4c023aa11"},"vehicle_type_id":"4","last_reported":1750007318,"current_range_meters":21600,"station_id":"ce4bgvp2rcd13ifvqcu0","pricing_plan_id":"cebpf4jnsgd1na2vs0mg"},{"bike_id":"01d8d7b8-c782-4a21-91d8-9419d904bd11","system_id":"levelo_inurba_marseille","lat":43.29414,"lon":5.38628,"is_reserved":false,"is_disabled":false,"rental_uris":{"android":"levelo://app?vid=01d8d7b8-c782-4a21-91d8-9419d904bd11","ios":"levelo://app?vid=01d8d7b8-c782-4a21-91d8-9419d904bd11"},"vehicle_type_id":"4","last_reported":1750007318,"current_range_meters":21600,"station_id":"ce4bh2h2rcd13ifvqdh0","pricing_plan_id":"cebpf4jnsgd1na2vs0mg"},{"bike_id":"e612b7a7-3207-4aae-b53e-c8d480fc9283","system_id":"levelo_inurba_marseille","lat":43.23174,"lon":5.35566,"is_reserved":false,"is_disabled":false,"rental_uris":{"android":"levelo://app?vid=e612b7a7-3207-4aae-b53e-c8d480fc9283","ios":"levelo://app?vid=e612b7a7-3207-4aae-b53e-c8d480fc9283"},"vehicle_type_id":"4","last_reported":1750007318,"current_range_meters":21600,"station_id":"ce4bhu92rcd13ifvqi70","pricing_plan_id":"cebpf4jnsgd1na2vs0mg"},{"bike_id":"fe662768-b19e-45af-802d-65d6ebe5d251","system_id":"levelo_inurba_marseille","lat":43.22931,"lon":5.35373,"is_reserved":false,"is_disabled":false,"rental_uris":{"android":"levelo://app?vid=fe662768-b19e-45af-802d-65d6ebe5d251","ios":"levelo://app?vid=fe662768-b19e-45af-802d-65d6ebe5d251"},"vehicle_type_id":"4","last_reported":1750007318,"current_range_meters":21600,"station_id":"cpo3532slgdg3j2ikp40","pricing_plan_id":"cebpf4jnsgd1na2vs0mg"},{"bike_id":"cffe493f-0864-4d9c-b541-735314174601","system_id":"levelo_inurba_marseille","lat":43.211923,"lon":5.350733,"is_reserved":false,"is_disabled":false,"rental_uris":{"android":"levelo://app?vid=cffe493f-0864-4d9c-b541-735314174601","ios":"levelo://app?vid=cffe493f-0864-4d9c-b541-735314174601"},"vehicle_type_id":"4","last_reported":1750007318,"current_range_meters":21600,"station_id":"st_cvj6sg6p6f1abm77japg","pricing_plan_id":"cebpf4jnsgd1na2vs0mg"},{"bike_id":"7e2d3777-cd11-4fc7-b03d-5431ef86e495","system_id":"levelo_inurba_marseille","lat":43.30578,"lon":5.36686,"is_reserved":false,"is_disabled":false,"rental_uris":{"android":"levelo://app?vid=7e2d3777-cd11-4fc7-b03d-5431ef86e495","ios":"levelo://app?vid=7e2d3777-cd11-4fc7-b03d-5431ef86e495"},"vehicle_type_id":"4","last_reported":1750007318,"current_range_meters":22000,"station_id":"","pricing_plan_id":"cebpf4jnsgd1na2vs0mg"},{"bike_id":"0ee255f1-12b3-4768-a104-351408b90482","system_id":"levelo_inurba_marseille","lat":43.32495,"lon":5.36563,"is_reserved":false,"is_disabled":false,"rental_uris":{"android":"levelo://app?vid=0ee255f1-12b3-4768-a104-351408b90482","ios":"levelo://app?vid=0ee255f1-12b3-4768-a104-351408b90482"},"vehicle_type_id":"4","last_reported":1750007318,"current_range_meters":22000,"station_id":"ce4bhs12rcd13ifvqhvg","pricing_plan_id":"cebpf4jnsgd1na2vs0mg"},{"bike_id":"cedf8cc5-db41-4f6b-a3f3-c3e5b9cb61f8","system_id":"levelo_inurba_marseille","lat":43.28191,"lon":5.34941,"is_reserved":false,"is_disabled":false,"rental_uris":{"android":"levelo://app?vid=cedf8cc5-db41-4f6b-a3f3-c3e5b9cb61f8","ios":"levelo://app?vid=cedf8cc5-db41-4f6b-a3f3-c3e5b9cb61f8"},"vehicle_type_id":"4","last_reported":1750007318,"current_range_meters":22400,"station_id":"","pricing_plan_id":"cebpf4jnsgd1na2vs0mg"},{"bike_id":"3885d566-1531-4202-a2e7-a46435bd8261","system_id":"levelo_inurba_marseille","lat":43.25489,"lon":5.3765,"is_reserved":false,"is_disabled":false,"rental_uris":{"android":"levelo://app?vid=3885d566-1531-4202-a2e7-a46435bd8261","ios":"levelo://app?vid=3885d566-1531-4202-a2e7-a46435bd8261"},"vehicle_type_id":"4","last_reported":1750007318,"current_range_meters":22400,"station_id":"ce4bhh12rcd13ifvqff0","pricing_plan_id":"cebpf4jnsgd1na2vs0mg"},{"bike_id":"a90779a4-98dc-45b1-943a-212e01e584d9","system_id":"levelo_inurba_marseille","lat":43.23208,"lon":5.35558,"is_reserved":false,"is_disabled":false,"rental_uris":{"android":"levelo://app?vid=a90779a4-98dc-45b1-943a-212e01e584d9","ios":"levelo://app?vid=a90779a4-98dc-45b1-943a-212e01e584d9"},"vehicle_type_id":"4","last_reported":1750007318,"current_range_meters":22400,"station_id":"ce4bhu92rcd13ifvqi70","pricing_plan_id":"cebpf4jnsgd1na2vs0mg"},{"bike_id":"09f811fc-ab4a-42b7-a739-0f8c9be6dce4","system_id":"levelo_inurba_marseille","lat":43.21201,"lon":5.35081,"is_reserved":false,"is_disabled":false,"rental_uris":{"android":"levelo://app?vid=09f811fc-ab4a-42b7-a739-0f8c9be6dce4","ios":"levelo://app?vid=09f811fc-ab4a-42b7-a739-0f8c9be6dce4"},"vehicle_type_id":"4","last_reported":1750007318,"current_range_meters":22400,"station_id":"st_cvj6sg6p6f1abm77japg","pricing_plan_id":"cebpf4jnsgd1na2vs0mg"},{"bike_id":"db696f9f-9ecc-4e26-bd9c-bd73bc64204b","system_id":"levelo_inurba_marseille","lat":43.29911,"lon":5.43641,"is_reserved":false,"is_disabled":false,"rental_uris":{"android":"levelo://app?vid=db696f9f-9ecc-4e26-bd9c-bd73bc64204b","ios":"levelo://app?vid=db696f9f-9ecc-4e26-bd9c-bd73bc64204b"},"vehicle_type_id":"4","last_reported":1750007318,"current_range_meters":22800,"station_id":"ce4bhpp2rcd13ifvqhfg","pricing_plan_id":"cebpf4jnsgd1na2vs0mg"},{"bike_id":"a3314fa1-d8cf-4847-946a-7595d70f87ad","system_id":"levelo_inurba_marseille","lat":43.31734,"lon":5.37801,"is_reserved":false,"is_disabled":false,"rental_uris":{"android":"levelo://app?vid=a3314fa1-d8cf-4847-946a-7595d70f87ad","ios":"levelo://app?vid=a3314fa1-d8cf-4847-946a-7595d70f87ad"},"vehicle_type_id":"4","last_reported":1750007318,"current_range_meters":23200,"station_id":"","pricing_plan_id":"cebpf4jnsgd1na2vs0mg"},{"bike_id":"52097422-8f21-4520-8b2c-54c85bd707a9","system_id":"levelo_inurba_marseille","lat":43.30121,"lon":5.39861,"is_reserved":false,"is_disabled":false,"rental_uris":{"android":"levelo://app?vid=52097422-8f21-4520-8b2c-54c85bd707a9","ios":"levelo://app?vid=52097422-8f21-4520-8b2c-54c85bd707a9"},"vehicle_type_id":"4","last_reported":1750007318,"current_range_meters":23200,"station_id":"ce4bh0h2rcd13ifvqd40","pricing_plan_id":"cebpf4jnsgd1na2vs0mg"},{"bike_id":"bac4c902-8686-4873-be96-e66db969e91c","system_id":"levelo_inurba_marseille","lat":43.29522,"lon":5.39037,"is_reserved":false,"is_disabled":false,"rental_uris":{"android":"levelo://app?vid=bac4c902-8686-4873-be96-e66db969e91c","ios":"levelo://app?vid=bac4c902-8686-4873-be96-e66db969e91c"},"vehicle_type_id":"4","last_reported":1750007318,"current_range_meters":23200,"station_id":"ce4bh3p2rcd13ifvqdp0","pricing_plan_id":"cebpf4jnsgd1na2vs0mg"},{"bike_id":"ba3a1599-8aba-4abc-bfec-73f29d321f50","system_id":"levelo_inurba_marseille","lat":43.29264,"lon":5.38442,"is_reserved":false,"is_disabled":false,"rental_uris":{"android":"levelo://app?vid=ba3a1599-8aba-4abc-bfec-73f29d321f50","ios":"levelo://app?vid=ba3a1599-8aba-4abc-bfec-73f29d321f50"},"vehicle_type_id":"4","last_reported":1750007318,"current_range_meters":23200,"station_id":"ce4bh692rcd13ifvqea0","pricing_plan_id":"cebpf4jnsgd1na2vs0mg"},{"bike_id":"113b35ba-4bfc-4653-9981-9c94fd020996","system_id":"levelo_inurba_marseille","lat":43.23207,"lon":5.35538,"is_reserved":false,"is_disabled":false,"rental_uris":{"android":"levelo://app?vid=113b35ba-4bfc-4653-9981-9c94fd020996","ios":"levelo://app?vid=113b35ba-4bfc-4653-9981-9c94fd020996"},"vehicle_type_id":"4","last_reported":1750007318,"current_range_meters":23200,"station_id":"ce4bhu92rcd13ifvqi70","pricing_plan_id":"cebpf4jnsgd1na2vs0mg"},{"bike_id":"6e109a25-b453-4c60-b595-9be2ab1913b0","system_id":"levelo_inurba_marseille","lat":43.22923,"lon":5.35388,"is_reserved":false,"is_disabled":false,"rental_uris":{"android":"levelo://app?vid=6e109a25-b453-4c60-b595-9be2ab1913b0","ios":"levelo://app?vid=6e109a25-b453-4c60-b595-9be2ab1913b0"},"vehicle_type_id":"4","last_reported":1750007318,"current_range_meters":23200,"station_id":"cpo3532slgdg3j2ikp40","pricing_plan_id":"cebpf4jnsgd1na2vs0mg"},{"bike_id":"caf90cc1-41a4-4564-b08d-48ef6ec5f8c8","system_id":"levelo_inurba_marseille","lat":43.21746,"lon":5.34604,"is_reserved":false,"is_disabled":false,"rental_uris":{"android":"levelo://app?vid=caf90cc1-41a4-4564-b08d-48ef6ec5f8c8","ios":"levelo://app?vid=caf90cc1-41a4-4564-b08d-48ef6ec5f8c8"},"vehicle_type_id":"4","last_reported":1750007318,"current_range_meters":23200,"station_id":"st_cvj6r9ubvosntc0bgbag","pricing_plan_id":"cebpf4jnsgd1na2vs0mg"},{"bike_id":"ba0e21fd-e130-45d6-af75-be098ab05193","system_id":"levelo_inurba_marseille","lat":43.21195,"lon":5.35087,"is_reserved":false,"is_disabled":false,"rental_uris":{"android":"levelo://app?vid=ba0e21fd-e130-45d6-af75-be098ab05193","ios":"levelo://app?vid=ba0e21fd-e130-45d6-af75-be098ab05193"},"vehicle_type_id":"4","last_reported":1750007318,"current_range_meters":23200,"station_id":"st_cvj6sg6p6f1abm77japg","pricing_plan_id":"cebpf4jnsgd1na2vs0mg"},{"bike_id":"f8f5c739-72f4-49b1-b3d4-90e1f195211d","system_id":"levelo_inurba_marseille","lat":43.21212,"lon":5.35062,"is_reserved":false,"is_disabled":false,"rental_uris":{"android":"levelo://app?vid=f8f5c739-72f4-49b1-b3d4-90e1f195211d","ios":"levelo://app?vid=f8f5c739-72f4-49b1-b3d4-90e1f195211d"},"vehicle_type_id":"4","last_reported":1750007318,"current_range_meters":23200,"station_id":"st_cvj6sg6p6f1abm77japg","pricing_plan_id":"cebpf4jnsgd1na2vs0mg"},{"bike_id":"a895562e-7b04-44b7-9a5e-95b4c43fd47e","system_id":"levelo_inurba_marseille","lat":43.31832,"lon":5.37399,"is_reserved":false,"is_disabled":false,"rental_uris":{"android":"levelo://app?vid=a895562e-7b04-44b7-9a5e-95b4c43fd47e","ios":"levelo://app?vid=a895562e-7b04-44b7-9a5e-95b4c43fd47e"},"vehicle_type_id":"4","last_reported":1750007318,"current_range_meters":24000,"station_id":"","pricing_plan_id":"cebpf4jnsgd1na2vs0mg"},{"bike_id":"66aa5550-4123-4d6a-a4a9-901c02ddda8e","system_id":"levelo_inurba_marseille","lat":43.30143,"lon":5.38769,"is_reserved":false,"is_disabled":false,"rental_uris":{"android":"levelo://app?vid=66aa5550-4123-4d6a-a4a9-901c02ddda8e","ios":"levelo://app?vid=66aa5550-4123-4d6a-a4a9-901c02ddda8e"},"vehicle_type_id":"4","last_reported":1750007318,"current_range_meters":24000,"station_id":"ce4bghh2rcd13ifvqb60","pricing_plan_id":"cebpf4jnsgd1na2vs0mg"},{"bike_id":"f7ab2268-c9e0-4dfc-b11d-66030a0de111","system_id":"levelo_inurba_marseille","lat":43.31493,"lon":5.37311,"is_reserved":false,"is_disabled":false,"rental_uris":{"android":"levelo://app?vid=f7ab2268-c9e0-4dfc-b11d-66030a0de111","ios":"levelo://app?vid=f7ab2268-c9e0-4dfc-b11d-66030a0de111"},"vehicle_type_id":"4","last_reported":1750007318,"current_range_meters":24000,"station_id":"ce4bgt12rcd13ifvqcd0","pricing_plan_id":"cebpf4jnsgd1na2vs0mg"},{"bike_id":"bef9cfae-61b5-48ee-89af-b8dec4f9e0c7","system_id":"levelo_inurba_marseille","lat":43.27175,"lon":5.41,"is_reserved":false,"is_disabled":false,"rental_uris":{"android":"levelo://app?vid=bef9cfae-61b5-48ee-89af-b8dec4f9e0c7","ios":"levelo://app?vid=bef9cfae-61b5-48ee-89af-b8dec4f9e0c7"},"vehicle_type_id":"4","last_reported":1750007318,"current_range_meters":24000,"station_id":"ce4bhl12rcd13ifvqgf0","pricing_plan_id":"cebpf4jnsgd1na2vs0mg"},{"bike_id":"c12de7de-5c91-4232-bff8-bcefa9eb4caf","system_id":"levelo_inurba_marseille","lat":43.26362,"lon":5.39951,"is_reserved":false,"is_disabled":false,"rental_uris":{"android":"levelo://app?vid=c12de7de-5c91-4232-bff8-bcefa9eb4caf","ios":"levelo://app?vid=c12de7de-5c91-4232-bff8-bcefa9eb4caf"},"vehicle_type_id":"4","last_reported":1750007318,"current_range_meters":24400,"station_id":"","pricing_plan_id":"cebpf4jnsgd1na2vs0mg"},{"bike_id":"21a55307-994c-4f2a-b82e-3a39d5f403c9","system_id":"levelo_inurba_marseille","lat":43.25828,"lon":5.3943,"is_reserved":false,"is_disabled":false,"rental_uris":{"android":"levelo://app?vid=21a55307-994c-4f2a-b82e-3a39d5f403c9","ios":"levelo://app?vid=21a55307-994c-4f2a-b82e-3a39d5f403c9"},"vehicle_type_id":"4","last_reported":1750007318,"current_range_meters":24400,"station_id":"ce4bhip2rcd13ifvqft0","pricing_plan_id":"cebpf4jnsgd1na2vs0mg"},{"bike_id":"0eb1c0ef-6531-47bd-b45b-b9717127d244","system_id":"levelo_inurba_marseille","lat":43.30415,"lon":5.41279,"is_reserved":false,"is_disabled":false,"rental_uris":{"android":"levelo://app?vid=0eb1c0ef-6531-47bd-b45b-b9717127d244","ios":"levelo://app?vid=0eb1c0ef-6531-47bd-b45b-b9717127d244"},"vehicle_type_id":"4","last_reported":1750007318,"current_range_meters":24400,"station_id":"ce4bhop2rcd13ifvqh8g","pricing_plan_id":"cebpf4jnsgd1na2vs0mg"},{"bike_id":"c8dfb0ea-7452-4653-979a-81a495939d6b","system_id":"levelo_inurba_marseille","lat":43.29901,"lon":5.43682,"is_reserved":false,"is_disabled":false,"rental_uris":{"android":"levelo://app?vid=c8dfb0ea-7452-4653-979a-81a495939d6b","ios":"levelo://app?vid=c8dfb0ea-7452-4653-979a-81a495939d6b"},"vehicle_type_id":"4","last_reported":1750007318,"current_range_meters":24400,"station_id":"ce4bhpp2rcd13ifvqhfg","pricing_plan_id":"cebpf4jnsgd1na2vs0mg"},{"bike_id":"a172b0cf-62c4-4c52-a818-ce564350df02","system_id":"levelo_inurba_marseille","lat":43.21187,"lon":5.35069,"is_reserved":false,"is_disabled":false,"rental_uris":{"android":"levelo://app?vid=a172b0cf-62c4-4c52-a818-ce564350df02","ios":"levelo://app?vid=a172b0cf-62c4-4c52-a818-ce564350df02"},"vehicle_type_id":"4","last_reported":1750007318,"current_range_meters":24400,"station_id":"st_cvj6sg6p6f1abm77japg","pricing_plan_id":"cebpf4jnsgd1na2vs0mg"},{"bike_id":"39d32260-51d5-455a-ba53-6471389bd255","system_id":"levelo_inurba_marseille","lat":43.31972,"lon":5.37619,"is_reserved":false,"is_disabled":false,"rental_uris":{"android":"levelo://app?vid=39d32260-51d5-455a-ba53-6471389bd255","ios":"levelo://app?vid=39d32260-51d5-455a-ba53-6471389bd255"},"vehicle_type_id":"4","last_reported":1750007318,"current_range_meters":24800,"station_id":"","pricing_plan_id":"cebpf4jnsgd1na2vs0mg"},{"bike_id":"b0ea15a5-d658-44f9-bee3-77ada787763e","system_id":"levelo_inurba_marseille","lat":43.3133,"lon":5.39688,"is_reserved":false,"is_disabled":false,"rental_uris":{"android":"levelo://app?vid=b0ea15a5-d658-44f9-bee3-77ada787763e","ios":"levelo://app?vid=b0ea15a5-d658-44f9-bee3-77ada787763e"},"vehicle_type_id":"4","last_reported":1750007318,"current_range_meters":24800,"station_id":"ce4bgvp2rcd13ifvqcu0","pricing_plan_id":"cebpf4jnsgd1na2vs0mg"},{"bike_id":"1a5ada1c-a5af-491e-8169-4d16d8f96188","system_id":"levelo_inurba_marseille","lat":43.32361,"lon":5.36774,"is_reserved":false,"is_disabled":false,"rental_uris":{"android":"levelo://app?vid=1a5ada1c-a5af-491e-8169-4d16d8f96188","ios":"levelo://app?vid=1a5ada1c-a5af-491e-8169-4d16d8f96188"},"vehicle_type_id":"4","last_reported":1750007318,"current_range_meters":24800,"station_id":"ce4bhsh2rcd13ifvqi2g","pricing_plan_id":"cebpf4jnsgd1na2vs0mg"},{"bike_id":"cba91c68-3193-4eea-abdb-3d1826da54e2","system_id":"levelo_inurba_marseille","lat":43.2917,"lon":5.393,"is_reserved":false,"is_disabled":false,"rental_uris":{"android":"levelo://app?vid=cba91c68-3193-4eea-abdb-3d1826da54e2","ios":"levelo://app?vid=cba91c68-3193-4eea-abdb-3d1826da54e2"},"vehicle_type_id":"4","last_reported":1750007318,"current_range_meters":25200,"station_id":"ce4bh192rcd13ifvqdd0","pricing_plan_id":"cebpf4jnsgd1na2vs0mg"},{"bike_id":"00a5d84a-c994-48d6-992a-237599f05c04","system_id":"levelo_inurba_marseille","lat":43.29224,"lon":5.36063,"is_reserved":false,"is_disabled":false,"rental_uris":{"android":"levelo://app?vid=00a5d84a-c994-48d6-992a-237599f05c04","ios":"levelo://app?vid=00a5d84a-c994-48d6-992a-237599f05c04"},"vehicle_type_id":"4","last_reported":1750007318,"current_range_meters":25200,"station_id":"ce4bhbh2rcd13ifvqeqg","pricing_plan_id":"cebpf4jnsgd1na2vs0mg"},{"bike_id":"835d1b68-3bb3-4ba2-a2a6-e35e2a260e9c","system_id":"levelo_inurba_marseille","lat":43.28155,"lon":5.4264,"is_reserved":false,"is_disabled":false,"rental_uris":{"android":"levelo://app?vid=835d1b68-3bb3-4ba2-a2a6-e35e2a260e9c","ios":"levelo://app?vid=835d1b68-3bb3-4ba2-a2a6-e35e2a260e9c"},"vehicle_type_id":"4","last_reported":1750007318,"current_range_meters":25200,"station_id":"ce4bhnh2rcd13ifvqgug","pricing_plan_id":"cebpf4jnsgd1na2vs0mg"},{"bike_id":"5b27f6a3-dfa4-4298-873d-1cde9d444ecd","system_id":"levelo_inurba_marseille","lat":43.32334,"lon":5.40627,"is_reserved":false,"is_disabled":false,"rental_uris":{"android":"levelo://app?vid=5b27f6a3-dfa4-4298-873d-1cde9d444ecd","ios":"levelo://app?vid=5b27f6a3-dfa4-4298-873d-1cde9d444ecd"},"vehicle_type_id":"4","last_reported":1750007318,"current_range_meters":25200,"station_id":"ce4bhq92rcd13ifvqhjg","pricing_plan_id":"cebpf4jnsgd1na2vs0mg"},{"bike_id":"d55c6d2b-5336-46f2-97dd-90834fd3b35e","system_id":"levelo_inurba_marseille","lat":43.21187,"lon":5.3507,"is_reserved":false,"is_disabled":false,"rental_uris":{"android":"levelo://app?vid=d55c6d2b-5336-46f2-97dd-90834fd3b35e","ios":"levelo://app?vid=d55c6d2b-5336-46f2-97dd-90834fd3b35e"},"vehicle_type_id":"4","last_reported":1750007318,"current_range_meters":25200,"station_id":"st_cvj6sg6p6f1abm77japg","pricing_plan_id":"cebpf4jnsgd1na2vs0mg"},{"bike_id":"d9d21758-f0e2-4a75-a753-996a27b7c74c","system_id":"levelo_inurba_marseille","lat":43.2584,"lon":5.38874,"is_reserved":false,"is_disabled":false,"rental_uris":{"android":"levelo://app?vid=d9d21758-f0e2-4a75-a753-996a27b7c74c","ios":"levelo://app?vid=d9d21758-f0e2-4a75-a753-996a27b7c74c"},"vehicle_type_id":"4","last_reported":1750007318,"current_range_meters":25600,"station_id":"","pricing_plan_id":"cebpf4jnsgd1na2vs0mg"},{"bike_id":"dcf4e920-6197-47dd-986c-a52304315414","system_id":"levelo_inurba_marseille","lat":43.30801,"lon":5.38151,"is_reserved":false,"is_disabled":false,"rental_uris":{"android":"levelo://app?vid=dcf4e920-6197-47dd-986c-a52304315414","ios":"levelo://app?vid=dcf4e920-6197-47dd-986c-a52304315414"},"vehicle_type_id":"4","last_reported":1750007318,"current_range_meters":25600,"station_id":"ce4bgt12rcd13ifvqce0","pricing_plan_id":"cebpf4jnsgd1na2vs0mg"},{"bike_id":"42775a3b-4a1b-4aa5-9eeb-8361fe861c86","system_id":"levelo_inurba_marseille","lat":43.29259,"lon":5.40905,"is_reserved":false,"is_disabled":false,"rental_uris":{"android":"levelo://app?vid=42775a3b-4a1b-4aa5-9eeb-8361fe861c86","ios":"levelo://app?vid=42775a3b-4a1b-4aa5-9eeb-8361fe861c86"},"vehicle_type_id":"4","last_reported":1750007318,"current_range_meters":25600,"station_id":"ce4bh192rcd13ifvqdc0","pricing_plan_id":"cebpf4jnsgd1na2vs0mg"},{"bike_id":"8da9162a-1829-45ca-bc72-19e59bb85931","system_id":"levelo_inurba_marseille","lat":43.2396,"lon":5.36626,"is_reserved":false,"is_disabled":false,"rental_uris":{"android":"levelo://app?vid=8da9162a-1829-45ca-bc72-19e59bb85931","ios":"levelo://app?vid=8da9162a-1829-45ca-bc72-19e59bb85931"},"vehicle_type_id":"4","last_reported":1750007318,"current_range_meters":25600,"station_id":"ce4bhi12rcd13ifvqfp0","pricing_plan_id":"cebpf4jnsgd1na2vs0mg"},{"bike_id":"fba13c59-c4f6-474e-a1cd-bab0a3ad20e2","system_id":"levelo_inurba_marseille","lat":43.26945,"lon":5.40243,"is_reserved":false,"is_disabled":false,"rental_uris":{"android":"levelo://app?vid=fba13c59-c4f6-474e-a1cd-bab0a3ad20e2","ios":"levelo://app?vid=fba13c59-c4f6-474e-a1cd-bab0a3ad20e2"},"vehicle_type_id":"4","last_reported":1750007318,"current_range_meters":25600,"station_id":"cjm6bp8fraef2m0cb0m0","pricing_plan_id":"cebpf4jnsgd1na2vs0mg"},{"bike_id":"8e628f81-9b1b-4066-968f-b1af6e1b58a3","system_id":"levelo_inurba_marseille","lat":43.23121,"lon":5.35526,"is_reserved":false,"is_disabled":false,"rental_uris":{"android":"levelo://app?vid=8e628f81-9b1b-4066-968f-b1af6e1b58a3","ios":"levelo://app?vid=8e628f81-9b1b-4066-968f-b1af6e1b58a3"},"vehicle_type_id":"4","last_reported":1750007318,"current_range_meters":26000,"station_id":"","pricing_plan_id":"cebpf4jnsgd1na2vs0mg"},{"bike_id":"c62bd5cb-291e-47e6-8717-be9f0834c654","system_id":"levelo_inurba_marseille","lat":43.2811,"lon":5.37835,"is_reserved":false,"is_disabled":false,"rental_uris":{"android":"levelo://app?vid=c62bd5cb-291e-47e6-8717-be9f0834c654","ios":"levelo://app?vid=c62bd5cb-291e-47e6-8717-be9f0834c654"},"vehicle_type_id":"4","last_reported":1750007318,"current_range_meters":26000,"station_id":"ce4bha12rcd13ifvqee0","pricing_plan_id":"cebpf4jnsgd1na2vs0mg"},{"bike_id":"d1e815ba-db05-4d0e-8ac7-39e65cbad630","system_id":"levelo_inurba_marseille","lat":43.28955,"lon":5.36379,"is_reserved":false,"is_disabled":false,"rental_uris":{"android":"levelo://app?vid=d1e815ba-db05-4d0e-8ac7-39e65cbad630","ios":"levelo://app?vid=d1e815ba-db05-4d0e-8ac7-39e65cbad630"},"vehicle_type_id":"4","last_reported":1750007318,"current_range_meters":26000,"station_id":"ce4bhc92rcd13ifvqetg","pricing_plan_id":"cebpf4jnsgd1na2vs0mg"},{"bike_id":"612fd114-8775-49f3-849e-40c2fb8db7f8","system_id":"levelo_inurba_marseille","lat":43.28444,"lon":5.39194,"is_reserved":false,"is_disabled":false,"rental_uris":{"android":"levelo://app?vid=612fd114-8775-49f3-849e-40c2fb8db7f8","ios":"levelo://app?vid=612fd114-8775-49f3-849e-40c2fb8db7f8"},"vehicle_type_id":"4","last_reported":1750007318,"current_range_meters":26000,"station_id":"ce4bhoh2rcd13ifvqh5g","pricing_plan_id":"cebpf4jnsgd1na2vs0mg"},{"bike_id":"db012d1b-8ddb-4d21-9e74-561b48aecc91","system_id":"levelo_inurba_marseille","lat":43.32369,"lon":5.3677,"is_reserved":false,"is_disabled":false,"rental_uris":{"android":"levelo://app?vid=db012d1b-8ddb-4d21-9e74-561b48aecc91","ios":"levelo://app?vid=db012d1b-8ddb-4d21-9e74-561b48aecc91"},"vehicle_type_id":"4","last_reported":1750007318,"current_range_meters":26000,"station_id":"ce4bhsh2rcd13ifvqi2g","pricing_plan_id":"cebpf4jnsgd1na2vs0mg"},