{"last_updated":1730131868,"ttl":60,"version":"2.2","data":{"bikes":[{"bike_id":"d357ec8f-8baa-4f41-97be-d8e9eb16dfab","system_id":"levelo_inurba_marseille","lat":43.24645,"lon":5.38902,"is_reserved":false,"is_disabled":false,"rental_uris":{"android":"levelo://app?vid=d357ec8f-8baa-4f41-97be-d8e9eb16dfab","ios":"levelo://app?vid=d357ec8f-8baa-4f41-97be-d8e9eb16dfab"},"vehicle_type_id":"4","last_reported":1730131868,"current_range_meters":20800,"station_id":"ce4bhg12rcd13ifvqf60","pricing_plan_id":"cebpf4jnsgd1na2vs0mg"},{"bike_id":"aaf1c17c-0d6c-47da-a188-f7ef018d9a32","system_id":"levelo_inurba_marseille","lat":43.30589,"lon":5.37219,"is_reserved":false,"is_disabled":false,"rental_uris":{"android":"levelo://app?vid=aaf1c17c-0d6c-47da-a188-f7ef018d9a32","ios":"levelo://app?vid=aaf1c17c-0d6c-47da-a188-f7ef018d9a32"},"vehicle_type_id":"4","last_reported":1730131868,"current_range_meters":38800,"station_id":"ce4bgqh2rcd13ifvqc4g","pricing_plan_id":"cebpf4jnsgd1na2vs0mg"},{"bike_id":"7501dbaf-a35e-4bd2-9151-59352e5a8638","system_id":"levelo_inurba_marseille","lat":43.23154,"lon":5.43707,"is_reserved":false,"is_disabled":false,"rental_uris":{"android":"levelo://app?vid=7501dbaf-a35e-4bd2-9151-59352e5a8638","ios":"levelo://app?vid=7501dbaf-a35e-4bd2-9151-59352e5a8638"},"vehicle_type_id":"4","last_reported":1730131868,"current_range_meters":39200,"station_id":"ce4bhmp2rcd13ifvqgog","pricing_plan_id":"cebpf4jnsgd1na2vs0mg"},{"bike_id":"755cc1c7-1bcf-4ddc-bdce-2e5d195411b7","system_id":"levelo_inurba_marseille","lat":43.30173,"lon":5.36623,"is_reserved":false,"is_disabled":false,"rental_uris":{"android":"levelo://app?vid=755cc1c7-1bcf-4ddc-bdce-2e5d195411b7","ios":"levelo://app?vid=755cc1c7-1bcf-4ddc-bdce-2e5d195411b7"},"vehicle_type_id":"4","last_reported":1730131868,"current_range_meters":39200,"station_id":"ce4bgrh2rcd13ifvqc8g","pricing_plan_id":"cebpf4jnsgd1na2vs0mg"},{"bike_id":"a8652586-bac3-4066-8349-87b461f05426","system_id":"levelo_inurba_marseille","lat":43.30304,"lon":5.36904,"is_reserved":false,"is_disabled":false,"rental_uris":{"android":"levelo://app?vid=a8652586-bac3-4066-8349-87b461f05426","ios":"levelo://app?vid=a8652586-bac3-4066-8349-87b461f05426"},"vehicle_type_id":"4","last_reported":1730131868,"current_range_meters":32400,"station_id":"ce4bgqh2rcd13ifvqc5g","pricing_plan_id":"cebpf4jnsgd1na2vs0mg"},{"bike_id":"1fc2a612-465d-4708-ae4d-bd3b58e9ec4b","system_id":"levelo_inurba_marseille","lat":43.289307,"lon":5.366367,"is_reserved":false,"is_disabled":false,"rental_uris":{"android":"levelo://app?vid=1fc2a612-465d-4708-ae4d-bd3b58e9ec4b","ios":"levelo://app?vid=1fc2a612-465d-4708-ae4d-bd3b58e9ec4b"},"vehicle_type_id":"4","last_reported":1730131868,"current_range_meters":25200,"station_id":"ce4bhap2rcd13ifvqek0","pricing_plan_id":"cebpf4jnsgd1na2vs0mg"},{"bike_id":"e1ea3c0d-b1d0-4335-b641-ac49a0763ebe","system_id":"levelo_inurba_marseille","lat":43.29974,"lon":5.38487,"is_reserved":false,"is_disabled":false,"rental_uris":{"android":"levelo://app?vid=e1ea3c0d-b1d0-4335-b641-ac49a0763ebe","ios":"levelo://app?vid=e1ea3c0d-b1d0-4335-b641-ac49a0763ebe"},"vehicle_type_id":"4","last_reported":1730131868,"current_range_meters":19600,"station_id":"ce4bgj92rcd13ifvqbd0","pricing_plan_id":"cebpf4jnsgd1na2vs0mg"},{"bike_id":"dc0c924f-a69c-415c-9460-b3d12d01836e","system_id":"levelo_inurba_marseille","lat":43.27813,"lon":5.40716,"is_reserved":false,"is_disabled":false,"rental_uris":{"android":"levelo://app?vid=dc0c924f-a69c-415c-9460-b3d12d01836e","ios":"levelo://app?vid=dc0c924f-a69c-415c-9460-b3d12d01836e"},"vehicle_type_id":"4","last_reported":1730131868,"current_range_meters":30800,"station_id":"ce4bhnh2rcd13ifvqgtg","pricing_plan_id":"cebpf4jnsgd1na2vs0mg"},{"bike_id":"63d9251d-39ec-491a-9711-f35db2db18ed","system_id":"levelo_inurba_marseille","lat":43.30638,"lon":5.40098,"is_reserved":false,"is_disabled":false,"rental_uris":{"android":"levelo://app?vid=63d9251d-39ec-491a-9711-f35db2db18ed","ios":"levelo://app?vid=63d9251d-39ec-491a-9711-f35db2db18ed"},"vehicle_type_id":"4","last_reported":1730131868,"current_range_meters":26000,"station_id":"ce4bh112rcd13ifvqda0","pricing_plan_id":"cebpf4jnsgd1na2vs0mg"},{"bike_id":"7e3a3f21-d915-4313-a2f5-b9b92fb829f2","system_id":"levelo_inurba_marseille","lat":43.30527,"lon":5.36537,"is_reserved":false,"is_disabled":false,"rental_uris":{"android":"levelo://app?vid=7e3a3f21-d915-4313-a2f5-b9b92fb829f2","ios":"levelo://app?vid=7e3a3f21-d915-4313-a2f5-b9b92fb829f2"},"vehicle_type_id":"4","last_reported":1730131868,"current_range_meters":8400,"station_id":"ce4bgs12rcd13ifvqcag","pricing_plan_id":"cebpf4jnsgd1na2vs0mg"},{"bike_id":"f6efda27-a1d0-4604-8aae-6ed64a10a0b3","system_id":"levelo_inurba_marseille","lat":43.30148,"lon":5.38075,"is_reserved":false,"is_disabled":false,"rental_uris":{"android":"levelo://app?vid=f6efda27-a1d0-4604-8aae-6ed64a10a0b3","ios":"levelo://app?vid=f6efda27-a1d0-4604-8aae-6ed64a10a0b3"},"vehicle_type_id":"4","last_reported":1730131868,"current_range_meters":30800,"station_id":"ce4bgjp2rcd13ifvqbh0","pricing_plan_id":"cebpf4jnsgd1na2vs0mg"},{"bike_id":"6e783ffb-aa06-4cb6-b553-ba0a0bb7ef39","system_id":"levelo_inurba_marseille","lat":43.295485,"lon":5.422935,"is_reserved":false,"is_disabled":false,"rental_uris":{"android":"levelo://app?vid=6e783ffb-aa06-4cb6-b553-ba0a0bb7ef39","ios":"levelo://app?vid=6e783ffb-aa06-4cb6-b553-ba0a0bb7ef39"},"vehicle_type_id":"4","last_reported":1730131868,"current_range_meters":8800,"station_id":"ce4bhph2rcd13ifvqhdg","pricing_plan_id":"cebpf4jnsgd1na2vs0mg"},{"bike_id":"e3a0d9af-c063-4600-8a9a-88d7f3b9c22f","system_id":"levelo_inurba_marseille","lat":43.30896,"lon":5.37194,"is_reserved":false,"is_disabled":false,"rental_uris":{"android":"levelo://app?vid=e3a0d9af-c063-4600-8a9a-88d7f3b9c22f","ios":"levelo://app?vid=e3a0d9af-c063-4600-8a9a-88d7f3b9c22f"},"vehicle_type_id":"4","last_reported":1730131868,"current_range_meters":30800,"station_id":"ce4bguh2rcd13ifvqckg","pricing_plan_id":"cebpf4jnsgd1na2vs0mg"},{"bike_id":"a71b1a2a-82a2-4b74-9942-5204b7d9cfbb","system_id":"levelo_inurba_marseille","lat":43.31487,"lon":5.37305,"is_reserved":false,"is_disabled":false,"rental_uris":{"android":"levelo://app?vid=a71b1a2a-82a2-4b74-9942-5204b7d9cfbb","ios":"levelo://app?vid=a71b1a2a-82a2-4b74-9942-5204b7d9cfbb"},"vehicle_type_id":"4","last_reported":1730131868,"current_range_meters":27200,"station_id":"ce4bgt12rcd13ifvqcd0","pricing_plan_id":"cebpf4jnsgd1na2vs0mg"},{"bike_id":"0dfb6ad0-21ca-40bb-b62b-f107f6b8a484","system_id":"levelo_inurba_marseille","lat":43.29167,"lon":5.37161,"is_reserved":false,"is_disabled":false,"rental_uris":{"android":"levelo://app?vid=0dfb6ad0-21ca-40bb-b62b-f107f6b8a484","ios":"levelo://app?vid=0dfb6ad0-21ca-40bb-b62b-f107f6b8a484"},"vehicle_type_id":"4","last_reported":1730131868,"current_range_meters":33600,"station_id":"ce4bha92rcd13ifvqeh0","pricing_plan_id":"cebpf4jnsgd1na2vs0mg"},{"bike_id":"006c94c3-30c3-4c64-869e-ff63fe69c17b","system_id":"levelo_inurba_marseille","lat":43.25006,"lon":5.38947,"is_reserved":false,"is_disabled":false,"rental_uris":{"android":"levelo://app?vid=006c94c3-30c3-4c64-869e-ff63fe69c17b","ios":"levelo://app?vid=006c94c3-30c3-4c64-869e-ff63fe69c17b"},"vehicle_type_id":"4","last_reported":1730131868,"current_range_meters":37600,"station_id":"ce4bhgp2rcd13ifvqfd0","pricing_plan_id":"cebpf4jnsgd1na2vs0mg"},{"bike_id":"d3e21c44-4db6-404b-be1b-bdfed76092f4","system_id":"levelo_inurba_marseille","lat":43.27372,"lon":5.3626,"is_reserved":false,"is_disabled":false,"rental_uris":{"android":"levelo://app?vid=d3e21c44-4db6-404b-be1b-bdfed76092f4","ios":"levelo://app?vid=d3e21c44-4db6-404b-be1b-bdfed76092f4"},"vehicle_type_id":"4","last_reported":1730131868,"current_range_meters":11200,"station_id":"ce4bhbh2rcd13ifvqeo0","pricing_plan_id":"cebpf4jnsgd1na2vs0mg"},{"bike_id":"2ab6a876-b383-42be-8174-3b09d00c2764","system_id":"levelo_inurba_marseille","lat":43.22929,"lon":5.35373,"is_reserved":false,"is_disabled":false,"rental_uris":{"android":"levelo://app?vid=2ab6a876-b383-42be-8174-3b09d00c2764","ios":"levelo://app?vid=2ab6a876-b383-42be-8174-3b09d00c2764"},"vehicle_type_id":"4","last_reported":1730131868,"current_range_meters":36400,"station_id":"cpo3532slgdg3j2ikp40","pricing_plan_id":"cebpf4jnsgd1na2vs0mg"},{"bike_id":"61da5b52-ac74-461a-95d5-143a6b50af3a","system_id":"levelo_inurba_marseille","lat":43.2841,"lon":5.3499,"is_reserved":false,"is_disabled":false,"rental_uris":{"android":"levelo://app?vid=61da5b52-ac74-461a-95d5-143a6b50af3a","ios":"levelo://app?vid=61da5b52-ac74-461a-95d5-143a6b50af3a"},"vehicle_type_id":"4","last_reported":1730131868,"current_range_meters":39200,"station_id":"ce4bhbh2rcd13ifvqepg","pricing_plan_id":"cebpf4jnsgd1na2vs0mg"},{"bike_id":"f087f3aa-789c-42ad-b464-3aaf0a08050f","system_id":"levelo_inurba_marseille","lat":43.28404,"lon":5.35002,"is_reserved":false,"is_disabled":false,"rental_uris":{"android":"levelo://app?vid=f087f3aa-789c-42ad-b464-3aaf0a08050f","ios":"levelo://app?vid=f087f3aa-789c-42ad-b464-3aaf0a08050f"},"vehicle_type_id":"4","last_reported":1730131868,"current_range_meters":38800,"station_id":"ce4bhbh2rcd13ifvqepg","pricing_plan_id":"cebpf4jnsgd1na2vs0mg"},{"bike_id":"bac99cbb-2319-4642-9f17-4a58abaf7486","system_id":"levelo_inurba_marseille","lat":43.30699,"lon":5.38215,"is_reserved":false,"is_disabled":false,"rental_uris":{"android":"levelo://app?vid=bac99cbb-2319-4642-9f17-4a58abaf7486","ios":"levelo://app?vid=bac99cbb-2319-4642-9f17-4a58abaf7486"},"vehicle_type_id":"4","last_reported":1730131868,"current_range_meters":35200,"station_id":"","pricing_plan_id":"cebpf4jnsgd1na2vs0mg"},{"bike_id":"d1dacee6-8f47-4ca5-823b-a2ea6c3413e8","system_id":"levelo_inurba_marseille","lat":43.23195,"lon":5.35559,"is_reserved":false,"is_disabled":false,"rental_uris":{"android":"levelo://app?vid=d1dacee6-8f47-4ca5-823b-a2ea6c3413e8","ios":"levelo://app?vid=d1dacee6-8f47-4ca5-823b-a2ea6c3413e8"},"vehicle_type_id":"4","last_reported":1730131868,"current_range_meters":39200,"station_id":"ce4bhu92rcd13ifvqi70","pricing_plan_id":"cebpf4jnsgd1na2vs0mg"},{"bike_id":"3cd5a57b-8b43-4669-a1d6-e0b2e66d91d1","system_id":"levelo_inurba_marseille","lat":43.29775,"lon":5.37122,"is_reserved":false,"is_disabled":false,"rental_uris":{"android":"levelo://app?vid=3cd5a57b-8b43-4669-a1d6-e0b2e66d91d1","ios":"levelo://app?vid=3cd5a57b-8b43-4669-a1d6-e0b2e66d91d1"},"vehicle_type_id":"4","last_reported":1730131868,"current_range_meters":35200,"station_id":"ce4bgop2rcd13ifvqc1g","pricing_plan_id":"cebpf4jnsgd1na2vs0mg"},{"bike_id":"ef317fc4-9aa9-4e9b-96b2-ee8b65e37162","system_id":"levelo_inurba_marseille","lat":43.30323,"lon":5.40432,"is_reserved":false,"is_disabled":false,"rental_uris":{"android":"levelo://app?vid=ef317fc4-9aa9-4e9b-96b2-ee8b65e37162","ios":"levelo://app?vid=ef317fc4-9aa9-4e9b-96b2-ee8b65e37162"},"vehicle_type_id":"4","last_reported":1730131868,"current_range_meters":25600,"station_id":"ce4bh012rcd13ifvqd10","pricing_plan_id":"cebpf4jnsgd1na2vs0mg"},{"bike_id":"0cb65121-4c69-43f4-8581-ee4253502d46","system_id":"levelo_inurba_marseille","lat":43.3015,"lon":5.38084,"is_reserved":false,"is_disabled":false,"rental_uris":{"android":"levelo://app?vid=0cb65121-4c69-43f4-8581-ee4253502d46","ios":"levelo://app?vid=0cb65121-4c69-43f4-8581-ee4253502d46"},"vehicle_type_id":"4","last_reported":1730131868,"current_range_meters":29600,"station_id":"ce4bgjp2rcd13ifvqbh0","pricing_plan_id":"cebpf4jnsgd1na2vs0mg"},{"bike_id":"326ef1ec-b685-4bf3-8b39-1096d55b7b45","system_id":"levelo_inurba_marseille","lat":43.28108,"lon":5.37829,"is_reserved":false,"is_disabled":false,"rental_uris":{"android":"levelo://app?vid=326ef1ec-b685-4bf3-8b39-1096d55b7b45","ios":"levelo://app?vid=326ef1ec-b685-4bf3-8b39-1096d55b7b45"},"vehicle_type_id":"4","last_reported":1730131868,"current_range_meters":10800,"station_id":"ce4bha12rcd13ifvqee0","pricing_plan_id":"cebpf4jnsgd1na2vs0mg"},{"bike_id":"439b81b0-65de-4851-ba53-66538a429203","system_id":"levelo_inurba_marseille","lat":43.25499,"lon":5.37654,"is_reserved":false,"is_disabled":false,"rental_uris":{"android":"levelo://app?vid=439b81b0-65de-4851-ba53-66538a429203","ios":"levelo://app?vid=439b81b0-65de-4851-ba53-66538a429203"},"vehicle_type_id":"4","last_reported":1730131868,"current_range_meters":17200,"station_id":"ce4bhh12rcd13ifvqff0","pricing_plan_id":"cebpf4jnsgd1na2vs0mg"},{"bike_id":"a159f2df-3632-4711-8822-99ee2784b149","system_id":"levelo_inurba_marseille","lat":43.309237,"lon":5.401563,"is_reserved":false,"is_disabled":false,"rental_uris":{"android":"levelo://app?vid=a159f2df-3632-4711-8822-99ee2784b149","ios":"levelo://app?vid=a159f2df-3632-4711-8822-99ee2784b149"},"vehicle_type_id":"4","last_reported":1730131868,"current_range_meters":12400,"station_id":"ce4bgvp2rcd13ifvqct0","pricing_plan_id":"cebpf4jnsgd1na2vs0mg"},{"bike_id":"31e5a90a-d691-4dd2-bf4c-9a6db359f0fa","system_id":"levelo_inurba_marseille","lat":43.30876,"lon":5.39664,"is_reserved":false,"is_disabled":false,"rental_uris":{"android":"levelo://app?vid=31e5a90a-d691-4dd2-bf4c-9a6db359f0fa","ios":"levelo://app?vid=31e5a90a-d691-4dd2-bf4c-9a6db359f0fa"},"vehicle_type_id":"4","last_reported":1730131868,"current_range_meters":38000,"station_id":"ce4bh012rcd13ifvqcv0","pricing_plan_id":"cebpf4jnsgd1na2vs0mg"},{"bike_id":"4214b24c-1a50-4190-957b-dde65a497a74","system_id":"levelo_inurba_marseille","lat":43.30303,"lon":5.39197,"is_reserved":false,"is_disabled":false,"rental_uris":{"android":"levelo://app?vid=4214b24c-1a50-4190-957b-dde65a497a74","ios":"levelo://app?vid=4214b24c-1a50-4190-957b-dde65a497a74"},"vehicle_type_id":"4","last_reported":1730131868,"current_range_meters":11600,"station_id":"ce4bgkh2rcd13ifvqbk0","pricing_plan_id":"cebpf4jnsgd1na2vs0mg"},{"bike_id":"fe4a278a-6b15-4bf5-b463-809d3339a136","system_id":"levelo_inurba_marseille","lat":43.2586,"lon":5.39905,"is_reserved":false,"is_disabled":false,"rental_uris":{"android":"levelo://app?vid=fe4a278a-6b15-4bf5-b463-809d3339a136","ios":"levelo://app?vid=fe4a278a-6b15-4bf5-b463-809d3339a136"},"vehicle_type_id":"4","last_reported":1730131868,"current_range_meters":20400,"station_id":"ce4bhl92rcd13ifvqghg","pricing_plan_id":"cebpf4jnsgd1na2vs0mg"},{"bike_id":"6875a1a6-32b9-4783-93f5-84a3a0c85f67","system_id":"levelo_inurba_marseille","lat":43.23066,"lon":5.35491,"is_reserved":false,"is_disabled":false,"rental_uris":{"android":"levelo://app?vid=6875a1a6-32b9-4783-93f5-84a3a0c85f67","ios":"levelo://app?vid=6875a1a6-32b9-4783-93f5-84a3a0c85f67"},"vehicle_type_id":"4","last_reported":1730131868,"current_range_meters":18800,"station_id":"cpo3342slgdg3j2ifvpg","pricing_plan_id":"cebpf4jnsgd1na2vs0mg"},{"bike_id":"d1823cd1-8fd3-49c2-9d87-e1574747b393","system_id":"levelo_inurba_marseille","lat":43.24652,"lon":5.38895,"is_reserved":false,"is_disabled":false,"rental_uris":{"android":"levelo://app?vid=d1823cd1-8fd3-49c2-9d87-e1574747b393","ios":"levelo://app?vid=d1823cd1-8fd3-49c2-9d87-e1574747b393"},"vehicle_type_id":"4","last_reported":1730131868,"current_range_meters":39200,"station_id":"ce4bhg12rcd13ifvqf60","pricing_plan_id":"cebpf4jnsgd1na2vs0mg"},{"bike_id":"edee228c-76f1-4f9d-b4f7-5773b8a0b850","system_id":"levelo_inurba_marseille","lat":43.23193,"lon":5.35552,"is_reserved":false,"is_disabled":false,"rental_uris":{"android":"levelo://app?vid=edee228c-76f1-4f9d-b4f7-5773b8a0b850","ios":"levelo://app?vid=edee228c-76f1-4f9d-b4f7-5773b8a0b850"},"vehicle_type_id":"4","last_reported":1730131868,"current_range_meters":24800,"station_id":"ce4bhu92rcd13ifvqi70","pricing_plan_id":"cebpf4jnsgd1na2vs0mg"},{"bike_id":"73e960c0-7d5c-42bf-88a9-e3e31c293e93","system_id":"levelo_inurba_marseille","lat":43.30544,"lon":5.36549,"is_reserved":false,"is_disabled":false,"rental_uris":{"android":"levelo://app?vid=73e960c0-7d5c-42bf-88a9-e3e31c293e93","ios":"levelo://app?vid=73e960c0-7d5c-42bf-88a9-e3e31c293e93"},"vehicle_type_id":"4","last_reported":1730131868,"current_range_meters":8000,"station_id":"ce4bgs12rcd13ifvqcag","pricing_plan_id":"cebpf4jnsgd1na2vs0mg"},{"bike_id":"423328f7-5801-4056-9f3a-7511f2a2776a","system_id":"levelo_inurba_marseille","lat":43.23961,"lon":5.36646,"is_reserved":false,"is_disabled":false,"rental_uris":{"android":"levelo://app?vid=423328f7-5801-4056-9f3a-7511f2a2776a","ios":"levelo://app?vid=423328f7-5801-4056-9f3a-7511f2a2776a"},"vehicle_type_id":"4","last_reported":1730131868,"current_range_meters":20400,"station_id":"ce4bhi12rcd13ifvqfp0","pricing_plan_id":"cebpf4jnsgd1na2vs0mg"},{"bike_id":"452337e0-ba05-4045-9957-6832e24f6a60","system_id":"levelo_inurba_marseille","lat":43.30594,"lon":5.37221,"is_reserved":false,"is_disabled":false,"rental_uris":{"android":"levelo://app?vid=452337e0-ba05-4045-9957-6832e24f6a60","ios":"levelo://app?vid=452337e0-ba05-4045-9957-6832e24f6a60"},"vehicle_type_id":"4","last_reported":1730131868,"current_range_meters":8400,"station_id":"ce4bgqh2rcd13ifvqc4g","pricing_plan_id":"cebpf4jnsgd1na2vs0mg"},{"bike_id":"5d013205-968f-46f0-8cb2-f55d13ad5ff4","system_id":"levelo_inurba_marseille","lat":43.32478,"lon":5.3658,"is_reserved":false,"is_disabled":false,"rental_uris":{"android":"levelo://app?vid=5d013205-968f-46f0-8cb2-f55d13ad5ff4","ios":"levelo://app?vid=5d013205-968f-46f0-8cb2-f55d13ad5ff4"},"vehicle_type_id":"4","last_reported":1730131868,"current_range_meters":36800,"station_id":"ce4bhs12rcd13ifvqhvg","pricing_plan_id":"cebpf4jnsgd1na2vs0mg"},{"bike_id":"db3a0433-0050-4c4a-9ac7-447a85112141","system_id":"levelo_inurba_marseille","lat":43.29794,"lon":5.40392,"is_reserved":false,"is_disabled":false,"rental_uris":{"android":"levelo://app?vid=db3a0433-0050-4c4a-9ac7-447a85112141","ios":"levelo://app?vid=db3a0433-0050-4c4a-9ac7-447a85112141"},"vehicle_type_id":"4","last_reported":1730131868,"current_range_meters":20800,"station_id":"ce4bh112rcd13ifvqd90","pricing_plan_id":"cebpf4jnsgd1na2vs0mg"},{"bike_id":"f149b07a-716e-44e4-b275-ae54caf5f871","system_id":"levelo_inurba_marseille","lat":43.24177,"lon":5.39729,"is_reserved":false,"is_disabled":false,"rental_uris":{"android":"levelo://app?vid=f149b07a-716e-44e4-b275-ae54caf5f871","ios":"levelo://app?vid=f149b07a-716e-44e4-b275-ae54caf5f871"},"vehicle_type_id":"4","last_reported":1730131868,"current_range_meters":14400,"station_id":"ce4bhn12rcd13ifvqgpg","pricing_plan_id":"cebpf4jnsgd1na2vs0mg"},{"bike_id":"0ca27c18-c7d9-4731-9f82-bd00e7eb1674","system_id":"levelo_inurba_marseille","lat":43.27372,"lon":5.362636,"is_reserved":false,"is_disabled":false,"rental_uris":{"android":"levelo://app?vid=0ca27c18-c7d9-4731-9f82-bd00e7eb1674","ios":"levelo://app?vid=0ca27c18-c7d9-4731-9f82-bd00e7eb1674"},"vehicle_type_id":"4","last_reported":1730131868,"current_range_meters":16000,"station_id":"ce4bhbh2rcd13ifvqeo0","pricing_plan_id":"cebpf4jnsgd1na2vs0mg"},{"bike_id":"2f921f60-1890-404a-898c-6dae28d2ff64","system_id":"levelo_inurba_marseille","lat":43.32099,"lon":5.36781,"is_reserved":false,"is_disabled":false,"rental_uris":{"android":"levelo://app?vid=2f921f60-1890-404a-898c-6dae28d2ff64","ios":"levelo://app?vid=2f921f60-1890-404a-898c-6dae28d2ff64"},"vehicle_type_id":"4","last_reported":1730131868,"current_range_meters":38800,"station_id":"ce4bhrh2rcd13ifvqhug","pricing_plan_id":"cebpf4jnsgd1na2vs0mg"},{"bike_id":"9182f23b-5c77-4025-b5e3-5a42ccee3e57","system_id":"levelo_inurba_marseille","lat":43.25569,"lon":5.38239,"is_reserved":false,"is_disabled":false,"rental_uris":{"android":"levelo://app?vid=9182f23b-5c77-4025-b5e3-5a42ccee3e57","ios":"levelo://app?vid=9182f23b-5c77-4025-b5e3-5a42ccee3e57"},"vehicle_type_id":"4","last_reported":1730131868,"current_range_meters":12000,"station_id":"ce4bhih2rcd13ifvqfs0","pricing_plan_id":"cebpf4jnsgd1na2vs0mg"},{"bike_id":"79226d2a-7d7c-4232-b251-c5a27e6cacb4","system_id":"levelo_inurba_marseille","lat":43.33023,"lon":5.39042,"is_reserved":false,"is_disabled":false,"rental_uris":{"android":"levelo://app?vid=79226d2a-7d7c-4232-b251-c5a27e6cacb4","ios":"levelo://app?vid=79226d2a-7d7c-4232-b251-c5a27e6cacb4"},"vehicle_type_id":"4","last_reported":1730131868,"current_range_meters":36800,"station_id":"ce4bhr92rcd13ifvqhrg","pricing_plan_id":"cebpf4jnsgd1na2vs0mg"},{"bike_id":"e31f2af1-884f-4abf-baba-e0696493eb22","system_id":"levelo_inurba_marseille","lat":43.30545,"lon":5.36549,"is_reserved":false,"is_disabled":false,"rental_uris":{"android":"levelo://app?vid=e31f2af1-884f-4abf-baba-e0696493eb22","ios":"levelo://app?vid=e31f2af1-884f-4abf-baba-e0696493eb22"},"vehicle_type_id":"4","last_reported":1730131868,"current_range_meters":7200,"station_id":"ce4bgs12rcd13ifvqcag","pricing_plan_id":"cebpf4jnsgd1na2vs0mg"},{"bike_id":"4564240a-1c9f-4197-8bde-783c8bdec9f5","system_id":"levelo_inurba_marseille","lat":43.304459,"lon":5.38925,"is_reserved":false,"is_disabled":false,"rental_uris":{"android":"levelo://app?vid=4564240a-1c9f-4197-8bde-783c8bdec9f5","ios":"levelo://app?vid=4564240a-1c9f-4197-8bde-783c8bdec9f5"},"vehicle_type_id":"4","last_reported":1730131868,"current_range_meters":38000,"station_id":"ce4bh012rcd13ifvqcv0","pricing_plan_id":"cebpf4jnsgd1na2vs0mg"},{"bike_id":"cd8988cf-34e0-4cd8-92c1-67d3cd8c964e","system_id":"levelo_inurba_marseille","lat":43.23961,"lon":5.36628,"is_reserved":false,"is_disabled":false,"rental_uris":{"android":"levelo://app?vid=cd8988cf-34e0-4cd8-92c1-67d3cd8c964e","ios":"levelo://app?vid=cd8988cf-34e0-4cd8-92c1-67d3cd8c964e"},"vehicle_type_id":"4","last_reported":1730131868,"current_range_meters":10000,"station_id":"ce4bhi12rcd13ifvqfp0","pricing_plan_id":"cebpf4jnsgd1na2vs0mg"},{"bike_id":"82c7e1fc-4f07-49cf-b7da-e98326c06bdb","system_id":"levelo_inurba_marseille","lat":43.30303,"lon":5.39211,"is_reserved":false,"is_disabled":false,"rental_uris":{"android":"levelo://app?vid=82c7e1fc-4f07-49cf-b7da-e98326c06bdb","ios":"levelo://app?vid=82c7e1fc-4f07-49cf-b7da-e98326c06bdb"},"vehicle_type_id":"4","last_reported":1730131868,"current_range_meters":5600,"station_id":"ce4bgkh2rcd13ifvqbk0","pricing_plan_id":"cebpf4jnsgd1na2vs0mg"},{"bike_id":"d078e6d7-0cfb-4049-a57d-632523f40a4a","system_id":"levelo_inurba_marseille","lat":43.25719,"lon":5.41116,"is_reserved":false,"is_disabled":false,"rental_uris":{"android":"levelo://app?vid=d078e6d7-0cfb-4049-a57d-632523f40a4a","ios":"levelo://app?vid=d078e6d7-0cfb-4049-a57d-632523f40a4a"},"vehicle_type_id":"4","last_reported":1730131868,"current_range_meters":20800,"station_id":"ce4bhkp2rcd13ifvqgd0","pricing_plan_id":"cebpf4jnsgd1na2vs0mg"},{"bike_id":"58d71a62-e404-4a9f-b49c-a8d046c60c70","system_id":"levelo_inurba_marseille","lat":43.2557,"lon":5.38236,"is_reserved":false,"is_disabled":false,"rental_uris":{"android":"levelo://app?vid=58d71a62-e404-4a9f-b49c-a8d046c60c70","ios":"levelo://app?vid=58d71a62-e404-4a9f-b49c-a8d046c60c70"},"vehicle_type_id":"4","last_reported":1730131868,"current_range_meters":8000,"station_id":"ce4bhih2rcd13ifvqfs0","pricing_plan_id":"cebpf4jnsgd1na2vs0mg"},{"bike_id":"0855de66-517b-4d55-a03c-32954ec8b536","system_id":"levelo_inurba_marseille","lat":43.26565,"lon":5.39,"is_reserved":false,"is_disabled":false,"rental_uris":{"android":"levelo://app?vid=0855de66-517b-4d55-a03c-32954ec8b536","ios":"levelo://app?vid=0855de66-517b-4d55-a03c-32954ec8b536"},"vehicle_type_id":"4","last_reported":1730131868,"current_range_meters":2000,"station_id":"ce4bhe12rcd13ifvqf30","pricing_plan_id":"cebpf4jnsgd1na2vs0mg"},{"bike_id":"0fe16749-9721-477a-af92-4c8613f35d62","system_id":"levelo_inurba_marseille","lat":43.280975,"lon":5.347758,"is_reserved":false,"is_disabled":false,"rental_uris":{"android":"levelo://app?vid=0fe16749-9721-477a-af92-4c8613f35d62","ios":"levelo://app?vid=0fe16749-9721-477a-af92-4c8613f35d62"},"vehicle_type_id":"4","last_reported":1730131868,"current_range_meters":2800,"station_id":"ce4bha12rcd13ifvqef0","pricing_plan_id":"cebpf4jnsgd1na2vs0mg"},{"bike_id":"fe0f4ad9-8221-48ed-be5d-c64547a2f47a","system_id":"levelo_inurba_marseille","lat":43.28626,"lon":5.38357,"is_reserved":false,"is_disabled":false,"rental_uris":{"android":"levelo://app?vid=fe0f4ad9-8221-48ed-be5d-c64547a2f47a","ios":"levelo://app?vid=fe0f4ad9-8221-48ed-be5d-c64547a2f47a"},"vehicle_type_id":"4","last_reported":1730131868,"current_range_meters":20800,"station_id":"ce4bh4p2rcd13ifvqe1g","pricing_plan_id":"cebpf4jnsgd1na2vs0mg"},{"bike_id":"70f0ea20-ce9c-4a7b-8de3-8b5841b5c5d7","system_id":"levelo_inurba_marseille","lat":43.27921,"lon":5.38002,"is_reserved":false,"is_disabled":false,"rental_uris":{"android":"levelo://app?vid=70f0ea20-ce9c-4a7b-8de3-8b5841b5c5d7","ios":"levelo://app?vid=70f0ea20-ce9c-4a7b-8de3-8b5841b5c5d7"},"vehicle_type_id":"4","last_reported":1730131868,"current_range_meters":15200,"station_id":"ce4bhf92rcd13ifvqf50","pricing_plan_id":"cebpf4jnsgd1na2vs0mg"},{"bike_id":"8d66ba2e-e771-4c67-99ad-ef2d113002e3","system_id":"levelo_inurba_marseille","lat":43.25082,"lon":5.39517,"is_reserved":false,"is_disabled":false,"rental_uris":{"android":"levelo://app?vid=8d66ba2e-e771-4c67-99ad-ef2d113002e3","ios":"levelo://app?vid=8d66ba2e-e771-4c67-99ad-ef2d113002e3"},"vehicle_type_id":"4","last_reported":1730131868,"current_range_meters":39200,"station_id":"ce4bhm12rcd13ifvqgkg","pricing_plan_id":"cebpf4jnsgd1na2vs0mg"},{"bike_id":"bb52ce02-5188-4b37-bac3-49191a33febb","system_id":"levelo_inurba_marseille","lat":43.28666,"lon":5.36354,"is_reserved":false,"is_disabled":false,"rental_uris":{"android":"levelo://app?vid=bb52ce02-5188-4b37-bac3-49191a33febb","ios":"levelo://app?vid=bb52ce02-5188-4b37-bac3-49191a33febb"},"vehicle_type_id":"4","last_reported":1730131868,"current_range_meters":24800,"station_id":"ce4bhah2rcd13ifvqej0","pricing_plan_id":"cebpf4jnsgd1na2vs0mg"},{"bike_id":"929372cb-e18b-474f-a9a9-1e11849a86c9","system_id":"levelo_inurba_marseille","lat":43.29551,"lon":5.42291,"is_reserved":false,"is_disabled":false,"rental_uris":{"android":"levelo://app?vid=929372cb-e18b-474f-a9a9-1e11849a86c9","ios":"levelo://app?vid=929372cb-e18b-474f-a9a9-1e11849a86c9"},"vehicle_type_id":"4","last_reported":1730131868,"current_range_meters":39200,"station_id":"ce4bhph2rcd13ifvqhdg","pricing_plan_id":"cebpf4jnsgd1na2vs0mg"},{"bike_id":"6050114c-df75-4619-a1e3-36e0c93adfa2","system_id":"levelo_inurba_marseille","lat":43.24663,"lon":5.38167,"is_reserved":false,"is_disabled":false,"rental_uris":{"android":"levelo://app?vid=6050114c-df75-4619-a1e3-36e0c93adfa2","ios":"levelo://app?vid=6050114c-df75-4619-a1e3-36e0c93adfa2"},"vehicle_type_id":"4","last_reported":1730131868,"current_range_meters":22400,"station_id":"ce4bhih2rcd13ifvqfr0","pricing_plan_id":"cebpf4jnsgd1na2vs0mg"},{"bike_id":"6b6a994b-dd1b-4c47-bb79-285b7ce84777","system_id":"levelo_inurba_marseille","lat":43.32101,"lon":5.3678,"is_reserved":false,"is_disabled":false,"rental_uris":{"android":"levelo://app?vid=6b6a994b-dd1b-4c47-bb79-285b7ce84777","ios":"levelo://app?vid=6b6a994b-dd1b-4c47-bb79-285b7ce84777"},"vehicle_type_id":"4","last_reported":1730131868,"current_range_meters":38800,"station_id":"ce4bhrh2rcd13ifvqhug","pricing_plan_id":"cebpf4jnsgd1na2vs0mg"},{"bike_id":"9017c6df-35d0-4de0-a87e-61688f0d09ad","system_id":"levelo_inurba_marseille","lat":43.299896,"lon":5.36561,"is_reserved":false,"is_disabled":false,"rental_uris":{"android":"levelo://app?vid=9017c6df-35d0-4de0-a87e-61688f0d09ad","ios":"levelo://app?vid=9017c6df-35d0-4de0-a87e-61688f0d09ad"},"vehicle_type_id":"4","last_reported":1730131868,"current_range_meters":17600,"station_id":"ce4bhbh2rcd13ifvqepg","pricing_plan_id":"cebpf4jnsgd1na2vs0mg"},{"bike_id":"e113f747-4daa-44f7-a218-9e030daa2565","system_id":"levelo_inurba_marseille","lat":43.32105,"lon":5.36769,"is_reserved":false,"is_disabled":false,"rental_uris":{"android":"levelo://app?vid=e113f747-4daa-44f7-a218-9e030daa2565","ios":"levelo://app?vid=e113f747-4daa-44f7-a218-9e030daa2565"},"vehicle_type_id":"4","last_reported":1730131868,"current_range_meters":20000,"station_id":"ce4bhrh2rcd13ifvqhug","pricing_plan_id":"cebpf4jnsgd1na2vs0mg"},{"bike_id":"e85d215e-dfff-47d3-8f05-d2bbcf99adbf","system_id":"levelo_inurba_marseille","lat":43.29001,"lon":5.35614,"is_reserved":false,"is_disabled":false,"rental_uris":{"android":"levelo://app?vid=e85d215e-dfff-47d3-8f05-d2bbcf99adbf","ios":"levelo://app?vid=e85d215e-dfff-47d3-8f05-d2bbcf99adbf"},"vehicle_type_id":"4","last_reported":1730131868,"current_range_meters":32400,"station_id":"ce4bhb92rcd13ifvqen0","pricing_plan_id":"cebpf4jnsgd1na2vs0mg"},{"bike_id":"c83bf92a-895e-4031-90cc-0a4806604b3f","system_id":"levelo_inurba_marseille","lat":43.23054,"lon":5.35491,"is_reserved":false,"is_disabled":false,"rental_uris":{"android":"levelo://app?vid=c83bf92a-895e-4031-90cc-0a4806604b3f","ios":"levelo://app?vid=c83bf92a-895e-4031-90cc-0a4806604b3f"},"vehicle_type_id":"4","last_reported":1730131868,"current_range_meters":36400,"station_id":"cpo3342slgdg3j2ifvpg","pricing_plan_id":"cebpf4jnsgd1na2vs0mg"},{"bike_id":"9fd56fad-5f3d-42b4-b491-7b57b76bc0cf","system_id":"levelo_inurba_marseille","lat":43.27817,"lon":5.4072,"is_reserved":false,"is_disabled":false,"rental_uris":{"android":"levelo://app?vid=9fd56fad-5f3d-42b4-b491-7b57b76bc0cf","ios":"levelo://app?vid=9fd56fad-5f3d-42b4-b491-7b57b76bc0cf"},"vehicle_type_id":"4","last_reported":1730131868,"current_range_meters":16400,"station_id":"ce4bhnh2rcd13ifvqgtg","pricing_plan_id":"cebpf4jnsgd1na2vs0mg"},{"bike_id":"efcd100c-18e1-4a79-a45c-7caecc7b2fc7","system_id":"levelo_inurba_marseille","lat":43.2952,"lon":5.39399,"is_reserved":false,"is_disabled":false,"rental_uris":{"android":"levelo://app?vid=efcd100c-18e1-4a79-a45c-7caecc7b2fc7","ios":"levelo://app?vid=efcd100c-18e1-4a79-a45c-7caecc7b2fc7"},"vehicle_type_id":"4","last_reported":1730131868,"current_range_meters":38000,"station_id":"ce4bh292rcd13ifvqdf0","pricing_plan_id":"cebpf4jnsgd1na2vs0mg"},{"bike_id":"263c3a26-a124-4663-abb1-4c08951a90e3","system_id":"levelo_inurba_marseille","lat":43.31218,"lon":5.36858,"is_reserved":false,"is_disabled":false,"rental_uris":{"android":"levelo://app?vid=263c3a26-a124-4663-abb1-4c08951a90e3","ios":"levelo://app?vid=263c3a26-a124-4663-abb1-4c08951a90e3"},"vehicle_type_id":"4","last_reported":1730131868,"current_range_meters":28000,"station_id":"ce4bgl92rcd13ifvqbq0","pricing_plan_id":"cebpf4jnsgd1na2vs0mg"},{"bike_id":"afdc2767-b358-4ab9-ab25-3fe7f0e4b2c4","system_id":"levelo_inurba_marseille","lat":43.24998,"lon":5.38933,"is_reserved":false,"is_disabled":false,"rental_uris":{"android":"levelo://app?vid=afdc2767-b358-4ab9-ab25-3fe7f0e4b2c4","ios":"levelo://app?vid=afdc2767-b358-4ab9-ab25-3fe7f0e4b2c4"},"vehicle_type_id":"4","last_reported":1730131868,"current_range_meters":26000,"station_id":"ce4bhgp2rcd13ifvqfd0","pricing_plan_id":"cebpf4jnsgd1na2vs0mg"},{"bike_id":"692f6882-b003-4695-8695-63d374729e48","system_id":"levelo_inurba_marseille","lat":43.30101,"lon":5.39077,"is_reserved":false,"is_disabled":false,"rental_uris":{"android":"levelo://app?vid=692f6882-b003-4695-8695-63d374729e48","ios":"levelo://app?vid=692f6882-b003-4695-8695-63d374729e48"},"vehicle_type_id":"4","last_reported":1730131868,"current_range_meters":38000,"station_id":"ce4bh192rcd13ifvqdb0","pricing_plan_id":"cebpf4jnsgd1na2vs0mg"},{"bike_id":"496d52e4-8625-40ec-9bd2-7b8c94714833","system_id":"levelo_inurba_marseille","lat":43.29845,"lon":5.36274,"is_reserved":false,"is_disabled":false,"rental_uris":{"android":"levelo://app?vid=496d52e4-8625-40ec-9bd2-7b8c94714833","ios":"levelo://app?vid=496d52e4-8625-40ec-9bd2-7b8c94714833"},"vehicle_type_id":"4","last_reported":1730131868,"current_range_meters":23200,"station_id":"ce4bgpp2rcd13ifvqc3g","pricing_plan_id":"cebpf4jnsgd1na2vs0mg"},{"bike_id":"452a6a83-eb93-4493-961f-5018383a7d22","system_id":"levelo_inurba_marseille","lat":43.25493,"lon":5.37648,"is_reserved":false,"is_disabled":false,"rental_uris":{"android":"levelo://app?vid=452a6a83-eb93-4493-961f-5018383a7d22","ios":"levelo://app?vid=452a6a83-eb93-4493-961f-5018383a7d22"},"vehicle_type_id":"4","last_reported":1730131868,"current_range_meters":8400,"station_id":"ce4bhh12rcd13ifvqff0","pricing_plan_id":"cebpf4jnsgd1na2vs0mg"},{"bike_id":"ce56e531-6f00-4f4e-ac72-63f668ae39d9","system_id":"levelo_inurba_marseille","lat":43.29962,"lon":5.38509,"is_reserved":false,"is_disabled":false,"rental_uris":{"android":"levelo://app?vid=ce56e531-6f00-4f4e-ac72-63f668ae39d9","ios":"levelo://app?vid=ce56e531-6f00-4f4e-ac72-63f668ae39d9"},"vehicle_type_id":"4","last_reported":1730131868,"current_range_meters":6400,"station_id":"ce4bgj92rcd13ifvqbd0","pricing_plan_id":"cebpf4jnsgd1na2vs0mg"},{"bike_id":"e93f42e4-ca27-4ae1-ade5-80b77e2287bc","system_id":"levelo_inurba_marseille","lat":43.26208,"lon":5.37923,"is_reserved":false,"is_disabled":false,"rental_uris":{"android":"levelo://app?vid=e93f42e4-ca27-4ae1-ade5-80b77e2287bc","ios":"levelo://app?vid=e93f42e4-ca27-4ae1-ade5-80b77e2287bc"},"vehicle_type_id":"4","last_reported":1730131868,"current_range_meters":32000,"station_id":"ce4bhjp2rcd13ifvqg90","pricing_plan_id":"cebpf4jnsgd1na2vs0mg"},{"bike_id":"6949151c-49f6-4b77-8e0e-93f5b8b60ceb","system_id":"levelo_inurba_marseille","lat":43.31042,"lon":5.4009,"is_reserved":false,"is_disabled":false,"rental_uris":{"android":"levelo://app?vid=6949151c-49f6-4b77-8e0e-93f5b8b60ceb","ios":"levelo://app?vid=6949151c-49f6-4b77-8e0e-93f5b8b60ceb"},"vehicle_type_id":"4","last_reported":1730131868,"current_range_meters":16400,"station_id":"ce4bh0p2rcd13ifvqd70","pricing_plan_id":"cebpf4jnsgd1na2vs0mg"},{"bike_id":"2c053df8-239c-4642-af9a-a9ae04a15aee","system_id":"levelo_inurba_marseille","lat":43.29687,"lon":5.37293,"is_reserved":false,"is_disabled":false,"rental_uris":{"android":"levelo://app?vid=2c053df8-239c-4642-af9a-a9ae04a15aee","ios":"levelo://app?vid=2c053df8-239c-4642-af9a-a9ae04a15aee"},"vehicle_type_id":"4","last_reported":1730131868,"current_range_meters":27200,"station_id":"ce4bgk12rcd13ifvqbj0","pricing_plan_id":"cebpf4jnsgd1na2vs0mg"},{"bike_id":"939ef23a-8e9f-47e0-ba95-784e8e1c14b8","system_id":"levelo_inurba_marseille","lat":43.23056,"lon":5.35498,"is_reserved":false,"is_disabled":false,"rental_uris":{"android":"levelo://app?vid=939ef23a-8e9f-47e0-ba95-784e8e1c14b8","ios":"levelo://app?vid=939ef23a-8e9f-47e0-ba95-784e8e1c14b8"},"vehicle_type_id":"4","last_reported":1730131868,"current_range_meters":16000,"station_id":"cpo3342slgdg3j2ifvpg","pricing_plan_id":"cebpf4jnsgd1na2vs0mg"},{"bike_id":"5b903a09-48f8-43c8-b5b8-e66b803dff1b","system_id":"levelo_inurba_marseille","lat":43.29875,"lon":5.38909,"is_reserved":false,"is_disabled":false,"rental_uris":{"android":"levelo://app?vid=5b903a09-48f8-43c8-b5b8-e66b803dff1b","ios":"levelo://app?vid=5b903a09-48f8-43c8-b5b8-e66b803dff1b"},"vehicle_type_id":"4","last_reported":1730131868,"current_range_meters":19600,"station_id":"ce4bh392rcd13ifvqdl0","pricing_plan_id":"cebpf4jnsgd1na2vs0mg"},{"bike_id":"c1b0549d-0ce9-45fc-a122-d0e75f2d0952","system_id":"levelo_inurba_marseille","lat":43.29923,"lon":5.37459,"is_reserved":false,"is_disabled":false,"rental_uris":{"android":"levelo://app?vid=c1b0549d-0ce9-45fc-a122-d0e75f2d0952","ios":"levelo://app?vid=c1b0549d-0ce9-45fc-a122-d0e75f2d0952"},"vehicle_type_id":"4","last_reported":1730131868,"current_range_meters":38000,"station_id":"ce4bgjh2rcd13ifvqbg0","pricing_plan_id":"cebpf4jnsgd1na2vs0mg"},{"bike_id":"eddbf326-a36a-408f-8214-1fb5d88e4a45","system_id":"levelo_inurba_marseille","lat":43.29932,"lon":5.36531,"is_reserved":false,"is_disabled":false,"rental_uris":{"android":"levelo://app?vid=eddbf326-a36a-408f-8214-1fb5d88e4a45","ios":"levelo://app?vid=eddbf326-a36a-408f-8214-1fb5d88e4a45"},"vehicle_type_id":"4","last_reported":1730131868,"current_range_meters":6800,"station_id":"ce4bgm92rcd13ifvqbr0","pricing_plan_id":"cebpf4jnsgd1na2vs0mg"},{"bike_id":"34619208-9563-4636-a185-91c859390e5c","system_id":"levelo_inurba_marseille","lat":43.295776,"lon":5.36746,"is_reserved":false,"is_disabled":false,"rental_uris":{"android":"levelo://app?vid=34619208-9563-4636-a185-91c859390e5c","ios":"levelo://app?vid=34619208-9563-4636-a185-91c859390e5c"},"vehicle_type_id":"4","last_reported":1730131868,"current_range_meters":28400,"station_id":"ce4bh612rcd13ifvqe6g","pricing_plan_id":"cebpf4jnsgd1na2vs0mg"},{"bike_id":"5dc0c8cb-a897-49f0-91a0-1c9ab72781a3","system_id":"levelo_inurba_marseille","lat":43.30601,"lon":5.37239,"is_reserved":false,"is_disabled":false,"rental_uris":{"android":"levelo://app?vid=5dc0c8cb-a897-49f0-91a0-1c9ab72781a3","ios":"levelo://app?vid=5dc0c8cb-a897-49f0-91a0-1c9ab72781a3"},"vehicle_type_id":"4","last_reported":1730131868,"current_range_meters":29600,"station_id":"ce4bgqh2rcd13ifvqc4g","pricing_plan_id":"cebpf4jnsgd1na2vs0mg"},{"bike_id":"00a9377f-6deb-4bd5-8dcf-8b319c324c51","system_id":"levelo_inurba_marseille","lat":43.295349,"lon":5.390371,"is_reserved":false,"is_disabled":false,"rental_uris":{"android":"levelo://app?vid=00a9377f-6deb-4bd5-8dcf-8b319c324c51","ios":"levelo://app?vid=00a9377f-6deb-4bd5-8dcf-8b319c324c51"},"vehicle_type_id":"4","last_reported":1730131868,"current_range_meters":24000,"station_id":"ce4bh3p2rcd13ifvqdp0","pricing_plan_id":"cebpf4jnsgd1na2vs0mg"},{"bike_id":"f7a50275-88a4-4be4-ac33-5cce1242cfaa","system_id":"levelo_inurba_marseille","lat":43.31657,"lon":5.37687,"is_reserved":false,"is_disabled":false,"rental_uris":{"android":"levelo://app?vid=f7a50275-88a4-4be4-ac33-5cce1242cfaa","ios":"levelo://app?vid=f7a50275-88a4-4be4-ac33-5cce1242cfaa"},"vehicle_type_id":"4","last_reported":1730131868,"current_range_meters":38400,"station_id":"","pricing_plan_id":"cebpf4jnsgd1na2vs0mg"},{"bike_id":"ff533f6f-c0c8-467c-b4c2-9b21b6e1306a","system_id":"levelo_inurba_marseille","lat":43.301413,"lon":5.380777,"is_reserved":false,"is_disabled":false,"rental_uris":{"android":"levelo://app?vid=ff533f6f-c0c8-467c-b4c2-9b21b6e1306a","ios":"levelo://app?vid=ff533f6f-c0c8-467c-b4c2-9b21b6e1306a"},"vehicle_type_id":"4","last_reported":1730131868,"current_range_meters":9600,"station_id":"ce4bgjp2rcd13ifvqbh0","pricing_plan_id":"cebpf4jnsgd1na2vs0mg"},{"bike_id":"b0356d5d-ff39-491c-b3ec-f527df0a3484","system_id":"levelo_inurba_marseille","lat":43.30471,"lon":5.37908,"is_reserved":false,"is_disabled":false,"rental_uris":{"android":"levelo://app?vid=b0356d5d-ff39-491c-b3ec-f527df0a3484","ios":"levelo://app?vid=b0356d5d-ff39-491c-b3ec-f527df0a3484"},"vehicle_type_id":"4","last_reported":1730131868,"current_range_meters":39200,"station_id":"ce4bgup2rcd13ifvqcn0","pricing_plan_id":"cebpf4jnsgd1na2vs0mg"},{"bike_id":"1286d6d7-f3fd-4ca3-b7ec-49fb63a5d864","system_id":"levelo_inurba_marseille","lat":43.29521,"lon":5.39042,"is_reserved":false,"is_disabled":false,"rental_uris":{"android":"levelo://app?vid=1286d6d7-f3fd-4ca3-b7ec-49fb63a5d864","ios":"levelo://app?vid=1286d6d7-f3fd-4ca3-b7ec-49fb63a5d864"},"vehicle_type_id":"4","last_reported":1730131868,"current_range_meters":20400,"station_id":"ce4bh3p2rcd13ifvqdp0","pricing_plan_id":"cebpf4jnsgd1na2vs0mg"},{"bike_id":"915b9ed9-4f75-427e-a25b-29afa0b969ef","system_id":"levelo_inurba_marseille","lat":43.29962,"lon":5.38509,"is_reserved":false,"is_disabled":false,"rental_uris":{"android":"levelo://app?vid=915b9ed9-4f75-427e-a25b-29afa0b969ef","ios":"levelo://app?vid=915b9ed9-4f75-427e-a25b-29afa0b969ef"},"vehicle_type_id":"4","last_reported":1730131868,"current_range_meters":14000,"station_id":"ce4bgj92rcd13ifvqbd0","pricing_plan_id":"cebpf4jnsgd1na2vs0mg"},{"bike_id":"4cf016cf-222a-4af0-b71c-5001d7c7e17d","system_id":"levelo_inurba_marseille","lat":43.25084,"lon":5.39519,"is_reserved":false,"is_disabled":false,"rental_uris":{"android":"levelo://app?vid=4cf016cf-222a-4af0-b71c-5001d7c7e17d","ios":"levelo://app?vid=4cf016cf-222a-4af0-b71c-5001d7c7e17d"},"vehicle_type_id":"4","last_reported":1730131868,"current_range_meters":39200,"station_id":"ce4bhm12rcd13ifvqgkg","pricing_plan_id":"cebpf4jnsgd1na2vs0mg"},{"bike_id":"c1deb0f3-ab17-478c-b110-29a156c35f5c","system_id":"levelo_inurba_marseille","lat":43.29836,"lon":5.36262,"is_reserved":false,"is_disabled":false,"rental_uris":{"android":"levelo://app?vid=c1deb0f3-ab17-478c-b110-29a156c35f5c","ios":"levelo://app?vid=c1deb0f3-ab17-478c-b110-29a156c35f5c"},"vehicle_type_id":"4","last_reported":1730131868,"current_range_meters":30800,"station_id":"ce4bgpp2rcd13ifvqc3g","pricing_plan_id":"cebpf4jnsgd1na2vs0mg"},{"bike_id":"82c43ad3-9e3d-43ac-ace0-20c229b62050","system_id":"levelo_inurba_marseille","lat":43.26559,"lon":5.39007,"is_reserved":false,"is_disabled":false,"rental_uris":{"android":"levelo://app?vid=82c43ad3-9e3d-43ac-ace0-20c229b62050","ios":"levelo://app?vid=82c43ad3-9e3d-43ac-ace0-20c229b62050"},"vehicle_type_id":"4","last_reported":1730131868,"current_range_meters":5600,"station_id":"ce4bhe12rcd13ifvqf30","pricing_plan_id":"cebpf4jnsgd1na2vs0mg"},{"bike_id":"426c10fa-6ac3-46d5-b82d-ffe5493c7a76","system_id":"levelo_inurba_marseille","lat":43.23057,"lon":5.35487,"is_reserved":false,"is_disabled":false,"rental_uris":{"android":"levelo://app?vid=426c10fa-6ac3-46d5-b82d-ffe5493c7a76","ios":"levelo://app?vid=426c10fa-6ac3-46d5-b82d-ffe5493c7a76"},"vehicle_type_id":"4","last_reported":1730131868,"current_range_meters":8000,"station_id":"cpo3342slgdg3j2ifvpg","pricing_plan_id":"cebpf4jnsgd1na2vs0mg"},{"bike_id":"1df2b090-49ab-4595-b3ec-8d6aca3799e3","system_id":"levelo_inurba_marseille","lat":43.29436,"lon":5.39755,"is_reserved":false,"is_disabled":false,"rental_uris":{"android":"levelo://app?vid=1df2b090-49ab-4595-b3ec-8d6aca3799e3","ios":"levelo://app?vid=1df2b090-49ab-4595-b3ec-8d6aca3799e3"},"vehicle_type_id":"4","last_reported":1730131868,"current_range_meters":17600,"station_id":"ce4bh3h2rcd13ifvqdo0","pricing_plan_id":"cebpf4jnsgd1na2vs0mg"},{"bike_id":"1c7f26ee-b0d1-4c55-b487-ce810cec61b4","system_id":"levelo_inurba_marseille","lat":43.25088,"lon":5.39517,"is_reserved":false,"is_disabled":false,"rental_uris":{"android":"levelo://app?vid=1c7f26ee-b0d1-4c55-b487-ce810cec61b4","ios":"levelo://app?vid=1c7f26ee-b0d1-4c55-b487-ce810cec61b4"},"vehicle_type_id":"4","last_reported":1730131868,"current_range_meters":28800,"station_id":"ce4bhm12rcd13ifvqgkg","pricing_plan_id":"cebpf4jnsgd1na2vs0mg"},{"bike_id":"9befed88-9f8c-464c-b07b-093bd97066bb","system_id":"levelo_inurba_marseille","lat":43.29805,"lon":5.37136,"is_reserved":false,"is_disabled":false,"rental_uris":{"android":"levelo://app?vid=9befed88-9f8c-464c-b07b-093bd97066bb","ios":"levelo://app?vid=9befed88-9f8c-464c-b07b-093bd97066bb"},"vehicle_type_id":"4","last_reported":1730131868,"current_range_meters":14400,"station_id":"","pricing_plan_id":"cebpf4jnsgd1na2vs0mg"},{"bike_id":"f37e3b02-a49c-4c4e-b112-f9c8c24edf90","system_id":"levelo_inurba_marseille","lat":43.23465,"lon":5.35833,"is_reserved":false,"is_disabled":false,"rental_uris":{"android":"levelo://app?vid=f37e3b02-a49c-4c4e-b112-f9c8c24edf90","ios":"levelo://app?vid=f37e3b02-a49c-4c4e-b112-f9c8c24edf90"},"vehicle_type_id":"4","last_reported":1730131868,"current_range_meters":4800,"station_id":"ce4bhu92rcd13ifvqi70","pricing_plan_id":"cebpf4jnsgd1na2vs0mg"},{"bike_id":"98ccba86-a02d-4bfd-9cb4-d849d3f9f575","system_id":"levelo_inurba_marseille","lat":43.25081,"lon":5.39524,"is_reserved":false,"is_disabled":false,"rental_uris":{"android":"levelo://app?vid=98ccba86-a02d-4bfd-9cb4-d849d3f9f575","ios":"levelo://app?vid=98ccba86-a02d-4bfd-9cb4-d849d3f9f575"},"vehicle_type_id":"4","last_reported":1730131868,"current_range_meters":39200,"station_id":"ce4bhm12rcd13ifvqgkg","pricing_plan_id":"cebpf4jnsgd1na2vs0mg"},{"bike_id":"70f67b33-0152-445a-bdc2-4d54b7af58f2","system_id":"levelo_inurba_marseille","lat":43.24659,"lon":5.38163,"is_reserved":false,"is_disabled":false,"rental_uris":{"android":"levelo://app?vid=70f67b33-0152-445a-bdc2-4d54b7af58f2","ios":"levelo://app?vid=70f67b33-0152-445a-bdc2-4d54b7af58f2"},"vehicle_type_id":"4","last_reported":1730131868,"current_range_meters":12400,"station_id":"ce4bhih2rcd13ifvqfr0","pricing_plan_id":"cebpf4jnsgd1na2vs0mg"},{"bike_id":"8aef83f3-b055-4a4d-b7ad-e7e13c78209b","system_id":"levelo_inurba_marseille","lat":43.30421,"lon":5.412937,"is_reserved":false,"is_disabled":false,"rental_uris":{"android":"levelo://app?vid=8aef83f3-b055-4a4d-b7ad-e7e13c78209b","ios":"levelo://app?vid=8aef83f3-b055-4a4d-b7ad-e7e13c78209b"},"vehicle_type_id":"4","last_reported":1730131868,"current_range_meters":36000,"station_id":"ce4bhah2rcd13ifvqej0","pricing_plan_id":"cebpf4jnsgd1na2vs0mg"},{"bike_id":"403b581f-be7f-44e9-b6cf-8df6a1f166f3","system_id":"levelo_inurba_marseille","lat":43.23959,"lon":5.36644,"is_reserved":false,"is_disabled":false,"rental_uris":{"android":"levelo://app?vid=403b581f-be7f-44e9-b6cf-8df6a1f166f3","ios":"levelo://app?vid=403b581f-be7f-44e9-b6cf-8df6a1f166f3"},"vehicle_type_id":"4","last_reported":1730131868,"current_range_meters":8800,"station_id":"ce4bhi12rcd13ifvqfp0","pricing_plan_id":"cebpf4jnsgd1na2vs0mg"},{"bike_id":"197742bc-38f3-4026-b1ad-0d4fde7b2a27","system_id":"levelo_inurba_marseille","lat":43.27047,"lon":5.40282,"is_reserved":false,"is_disabled":false,"rental_uris":{"android":"levelo://app?vid=197742bc-38f3-4026-b1ad-0d4fde7b2a27","ios":"levelo://app?vid=197742bc-38f3-4026-b1ad-0d4fde7b2a27"},"vehicle_type_id":"4","last_reported":1730131868,"current_range_meters":35200,"station_id":"ce4bhk92rcd13ifvqgc0","pricing_plan_id":"cebpf4jnsgd1na2vs0mg"},{"bike_id":"9e23c959-4877-408c-9d08-759a256cad2e","system_id":"levelo_inurba_marseille","lat":43.28933,"lon":5.36639,"is_reserved":false,"is_disabled":false,"rental_uris":{"android":"levelo://app?vid=9e23c959-4877-408c-9d08-759a256cad2e","ios":"levelo://app?vid=9e23c959-4877-408c-9d08-759a256cad2e"},"vehicle_type_id":"4","last_reported":1730131868,"current_range_meters":20000,"station_id":"ce4bhap2rcd13ifvqek0","pricing_plan_id":"cebpf4jnsgd1na2vs0mg"},{"bike_id":"5fdc3e1a-ad6b-4861-b809-17c931b02a50","system_id":"levelo_inurba_marseille","lat":43.29938,"lon":5.36558,"is_reserved":false,"is_disabled":false,"rental_uris":{"android":"levelo://app?vid=5fdc3e1a-ad6b-4861-b809-17c931b02a50","ios":"levelo://app?vid=5fdc3e1a-ad6b-4861-b809-17c931b02a50"},"vehicle_type_id":"4","last_reported":1730131868,"current_range_meters":30000,"station_id":"ce4bgm92rcd13ifvqbr0","pricing_plan_id":"cebpf4jnsgd1na2vs0mg"},{"bike_id":"def66fbe-9129-4b94-9aa6-f0a9941a832b","system_id":"levelo_inurba_marseille","lat":43.29175,"lon":5.36916,"is_reserved":false,"is_disabled":false,"rental_uris":{"android":"levelo://app?vid=def66fbe-9129-4b94-9aa6-f0a9941a832b","ios":"levelo://app?vid=def66fbe-9129-4b94-9aa6-f0a9941a832b"},"vehicle_type_id":"4","last_reported":1730131868,"current_range_meters":10800,"station_id":"","pricing_plan_id":"cebpf4jnsgd1na2vs0mg"},{"bike_id":"9627699b-9c8e-4321-ba2a-f15879ef2c66","system_id":"levelo_inurba_marseille","lat":43.28356,"lon":5.38647,"is_reserved":false,"is_disabled":false,"rental_uris":{"android":"levelo://app?vid=9627699b-9c8e-4321-ba2a-f15879ef2c66","ios":"levelo://app?vid=9627699b-9c8e-4321-ba2a-f15879ef2c66"},"vehicle_type_id":"4","last_reported":1730131868,"current_range_meters":37600,"station_id":"ce4bh492rcd13ifvqdvg","pricing_plan_id":"cebpf4jnsgd1na2vs0mg"},{"bike_id":"08944374-fca8-4233-be92-11b99ff0eceb","system_id":"levelo_inurba_marseille","lat":43.29228,"lon":5.36071,"is_reserved":false,"is_disabled":false,"rental_uris":{"android":"levelo://app?vid=08944374-fca8-4233-be92-11b99ff0eceb","ios":"levelo://app?vid=08944374-fca8-4233-be92-11b99ff0eceb"},"vehicle_type_id":"4","last_reported":1730131868,"current_range_meters":20400,"station_id":"ce4bhbh2rcd13ifvqeqg","pricing_plan_id":"cebpf4jnsgd1na2vs0mg"},{"bike_id":"0ddc526a-0fec-476b-83e5-4382524d13ee","system_id":"levelo_inurba_marseille","lat":43.29086,"lon":5.38145,"is_reserved":false,"is_disabled":false,"rental_uris":{"android":"levelo://app?vid=0ddc526a-0fec-476b-83e5-4382524d13ee","ios":"levelo://app?vid=0ddc526a-0fec-476b-83e5-4382524d13ee"},"vehicle_type_id":"4","last_reported":1730131868,"current_range_meters":33200,"station_id":"ce4bh512rcd13ifvqe2g","pricing_plan_id":"cebpf4jnsgd1na2vs0mg"},{"bike_id":"e5630466-0af0-4d76-a58b-254eeaf8085b","system_id":"levelo_inurba_marseille","lat":43.29581,"lon":5.36735,"is_reserved":false,"is_disabled":false,"rental_uris":{"android":"levelo://app?vid=e5630466-0af0-4d76-a58b-254eeaf8085b","ios":"levelo://app?vid=e5630466-0af0-4d76-a58b-254eeaf8085b"},"vehicle_type_id":"4","last_reported":1730131868,"current_range_meters":39200,"station_id":"ce4bgph2rcd13ifvqc2g","pricing_plan_id":"cebpf4jnsgd1na2vs0mg"},{"bike_id":"4d302fdd-3000-4acf-8f6c-d91aa06f847b","system_id":"levelo_inurba_marseille","lat":43.29298,"lon":5.37168,"is_reserved":false,"is_disabled":false,"rental_uris":{"android":"levelo://app?vid=4d302fdd-3000-4acf-8f6c-d91aa06f847b","ios":"levelo://app?vid=4d302fdd-3000-4acf-8f6c-d91aa06f847b"},"vehicle_type_id":"4","last_reported":1730131868,"current_range_meters":36800,"station_id":"ce4bgh92rcd13ifvqb40","pricing_plan_id":"cebpf4jnsgd1na2vs0mg"},{"bike_id":"a08296db-b3f4-4d7c-b368-674ac3a21b1e","system_id":"levelo_inurba_marseille","lat":43.23058,"lon":5.35493,"is_reserved":false,"is_disabled":false,"rental_uris":{"android":"levelo://app?vid=a08296db-b3f4-4d7c-b368-674ac3a21b1e","ios":"levelo://app?vid=a08296db-b3f4-4d7c-b368-674ac3a21b1e"},"vehicle_type_id":"4","last_reported":1730131868,"current_range_meters":36400,"station_id":"cpo3342slgdg3j2ifvpg","pricing_plan_id":"cebpf4jnsgd1na2vs0mg"},{"bike_id":"a8cee942-4e79-4841-bcf6-709c6b8ff76e","system_id":"levelo_inurba_marseille","lat":43.25501,"lon":5.37655,"is_reserved":false,"is_disabled":false,"rental_uris":{"android":"levelo://app?vid=a8cee942-4e79-4841-bcf6-709c6b8ff76e","ios":"levelo://app?vid=a8cee942-4e79-4841-bcf6-709c6b8ff76e"},"vehicle_type_id":"4","last_reported":1730131868,"current_range_meters":12400,"station_id":"ce4bhh12rcd13ifvqff0","pricing_plan_id":"cebpf4jnsgd1na2vs0mg"},{"bike_id":"3afd5807-54ac-4a93-b939-c009c0a27523","system_id":"levelo_inurba_marseille","lat":43.29592,"lon":5.36797,"is_reserved":false,"is_disabled":false,"rental_uris":{"android":"levelo://app?vid=3afd5807-54ac-4a93-b939-c009c0a27523","ios":"levelo://app?vid=3afd5807-54ac-4a93-b939-c009c0a27523"},"vehicle_type_id":"4","last_reported":1730131868,"current_range_meters":30000,"station_id":"ce4bgqh2rcd13ifvqc5g","pricing_plan_id":"cebpf4jnsgd1na2vs0mg"},{"bike_id":"84efc9a5-ef28-4250-b5eb-7a4d0c13011d","system_id":"levelo_inurba_marseille","lat":43.30544,"lon":5.36542,"is_reserved":false,"is_disabled":false,"rental_uris":{"android":"levelo://app?vid=84efc9a5-ef28-4250-b5eb-7a4d0c13011d","ios":"levelo://app?vid=84efc9a5-ef28-4250-b5eb-7a4d0c13011d"},"vehicle_type_id":"4","last_reported":1730131868,"current_range_meters":25600,"station_id":"ce4bgs12rcd13ifvqcag","pricing_plan_id":"cebpf4jnsgd1na2vs0mg"},{"bike_id":"2db8f544-f62f-463d-9330-1a45c719fa23","system_id":"levelo_inurba_marseille","lat":43.2962,"lon":5.37174,"is_reserved":false,"is_disabled":false,"rental_uris":{"android":"levelo://app?vid=2db8f544-f62f-463d-9330-1a45c719fa23","ios":"levelo://app?vid=2db8f544-f62f-463d-9330-1a45c719fa23"},"vehicle_type_id":"4","last_reported":1730131868,"current_range_meters":38400,"station_id":"ce4bgnh2rcd13ifvqc0g","pricing_plan_id":"cebpf4jnsgd1na2vs0mg"},{"bike_id":"e9d21191-c6a6-4908-9641-483ac77be378","system_id":"levelo_inurba_marseille","lat":43.31703,"lon":5.37755,"is_reserved":false,"is_disabled":false,"rental_uris":{"android":"levelo://app?vid=e9d21191-c6a6-4908-9641-483ac77be378","ios":"levelo://app?vid=e9d21191-c6a6-4908-9641-483ac77be378"},"vehicle_type_id":"4","last_reported":1730131868,"current_range_meters":25600,"station_id":"ce4bgth2rcd13ifvqch0","pricing_plan_id":"cebpf4jnsgd1na2vs0mg"},{"bike_id":"a308081f-95c1-4e15-abac-3fd8f4f54610","system_id":"levelo_inurba_marseille","lat":43.28925,"lon":5.38403,"is_reserved":false,"is_disabled":false,"rental_uris":{"android":"levelo://app?vid=a308081f-95c1-4e15-abac-3fd8f4f54610","ios":"levelo://app?vid=a308081f-95c1-4e15-abac-3fd8f4f54610"},"vehicle_type_id":"4","last_reported":1730131868,"current_range_meters":2800,"station_id":"ce4bh612rcd13ifvqe6g","pricing_plan_id":"cebpf4jnsgd1na2vs0mg"},{"bike_id":"574b0fef-7965-428e-a5cf-87e0d32ebfc6","system_id":"levelo_inurba_marseille","lat":43.26213,"lon":5.37442,"is_reserved":false,"is_disabled":false,"rental_uris":{"android":"levelo://app?vid=574b0fef-7965-428e-a5cf-87e0d32ebfc6","ios":"levelo://app?vid=574b0fef-7965-428e-a5cf-87e0d32ebfc6"},"vehicle_type_id":"4","last_reported":1730131868,"current_range_meters":14400,"station_id":"ce4bhgp2rcd13ifvqfc0","pricing_plan_id":"cebpf4jnsgd1na2vs0mg"},{"bike_id":"c7d3585e-e13d-4d59-9a25-67f07dddb726","system_id":"levelo_inurba_marseille","lat":43.32272,"lon":5.38288,"is_reserved":false,"is_disabled":false,"rental_uris":{"android":"levelo://app?vid=c7d3585e-e13d-4d59-9a25-67f07dddb726","ios":"levelo://app?vid=c7d3585e-e13d-4d59-9a25-67f07dddb726"},"vehicle_type_id":"4","last_reported":1730131868,"current_range_meters":39200,"station_id":"ce4bhr12rcd13ifvqhqg","pricing_plan_id":"cebpf4jnsgd1na2vs0mg"},{"bike_id":"8365ae7d-b072-4734-9306-a366f4b5c63c","system_id":"levelo_inurba_marseille","lat":43.27374,"lon":5.36256,"is_reserved":false,"is_disabled":false,"rental_uris":{"android":"levelo://app?vid=8365ae7d-b072-4734-9306-a366f4b5c63c","ios":"levelo://app?vid=8365ae7d-b072-4734-9306-a366f4b5c63c"},"vehicle_type_id":"4","last_reported":1730131868,"current_range_meters":38800,"station_id":"ce4bhbh2rcd13ifvqeo0","pricing_plan_id":"cebpf4jnsgd1na2vs0mg"},{"bike_id":"0441f3ca-59bc-4033-ae69-07443ec68f8e","system_id":"levelo_inurba_marseille","lat":43.23962,"lon":5.36639,"is_reserved":false,"is_disabled":false,"rental_uris":{"android":"levelo://app?vid=0441f3ca-59bc-4033-ae69-07443ec68f8e","ios":"levelo://app?vid=0441f3ca-59bc-4033-ae69-07443ec68f8e"},"vehicle_type_id":"4","last_reported":1730131868,"current_range_meters":6400,"station_id":"ce4bhi12rcd13ifvqfp0","pricing_plan_id":"cebpf4jnsgd1na2vs0mg"},{"bike_id":"c351e190-14cc-42f8-a3d4-0583824812ef","system_id":"levelo_inurba_marseille","lat":43.30657,"lon":5.40059,"is_reserved":false,"is_disabled":false,"rental_uris":{"android":"levelo://app?vid=c351e190-14cc-42f8-a3d4-0583824812ef","ios":"levelo://app?vid=c351e190-14cc-42f8-a3d4-0583824812ef"},"vehicle_type_id":"4","last_reported":1730131868,"current_range_meters":38800,"station_id":"ce4bh112rcd13ifvqda0","pricing_plan_id":"cebpf4jnsgd1na2vs0mg"},{"bike_id":"87b99505-0736-47b3-99e8-ea6594cfc95f","system_id":"levelo_inurba_marseille","lat":43.30648,"lon":5.40097,"is_reserved":false,"is_disabled":false,"rental_uris":{"android":"levelo://app?vid=87b99505-0736-47b3-99e8-ea6594cfc95f","ios":"levelo://app?vid=87b99505-0736-47b3-99e8-ea6594cfc95f"},"vehicle_type_id":"4","last_reported":1730131868,"current_range_meters":25600,"station_id":"ce4bh112rcd13ifvqda0","pricing_plan_id":"cebpf4jnsgd1na2vs0mg"},{"bike_id":"a2ea2797-ae2a-4d35-8b0b-0c47931da0c1","system_id":"levelo_inurba_marseille","lat":43.265018,"lon":5.395402,"is_reserved":false,"is_disabled":false,"rental_uris":{"android":"levelo://app?vid=a2ea2797-ae2a-4d35-8b0b-0c47931da0c1","ios":"levelo://app?vid=a2ea2797-ae2a-4d35-8b0b-0c47931da0c1"},"vehicle_type_id":"4","last_reported":1730131868,"current_range_meters":38800,"station_id":"ce4bhi12rcd13ifvqfq0","pricing_plan_id":"cebpf4jnsgd1na2vs0mg"},{"bike_id":"e4dc2f35-4f79-4b7c-8990-a88b9d35fa94","system_id":"levelo_inurba_marseille","lat":43.28616,"lon":5.35115,"is_reserved":false,"is_disabled":false,"rental_uris":{"android":"levelo://app?vid=e4dc2f35-4f79-4b7c-8990-a88b9d35fa94","ios":"levelo://app?vid=e4dc2f35-4f79-4b7c-8990-a88b9d35fa94"},"vehicle_type_id":"4","last_reported":1730131868,"current_range_meters":20000,"station_id":"ce4bhch2rcd13ifvqeug","pricing_plan_id":"cebpf4jnsgd1na2vs0mg"},{"bike_id":"ed370ef9-8bee-4041-939c-116177496bfe","system_id":"levelo_inurba_marseille","lat":43.33026,"lon":5.39044,"is_reserved":false,"is_disabled":false,"rental_uris":{"android":"levelo://app?vid=ed370ef9-8bee-4041-939c-116177496bfe","ios":"levelo://app?vid=ed370ef9-8bee-4041-939c-116177496bfe"},"vehicle_type_id":"4","last_reported":1730131868,"current_range_meters":22400,"station_id":"ce4bhr92rcd13ifvqhrg","pricing_plan_id":"cebpf4jnsgd1na2vs0mg"},{"bike_id":"efb90eb5-b74a-4229-93cc-8c45be093ff2","system_id":"levelo_inurba_marseille","lat":43.29595,"lon":5.38097,"is_reserved":false,"is_disabled":false,"rental_uris":{"android":"levelo://app?vid=efb90eb5-b74a-4229-93cc-8c45be093ff2","ios":"levelo://app?vid=efb90eb5-b74a-4229-93cc-8c45be093ff2"},"vehicle_type_id":"4","last_reported":1730131868,"current_range_meters":36800,"station_id":"ce4bgl12rcd13ifvqbo0","pricing_plan_id":"cebpf4jnsgd1na2vs0mg"},{"bike_id":"6a1a7e6b-e60b-497c-bc13-89bd7ff2ccda","system_id":"levelo_inurba_marseille","lat":43.30309,"lon":5.36862,"is_reserved":false,"is_disabled":false,"rental_uris":{"android":"levelo://app?vid=6a1a7e6b-e60b-497c-bc13-89bd7ff2ccda","ios":"levelo://app?vid=6a1a7e6b-e60b-497c-bc13-89bd7ff2ccda"},"vehicle_type_id":"4","last_reported":1730131868,"current_range_meters":9200,"station_id":"ce4bgqh2rcd13ifvqc5g","pricing_plan_id":"cebpf4jnsgd1na2vs0mg"},{"bike_id":"fa44638b-7c7d-46bf-9c87-fa0754bbaf56","system_id":"levelo_inurba_marseille","lat":43.23961,"lon":5.36646,"is_reserved":false,"is_disabled":false,"rental_uris":{"android":"levelo://app?vid=fa44638b-7c7d-46bf-9c87-fa0754bbaf56","ios":"levelo://app?vid=fa44638b-7c7d-46bf-9c87-fa0754bbaf56"},"vehicle_type_id":"4","last_reported":1730131868,"current_range_meters":9600,"station_id":"ce4bhi12rcd13ifvqfp0","pricing_plan_id":"cebpf4jnsgd1na2vs0mg"},{"bike_id":"670d46cb-67a0-4ba1-bdcd-039676767729","system_id":"levelo_inurba_marseille","lat":43.29968,"lon":5.38505,"is_reserved":false,"is_disabled":false,"rental_uris":{"android":"levelo://app?vid=670d46cb-67a0-4ba1-bdcd-039676767729","ios":"levelo://app?vid=670d46cb-67a0-4ba1-bdcd-039676767729"},"vehicle_type_id":"4","last_reported":1730131868,"current_range_meters":4400,"station_id":"ce4bgj92rcd13ifvqbd0","pricing_plan_id":"cebpf4jnsgd1na2vs0mg"},{"bike_id":"4147fda2-afb1-46c5-bd4b-baa77f3a7131","system_id":"levelo_inurba_marseille","lat":43.30145,"lon":5.38093,"is_reserved":false,"is_disabled":false,"rental_uris":{"android":"levelo://app?vid=4147fda2-afb1-46c5-bd4b-baa77f3a7131","ios":"levelo://app?vid=4147fda2-afb1-46c5-bd4b-baa77f3a7131"},"vehicle_type_id":"4","last_reported":1730131868,"current_range_meters":34000,"station_id":"ce4bgjp2rcd13ifvqbh0","pricing_plan_id":"cebpf4jnsgd1na2vs0mg"},{"bike_id":"395a1ccc-8207-4b04-981b-dc5325361332","system_id":"levelo_inurba_marseille","lat":43.30241,"lon":5.40078,"is_reserved":false,"is_disabled":false,"rental_uris":{"android":"levelo://app?vid=395a1ccc-8207-4b04-981b-dc5325361332","ios":"levelo://app?vid=395a1ccc-8207-4b04-981b-dc5325361332"},"vehicle_type_id":"4","last_reported":1730131868,"current_range_meters":38800,"station_id":"ce4bgvh2rcd13ifvqcs0","pricing_plan_id":"cebpf4jnsgd1na2vs0mg"},{"bike_id":"ed578aea-4a77-4272-9292-f2e141713d66","system_id":"levelo_inurba_marseille","lat":43.29051,"lon":5.35913,"is_reserved":false,"is_disabled":false,"rental_uris":{"android":"levelo://app?vid=ed578aea-4a77-4272-9292-f2e141713d66","ios":"levelo://app?vid=ed578aea-4a77-4272-9292-f2e141713d66"},"vehicle_type_id":"4","last_reported":1730131868,"current_range_meters":10800,"station_id":"ce4bha92rcd13ifvqeg0","pricing_plan_id":"cebpf4jnsgd1na2vs0mg"},{"bike_id":"e42a9169-1dd6-492f-9c5c-39d3a18ef2e1","system_id":"levelo_inurba_marseille","lat":43.30149,"lon":5.38081,"is_reserved":false,"is_disabled":false,"rental_uris":{"android":"levelo://app?vid=e42a9169-1dd6-492f-9c5c-39d3a18ef2e1","ios":"levelo://app?vid=e42a9169-1dd6-492f-9c5c-39d3a18ef2e1"},"vehicle_type_id":"4","last_reported":1730131868,"current_range_meters":27600,"station_id":"ce4bgjp2rcd13ifvqbh0","pricing_plan_id":"cebpf4jnsgd1na2vs0mg"},{"bike_id":"f55dcfa5-fad0-4f00-aac0-bfc52a6f26a1","system_id":"levelo_inurba_marseille","lat":43.29165,"lon":5.37166,"is_reserved":false,"is_disabled":false,"rental_uris":{"android":"levelo://app?vid=f55dcfa5-fad0-4f00-aac0-bfc52a6f26a1","ios":"levelo://app?vid=f55dcfa5-fad0-4f00-aac0-bfc52a6f26a1"},"vehicle_type_id":"4","last_reported":1730131868,"current_range_meters":39200,"station_id":"ce4bha92rcd13ifvqeh0","pricing_plan_id":"cebpf4jnsgd1na2vs0mg"},{"bike_id":"5d820ce0-2d55-46e5-b74d-cc75a18e2e27","system_id":"levelo_inurba_marseille","lat":43.26995,"lon":5.39252,"is_reserved":false,"is_disabled":false,"rental_uris":{"android":"levelo://app?vid=5d820ce0-2d55-46e5-b74d-cc75a18e2e27","ios":"levelo://app?vid=5d820ce0-2d55-46e5-b74d-cc75a18e2e27"},"vehicle_type_id":"4","last_reported":1730131868,"current_range_meters":30800,"station_id":"ce4bgh92rcd13ifvqb40","pricing_plan_id":"cebpf4jnsgd1na2vs0mg"},{"bike_id":"640bcef7-710e-4be2-8a7d-1ec3b1384ebf","system_id":"levelo_inurba_marseille","lat":43.29023,"lon":5.38129,"is_reserved":false,"is_disabled":false,"rental_uris":{"android":"levelo://app?vid=640bcef7-710e-4be2-8a7d-1ec3b1384ebf","ios":"levelo://app?vid=640bcef7-710e-4be2-8a7d-1ec3b1384ebf"},"vehicle_type_id":"4","last_reported":1730131868,"current_range_meters":28000,"station_id":"ce4bh4p2rcd13ifvqe1g","pricing_plan_id":"cebpf4jnsgd1na2vs0mg"},{"bike_id":"55433e48-d44e-4b78-92c7-ee7cf1d8fd02","system_id":"levelo_inurba_marseille","lat":43.31135,"lon":5.37062,"is_reserved":false,"is_disabled":false,"rental_uris":{"android":"levelo://app?vid=55433e48-d44e-4b78-92c7-ee7cf1d8fd02","ios":"levelo://app?vid=55433e48-d44e-4b78-92c7-ee7cf1d8fd02"},"vehicle_type_id":"4","last_reported":1730131868,"current_range_meters":39200,"station_id":"","pricing_plan_id":"cebpf4jnsgd1na2vs0mg"},{"bike_id":"f06896e8-b6ac-4bd0-b8f5-50bfab8505ae","system_id":"levelo_inurba_marseille","lat":43.30305,"lon":5.36894,"is_reserved":false,"is_disabled":false,"rental_uris":{"android":"levelo://app?vid=f06896e8-b6ac-4bd0-b8f5-50bfab8505ae","ios":"levelo://app?vid=f06896e8-b6ac-4bd0-b8f5-50bfab8505ae"},"vehicle_type_id":"4","last_reported":1730131868,"current_range_meters":9600,"station_id":"ce4bgqh2rcd13ifvqc5g","pricing_plan_id":"cebpf4jnsgd1na2vs0mg"},{"bike_id":"db63f058-fdad-4057-bb90-e81b78c31449","system_id":"levelo_inurba_marseille","lat":43.2762,"lon":5.36116,"is_reserved":false,"is_disabled":false,"rental_uris":{"android":"levelo://app?vid=db63f058-fdad-4057-bb90-e81b78c31449","ios":"levelo://app?vid=db63f058-fdad-4057-bb90-e81b78c31449"},"vehicle_type_id":"4","last_reported":1730131868,"current_range_meters":39200,"station_id":"ce4bgj92rcd13ifvqbe0","pricing_plan_id":"cebpf4jnsgd1na2vs0mg"},{"bike_id":"05b05f03-b342-4cf9-9e93-cc063d7b8b53","system_id":"levelo_inurba_marseille","lat":43.34141,"lon":5.40914,"is_reserved":false,"is_disabled":false,"rental_uris":{"android":"levelo://app?vid=05b05f03-b342-4cf9-9e93-cc063d7b8b53","ios":"levelo://app?vid=05b05f03-b342-4cf9-9e93-cc063d7b8b53"},"vehicle_type_id":"4","last_reported":1730131868,"current_range_meters":11600,"station_id":"ce4bhqh2rcd13ifvqhlg","pricing_plan_id":"cebpf4jnsgd1na2vs0mg"},{"bike_id":"7fda42aa-28d7-4fc7-858b-960ce986865c","system_id":"levelo_inurba_marseille","lat":43.23195,"lon":5.35556,"is_reserved":false,"is_disabled":false,"rental_uris":{"android":"levelo://app?vid=7fda42aa-28d7-4fc7-858b-960ce986865c","ios":"levelo://app?vid=7fda42aa-28d7-4fc7-858b-960ce986865c"},"vehicle_type_id":"4","last_reported":1730131868,"current_range_meters":22000,"station_id":"ce4bhu92rcd13ifvqi70","pricing_plan_id":"cebpf4jnsgd1na2vs0mg"},{"bike_id":"44048d3c-e38c-4165-83f1-0f73ecdd08f2","system_id":"levelo_inurba_marseille","lat":43.29841,"lon":5.36291,"is_reserved":false,"is_disabled":false,"rental_uris":{"android":"levelo://app?vid=44048d3c-e38c-4165-83f1-0f73ecdd08f2","ios":"levelo://app?vid=44048d3c-e38c-4165-83f1-0f73ecdd08f2"},"vehicle_type_id":"4","last_reported":1730131868,"current_range_meters":3600,"station_id":"ce4bgpp2rcd13ifvqc3g","pricing_plan_id":"cebpf4jnsgd1na2vs0mg"},{"bike_id":"5e8add12-0a2f-4ee0-a948-b3005ed38fe3","system_id":"levelo_inurba_marseille","lat":43.32472,"lon":5.36564,"is_reserved":false,"is_disabled":false,"rental_uris":{"android":"levelo://app?vid=5e8add12-0a2f-4ee0-a948-b3005ed38fe3","ios":"levelo://app?vid=5e8add12-0a2f-4ee0-a948-b3005ed38fe3"},"vehicle_type_id":"4","last_reported":1730131868,"current_range_meters":40000,"station_id":"ce4bhs12rcd13ifvqhvg","pricing_plan_id":"cebpf4jnsgd1na2vs0mg"},{"bike_id":"6904da29-1852-4893-8dc1-1bb8a37c8ac5","system_id":"levelo_inurba_marseille","lat":43.24179,"lon":5.39726,"is_reserved":false,"is_disabled":false,"rental_uris":{"android":"levelo://app?vid=6904da29-1852-4893-8dc1-1bb8a37c8ac5","ios":"levelo://app?vid=6904da29-1852-4893-8dc1-1bb8a37c8ac5"},"vehicle_type_id":"4","last_reported":1730131868,"current_range_meters":3200,"station_id":"ce4bhn12rcd13ifvqgpg","pricing_plan_id":"cebpf4jnsgd1na2vs0mg"},{"bike_id":"083f0552-0550-47b8-9d53-46f6746eb28c","system_id":"levelo_inurba_marseille","lat":43.29711,"lon":5.36606,"is_reserved":false,"is_disabled":false,"rental_uris":{"android":"levelo://app?vid=083f0552-0550-47b8-9d53-46f6746eb28c","ios":"levelo://app?vid=083f0552-0550-47b8-9d53-46f6746eb28c"},"vehicle_type_id":"4","last_reported":1730131868,"current_range_meters":4400,"station_id":"ce4bgn12rcd13ifvqbt0","pricing_plan_id":"cebpf4jnsgd1na2vs0mg"},{"bike_id":"9f5242d4-401e-4d14-ba9f-732faf5ca7f9","system_id":"levelo_inurba_marseille","lat":43.29977,"lon":5.38488,"is_reserved":false,"is_disabled":false,"rental_uris":{"android":"levelo://app?vid=9f5242d4-401e-4d14-ba9f-732faf5ca7f9","ios":"levelo://app?vid=9f5242d4-401e-4d14-ba9f-732faf5ca7f9"},"vehicle_type_id":"4","last_reported":1730131868,"current_range_meters":20400,"station_id":"ce4bgj92rcd13ifvqbd0","pricing_plan_id":"cebpf4jnsgd1na2vs0mg"},{"bike_id":"a78142db-8f73-47b5-8475-09ac74d05900","system_id":"levelo_inurba_marseille","lat":43.29515,"lon":5.3941,"is_reserved":false,"is_disabled":false,"rental_uris":{"android":"levelo://app?vid=a78142db-8f73-47b5-8475-09ac74d05900","ios":"levelo://app?vid=a78142db-8f73-47b5-8475-09ac74d05900"},"vehicle_type_id":"4","last_reported":1730131868,"current_range_meters":39200,"station_id":"ce4bh292rcd13ifvqdf0","pricing_plan_id":"cebpf4jnsgd1na2vs0mg"},{"bike_id":"0d97e96e-3d88-42b9-a2f6-8ecfd320aec9","system_id":"levelo_inurba_marseille","lat":43.29064,"lon":5.38078,"is_reserved":false,"is_disabled":false,"rental_uris":{"android":"levelo://app?vid=0d97e96e-3d88-42b9-a2f6-8ecfd320aec9","ios":"levelo://app?vid=0d97e96e-3d88-42b9-a2f6-8ecfd320aec9"},"vehicle_type_id":"4","last_reported":1730131868,"current_range_meters":3600,"station_id":"ce4bhb92rcd13ifvqen0","pricing_plan_id":"cebpf4jnsgd1na2vs0mg"},{"bike_id":"4066a00d-0cdb-49ee-8ac5-d89273ffafb3","system_id":"levelo_inurba_marseille","lat":43.30146,"lon":5.38094,"is_reserved":false,"is_disabled":false,"rental_uris":{"android":"levelo://app?vid=4066a00d-0cdb-49ee-8ac5-d89273ffafb3","ios":"levelo://app?vid=4066a00d-0cdb-49ee-8ac5-d89273ffafb3"},"vehicle_type_id":"4","last_reported":1730131868,"current_range_meters":14800,"station_id":"ce4bgjp2rcd13ifvqbh0","pricing_plan_id":"cebpf4jnsgd1na2vs0mg"},{"bike_id":"c3f1d755-e9d0-4754-9cb4-8d6337e110f7","system_id":"levelo_inurba_marseille","lat":43.241807,"lon":5.3973,"is_reserved":false,"is_disabled":false,"rental_uris":{"android":"levelo://app?vid=c3f1d755-e9d0-4754-9cb4-8d6337e110f7","ios":"levelo://app?vid=c3f1d755-e9d0-4754-9cb4-8d6337e110f7"},"vehicle_type_id":"4","last_reported":1730131868,"current_range_meters":11200,"station_id":"ce4bhn12rcd13ifvqgpg","pricing_plan_id":"cebpf4jnsgd1na2vs0mg"},{"bike_id":"31f6bf22-da01-409d-8589-c334ffc0d1b4","system_id":"levelo_inurba_marseille","lat":43.27369,"lon":5.36264,"is_reserved":false,"is_disabled":false,"rental_uris":{"android":"levelo://app?vid=31f6bf22-da01-409d-8589-c334ffc0d1b4","ios":"levelo://app?vid=31f6bf22-da01-409d-8589-c334ffc0d1b4"},"vehicle_type_id":"4","last_reported":1730131868,"current_range_meters":16000,"station_id":"ce4bhbh2rcd13ifvqeo0","pricing_plan_id":"cebpf4jnsgd1na2vs0mg"},{"bike_id":"4b57c85b-374e-48b5-a1fc-1e72c1076ae7","system_id":"levelo_inurba_marseille","lat":43.29026,"lon":5.3757,"is_reserved":false,"is_disabled":false,"rental_uris":{"android":"levelo://app?vid=4b57c85b-374e-48b5-a1fc-1e72c1076ae7","ios":"levelo://app?vid=4b57c85b-374e-48b5-a1fc-1e72c1076ae7"},"vehicle_type_id":"4","last_reported":1730131868,"current_range_meters":38000,"station_id":"ce4bh692rcd13ifvqe90","pricing_plan_id":"cebpf4jnsgd1na2vs0mg"},{"bike_id":"d354518d-7f96-4b6d-bd24-87f2ef04d521","system_id":"levelo_inurba_marseille","lat":43.29293,"lon":5.3746,"is_reserved":false,"is_disabled":false,"rental_uris":{"android":"levelo://app?vid=d354518d-7f96-4b6d-bd24-87f2ef04d521","ios":"levelo://app?vid=d354518d-7f96-4b6d-bd24-87f2ef04d521"},"vehicle_type_id":"4","last_reported":1730131868,"current_range_meters":33200,"station_id":"ce4bgi12rcd13ifvqb70","pricing_plan_id":"cebpf4jnsgd1na2vs0mg"},{"bike_id":"63af0520-cec0-4090-93eb-10e86549ecda","system_id":"levelo_inurba_marseille","lat":43.255,"lon":5.37655,"is_reserved":false,"is_disabled":false,"rental_uris":{"android":"levelo://app?vid=63af0520-cec0-4090-93eb-10e86549ecda","ios":"levelo://app?vid=63af0520-cec0-4090-93eb-10e86549ecda"},"vehicle_type_id":"4","last_reported":1730131868,"current_range_meters":24800,"station_id":"ce4bhh12rcd13ifvqff0","pricing_plan_id":"cebpf4jnsgd1na2vs0mg"},{"bike_id":"44cc8c47-0de5-4590-bee6-b585fa2d597a","system_id":"levelo_inurba_marseille","lat":43.25865,"lon":5.39899,"is_reserved":false,"is_disabled":false,"rental_uris":{"android":"levelo://app?vid=44cc8c47-0de5-4590-bee6-b585fa2d597a","ios":"levelo://app?vid=44cc8c47-0de5-4590-bee6-b585fa2d597a"},"vehicle_type_id":"4","last_reported":1730131868,"current_range_meters":3600,"station_id":"ce4bhl92rcd13ifvqghg","pricing_plan_id":"cebpf4jnsgd1na2vs0mg"},{"bike_id":"b1d682a3-b183-4990-9110-109ef59d9970","system_id":"levelo_inurba_marseille","lat":43.29876,"lon":5.38909,"is_reserved":false,"is_disabled":false,"rental_uris":{"android":"levelo://app?vid=b1d682a3-b183-4990-9110-109ef59d9970","ios":"levelo://app?vid=b1d682a3-b183-4990-9110-109ef59d9970"},"vehicle_type_id":"4","last_reported":1730131868,"current_range_meters":38400,"station_id":"ce4bh392rcd13ifvqdl0","pricing_plan_id":"cebpf4jnsgd1na2vs0mg"},{"bike_id":"a2aae5a4-7573-432b-b832-6a9d7993c34c","system_id":"levelo_inurba_marseille","lat":43.287201,"lon":5.360894,"is_reserved":false,"is_disabled":false,"rental_uris":{"android":"levelo://app?vid=a2aae5a4-7573-432b-b832-6a9d7993c34c","ios":"levelo://app?vid=a2aae5a4-7573-432b-b832-6a9d7993c34c"},"vehicle_type_id":"4","last_reported":1730131868,"current_range_meters":24400,"station_id":"cki0cbj6b192h4jlfktg","pricing_plan_id":"cebpf4jnsgd1na2vs0mg"},{"bike_id":"90b105d5-cc13-4260-b615-efa7080ce545","system_id":"levelo_inurba_marseille","lat":43.294886,"lon":5.376082,"is_reserved":false,"is_disabled":false,"rental_uris":{"android":"levelo://app?vid=90b105d5-cc13-4260-b615-efa7080ce545","ios":"levelo://app?vid=90b105d5-cc13-4260-b615-efa7080ce545"},"vehicle_type_id":"4","last_reported":1730131868,"current_range_meters":25200,"station_id":"ce4bh612rcd13ifvqe6g","pricing_plan_id":"cebpf4jnsgd1na2vs0mg"},{"bike_id":"d33e1442-132d-4497-bc3f-1e78f86d8fd1","system_id":"levelo_inurba_marseille","lat":43.24806,"lon":5.3748,"is_reserved":false,"is_disabled":false,"rental_uris":{"android":"levelo://app?vid=d33e1442-132d-4497-bc3f-1e78f86d8fd1","ios":"levelo://app?vid=d33e1442-132d-4497-bc3f-1e78f86d8fd1"},"vehicle_type_id":"4","last_reported":1730131868,"current_range_meters":18000,"station_id":"ce4bhgh2rcd13ifvqfb0","pricing_plan_id":"cebpf4jnsgd1na2vs0mg"},{"bike_id":"4f21f473-d6ef-4678-b028-ed29a51ab020","system_id":"levelo_inurba_marseille","lat":43.31681,"lon":5.43564,"is_reserved":false,"is_disabled":false,"rental_uris":{"android":"levelo://app?vid=4f21f473-d6ef-4678-b028-ed29a51ab020","ios":"levelo://app?vid=4f21f473-d6ef-4678-b028-ed29a51ab020"},"vehicle_type_id":"4","last_reported":1730131868,"current_range_meters":28400,"station_id":"","pricing_plan_id":"cebpf4jnsgd1na2vs0mg"},{"bike_id":"4082f781-9697-463d-9fe4-2532aa12470f","system_id":"levelo_inurba_marseille","lat":43.30547,"lon":5.36566,"is_reserved":false,"is_disabled":false,"rental_uris":{"android":"levelo://app?vid=4082f781-9697-463d-9fe4-2532aa12470f","ios":"levelo://app?vid=4082f781-9697-463d-9fe4-2532aa12470f"},"vehicle_type_id":"4","last_reported":1730131868,"current_range_meters":27600,"station_id":"ce4bgs12rcd13ifvqcag","pricing_plan_id":"cebpf4jnsgd1na2vs0mg"},{"bike_id":"c56b7499-bb31-4d80-8089-cdbe4adcbf25","system_id":"levelo_inurba_marseille","lat":43.29604,"lon":5.38104,"is_reserved":false,"is_disabled":false,"rental_uris":{"android":"levelo://app?vid=c56b7499-bb31-4d80-8089-cdbe4adcbf25","ios":"levelo://app?vid=c56b7499-bb31-4d80-8089-cdbe4adcbf25"},"vehicle_type_id":"4","last_reported":1730131868,"current_range_meters":29600,"station_id":"ce4bgl12rcd13ifvqbo0","pricing_plan_id":"cebpf4jnsgd1na2vs0mg"},{"bike_id":"51b6a22a-df31-4db7-bf79-701161a3caae","system_id":"levelo_inurba_marseille","lat":43.25816,"lon":5.39435,"is_reserved":false,"is_disabled":false,"rental_uris":{"android":"levelo://app?vid=51b6a22a-df31-4db7-bf79-701161a3caae","ios":"levelo://app?vid=51b6a22a-df31-4db7-bf79-701161a3caae"},"vehicle_type_id":"4","last_reported":1730131868,"current_range_meters":38400,"station_id":"ce4bhip2rcd13ifvqft0","pricing_plan_id":"cebpf4jnsgd1na2vs0mg"},{"bike_id":"6c514a15-c87a-4328-9f55-97213231a74d","system_id":"levelo_inurba_marseille","lat":43.30601,"lon":5.37246,"is_reserved":false,"is_disabled":false,"rental_uris":{"android":"levelo://app?vid=6c514a15-c87a-4328-9f55-97213231a74d","ios":"levelo://app?vid=6c514a15-c87a-4328-9f55-97213231a74d"},"vehicle_type_id":"4","last_reported":1730131868,"current_range_meters":10000,"station_id":"ce4bgqh2rcd13ifvqc4g","pricing_plan_id":"cebpf4jnsgd1na2vs0mg"},{"bike_id":"fd815e1b-d803-4a9c-ac0b-2c68d2044449","system_id":"levelo_inurba_marseille","lat":43.30085,"lon":5.39072,"is_reserved":false,"is_disabled":false,"rental_uris":{"android":"levelo://app?vid=fd815e1b-d803-4a9c-ac0b-2c68d2044449","ios":"levelo://app?vid=fd815e1b-d803-4a9c-ac0b-2c68d2044449"},"vehicle_type_id":"4","last_reported":1730131868,"current_range_meters":37600,"station_id":"ce4bh192rcd13ifvqdb0","pricing_plan_id":"cebpf4jnsgd1na2vs0mg"},{"bike_id":"00461461-7c62-4fdb-a38f-3aef98d2ea3a","system_id":"levelo_inurba_marseille","lat":43.33025,"lon":5.39045,"is_reserved":false,"is_disabled":false,"rental_uris":{"android":"levelo://app?vid=00461461-7c62-4fdb-a38f-3aef98d2ea3a","ios":"levelo://app?vid=00461461-7c62-4fdb-a38f-3aef98d2ea3a"},"vehicle_type_id":"4","last_reported":1730131868,"current_range_meters":32400,"station_id":"ce4bhr92rcd13ifvqhrg","pricing_plan_id":"cebpf4jnsgd1na2vs0mg"},{"bike_id":"959afae9-b908-4315-b1e0-51eb0e42854c","system_id":"levelo_inurba_marseille","lat":43.30329,"lon":5.4043,"is_reserved":false,"is_disabled":false,"rental_uris":{"android":"levelo://app?vid=959afae9-b908-4315-b1e0-51eb0e42854c","ios":"levelo://app?vid=959afae9-b908-4315-b1e0-51eb0e42854c"},"vehicle_type_id":"4","last_reported":1730131868,"current_range_meters":17600,"station_id":"ce4bh012rcd13ifvqd10","pricing_plan_id":"cebpf4jnsgd1na2vs0mg"},{"bike_id":"ec5003ca-d744-4412-b093-3ec716780be7","system_id":"levelo_inurba_marseille","lat":43.29978,"lon":5.38514,"is_reserved":false,"is_disabled":false,"rental_uris":{"android":"levelo://app?vid=ec5003ca-d744-4412-b093-3ec716780be7","ios":"levelo://app?vid=ec5003ca-d744-4412-b093-3ec716780be7"},"vehicle_type_id":"4","last_reported":1730131868,"current_range_meters":38800,"station_id":"ce4bgj92rcd13ifvqbd0","pricing_plan_id":"cebpf4jnsgd1na2vs0mg"},{"bike_id":"cab7cc88-a26b-4ccb-9071-e77963164dc4","system_id":"levelo_inurba_marseille","lat":43.30142,"lon":5.38083,"is_reserved":false,"is_disabled":false,"rental_uris":{"android":"levelo://app?vid=cab7cc88-a26b-4ccb-9071-e77963164dc4","ios":"levelo://app?vid=cab7cc88-a26b-4ccb-9071-e77963164dc4"},"vehicle_type_id":"4","last_reported":1730131868,"current_range_meters":11600,"station_id":"ce4bgjp2rcd13ifvqbh0","pricing_plan_id":"cebpf4jnsgd1na2vs0mg"},{"bike_id":"da190d71-5a14-4c58-a7eb-f29bf4d979d7","system_id":"levelo_inurba_marseille","lat":43.30166,"lon":5.36617,"is_reserved":false,"is_disabled":false,"rental_uris":{"android":"levelo://app?vid=da190d71-5a14-4c58-a7eb-f29bf4d979d7","ios":"levelo://app?vid=da190d71-5a14-4c58-a7eb-f29bf4d979d7"},"vehicle_type_id":"4","last_reported":1730131868,"current_range_meters":3600,"station_id":"ce4bgrh2rcd13ifvqc8g","pricing_plan_id":"cebpf4jnsgd1na2vs0mg"},{"bike_id":"fea34291-21c9-47b8-b65e-b1e45c903136","system_id":"levelo_inurba_marseille","lat":43.27994,"lon":5.41657,"is_reserved":false,"is_disabled":false,"rental_uris":{"android":"levelo://app?vid=fea34291-21c9-47b8-b65e-b1e45c903136","ios":"levelo://app?vid=fea34291-21c9-47b8-b65e-b1e45c903136"},"vehicle_type_id":"4","last_reported":1730131868,"current_range_meters":38800,"station_id":"ce4bho12rcd13ifvqh1g","pricing_plan_id":"cebpf4jnsgd1na2vs0mg"},{"bike_id":"544ea4e8-96cb-4719-bff1-317b2f2a545b","system_id":"levelo_inurba_marseille","lat":43.29549,"lon":5.42294,"is_reserved":false,"is_disabled":false,"rental_uris":{"android":"levelo://app?vid=544ea4e8-96cb-4719-bff1-317b2f2a545b","ios":"levelo://app?vid=544ea4e8-96cb-4719-bff1-317b2f2a545b"},"vehicle_type_id":"4","last_reported":1730131868,"current_range_meters":19200,"station_id":"ce4bhph2rcd13ifvqhdg","pricing_plan_id":"cebpf4jnsgd1na2vs0mg"},{"bike_id":"0a46e7e7-ade6-45f8-9bb7-649e4a4e11d5","system_id":"levelo_inurba_marseille","lat":43.298801,"lon":5.397557,"is_reserved":false,"is_disabled":false,"rental_uris":{"android":"levelo://app?vid=0a46e7e7-ade6-45f8-9bb7-649e4a4e11d5","ios":"levelo://app?vid=0a46e7e7-ade6-45f8-9bb7-649e4a4e11d5"},"vehicle_type_id":"4","last_reported":1730131868,"current_range_meters":22000,"station_id":"ce4bh0h2rcd13ifvqd50","pricing_plan_id":"cebpf4jnsgd1na2vs0mg"},{"bike_id":"19a67e0e-ddcc-4efd-b094-9c16f442c422","system_id":"levelo_inurba_marseille","lat":43.31718,"lon":5.424,"is_reserved":false,"is_disabled":false,"rental_uris":{"android":"levelo://app?vid=19a67e0e-ddcc-4efd-b094-9c16f442c422","ios":"levelo://app?vid=19a67e0e-ddcc-4efd-b094-9c16f442c422"},"vehicle_type_id":"4","last_reported":1730131868,"current_range_meters":14400,"station_id":"ce4bhp92rcd13ifvqhbg","pricing_plan_id":"cebpf4jnsgd1na2vs0mg"},{"bike_id":"737837b8-7066-4d20-89f3-91917ea0193c","system_id":"levelo_inurba_marseille","lat":43.28453,"lon":5.35924,"is_reserved":false,"is_disabled":false,"rental_uris":{"android":"levelo://app?vid=737837b8-7066-4d20-89f3-91917ea0193c","ios":"levelo://app?vid=737837b8-7066-4d20-89f3-91917ea0193c"},"vehicle_type_id":"4","last_reported":1730131868,"current_range_meters":23200,"station_id":"ce4bhah2rcd13ifvqei0","pricing_plan_id":"cebpf4jnsgd1na2vs0mg"},{"bike_id":"31df72ba-8509-463f-9df1-75ea8f3f1f5c","system_id":"levelo_inurba_marseille","lat":43.30309,"lon":5.36913,"is_reserved":false,"is_disabled":false,"rental_uris":{"android":"levelo://app?vid=31df72ba-8509-463f-9df1-75ea8f3f1f5c","ios":"levelo://app?vid=31df72ba-8509-463f-9df1-75ea8f3f1f5c"},"vehicle_type_id":"4","last_reported":1730131868,"current_range_meters":9200,"station_id":"ce4bgqh2rcd13ifvqc5g","pricing_plan_id":"cebpf4jnsgd1na2vs0mg"},{"bike_id":"2e4ee113-a20b-438f-ba1e-da90654529ca","system_id":"levelo_inurba_marseille","lat":43.3107,"lon":5.38356,"is_reserved":false,"is_disabled":false,"rental_uris":{"android":"levelo://app?vid=2e4ee113-a20b-438f-ba1e-da90654529ca","ios":"levelo://app?vid=2e4ee113-a20b-438f-ba1e-da90654529ca"},"vehicle_type_id":"4","last_reported":1730131868,"current_range_meters":27200,"station_id":"ce4bgv92rcd13ifvqcr0","pricing_plan_id":"cebpf4jnsgd1na2vs0mg"},{"bike_id":"3fe384d4-95dd-4c6e-9df2-a3d0a2ec63da","system_id":"levelo_inurba_marseille","lat":43.30224,"lon":5.39471,"is_reserved":false,"is_disabled":false,"rental_uris":{"android":"levelo://app?vid=3fe384d4-95dd-4c6e-9df2-a3d0a2ec63da","ios":"levelo://app?vid=3fe384d4-95dd-4c6e-9df2-a3d0a2ec63da"},"vehicle_type_id":"4","last_reported":1730131868,"current_range_meters":37600,"station_id":"ce4bh0p2rcd13ifvqd70","pricing_plan_id":"cebpf4jnsgd1na2vs0mg"},{"bike_id":"1f02a00c-e697-4446-8389-72dcdacc9f45","system_id":"levelo_inurba_marseille","lat":43.32481,"lon":5.3657,"is_reserved":false,"is_disabled":false,"rental_uris":{"android":"levelo://app?vid=1f02a00c-e697-4446-8389-72dcdacc9f45","ios":"levelo://app?vid=1f02a00c-e697-4446-8389-72dcdacc9f45"},"vehicle_type_id":"4","last_reported":1730131868,"current_range_meters":33200,"station_id":"ce4bhs12rcd13ifvqhvg","pricing_plan_id":"cebpf4jnsgd1na2vs0mg"},{"bike_id":"8e93bc1b-1b4f-4129-bbbf-603daf4b7dff","system_id":"levelo_inurba_marseille","lat":43.29567,"lon":5.39983,"is_reserved":false,"is_disabled":false,"rental_uris":{"android":"levelo://app?vid=8e93bc1b-1b4f-4129-bbbf-603daf4b7dff","ios":"levelo://app?vid=8e93bc1b-1b4f-4129-bbbf-603daf4b7dff"},"vehicle_type_id":"4","last_reported":1730131868,"current_range_meters":38800,"station_id":"ce4bh312rcd13ifvqdj0","pricing_plan_id":"cebpf4jnsgd1na2vs0mg"},{"bike_id":"091f6b1c-7d57-40bc-b702-cc1c90820a7f","system_id":"levelo_inurba_marseille","lat":43.30644,"lon":5.40079,"is_reserved":false,"is_disabled":false,"rental_uris":{"android":"levelo://app?vid=091f6b1c-7d57-40bc-b702-cc1c90820a7f","ios":"levelo://app?vid=091f6b1c-7d57-40bc-b702-cc1c90820a7f"},"vehicle_type_id":"4","last_reported":1730131868,"current_range_meters":16400,"station_id":"ce4bh112rcd13ifvqda0","pricing_plan_id":"cebpf4jnsgd1na2vs0mg"},{"bike_id":"46e24d1e-6c5c-487c-a3a2-a413ff1725c9","system_id":"levelo_inurba_marseille","lat":43.26563,"lon":5.39013,"is_reserved":false,"is_disabled":false,"rental_uris":{"android":"levelo://app?vid=46e24d1e-6c5c-487c-a3a2-a413ff1725c9","ios":"levelo://app?vid=46e24d1e-6c5c-487c-a3a2-a413ff1725c9"},"vehicle_type_id":"4","last_reported":1730131868,"current_range_meters":37600,"station_id":"ce4bhe12rcd13ifvqf30","pricing_plan_id":"cebpf4jnsgd1na2vs0mg"},{"bike_id":"2ffa334d-8694-4e7d-a83d-610dbea5be0b","system_id":"levelo_inurba_marseille","lat":43.26508,"lon":5.39538,"is_reserved":false,"is_disabled":false,"rental_uris":{"android":"levelo://app?vid=2ffa334d-8694-4e7d-a83d-610dbea5be0b","ios":"levelo://app?vid=2ffa334d-8694-4e7d-a83d-610dbea5be0b"},"vehicle_type_id":"4","last_reported":1730131868,"current_range_meters":30400,"station_id":"ce4bhi12rcd13ifvqfq0","pricing_plan_id":"cebpf4jnsgd1na2vs0mg"},{"bike_id":"56dc96ae-90d1-4a84-9cb6-cacb10ab3e69","system_id":"levelo_inurba_marseille","lat":43.28408,"lon":5.34996,"is_reserved":false,"is_disabled":false,"rental_uris":{"android":"levelo://app?vid=56dc96ae-90d1-4a84-9cb6-cacb10ab3e69","ios":"levelo://app?vid=56dc96ae-90d1-4a84-9cb6-cacb10ab3e69"},"vehicle_type_id":"4","last_reported":1730131868,"current_range_meters":38800,"station_id":"ce4bhbh2rcd13ifvqepg","pricing_plan_id":"cebpf4jnsgd1na2vs0mg"},{"bike_id":"62dfc03f-ba5a-44b9-9ebd-544319e0e7f6","system_id":"levelo_inurba_marseille","lat":43.26209,"lon":5.37445,"is_reserved":false,"is_disabled":false,"rental_uris":{"android":"levelo://app?vid=62dfc03f-ba5a-44b9-9ebd-544319e0e7f6","ios":"levelo://app?vid=62dfc03f-ba5a-44b9-9ebd-544319e0e7f6"},"vehicle_type_id":"4","last_reported":1730131868,"current_range_meters":4800,"station_id":"ce4bhgp2rcd13ifvqfc0","pricing_plan_id":"cebpf4jnsgd1na2vs0mg"},{"bike_id":"6d92f4d9-0cdd-41cd-aecc-2b7f33713104","system_id":"levelo_inurba_marseille","lat":43.29111,"lon":5.41757,"is_reserved":false,"is_disabled":false,"rental_uris":{"android":"levelo://app?vid=6d92f4d9-0cdd-41cd-aecc-2b7f33713104","ios":"levelo://app?vid=6d92f4d9-0cdd-41cd-aecc-2b7f33713104"},"vehicle_type_id":"4","last_reported":1730131868,"current_range_meters":9200,"station_id":"","pricing_plan_id":"cebpf4jnsgd1na2vs0mg"},{"bike_id":"9a5f95f8-303d-483d-b515-3a9139235f3c","system_id":"levelo_inurba_marseille","lat":43.28611,"lon":5.37061,"is_reserved":false,"is_disabled":false,"rental_uris":{"android":"levelo://app?vid=9a5f95f8-303d-483d-b515-3a9139235f3c","ios":"levelo://app?vid=9a5f95f8-303d-483d-b515-3a9139235f3c"},"vehicle_type_id":"4","last_reported":1730131868,"current_range_meters":6000,"station_id":"ce4bht12rcd13ifvqi60","pricing_plan_id":"cebpf4jnsgd1na2vs0mg"},{"bike_id":"d64da2b9-0892-4264-8a1a-3dc8679a864e","system_id":"levelo_inurba_marseille","lat":43.30547,"lon":5.36614,"is_reserved":false,"is_disabled":false,"rental_uris":{"android":"levelo://app?vid=d64da2b9-0892-4264-8a1a-3dc8679a864e","ios":"levelo://app?vid=d64da2b9-0892-4264-8a1a-3dc8679a864e"},"vehicle_type_id":"4","last_reported":1730131868,"current_range_meters":7200,"station_id":"ce4bgs12rcd13ifvqcag","pricing_plan_id":"cebpf4jnsgd1na2vs0mg"},{"bike_id":"1a0470b1-efd0-4c07-9492-eb118f3b50d2","system_id":"levelo_inurba_marseille","lat":43.284467,"lon":5.384445,"is_reserved":false,"is_disabled":false,"rental_uris":{"android":"levelo://app?vid=1a0470b1-efd0-4c07-9492-eb118f3b50d2","ios":"levelo://app?vid=1a0470b1-efd0-4c07-9492-eb118f3b50d2"},"vehicle_type_id":"4","last_reported":1730131868,"current_range_meters":37600,"station_id":"ce4bh512rcd13ifvqe3g","pricing_plan_id":"cebpf4jnsgd1na2vs0mg"},{"bike_id":"dccbe93d-c5e9-43b2-8993-dfe6922be8a2","system_id":"levelo_inurba_marseille","lat":43.31502,"lon":5.3724,"is_reserved":false,"is_disabled":false,"rental_uris":{"android":"levelo://app?vid=dccbe93d-c5e9-43b2-8993-dfe6922be8a2","ios":"levelo://app?vid=dccbe93d-c5e9-43b2-8993-dfe6922be8a2"},"vehicle_type_id":"4","last_reported":1730131868,"current_range_meters":25200,"station_id":"","pricing_plan_id":"cebpf4jnsgd1na2vs0mg"},{"bike_id":"2838afa3-cf94-463c-9dec-4217c7d8c4d0","system_id":"levelo_inurba_marseille","lat":43.24168,"lon":5.36401,"is_reserved":false,"is_disabled":false,"rental_uris":{"android":"levelo://app?vid=2838afa3-cf94-463c-9dec-4217c7d8c4d0","ios":"levelo://app?vid=2838afa3-cf94-463c-9dec-4217c7d8c4d0"},"vehicle_type_id":"4","last_reported":1730131868,"current_range_meters":24000,"station_id":"cpo36qri1sfpv3e86is0","pricing_plan_id":"cebpf4jnsgd1na2vs0mg"},{"bike_id":"66ba5a5e-d9ce-4f06-bd3f-6d409f0e34f3","system_id":"levelo_inurba_marseille","lat":43.29513,"lon":5.39049,"is_reserved":false,"is_disabled":false,"rental_uris":{"android":"levelo://app?vid=66ba5a5e-d9ce-4f06-bd3f-6d409f0e34f3","ios":"levelo://app?vid=66ba5a5e-d9ce-4f06-bd3f-6d409f0e34f3"},"vehicle_type_id":"4","last_reported":1730131868,"current_range_meters":10800,"station_id":"ce4bh3p2rcd13ifvqdp0","pricing_plan_id":"cebpf4jnsgd1na2vs0mg"},{"bike_id":"de95e071-6dea-4c16-840c-7785de4472d7","system_id":"levelo_inurba_marseille","lat":43.30145,"lon":5.38085,"is_reserved":false,"is_disabled":false,"rental_uris":{"android":"levelo://app?vid=de95e071-6dea-4c16-840c-7785de4472d7","ios":"levelo://app?vid=de95e071-6dea-4c16-840c-7785de4472d7"},"vehicle_type_id":"4","last_reported":1730131868,"current_range_meters":8000,"station_id":"ce4bgjp2rcd13ifvqbh0","pricing_plan_id":"cebpf4jnsgd1na2vs0mg"},{"bike_id":"b1d8ab34-c82c-4da7-a870-4569fe7eabe7","system_id":"levelo_inurba_marseille","lat":43.24993,"lon":5.38944,"is_reserved":false,"is_disabled":false,"rental_uris":{"android":"levelo://app?vid=b1d8ab34-c82c-4da7-a870-4569fe7eabe7","ios":"levelo://app?vid=b1d8ab34-c82c-4da7-a870-4569fe7eabe7"},"vehicle_type_id":"4","last_reported":1730131868,"current_range_meters":6800,"station_id":"ce4bhgp2rcd13ifvqfd0","pricing_plan_id":"cebpf4jnsgd1na2vs0mg"},{"bike_id":"6b045ac0-63ef-4818-9f7e-53534053ffdb","system_id":"levelo_inurba_marseille","lat":43.31085,"lon":5.42434,"is_reserved":false,"is_disabled":false,"rental_uris":{"android":"levelo://app?vid=6b045ac0-63ef-4818-9f7e-53534053ffdb","ios":"levelo://app?vid=6b045ac0-63ef-4818-9f7e-53534053ffdb"},"vehicle_type_id":"4","last_reported":1730131868,"current_range_meters":38800,"station_id":"ce4bhp92rcd13ifvqhag","pricing_plan_id":"cebpf4jnsgd1na2vs0mg"},{"bike_id":"a3c986df-8bb4-4aa0-9365-ff741272c0c9","system_id":"levelo_inurba_marseille","lat":43.32269,"lon":5.3827,"is_reserved":false,"is_disabled":false,"rental_uris":{"android":"levelo://app?vid=a3c986df-8bb4-4aa0-9365-ff741272c0c9","ios":"levelo://app?vid=a3c986df-8bb4-4aa0-9365-ff741272c0c9"},"vehicle_type_id":"4","last_reported":1730131868,"current_range_meters":20400,"station_id":"ce4bhr12rcd13ifvqhqg","pricing_plan_id":"cebpf4jnsgd1na2vs0mg"},{"bike_id":"266575d8-09f9-4cd7-833a-204d10e502df","system_id":"levelo_inurba_marseille","lat":43.32105,"lon":5.36778,"is_reserved":false,"is_disabled":false,"rental_uris":{"android":"levelo://app?vid=266575d8-09f9-4cd7-833a-204d10e502df","ios":"levelo://app?vid=266575d8-09f9-4cd7-833a-204d10e502df"},"vehicle_type_id":"4","last_reported":1730131868,"current_range_meters":30000,"station_id":"ce4bhrh2rcd13ifvqhug","pricing_plan_id":"cebpf4jnsgd1na2vs0mg"},{"bike_id":"890fba28-cbc2-4d2d-9ea5-652cb460f088","system_id":"levelo_inurba_marseille","lat":43.28618,"lon":5.35105,"is_reserved":false,"is_disabled":false,"rental_uris":{"android":"levelo://app?vid=890fba28-cbc2-4d2d-9ea5-652cb460f088","ios":"levelo://app?vid=890fba28-cbc2-4d2d-9ea5-652cb460f088"},"vehicle_type_id":"4","last_reported":1730131868,"current_range_meters":29600,"station_id":"ce4bhch2rcd13ifvqeug","pricing_plan_id":"cebpf4jnsgd1na2vs0mg"},{"bike_id":"12848b32-dd01-48c0-a184-85c280edb9dc","system_id":"levelo_inurba_marseille","lat":43.29004,"lon":5.35612,"is_reserved":false,"is_disabled":false,"rental_uris":{"android":"levelo://app?vid=12848b32-dd01-48c0-a184-85c280edb9dc","ios":"levelo://app?vid=12848b32-dd01-48c0-a184-85c280edb9dc"},"vehicle_type_id":"4","last_reported":1730131868,"current_range_meters":25200,"station_id":"ce4bhb92rcd13ifvqen0","pricing_plan_id":"cebpf4jnsgd1na2vs0mg"},{"bike_id":"8092f9b4-8d24-44c2-9bcf-65109e8a0900","system_id":"levelo_inurba_marseille","lat":43.28406,"lon":5.34983,"is_reserved":false,"is_disabled":false,"rental_uris":{"android":"levelo://app?vid=8092f9b4-8d24-44c2-9bcf-65109e8a0900","ios":"levelo://app?vid=8092f9b4-8d24-44c2-9bcf-65109e8a0900"},"vehicle_type_id":"4","last_reported":1730131868,"current_range_meters":38800,"station_id":"ce4bhbh2rcd13ifvqepg","pricing_plan_id":"cebpf4jnsgd1na2vs0mg"},{"bike_id":"fd173f5a-ceec-4ca2-b025-e105de3c8ed5","system_id":"levelo_inurba_marseille","lat":43.27993,"lon":5.40013,"is_reserved":false,"is_disabled":false,"rental_uris":{"android":"levelo://app?vid=fd173f5a-ceec-4ca2-b025-e105de3c8ed5","ios":"levelo://app?vid=fd173f5a-ceec-4ca2-b025-e105de3c8ed5"},"vehicle_type_id":"4","last_reported":1730131868,"current_range_meters":24000,"station_id":"ce4bho92rcd13ifvqh4g","pricing_plan_id":"cebpf4jnsgd1na2vs0mg"},{"bike_id":"ce1d086e-28e0-494e-ad49-e7619cd7566b","system_id":"levelo_inurba_marseille","lat":43.30252,"lon":5.40076,"is_reserved":false,"is_disabled":false,"rental_uris":{"android":"levelo://app?vid=ce1d086e-28e0-494e-ad49-e7619cd7566b","ios":"levelo://app?vid=ce1d086e-28e0-494e-ad49-e7619cd7566b"},"vehicle_type_id":"4","last_reported":1730131868,"current_range_meters":23200,"station_id":"ce4bgvh2rcd13ifvqcs0","pricing_plan_id":"cebpf4jnsgd1na2vs0mg"},{"bike_id":"1dfe1987-d169-4fa3-bec0-4f7f50cc4a60","system_id":"levelo_inurba_marseille","lat":43.29971,"lon":5.38493,"is_reserved":false,"is_disabled":false,"rental_uris":{"android":"levelo://app?vid=1dfe1987-d169-4fa3-bec0-4f7f50cc4a60","ios":"levelo://app?vid=1dfe1987-d169-4fa3-bec0-4f7f50cc4a60"},"vehicle_type_id":"4","last_reported":1730131868,"current_range_meters":4400,"station_id":"ce4bgj92rcd13ifvqbd0","pricing_plan_id":"cebpf4jnsgd1na2vs0mg"},{"bike_id":"43801336-a361-4e75-beee-a58cfff4a733","system_id":"levelo_inurba_marseille","lat":43.30541,"lon":5.36549,"is_reserved":false,"is_disabled":false,"rental_uris":{"android":"levelo://app?vid=43801336-a361-4e75-beee-a58cfff4a733","ios":"levelo://app?vid=43801336-a361-4e75-beee-a58cfff4a733"},"vehicle_type_id":"4","last_reported":1730131868,"current_range_meters":35600,"station_id":"ce4bgs12rcd13ifvqcag","pricing_plan_id":"cebpf4jnsgd1na2vs0mg"},{"bike_id":"cbb94775-ad09-4250-a904-d9309e34bedc","system_id":"levelo_inurba_marseille","lat":43.29781,"lon":5.39342,"is_reserved":false,"is_disabled":false,"rental_uris":{"android":"levelo://app?vid=cbb94775-ad09-4250-a904-d9309e34bedc","ios":"levelo://app?vid=cbb94775-ad09-4250-a904-d9309e34bedc"},"vehicle_type_id":"4","last_reported":1730131868,"current_range_meters":15200,"station_id":"chh1huq6cuj3fo74tm60","pricing_plan_id":"cebpf4jnsgd1na2vs0mg"},{"bike_id":"5da912c5-8d8b-4a8d-a2f5-07b1b3d7833b","system_id":"levelo_inurba_marseille","lat":43.337189,"lon":5.391943,"is_reserved":false,"is_disabled":false,"rental_uris":{"android":"levelo://app?vid=5da912c5-8d8b-4a8d-a2f5-07b1b3d7833b","ios":"levelo://app?vid=5da912c5-8d8b-4a8d-a2f5-07b1b3d7833b"},"vehicle_type_id":"4","last_reported":1730131868,"current_range_meters":4000,"station_id":"ce4bhr92rcd13ifvqhsg","pricing_plan_id":"cebpf4jnsgd1na2vs0mg"},{"bike_id":"d7074324-029f-446e-962e-34d4592e9063","system_id":"levelo_inurba_marseille","lat":43.24798,"lon":5.37458,"is_reserved":false,"is_disabled":false,"rental_uris":{"android":"levelo://app?vid=d7074324-029f-446e-962e-34d4592e9063","ios":"levelo://app?vid=d7074324-029f-446e-962e-34d4592e9063"},"vehicle_type_id":"4","last_reported":1730131868,"current_range_meters":4000,"station_id":"ce4bhgh2rcd13ifvqfb0","pricing_plan_id":"cebpf4jnsgd1na2vs0mg"},{"bike_id":"736f03b8-d5ae-4aa6-8299-616651f9a05a","system_id":"levelo_inurba_marseille","lat":43.30205,"lon":5.39459,"is_reserved":false,"is_disabled":false,"rental_uris":{"android":"levelo://app?vid=736f03b8-d5ae-4aa6-8299-616651f9a05a","ios":"levelo://app?vid=736f03b8-d5ae-4aa6-8299-616651f9a05a"},"vehicle_type_id":"4","last_reported":1730131868,"current_range_meters":14400,"station_id":"ce4bh0p2rcd13ifvqd70","pricing_plan_id":"cebpf4jnsgd1na2vs0mg"},{"bike_id":"274e97a2-fc3c-4de9-a45e-43a355a42abe","system_id":"levelo_inurba_marseille","lat":43.26209,"lon":5.37446,"is_reserved":false,"is_disabled":false,"rental_uris":{"android":"levelo://app?vid=274e97a2-fc3c-4de9-a45e-43a355a42abe","ios":"levelo://app?vid=274e97a2-fc3c-4de9-a45e-43a355a42abe"},"vehicle_type_id":"4","last_reported":1730131868,"current_range_meters":28400,"station_id":"ce4bhgp2rcd13ifvqfc0","pricing_plan_id":"cebpf4jnsgd1na2vs0mg"},{"bike_id":"6a66b1ae-6685-4f17-a8bd-618511eda9e2","system_id":"levelo_inurba_marseille","lat":43.32477,"lon":5.36572,"is_reserved":false,"is_disabled":false,"rental_uris":{"android":"levelo://app?vid=6a66b1ae-6685-4f17-a8bd-618511eda9e2","ios":"levelo://app?vid=6a66b1ae-6685-4f17-a8bd-618511eda9e2"},"vehicle_type_id":"4","last_reported":1730131868,"current_range_meters":38400,"station_id":"ce4bhs12rcd13ifvqhvg","pricing_plan_id":"cebpf4jnsgd1na2vs0mg"},{"bike_id":"9f632a00-c5c9-4603-a792-cd3350ce1438","system_id":"levelo_inurba_marseille","lat":43.29366,"lon":5.37849,"is_reserved":false,"is_disabled":false,"rental_uris":{"android":"levelo://app?vid=9f632a00-c5c9-4603-a792-cd3350ce1438","ios":"levelo://app?vid=9f632a00-c5c9-4603-a792-cd3350ce1438"},"vehicle_type_id":"4","last_reported":1730131868,"current_range_meters":21600,"station_id":"ce4bgjh2rcd13ifvqbf0","pricing_plan_id":"cebpf4jnsgd1na2vs0mg"},{"bike_id":"6c20aa25-e5ba-41cd-8140-3f9c2caed7cd","system_id":"levelo_inurba_marseille","lat":43.30542,"lon":5.36532,"is_reserved":false,"is_disabled":false,"rental_uris":{"android":"levelo://app?vid=6c20aa25-e5ba-41cd-8140-3f9c2caed7cd","ios":"levelo://app?vid=6c20aa25-e5ba-41cd-8140-3f9c2caed7cd"},"vehicle_type_id":"4","last_reported":1730131868,"current_range_meters":26800,"station_id":"ce4bgs12rcd13ifvqcag","pricing_plan_id":"cebpf4jnsgd1na2vs0mg"},{"bike_id":"0a99d345-aabc-4c3f-9892-07c87663056f","system_id":"levelo_inurba_marseille","lat":43.25821,"lon":5.3945,"is_reserved":false,"is_disabled":false,"rental_uris":{"android":"levelo://app?vid=0a99d345-aabc-4c3f-9892-07c87663056f","ios":"levelo://app?vid=0a99d345-aabc-4c3f-9892-07c87663056f"},"vehicle_type_id":"4","last_reported":1730131868,"current_range_meters":16800,"station_id":"ce4bhip2rcd13ifvqft0","pricing_plan_id":"cebpf4jnsgd1na2vs0mg"},{"bike_id":"bfcad535-ef54-447e-85f7-14f022c7fbfa","system_id":"levelo_inurba_marseille","lat":43.31454,"lon":5.39212,"is_reserved":false,"is_disabled":false,"rental_uris":{"android":"levelo://app?vid=bfcad535-ef54-447e-85f7-14f022c7fbfa","ios":"levelo://app?vid=bfcad535-ef54-447e-85f7-14f022c7fbfa"},"vehicle_type_id":"4","last_reported":1730131868,"current_range_meters":9200,"station_id":"ce4bgvp2rcd13ifvqcu0","pricing_plan_id":"cebpf4jnsgd1na2vs0mg"},{"bike_id":"5033667c-460d-485b-a195-7e32f30bf468","system_id":"levelo_inurba_marseille","lat":43.29423,"lon":5.3862,"is_reserved":false,"is_disabled":false,"rental_uris":{"android":"levelo://app?vid=5033667c-460d-485b-a195-7e32f30bf468","ios":"levelo://app?vid=5033667c-460d-485b-a195-7e32f30bf468"},"vehicle_type_id":"4","last_reported":1730131868,"current_range_meters":24400,"station_id":"ce4bh2h2rcd13ifvqdh0","pricing_plan_id":"cebpf4jnsgd1na2vs0mg"},{"bike_id":"c5a955a6-8f2c-4747-bdf4-ada03886e968","system_id":"levelo_inurba_marseille","lat":43.24803,"lon":5.37459,"is_reserved":false,"is_disabled":false,"rental_uris":{"android":"levelo://app?vid=c5a955a6-8f2c-4747-bdf4-ada03886e968","ios":"levelo://app?vid=c5a955a6-8f2c-4747-bdf4-ada03886e968"},"vehicle_type_id":"4","last_reported":1730131868,"current_range_meters":39200,"station_id":"ce4bhgh2rcd13ifvqfb0","pricing_plan_id":"cebpf4jnsgd1na2vs0mg"},{"bike_id":"3d8b7404-56b6-4250-9048-362dbf48976f","system_id":"levelo_inurba_marseille","lat":43.272087,"lon":5.391915,"is_reserved":false,"is_disabled":false,"rental_uris":{"android":"levelo://app?vid=3d8b7404-56b6-4250-9048-362dbf48976f","ios":"levelo://app?vid=3d8b7404-56b6-4250-9048-362dbf48976f"},"vehicle_type_id":"4","last_reported":1730131868,"current_range_meters":22000,"station_id":"ce4bhhp2rcd13ifvqfm0","pricing_plan_id":"cebpf4jnsgd1na2vs0mg"},{"bike_id":"c02ff1c6-a4ad-4148-bd84-5056232f90dd","system_id":"levelo_inurba_marseille","lat":43.32109,"lon":5.36775,"is_reserved":false,"is_disabled":false,"rental_uris":{"android":"levelo://app?vid=c02ff1c6-a4ad-4148-bd84-5056232f90dd","ios":"levelo://app?vid=c02ff1c6-a4ad-4148-bd84-5056232f90dd"},"vehicle_type_id":"4","last_reported":1730131868,"current_range_meters":37600,"station_id":"ce4bhrh2rcd13ifvqhug","pricing_plan_id":"cebpf4jnsgd1na2vs0mg"},{"bike_id":"58ee6d48-cd28-4b92-b2f4-01d359a22e2e","system_id":"levelo_inurba_marseille","lat":43.30088,"lon":5.3908,"is_reserved":false,"is_disabled":false,"rental_uris":{"android":"levelo://app?vid=58ee6d48-cd28-4b92-b2f4-01d359a22e2e","ios":"levelo://app?vid=58ee6d48-cd28-4b92-b2f4-01d359a22e2e"},"vehicle_type_id":"4","last_reported":1730131868,"current_range_meters":29600,"station_id":"ce4bh192rcd13ifvqdb0","pricing_plan_id":"cebpf4jnsgd1na2vs0mg"},{"bike_id":"c282ac55-b4b2-4f9e-9b4b-42ee7ca7c6f5","system_id":"levelo_inurba_marseille","lat":43.23058,"lon":5.3549,"is_reserved":false,"is_disabled":false,"rental_uris":{"android":"levelo://app?vid=c282ac55-b4b2-4f9e-9b4b-42ee7ca7c6f5","ios":"levelo://app?vid=c282ac55-b4b2-4f9e-9b4b-42ee7ca7c6f5"},"vehicle_type_id":"4","last_reported":1730131868,"current_range_meters":24800,"station_id":"cpo3342slgdg3j2ifvpg","pricing_plan_id":"cebpf4jnsgd1na2vs0mg"},{"bike_id":"35308e75-61b5-498e-9530-e181788066c0","system_id":"levelo_inurba_marseille","lat":43.2606,"lon":5.39396,"is_reserved":false,"is_disabled":false,"rental_uris":{"android":"levelo://app?vid=35308e75-61b5-498e-9530-e181788066c0","ios":"levelo://app?vid=35308e75-61b5-498e-9530-e181788066c0"},"vehicle_type_id":"4","last_reported":1730131868,"current_range_meters":6400,"station_id":"ce4bhh92rcd13ifvqfj0","pricing_plan_id":"cebpf4jnsgd1na2vs0mg"},