{"last_updated":1777120703,"ttl":60,"version":"2.2","data":{"bikes":[{"bike_id":"1840389a-e9ab-4fba-bc95-c7772f2e79e2","system_id":"levelo_inurba_marseille","lat":43.29007,"lon":5.35612,"is_reserved":false,"is_disabled":false,"rental_uris":{"android":"levelo://app?vid=1840389a-e9ab-4fba-bc95-c7772f2e79e2","ios":"levelo://app?vid=1840389a-e9ab-4fba-bc95-c7772f2e79e2"},"vehicle_type_id":"4","last_reported":1777120704,"current_range_meters":2800,"station_id":"ce4bhb92rcd13ifvqen0","pricing_plan_id":"cebpf4jnsgd1na2vs0mg"},{"bike_id":"d5eae89b-43ac-44a2-84bb-67d96bea1d1c","system_id":"levelo_inurba_marseille","lat":43.26505,"lon":5.39535,"is_reserved":false,"is_disabled":true,"rental_uris":{"android":"levelo://app?vid=d5eae89b-43ac-44a2-84bb-67d96bea1d1c","ios":"levelo://app?vid=d5eae89b-43ac-44a2-84bb-67d96bea1d1c"},"vehicle_type_id":"4","last_reported":1777120704,"current_range_meters":2800,"station_id":"ce4bhi12rcd13ifvqfq0","pricing_plan_id":"cebpf4jnsgd1na2vs0mg"},{"bike_id":"146def8f-c25a-4a36-bb78-c0e04f65294e","system_id":"levelo_inurba_marseille","lat":43.28878,"lon":5.43038,"is_reserved":false,"is_disabled":false,"rental_uris":{"android":"levelo://app?vid=146def8f-c25a-4a36-bb78-c0e04f65294e","ios":"levelo://app?vid=146def8f-c25a-4a36-bb78-c0e04f65294e"},"vehicle_type_id":"4","last_reported":1777120704,"current_range_meters":2800,"station_id":"","pricing_plan_id":"cebpf4jnsgd1na2vs0mg"},{"bike_id":"22b6b18a-0dff-4fcb-9dca-8537d06b0bba","system_id":"levelo_inurba_marseille","lat":43.28482,"lon":5.48371,"is_reserved":false,"is_disabled":false,"rental_uris":{"android":"levelo://app?vid=22b6b18a-0dff-4fcb-9dca-8537d06b0bba","ios":"levelo://app?vid=22b6b18a-0dff-4fcb-9dca-8537d06b0bba"},"vehicle_type_id":"4","last_reported":1777120704,"current_range_meters":2800,"station_id":"","pricing_plan_id":"cebpf4jnsgd1na2vs0mg"},{"bike_id":"89cb976b-df3a-46fc-a9ef-0025de561630","system_id":"levelo_inurba_marseille","lat":43.29429,"lon":5.43419,"is_reserved":false,"is_disabled":false,"rental_uris":{"android":"levelo://app?vid=89cb976b-df3a-46fc-a9ef-0025de561630","ios":"levelo://app?vid=89cb976b-df3a-46fc-a9ef-0025de561630"},"vehicle_type_id":"4","last_reported":1777120704,"current_range_meters":2800,"station_id":"","pricing_plan_id":"cebpf4jnsgd1na2vs0mg"},{"bike_id":"87c3f567-4aa6-4dd1-9424-cb55111d1d9c","system_id":"levelo_inurba_marseille","lat":43.27365,"lon":5.3626,"is_reserved":false,"is_disabled":false,"rental_uris":{"android":"levelo://app?vid=87c3f567-4aa6-4dd1-9424-cb55111d1d9c","ios":"levelo://app?vid=87c3f567-4aa6-4dd1-9424-cb55111d1d9c"},"vehicle_type_id":"4","last_reported":1777120704,"current_range_meters":2800,"station_id":"ce4bhbh2rcd13ifvqeo0","pricing_plan_id":"cebpf4jnsgd1na2vs0mg"},{"bike_id":"cd21f6c1-a1f8-4978-8025-1d254a6bf514","system_id":"levelo_inurba_marseille","lat":43.28474,"lon":5.48394,"is_reserved":false,"is_disabled":false,"rental_uris":{"android":"levelo://app?vid=cd21f6c1-a1f8-4978-8025-1d254a6bf514","ios":"levelo://app?vid=cd21f6c1-a1f8-4978-8025-1d254a6bf514"},"vehicle_type_id":"4","last_reported":1777120704,"current_range_meters":3200,"station_id":"st_d3svhcjqgbts73a3dn0g","pricing_plan_id":"cebpf4jnsgd1na2vs0mg"},{"bike_id":"26e311ec-734f-477f-9bdc-cee009d68abe","system_id":"levelo_inurba_marseille","lat":43.33545,"lon":5.37449,"is_reserved":false,"is_disabled":false,"rental_uris":{"android":"levelo://app?vid=26e311ec-734f-477f-9bdc-cee009d68abe","ios":"levelo://app?vid=26e311ec-734f-477f-9bdc-cee009d68abe"},"vehicle_type_id":"4","last_reported":1777120704,"current_range_meters":3200,"station_id":"st_d46tts09ee8s73dlu43g","pricing_plan_id":"cebpf4jnsgd1na2vs0mg"},{"bike_id":"e8d6ce3d-1aa9-47ef-9b48-93862ee5f7fd","system_id":"levelo_inurba_marseille","lat":43.21283,"lon":5.35412,"is_reserved":false,"is_disabled":false,"rental_uris":{"android":"levelo://app?vid=e8d6ce3d-1aa9-47ef-9b48-93862ee5f7fd","ios":"levelo://app?vid=e8d6ce3d-1aa9-47ef-9b48-93862ee5f7fd"},"vehicle_type_id":"4","last_reported":1777120704,"current_range_meters":3200,"station_id":"","pricing_plan_id":"cebpf4jnsgd1na2vs0mg"},{"bike_id":"4a12860e-8131-4ec7-b3ad-1248c64a557b","system_id":"levelo_inurba_marseille","lat":43.29845,"lon":5.43687,"is_reserved":false,"is_disabled":true,"rental_uris":{"android":"levelo://app?vid=4a12860e-8131-4ec7-b3ad-1248c64a557b","ios":"levelo://app?vid=4a12860e-8131-4ec7-b3ad-1248c64a557b"},"vehicle_type_id":"4","last_reported":1777120704,"current_range_meters":3200,"station_id":"ce4bhpp2rcd13ifvqhfg","pricing_plan_id":"cebpf4jnsgd1na2vs0mg"},{"bike_id":"051bb7a6-8b28-4a80-a902-10ee9ea856ed","system_id":"levelo_inurba_marseille","lat":43.24371,"lon":5.37049,"is_reserved":false,"is_disabled":false,"rental_uris":{"android":"levelo://app?vid=051bb7a6-8b28-4a80-a902-10ee9ea856ed","ios":"levelo://app?vid=051bb7a6-8b28-4a80-a902-10ee9ea856ed"},"vehicle_type_id":"4","last_reported":1777120704,"current_range_meters":3200,"station_id":"ce4bhhh2rcd13ifvqfk0","pricing_plan_id":"cebpf4jnsgd1na2vs0mg"},{"bike_id":"4e0d0d98-1dda-494b-a6ce-04f5a876f744","system_id":"levelo_inurba_marseille","lat":43.27786,"lon":5.38823,"is_reserved":false,"is_disabled":false,"rental_uris":{"android":"levelo://app?vid=4e0d0d98-1dda-494b-a6ce-04f5a876f744","ios":"levelo://app?vid=4e0d0d98-1dda-494b-a6ce-04f5a876f744"},"vehicle_type_id":"4","last_reported":1777120704,"current_range_meters":3200,"station_id":"","pricing_plan_id":"cebpf4jnsgd1na2vs0mg"},{"bike_id":"8d5ac8a8-c851-4ba3-9019-0fb110609880","system_id":"levelo_inurba_marseille","lat":43.21738,"lon":5.34597,"is_reserved":false,"is_disabled":false,"rental_uris":{"android":"levelo://app?vid=8d5ac8a8-c851-4ba3-9019-0fb110609880","ios":"levelo://app?vid=8d5ac8a8-c851-4ba3-9019-0fb110609880"},"vehicle_type_id":"4","last_reported":1777120704,"current_range_meters":3200,"station_id":"st_cvj6r9ubvosntc0bgbag","pricing_plan_id":"cebpf4jnsgd1na2vs0mg"},{"bike_id":"3762a15a-49a2-4fc6-b2e6-a79b5f91a12f","system_id":"levelo_inurba_marseille","lat":43.28471,"lon":5.48413,"is_reserved":false,"is_disabled":false,"rental_uris":{"android":"levelo://app?vid=3762a15a-49a2-4fc6-b2e6-a79b5f91a12f","ios":"levelo://app?vid=3762a15a-49a2-4fc6-b2e6-a79b5f91a12f"},"vehicle_type_id":"4","last_reported":1777120704,"current_range_meters":3600,"station_id":"","pricing_plan_id":"cebpf4jnsgd1na2vs0mg"},{"bike_id":"ed9e31f5-25da-4ec8-abe7-0a816c3e138d","system_id":"levelo_inurba_marseille","lat":43.30476,"lon":5.3789,"is_reserved":false,"is_disabled":true,"rental_uris":{"android":"levelo://app?vid=ed9e31f5-25da-4ec8-abe7-0a816c3e138d","ios":"levelo://app?vid=ed9e31f5-25da-4ec8-abe7-0a816c3e138d"},"vehicle_type_id":"4","last_reported":1777120704,"current_range_meters":3600,"station_id":"ce4bgup2rcd13ifvqcn0","pricing_plan_id":"cebpf4jnsgd1na2vs0mg"},{"bike_id":"2813910b-bfe0-425f-a483-9778de4facfb","system_id":"levelo_inurba_marseille","lat":43.30243,"lon":5.44957,"is_reserved":false,"is_disabled":false,"rental_uris":{"android":"levelo://app?vid=2813910b-bfe0-425f-a483-9778de4facfb","ios":"levelo://app?vid=2813910b-bfe0-425f-a483-9778de4facfb"},"vehicle_type_id":"4","last_reported":1777120704,"current_range_meters":3600,"station_id":"","pricing_plan_id":"cebpf4jnsgd1na2vs0mg"},{"bike_id":"b38d89b8-c3c9-4fae-b6f2-09980d89f2e9","system_id":"levelo_inurba_marseille","lat":43.28473,"lon":5.48396,"is_reserved":false,"is_disabled":false,"rental_uris":{"android":"levelo://app?vid=b38d89b8-c3c9-4fae-b6f2-09980d89f2e9","ios":"levelo://app?vid=b38d89b8-c3c9-4fae-b6f2-09980d89f2e9"},"vehicle_type_id":"4","last_reported":1777120704,"current_range_meters":4000,"station_id":"","pricing_plan_id":"cebpf4jnsgd1na2vs0mg"},{"bike_id":"1097c3c4-36e4-4d25-83ea-ff12a871d538","system_id":"levelo_inurba_marseille","lat":43.21736,"lon":5.34605,"is_reserved":false,"is_disabled":false,"rental_uris":{"android":"levelo://app?vid=1097c3c4-36e4-4d25-83ea-ff12a871d538","ios":"levelo://app?vid=1097c3c4-36e4-4d25-83ea-ff12a871d538"},"vehicle_type_id":"4","last_reported":1777120704,"current_range_meters":4000,"station_id":"st_cvj6r9ubvosntc0bgbag","pricing_plan_id":"cebpf4jnsgd1na2vs0mg"},{"bike_id":"ee1b8d89-9731-405d-8349-8144b642faea","system_id":"levelo_inurba_marseille","lat":43.29957,"lon":5.4131,"is_reserved":false,"is_disabled":false,"rental_uris":{"android":"levelo://app?vid=ee1b8d89-9731-405d-8349-8144b642faea","ios":"levelo://app?vid=ee1b8d89-9731-405d-8349-8144b642faea"},"vehicle_type_id":"4","last_reported":1777120704,"current_range_meters":4000,"station_id":"ce4bhp12rcd13ifvqh9g","pricing_plan_id":"cebpf4jnsgd1na2vs0mg"},{"bike_id":"7ab9e9d2-55c6-492f-8e60-126c7a6965ab","system_id":"levelo_inurba_marseille","lat":43.27944,"lon":5.37031,"is_reserved":false,"is_disabled":false,"rental_uris":{"android":"levelo://app?vid=7ab9e9d2-55c6-492f-8e60-126c7a6965ab","ios":"levelo://app?vid=7ab9e9d2-55c6-492f-8e60-126c7a6965ab"},"vehicle_type_id":"4","last_reported":1777120704,"current_range_meters":4000,"station_id":"","pricing_plan_id":"cebpf4jnsgd1na2vs0mg"},{"bike_id":"d9256f3c-3f03-492e-aef6-0aab1f490071","system_id":"levelo_inurba_marseille","lat":43.24807,"lon":5.37449,"is_reserved":false,"is_disabled":false,"rental_uris":{"android":"levelo://app?vid=d9256f3c-3f03-492e-aef6-0aab1f490071","ios":"levelo://app?vid=d9256f3c-3f03-492e-aef6-0aab1f490071"},"vehicle_type_id":"4","last_reported":1777120704,"current_range_meters":4400,"station_id":"ce4bhgh2rcd13ifvqfb0","pricing_plan_id":"cebpf4jnsgd1na2vs0mg"},{"bike_id":"571c0fa7-f4b4-40a6-b007-a79e54ce0058","system_id":"levelo_inurba_marseille","lat":43.292604,"lon":5.360218,"is_reserved":false,"is_disabled":false,"rental_uris":{"android":"levelo://app?vid=571c0fa7-f4b4-40a6-b007-a79e54ce0058","ios":"levelo://app?vid=571c0fa7-f4b4-40a6-b007-a79e54ce0058"},"vehicle_type_id":"4","last_reported":1777120704,"current_range_meters":4400,"station_id":"ce4bhbh2rcd13ifvqeqg","pricing_plan_id":"cebpf4jnsgd1na2vs0mg"},{"bike_id":"6533574e-7540-46ca-bc5e-62e7823dcedd","system_id":"levelo_inurba_marseille","lat":43.2173,"lon":5.34599,"is_reserved":false,"is_disabled":false,"rental_uris":{"android":"levelo://app?vid=6533574e-7540-46ca-bc5e-62e7823dcedd","ios":"levelo://app?vid=6533574e-7540-46ca-bc5e-62e7823dcedd"},"vehicle_type_id":"4","last_reported":1777120704,"current_range_meters":4400,"station_id":"st_cvj6r9ubvosntc0bgbag","pricing_plan_id":"cebpf4jnsgd1na2vs0mg"},{"bike_id":"30ae163a-44ad-49ad-bf51-c1f54df5559c","system_id":"levelo_inurba_marseille","lat":43.28851,"lon":5.42507,"is_reserved":false,"is_disabled":false,"rental_uris":{"android":"levelo://app?vid=30ae163a-44ad-49ad-bf51-c1f54df5559c","ios":"levelo://app?vid=30ae163a-44ad-49ad-bf51-c1f54df5559c"},"vehicle_type_id":"4","last_reported":1777120704,"current_range_meters":4400,"station_id":"st_d3b462108ojc7389ooeg","pricing_plan_id":"cebpf4jnsgd1na2vs0mg"},{"bike_id":"a0c29d76-53a4-44e1-ad02-eed739d5224b","system_id":"levelo_inurba_marseille","lat":43.24156,"lon":5.36377,"is_reserved":false,"is_disabled":false,"rental_uris":{"android":"levelo://app?vid=a0c29d76-53a4-44e1-ad02-eed739d5224b","ios":"levelo://app?vid=a0c29d76-53a4-44e1-ad02-eed739d5224b"},"vehicle_type_id":"4","last_reported":1777120704,"current_range_meters":4400,"station_id":"cpo36qri1sfpv3e86is0","pricing_plan_id":"cebpf4jnsgd1na2vs0mg"},{"bike_id":"dba32690-e9e2-4348-b357-43ee4f42bf0b","system_id":"levelo_inurba_marseille","lat":43.29224,"lon":5.36055,"is_reserved":false,"is_disabled":false,"rental_uris":{"android":"levelo://app?vid=dba32690-e9e2-4348-b357-43ee4f42bf0b","ios":"levelo://app?vid=dba32690-e9e2-4348-b357-43ee4f42bf0b"},"vehicle_type_id":"4","last_reported":1777120704,"current_range_meters":4800,"station_id":"ce4bhbh2rcd13ifvqeqg","pricing_plan_id":"cebpf4jnsgd1na2vs0mg"},{"bike_id":"aa897415-67a0-4b07-b64e-cbc8da7d4792","system_id":"levelo_inurba_marseille","lat":43.24172,"lon":5.36385,"is_reserved":false,"is_disabled":false,"rental_uris":{"android":"levelo://app?vid=aa897415-67a0-4b07-b64e-cbc8da7d4792","ios":"levelo://app?vid=aa897415-67a0-4b07-b64e-cbc8da7d4792"},"vehicle_type_id":"4","last_reported":1777120704,"current_range_meters":4800,"station_id":"cpo36qri1sfpv3e86is0","pricing_plan_id":"cebpf4jnsgd1na2vs0mg"},{"bike_id":"42e1fa82-8166-4f68-97c4-654419d7c5a4","system_id":"levelo_inurba_marseille","lat":43.2761,"lon":5.36111,"is_reserved":false,"is_disabled":false,"rental_uris":{"android":"levelo://app?vid=42e1fa82-8166-4f68-97c4-654419d7c5a4","ios":"levelo://app?vid=42e1fa82-8166-4f68-97c4-654419d7c5a4"},"vehicle_type_id":"4","last_reported":1777120704,"current_range_meters":4800,"station_id":"ce4bgj92rcd13ifvqbe0","pricing_plan_id":"cebpf4jnsgd1na2vs0mg"},{"bike_id":"60be4b0d-4c83-4300-8220-7b23e159ba6b","system_id":"levelo_inurba_marseille","lat":43.24806,"lon":5.37457,"is_reserved":false,"is_disabled":false,"rental_uris":{"android":"levelo://app?vid=60be4b0d-4c83-4300-8220-7b23e159ba6b","ios":"levelo://app?vid=60be4b0d-4c83-4300-8220-7b23e159ba6b"},"vehicle_type_id":"4","last_reported":1777120704,"current_range_meters":4800,"station_id":"ce4bhgh2rcd13ifvqfb0","pricing_plan_id":"cebpf4jnsgd1na2vs0mg"},{"bike_id":"95419b71-8c86-4bde-8255-fe74b8ab1ef9","system_id":"levelo_inurba_marseille","lat":43.21189,"lon":5.35055,"is_reserved":false,"is_disabled":false,"rental_uris":{"android":"levelo://app?vid=95419b71-8c86-4bde-8255-fe74b8ab1ef9","ios":"levelo://app?vid=95419b71-8c86-4bde-8255-fe74b8ab1ef9"},"vehicle_type_id":"4","last_reported":1777120704,"current_range_meters":4800,"station_id":"st_cvj6sg6p6f1abm77japg","pricing_plan_id":"cebpf4jnsgd1na2vs0mg"},{"bike_id":"289e5bb7-2972-49ee-9261-66855137ce31","system_id":"levelo_inurba_marseille","lat":43.27681,"lon":5.38881,"is_reserved":false,"is_disabled":false,"rental_uris":{"android":"levelo://app?vid=289e5bb7-2972-49ee-9261-66855137ce31","ios":"levelo://app?vid=289e5bb7-2972-49ee-9261-66855137ce31"},"vehicle_type_id":"4","last_reported":1777120704,"current_range_meters":4800,"station_id":"ce4bhi12rcd13ifvqfo0","pricing_plan_id":"cebpf4jnsgd1na2vs0mg"},{"bike_id":"3f05885d-944d-475f-9063-c3b1631c9b3c","system_id":"levelo_inurba_marseille","lat":43.23207,"lon":5.35541,"is_reserved":false,"is_disabled":false,"rental_uris":{"android":"levelo://app?vid=3f05885d-944d-475f-9063-c3b1631c9b3c","ios":"levelo://app?vid=3f05885d-944d-475f-9063-c3b1631c9b3c"},"vehicle_type_id":"4","last_reported":1777120704,"current_range_meters":4800,"station_id":"ce4bhu92rcd13ifvqi70","pricing_plan_id":"cebpf4jnsgd1na2vs0mg"},{"bike_id":"68385ad1-5a71-4622-9ac2-dcc837084f17","system_id":"levelo_inurba_marseille","lat":43.24064,"lon":5.37757,"is_reserved":false,"is_disabled":false,"rental_uris":{"android":"levelo://app?vid=68385ad1-5a71-4622-9ac2-dcc837084f17","ios":"levelo://app?vid=68385ad1-5a71-4622-9ac2-dcc837084f17"},"vehicle_type_id":"4","last_reported":1777120704,"current_range_meters":4800,"station_id":"ce4bhnp2rcd13ifvqgvg","pricing_plan_id":"cebpf4jnsgd1na2vs0mg"},{"bike_id":"c7ac0306-6afc-4781-8692-f962ddfe1a23","system_id":"levelo_inurba_marseille","lat":43.32349,"lon":5.36739,"is_reserved":false,"is_disabled":false,"rental_uris":{"android":"levelo://app?vid=c7ac0306-6afc-4781-8692-f962ddfe1a23","ios":"levelo://app?vid=c7ac0306-6afc-4781-8692-f962ddfe1a23"},"vehicle_type_id":"4","last_reported":1777120704,"current_range_meters":4800,"station_id":"ce4bhsh2rcd13ifvqi2g","pricing_plan_id":"cebpf4jnsgd1na2vs0mg"},{"bike_id":"ad98118c-5ffa-4ca0-b1dd-c873190b24d8","system_id":"levelo_inurba_marseille","lat":43.28939,"lon":5.39625,"is_reserved":false,"is_disabled":false,"rental_uris":{"android":"levelo://app?vid=ad98118c-5ffa-4ca0-b1dd-c873190b24d8","ios":"levelo://app?vid=ad98118c-5ffa-4ca0-b1dd-c873190b24d8"},"vehicle_type_id":"4","last_reported":1777120704,"current_range_meters":4800,"station_id":"ce4bh3h2rcd13ifvqdn0","pricing_plan_id":"cebpf4jnsgd1na2vs0mg"},{"bike_id":"91b05bd6-abae-4f4a-9b29-50a80ae140c2","system_id":"levelo_inurba_marseille","lat":43.2985,"lon":5.36285,"is_reserved":false,"is_disabled":false,"rental_uris":{"android":"levelo://app?vid=91b05bd6-abae-4f4a-9b29-50a80ae140c2","ios":"levelo://app?vid=91b05bd6-abae-4f4a-9b29-50a80ae140c2"},"vehicle_type_id":"4","last_reported":1777120704,"current_range_meters":4800,"station_id":"ce4bgpp2rcd13ifvqc3g","pricing_plan_id":"cebpf4jnsgd1na2vs0mg"},{"bike_id":"bac1e8f6-f887-499f-ac7b-1a24f15729a2","system_id":"levelo_inurba_marseille","lat":43.28415,"lon":5.34993,"is_reserved":false,"is_disabled":false,"rental_uris":{"android":"levelo://app?vid=bac1e8f6-f887-499f-ac7b-1a24f15729a2","ios":"levelo://app?vid=bac1e8f6-f887-499f-ac7b-1a24f15729a2"},"vehicle_type_id":"4","last_reported":1777120704,"current_range_meters":5600,"station_id":"ce4bhbh2rcd13ifvqepg","pricing_plan_id":"cebpf4jnsgd1na2vs0mg"},{"bike_id":"4af5f932-71ad-4954-ac3b-fecb2a352994","system_id":"levelo_inurba_marseille","lat":43.32357,"lon":5.36741,"is_reserved":false,"is_disabled":false,"rental_uris":{"android":"levelo://app?vid=4af5f932-71ad-4954-ac3b-fecb2a352994","ios":"levelo://app?vid=4af5f932-71ad-4954-ac3b-fecb2a352994"},"vehicle_type_id":"4","last_reported":1777120704,"current_range_meters":5600,"station_id":"ce4bhsh2rcd13ifvqi2g","pricing_plan_id":"cebpf4jnsgd1na2vs0mg"},{"bike_id":"72bab6b4-544d-4081-98f9-3750c4720616","system_id":"levelo_inurba_marseille","lat":43.23164,"lon":5.43669,"is_reserved":false,"is_disabled":false,"rental_uris":{"android":"levelo://app?vid=72bab6b4-544d-4081-98f9-3750c4720616","ios":"levelo://app?vid=72bab6b4-544d-4081-98f9-3750c4720616"},"vehicle_type_id":"4","last_reported":1777120704,"current_range_meters":5600,"station_id":"ce4bhmp2rcd13ifvqgog","pricing_plan_id":"cebpf4jnsgd1na2vs0mg"},{"bike_id":"668b7868-0b32-428c-8d37-9db96b111dfd","system_id":"levelo_inurba_marseille","lat":43.27648,"lon":5.38914,"is_reserved":false,"is_disabled":false,"rental_uris":{"android":"levelo://app?vid=668b7868-0b32-428c-8d37-9db96b111dfd","ios":"levelo://app?vid=668b7868-0b32-428c-8d37-9db96b111dfd"},"vehicle_type_id":"4","last_reported":1777120704,"current_range_meters":5600,"station_id":"ce4bhi12rcd13ifvqfo0","pricing_plan_id":"cebpf4jnsgd1na2vs0mg"},{"bike_id":"1da117f2-f893-4ac3-99f7-852c0750949e","system_id":"levelo_inurba_marseille","lat":43.2762,"lon":5.36103,"is_reserved":false,"is_disabled":false,"rental_uris":{"android":"levelo://app?vid=1da117f2-f893-4ac3-99f7-852c0750949e","ios":"levelo://app?vid=1da117f2-f893-4ac3-99f7-852c0750949e"},"vehicle_type_id":"4","last_reported":1777120704,"current_range_meters":5600,"station_id":"ce4bgj92rcd13ifvqbe0","pricing_plan_id":"cebpf4jnsgd1na2vs0mg"},{"bike_id":"1370c3f0-6074-43de-a93b-f7f87c829b3b","system_id":"levelo_inurba_marseille","lat":43.2912,"lon":5.39985,"is_reserved":false,"is_disabled":false,"rental_uris":{"android":"levelo://app?vid=1370c3f0-6074-43de-a93b-f7f87c829b3b","ios":"levelo://app?vid=1370c3f0-6074-43de-a93b-f7f87c829b3b"},"vehicle_type_id":"4","last_reported":1777120704,"current_range_meters":5600,"station_id":"","pricing_plan_id":"cebpf4jnsgd1na2vs0mg"},{"bike_id":"082e9381-5478-4fa8-bed1-a0ff7502c6ad","system_id":"levelo_inurba_marseille","lat":43.26214,"lon":5.37424,"is_reserved":false,"is_disabled":false,"rental_uris":{"android":"levelo://app?vid=082e9381-5478-4fa8-bed1-a0ff7502c6ad","ios":"levelo://app?vid=082e9381-5478-4fa8-bed1-a0ff7502c6ad"},"vehicle_type_id":"4","last_reported":1777120704,"current_range_meters":5600,"station_id":"ce4bhgp2rcd13ifvqfc0","pricing_plan_id":"cebpf4jnsgd1na2vs0mg"},{"bike_id":"1f7fd312-054f-4ffb-974e-665ed68b7b9e","system_id":"levelo_inurba_marseille","lat":43.25071,"lon":5.39503,"is_reserved":false,"is_disabled":false,"rental_uris":{"android":"levelo://app?vid=1f7fd312-054f-4ffb-974e-665ed68b7b9e","ios":"levelo://app?vid=1f7fd312-054f-4ffb-974e-665ed68b7b9e"},"vehicle_type_id":"4","last_reported":1777120704,"current_range_meters":5600,"station_id":"ce4bhm12rcd13ifvqgkg","pricing_plan_id":"cebpf4jnsgd1na2vs0mg"},{"bike_id":"4d5b4915-5fc0-4782-a3a4-e445cc2cf470","system_id":"levelo_inurba_marseille","lat":43.29871,"lon":5.42101,"is_reserved":false,"is_disabled":false,"rental_uris":{"android":"levelo://app?vid=4d5b4915-5fc0-4782-a3a4-e445cc2cf470","ios":"levelo://app?vid=4d5b4915-5fc0-4782-a3a4-e445cc2cf470"},"vehicle_type_id":"4","last_reported":1777120704,"current_range_meters":5600,"station_id":"st_d6tc004otcvc738tfe70","pricing_plan_id":"cebpf4jnsgd1na2vs0mg"},{"bike_id":"08cec904-649f-497e-b8aa-842823ecc321","system_id":"levelo_inurba_marseille","lat":43.27822,"lon":5.40681,"is_reserved":false,"is_disabled":false,"rental_uris":{"android":"levelo://app?vid=08cec904-649f-497e-b8aa-842823ecc321","ios":"levelo://app?vid=08cec904-649f-497e-b8aa-842823ecc321"},"vehicle_type_id":"4","last_reported":1777120704,"current_range_meters":5600,"station_id":"ce4bhnh2rcd13ifvqgtg","pricing_plan_id":"cebpf4jnsgd1na2vs0mg"},{"bike_id":"18727794-a7fd-4caf-8ad7-e7c00923143f","system_id":"levelo_inurba_marseille","lat":43.24386,"lon":5.37071,"is_reserved":false,"is_disabled":false,"rental_uris":{"android":"levelo://app?vid=18727794-a7fd-4caf-8ad7-e7c00923143f","ios":"levelo://app?vid=18727794-a7fd-4caf-8ad7-e7c00923143f"},"vehicle_type_id":"4","last_reported":1777120704,"current_range_meters":5600,"station_id":"ce4bhhh2rcd13ifvqfk0","pricing_plan_id":"cebpf4jnsgd1na2vs0mg"},{"bike_id":"261b4d20-3fce-4a9a-b1df-f7d9447249df","system_id":"levelo_inurba_marseille","lat":43.28487,"lon":5.48373,"is_reserved":false,"is_disabled":false,"rental_uris":{"android":"levelo://app?vid=261b4d20-3fce-4a9a-b1df-f7d9447249df","ios":"levelo://app?vid=261b4d20-3fce-4a9a-b1df-f7d9447249df"},"vehicle_type_id":"4","last_reported":1777120704,"current_range_meters":5600,"station_id":"st_d3svhcjqgbts73a3dn0g","pricing_plan_id":"cebpf4jnsgd1na2vs0mg"},{"bike_id":"c2498040-b6e0-4de8-8829-12b18e0968e7","system_id":"levelo_inurba_marseille","lat":43.22561,"lon":5.41617,"is_reserved":false,"is_disabled":false,"rental_uris":{"android":"levelo://app?vid=c2498040-b6e0-4de8-8829-12b18e0968e7","ios":"levelo://app?vid=c2498040-b6e0-4de8-8829-12b18e0968e7"},"vehicle_type_id":"4","last_reported":1777120704,"current_range_meters":5600,"station_id":"st_d2o4gvlbi1j2169b742g","pricing_plan_id":"cebpf4jnsgd1na2vs0mg"},{"bike_id":"f8b71621-9ee0-4284-b9b2-be8fa047ba8a","system_id":"levelo_inurba_marseille","lat":43.30118,"lon":5.43099,"is_reserved":false,"is_disabled":false,"rental_uris":{"android":"levelo://app?vid=f8b71621-9ee0-4284-b9b2-be8fa047ba8a","ios":"levelo://app?vid=f8b71621-9ee0-4284-b9b2-be8fa047ba8a"},"vehicle_type_id":"4","last_reported":1777120704,"current_range_meters":5600,"station_id":"st_d3js3co5814s73ftftug","pricing_plan_id":"cebpf4jnsgd1na2vs0mg"},{"bike_id":"6fb94f97-73e5-4c84-9db3-0ab8bd2d0e8b","system_id":"levelo_inurba_marseille","lat":43.30132,"lon":5.38776,"is_reserved":false,"is_disabled":true,"rental_uris":{"android":"levelo://app?vid=6fb94f97-73e5-4c84-9db3-0ab8bd2d0e8b","ios":"levelo://app?vid=6fb94f97-73e5-4c84-9db3-0ab8bd2d0e8b"},"vehicle_type_id":"4","last_reported":1777120704,"current_range_meters":6000,"station_id":"ce4bghh2rcd13ifvqb60","pricing_plan_id":"cebpf4jnsgd1na2vs0mg"},{"bike_id":"27cd71a7-0940-4415-a67f-21597fbf1cd9","system_id":"levelo_inurba_marseille","lat":43.33016,"lon":5.39025,"is_reserved":false,"is_disabled":false,"rental_uris":{"android":"levelo://app?vid=27cd71a7-0940-4415-a67f-21597fbf1cd9","ios":"levelo://app?vid=27cd71a7-0940-4415-a67f-21597fbf1cd9"},"vehicle_type_id":"4","last_reported":1777120704,"current_range_meters":6000,"station_id":"ce4bhr92rcd13ifvqhrg","pricing_plan_id":"cebpf4jnsgd1na2vs0mg"},{"bike_id":"a4f29091-c169-44d5-86ae-0fae6e6376be","system_id":"levelo_inurba_marseille","lat":43.30179,"lon":5.38053,"is_reserved":false,"is_disabled":false,"rental_uris":{"android":"levelo://app?vid=a4f29091-c169-44d5-86ae-0fae6e6376be","ios":"levelo://app?vid=a4f29091-c169-44d5-86ae-0fae6e6376be"},"vehicle_type_id":"4","last_reported":1777120704,"current_range_meters":6000,"station_id":"","pricing_plan_id":"cebpf4jnsgd1na2vs0mg"},{"bike_id":"4b94f929-8f7e-4456-b947-b041a23d345a","system_id":"levelo_inurba_marseille","lat":43.30421,"lon":5.42446,"is_reserved":false,"is_disabled":false,"rental_uris":{"android":"levelo://app?vid=4b94f929-8f7e-4456-b947-b041a23d345a","ios":"levelo://app?vid=4b94f929-8f7e-4456-b947-b041a23d345a"},"vehicle_type_id":"4","last_reported":1777120704,"current_range_meters":6000,"station_id":"ce4bhoh2rcd13ifvqh6g","pricing_plan_id":"cebpf4jnsgd1na2vs0mg"},{"bike_id":"ba68bc6a-85da-4eec-9610-7f2525e173e0","system_id":"levelo_inurba_marseille","lat":43.265638,"lon":5.390096,"is_reserved":false,"is_disabled":false,"rental_uris":{"android":"levelo://app?vid=ba68bc6a-85da-4eec-9610-7f2525e173e0","ios":"levelo://app?vid=ba68bc6a-85da-4eec-9610-7f2525e173e0"},"vehicle_type_id":"4","last_reported":1777120704,"current_range_meters":6000,"station_id":"ce4bhe12rcd13ifvqf30","pricing_plan_id":"cebpf4jnsgd1na2vs0mg"},{"bike_id":"745d9c85-028f-4beb-837f-34e50e789eb5","system_id":"levelo_inurba_marseille","lat":43.22562,"lon":5.41617,"is_reserved":false,"is_disabled":false,"rental_uris":{"android":"levelo://app?vid=745d9c85-028f-4beb-837f-34e50e789eb5","ios":"levelo://app?vid=745d9c85-028f-4beb-837f-34e50e789eb5"},"vehicle_type_id":"4","last_reported":1777120704,"current_range_meters":6000,"station_id":"st_d2o4gvlbi1j2169b742g","pricing_plan_id":"cebpf4jnsgd1na2vs0mg"},{"bike_id":"5eddcf62-d28d-47a6-9895-da2f94ffd6fd","system_id":"levelo_inurba_marseille","lat":43.28599,"lon":5.38339,"is_reserved":false,"is_disabled":false,"rental_uris":{"android":"levelo://app?vid=5eddcf62-d28d-47a6-9895-da2f94ffd6fd","ios":"levelo://app?vid=5eddcf62-d28d-47a6-9895-da2f94ffd6fd"},"vehicle_type_id":"4","last_reported":1777120704,"current_range_meters":6400,"station_id":"","pricing_plan_id":"cebpf4jnsgd1na2vs0mg"},{"bike_id":"8c8d3a1e-3e2c-407c-b8ad-af868cc54226","system_id":"levelo_inurba_marseille","lat":43.294882,"lon":5.393907,"is_reserved":false,"is_disabled":false,"rental_uris":{"android":"levelo://app?vid=8c8d3a1e-3e2c-407c-b8ad-af868cc54226","ios":"levelo://app?vid=8c8d3a1e-3e2c-407c-b8ad-af868cc54226"},"vehicle_type_id":"4","last_reported":1777120704,"current_range_meters":6400,"station_id":"","pricing_plan_id":"cebpf4jnsgd1na2vs0mg"},{"bike_id":"1d368fe1-0c8f-4a40-864c-b54082c58fa1","system_id":"levelo_inurba_marseille","lat":43.33528,"lon":5.37481,"is_reserved":false,"is_disabled":false,"rental_uris":{"android":"levelo://app?vid=1d368fe1-0c8f-4a40-864c-b54082c58fa1","ios":"levelo://app?vid=1d368fe1-0c8f-4a40-864c-b54082c58fa1"},"vehicle_type_id":"4","last_reported":1777120704,"current_range_meters":6400,"station_id":"st_d46tts09ee8s73dlu43g","pricing_plan_id":"cebpf4jnsgd1na2vs0mg"},{"bike_id":"f645e30b-5616-45b3-a17d-faf4a49d971d","system_id":"levelo_inurba_marseille","lat":43.31,"lon":5.37533,"is_reserved":false,"is_disabled":false,"rental_uris":{"android":"levelo://app?vid=f645e30b-5616-45b3-a17d-faf4a49d971d","ios":"levelo://app?vid=f645e30b-5616-45b3-a17d-faf4a49d971d"},"vehicle_type_id":"4","last_reported":1777120704,"current_range_meters":6400,"station_id":"","pricing_plan_id":"cebpf4jnsgd1na2vs0mg"},{"bike_id":"baf5e93f-baa0-4776-9800-afea43e9329e","system_id":"levelo_inurba_marseille","lat":43.23207,"lon":5.35532,"is_reserved":false,"is_disabled":false,"rental_uris":{"android":"levelo://app?vid=baf5e93f-baa0-4776-9800-afea43e9329e","ios":"levelo://app?vid=baf5e93f-baa0-4776-9800-afea43e9329e"},"vehicle_type_id":"4","last_reported":1777120704,"current_range_meters":6400,"station_id":"ce4bhu92rcd13ifvqi70","pricing_plan_id":"cebpf4jnsgd1na2vs0mg"},{"bike_id":"45ad0d0e-efdd-4c05-bbcd-19b309dc3892","system_id":"levelo_inurba_marseille","lat":43.27985,"lon":5.41657,"is_reserved":false,"is_disabled":false,"rental_uris":{"android":"levelo://app?vid=45ad0d0e-efdd-4c05-bbcd-19b309dc3892","ios":"levelo://app?vid=45ad0d0e-efdd-4c05-bbcd-19b309dc3892"},"vehicle_type_id":"4","last_reported":1777120704,"current_range_meters":6400,"station_id":"ce4bho12rcd13ifvqh1g","pricing_plan_id":"cebpf4jnsgd1na2vs0mg"},{"bike_id":"a3dee876-3af2-46d4-9131-1dd0997e500a","system_id":"levelo_inurba_marseille","lat":43.24404,"lon":5.37051,"is_reserved":false,"is_disabled":true,"rental_uris":{"android":"levelo://app?vid=a3dee876-3af2-46d4-9131-1dd0997e500a","ios":"levelo://app?vid=a3dee876-3af2-46d4-9131-1dd0997e500a"},"vehicle_type_id":"4","last_reported":1777120704,"current_range_meters":6400,"station_id":"ce4bhhh2rcd13ifvqfk0","pricing_plan_id":"cebpf4jnsgd1na2vs0mg"},{"bike_id":"75471a09-e4ee-4438-b4e9-ebcc3c66f359","system_id":"levelo_inurba_marseille","lat":43.21194,"lon":5.3507,"is_reserved":false,"is_disabled":false,"rental_uris":{"android":"levelo://app?vid=75471a09-e4ee-4438-b4e9-ebcc3c66f359","ios":"levelo://app?vid=75471a09-e4ee-4438-b4e9-ebcc3c66f359"},"vehicle_type_id":"4","last_reported":1777120704,"current_range_meters":6400,"station_id":"st_cvj6sg6p6f1abm77japg","pricing_plan_id":"cebpf4jnsgd1na2vs0mg"},{"bike_id":"4072e806-e433-4f58-90bd-989185db8cf1","system_id":"levelo_inurba_marseille","lat":43.30372,"lon":5.42482,"is_reserved":false,"is_disabled":false,"rental_uris":{"android":"levelo://app?vid=4072e806-e433-4f58-90bd-989185db8cf1","ios":"levelo://app?vid=4072e806-e433-4f58-90bd-989185db8cf1"},"vehicle_type_id":"4","last_reported":1777120704,"current_range_meters":6400,"station_id":"ce4bhoh2rcd13ifvqh6g","pricing_plan_id":"cebpf4jnsgd1na2vs0mg"},{"bike_id":"ab3c8890-256f-468c-832e-f6b12ddd40b9","system_id":"levelo_inurba_marseille","lat":43.27058,"lon":5.38324,"is_reserved":false,"is_disabled":false,"rental_uris":{"android":"levelo://app?vid=ab3c8890-256f-468c-832e-f6b12ddd40b9","ios":"levelo://app?vid=ab3c8890-256f-468c-832e-f6b12ddd40b9"},"vehicle_type_id":"4","last_reported":1777120704,"current_range_meters":6400,"station_id":"st_d3n2fo6cfp8s73cte1j0","pricing_plan_id":"cebpf4jnsgd1na2vs0mg"},{"bike_id":"318b0f19-64fa-4af9-92a2-6b5d9e2e4a7b","system_id":"levelo_inurba_marseille","lat":43.21192,"lon":5.35057,"is_reserved":false,"is_disabled":false,"rental_uris":{"android":"levelo://app?vid=318b0f19-64fa-4af9-92a2-6b5d9e2e4a7b","ios":"levelo://app?vid=318b0f19-64fa-4af9-92a2-6b5d9e2e4a7b"},"vehicle_type_id":"4","last_reported":1777120704,"current_range_meters":6400,"station_id":"st_cvj6sg6p6f1abm77japg","pricing_plan_id":"cebpf4jnsgd1na2vs0mg"},{"bike_id":"9e736a24-151b-4861-9d3c-68515cd11e0f","system_id":"levelo_inurba_marseille","lat":43.32087,"lon":5.36776,"is_reserved":false,"is_disabled":false,"rental_uris":{"android":"levelo://app?vid=9e736a24-151b-4861-9d3c-68515cd11e0f","ios":"levelo://app?vid=9e736a24-151b-4861-9d3c-68515cd11e0f"},"vehicle_type_id":"4","last_reported":1777120704,"current_range_meters":6400,"station_id":"ce4bhrh2rcd13ifvqhug","pricing_plan_id":"cebpf4jnsgd1na2vs0mg"},{"bike_id":"115d672a-13d4-4305-8044-ca28f0c37ff6","system_id":"levelo_inurba_marseille","lat":43.25089,"lon":5.39466,"is_reserved":false,"is_disabled":false,"rental_uris":{"android":"levelo://app?vid=115d672a-13d4-4305-8044-ca28f0c37ff6","ios":"levelo://app?vid=115d672a-13d4-4305-8044-ca28f0c37ff6"},"vehicle_type_id":"4","last_reported":1777120704,"current_range_meters":6400,"station_id":"ce4bhm12rcd13ifvqgkg","pricing_plan_id":"cebpf4jnsgd1na2vs0mg"},{"bike_id":"0ce641a1-ca62-4f05-b894-4a72f77b98f2","system_id":"levelo_inurba_marseille","lat":43.32328,"lon":5.36752,"is_reserved":false,"is_disabled":false,"rental_uris":{"android":"levelo://app?vid=0ce641a1-ca62-4f05-b894-4a72f77b98f2","ios":"levelo://app?vid=0ce641a1-ca62-4f05-b894-4a72f77b98f2"},"vehicle_type_id":"4","last_reported":1777120704,"current_range_meters":6800,"station_id":"ce4bhsh2rcd13ifvqi2g","pricing_plan_id":"cebpf4jnsgd1na2vs0mg"},{"bike_id":"bd9c3448-ae68-4278-a859-e07cb1357f24","system_id":"levelo_inurba_marseille","lat":43.31064,"lon":5.37182,"is_reserved":false,"is_disabled":false,"rental_uris":{"android":"levelo://app?vid=bd9c3448-ae68-4278-a859-e07cb1357f24","ios":"levelo://app?vid=bd9c3448-ae68-4278-a859-e07cb1357f24"},"vehicle_type_id":"4","last_reported":1777120704,"current_range_meters":6800,"station_id":"st_d4kl2rp97mjs73e7tdfg","pricing_plan_id":"cebpf4jnsgd1na2vs0mg"},{"bike_id":"b22ec297-62ee-481a-a0d9-79248e80d698","system_id":"levelo_inurba_marseille","lat":43.28257,"lon":5.35044,"is_reserved":false,"is_disabled":false,"rental_uris":{"android":"levelo://app?vid=b22ec297-62ee-481a-a0d9-79248e80d698","ios":"levelo://app?vid=b22ec297-62ee-481a-a0d9-79248e80d698"},"vehicle_type_id":"4","last_reported":1777120704,"current_range_meters":6800,"station_id":"ce4bhbp2rcd13ifvqerg","pricing_plan_id":"cebpf4jnsgd1na2vs0mg"},{"bike_id":"7c7a6e62-e130-431f-b3ec-a07feec308d8","system_id":"levelo_inurba_marseille","lat":43.22703,"lon":5.34817,"is_reserved":false,"is_disabled":false,"rental_uris":{"android":"levelo://app?vid=7c7a6e62-e130-431f-b3ec-a07feec308d8","ios":"levelo://app?vid=7c7a6e62-e130-431f-b3ec-a07feec308d8"},"vehicle_type_id":"4","last_reported":1777120704,"current_range_meters":6800,"station_id":"","pricing_plan_id":"cebpf4jnsgd1na2vs0mg"},{"bike_id":"219d0e76-da72-4224-ab57-f5a16ce71cd2","system_id":"levelo_inurba_marseille","lat":43.2174,"lon":5.34595,"is_reserved":false,"is_disabled":false,"rental_uris":{"android":"levelo://app?vid=219d0e76-da72-4224-ab57-f5a16ce71cd2","ios":"levelo://app?vid=219d0e76-da72-4224-ab57-f5a16ce71cd2"},"vehicle_type_id":"4","last_reported":1777120704,"current_range_meters":6800,"station_id":"st_cvj6r9ubvosntc0bgbag","pricing_plan_id":"cebpf4jnsgd1na2vs0mg"},{"bike_id":"6b50c11e-02a0-4d45-8994-7a4d05e976bc","system_id":"levelo_inurba_marseille","lat":43.29803,"lon":5.37266,"is_reserved":false,"is_disabled":false,"rental_uris":{"android":"levelo://app?vid=6b50c11e-02a0-4d45-8994-7a4d05e976bc","ios":"levelo://app?vid=6b50c11e-02a0-4d45-8994-7a4d05e976bc"},"vehicle_type_id":"4","last_reported":1777120704,"current_range_meters":6800,"station_id":"","pricing_plan_id":"cebpf4jnsgd1na2vs0mg"},{"bike_id":"95430d5b-44ff-449b-9e09-8a6c48d6930c","system_id":"levelo_inurba_marseille","lat":43.29729,"lon":5.37797,"is_reserved":false,"is_disabled":false,"rental_uris":{"android":"levelo://app?vid=95430d5b-44ff-449b-9e09-8a6c48d6930c","ios":"levelo://app?vid=95430d5b-44ff-449b-9e09-8a6c48d6930c"},"vehicle_type_id":"4","last_reported":1777120704,"current_range_meters":6800,"station_id":"","pricing_plan_id":"cebpf4jnsgd1na2vs0mg"},{"bike_id":"512b289f-7064-43b9-81df-445ba5c8bc75","system_id":"levelo_inurba_marseille","lat":43.23967,"lon":5.36592,"is_reserved":false,"is_disabled":false,"rental_uris":{"android":"levelo://app?vid=512b289f-7064-43b9-81df-445ba5c8bc75","ios":"levelo://app?vid=512b289f-7064-43b9-81df-445ba5c8bc75"},"vehicle_type_id":"4","last_reported":1777120704,"current_range_meters":6800,"station_id":"ce4bhi12rcd13ifvqfp0","pricing_plan_id":"cebpf4jnsgd1na2vs0mg"},{"bike_id":"3f953cbe-f6a1-48c4-bd8c-e53b1e605a28","system_id":"levelo_inurba_marseille","lat":43.21192,"lon":5.35054,"is_reserved":false,"is_disabled":false,"rental_uris":{"android":"levelo://app?vid=3f953cbe-f6a1-48c4-bd8c-e53b1e605a28","ios":"levelo://app?vid=3f953cbe-f6a1-48c4-bd8c-e53b1e605a28"},"vehicle_type_id":"4","last_reported":1777120704,"current_range_meters":6800,"station_id":"st_cvj6sg6p6f1abm77japg","pricing_plan_id":"cebpf4jnsgd1na2vs0mg"},{"bike_id":"5091d3df-140a-4a96-ba1e-f44ab742c57b","system_id":"levelo_inurba_marseille","lat":43.23205,"lon":5.39973,"is_reserved":false,"is_disabled":true,"rental_uris":{"android":"levelo://app?vid=5091d3df-140a-4a96-ba1e-f44ab742c57b","ios":"levelo://app?vid=5091d3df-140a-4a96-ba1e-f44ab742c57b"},"vehicle_type_id":"4","last_reported":1777120704,"current_range_meters":6800,"station_id":"ce4bhn12rcd13ifvqgqg","pricing_plan_id":"cebpf4jnsgd1na2vs0mg"},{"bike_id":"e4435d61-1aef-48eb-9ae3-81dbfa376867","system_id":"levelo_inurba_marseille","lat":43.24161,"lon":5.36393,"is_reserved":false,"is_disabled":false,"rental_uris":{"android":"levelo://app?vid=e4435d61-1aef-48eb-9ae3-81dbfa376867","ios":"levelo://app?vid=e4435d61-1aef-48eb-9ae3-81dbfa376867"},"vehicle_type_id":"4","last_reported":1777120704,"current_range_meters":6800,"station_id":"cpo36qri1sfpv3e86is0","pricing_plan_id":"cebpf4jnsgd1na2vs0mg"},{"bike_id":"7b9926f3-1d2b-4da5-87b5-bf4a0fec5f8c","system_id":"levelo_inurba_marseille","lat":43.24163,"lon":5.36388,"is_reserved":false,"is_disabled":false,"rental_uris":{"android":"levelo://app?vid=7b9926f3-1d2b-4da5-87b5-bf4a0fec5f8c","ios":"levelo://app?vid=7b9926f3-1d2b-4da5-87b5-bf4a0fec5f8c"},"vehicle_type_id":"4","last_reported":1777120704,"current_range_meters":6800,"station_id":"cpo36qri1sfpv3e86is0","pricing_plan_id":"cebpf4jnsgd1na2vs0mg"},{"bike_id":"da151389-e78f-4a80-84fe-4e4e4914dbe6","system_id":"levelo_inurba_marseille","lat":43.26544,"lon":5.37286,"is_reserved":false,"is_disabled":false,"rental_uris":{"android":"levelo://app?vid=da151389-e78f-4a80-84fe-4e4e4914dbe6","ios":"levelo://app?vid=da151389-e78f-4a80-84fe-4e4e4914dbe6"},"vehicle_type_id":"4","last_reported":1777120704,"current_range_meters":7200,"station_id":"ce4bhg12rcd13ifvqf70","pricing_plan_id":"cebpf4jnsgd1na2vs0mg"},{"bike_id":"c0126e79-e455-4033-aa6f-9cd2537e8b04","system_id":"levelo_inurba_marseille","lat":43.287,"lon":5.46681,"is_reserved":false,"is_disabled":false,"rental_uris":{"android":"levelo://app?vid=c0126e79-e455-4033-aa6f-9cd2537e8b04","ios":"levelo://app?vid=c0126e79-e455-4033-aa6f-9cd2537e8b04"},"vehicle_type_id":"4","last_reported":1777120704,"current_range_meters":7200,"station_id":"st_d6tc3vkotcvc738tfjhg","pricing_plan_id":"cebpf4jnsgd1na2vs0mg"},{"bike_id":"4e7f60dc-2079-4f51-9d09-01d31cdd2f9b","system_id":"levelo_inurba_marseille","lat":43.2463,"lon":5.43124,"is_reserved":false,"is_disabled":false,"rental_uris":{"android":"levelo://app?vid=4e7f60dc-2079-4f51-9d09-01d31cdd2f9b","ios":"levelo://app?vid=4e7f60dc-2079-4f51-9d09-01d31cdd2f9b"},"vehicle_type_id":"4","last_reported":1777120704,"current_range_meters":7200,"station_id":"st_d2m6c4gdas8pm72e190g","pricing_plan_id":"cebpf4jnsgd1na2vs0mg"},{"bike_id":"90610949-5042-40f1-8252-076aeddd7d81","system_id":"levelo_inurba_marseille","lat":43.3194,"lon":5.36826,"is_reserved":false,"is_disabled":false,"rental_uris":{"android":"levelo://app?vid=90610949-5042-40f1-8252-076aeddd7d81","ios":"levelo://app?vid=90610949-5042-40f1-8252-076aeddd7d81"},"vehicle_type_id":"4","last_reported":1777120704,"current_range_meters":7200,"station_id":"","pricing_plan_id":"cebpf4jnsgd1na2vs0mg"},{"bike_id":"47cdfd85-c850-4193-aaa5-b5a23a2b2f3d","system_id":"levelo_inurba_marseille","lat":43.31096,"lon":5.37235,"is_reserved":false,"is_disabled":false,"rental_uris":{"android":"levelo://app?vid=47cdfd85-c850-4193-aaa5-b5a23a2b2f3d","ios":"levelo://app?vid=47cdfd85-c850-4193-aaa5-b5a23a2b2f3d"},"vehicle_type_id":"4","last_reported":1777120704,"current_range_meters":7200,"station_id":"st_d4kl2rp97mjs73e7tdfg","pricing_plan_id":"cebpf4jnsgd1na2vs0mg"},{"bike_id":"229bfa58-4fd1-4f9a-b80e-382aa4597e1f","system_id":"levelo_inurba_marseille","lat":43.27058,"lon":5.4026,"is_reserved":false,"is_disabled":false,"rental_uris":{"android":"levelo://app?vid=229bfa58-4fd1-4f9a-b80e-382aa4597e1f","ios":"levelo://app?vid=229bfa58-4fd1-4f9a-b80e-382aa4597e1f"},"vehicle_type_id":"4","last_reported":1777120704,"current_range_meters":7200,"station_id":"ce4bhk92rcd13ifvqgc0","pricing_plan_id":"cebpf4jnsgd1na2vs0mg"},{"bike_id":"021c3599-d960-4255-bf18-8b3b47549997","system_id":"levelo_inurba_marseille","lat":43.30177,"lon":5.43064,"is_reserved":false,"is_disabled":false,"rental_uris":{"android":"levelo://app?vid=021c3599-d960-4255-bf18-8b3b47549997","ios":"levelo://app?vid=021c3599-d960-4255-bf18-8b3b47549997"},"vehicle_type_id":"4","last_reported":1777120704,"current_range_meters":7200,"station_id":"st_d3js3co5814s73ftftug","pricing_plan_id":"cebpf4jnsgd1na2vs0mg"},{"bike_id":"32896887-9d74-49f7-8e67-3ffcd46dedd6","system_id":"levelo_inurba_marseille","lat":43.262151,"lon":5.374409,"is_reserved":false,"is_disabled":false,"rental_uris":{"android":"levelo://app?vid=32896887-9d74-49f7-8e67-3ffcd46dedd6","ios":"levelo://app?vid=32896887-9d74-49f7-8e67-3ffcd46dedd6"},"vehicle_type_id":"4","last_reported":1777120704,"current_range_meters":7200,"station_id":"ce4bhgp2rcd13ifvqfc0","pricing_plan_id":"cebpf4jnsgd1na2vs0mg"},{"bike_id":"541dbded-315f-4ca8-ac49-47fcb4294bb7","system_id":"levelo_inurba_marseille","lat":43.33556,"lon":5.37434,"is_reserved":false,"is_disabled":false,"rental_uris":{"android":"levelo://app?vid=541dbded-315f-4ca8-ac49-47fcb4294bb7","ios":"levelo://app?vid=541dbded-315f-4ca8-ac49-47fcb4294bb7"},"vehicle_type_id":"4","last_reported":1777120704,"current_range_meters":7200,"station_id":"st_d46tts09ee8s73dlu43g","pricing_plan_id":"cebpf4jnsgd1na2vs0mg"},{"bike_id":"f899884a-365d-4af6-943a-f70f2db9f759","system_id":"levelo_inurba_marseille","lat":43.24353,"lon":5.37105,"is_reserved":false,"is_disabled":false,"rental_uris":{"android":"levelo://app?vid=f899884a-365d-4af6-943a-f70f2db9f759","ios":"levelo://app?vid=f899884a-365d-4af6-943a-f70f2db9f759"},"vehicle_type_id":"4","last_reported":1777120704,"current_range_meters":7200,"station_id":"ce4bhhh2rcd13ifvqfk0","pricing_plan_id":"cebpf4jnsgd1na2vs0mg"},{"bike_id":"bdcf6bdb-fa72-49fe-ac71-11216efbd644","system_id":"levelo_inurba_marseille","lat":43.29692,"lon":5.3729,"is_reserved":false,"is_disabled":false,"rental_uris":{"android":"levelo://app?vid=bdcf6bdb-fa72-49fe-ac71-11216efbd644","ios":"levelo://app?vid=bdcf6bdb-fa72-49fe-ac71-11216efbd644"},"vehicle_type_id":"4","last_reported":1777120704,"current_range_meters":7200,"station_id":"ce4bgk12rcd13ifvqbj0","pricing_plan_id":"cebpf4jnsgd1na2vs0mg"},{"bike_id":"7fdd07dd-88d3-4d66-82c2-52748e8c5030","system_id":"levelo_inurba_marseille","lat":43.29512,"lon":5.37498,"is_reserved":false,"is_disabled":false,"rental_uris":{"android":"levelo://app?vid=7fdd07dd-88d3-4d66-82c2-52748e8c5030","ios":"levelo://app?vid=7fdd07dd-88d3-4d66-82c2-52748e8c5030"},"vehicle_type_id":"4","last_reported":1777120704,"current_range_meters":7200,"station_id":"ce4bgkp2rcd13ifvqbmg","pricing_plan_id":"cebpf4jnsgd1na2vs0mg"},{"bike_id":"6b34284e-c04a-4c16-8920-18df7484a352","system_id":"levelo_inurba_marseille","lat":43.28423,"lon":5.34976,"is_reserved":false,"is_disabled":false,"rental_uris":{"android":"levelo://app?vid=6b34284e-c04a-4c16-8920-18df7484a352","ios":"levelo://app?vid=6b34284e-c04a-4c16-8920-18df7484a352"},"vehicle_type_id":"4","last_reported":1777120704,"current_range_meters":7200,"station_id":"ce4bhbh2rcd13ifvqepg","pricing_plan_id":"cebpf4jnsgd1na2vs0mg"},{"bike_id":"7b8afe80-5ec8-42d9-824f-ecb730972c95","system_id":"levelo_inurba_marseille","lat":43.303619,"lon":5.397821,"is_reserved":false,"is_disabled":false,"rental_uris":{"android":"levelo://app?vid=7b8afe80-5ec8-42d9-824f-ecb730972c95","ios":"levelo://app?vid=7b8afe80-5ec8-42d9-824f-ecb730972c95"},"vehicle_type_id":"4","last_reported":1777120704,"current_range_meters":8000,"station_id":"","pricing_plan_id":"cebpf4jnsgd1na2vs0mg"},{"bike_id":"d9336df8-8a1a-46ce-986a-30d84df07ba8","system_id":"levelo_inurba_marseille","lat":43.23965,"lon":5.36626,"is_reserved":false,"is_disabled":false,"rental_uris":{"android":"levelo://app?vid=d9336df8-8a1a-46ce-986a-30d84df07ba8","ios":"levelo://app?vid=d9336df8-8a1a-46ce-986a-30d84df07ba8"},"vehicle_type_id":"4","last_reported":1777120704,"current_range_meters":8000,"station_id":"ce4bhi12rcd13ifvqfp0","pricing_plan_id":"cebpf4jnsgd1na2vs0mg"},{"bike_id":"4d040ed4-2f2f-4aeb-b484-49b4d95858e3","system_id":"levelo_inurba_marseille","lat":43.21186,"lon":5.35065,"is_reserved":false,"is_disabled":false,"rental_uris":{"android":"levelo://app?vid=4d040ed4-2f2f-4aeb-b484-49b4d95858e3","ios":"levelo://app?vid=4d040ed4-2f2f-4aeb-b484-49b4d95858e3"},"vehicle_type_id":"4","last_reported":1777120704,"current_range_meters":8000,"station_id":"st_cvj6sg6p6f1abm77japg","pricing_plan_id":"cebpf4jnsgd1na2vs0mg"},{"bike_id":"d1d5c7cf-8e64-4123-ad8a-ccd792fc4d10","system_id":"levelo_inurba_marseille","lat":43.2934,"lon":5.3984,"is_reserved":false,"is_disabled":false,"rental_uris":{"android":"levelo://app?vid=d1d5c7cf-8e64-4123-ad8a-ccd792fc4d10","ios":"levelo://app?vid=d1d5c7cf-8e64-4123-ad8a-ccd792fc4d10"},"vehicle_type_id":"4","last_reported":1777120704,"current_range_meters":8000,"station_id":"","pricing_plan_id":"cebpf4jnsgd1na2vs0mg"},{"bike_id":"079d348b-32b8-4d0a-b7df-4d4bb7d889e3","system_id":"levelo_inurba_marseille","lat":43.2438,"lon":5.37055,"is_reserved":false,"is_disabled":false,"rental_uris":{"android":"levelo://app?vid=079d348b-32b8-4d0a-b7df-4d4bb7d889e3","ios":"levelo://app?vid=079d348b-32b8-4d0a-b7df-4d4bb7d889e3"},"vehicle_type_id":"4","last_reported":1777120704,"current_range_meters":8000,"station_id":"ce4bhhh2rcd13ifvqfk0","pricing_plan_id":"cebpf4jnsgd1na2vs0mg"},{"bike_id":"6a1cfa44-424c-4486-9c1d-4dd666a8eeca","system_id":"levelo_inurba_marseille","lat":43.21187,"lon":5.35065,"is_reserved":false,"is_disabled":false,"rental_uris":{"android":"levelo://app?vid=6a1cfa44-424c-4486-9c1d-4dd666a8eeca","ios":"levelo://app?vid=6a1cfa44-424c-4486-9c1d-4dd666a8eeca"},"vehicle_type_id":"4","last_reported":1777120704,"current_range_meters":8000,"station_id":"st_cvj6sg6p6f1abm77japg","pricing_plan_id":"cebpf4jnsgd1na2vs0mg"},{"bike_id":"85e28e2a-2421-4551-a813-382122811cec","system_id":"levelo_inurba_marseille","lat":43.31882,"lon":5.36807,"is_reserved":false,"is_disabled":false,"rental_uris":{"android":"levelo://app?vid=85e28e2a-2421-4551-a813-382122811cec","ios":"levelo://app?vid=85e28e2a-2421-4551-a813-382122811cec"},"vehicle_type_id":"4","last_reported":1777120704,"current_range_meters":8000,"station_id":"st_d6o2h0d0559c73evc1b0","pricing_plan_id":"cebpf4jnsgd1na2vs0mg"},{"bike_id":"fd49c6c8-309b-4094-a542-f795fb68b18f","system_id":"levelo_inurba_marseille","lat":43.31332,"lon":5.3673,"is_reserved":false,"is_disabled":false,"rental_uris":{"android":"levelo://app?vid=fd49c6c8-309b-4094-a542-f795fb68b18f","ios":"levelo://app?vid=fd49c6c8-309b-4094-a542-f795fb68b18f"},"vehicle_type_id":"4","last_reported":1777120704,"current_range_meters":8000,"station_id":"ce4bgr92rcd13ifvqc6g","pricing_plan_id":"cebpf4jnsgd1na2vs0mg"},{"bike_id":"d2dc1a36-51f9-4423-a54f-f3a7a5fdf737","system_id":"levelo_inurba_marseille","lat":43.23778,"lon":5.36628,"is_reserved":false,"is_disabled":false,"rental_uris":{"android":"levelo://app?vid=d2dc1a36-51f9-4423-a54f-f3a7a5fdf737","ios":"levelo://app?vid=d2dc1a36-51f9-4423-a54f-f3a7a5fdf737"},"vehicle_type_id":"4","last_reported":1777120704,"current_range_meters":8000,"station_id":"st_d3nk18o9ro0c73en2l3g","pricing_plan_id":"cebpf4jnsgd1na2vs0mg"},{"bike_id":"cfd342c1-07c1-424d-b3ea-ed409d3701b7","system_id":"levelo_inurba_marseille","lat":43.23776,"lon":5.36632,"is_reserved":false,"is_disabled":false,"rental_uris":{"android":"levelo://app?vid=cfd342c1-07c1-424d-b3ea-ed409d3701b7","ios":"levelo://app?vid=cfd342c1-07c1-424d-b3ea-ed409d3701b7"},"vehicle_type_id":"4","last_reported":1777120704,"current_range_meters":8000,"station_id":"st_d3nk18o9ro0c73en2l3g","pricing_plan_id":"cebpf4jnsgd1na2vs0mg"},{"bike_id":"413e4623-e4a6-44c0-8fe0-f06c3e224af8","system_id":"levelo_inurba_marseille","lat":43.31901,"lon":5.36794,"is_reserved":false,"is_disabled":false,"rental_uris":{"android":"levelo://app?vid=413e4623-e4a6-44c0-8fe0-f06c3e224af8","ios":"levelo://app?vid=413e4623-e4a6-44c0-8fe0-f06c3e224af8"},"vehicle_type_id":"4","last_reported":1777120704,"current_range_meters":8400,"station_id":"st_d6o2h0d0559c73evc1b0","pricing_plan_id":"cebpf4jnsgd1na2vs0mg"},{"bike_id":"8d715502-1f4d-495a-aba7-e255ad4122f8","system_id":"levelo_inurba_marseille","lat":43.23959,"lon":5.36624,"is_reserved":false,"is_disabled":false,"rental_uris":{"android":"levelo://app?vid=8d715502-1f4d-495a-aba7-e255ad4122f8","ios":"levelo://app?vid=8d715502-1f4d-495a-aba7-e255ad4122f8"},"vehicle_type_id":"4","last_reported":1777120704,"current_range_meters":8400,"station_id":"ce4bhi12rcd13ifvqfp0","pricing_plan_id":"cebpf4jnsgd1na2vs0mg"},{"bike_id":"044ce3d4-5f89-49a7-a22e-6dad240318c7","system_id":"levelo_inurba_marseille","lat":43.3127,"lon":5.40166,"is_reserved":false,"is_disabled":false,"rental_uris":{"android":"levelo://app?vid=044ce3d4-5f89-49a7-a22e-6dad240318c7","ios":"levelo://app?vid=044ce3d4-5f89-49a7-a22e-6dad240318c7"},"vehicle_type_id":"4","last_reported":1777120704,"current_range_meters":8400,"station_id":"ce4bh092rcd13ifvqd30","pricing_plan_id":"cebpf4jnsgd1na2vs0mg"},{"bike_id":"335d7250-451d-4620-bf87-cc5a457d5216","system_id":"levelo_inurba_marseille","lat":43.28612,"lon":5.38318,"is_reserved":false,"is_disabled":false,"rental_uris":{"android":"levelo://app?vid=335d7250-451d-4620-bf87-cc5a457d5216","ios":"levelo://app?vid=335d7250-451d-4620-bf87-cc5a457d5216"},"vehicle_type_id":"4","last_reported":1777120704,"current_range_meters":8400,"station_id":"","pricing_plan_id":"cebpf4jnsgd1na2vs0mg"},{"bike_id":"7bde8e65-6091-4bd7-8170-37d0b1953e24","system_id":"levelo_inurba_marseille","lat":43.24171,"lon":5.36382,"is_reserved":false,"is_disabled":false,"rental_uris":{"android":"levelo://app?vid=7bde8e65-6091-4bd7-8170-37d0b1953e24","ios":"levelo://app?vid=7bde8e65-6091-4bd7-8170-37d0b1953e24"},"vehicle_type_id":"4","last_reported":1777120704,"current_range_meters":8400,"station_id":"cpo36qri1sfpv3e86is0","pricing_plan_id":"cebpf4jnsgd1na2vs0mg"},{"bike_id":"50c76cdb-61ce-440d-a92e-2ab434610c7f","system_id":"levelo_inurba_marseille","lat":43.27373,"lon":5.36254,"is_reserved":false,"is_disabled":false,"rental_uris":{"android":"levelo://app?vid=50c76cdb-61ce-440d-a92e-2ab434610c7f","ios":"levelo://app?vid=50c76cdb-61ce-440d-a92e-2ab434610c7f"},"vehicle_type_id":"4","last_reported":1777120704,"current_range_meters":8400,"station_id":"ce4bhbh2rcd13ifvqeo0","pricing_plan_id":"cebpf4jnsgd1na2vs0mg"},{"bike_id":"3fe60b2d-65d1-4d59-bf1e-422b9e7a469f","system_id":"levelo_inurba_marseille","lat":43.25002,"lon":5.38924,"is_reserved":false,"is_disabled":false,"rental_uris":{"android":"levelo://app?vid=3fe60b2d-65d1-4d59-bf1e-422b9e7a469f","ios":"levelo://app?vid=3fe60b2d-65d1-4d59-bf1e-422b9e7a469f"},"vehicle_type_id":"4","last_reported":1777120704,"current_range_meters":8400,"station_id":"ce4bhgp2rcd13ifvqfd0","pricing_plan_id":"cebpf4jnsgd1na2vs0mg"},{"bike_id":"bcfbc128-d285-4d78-bf51-560ef0a60c72","system_id":"levelo_inurba_marseille","lat":43.28473,"lon":5.48378,"is_reserved":false,"is_disabled":false,"rental_uris":{"android":"levelo://app?vid=bcfbc128-d285-4d78-bf51-560ef0a60c72","ios":"levelo://app?vid=bcfbc128-d285-4d78-bf51-560ef0a60c72"},"vehicle_type_id":"4","last_reported":1777120704,"current_range_meters":8400,"station_id":"","pricing_plan_id":"cebpf4jnsgd1na2vs0mg"},{"bike_id":"3f997d24-e204-4d45-a75d-2626aeab30ac","system_id":"levelo_inurba_marseille","lat":43.29887,"lon":5.37464,"is_reserved":false,"is_disabled":false,"rental_uris":{"android":"levelo://app?vid=3f997d24-e204-4d45-a75d-2626aeab30ac","ios":"levelo://app?vid=3f997d24-e204-4d45-a75d-2626aeab30ac"},"vehicle_type_id":"4","last_reported":1777120704,"current_range_meters":8400,"station_id":"ce4bgjh2rcd13ifvqbg0","pricing_plan_id":"cebpf4jnsgd1na2vs0mg"},{"bike_id":"7b548114-61f6-4f44-8ad1-8c83ed4c23dc","system_id":"levelo_inurba_marseille","lat":43.2456,"lon":5.41765,"is_reserved":false,"is_disabled":false,"rental_uris":{"android":"levelo://app?vid=7b548114-61f6-4f44-8ad1-8c83ed4c23dc","ios":"levelo://app?vid=7b548114-61f6-4f44-8ad1-8c83ed4c23dc"},"vehicle_type_id":"4","last_reported":1777120704,"current_range_meters":8400,"station_id":"","pricing_plan_id":"cebpf4jnsgd1na2vs0mg"},{"bike_id":"548e4a82-32b2-49d2-a8d0-a6b1676f8a48","system_id":"levelo_inurba_marseille","lat":43.32503,"lon":5.3656,"is_reserved":false,"is_disabled":false,"rental_uris":{"android":"levelo://app?vid=548e4a82-32b2-49d2-a8d0-a6b1676f8a48","ios":"levelo://app?vid=548e4a82-32b2-49d2-a8d0-a6b1676f8a48"},"vehicle_type_id":"4","last_reported":1777120704,"current_range_meters":8400,"station_id":"ce4bhs12rcd13ifvqhvg","pricing_plan_id":"cebpf4jnsgd1na2vs0mg"},{"bike_id":"f9b98806-d74c-46ef-8642-07dd46c19f4b","system_id":"levelo_inurba_marseille","lat":43.287,"lon":5.46686,"is_reserved":false,"is_disabled":false,"rental_uris":{"android":"levelo://app?vid=f9b98806-d74c-46ef-8642-07dd46c19f4b","ios":"levelo://app?vid=f9b98806-d74c-46ef-8642-07dd46c19f4b"},"vehicle_type_id":"4","last_reported":1777120704,"current_range_meters":8400,"station_id":"st_d6tc3vkotcvc738tfjhg","pricing_plan_id":"cebpf4jnsgd1na2vs0mg"},{"bike_id":"73b29586-6035-4b17-8f89-10c778399a16","system_id":"levelo_inurba_marseille","lat":43.32004,"lon":5.38124,"is_reserved":false,"is_disabled":false,"rental_uris":{"android":"levelo://app?vid=73b29586-6035-4b17-8f89-10c778399a16","ios":"levelo://app?vid=73b29586-6035-4b17-8f89-10c778399a16"},"vehicle_type_id":"4","last_reported":1777120704,"current_range_meters":8400,"station_id":"ce4bhr12rcd13ifvqhpg","pricing_plan_id":"cebpf4jnsgd1na2vs0mg"},{"bike_id":"9531fe83-7492-41bb-b0a9-23a0ab57a5e9","system_id":"levelo_inurba_marseille","lat":43.26547,"lon":5.37298,"is_reserved":false,"is_disabled":false,"rental_uris":{"android":"levelo://app?vid=9531fe83-7492-41bb-b0a9-23a0ab57a5e9","ios":"levelo://app?vid=9531fe83-7492-41bb-b0a9-23a0ab57a5e9"},"vehicle_type_id":"4","last_reported":1777120704,"current_range_meters":8400,"station_id":"ce4bhg12rcd13ifvqf70","pricing_plan_id":"cebpf4jnsgd1na2vs0mg"},{"bike_id":"c049792a-7e4f-4794-9cb8-3f58d2fa8f52","system_id":"levelo_inurba_marseille","lat":43.21749,"lon":5.34604,"is_reserved":false,"is_disabled":false,"rental_uris":{"android":"levelo://app?vid=c049792a-7e4f-4794-9cb8-3f58d2fa8f52","ios":"levelo://app?vid=c049792a-7e4f-4794-9cb8-3f58d2fa8f52"},"vehicle_type_id":"4","last_reported":1777120704,"current_range_meters":8400,"station_id":"st_cvj6r9ubvosntc0bgbag","pricing_plan_id":"cebpf4jnsgd1na2vs0mg"},{"bike_id":"4cc740bf-ba32-437e-be4c-169b43f3aacb","system_id":"levelo_inurba_marseille","lat":43.28471,"lon":5.3587,"is_reserved":false,"is_disabled":false,"rental_uris":{"android":"levelo://app?vid=4cc740bf-ba32-437e-be4c-169b43f3aacb","ios":"levelo://app?vid=4cc740bf-ba32-437e-be4c-169b43f3aacb"},"vehicle_type_id":"4","last_reported":1777120704,"current_range_meters":8400,"station_id":"ce4bhah2rcd13ifvqei0","pricing_plan_id":"cebpf4jnsgd1na2vs0mg"},{"bike_id":"90fac789-06e9-4c33-94b9-e82543e03c21","system_id":"levelo_inurba_marseille","lat":43.22569,"lon":5.41632,"is_reserved":false,"is_disabled":true,"rental_uris":{"android":"levelo://app?vid=90fac789-06e9-4c33-94b9-e82543e03c21","ios":"levelo://app?vid=90fac789-06e9-4c33-94b9-e82543e03c21"},"vehicle_type_id":"4","last_reported":1777120704,"current_range_meters":8400,"station_id":"st_d2o4gvlbi1j2169b742g","pricing_plan_id":"cebpf4jnsgd1na2vs0mg"},{"bike_id":"915f3511-b21b-4a84-8018-3a43f6b1a303","system_id":"levelo_inurba_marseille","lat":43.27066,"lon":5.42292,"is_reserved":false,"is_disabled":false,"rental_uris":{"android":"levelo://app?vid=915f3511-b21b-4a84-8018-3a43f6b1a303","ios":"levelo://app?vid=915f3511-b21b-4a84-8018-3a43f6b1a303"},"vehicle_type_id":"4","last_reported":1777120704,"current_range_meters":8400,"station_id":"ce4bhk92rcd13ifvqgb0","pricing_plan_id":"cebpf4jnsgd1na2vs0mg"},{"bike_id":"5e54dab6-8273-4aac-bd74-7f20b0407add","system_id":"levelo_inurba_marseille","lat":43.26204,"lon":5.3744,"is_reserved":false,"is_disabled":false,"rental_uris":{"android":"levelo://app?vid=5e54dab6-8273-4aac-bd74-7f20b0407add","ios":"levelo://app?vid=5e54dab6-8273-4aac-bd74-7f20b0407add"},"vehicle_type_id":"4","last_reported":1777120704,"current_range_meters":8400,"station_id":"ce4bhgp2rcd13ifvqfc0","pricing_plan_id":"cebpf4jnsgd1na2vs0mg"},{"bike_id":"0f917aaf-fa2e-47f8-98fb-42bb1be970f6","system_id":"levelo_inurba_marseille","lat":43.21746,"lon":5.34578,"is_reserved":false,"is_disabled":false,"rental_uris":{"android":"levelo://app?vid=0f917aaf-fa2e-47f8-98fb-42bb1be970f6","ios":"levelo://app?vid=0f917aaf-fa2e-47f8-98fb-42bb1be970f6"},"vehicle_type_id":"4","last_reported":1777120704,"current_range_meters":8400,"station_id":"st_cvj6r9ubvosntc0bgbag","pricing_plan_id":"cebpf4jnsgd1na2vs0mg"},{"bike_id":"308f68c0-c326-4383-b2d4-3d5ce68f7df6","system_id":"levelo_inurba_marseille","lat":43.27985,"lon":5.36386,"is_reserved":false,"is_disabled":false,"rental_uris":{"android":"levelo://app?vid=308f68c0-c326-4383-b2d4-3d5ce68f7df6","ios":"levelo://app?vid=308f68c0-c326-4383-b2d4-3d5ce68f7df6"},"vehicle_type_id":"4","last_reported":1777120704,"current_range_meters":8800,"station_id":"","pricing_plan_id":"cebpf4jnsgd1na2vs0mg"},{"bike_id":"6b404645-3784-4552-b362-ce2273282500","system_id":"levelo_inurba_marseille","lat":43.28489,"lon":5.3855,"is_reserved":false,"is_disabled":true,"rental_uris":{"android":"levelo://app?vid=6b404645-3784-4552-b362-ce2273282500","ios":"levelo://app?vid=6b404645-3784-4552-b362-ce2273282500"},"vehicle_type_id":"4","last_reported":1777120704,"current_range_meters":8800,"station_id":"ce4bh8p2rcd13ifvqeb0","pricing_plan_id":"cebpf4jnsgd1na2vs0mg"},{"bike_id":"9a7c39d8-ef30-4694-b180-b6fe0a089530","system_id":"levelo_inurba_marseille","lat":43.30131,"lon":5.43109,"is_reserved":false,"is_disabled":false,"rental_uris":{"android":"levelo://app?vid=9a7c39d8-ef30-4694-b180-b6fe0a089530","ios":"levelo://app?vid=9a7c39d8-ef30-4694-b180-b6fe0a089530"},"vehicle_type_id":"4","last_reported":1777120704,"current_range_meters":8800,"station_id":"st_d3js3co5814s73ftftug","pricing_plan_id":"cebpf4jnsgd1na2vs0mg"},{"bike_id":"7ac59c81-01df-4b8e-9807-86f926b0041a","system_id":"levelo_inurba_marseille","lat":43.28069,"lon":5.391,"is_reserved":false,"is_disabled":false,"rental_uris":{"android":"levelo://app?vid=7ac59c81-01df-4b8e-9807-86f926b0041a","ios":"levelo://app?vid=7ac59c81-01df-4b8e-9807-86f926b0041a"},"vehicle_type_id":"4","last_reported":1777120704,"current_range_meters":8800,"station_id":"","pricing_plan_id":"cebpf4jnsgd1na2vs0mg"},{"bike_id":"ace34436-51fe-4536-a1f6-cfa009f56977","system_id":"levelo_inurba_marseille","lat":43.33549,"lon":5.37468,"is_reserved":false,"is_disabled":false,"rental_uris":{"android":"levelo://app?vid=ace34436-51fe-4536-a1f6-cfa009f56977","ios":"levelo://app?vid=ace34436-51fe-4536-a1f6-cfa009f56977"},"vehicle_type_id":"4","last_reported":1777120704,"current_range_meters":8800,"station_id":"st_d46tts09ee8s73dlu43g","pricing_plan_id":"cebpf4jnsgd1na2vs0mg"},{"bike_id":"5687bcf3-d7dc-457c-91e4-c37491638fcd","system_id":"levelo_inurba_marseille","lat":43.24173,"lon":5.36359,"is_reserved":false,"is_disabled":false,"rental_uris":{"android":"levelo://app?vid=5687bcf3-d7dc-457c-91e4-c37491638fcd","ios":"levelo://app?vid=5687bcf3-d7dc-457c-91e4-c37491638fcd"},"vehicle_type_id":"4","last_reported":1777120704,"current_range_meters":8800,"station_id":"cpo36qri1sfpv3e86is0","pricing_plan_id":"cebpf4jnsgd1na2vs0mg"},{"bike_id":"7d7edd84-0fa3-48c7-8728-ef8dd9d19770","system_id":"levelo_inurba_marseille","lat":43.24379,"lon":5.37044,"is_reserved":false,"is_disabled":false,"rental_uris":{"android":"levelo://app?vid=7d7edd84-0fa3-48c7-8728-ef8dd9d19770","ios":"levelo://app?vid=7d7edd84-0fa3-48c7-8728-ef8dd9d19770"},"vehicle_type_id":"4","last_reported":1777120704,"current_range_meters":8800,"station_id":"ce4bhhh2rcd13ifvqfk0","pricing_plan_id":"cebpf4jnsgd1na2vs0mg"},{"bike_id":"12351776-ce4e-4c65-be2a-084ee71a31ed","system_id":"levelo_inurba_marseille","lat":43.24059,"lon":5.3772,"is_reserved":false,"is_disabled":false,"rental_uris":{"android":"levelo://app?vid=12351776-ce4e-4c65-be2a-084ee71a31ed","ios":"levelo://app?vid=12351776-ce4e-4c65-be2a-084ee71a31ed"},"vehicle_type_id":"4","last_reported":1777120704,"current_range_meters":8800,"station_id":"ce4bhnp2rcd13ifvqgvg","pricing_plan_id":"cebpf4jnsgd1na2vs0mg"},{"bike_id":"071d1e71-48c5-45bd-bc37-ce81033af5ba","system_id":"levelo_inurba_marseille","lat":43.31537,"lon":5.38026,"is_reserved":false,"is_disabled":false,"rental_uris":{"android":"levelo://app?vid=071d1e71-48c5-45bd-bc37-ce81033af5ba","ios":"levelo://app?vid=071d1e71-48c5-45bd-bc37-ce81033af5ba"},"vehicle_type_id":"4","last_reported":1777120704,"current_range_meters":8800,"station_id":"ce4bhsp2rcd13ifvqi50","pricing_plan_id":"cebpf4jnsgd1na2vs0mg"},{"bike_id":"270b3504-7efc-4ad9-a72b-907087bacf0e","system_id":"levelo_inurba_marseille","lat":43.23145,"lon":5.43696,"is_reserved":false,"is_disabled":false,"rental_uris":{"android":"levelo://app?vid=270b3504-7efc-4ad9-a72b-907087bacf0e","ios":"levelo://app?vid=270b3504-7efc-4ad9-a72b-907087bacf0e"},"vehicle_type_id":"4","last_reported":1777120704,"current_range_meters":8800,"station_id":"ce4bhmp2rcd13ifvqgog","pricing_plan_id":"cebpf4jnsgd1na2vs0mg"},{"bike_id":"9f4261e2-0123-4127-a475-2c17e63faf15","system_id":"levelo_inurba_marseille","lat":43.29846,"lon":5.36264,"is_reserved":false,"is_disabled":false,"rental_uris":{"android":"levelo://app?vid=9f4261e2-0123-4127-a475-2c17e63faf15","ios":"levelo://app?vid=9f4261e2-0123-4127-a475-2c17e63faf15"},"vehicle_type_id":"4","last_reported":1777120704,"current_range_meters":8800,"station_id":"ce4bgpp2rcd13ifvqc3g","pricing_plan_id":"cebpf4jnsgd1na2vs0mg"},{"bike_id":"7d507d55-089b-4da6-9cba-e3bba178d923","system_id":"levelo_inurba_marseille","lat":43.23181,"lon":5.39978,"is_reserved":false,"is_disabled":false,"rental_uris":{"android":"levelo://app?vid=7d507d55-089b-4da6-9cba-e3bba178d923","ios":"levelo://app?vid=7d507d55-089b-4da6-9cba-e3bba178d923"},"vehicle_type_id":"4","last_reported":1777120704,"current_range_meters":8800,"station_id":"ce4bhn12rcd13ifvqgqg","pricing_plan_id":"cebpf4jnsgd1na2vs0mg"},{"bike_id":"70c7e508-dee8-4c48-84ef-dd92c8416275","system_id":"levelo_inurba_marseille","lat":43.24166,"lon":5.36382,"is_reserved":false,"is_disabled":false,"rental_uris":{"android":"levelo://app?vid=70c7e508-dee8-4c48-84ef-dd92c8416275","ios":"levelo://app?vid=70c7e508-dee8-4c48-84ef-dd92c8416275"},"vehicle_type_id":"4","last_reported":1777120704,"current_range_meters":8800,"station_id":"cpo36qri1sfpv3e86is0","pricing_plan_id":"cebpf4jnsgd1na2vs0mg"},{"bike_id":"17fe3f56-b486-40dd-ac6a-710ede14c97d","system_id":"levelo_inurba_marseille","lat":43.314869,"lon":5.373029,"is_reserved":false,"is_disabled":false,"rental_uris":{"android":"levelo://app?vid=17fe3f56-b486-40dd-ac6a-710ede14c97d","ios":"levelo://app?vid=17fe3f56-b486-40dd-ac6a-710ede14c97d"},"vehicle_type_id":"4","last_reported":1777120704,"current_range_meters":8800,"station_id":"","pricing_plan_id":"cebpf4jnsgd1na2vs0mg"},{"bike_id":"8206874c-cba1-4b68-b7cb-9b27b85e54b2","system_id":"levelo_inurba_marseille","lat":43.26491,"lon":5.39533,"is_reserved":false,"is_disabled":false,"rental_uris":{"android":"levelo://app?vid=8206874c-cba1-4b68-b7cb-9b27b85e54b2","ios":"levelo://app?vid=8206874c-cba1-4b68-b7cb-9b27b85e54b2"},"vehicle_type_id":"4","last_reported":1777120704,"current_range_meters":8800,"station_id":"ce4bhi12rcd13ifvqfq0","pricing_plan_id":"cebpf4jnsgd1na2vs0mg"},{"bike_id":"6582c61e-4a79-4c45-90e5-cb689a3b0cb9","system_id":"levelo_inurba_marseille","lat":43.30167,"lon":5.38054,"is_reserved":false,"is_disabled":false,"rental_uris":{"android":"levelo://app?vid=6582c61e-4a79-4c45-90e5-cb689a3b0cb9","ios":"levelo://app?vid=6582c61e-4a79-4c45-90e5-cb689a3b0cb9"},"vehicle_type_id":"4","last_reported":1777120704,"current_range_meters":8800,"station_id":"ce4bgjp2rcd13ifvqbh0","pricing_plan_id":"cebpf4jnsgd1na2vs0mg"},{"bike_id":"fea5a28c-0167-4a62-9062-e629ed9b3e8f","system_id":"levelo_inurba_marseille","lat":43.2847,"lon":5.484,"is_reserved":false,"is_disabled":false,"rental_uris":{"android":"levelo://app?vid=fea5a28c-0167-4a62-9062-e629ed9b3e8f","ios":"levelo://app?vid=fea5a28c-0167-4a62-9062-e629ed9b3e8f"},"vehicle_type_id":"4","last_reported":1777120704,"current_range_meters":8800,"station_id":"st_d3svhcjqgbts73a3dn0g","pricing_plan_id":"cebpf4jnsgd1na2vs0mg"},{"bike_id":"8b54c2fe-91d6-414d-b053-a12a35141416","system_id":"levelo_inurba_marseille","lat":43.24395,"lon":5.37061,"is_reserved":false,"is_disabled":false,"rental_uris":{"android":"levelo://app?vid=8b54c2fe-91d6-414d-b053-a12a35141416","ios":"levelo://app?vid=8b54c2fe-91d6-414d-b053-a12a35141416"},"vehicle_type_id":"4","last_reported":1777120704,"current_range_meters":8800,"station_id":"ce4bhhh2rcd13ifvqfk0","pricing_plan_id":"cebpf4jnsgd1na2vs0mg"},{"bike_id":"8341b31b-839a-4791-ba58-b87a54c6f8da","system_id":"levelo_inurba_marseille","lat":43.30296,"lon":5.36887,"is_reserved":false,"is_disabled":false,"rental_uris":{"android":"levelo://app?vid=8341b31b-839a-4791-ba58-b87a54c6f8da","ios":"levelo://app?vid=8341b31b-839a-4791-ba58-b87a54c6f8da"},"vehicle_type_id":"4","last_reported":1777120704,"current_range_meters":8800,"station_id":"ce4bgqh2rcd13ifvqc5g","pricing_plan_id":"cebpf4jnsgd1na2vs0mg"},{"bike_id":"26882210-997c-4922-b3e5-8a44e2a594af","system_id":"levelo_inurba_marseille","lat":43.2552,"lon":5.37618,"is_reserved":false,"is_disabled":false,"rental_uris":{"android":"levelo://app?vid=26882210-997c-4922-b3e5-8a44e2a594af","ios":"levelo://app?vid=26882210-997c-4922-b3e5-8a44e2a594af"},"vehicle_type_id":"4","last_reported":1777120704,"current_range_meters":8800,"station_id":"ce4bhh12rcd13ifvqff0","pricing_plan_id":"cebpf4jnsgd1na2vs0mg"},{"bike_id":"07408139-0e0b-42d2-ac2d-94af4e4d3d13","system_id":"levelo_inurba_marseille","lat":43.26497,"lon":5.39507,"is_reserved":false,"is_disabled":false,"rental_uris":{"android":"levelo://app?vid=07408139-0e0b-42d2-ac2d-94af4e4d3d13","ios":"levelo://app?vid=07408139-0e0b-42d2-ac2d-94af4e4d3d13"},"vehicle_type_id":"4","last_reported":1777120704,"current_range_meters":9200,"station_id":"ce4bhi12rcd13ifvqfq0","pricing_plan_id":"cebpf4jnsgd1na2vs0mg"},{"bike_id":"0cd2fd7c-6402-466e-aa1b-fa186d7a7ed3","system_id":"levelo_inurba_marseille","lat":43.33194,"lon":5.37792,"is_reserved":false,"is_disabled":false,"rental_uris":{"android":"levelo://app?vid=0cd2fd7c-6402-466e-aa1b-fa186d7a7ed3","ios":"levelo://app?vid=0cd2fd7c-6402-466e-aa1b-fa186d7a7ed3"},"vehicle_type_id":"4","last_reported":1777120704,"current_range_meters":9200,"station_id":"","pricing_plan_id":"cebpf4jnsgd1na2vs0mg"},{"bike_id":"adc6061c-7968-465f-b141-f084abd57b66","system_id":"levelo_inurba_marseille","lat":43.22535,"lon":5.34816,"is_reserved":false,"is_disabled":false,"rental_uris":{"android":"levelo://app?vid=adc6061c-7968-465f-b141-f084abd57b66","ios":"levelo://app?vid=adc6061c-7968-465f-b141-f084abd57b66"},"vehicle_type_id":"4","last_reported":1777120704,"current_range_meters":9200,"station_id":"st_cvj5dfep6f1abm77gieg","pricing_plan_id":"cebpf4jnsgd1na2vs0mg"},{"bike_id":"359f1439-8fc7-47d5-88a4-ed2279430f08","system_id":"levelo_inurba_marseille","lat":43.27613,"lon":5.36093,"is_reserved":false,"is_disabled":false,"rental_uris":{"android":"levelo://app?vid=359f1439-8fc7-47d5-88a4-ed2279430f08","ios":"levelo://app?vid=359f1439-8fc7-47d5-88a4-ed2279430f08"},"vehicle_type_id":"4","last_reported":1777120704,"current_range_meters":9200,"station_id":"ce4bgj92rcd13ifvqbe0","pricing_plan_id":"cebpf4jnsgd1na2vs0mg"},{"bike_id":"ca334ed4-98d4-49e1-8705-3040ea841cac","system_id":"levelo_inurba_marseille","lat":43.2867,"lon":5.38664,"is_reserved":false,"is_disabled":false,"rental_uris":{"android":"levelo://app?vid=ca334ed4-98d4-49e1-8705-3040ea841cac","ios":"levelo://app?vid=ca334ed4-98d4-49e1-8705-3040ea841cac"},"vehicle_type_id":"4","last_reported":1777120704,"current_range_meters":9200,"station_id":"ce4bh492rcd13ifvqdug","pricing_plan_id":"cebpf4jnsgd1na2vs0mg"},{"bike_id":"186f4b0f-d0d4-4100-89c7-042d5e581462","system_id":"levelo_inurba_marseille","lat":43.232,"lon":5.35549,"is_reserved":false,"is_disabled":false,"rental_uris":{"android":"levelo://app?vid=186f4b0f-d0d4-4100-89c7-042d5e581462","ios":"levelo://app?vid=186f4b0f-d0d4-4100-89c7-042d5e581462"},"vehicle_type_id":"4","last_reported":1777120704,"current_range_meters":9200,"station_id":"ce4bhu92rcd13ifvqi70","pricing_plan_id":"cebpf4jnsgd1na2vs0mg"},{"bike_id":"5d3fd44c-b59d-41d4-a478-9d5eb2e2ef58","system_id":"levelo_inurba_marseille","lat":43.30374,"lon":5.42485,"is_reserved":false,"is_disabled":false,"rental_uris":{"android":"levelo://app?vid=5d3fd44c-b59d-41d4-a478-9d5eb2e2ef58","ios":"levelo://app?vid=5d3fd44c-b59d-41d4-a478-9d5eb2e2ef58"},"vehicle_type_id":"4","last_reported":1777120704,"current_range_meters":9200,"station_id":"ce4bhoh2rcd13ifvqh6g","pricing_plan_id":"cebpf4jnsgd1na2vs0mg"},{"bike_id":"93bd5723-b50b-4151-82ea-a453023635ae","system_id":"levelo_inurba_marseille","lat":43.28274,"lon":5.35074,"is_reserved":false,"is_disabled":false,"rental_uris":{"android":"levelo://app?vid=93bd5723-b50b-4151-82ea-a453023635ae","ios":"levelo://app?vid=93bd5723-b50b-4151-82ea-a453023635ae"},"vehicle_type_id":"4","last_reported":1777120704,"current_range_meters":9200,"station_id":"ce4bhbp2rcd13ifvqerg","pricing_plan_id":"cebpf4jnsgd1na2vs0mg"},{"bike_id":"d0984cfb-9c9d-4419-9ad5-d07e748969a2","system_id":"levelo_inurba_marseille","lat":43.26548,"lon":5.37276,"is_reserved":false,"is_disabled":false,"rental_uris":{"android":"levelo://app?vid=d0984cfb-9c9d-4419-9ad5-d07e748969a2","ios":"levelo://app?vid=d0984cfb-9c9d-4419-9ad5-d07e748969a2"},"vehicle_type_id":"4","last_reported":1777120704,"current_range_meters":9200,"station_id":"ce4bhg12rcd13ifvqf70","pricing_plan_id":"cebpf4jnsgd1na2vs0mg"},{"bike_id":"50c4373a-8240-4f4a-b3ae-bc291c9774e1","system_id":"levelo_inurba_marseille","lat":43.30143,"lon":5.37415,"is_reserved":false,"is_disabled":false,"rental_uris":{"android":"levelo://app?vid=50c4373a-8240-4f4a-b3ae-bc291c9774e1","ios":"levelo://app?vid=50c4373a-8240-4f4a-b3ae-bc291c9774e1"},"vehicle_type_id":"4","last_reported":1777120704,"current_range_meters":9200,"station_id":"ce4bgs92rcd13ifvqcc0","pricing_plan_id":"cebpf4jnsgd1na2vs0mg"},{"bike_id":"78f5b0da-7ef9-451f-b7a0-89eb969d26f6","system_id":"levelo_inurba_marseille","lat":43.29927,"lon":5.37462,"is_reserved":false,"is_disabled":false,"rental_uris":{"android":"levelo://app?vid=78f5b0da-7ef9-451f-b7a0-89eb969d26f6","ios":"levelo://app?vid=78f5b0da-7ef9-451f-b7a0-89eb969d26f6"},"vehicle_type_id":"4","last_reported":1777120704,"current_range_meters":9200,"station_id":"ce4bgjh2rcd13ifvqbg0","pricing_plan_id":"cebpf4jnsgd1na2vs0mg"},{"bike_id":"26669f21-c2bc-4bde-9041-60db37f3e93e","system_id":"levelo_inurba_marseille","lat":43.25575,"lon":5.38218,"is_reserved":false,"is_disabled":true,"rental_uris":{"android":"levelo://app?vid=26669f21-c2bc-4bde-9041-60db37f3e93e","ios":"levelo://app?vid=26669f21-c2bc-4bde-9041-60db37f3e93e"},"vehicle_type_id":"4","last_reported":1777120704,"current_range_meters":9200,"station_id":"ce4bhih2rcd13ifvqfs0","pricing_plan_id":"cebpf4jnsgd1na2vs0mg"},{"bike_id":"06558e5b-846f-4e20-b375-c8972d75dc5a","system_id":"levelo_inurba_marseille","lat":43.27348,"lon":5.43102,"is_reserved":false,"is_disabled":false,"rental_uris":{"android":"levelo://app?vid=06558e5b-846f-4e20-b375-c8972d75dc5a","ios":"levelo://app?vid=06558e5b-846f-4e20-b375-c8972d75dc5a"},"vehicle_type_id":"4","last_reported":1777120704,"current_range_meters":9200,"station_id":"","pricing_plan_id":"cebpf4jnsgd1na2vs0mg"},{"bike_id":"a04d60df-414e-4af4-864e-5afd610894db","system_id":"levelo_inurba_marseille","lat":43.30196,"lon":5.38061,"is_reserved":false,"is_disabled":false,"rental_uris":{"android":"levelo://app?vid=a04d60df-414e-4af4-864e-5afd610894db","ios":"levelo://app?vid=a04d60df-414e-4af4-864e-5afd610894db"},"vehicle_type_id":"4","last_reported":1777120704,"current_range_meters":9200,"station_id":"","pricing_plan_id":"cebpf4jnsgd1na2vs0mg"},{"bike_id":"331aed36-1bf5-4901-b2f4-ca1bfe5bd1c0","system_id":"levelo_inurba_marseille","lat":43.21189,"lon":5.35067,"is_reserved":false,"is_disabled":false,"rental_uris":{"android":"levelo://app?vid=331aed36-1bf5-4901-b2f4-ca1bfe5bd1c0","ios":"levelo://app?vid=331aed36-1bf5-4901-b2f4-ca1bfe5bd1c0"},"vehicle_type_id":"4","last_reported":1777120704,"current_range_meters":9200,"station_id":"st_cvj6sg6p6f1abm77japg","pricing_plan_id":"cebpf4jnsgd1na2vs0mg"},{"bike_id":"fd08bed3-4bcd-4c7c-9299-bff5b6dac1a6","system_id":"levelo_inurba_marseille","lat":43.30151,"lon":5.38073,"is_reserved":false,"is_disabled":false,"rental_uris":{"android":"levelo://app?vid=fd08bed3-4bcd-4c7c-9299-bff5b6dac1a6","ios":"levelo://app?vid=fd08bed3-4bcd-4c7c-9299-bff5b6dac1a6"},"vehicle_type_id":"4","last_reported":1777120704,"current_range_meters":9200,"station_id":"ce4bgjp2rcd13ifvqbh0","pricing_plan_id":"cebpf4jnsgd1na2vs0mg"},{"bike_id":"648bc781-8e68-4ccd-aedc-987a153e904f","system_id":"levelo_inurba_marseille","lat":43.29265,"lon":5.38457,"is_reserved":false,"is_disabled":false,"rental_uris":{"android":"levelo://app?vid=648bc781-8e68-4ccd-aedc-987a153e904f","ios":"levelo://app?vid=648bc781-8e68-4ccd-aedc-987a153e904f"},"vehicle_type_id":"4","last_reported":1777120704,"current_range_meters":9200,"station_id":"ce4bh692rcd13ifvqea0","pricing_plan_id":"cebpf4jnsgd1na2vs0mg"},{"bike_id":"e79bde01-2f2e-4687-9114-2908a926683e","system_id":"levelo_inurba_marseille","lat":43.33542,"lon":5.37466,"is_reserved":false,"is_disabled":false,"rental_uris":{"android":"levelo://app?vid=e79bde01-2f2e-4687-9114-2908a926683e","ios":"levelo://app?vid=e79bde01-2f2e-4687-9114-2908a926683e"},"vehicle_type_id":"4","last_reported":1777120704,"current_range_meters":9200,"station_id":"st_d46tts09ee8s73dlu43g","pricing_plan_id":"cebpf4jnsgd1na2vs0mg"},{"bike_id":"d3fc06ed-a4a6-4ebd-a012-f82f411a860e","system_id":"levelo_inurba_marseille","lat":43.21192,"lon":5.3505,"is_reserved":false,"is_disabled":false,"rental_uris":{"android":"levelo://app?vid=d3fc06ed-a4a6-4ebd-a012-f82f411a860e","ios":"levelo://app?vid=d3fc06ed-a4a6-4ebd-a012-f82f411a860e"},"vehicle_type_id":"4","last_reported":1777120704,"current_range_meters":9200,"station_id":"st_cvj6sg6p6f1abm77japg","pricing_plan_id":"cebpf4jnsgd1na2vs0mg"},{"bike_id":"e788ca34-60df-4b1c-a1a5-a422788eab30","system_id":"levelo_inurba_marseille","lat":43.30384,"lon":5.42469,"is_reserved":false,"is_disabled":false,"rental_uris":{"android":"levelo://app?vid=e788ca34-60df-4b1c-a1a5-a422788eab30","ios":"levelo://app?vid=e788ca34-60df-4b1c-a1a5-a422788eab30"},"vehicle_type_id":"4","last_reported":1777120704,"current_range_meters":9200,"station_id":"ce4bhoh2rcd13ifvqh6g","pricing_plan_id":"cebpf4jnsgd1na2vs0mg"},{"bike_id":"bce6b424-5434-4a5e-b71a-5a803fa5a237","system_id":"levelo_inurba_marseille","lat":43.21742,"lon":5.34593,"is_reserved":false,"is_disabled":false,"rental_uris":{"android":"levelo://app?vid=bce6b424-5434-4a5e-b71a-5a803fa5a237","ios":"levelo://app?vid=bce6b424-5434-4a5e-b71a-5a803fa5a237"},"vehicle_type_id":"4","last_reported":1777120704,"current_range_meters":9200,"station_id":"st_cvj6r9ubvosntc0bgbag","pricing_plan_id":"cebpf4jnsgd1na2vs0mg"},{"bike_id":"1544aa86-eb69-4f7e-b953-5a1cf15f011e","system_id":"levelo_inurba_marseille","lat":43.29616,"lon":5.3773,"is_reserved":false,"is_disabled":false,"rental_uris":{"android":"levelo://app?vid=1544aa86-eb69-4f7e-b953-5a1cf15f011e","ios":"levelo://app?vid=1544aa86-eb69-4f7e-b953-5a1cf15f011e"},"vehicle_type_id":"4","last_reported":1777120704,"current_range_meters":9200,"station_id":"ce4bgi92rcd13ifvqb90","pricing_plan_id":"cebpf4jnsgd1na2vs0mg"},{"bike_id":"0e1e4521-1dac-4c01-872a-f09f1790ab28","system_id":"levelo_inurba_marseille","lat":43.24652,"lon":5.3887,"is_reserved":false,"is_disabled":false,"rental_uris":{"android":"levelo://app?vid=0e1e4521-1dac-4c01-872a-f09f1790ab28","ios":"levelo://app?vid=0e1e4521-1dac-4c01-872a-f09f1790ab28"},"vehicle_type_id":"4","last_reported":1777120704,"current_range_meters":9200,"station_id":"ce4bhg12rcd13ifvqf60","pricing_plan_id":"cebpf4jnsgd1na2vs0mg"},{"bike_id":"e7760414-c99e-4edb-8d77-254918982c51","system_id":"levelo_inurba_marseille","lat":43.280813,"lon":5.396654,"is_reserved":false,"is_disabled":false,"rental_uris":{"android":"levelo://app?vid=e7760414-c99e-4edb-8d77-254918982c51","ios":"levelo://app?vid=e7760414-c99e-4edb-8d77-254918982c51"},"vehicle_type_id":"4","last_reported":1777120704,"current_range_meters":9600,"station_id":"ce4bho12rcd13ifvqh2g","pricing_plan_id":"cebpf4jnsgd1na2vs0mg"},{"bike_id":"a7abb83b-d8f7-4b04-81c9-42ce1f31f52a","system_id":"levelo_inurba_marseille","lat":43.27624,"lon":5.36096,"is_reserved":false,"is_disabled":false,"rental_uris":{"android":"levelo://app?vid=a7abb83b-d8f7-4b04-81c9-42ce1f31f52a","ios":"levelo://app?vid=a7abb83b-d8f7-4b04-81c9-42ce1f31f52a"},"vehicle_type_id":"4","last_reported":1777120704,"current_range_meters":9600,"station_id":"ce4bgj92rcd13ifvqbe0","pricing_plan_id":"cebpf4jnsgd1na2vs0mg"},{"bike_id":"4cd72995-c6bd-4cb8-9c20-b6bd0f4debc1","system_id":"levelo_inurba_marseille","lat":43.28956,"lon":5.3639,"is_reserved":false,"is_disabled":true,"rental_uris":{"android":"levelo://app?vid=4cd72995-c6bd-4cb8-9c20-b6bd0f4debc1","ios":"levelo://app?vid=4cd72995-c6bd-4cb8-9c20-b6bd0f4debc1"},"vehicle_type_id":"4","last_reported":1777120704,"current_range_meters":9600,"station_id":"ce4bhc92rcd13ifvqetg","pricing_plan_id":"cebpf4jnsgd1na2vs0mg"},{"bike_id":"81203af8-f094-4005-b00a-005251b3643f","system_id":"levelo_inurba_marseille","lat":43.26216,"lon":5.37888,"is_reserved":false,"is_disabled":false,"rental_uris":{"android":"levelo://app?vid=81203af8-f094-4005-b00a-005251b3643f","ios":"levelo://app?vid=81203af8-f094-4005-b00a-005251b3643f"},"vehicle_type_id":"4","last_reported":1777120704,"current_range_meters":9600,"station_id":"ce4bhjp2rcd13ifvqg90","pricing_plan_id":"cebpf4jnsgd1na2vs0mg"},{"bike_id":"0cecc3df-c332-46b4-bd80-b4b86dbc5ecb","system_id":"levelo_inurba_marseille","lat":43.273691,"lon":5.362571,"is_reserved":false,"is_disabled":false,"rental_uris":{"android":"levelo://app?vid=0cecc3df-c332-46b4-bd80-b4b86dbc5ecb","ios":"levelo://app?vid=0cecc3df-c332-46b4-bd80-b4b86dbc5ecb"},"vehicle_type_id":"4","last_reported":1777120704,"current_range_meters":9600,"station_id":"ce4bhbh2rcd13ifvqeo0","pricing_plan_id":"cebpf4jnsgd1na2vs0mg"},{"bike_id":"e9caee44-b787-4c36-a632-4bd6c1ec7cfa","system_id":"levelo_inurba_marseille","lat":43.28484,"lon":5.48407,"is_reserved":false,"is_disabled":false,"rental_uris":{"android":"levelo://app?vid=e9caee44-b787-4c36-a632-4bd6c1ec7cfa","ios":"levelo://app?vid=e9caee44-b787-4c36-a632-4bd6c1ec7cfa"},"vehicle_type_id":"4","last_reported":1777120704,"current_range_meters":9600,"station_id":"st_d3svhcjqgbts73a3dn0g","pricing_plan_id":"cebpf4jnsgd1na2vs0mg"},{"bike_id":"d3e9b620-cd42-4df4-8fae-e98a466e75fe","system_id":"levelo_inurba_marseille","lat":43.25584,"lon":5.3822,"is_reserved":false,"is_disabled":false,"rental_uris":{"android":"levelo://app?vid=d3e9b620-cd42-4df4-8fae-e98a466e75fe","ios":"levelo://app?vid=d3e9b620-cd42-4df4-8fae-e98a466e75fe"},"vehicle_type_id":"4","last_reported":1777120704,"current_range_meters":9600,"station_id":"ce4bhih2rcd13ifvqfs0","pricing_plan_id":"cebpf4jnsgd1na2vs0mg"},{"bike_id":"4a916460-b297-4ba3-961b-0a35e0ef84dc","system_id":"levelo_inurba_marseille","lat":43.26548,"lon":5.37297,"is_reserved":false,"is_disabled":false,"rental_uris":{"android":"levelo://app?vid=4a916460-b297-4ba3-961b-0a35e0ef84dc","ios":"levelo://app?vid=4a916460-b297-4ba3-961b-0a35e0ef84dc"},"vehicle_type_id":"4","last_reported":1777120704,"current_range_meters":9600,"station_id":"ce4bhg12rcd13ifvqf70","pricing_plan_id":"cebpf4jnsgd1na2vs0mg"},{"bike_id":"01ab20ba-1010-4f3e-8686-567609147797","system_id":"levelo_inurba_marseille","lat":43.30164,"lon":5.38069,"is_reserved":false,"is_disabled":false,"rental_uris":{"android":"levelo://app?vid=01ab20ba-1010-4f3e-8686-567609147797","ios":"levelo://app?vid=01ab20ba-1010-4f3e-8686-567609147797"},"vehicle_type_id":"4","last_reported":1777120704,"current_range_meters":9600,"station_id":"ce4bgjp2rcd13ifvqbh0","pricing_plan_id":"cebpf4jnsgd1na2vs0mg"},{"bike_id":"7c6f5d31-a587-415f-8cb8-7c50045d3add","system_id":"levelo_inurba_marseille","lat":43.23151,"lon":5.43711,"is_reserved":false,"is_disabled":false,"rental_uris":{"android":"levelo://app?vid=7c6f5d31-a587-415f-8cb8-7c50045d3add","ios":"levelo://app?vid=7c6f5d31-a587-415f-8cb8-7c50045d3add"},"vehicle_type_id":"4","last_reported":1777120704,"current_range_meters":9600,"station_id":"ce4bhmp2rcd13ifvqgog","pricing_plan_id":"cebpf4jnsgd1na2vs0mg"},{"bike_id":"fda983b3-301e-40f3-bb07-e5c67ab620e4","system_id":"levelo_inurba_marseille","lat":43.25091,"lon":5.40465,"is_reserved":false,"is_disabled":false,"rental_uris":{"android":"levelo://app?vid=fda983b3-301e-40f3-bb07-e5c67ab620e4","ios":"levelo://app?vid=fda983b3-301e-40f3-bb07-e5c67ab620e4"},"vehicle_type_id":"4","last_reported":1777120704,"current_range_meters":9600,"station_id":"","pricing_plan_id":"cebpf4jnsgd1na2vs0mg"},{"bike_id":"3833eaec-fd7f-4fbe-8fe3-066d011f3340","system_id":"levelo_inurba_marseille","lat":43.24167,"lon":5.36394,"is_reserved":false,"is_disabled":false,"rental_uris":{"android":"levelo://app?vid=3833eaec-fd7f-4fbe-8fe3-066d011f3340","ios":"levelo://app?vid=3833eaec-fd7f-4fbe-8fe3-066d011f3340"},"vehicle_type_id":"4","last_reported":1777120704,"current_range_meters":9600,"station_id":"cpo36qri1sfpv3e86is0","pricing_plan_id":"cebpf4jnsgd1na2vs0mg"},{"bike_id":"624ad92d-de25-4b22-a09d-02c1f4de90a4","system_id":"levelo_inurba_marseille","lat":43.30539,"lon":5.36699,"is_reserved":false,"is_disabled":false,"rental_uris":{"android":"levelo://app?vid=624ad92d-de25-4b22-a09d-02c1f4de90a4","ios":"levelo://app?vid=624ad92d-de25-4b22-a09d-02c1f4de90a4"},"vehicle_type_id":"4","last_reported":1777120704,"current_range_meters":9600,"station_id":"ce4bgrp2rcd13ifvqc9g","pricing_plan_id":"cebpf4jnsgd1na2vs0mg"},{"bike_id":"f1cffc7b-9140-4f3f-acd5-1357e8e47054","system_id":"levelo_inurba_marseille","lat":43.22532,"lon":5.34822,"is_reserved":false,"is_disabled":false,"rental_uris":{"android":"levelo://app?vid=f1cffc7b-9140-4f3f-acd5-1357e8e47054","ios":"levelo://app?vid=f1cffc7b-9140-4f3f-acd5-1357e8e47054"},"vehicle_type_id":"4","last_reported":1777120704,"current_range_meters":9600,"station_id":"st_cvj5dfep6f1abm77gieg","pricing_plan_id":"cebpf4jnsgd1na2vs0mg"},{"bike_id":"05a33fd5-e436-4ad0-a907-865e546c41d5","system_id":"levelo_inurba_marseille","lat":43.22554,"lon":5.41613,"is_reserved":false,"is_disabled":true,"rental_uris":{"android":"levelo://app?vid=05a33fd5-e436-4ad0-a907-865e546c41d5","ios":"levelo://app?vid=05a33fd5-e436-4ad0-a907-865e546c41d5"},"vehicle_type_id":"4","last_reported":1777120704,"current_range_meters":9600,"station_id":"","pricing_plan_id":"cebpf4jnsgd1na2vs0mg"},{"bike_id":"24d411c4-fc5d-4bbf-addd-556fe567d3ca","system_id":"levelo_inurba_marseille","lat":43.24191,"lon":5.39721,"is_reserved":false,"is_disabled":false,"rental_uris":{"android":"levelo://app?vid=24d411c4-fc5d-4bbf-addd-556fe567d3ca","ios":"levelo://app?vid=24d411c4-fc5d-4bbf-addd-556fe567d3ca"},"vehicle_type_id":"4","last_reported":1777120704,"current_range_meters":9600,"station_id":"ce4bhn12rcd13ifvqgpg","pricing_plan_id":"cebpf4jnsgd1na2vs0mg"},{"bike_id":"0cc06d59-5ae6-4f36-9963-6b66375264f1","system_id":"levelo_inurba_marseille","lat":43.29597,"lon":5.3695,"is_reserved":false,"is_disabled":false,"rental_uris":{"android":"levelo://app?vid=0cc06d59-5ae6-4f36-9963-6b66375264f1","ios":"levelo://app?vid=0cc06d59-5ae6-4f36-9963-6b66375264f1"},"vehicle_type_id":"4","last_reported":1777120704,"current_range_meters":9600,"station_id":"","pricing_plan_id":"cebpf4jnsgd1na2vs0mg"},{"bike_id":"44bc0f63-0d76-4bdf-9906-744e47f7eaf2","system_id":"levelo_inurba_marseille","lat":43.29692,"lon":5.36614,"is_reserved":false,"is_disabled":false,"rental_uris":{"android":"levelo://app?vid=44bc0f63-0d76-4bdf-9906-744e47f7eaf2","ios":"levelo://app?vid=44bc0f63-0d76-4bdf-9906-744e47f7eaf2"},"vehicle_type_id":"4","last_reported":1777120704,"current_range_meters":9600,"station_id":"ce4bgn12rcd13ifvqbt0","pricing_plan_id":"cebpf4jnsgd1na2vs0mg"},{"bike_id":"0de1c0c8-6ec1-4467-a28d-0256f7be986a","system_id":"levelo_inurba_marseille","lat":43.30537,"lon":5.36542,"is_reserved":false,"is_disabled":false,"rental_uris":{"android":"levelo://app?vid=0de1c0c8-6ec1-4467-a28d-0256f7be986a","ios":"levelo://app?vid=0de1c0c8-6ec1-4467-a28d-0256f7be986a"},"vehicle_type_id":"4","last_reported":1777120704,"current_range_meters":9600,"station_id":"ce4bgs12rcd13ifvqcag","pricing_plan_id":"cebpf4jnsgd1na2vs0mg"},{"bike_id":"5fdff1d7-b2d7-4e39-ad7f-00ed09411d1d","system_id":"levelo_inurba_marseille","lat":43.28498,"lon":5.48363,"is_reserved":false,"is_disabled":false,"rental_uris":{"android":"levelo://app?vid=5fdff1d7-b2d7-4e39-ad7f-00ed09411d1d","ios":"levelo://app?vid=5fdff1d7-b2d7-4e39-ad7f-00ed09411d1d"},"vehicle_type_id":"4","last_reported":1777120704,"current_range_meters":10000,"station_id":"st_d3svhcjqgbts73a3dn0g","pricing_plan_id":"cebpf4jnsgd1na2vs0mg"},{"bike_id":"f17951b1-f52d-4f5c-9dce-dd5bd0cff11e","system_id":"levelo_inurba_marseille","lat":43.25496,"lon":5.37615,"is_reserved":false,"is_disabled":false,"rental_uris":{"android":"levelo://app?vid=f17951b1-f52d-4f5c-9dce-dd5bd0cff11e","ios":"levelo://app?vid=f17951b1-f52d-4f5c-9dce-dd5bd0cff11e"},"vehicle_type_id":"4","last_reported":1777120704,"current_range_meters":10000,"station_id":"ce4bhh12rcd13ifvqff0","pricing_plan_id":"cebpf4jnsgd1na2vs0mg"},{"bike_id":"b1ebae01-d0d5-4c49-869c-0e77b40a16eb","system_id":"levelo_inurba_marseille","lat":43.21195,"lon":5.35041,"is_reserved":false,"is_disabled":false,"rental_uris":{"android":"levelo://app?vid=b1ebae01-d0d5-4c49-869c-0e77b40a16eb","ios":"levelo://app?vid=b1ebae01-d0d5-4c49-869c-0e77b40a16eb"},"vehicle_type_id":"4","last_reported":1777120704,"current_range_meters":10000,"station_id":"st_cvj6sg6p6f1abm77japg","pricing_plan_id":"cebpf4jnsgd1na2vs0mg"},{"bike_id":"1fa7c290-baf4-43ed-aa99-7181dabef99e","system_id":"levelo_inurba_marseille","lat":43.3353,"lon":5.37499,"is_reserved":false,"is_disabled":false,"rental_uris":{"android":"levelo://app?vid=1fa7c290-baf4-43ed-aa99-7181dabef99e","ios":"levelo://app?vid=1fa7c290-baf4-43ed-aa99-7181dabef99e"},"vehicle_type_id":"4","last_reported":1777120704,"current_range_meters":10000,"station_id":"st_d46tts09ee8s73dlu43g","pricing_plan_id":"cebpf4jnsgd1na2vs0mg"},{"bike_id":"2dfec06b-6889-4730-b649-699505e31ac2","system_id":"levelo_inurba_marseille","lat":43.28191,"lon":5.42608,"is_reserved":false,"is_disabled":false,"rental_uris":{"android":"levelo://app?vid=2dfec06b-6889-4730-b649-699505e31ac2","ios":"levelo://app?vid=2dfec06b-6889-4730-b649-699505e31ac2"},"vehicle_type_id":"4","last_reported":1777120704,"current_range_meters":10000,"station_id":"ce4bhnh2rcd13ifvqgug","pricing_plan_id":"cebpf4jnsgd1na2vs0mg"},{"bike_id":"70578acc-b935-4f77-be23-bcde1db99b26","system_id":"levelo_inurba_marseille","lat":43.29794,"lon":5.38155,"is_reserved":false,"is_disabled":false,"rental_uris":{"android":"levelo://app?vid=70578acc-b935-4f77-be23-bcde1db99b26","ios":"levelo://app?vid=70578acc-b935-4f77-be23-bcde1db99b26"},"vehicle_type_id":"4","last_reported":1777120704,"current_range_meters":10000,"station_id":"ce4bgip2rcd13ifvqbb0","pricing_plan_id":"cebpf4jnsgd1na2vs0mg"},{"bike_id":"81cfffe2-4477-4769-b5f1-cc928950e40f","system_id":"levelo_inurba_marseille","lat":43.24067,"lon":5.37754,"is_reserved":false,"is_disabled":false,"rental_uris":{"android":"levelo://app?vid=81cfffe2-4477-4769-b5f1-cc928950e40f","ios":"levelo://app?vid=81cfffe2-4477-4769-b5f1-cc928950e40f"},"vehicle_type_id":"4","last_reported":1777120704,"current_range_meters":10000,"station_id":"ce4bhnp2rcd13ifvqgvg","pricing_plan_id":"cebpf4jnsgd1na2vs0mg"},{"bike_id":"6b60b3c8-da35-492c-9411-418199a97ad7","system_id":"levelo_inurba_marseille","lat":43.28485,"lon":5.48343,"is_reserved":false,"is_disabled":false,"rental_uris":{"android":"levelo://app?vid=6b60b3c8-da35-492c-9411-418199a97ad7","ios":"levelo://app?vid=6b60b3c8-da35-492c-9411-418199a97ad7"},"vehicle_type_id":"4","last_reported":1777120704,"current_range_meters":10000,"station_id":"","pricing_plan_id":"cebpf4jnsgd1na2vs0mg"},{"bike_id":"5fedcc76-d8b1-4c66-8ec0-a965f3ee71e1","system_id":"levelo_inurba_marseille","lat":43.28457,"lon":5.38385,"is_reserved":false,"is_disabled":true,"rental_uris":{"android":"levelo://app?vid=5fedcc76-d8b1-4c66-8ec0-a965f3ee71e1","ios":"levelo://app?vid=5fedcc76-d8b1-4c66-8ec0-a965f3ee71e1"},"vehicle_type_id":"4","last_reported":1777120704,"current_range_meters":10000,"station_id":"ce4bh512rcd13ifvqe3g","pricing_plan_id":"cebpf4jnsgd1na2vs0mg"},{"bike_id":"4cfd627a-de69-45ae-84dd-17efdefd3e66","system_id":"levelo_inurba_marseille","lat":43.26542,"lon":5.37288,"is_reserved":false,"is_disabled":false,"rental_uris":{"android":"levelo://app?vid=4cfd627a-de69-45ae-84dd-17efdefd3e66","ios":"levelo://app?vid=4cfd627a-de69-45ae-84dd-17efdefd3e66"},"vehicle_type_id":"4","last_reported":1777120704,"current_range_meters":10000,"station_id":"ce4bhg12rcd13ifvqf70","pricing_plan_id":"cebpf4jnsgd1na2vs0mg"},{"bike_id":"20bc5234-0759-49c0-8835-ac191c8a95c8","system_id":"levelo_inurba_marseille","lat":43.28613,"lon":5.35092,"is_reserved":false,"is_disabled":true,"rental_uris":{"android":"levelo://app?vid=20bc5234-0759-49c0-8835-ac191c8a95c8","ios":"levelo://app?vid=20bc5234-0759-49c0-8835-ac191c8a95c8"},"vehicle_type_id":"4","last_reported":1777120704,"current_range_meters":10000,"station_id":"ce4bhch2rcd13ifvqeug","pricing_plan_id":"cebpf4jnsgd1na2vs0mg"},{"bike_id":"4b311f86-9f0e-48bd-aa65-497dca56bb64","system_id":"levelo_inurba_marseille","lat":43.30301,"lon":5.39205,"is_reserved":false,"is_disabled":false,"rental_uris":{"android":"levelo://app?vid=4b311f86-9f0e-48bd-aa65-497dca56bb64","ios":"levelo://app?vid=4b311f86-9f0e-48bd-aa65-497dca56bb64"},"vehicle_type_id":"4","last_reported":1777120704,"current_range_meters":10000,"station_id":"ce4bgkh2rcd13ifvqbk0","pricing_plan_id":"cebpf4jnsgd1na2vs0mg"},{"bike_id":"c326efe2-d884-4246-aa19-383d3a00aef4","system_id":"levelo_inurba_marseille","lat":43.30769,"lon":5.37638,"is_reserved":false,"is_disabled":false,"rental_uris":{"android":"levelo://app?vid=c326efe2-d884-4246-aa19-383d3a00aef4","ios":"levelo://app?vid=c326efe2-d884-4246-aa19-383d3a00aef4"},"vehicle_type_id":"4","last_reported":1777120704,"current_range_meters":10000,"station_id":"ce4bgv92rcd13ifvqcq0","pricing_plan_id":"cebpf4jnsgd1na2vs0mg"},{"bike_id":"559900ee-a809-4515-a99a-f9cd60df4cc4","system_id":"levelo_inurba_marseille","lat":43.21738,"lon":5.34606,"is_reserved":false,"is_disabled":false,"rental_uris":{"android":"levelo://app?vid=559900ee-a809-4515-a99a-f9cd60df4cc4","ios":"levelo://app?vid=559900ee-a809-4515-a99a-f9cd60df4cc4"},"vehicle_type_id":"4","last_reported":1777120704,"current_range_meters":10000,"station_id":"st_cvj6r9ubvosntc0bgbag","pricing_plan_id":"cebpf4jnsgd1na2vs0mg"},{"bike_id":"cd56655a-d5af-4775-b8ea-49b2e804a093","system_id":"levelo_inurba_marseille","lat":43.29253,"lon":5.3841,"is_reserved":false,"is_disabled":false,"rental_uris":{"android":"levelo://app?vid=cd56655a-d5af-4775-b8ea-49b2e804a093","ios":"levelo://app?vid=cd56655a-d5af-4775-b8ea-49b2e804a093"},"vehicle_type_id":"4","last_reported":1777120704,"current_range_meters":10000,"station_id":"","pricing_plan_id":"cebpf4jnsgd1na2vs0mg"},{"bike_id":"a4387cc1-f8cc-4198-ab15-b167e7eac2c6","system_id":"levelo_inurba_marseille","lat":43.2348,"lon":5.35901,"is_reserved":false,"is_disabled":false,"rental_uris":{"android":"levelo://app?vid=a4387cc1-f8cc-4198-ab15-b167e7eac2c6","ios":"levelo://app?vid=a4387cc1-f8cc-4198-ab15-b167e7eac2c6"},"vehicle_type_id":"4","last_reported":1777120704,"current_range_meters":10000,"station_id":"","pricing_plan_id":"cebpf4jnsgd1na2vs0mg"},{"bike_id":"7bfad3df-98d6-40bd-9e53-0ab108024463","system_id":"levelo_inurba_marseille","lat":43.24808,"lon":5.37452,"is_reserved":false,"is_disabled":false,"rental_uris":{"android":"levelo://app?vid=7bfad3df-98d6-40bd-9e53-0ab108024463","ios":"levelo://app?vid=7bfad3df-98d6-40bd-9e53-0ab108024463"},"vehicle_type_id":"4","last_reported":1777120704,"current_range_meters":10000,"station_id":"ce4bhgh2rcd13ifvqfb0","pricing_plan_id":"cebpf4jnsgd1na2vs0mg"},{"bike_id":"f8bc47b0-d414-485a-9f6f-d2f9a06185ec","system_id":"levelo_inurba_marseille","lat":43.27535,"lon":5.42409,"is_reserved":false,"is_disabled":false,"rental_uris":{"android":"levelo://app?vid=f8bc47b0-d414-485a-9f6f-d2f9a06185ec","ios":"levelo://app?vid=f8bc47b0-d414-485a-9f6f-d2f9a06185ec"},"vehicle_type_id":"4","last_reported":1777120704,"current_range_meters":10000,"station_id":"","pricing_plan_id":"cebpf4jnsgd1na2vs0mg"},{"bike_id":"2cb83ed9-5bee-4aed-afe0-9bb8d8c242dd","system_id":"levelo_inurba_marseille","lat":43.25577,"lon":5.38226,"is_reserved":false,"is_disabled":false,"rental_uris":{"android":"levelo://app?vid=2cb83ed9-5bee-4aed-afe0-9bb8d8c242dd","ios":"levelo://app?vid=2cb83ed9-5bee-4aed-afe0-9bb8d8c242dd"},"vehicle_type_id":"4","last_reported":1777120704,"current_range_meters":10000,"station_id":"ce4bhih2rcd13ifvqfs0","pricing_plan_id":"cebpf4jnsgd1na2vs0mg"},{"bike_id":"f7716b3d-5dc6-4c1f-94ea-dd8b69d23a22","system_id":"levelo_inurba_marseille","lat":43.27464,"lon":5.43509,"is_reserved":false,"is_disabled":false,"rental_uris":{"android":"levelo://app?vid=f7716b3d-5dc6-4c1f-94ea-dd8b69d23a22","ios":"levelo://app?vid=f7716b3d-5dc6-4c1f-94ea-dd8b69d23a22"},"vehicle_type_id":"4","last_reported":1777120704,"current_range_meters":10000,"station_id":"","pricing_plan_id":"cebpf4jnsgd1na2vs0mg"},{"bike_id":"da777b74-9725-4dce-a8da-8ea337840652","system_id":"levelo_inurba_marseille","lat":43.21755,"lon":5.34609,"is_reserved":false,"is_disabled":false,"rental_uris":{"android":"levelo://app?vid=da777b74-9725-4dce-a8da-8ea337840652","ios":"levelo://app?vid=da777b74-9725-4dce-a8da-8ea337840652"},"vehicle_type_id":"4","last_reported":1777120704,"current_range_meters":10000,"station_id":"st_cvj6r9ubvosntc0bgbag","pricing_plan_id":"cebpf4jnsgd1na2vs0mg"},{"bike_id":"2f13e475-7dd9-404c-bb30-5f1d9fff70fa","system_id":"levelo_inurba_marseille","lat":43.21748,"lon":5.34595,"is_reserved":false,"is_disabled":false,"rental_uris":{"android":"levelo://app?vid=2f13e475-7dd9-404c-bb30-5f1d9fff70fa","ios":"levelo://app?vid=2f13e475-7dd9-404c-bb30-5f1d9fff70fa"},"vehicle_type_id":"4","last_reported":1777120704,"current_range_meters":10800,"station_id":"st_cvj6r9ubvosntc0bgbag","pricing_plan_id":"cebpf4jnsgd1na2vs0mg"},{"bike_id":"494fd0fc-3b39-4504-a26b-321afbf22977","system_id":"levelo_inurba_marseille","lat":43.23835,"lon":5.38572,"is_reserved":false,"is_disabled":false,"rental_uris":{"android":"levelo://app?vid=494fd0fc-3b39-4504-a26b-321afbf22977","ios":"levelo://app?vid=494fd0fc-3b39-4504-a26b-321afbf22977"},"vehicle_type_id":"4","last_reported":1777120704,"current_range_meters":10800,"station_id":"","pricing_plan_id":"cebpf4jnsgd1na2vs0mg"},{"bike_id":"97f0351e-0015-4f6a-a402-604cdb115786","system_id":"levelo_inurba_marseille","lat":43.21188,"lon":5.3507,"is_reserved":false,"is_disabled":false,"rental_uris":{"android":"levelo://app?vid=97f0351e-0015-4f6a-a402-604cdb115786","ios":"levelo://app?vid=97f0351e-0015-4f6a-a402-604cdb115786"},"vehicle_type_id":"4","last_reported":1777120704,"current_range_meters":10800,"station_id":"st_cvj6sg6p6f1abm77japg","pricing_plan_id":"cebpf4jnsgd1na2vs0mg"},{"bike_id":"aaf59152-8891-4f5b-9476-1108daf6bb91","system_id":"levelo_inurba_marseille","lat":43.27379,"lon":5.36249,"is_reserved":false,"is_disabled":false,"rental_uris":{"android":"levelo://app?vid=aaf59152-8891-4f5b-9476-1108daf6bb91","ios":"levelo://app?vid=aaf59152-8891-4f5b-9476-1108daf6bb91"},"vehicle_type_id":"4","last_reported":1777120704,"current_range_meters":10800,"station_id":"ce4bhbh2rcd13ifvqeo0","pricing_plan_id":"cebpf4jnsgd1na2vs0mg"},{"bike_id":"df75676a-7c3f-4d29-80c0-260795f2c62d","system_id":"levelo_inurba_marseille","lat":43.27951,"lon":5.4077,"is_reserved":false,"is_disabled":false,"rental_uris":{"android":"levelo://app?vid=df75676a-7c3f-4d29-80c0-260795f2c62d","ios":"levelo://app?vid=df75676a-7c3f-4d29-80c0-260795f2c62d"},"vehicle_type_id":"4","last_reported":1777120704,"current_range_meters":10800,"station_id":"","pricing_plan_id":"cebpf4jnsgd1na2vs0mg"},{"bike_id":"6378d13c-9294-47cb-a201-edcadf79aa34","system_id":"levelo_inurba_marseille","lat":43.27823,"lon":5.40695,"is_reserved":false,"is_disabled":false,"rental_uris":{"android":"levelo://app?vid=6378d13c-9294-47cb-a201-edcadf79aa34","ios":"levelo://app?vid=6378d13c-9294-47cb-a201-edcadf79aa34"},"vehicle_type_id":"4","last_reported":1777120704,"current_range_meters":10800,"station_id":"ce4bhnh2rcd13ifvqgtg","pricing_plan_id":"cebpf4jnsgd1na2vs0mg"},{"bike_id":"26d26955-b302-4311-88a8-057f7b19117a","system_id":"levelo_inurba_marseille","lat":43.29652,"lon":5.36063,"is_reserved":false,"is_disabled":false,"rental_uris":{"android":"levelo://app?vid=26d26955-b302-4311-88a8-057f7b19117a","ios":"levelo://app?vid=26d26955-b302-4311-88a8-057f7b19117a"},"vehicle_type_id":"4","last_reported":1777120704,"current_range_meters":10800,"station_id":"","pricing_plan_id":"cebpf4jnsgd1na2vs0mg"},{"bike_id":"3641d640-2b8a-4f13-b91c-6c317e71d939","system_id":"levelo_inurba_marseille","lat":43.24163,"lon":5.36394,"is_reserved":false,"is_disabled":false,"rental_uris":{"android":"levelo://app?vid=3641d640-2b8a-4f13-b91c-6c317e71d939","ios":"levelo://app?vid=3641d640-2b8a-4f13-b91c-6c317e71d939"},"vehicle_type_id":"4","last_reported":1777120704,"current_range_meters":10800,"station_id":"cpo36qri1sfpv3e86is0","pricing_plan_id":"cebpf4jnsgd1na2vs0mg"},{"bike_id":"42dde499-28a5-4750-866b-0efd2d3f1809","system_id":"levelo_inurba_marseille","lat":43.24185,"lon":5.39712,"is_reserved":false,"is_disabled":false,"rental_uris":{"android":"levelo://app?vid=42dde499-28a5-4750-866b-0efd2d3f1809","ios":"levelo://app?vid=42dde499-28a5-4750-866b-0efd2d3f1809"},"vehicle_type_id":"4","last_reported":1777120704,"current_range_meters":10800,"station_id":"ce4bhn12rcd13ifvqgpg","pricing_plan_id":"cebpf4jnsgd1na2vs0mg"},{"bike_id":"a605a797-06f1-4b67-9e8f-898abb0617be","system_id":"levelo_inurba_marseille","lat":43.27366,"lon":5.3625,"is_reserved":false,"is_disabled":false,"rental_uris":{"android":"levelo://app?vid=a605a797-06f1-4b67-9e8f-898abb0617be","ios":"levelo://app?vid=a605a797-06f1-4b67-9e8f-898abb0617be"},"vehicle_type_id":"4","last_reported":1777120704,"current_range_meters":10800,"station_id":"ce4bhbh2rcd13ifvqeo0","pricing_plan_id":"cebpf4jnsgd1na2vs0mg"},{"bike_id":"48ce9710-e725-45aa-af72-61a920fbb255","system_id":"levelo_inurba_marseille","lat":43.29024,"lon":5.39959,"is_reserved":false,"is_disabled":false,"rental_uris":{"android":"levelo://app?vid=48ce9710-e725-45aa-af72-61a920fbb255","ios":"levelo://app?vid=48ce9710-e725-45aa-af72-61a920fbb255"},"vehicle_type_id":"4","last_reported":1777120704,"current_range_meters":10800,"station_id":"ce4bh392rcd13ifvqdm0","pricing_plan_id":"cebpf4jnsgd1na2vs0mg"},{"bike_id":"26b65d65-08eb-466e-a8fa-66a1cd1e5bcc","system_id":"levelo_inurba_marseille","lat":43.29026,"lon":5.37545,"is_reserved":false,"is_disabled":false,"rental_uris":{"android":"levelo://app?vid=26b65d65-08eb-466e-a8fa-66a1cd1e5bcc","ios":"levelo://app?vid=26b65d65-08eb-466e-a8fa-66a1cd1e5bcc"},"vehicle_type_id":"4","last_reported":1777120704,"current_range_meters":10800,"station_id":"ce4bh692rcd13ifvqe90","pricing_plan_id":"cebpf4jnsgd1na2vs0mg"},{"bike_id":"8382b8e2-42a0-4cae-8f3d-d1af83bab971","system_id":"levelo_inurba_marseille","lat":43.2463,"lon":5.38887,"is_reserved":false,"is_disabled":false,"rental_uris":{"android":"levelo://app?vid=8382b8e2-42a0-4cae-8f3d-d1af83bab971","ios":"levelo://app?vid=8382b8e2-42a0-4cae-8f3d-d1af83bab971"},"vehicle_type_id":"4","last_reported":1777120704,"current_range_meters":10800,"station_id":"ce4bhg12rcd13ifvqf60","pricing_plan_id":"cebpf4jnsgd1na2vs0mg"},