{"last_updated":1729847443,"ttl":60,"version":"2.2","data":{"bikes":[{"bike_id":"9f4bc889-d70f-4cc1-9597-1009308d328c","system_id":"levelo_inurba_marseille","lat":43.29301,"lon":5.37164,"is_reserved":false,"is_disabled":false,"rental_uris":{"android":"levelo://app?vid=9f4bc889-d70f-4cc1-9597-1009308d328c","ios":"levelo://app?vid=9f4bc889-d70f-4cc1-9597-1009308d328c"},"vehicle_type_id":"4","last_reported":1729847443,"current_range_meters":22000,"station_id":"ce4bgh92rcd13ifvqb40","pricing_plan_id":"cebpf4jnsgd1na2vs0mg"},{"bike_id":"d227bc31-1306-40f7-9ee1-53a5dc14a10d","system_id":"levelo_inurba_marseille","lat":43.2621,"lon":5.37443,"is_reserved":false,"is_disabled":false,"rental_uris":{"android":"levelo://app?vid=d227bc31-1306-40f7-9ee1-53a5dc14a10d","ios":"levelo://app?vid=d227bc31-1306-40f7-9ee1-53a5dc14a10d"},"vehicle_type_id":"4","last_reported":1729847443,"current_range_meters":38800,"station_id":"ce4bhgp2rcd13ifvqfc0","pricing_plan_id":"cebpf4jnsgd1na2vs0mg"},{"bike_id":"a225ef0d-6bb1-406a-b934-1f9162909e2d","system_id":"levelo_inurba_marseille","lat":43.31541,"lon":5.38032,"is_reserved":false,"is_disabled":false,"rental_uris":{"android":"levelo://app?vid=a225ef0d-6bb1-406a-b934-1f9162909e2d","ios":"levelo://app?vid=a225ef0d-6bb1-406a-b934-1f9162909e2d"},"vehicle_type_id":"4","last_reported":1729847443,"current_range_meters":6800,"station_id":"ce4bhsp2rcd13ifvqi50","pricing_plan_id":"cebpf4jnsgd1na2vs0mg"},{"bike_id":"872430ef-7f87-4b6f-a16e-a80284ce9dbc","system_id":"levelo_inurba_marseille","lat":43.28491,"lon":5.38534,"is_reserved":false,"is_disabled":false,"rental_uris":{"android":"levelo://app?vid=872430ef-7f87-4b6f-a16e-a80284ce9dbc","ios":"levelo://app?vid=872430ef-7f87-4b6f-a16e-a80284ce9dbc"},"vehicle_type_id":"4","last_reported":1729847443,"current_range_meters":30000,"station_id":"ce4bh8p2rcd13ifvqeb0","pricing_plan_id":"cebpf4jnsgd1na2vs0mg"},{"bike_id":"0305f07b-3d86-40ef-b6b1-15fef9ab5479","system_id":"levelo_inurba_marseille","lat":43.23957,"lon":5.36638,"is_reserved":false,"is_disabled":false,"rental_uris":{"android":"levelo://app?vid=0305f07b-3d86-40ef-b6b1-15fef9ab5479","ios":"levelo://app?vid=0305f07b-3d86-40ef-b6b1-15fef9ab5479"},"vehicle_type_id":"4","last_reported":1729847443,"current_range_meters":36000,"station_id":"ce4bhi12rcd13ifvqfp0","pricing_plan_id":"cebpf4jnsgd1na2vs0mg"},{"bike_id":"599240e7-1415-4829-b878-2254f9035b6a","system_id":"levelo_inurba_marseille","lat":43.33606,"lon":5.41041,"is_reserved":false,"is_disabled":false,"rental_uris":{"android":"levelo://app?vid=599240e7-1415-4829-b878-2254f9035b6a","ios":"levelo://app?vid=599240e7-1415-4829-b878-2254f9035b6a"},"vehicle_type_id":"4","last_reported":1729847443,"current_range_meters":31200,"station_id":"ce4bgt12rcd13ifvqce0","pricing_plan_id":"cebpf4jnsgd1na2vs0mg"},{"bike_id":"2ff9844e-1671-4abc-8157-c7e2cf1287d1","system_id":"levelo_inurba_marseille","lat":43.26204,"lon":5.37935,"is_reserved":false,"is_disabled":false,"rental_uris":{"android":"levelo://app?vid=2ff9844e-1671-4abc-8157-c7e2cf1287d1","ios":"levelo://app?vid=2ff9844e-1671-4abc-8157-c7e2cf1287d1"},"vehicle_type_id":"4","last_reported":1729847443,"current_range_meters":38800,"station_id":"ce4bhjp2rcd13ifvqg90","pricing_plan_id":"cebpf4jnsgd1na2vs0mg"},{"bike_id":"5dbd4e97-606f-4b8b-af2c-f584021ff0f2","system_id":"levelo_inurba_marseille","lat":43.29843,"lon":5.36271,"is_reserved":false,"is_disabled":false,"rental_uris":{"android":"levelo://app?vid=5dbd4e97-606f-4b8b-af2c-f584021ff0f2","ios":"levelo://app?vid=5dbd4e97-606f-4b8b-af2c-f584021ff0f2"},"vehicle_type_id":"4","last_reported":1729847443,"current_range_meters":38800,"station_id":"ce4bgpp2rcd13ifvqc3g","pricing_plan_id":"cebpf4jnsgd1na2vs0mg"},{"bike_id":"93995796-8921-40c3-a291-ba0a20143561","system_id":"levelo_inurba_marseille","lat":43.25106,"lon":5.40323,"is_reserved":false,"is_disabled":false,"rental_uris":{"android":"levelo://app?vid=93995796-8921-40c3-a291-ba0a20143561","ios":"levelo://app?vid=93995796-8921-40c3-a291-ba0a20143561"},"vehicle_type_id":"4","last_reported":1729847443,"current_range_meters":27200,"station_id":"ce4bhlh2rcd13ifvqgig","pricing_plan_id":"cebpf4jnsgd1na2vs0mg"},{"bike_id":"17cc3263-8d87-4e65-91ba-1ec1f501875b","system_id":"levelo_inurba_marseille","lat":43.2985,"lon":5.36287,"is_reserved":false,"is_disabled":false,"rental_uris":{"android":"levelo://app?vid=17cc3263-8d87-4e65-91ba-1ec1f501875b","ios":"levelo://app?vid=17cc3263-8d87-4e65-91ba-1ec1f501875b"},"vehicle_type_id":"4","last_reported":1729847443,"current_range_meters":38400,"station_id":"ce4bgpp2rcd13ifvqc3g","pricing_plan_id":"cebpf4jnsgd1na2vs0mg"},{"bike_id":"f7cb4d3f-1921-4702-8703-5284a2844155","system_id":"levelo_inurba_marseille","lat":43.31349,"lon":5.36712,"is_reserved":false,"is_disabled":false,"rental_uris":{"android":"levelo://app?vid=f7cb4d3f-1921-4702-8703-5284a2844155","ios":"levelo://app?vid=f7cb4d3f-1921-4702-8703-5284a2844155"},"vehicle_type_id":"4","last_reported":1729847443,"current_range_meters":38800,"station_id":"ce4bgr92rcd13ifvqc6g","pricing_plan_id":"cebpf4jnsgd1na2vs0mg"},{"bike_id":"ab031a12-671a-4fc9-88c6-e03ba4c7b279","system_id":"levelo_inurba_marseille","lat":43.29565,"lon":5.3752,"is_reserved":false,"is_disabled":false,"rental_uris":{"android":"levelo://app?vid=ab031a12-671a-4fc9-88c6-e03ba4c7b279","ios":"levelo://app?vid=ab031a12-671a-4fc9-88c6-e03ba4c7b279"},"vehicle_type_id":"4","last_reported":1729847443,"current_range_meters":38800,"station_id":"ce4bgh92rcd13ifvqb50","pricing_plan_id":"cebpf4jnsgd1na2vs0mg"},{"bike_id":"7a39ac62-f73e-405f-baad-436efacf2521","system_id":"levelo_inurba_marseille","lat":43.27071,"lon":5.42282,"is_reserved":false,"is_disabled":false,"rental_uris":{"android":"levelo://app?vid=7a39ac62-f73e-405f-baad-436efacf2521","ios":"levelo://app?vid=7a39ac62-f73e-405f-baad-436efacf2521"},"vehicle_type_id":"4","last_reported":1729847443,"current_range_meters":38800,"station_id":"ce4bhk92rcd13ifvqgb0","pricing_plan_id":"cebpf4jnsgd1na2vs0mg"},{"bike_id":"26b9e837-5b91-41a1-ad8f-50c0e2155aef","system_id":"levelo_inurba_marseille","lat":43.29581,"lon":5.36743,"is_reserved":false,"is_disabled":false,"rental_uris":{"android":"levelo://app?vid=26b9e837-5b91-41a1-ad8f-50c0e2155aef","ios":"levelo://app?vid=26b9e837-5b91-41a1-ad8f-50c0e2155aef"},"vehicle_type_id":"4","last_reported":1729847443,"current_range_meters":34800,"station_id":"ce4bgph2rcd13ifvqc2g","pricing_plan_id":"cebpf4jnsgd1na2vs0mg"},{"bike_id":"3d485760-1c3c-4c7e-a95a-57d189d25473","system_id":"levelo_inurba_marseille","lat":43.30152,"lon":5.38083,"is_reserved":false,"is_disabled":false,"rental_uris":{"android":"levelo://app?vid=3d485760-1c3c-4c7e-a95a-57d189d25473","ios":"levelo://app?vid=3d485760-1c3c-4c7e-a95a-57d189d25473"},"vehicle_type_id":"4","last_reported":1729847443,"current_range_meters":38800,"station_id":"ce4bgjp2rcd13ifvqbh0","pricing_plan_id":"cebpf4jnsgd1na2vs0mg"},{"bike_id":"e130cf78-8420-42ef-935c-589ad91611cf","system_id":"levelo_inurba_marseille","lat":43.32654,"lon":5.40998,"is_reserved":false,"is_disabled":false,"rental_uris":{"android":"levelo://app?vid=e130cf78-8420-42ef-935c-589ad91611cf","ios":"levelo://app?vid=e130cf78-8420-42ef-935c-589ad91611cf"},"vehicle_type_id":"4","last_reported":1729847443,"current_range_meters":38800,"station_id":"ce4bhpp2rcd13ifvqhgg","pricing_plan_id":"cebpf4jnsgd1na2vs0mg"},{"bike_id":"83b93c0d-fd1e-413e-9772-9048be31d163","system_id":"levelo_inurba_marseille","lat":43.31704,"lon":5.37746,"is_reserved":false,"is_disabled":false,"rental_uris":{"android":"levelo://app?vid=83b93c0d-fd1e-413e-9772-9048be31d163","ios":"levelo://app?vid=83b93c0d-fd1e-413e-9772-9048be31d163"},"vehicle_type_id":"4","last_reported":1729847443,"current_range_meters":38400,"station_id":"ce4bgth2rcd13ifvqch0","pricing_plan_id":"cebpf4jnsgd1na2vs0mg"},{"bike_id":"784dd773-f509-4455-843a-8e8b8177e5e1","system_id":"levelo_inurba_marseille","lat":43.31714,"lon":5.37756,"is_reserved":false,"is_disabled":false,"rental_uris":{"android":"levelo://app?vid=784dd773-f509-4455-843a-8e8b8177e5e1","ios":"levelo://app?vid=784dd773-f509-4455-843a-8e8b8177e5e1"},"vehicle_type_id":"4","last_reported":1729847443,"current_range_meters":38800,"station_id":"ce4bgth2rcd13ifvqch0","pricing_plan_id":"cebpf4jnsgd1na2vs0mg"},{"bike_id":"f360d713-8cc3-48c2-885d-ddbf55f143b2","system_id":"levelo_inurba_marseille","lat":43.2972,"lon":5.37697,"is_reserved":false,"is_disabled":false,"rental_uris":{"android":"levelo://app?vid=f360d713-8cc3-48c2-885d-ddbf55f143b2","ios":"levelo://app?vid=f360d713-8cc3-48c2-885d-ddbf55f143b2"},"vehicle_type_id":"4","last_reported":1729847443,"current_range_meters":38800,"station_id":"ce4bgkh2rcd13ifvqbl0","pricing_plan_id":"cebpf4jnsgd1na2vs0mg"},{"bike_id":"ca621eda-8fdf-40e1-ab27-bd501d98f9ae","system_id":"levelo_inurba_marseille","lat":43.27377,"lon":5.36255,"is_reserved":false,"is_disabled":false,"rental_uris":{"android":"levelo://app?vid=ca621eda-8fdf-40e1-ab27-bd501d98f9ae","ios":"levelo://app?vid=ca621eda-8fdf-40e1-ab27-bd501d98f9ae"},"vehicle_type_id":"4","last_reported":1729847443,"current_range_meters":11200,"station_id":"ce4bhbh2rcd13ifvqeo0","pricing_plan_id":"cebpf4jnsgd1na2vs0mg"},{"bike_id":"477a05e3-ff20-4d77-9014-d23eaf544f51","system_id":"levelo_inurba_marseille","lat":43.30536,"lon":5.36558,"is_reserved":false,"is_disabled":false,"rental_uris":{"android":"levelo://app?vid=477a05e3-ff20-4d77-9014-d23eaf544f51","ios":"levelo://app?vid=477a05e3-ff20-4d77-9014-d23eaf544f51"},"vehicle_type_id":"4","last_reported":1729847443,"current_range_meters":26000,"station_id":"ce4bgs12rcd13ifvqcag","pricing_plan_id":"cebpf4jnsgd1na2vs0mg"},{"bike_id":"d4fcc41f-7bd1-41c6-a7d5-baa2e11cf03c","system_id":"levelo_inurba_marseille","lat":43.29616,"lon":5.37706,"is_reserved":false,"is_disabled":false,"rental_uris":{"android":"levelo://app?vid=d4fcc41f-7bd1-41c6-a7d5-baa2e11cf03c","ios":"levelo://app?vid=d4fcc41f-7bd1-41c6-a7d5-baa2e11cf03c"},"vehicle_type_id":"4","last_reported":1729847443,"current_range_meters":25600,"station_id":"ce4bgi92rcd13ifvqb90","pricing_plan_id":"cebpf4jnsgd1na2vs0mg"},{"bike_id":"91b8c862-3f62-4df1-9e54-fa2f551617f3","system_id":"levelo_inurba_marseille","lat":43.2621,"lon":5.37442,"is_reserved":false,"is_disabled":false,"rental_uris":{"android":"levelo://app?vid=91b8c862-3f62-4df1-9e54-fa2f551617f3","ios":"levelo://app?vid=91b8c862-3f62-4df1-9e54-fa2f551617f3"},"vehicle_type_id":"4","last_reported":1729847443,"current_range_meters":38400,"station_id":"ce4bhgp2rcd13ifvqfc0","pricing_plan_id":"cebpf4jnsgd1na2vs0mg"},{"bike_id":"b5280a4e-5993-4f8e-83ef-b79f0bc022bd","system_id":"levelo_inurba_marseille","lat":43.24651,"lon":5.38903,"is_reserved":false,"is_disabled":false,"rental_uris":{"android":"levelo://app?vid=b5280a4e-5993-4f8e-83ef-b79f0bc022bd","ios":"levelo://app?vid=b5280a4e-5993-4f8e-83ef-b79f0bc022bd"},"vehicle_type_id":"4","last_reported":1729847443,"current_range_meters":8800,"station_id":"ce4bhg12rcd13ifvqf60","pricing_plan_id":"cebpf4jnsgd1na2vs0mg"},{"bike_id":"c2801143-7c8a-4c78-918c-616d5ed87cfa","system_id":"levelo_inurba_marseille","lat":43.24174,"lon":5.39734,"is_reserved":false,"is_disabled":false,"rental_uris":{"android":"levelo://app?vid=c2801143-7c8a-4c78-918c-616d5ed87cfa","ios":"levelo://app?vid=c2801143-7c8a-4c78-918c-616d5ed87cfa"},"vehicle_type_id":"4","last_reported":1729847443,"current_range_meters":30000,"station_id":"ce4bhn12rcd13ifvqgpg","pricing_plan_id":"cebpf4jnsgd1na2vs0mg"},{"bike_id":"c581c950-ca05-405f-abbb-d8283c71a504","system_id":"levelo_inurba_marseille","lat":43.28476,"lon":5.38409,"is_reserved":false,"is_disabled":false,"rental_uris":{"android":"levelo://app?vid=c581c950-ca05-405f-abbb-d8283c71a504","ios":"levelo://app?vid=c581c950-ca05-405f-abbb-d8283c71a504"},"vehicle_type_id":"4","last_reported":1729847443,"current_range_meters":27600,"station_id":"ce4bh512rcd13ifvqe3g","pricing_plan_id":"cebpf4jnsgd1na2vs0mg"},{"bike_id":"7969dd37-faf1-43ba-9922-f50db8b11586","system_id":"levelo_inurba_marseille","lat":43.32477,"lon":5.36572,"is_reserved":false,"is_disabled":false,"rental_uris":{"android":"levelo://app?vid=7969dd37-faf1-43ba-9922-f50db8b11586","ios":"levelo://app?vid=7969dd37-faf1-43ba-9922-f50db8b11586"},"vehicle_type_id":"4","last_reported":1729847443,"current_range_meters":22400,"station_id":"ce4bhs12rcd13ifvqhvg","pricing_plan_id":"cebpf4jnsgd1na2vs0mg"},{"bike_id":"ab70a038-20d8-4ca2-b2c9-7d6a9cb770b5","system_id":"levelo_inurba_marseille","lat":43.29197,"lon":5.35799,"is_reserved":false,"is_disabled":false,"rental_uris":{"android":"levelo://app?vid=ab70a038-20d8-4ca2-b2c9-7d6a9cb770b5","ios":"levelo://app?vid=ab70a038-20d8-4ca2-b2c9-7d6a9cb770b5"},"vehicle_type_id":"4","last_reported":1729847443,"current_range_meters":35200,"station_id":"ce4bhb12rcd13ifvqel0","pricing_plan_id":"cebpf4jnsgd1na2vs0mg"},{"bike_id":"46e85f9c-1bad-4940-8580-20c0eeba5600","system_id":"levelo_inurba_marseille","lat":43.32348,"lon":5.40621,"is_reserved":false,"is_disabled":false,"rental_uris":{"android":"levelo://app?vid=46e85f9c-1bad-4940-8580-20c0eeba5600","ios":"levelo://app?vid=46e85f9c-1bad-4940-8580-20c0eeba5600"},"vehicle_type_id":"4","last_reported":1729847443,"current_range_meters":37600,"station_id":"ce4bhq92rcd13ifvqhjg","pricing_plan_id":"cebpf4jnsgd1na2vs0mg"},{"bike_id":"ce3eef46-b9e3-41dc-9130-106cb5f09144","system_id":"levelo_inurba_marseille","lat":43.24646,"lon":5.38907,"is_reserved":false,"is_disabled":false,"rental_uris":{"android":"levelo://app?vid=ce3eef46-b9e3-41dc-9130-106cb5f09144","ios":"levelo://app?vid=ce3eef46-b9e3-41dc-9130-106cb5f09144"},"vehicle_type_id":"4","last_reported":1729847443,"current_range_meters":38800,"station_id":"ce4bhg12rcd13ifvqf60","pricing_plan_id":"cebpf4jnsgd1na2vs0mg"},{"bike_id":"3263d8af-9310-4682-954e-d8ed34eb8db0","system_id":"levelo_inurba_marseille","lat":43.28091,"lon":5.37856,"is_reserved":false,"is_disabled":false,"rental_uris":{"android":"levelo://app?vid=3263d8af-9310-4682-954e-d8ed34eb8db0","ios":"levelo://app?vid=3263d8af-9310-4682-954e-d8ed34eb8db0"},"vehicle_type_id":"4","last_reported":1729847443,"current_range_meters":38800,"station_id":"ce4bha12rcd13ifvqee0","pricing_plan_id":"cebpf4jnsgd1na2vs0mg"},{"bike_id":"d8c777a5-ff2f-4acd-9afb-ab01807654a6","system_id":"levelo_inurba_marseille","lat":43.30885,"lon":5.37201,"is_reserved":false,"is_disabled":false,"rental_uris":{"android":"levelo://app?vid=d8c777a5-ff2f-4acd-9afb-ab01807654a6","ios":"levelo://app?vid=d8c777a5-ff2f-4acd-9afb-ab01807654a6"},"vehicle_type_id":"4","last_reported":1729847443,"current_range_meters":38800,"station_id":"ce4bguh2rcd13ifvqckg","pricing_plan_id":"cebpf4jnsgd1na2vs0mg"},{"bike_id":"576d32b8-3365-4abf-b8a8-0c54cf8011df","system_id":"levelo_inurba_marseille","lat":43.30547,"lon":5.36554,"is_reserved":false,"is_disabled":false,"rental_uris":{"android":"levelo://app?vid=576d32b8-3365-4abf-b8a8-0c54cf8011df","ios":"levelo://app?vid=576d32b8-3365-4abf-b8a8-0c54cf8011df"},"vehicle_type_id":"4","last_reported":1729847443,"current_range_meters":28400,"station_id":"ce4bgs12rcd13ifvqcag","pricing_plan_id":"cebpf4jnsgd1na2vs0mg"},{"bike_id":"97ce6431-cdfe-4c86-8575-534875aed7f5","system_id":"levelo_inurba_marseille","lat":43.3053,"lon":5.36659,"is_reserved":false,"is_disabled":false,"rental_uris":{"android":"levelo://app?vid=97ce6431-cdfe-4c86-8575-534875aed7f5","ios":"levelo://app?vid=97ce6431-cdfe-4c86-8575-534875aed7f5"},"vehicle_type_id":"4","last_reported":1729847443,"current_range_meters":3600,"station_id":"","pricing_plan_id":"cebpf4jnsgd1na2vs0mg"},{"bike_id":"ac7bc93b-6e8c-4f21-9b08-3fc4171c4b20","system_id":"levelo_inurba_marseille","lat":43.30527,"lon":5.36718,"is_reserved":false,"is_disabled":false,"rental_uris":{"android":"levelo://app?vid=ac7bc93b-6e8c-4f21-9b08-3fc4171c4b20","ios":"levelo://app?vid=ac7bc93b-6e8c-4f21-9b08-3fc4171c4b20"},"vehicle_type_id":"4","last_reported":1729847443,"current_range_meters":7200,"station_id":"ce4bgrp2rcd13ifvqc9g","pricing_plan_id":"cebpf4jnsgd1na2vs0mg"},{"bike_id":"ddf1220d-b7b8-47ef-b02e-eb813f8e3275","system_id":"levelo_inurba_marseille","lat":43.30347,"lon":5.4188,"is_reserved":false,"is_disabled":false,"rental_uris":{"android":"levelo://app?vid=ddf1220d-b7b8-47ef-b02e-eb813f8e3275","ios":"levelo://app?vid=ddf1220d-b7b8-47ef-b02e-eb813f8e3275"},"vehicle_type_id":"4","last_reported":1729847443,"current_range_meters":38800,"station_id":"ce4bhop2rcd13ifvqh7g","pricing_plan_id":"cebpf4jnsgd1na2vs0mg"},{"bike_id":"7402b623-c097-44ef-9305-adaad9aacce3","system_id":"levelo_inurba_marseille","lat":43.27815,"lon":5.40705,"is_reserved":false,"is_disabled":false,"rental_uris":{"android":"levelo://app?vid=7402b623-c097-44ef-9305-adaad9aacce3","ios":"levelo://app?vid=7402b623-c097-44ef-9305-adaad9aacce3"},"vehicle_type_id":"4","last_reported":1729847443,"current_range_meters":28400,"station_id":"ce4bhnh2rcd13ifvqgtg","pricing_plan_id":"cebpf4jnsgd1na2vs0mg"},{"bike_id":"334e9050-29c3-43a0-b2bb-4fc7f06bf291","system_id":"levelo_inurba_marseille","lat":43.24647,"lon":5.38897,"is_reserved":false,"is_disabled":false,"rental_uris":{"android":"levelo://app?vid=334e9050-29c3-43a0-b2bb-4fc7f06bf291","ios":"levelo://app?vid=334e9050-29c3-43a0-b2bb-4fc7f06bf291"},"vehicle_type_id":"4","last_reported":1729847443,"current_range_meters":38800,"station_id":"ce4bhg12rcd13ifvqf60","pricing_plan_id":"cebpf4jnsgd1na2vs0mg"},{"bike_id":"ecffdb26-7bb5-47a8-bbf2-a6ea6fbc034d","system_id":"levelo_inurba_marseille","lat":43.33614,"lon":5.41029,"is_reserved":false,"is_disabled":false,"rental_uris":{"android":"levelo://app?vid=ecffdb26-7bb5-47a8-bbf2-a6ea6fbc034d","ios":"levelo://app?vid=ecffdb26-7bb5-47a8-bbf2-a6ea6fbc034d"},"vehicle_type_id":"4","last_reported":1729847443,"current_range_meters":14800,"station_id":"ce4bhqh2rcd13ifvqhmg","pricing_plan_id":"cebpf4jnsgd1na2vs0mg"},{"bike_id":"c47ee947-2909-41a5-bbe0-603cbb5c8694","system_id":"levelo_inurba_marseille","lat":43.27947,"lon":5.4106,"is_reserved":false,"is_disabled":false,"rental_uris":{"android":"levelo://app?vid=c47ee947-2909-41a5-bbe0-603cbb5c8694","ios":"levelo://app?vid=c47ee947-2909-41a5-bbe0-603cbb5c8694"},"vehicle_type_id":"4","last_reported":1729847443,"current_range_meters":12000,"station_id":"ce4bhnp2rcd13ifvqh0g","pricing_plan_id":"cebpf4jnsgd1na2vs0mg"},{"bike_id":"8486fe9d-9ef0-4e60-ba73-6eb6a17c52a8","system_id":"levelo_inurba_marseille","lat":43.31567,"lon":5.40582,"is_reserved":false,"is_disabled":false,"rental_uris":{"android":"levelo://app?vid=8486fe9d-9ef0-4e60-ba73-6eb6a17c52a8","ios":"levelo://app?vid=8486fe9d-9ef0-4e60-ba73-6eb6a17c52a8"},"vehicle_type_id":"4","last_reported":1729847443,"current_range_meters":9600,"station_id":"","pricing_plan_id":"cebpf4jnsgd1na2vs0mg"},{"bike_id":"172208e9-70cd-4b52-b8b5-db9312e32f6a","system_id":"levelo_inurba_marseille","lat":43.24545,"lon":5.39521,"is_reserved":false,"is_disabled":false,"rental_uris":{"android":"levelo://app?vid=172208e9-70cd-4b52-b8b5-db9312e32f6a","ios":"levelo://app?vid=172208e9-70cd-4b52-b8b5-db9312e32f6a"},"vehicle_type_id":"4","last_reported":1729847443,"current_range_meters":26000,"station_id":"ce4bhlp2rcd13ifvqgjg","pricing_plan_id":"cebpf4jnsgd1na2vs0mg"},{"bike_id":"ec0d691e-b85d-4e3a-aa9a-5105477bf0fc","system_id":"levelo_inurba_marseille","lat":43.291992,"lon":5.357985,"is_reserved":false,"is_disabled":false,"rental_uris":{"android":"levelo://app?vid=ec0d691e-b85d-4e3a-aa9a-5105477bf0fc","ios":"levelo://app?vid=ec0d691e-b85d-4e3a-aa9a-5105477bf0fc"},"vehicle_type_id":"4","last_reported":1729847443,"current_range_meters":28000,"station_id":"ce4bhb12rcd13ifvqel0","pricing_plan_id":"cebpf4jnsgd1na2vs0mg"},{"bike_id":"87245b32-ed6d-4b79-9975-c6a42af40b1e","system_id":"levelo_inurba_marseille","lat":43.23151,"lon":5.43722,"is_reserved":false,"is_disabled":false,"rental_uris":{"android":"levelo://app?vid=87245b32-ed6d-4b79-9975-c6a42af40b1e","ios":"levelo://app?vid=87245b32-ed6d-4b79-9975-c6a42af40b1e"},"vehicle_type_id":"4","last_reported":1729847443,"current_range_meters":12800,"station_id":"ce4bhmp2rcd13ifvqgog","pricing_plan_id":"cebpf4jnsgd1na2vs0mg"},{"bike_id":"222f03e8-7565-49de-b148-fe24b12bb6fe","system_id":"levelo_inurba_marseille","lat":43.27306,"lon":5.39106,"is_reserved":false,"is_disabled":false,"rental_uris":{"android":"levelo://app?vid=222f03e8-7565-49de-b148-fe24b12bb6fe","ios":"levelo://app?vid=222f03e8-7565-49de-b148-fe24b12bb6fe"},"vehicle_type_id":"4","last_reported":1729847443,"current_range_meters":26000,"station_id":"ce4bhgp2rcd13ifvqfe0","pricing_plan_id":"cebpf4jnsgd1na2vs0mg"},{"bike_id":"e3ee5f84-4d74-4ce5-9540-764d9f311735","system_id":"levelo_inurba_marseille","lat":43.30272,"lon":5.3772,"is_reserved":false,"is_disabled":false,"rental_uris":{"android":"levelo://app?vid=e3ee5f84-4d74-4ce5-9540-764d9f311735","ios":"levelo://app?vid=e3ee5f84-4d74-4ce5-9540-764d9f311735"},"vehicle_type_id":"4","last_reported":1729847443,"current_range_meters":28400,"station_id":"ce4bguh2rcd13ifvqcj0","pricing_plan_id":"cebpf4jnsgd1na2vs0mg"},{"bike_id":"23bb98ea-547c-4cf8-9703-456e5cb2a026","system_id":"levelo_inurba_marseille","lat":43.30558,"lon":5.3654,"is_reserved":false,"is_disabled":false,"rental_uris":{"android":"levelo://app?vid=23bb98ea-547c-4cf8-9703-456e5cb2a026","ios":"levelo://app?vid=23bb98ea-547c-4cf8-9703-456e5cb2a026"},"vehicle_type_id":"4","last_reported":1729847443,"current_range_meters":28400,"station_id":"ce4bgs12rcd13ifvqcag","pricing_plan_id":"cebpf4jnsgd1na2vs0mg"},{"bike_id":"19ce95ff-4cb9-489d-88e8-f0dd6c1bac5d","system_id":"levelo_inurba_marseille","lat":43.24177,"lon":5.39736,"is_reserved":false,"is_disabled":false,"rental_uris":{"android":"levelo://app?vid=19ce95ff-4cb9-489d-88e8-f0dd6c1bac5d","ios":"levelo://app?vid=19ce95ff-4cb9-489d-88e8-f0dd6c1bac5d"},"vehicle_type_id":"4","last_reported":1729847443,"current_range_meters":12800,"station_id":"ce4bhn12rcd13ifvqgpg","pricing_plan_id":"cebpf4jnsgd1na2vs0mg"},{"bike_id":"74d890a1-a86b-4dbd-b58f-e4b579d4c5be","system_id":"levelo_inurba_marseille","lat":43.309449,"lon":5.390451,"is_reserved":false,"is_disabled":false,"rental_uris":{"android":"levelo://app?vid=74d890a1-a86b-4dbd-b58f-e4b579d4c5be","ios":"levelo://app?vid=74d890a1-a86b-4dbd-b58f-e4b579d4c5be"},"vehicle_type_id":"4","last_reported":1729847443,"current_range_meters":34800,"station_id":"ce4bgup2rcd13ifvqco0","pricing_plan_id":"cebpf4jnsgd1na2vs0mg"},{"bike_id":"3b6a17a1-f558-415f-ae29-e2a6259fe18a","system_id":"levelo_inurba_marseille","lat":43.289342,"lon":5.366422,"is_reserved":false,"is_disabled":false,"rental_uris":{"android":"levelo://app?vid=3b6a17a1-f558-415f-ae29-e2a6259fe18a","ios":"levelo://app?vid=3b6a17a1-f558-415f-ae29-e2a6259fe18a"},"vehicle_type_id":"4","last_reported":1729847443,"current_range_meters":8000,"station_id":"ce4bhap2rcd13ifvqek0","pricing_plan_id":"cebpf4jnsgd1na2vs0mg"},{"bike_id":"1fe7a754-88e8-464c-a31c-86bf41ad4349","system_id":"levelo_inurba_marseille","lat":43.30284,"lon":5.37707,"is_reserved":false,"is_disabled":false,"rental_uris":{"android":"levelo://app?vid=1fe7a754-88e8-464c-a31c-86bf41ad4349","ios":"levelo://app?vid=1fe7a754-88e8-464c-a31c-86bf41ad4349"},"vehicle_type_id":"4","last_reported":1729847443,"current_range_meters":22800,"station_id":"ce4bguh2rcd13ifvqcj0","pricing_plan_id":"cebpf4jnsgd1na2vs0mg"},{"bike_id":"67449323-dba1-4f5f-94ad-8d67c84bea65","system_id":"levelo_inurba_marseille","lat":43.269357,"lon":5.402497,"is_reserved":false,"is_disabled":false,"rental_uris":{"android":"levelo://app?vid=67449323-dba1-4f5f-94ad-8d67c84bea65","ios":"levelo://app?vid=67449323-dba1-4f5f-94ad-8d67c84bea65"},"vehicle_type_id":"4","last_reported":1729847443,"current_range_meters":39200,"station_id":"cjm6bp8fraef2m0cb0m0","pricing_plan_id":"cebpf4jnsgd1na2vs0mg"},{"bike_id":"2f11c33a-2d96-4a66-8697-04fd04c433f4","system_id":"levelo_inurba_marseille","lat":43.30138,"lon":5.37409,"is_reserved":false,"is_disabled":false,"rental_uris":{"android":"levelo://app?vid=2f11c33a-2d96-4a66-8697-04fd04c433f4","ios":"levelo://app?vid=2f11c33a-2d96-4a66-8697-04fd04c433f4"},"vehicle_type_id":"4","last_reported":1729847443,"current_range_meters":38800,"station_id":"ce4bgs92rcd13ifvqcc0","pricing_plan_id":"cebpf4jnsgd1na2vs0mg"},{"bike_id":"6c01d1c8-6260-484f-aaeb-3607eeaff031","system_id":"levelo_inurba_marseille","lat":43.29711,"lon":5.376995,"is_reserved":false,"is_disabled":false,"rental_uris":{"android":"levelo://app?vid=6c01d1c8-6260-484f-aaeb-3607eeaff031","ios":"levelo://app?vid=6c01d1c8-6260-484f-aaeb-3607eeaff031"},"vehicle_type_id":"4","last_reported":1729847443,"current_range_meters":25200,"station_id":"ce4bh192rcd13ifvqdd0","pricing_plan_id":"cebpf4jnsgd1na2vs0mg"},{"bike_id":"716b360f-9353-40b4-ad62-c3b53b661c12","system_id":"levelo_inurba_marseille","lat":43.30544,"lon":5.36702,"is_reserved":false,"is_disabled":false,"rental_uris":{"android":"levelo://app?vid=716b360f-9353-40b4-ad62-c3b53b661c12","ios":"levelo://app?vid=716b360f-9353-40b4-ad62-c3b53b661c12"},"vehicle_type_id":"4","last_reported":1729847443,"current_range_meters":38800,"station_id":"ce4bgrp2rcd13ifvqc9g","pricing_plan_id":"cebpf4jnsgd1na2vs0mg"},{"bike_id":"047c5993-dfde-434d-a774-d5ea06281fa5","system_id":"levelo_inurba_marseille","lat":43.29411,"lon":5.38628,"is_reserved":false,"is_disabled":false,"rental_uris":{"android":"levelo://app?vid=047c5993-dfde-434d-a774-d5ea06281fa5","ios":"levelo://app?vid=047c5993-dfde-434d-a774-d5ea06281fa5"},"vehicle_type_id":"4","last_reported":1729847443,"current_range_meters":37600,"station_id":"ce4bh2h2rcd13ifvqdh0","pricing_plan_id":"cebpf4jnsgd1na2vs0mg"},{"bike_id":"baac1178-6264-4714-be4f-30295c956493","system_id":"levelo_inurba_marseille","lat":43.309437,"lon":5.390417,"is_reserved":false,"is_disabled":false,"rental_uris":{"android":"levelo://app?vid=baac1178-6264-4714-be4f-30295c956493","ios":"levelo://app?vid=baac1178-6264-4714-be4f-30295c956493"},"vehicle_type_id":"4","last_reported":1729847443,"current_range_meters":39200,"station_id":"ce4bgup2rcd13ifvqco0","pricing_plan_id":"cebpf4jnsgd1na2vs0mg"},{"bike_id":"dbdfdecd-4397-465b-82a0-666dd88db96f","system_id":"levelo_inurba_marseille","lat":43.26955,"lon":5.38631,"is_reserved":false,"is_disabled":false,"rental_uris":{"android":"levelo://app?vid=dbdfdecd-4397-465b-82a0-666dd88db96f","ios":"levelo://app?vid=dbdfdecd-4397-465b-82a0-666dd88db96f"},"vehicle_type_id":"4","last_reported":1729847443,"current_range_meters":17200,"station_id":"ce4bhh92rcd13ifvqfh0","pricing_plan_id":"cebpf4jnsgd1na2vs0mg"},{"bike_id":"d3bbf7db-dbd7-4c37-82f1-086f96c4acff","system_id":"levelo_inurba_marseille","lat":43.30905,"lon":5.36864,"is_reserved":false,"is_disabled":false,"rental_uris":{"android":"levelo://app?vid=d3bbf7db-dbd7-4c37-82f1-086f96c4acff","ios":"levelo://app?vid=d3bbf7db-dbd7-4c37-82f1-086f96c4acff"},"vehicle_type_id":"4","last_reported":1729847443,"current_range_meters":32000,"station_id":"ce4bgn92rcd13ifvqbvg","pricing_plan_id":"cebpf4jnsgd1na2vs0mg"},{"bike_id":"7a9bebfb-3ca8-461f-9edc-3e4de00c7841","system_id":"levelo_inurba_marseille","lat":43.25579,"lon":5.38236,"is_reserved":false,"is_disabled":false,"rental_uris":{"android":"levelo://app?vid=7a9bebfb-3ca8-461f-9edc-3e4de00c7841","ios":"levelo://app?vid=7a9bebfb-3ca8-461f-9edc-3e4de00c7841"},"vehicle_type_id":"4","last_reported":1729847443,"current_range_meters":38800,"station_id":"ce4bhih2rcd13ifvqfs0","pricing_plan_id":"cebpf4jnsgd1na2vs0mg"},{"bike_id":"8a26f61f-b216-43c3-8409-55fc77a1e9bb","system_id":"levelo_inurba_marseille","lat":43.29169,"lon":5.37148,"is_reserved":false,"is_disabled":false,"rental_uris":{"android":"levelo://app?vid=8a26f61f-b216-43c3-8409-55fc77a1e9bb","ios":"levelo://app?vid=8a26f61f-b216-43c3-8409-55fc77a1e9bb"},"vehicle_type_id":"4","last_reported":1729847443,"current_range_meters":38800,"station_id":"ce4bha92rcd13ifvqeh0","pricing_plan_id":"cebpf4jnsgd1na2vs0mg"},{"bike_id":"756da363-02f5-4a19-9127-1187bc762e5b","system_id":"levelo_inurba_marseille","lat":43.30556,"lon":5.36544,"is_reserved":false,"is_disabled":false,"rental_uris":{"android":"levelo://app?vid=756da363-02f5-4a19-9127-1187bc762e5b","ios":"levelo://app?vid=756da363-02f5-4a19-9127-1187bc762e5b"},"vehicle_type_id":"4","last_reported":1729847443,"current_range_meters":38800,"station_id":"ce4bgs12rcd13ifvqcag","pricing_plan_id":"cebpf4jnsgd1na2vs0mg"},{"bike_id":"1c3978e4-ea97-44ea-91dc-1af723c50875","system_id":"levelo_inurba_marseille","lat":43.29973,"lon":5.38494,"is_reserved":false,"is_disabled":false,"rental_uris":{"android":"levelo://app?vid=1c3978e4-ea97-44ea-91dc-1af723c50875","ios":"levelo://app?vid=1c3978e4-ea97-44ea-91dc-1af723c50875"},"vehicle_type_id":"4","last_reported":1729847443,"current_range_meters":37600,"station_id":"ce4bgj92rcd13ifvqbd0","pricing_plan_id":"cebpf4jnsgd1na2vs0mg"},{"bike_id":"be8fbca4-3dcd-4e0e-96d2-8c570f59713c","system_id":"levelo_inurba_marseille","lat":43.32477,"lon":5.36574,"is_reserved":false,"is_disabled":false,"rental_uris":{"android":"levelo://app?vid=be8fbca4-3dcd-4e0e-96d2-8c570f59713c","ios":"levelo://app?vid=be8fbca4-3dcd-4e0e-96d2-8c570f59713c"},"vehicle_type_id":"4","last_reported":1729847443,"current_range_meters":19200,"station_id":"ce4bhs12rcd13ifvqhvg","pricing_plan_id":"cebpf4jnsgd1na2vs0mg"},{"bike_id":"24d6d7cd-f94f-4435-a8e4-e866cb1be423","system_id":"levelo_inurba_marseille","lat":43.23148,"lon":5.43726,"is_reserved":false,"is_disabled":false,"rental_uris":{"android":"levelo://app?vid=24d6d7cd-f94f-4435-a8e4-e866cb1be423","ios":"levelo://app?vid=24d6d7cd-f94f-4435-a8e4-e866cb1be423"},"vehicle_type_id":"4","last_reported":1729847443,"current_range_meters":15200,"station_id":"ce4bhmp2rcd13ifvqgog","pricing_plan_id":"cebpf4jnsgd1na2vs0mg"},{"bike_id":"2c83906e-34b2-4de1-a842-6d257980343c","system_id":"levelo_inurba_marseille","lat":43.32359,"lon":5.38883,"is_reserved":false,"is_disabled":false,"rental_uris":{"android":"levelo://app?vid=2c83906e-34b2-4de1-a842-6d257980343c","ios":"levelo://app?vid=2c83906e-34b2-4de1-a842-6d257980343c"},"vehicle_type_id":"4","last_reported":1729847443,"current_range_meters":14000,"station_id":"ce4bhqp2rcd13ifvqhog","pricing_plan_id":"cebpf4jnsgd1na2vs0mg"},{"bike_id":"830195db-82a7-4890-9663-1f161cd50a03","system_id":"levelo_inurba_marseille","lat":43.28474,"lon":5.38533,"is_reserved":false,"is_disabled":false,"rental_uris":{"android":"levelo://app?vid=830195db-82a7-4890-9663-1f161cd50a03","ios":"levelo://app?vid=830195db-82a7-4890-9663-1f161cd50a03"},"vehicle_type_id":"4","last_reported":1729847443,"current_range_meters":27200,"station_id":"ce4bh8p2rcd13ifvqeb0","pricing_plan_id":"cebpf4jnsgd1na2vs0mg"},{"bike_id":"cf28c0ba-748d-4e8a-b8af-61e44f800fb1","system_id":"levelo_inurba_marseille","lat":43.2439,"lon":5.37065,"is_reserved":false,"is_disabled":false,"rental_uris":{"android":"levelo://app?vid=cf28c0ba-748d-4e8a-b8af-61e44f800fb1","ios":"levelo://app?vid=cf28c0ba-748d-4e8a-b8af-61e44f800fb1"},"vehicle_type_id":"4","last_reported":1729847443,"current_range_meters":4800,"station_id":"ce4bhhh2rcd13ifvqfk0","pricing_plan_id":"cebpf4jnsgd1na2vs0mg"},{"bike_id":"a72fd70a-e9bd-411a-971f-e81f65a0d4a0","system_id":"levelo_inurba_marseille","lat":43.28851,"lon":5.3587,"is_reserved":false,"is_disabled":false,"rental_uris":{"android":"levelo://app?vid=a72fd70a-e9bd-411a-971f-e81f65a0d4a0","ios":"levelo://app?vid=a72fd70a-e9bd-411a-971f-e81f65a0d4a0"},"vehicle_type_id":"4","last_reported":1729847443,"current_range_meters":19600,"station_id":"ce4bhb12rcd13ifvqem0","pricing_plan_id":"cebpf4jnsgd1na2vs0mg"},{"bike_id":"5c051331-bbff-49af-8bcf-b4862262cfdd","system_id":"levelo_inurba_marseille","lat":43.30174,"lon":5.36625,"is_reserved":false,"is_disabled":false,"rental_uris":{"android":"levelo://app?vid=5c051331-bbff-49af-8bcf-b4862262cfdd","ios":"levelo://app?vid=5c051331-bbff-49af-8bcf-b4862262cfdd"},"vehicle_type_id":"4","last_reported":1729847443,"current_range_meters":30800,"station_id":"ce4bgrh2rcd13ifvqc8g","pricing_plan_id":"cebpf4jnsgd1na2vs0mg"},{"bike_id":"265b1520-2fac-4cac-ad5d-1e76bac410f4","system_id":"levelo_inurba_marseille","lat":43.26553,"lon":5.37287,"is_reserved":false,"is_disabled":false,"rental_uris":{"android":"levelo://app?vid=265b1520-2fac-4cac-ad5d-1e76bac410f4","ios":"levelo://app?vid=265b1520-2fac-4cac-ad5d-1e76bac410f4"},"vehicle_type_id":"4","last_reported":1729847443,"current_range_meters":20800,"station_id":"ce4bhg12rcd13ifvqf70","pricing_plan_id":"cebpf4jnsgd1na2vs0mg"},{"bike_id":"82d8898e-e94c-47af-b02a-d946261e7001","system_id":"levelo_inurba_marseille","lat":43.31704,"lon":5.37762,"is_reserved":false,"is_disabled":false,"rental_uris":{"android":"levelo://app?vid=82d8898e-e94c-47af-b02a-d946261e7001","ios":"levelo://app?vid=82d8898e-e94c-47af-b02a-d946261e7001"},"vehicle_type_id":"4","last_reported":1729847443,"current_range_meters":39200,"station_id":"ce4bgth2rcd13ifvqch0","pricing_plan_id":"cebpf4jnsgd1na2vs0mg"},{"bike_id":"4ad22b9e-ed83-40b4-9252-5f067305ff1a","system_id":"levelo_inurba_marseille","lat":43.27611,"lon":5.36116,"is_reserved":false,"is_disabled":false,"rental_uris":{"android":"levelo://app?vid=4ad22b9e-ed83-40b4-9252-5f067305ff1a","ios":"levelo://app?vid=4ad22b9e-ed83-40b4-9252-5f067305ff1a"},"vehicle_type_id":"4","last_reported":1729847443,"current_range_meters":35200,"station_id":"ce4bgj92rcd13ifvqbe0","pricing_plan_id":"cebpf4jnsgd1na2vs0mg"},{"bike_id":"cdf07d22-898a-4f82-95f6-ff2cd86b2ac7","system_id":"levelo_inurba_marseille","lat":43.29621,"lon":5.37722,"is_reserved":false,"is_disabled":false,"rental_uris":{"android":"levelo://app?vid=cdf07d22-898a-4f82-95f6-ff2cd86b2ac7","ios":"levelo://app?vid=cdf07d22-898a-4f82-95f6-ff2cd86b2ac7"},"vehicle_type_id":"4","last_reported":1729847443,"current_range_meters":28400,"station_id":"ce4bgi92rcd13ifvqb90","pricing_plan_id":"cebpf4jnsgd1na2vs0mg"},{"bike_id":"85d39b56-80ae-4808-8b27-8eacc90d6ed5","system_id":"levelo_inurba_marseille","lat":43.304335,"lon":5.397456,"is_reserved":false,"is_disabled":false,"rental_uris":{"android":"levelo://app?vid=85d39b56-80ae-4808-8b27-8eacc90d6ed5","ios":"levelo://app?vid=85d39b56-80ae-4808-8b27-8eacc90d6ed5"},"vehicle_type_id":"4","last_reported":1729847443,"current_range_meters":37600,"station_id":"ce4bh0h2rcd13ifvqd60","pricing_plan_id":"cebpf4jnsgd1na2vs0mg"},{"bike_id":"6f820fd5-7f57-4c04-9601-efc0f344f7fa","system_id":"levelo_inurba_marseille","lat":43.29064,"lon":5.37153,"is_reserved":false,"is_disabled":false,"rental_uris":{"android":"levelo://app?vid=6f820fd5-7f57-4c04-9601-efc0f344f7fa","ios":"levelo://app?vid=6f820fd5-7f57-4c04-9601-efc0f344f7fa"},"vehicle_type_id":"4","last_reported":1729847443,"current_range_meters":38800,"station_id":"ce4bh5p2rcd13ifvqe4g","pricing_plan_id":"cebpf4jnsgd1na2vs0mg"},{"bike_id":"beacce13-cfcb-4737-a324-ad3de89dd7fd","system_id":"levelo_inurba_marseille","lat":43.25002,"lon":5.38922,"is_reserved":false,"is_disabled":false,"rental_uris":{"android":"levelo://app?vid=beacce13-cfcb-4737-a324-ad3de89dd7fd","ios":"levelo://app?vid=beacce13-cfcb-4737-a324-ad3de89dd7fd"},"vehicle_type_id":"4","last_reported":1729847443,"current_range_meters":32400,"station_id":"ce4bhgp2rcd13ifvqfd0","pricing_plan_id":"cebpf4jnsgd1na2vs0mg"},{"bike_id":"41ad5674-23d7-4b16-9c2c-8e521e1c04b2","system_id":"levelo_inurba_marseille","lat":43.29572,"lon":5.37523,"is_reserved":false,"is_disabled":false,"rental_uris":{"android":"levelo://app?vid=41ad5674-23d7-4b16-9c2c-8e521e1c04b2","ios":"levelo://app?vid=41ad5674-23d7-4b16-9c2c-8e521e1c04b2"},"vehicle_type_id":"4","last_reported":1729847443,"current_range_meters":35600,"station_id":"ce4bgh92rcd13ifvqb50","pricing_plan_id":"cebpf4jnsgd1na2vs0mg"},{"bike_id":"c2525139-b60a-4966-bbf0-5968afad9493","system_id":"levelo_inurba_marseille","lat":43.27297,"lon":5.39103,"is_reserved":false,"is_disabled":false,"rental_uris":{"android":"levelo://app?vid=c2525139-b60a-4966-bbf0-5968afad9493","ios":"levelo://app?vid=c2525139-b60a-4966-bbf0-5968afad9493"},"vehicle_type_id":"4","last_reported":1729847443,"current_range_meters":22800,"station_id":"ce4bhgp2rcd13ifvqfe0","pricing_plan_id":"cebpf4jnsgd1na2vs0mg"},{"bike_id":"56044108-f8bc-4064-b993-4fd51f0645f6","system_id":"levelo_inurba_marseille","lat":43.292602,"lon":5.408987,"is_reserved":false,"is_disabled":false,"rental_uris":{"android":"levelo://app?vid=56044108-f8bc-4064-b993-4fd51f0645f6","ios":"levelo://app?vid=56044108-f8bc-4064-b993-4fd51f0645f6"},"vehicle_type_id":"4","last_reported":1729847443,"current_range_meters":38000,"station_id":"ce4bh192rcd13ifvqdc0","pricing_plan_id":"cebpf4jnsgd1na2vs0mg"},{"bike_id":"47dc4271-d82f-46d3-a4ac-2d0aa82174df","system_id":"levelo_inurba_marseille","lat":43.3056,"lon":5.36547,"is_reserved":false,"is_disabled":false,"rental_uris":{"android":"levelo://app?vid=47dc4271-d82f-46d3-a4ac-2d0aa82174df","ios":"levelo://app?vid=47dc4271-d82f-46d3-a4ac-2d0aa82174df"},"vehicle_type_id":"4","last_reported":1729847443,"current_range_meters":37600,"station_id":"ce4bgs12rcd13ifvqcag","pricing_plan_id":"cebpf4jnsgd1na2vs0mg"},{"bike_id":"6cb0d09c-4434-41fe-bab7-3f2ab7b0ac84","system_id":"levelo_inurba_marseille","lat":43.23055,"lon":5.35495,"is_reserved":false,"is_disabled":false,"rental_uris":{"android":"levelo://app?vid=6cb0d09c-4434-41fe-bab7-3f2ab7b0ac84","ios":"levelo://app?vid=6cb0d09c-4434-41fe-bab7-3f2ab7b0ac84"},"vehicle_type_id":"4","last_reported":1729847443,"current_range_meters":22800,"station_id":"cpo3342slgdg3j2ifvpg","pricing_plan_id":"cebpf4jnsgd1na2vs0mg"},{"bike_id":"b85af3b3-7a60-4c70-a2e1-012a71c6422b","system_id":"levelo_inurba_marseille","lat":43.25932,"lon":5.40916,"is_reserved":false,"is_disabled":false,"rental_uris":{"android":"levelo://app?vid=b85af3b3-7a60-4c70-a2e1-012a71c6422b","ios":"levelo://app?vid=b85af3b3-7a60-4c70-a2e1-012a71c6422b"},"vehicle_type_id":"4","last_reported":1729847443,"current_range_meters":14800,"station_id":"ce4bhm92rcd13ifvqglg","pricing_plan_id":"cebpf4jnsgd1na2vs0mg"},{"bike_id":"f8c6f1bc-ea44-4ab8-b33c-f75f82cb071b","system_id":"levelo_inurba_marseille","lat":43.23182,"lon":5.39989,"is_reserved":false,"is_disabled":false,"rental_uris":{"android":"levelo://app?vid=f8c6f1bc-ea44-4ab8-b33c-f75f82cb071b","ios":"levelo://app?vid=f8c6f1bc-ea44-4ab8-b33c-f75f82cb071b"},"vehicle_type_id":"4","last_reported":1729847443,"current_range_meters":3600,"station_id":"ce4bhn12rcd13ifvqgqg","pricing_plan_id":"cebpf4jnsgd1na2vs0mg"},{"bike_id":"157b85d9-82c7-4dc7-937e-26c44eacdbb4","system_id":"levelo_inurba_marseille","lat":43.30947,"lon":5.39043,"is_reserved":false,"is_disabled":false,"rental_uris":{"android":"levelo://app?vid=157b85d9-82c7-4dc7-937e-26c44eacdbb4","ios":"levelo://app?vid=157b85d9-82c7-4dc7-937e-26c44eacdbb4"},"vehicle_type_id":"4","last_reported":1729847443,"current_range_meters":6800,"station_id":"ce4bgup2rcd13ifvqco0","pricing_plan_id":"cebpf4jnsgd1na2vs0mg"},{"bike_id":"3bf058f4-2b34-4cd0-9eac-aba88f91176d","system_id":"levelo_inurba_marseille","lat":43.26774,"lon":5.39425,"is_reserved":false,"is_disabled":false,"rental_uris":{"android":"levelo://app?vid=3bf058f4-2b34-4cd0-9eac-aba88f91176d","ios":"levelo://app?vid=3bf058f4-2b34-4cd0-9eac-aba88f91176d"},"vehicle_type_id":"4","last_reported":1729847443,"current_range_meters":24400,"station_id":"ce4bhh12rcd13ifvqfg0","pricing_plan_id":"cebpf4jnsgd1na2vs0mg"},{"bike_id":"661e62a9-af33-4796-bf88-bdb0e3140103","system_id":"levelo_inurba_marseille","lat":43.28838,"lon":5.35862,"is_reserved":false,"is_disabled":false,"rental_uris":{"android":"levelo://app?vid=661e62a9-af33-4796-bf88-bdb0e3140103","ios":"levelo://app?vid=661e62a9-af33-4796-bf88-bdb0e3140103"},"vehicle_type_id":"4","last_reported":1729847443,"current_range_meters":38800,"station_id":"ce4bhb12rcd13ifvqem0","pricing_plan_id":"cebpf4jnsgd1na2vs0mg"},{"bike_id":"108c0296-d49a-4500-a655-9dc6be1eb554","system_id":"levelo_inurba_marseille","lat":43.26948,"lon":5.38634,"is_reserved":false,"is_disabled":false,"rental_uris":{"android":"levelo://app?vid=108c0296-d49a-4500-a655-9dc6be1eb554","ios":"levelo://app?vid=108c0296-d49a-4500-a655-9dc6be1eb554"},"vehicle_type_id":"4","last_reported":1729847443,"current_range_meters":39200,"station_id":"ce4bhh92rcd13ifvqfh0","pricing_plan_id":"cebpf4jnsgd1na2vs0mg"},{"bike_id":"6b5a2cb3-8d86-495e-bbb3-078458662957","system_id":"levelo_inurba_marseille","lat":43.28445,"lon":5.39206,"is_reserved":false,"is_disabled":false,"rental_uris":{"android":"levelo://app?vid=6b5a2cb3-8d86-495e-bbb3-078458662957","ios":"levelo://app?vid=6b5a2cb3-8d86-495e-bbb3-078458662957"},"vehicle_type_id":"4","last_reported":1729847443,"current_range_meters":27600,"station_id":"ce4bhoh2rcd13ifvqh5g","pricing_plan_id":"cebpf4jnsgd1na2vs0mg"},{"bike_id":"f9127f7b-7c52-4997-b73f-3dc75b596a9c","system_id":"levelo_inurba_marseille","lat":43.34149,"lon":5.40898,"is_reserved":false,"is_disabled":false,"rental_uris":{"android":"levelo://app?vid=f9127f7b-7c52-4997-b73f-3dc75b596a9c","ios":"levelo://app?vid=f9127f7b-7c52-4997-b73f-3dc75b596a9c"},"vehicle_type_id":"4","last_reported":1729847443,"current_range_meters":38800,"station_id":"ce4bhqh2rcd13ifvqhlg","pricing_plan_id":"cebpf4jnsgd1na2vs0mg"},{"bike_id":"d52a2156-ae1a-455a-b6c9-a989b04eeb93","system_id":"levelo_inurba_marseille","lat":43.29094,"lon":5.38138,"is_reserved":false,"is_disabled":false,"rental_uris":{"android":"levelo://app?vid=d52a2156-ae1a-455a-b6c9-a989b04eeb93","ios":"levelo://app?vid=d52a2156-ae1a-455a-b6c9-a989b04eeb93"},"vehicle_type_id":"4","last_reported":1729847443,"current_range_meters":38400,"station_id":"ce4bh512rcd13ifvqe2g","pricing_plan_id":"cebpf4jnsgd1na2vs0mg"},{"bike_id":"e598e1c8-9978-4dc0-9ea8-c0464ecf71b5","system_id":"levelo_inurba_marseille","lat":43.29995,"lon":5.38484,"is_reserved":false,"is_disabled":false,"rental_uris":{"android":"levelo://app?vid=e598e1c8-9978-4dc0-9ea8-c0464ecf71b5","ios":"levelo://app?vid=e598e1c8-9978-4dc0-9ea8-c0464ecf71b5"},"vehicle_type_id":"4","last_reported":1729847443,"current_range_meters":38000,"station_id":"ce4bgj92rcd13ifvqbd0","pricing_plan_id":"cebpf4jnsgd1na2vs0mg"},{"bike_id":"4468208d-a0a9-4302-976f-4b7d3cc8f418","system_id":"levelo_inurba_marseille","lat":43.26205,"lon":5.37931,"is_reserved":false,"is_disabled":false,"rental_uris":{"android":"levelo://app?vid=4468208d-a0a9-4302-976f-4b7d3cc8f418","ios":"levelo://app?vid=4468208d-a0a9-4302-976f-4b7d3cc8f418"},"vehicle_type_id":"4","last_reported":1729847443,"current_range_meters":38800,"station_id":"ce4bhjp2rcd13ifvqg90","pricing_plan_id":"cebpf4jnsgd1na2vs0mg"},{"bike_id":"7ebc9bdb-d16d-4077-bbd0-ac0bc6127ef4","system_id":"levelo_inurba_marseille","lat":43.30546,"lon":5.3671,"is_reserved":false,"is_disabled":false,"rental_uris":{"android":"levelo://app?vid=7ebc9bdb-d16d-4077-bbd0-ac0bc6127ef4","ios":"levelo://app?vid=7ebc9bdb-d16d-4077-bbd0-ac0bc6127ef4"},"vehicle_type_id":"4","last_reported":1729847443,"current_range_meters":18000,"station_id":"ce4bgrp2rcd13ifvqc9g","pricing_plan_id":"cebpf4jnsgd1na2vs0mg"},{"bike_id":"6e2598ac-0fbf-493a-9031-5b061e5ab2d3","system_id":"levelo_inurba_marseille","lat":43.29567,"lon":5.37514,"is_reserved":false,"is_disabled":false,"rental_uris":{"android":"levelo://app?vid=6e2598ac-0fbf-493a-9031-5b061e5ab2d3","ios":"levelo://app?vid=6e2598ac-0fbf-493a-9031-5b061e5ab2d3"},"vehicle_type_id":"4","last_reported":1729847443,"current_range_meters":36400,"station_id":"ce4bgh92rcd13ifvqb50","pricing_plan_id":"cebpf4jnsgd1na2vs0mg"},{"bike_id":"079f133f-06e4-426a-a83a-fbdba1ec2530","system_id":"levelo_inurba_marseille","lat":43.27317,"lon":5.39082,"is_reserved":false,"is_disabled":false,"rental_uris":{"android":"levelo://app?vid=079f133f-06e4-426a-a83a-fbdba1ec2530","ios":"levelo://app?vid=079f133f-06e4-426a-a83a-fbdba1ec2530"},"vehicle_type_id":"4","last_reported":1729847443,"current_range_meters":27600,"station_id":"ce4bhgp2rcd13ifvqfe0","pricing_plan_id":"cebpf4jnsgd1na2vs0mg"},{"bike_id":"ec704ecc-fb19-4944-a166-51d2af2a0dbf","system_id":"levelo_inurba_marseille","lat":43.32109,"lon":5.36765,"is_reserved":false,"is_disabled":false,"rental_uris":{"android":"levelo://app?vid=ec704ecc-fb19-4944-a166-51d2af2a0dbf","ios":"levelo://app?vid=ec704ecc-fb19-4944-a166-51d2af2a0dbf"},"vehicle_type_id":"4","last_reported":1729847443,"current_range_meters":16800,"station_id":"ce4bhrh2rcd13ifvqhug","pricing_plan_id":"cebpf4jnsgd1na2vs0mg"},{"bike_id":"18295cba-459b-4864-bdc6-9405fe3604b3","system_id":"levelo_inurba_marseille","lat":43.32484,"lon":5.36561,"is_reserved":false,"is_disabled":false,"rental_uris":{"android":"levelo://app?vid=18295cba-459b-4864-bdc6-9405fe3604b3","ios":"levelo://app?vid=18295cba-459b-4864-bdc6-9405fe3604b3"},"vehicle_type_id":"4","last_reported":1729847443,"current_range_meters":30400,"station_id":"ce4bhs12rcd13ifvqhvg","pricing_plan_id":"cebpf4jnsgd1na2vs0mg"},{"bike_id":"cbe83600-d3d4-47cf-a8e7-33e68c43cc90","system_id":"levelo_inurba_marseille","lat":43.26944,"lon":5.38643,"is_reserved":false,"is_disabled":false,"rental_uris":{"android":"levelo://app?vid=cbe83600-d3d4-47cf-a8e7-33e68c43cc90","ios":"levelo://app?vid=cbe83600-d3d4-47cf-a8e7-33e68c43cc90"},"vehicle_type_id":"4","last_reported":1729847443,"current_range_meters":38000,"station_id":"ce4bhh92rcd13ifvqfh0","pricing_plan_id":"cebpf4jnsgd1na2vs0mg"},{"bike_id":"47339929-9de4-4698-8627-ce618e835aea","system_id":"levelo_inurba_marseille","lat":43.28266,"lon":5.35075,"is_reserved":false,"is_disabled":false,"rental_uris":{"android":"levelo://app?vid=47339929-9de4-4698-8627-ce618e835aea","ios":"levelo://app?vid=47339929-9de4-4698-8627-ce618e835aea"},"vehicle_type_id":"4","last_reported":1729847443,"current_range_meters":33600,"station_id":"ce4bhbp2rcd13ifvqerg","pricing_plan_id":"cebpf4jnsgd1na2vs0mg"},{"bike_id":"2a1e2e86-9935-4b9e-96fe-6f39bbcdc99a","system_id":"levelo_inurba_marseille","lat":43.26554,"lon":5.39011,"is_reserved":false,"is_disabled":false,"rental_uris":{"android":"levelo://app?vid=2a1e2e86-9935-4b9e-96fe-6f39bbcdc99a","ios":"levelo://app?vid=2a1e2e86-9935-4b9e-96fe-6f39bbcdc99a"},"vehicle_type_id":"4","last_reported":1729847443,"current_range_meters":28000,"station_id":"ce4bhe12rcd13ifvqf30","pricing_plan_id":"cebpf4jnsgd1na2vs0mg"},{"bike_id":"e25afe84-1b81-4ad0-89f2-0e3ca3c9dbb7","system_id":"levelo_inurba_marseille","lat":43.30546,"lon":5.36706,"is_reserved":false,"is_disabled":false,"rental_uris":{"android":"levelo://app?vid=e25afe84-1b81-4ad0-89f2-0e3ca3c9dbb7","ios":"levelo://app?vid=e25afe84-1b81-4ad0-89f2-0e3ca3c9dbb7"},"vehicle_type_id":"4","last_reported":1729847443,"current_range_meters":16000,"station_id":"ce4bgrp2rcd13ifvqc9g","pricing_plan_id":"cebpf4jnsgd1na2vs0mg"},{"bike_id":"53e930fa-62fc-4e05-9d90-817344731d2d","system_id":"levelo_inurba_marseille","lat":43.30347,"lon":5.41884,"is_reserved":false,"is_disabled":false,"rental_uris":{"android":"levelo://app?vid=53e930fa-62fc-4e05-9d90-817344731d2d","ios":"levelo://app?vid=53e930fa-62fc-4e05-9d90-817344731d2d"},"vehicle_type_id":"4","last_reported":1729847443,"current_range_meters":24000,"station_id":"ce4bhop2rcd13ifvqh7g","pricing_plan_id":"cebpf4jnsgd1na2vs0mg"},{"bike_id":"6244dc69-8ab2-4ba3-b0ca-a0d1a64c774d","system_id":"levelo_inurba_marseille","lat":43.258703,"lon":5.39907,"is_reserved":false,"is_disabled":false,"rental_uris":{"android":"levelo://app?vid=6244dc69-8ab2-4ba3-b0ca-a0d1a64c774d","ios":"levelo://app?vid=6244dc69-8ab2-4ba3-b0ca-a0d1a64c774d"},"vehicle_type_id":"4","last_reported":1729847443,"current_range_meters":26000,"station_id":"ce4bhl92rcd13ifvqghg","pricing_plan_id":"cebpf4jnsgd1na2vs0mg"},{"bike_id":"037d13d7-7848-4fee-89f8-405d2b54bb87","system_id":"levelo_inurba_marseille","lat":43.25567,"lon":5.3824,"is_reserved":false,"is_disabled":false,"rental_uris":{"android":"levelo://app?vid=037d13d7-7848-4fee-89f8-405d2b54bb87","ios":"levelo://app?vid=037d13d7-7848-4fee-89f8-405d2b54bb87"},"vehicle_type_id":"4","last_reported":1729847443,"current_range_meters":2000,"station_id":"ce4bhih2rcd13ifvqfs0","pricing_plan_id":"cebpf4jnsgd1na2vs0mg"},{"bike_id":"1c94711f-6e8d-4080-84e2-4aabc2656ca2","system_id":"levelo_inurba_marseille","lat":43.3133,"lon":5.397,"is_reserved":false,"is_disabled":false,"rental_uris":{"android":"levelo://app?vid=1c94711f-6e8d-4080-84e2-4aabc2656ca2","ios":"levelo://app?vid=1c94711f-6e8d-4080-84e2-4aabc2656ca2"},"vehicle_type_id":"4","last_reported":1729847443,"current_range_meters":38000,"station_id":"ce4bgvp2rcd13ifvqcu0","pricing_plan_id":"cebpf4jnsgd1na2vs0mg"},{"bike_id":"6dc495b7-34c5-4379-aab1-e54f4c9868dd","system_id":"levelo_inurba_marseille","lat":43.33607,"lon":5.41035,"is_reserved":false,"is_disabled":false,"rental_uris":{"android":"levelo://app?vid=6dc495b7-34c5-4379-aab1-e54f4c9868dd","ios":"levelo://app?vid=6dc495b7-34c5-4379-aab1-e54f4c9868dd"},"vehicle_type_id":"4","last_reported":1729847443,"current_range_meters":24400,"station_id":"ce4bhqh2rcd13ifvqhmg","pricing_plan_id":"cebpf4jnsgd1na2vs0mg"},{"bike_id":"9203375a-2136-4116-aa8e-6b9e45482200","system_id":"levelo_inurba_marseille","lat":43.29968,"lon":5.38499,"is_reserved":false,"is_disabled":false,"rental_uris":{"android":"levelo://app?vid=9203375a-2136-4116-aa8e-6b9e45482200","ios":"levelo://app?vid=9203375a-2136-4116-aa8e-6b9e45482200"},"vehicle_type_id":"4","last_reported":1729847443,"current_range_meters":17200,"station_id":"ce4bgj92rcd13ifvqbd0","pricing_plan_id":"cebpf4jnsgd1na2vs0mg"},{"bike_id":"27d1e154-2f5b-4d7f-a6f7-25a97d4e7ef0","system_id":"levelo_inurba_marseille","lat":43.30189,"lon":5.36619,"is_reserved":false,"is_disabled":false,"rental_uris":{"android":"levelo://app?vid=27d1e154-2f5b-4d7f-a6f7-25a97d4e7ef0","ios":"levelo://app?vid=27d1e154-2f5b-4d7f-a6f7-25a97d4e7ef0"},"vehicle_type_id":"4","last_reported":1729847443,"current_range_meters":28800,"station_id":"ce4bgrh2rcd13ifvqc8g","pricing_plan_id":"cebpf4jnsgd1na2vs0mg"},{"bike_id":"b2858f28-8dae-4c3a-abc3-b3e59efb19d5","system_id":"levelo_inurba_marseille","lat":43.30183,"lon":5.36627,"is_reserved":false,"is_disabled":false,"rental_uris":{"android":"levelo://app?vid=b2858f28-8dae-4c3a-abc3-b3e59efb19d5","ios":"levelo://app?vid=b2858f28-8dae-4c3a-abc3-b3e59efb19d5"},"vehicle_type_id":"4","last_reported":1729847443,"current_range_meters":16800,"station_id":"ce4bgrh2rcd13ifvqc8g","pricing_plan_id":"cebpf4jnsgd1na2vs0mg"},{"bike_id":"66ded492-47b9-4db9-b8ce-e99f46743db0","system_id":"levelo_inurba_marseille","lat":43.26474,"lon":5.395527,"is_reserved":false,"is_disabled":false,"rental_uris":{"android":"levelo://app?vid=66ded492-47b9-4db9-b8ce-e99f46743db0","ios":"levelo://app?vid=66ded492-47b9-4db9-b8ce-e99f46743db0"},"vehicle_type_id":"4","last_reported":1729847443,"current_range_meters":26000,"station_id":"ce4bhi12rcd13ifvqfq0","pricing_plan_id":"cebpf4jnsgd1na2vs0mg"},{"bike_id":"ea49dcab-794a-4bda-8247-77371dad772a","system_id":"levelo_inurba_marseille","lat":43.309501,"lon":5.390376,"is_reserved":false,"is_disabled":false,"rental_uris":{"android":"levelo://app?vid=ea49dcab-794a-4bda-8247-77371dad772a","ios":"levelo://app?vid=ea49dcab-794a-4bda-8247-77371dad772a"},"vehicle_type_id":"4","last_reported":1729847443,"current_range_meters":19600,"station_id":"ce4bgup2rcd13ifvqco0","pricing_plan_id":"cebpf4jnsgd1na2vs0mg"},{"bike_id":"9c980766-3696-42be-8e1a-d22fb6edb5c5","system_id":"levelo_inurba_marseille","lat":43.30645,"lon":5.38193,"is_reserved":false,"is_disabled":false,"rental_uris":{"android":"levelo://app?vid=9c980766-3696-42be-8e1a-d22fb6edb5c5","ios":"levelo://app?vid=9c980766-3696-42be-8e1a-d22fb6edb5c5"},"vehicle_type_id":"4","last_reported":1729847443,"current_range_meters":24800,"station_id":"","pricing_plan_id":"cebpf4jnsgd1na2vs0mg"},{"bike_id":"e0803e35-923c-49df-a807-1c86fb265270","system_id":"levelo_inurba_marseille","lat":43.25941,"lon":5.40903,"is_reserved":false,"is_disabled":false,"rental_uris":{"android":"levelo://app?vid=e0803e35-923c-49df-a807-1c86fb265270","ios":"levelo://app?vid=e0803e35-923c-49df-a807-1c86fb265270"},"vehicle_type_id":"4","last_reported":1729847443,"current_range_meters":14400,"station_id":"ce4bhm92rcd13ifvqglg","pricing_plan_id":"cebpf4jnsgd1na2vs0mg"},{"bike_id":"6fd4971a-db3f-4826-9ddf-71b29c3b9231","system_id":"levelo_inurba_marseille","lat":43.27809,"lon":5.40723,"is_reserved":false,"is_disabled":false,"rental_uris":{"android":"levelo://app?vid=6fd4971a-db3f-4826-9ddf-71b29c3b9231","ios":"levelo://app?vid=6fd4971a-db3f-4826-9ddf-71b29c3b9231"},"vehicle_type_id":"4","last_reported":1729847443,"current_range_meters":14400,"station_id":"ce4bhnh2rcd13ifvqgtg","pricing_plan_id":"cebpf4jnsgd1na2vs0mg"},{"bike_id":"f9ec36ed-f1e8-4d39-a330-d53d339322cc","system_id":"levelo_inurba_marseille","lat":43.24943,"lon":5.39736,"is_reserved":false,"is_disabled":false,"rental_uris":{"android":"levelo://app?vid=f9ec36ed-f1e8-4d39-a330-d53d339322cc","ios":"levelo://app?vid=f9ec36ed-f1e8-4d39-a330-d53d339322cc"},"vehicle_type_id":"4","last_reported":1729847443,"current_range_meters":18000,"station_id":"","pricing_plan_id":"cebpf4jnsgd1na2vs0mg"},{"bike_id":"52f0e4a5-d535-4f96-b297-18be6815ac33","system_id":"levelo_inurba_marseille","lat":43.33724,"lon":5.39181,"is_reserved":false,"is_disabled":false,"rental_uris":{"android":"levelo://app?vid=52f0e4a5-d535-4f96-b297-18be6815ac33","ios":"levelo://app?vid=52f0e4a5-d535-4f96-b297-18be6815ac33"},"vehicle_type_id":"4","last_reported":1729847443,"current_range_meters":38800,"station_id":"ce4bhr92rcd13ifvqhsg","pricing_plan_id":"cebpf4jnsgd1na2vs0mg"},{"bike_id":"754334dc-7c77-42cd-ae7c-2bd7ea4eeedc","system_id":"levelo_inurba_marseille","lat":43.25093,"lon":5.39522,"is_reserved":false,"is_disabled":false,"rental_uris":{"android":"levelo://app?vid=754334dc-7c77-42cd-ae7c-2bd7ea4eeedc","ios":"levelo://app?vid=754334dc-7c77-42cd-ae7c-2bd7ea4eeedc"},"vehicle_type_id":"4","last_reported":1729847443,"current_range_meters":27600,"station_id":"ce4bhm12rcd13ifvqgkg","pricing_plan_id":"cebpf4jnsgd1na2vs0mg"},{"bike_id":"ddc9d34a-3a18-4656-afac-2c40e00335c6","system_id":"levelo_inurba_marseille","lat":43.26488,"lon":5.39551,"is_reserved":false,"is_disabled":false,"rental_uris":{"android":"levelo://app?vid=ddc9d34a-3a18-4656-afac-2c40e00335c6","ios":"levelo://app?vid=ddc9d34a-3a18-4656-afac-2c40e00335c6"},"vehicle_type_id":"4","last_reported":1729847443,"current_range_meters":8400,"station_id":"ce4bhi12rcd13ifvqfq0","pricing_plan_id":"cebpf4jnsgd1na2vs0mg"},{"bike_id":"d8319b3a-9b21-4114-9e15-4aad32ca2b98","system_id":"levelo_inurba_marseille","lat":43.29528,"lon":5.37498,"is_reserved":false,"is_disabled":false,"rental_uris":{"android":"levelo://app?vid=d8319b3a-9b21-4114-9e15-4aad32ca2b98","ios":"levelo://app?vid=d8319b3a-9b21-4114-9e15-4aad32ca2b98"},"vehicle_type_id":"4","last_reported":1729847443,"current_range_meters":38800,"station_id":"ce4bgkp2rcd13ifvqbmg","pricing_plan_id":"cebpf4jnsgd1na2vs0mg"},{"bike_id":"21b771f5-e12c-4d5b-be50-280d4e6da9bd","system_id":"levelo_inurba_marseille","lat":43.26684,"lon":5.38267,"is_reserved":false,"is_disabled":false,"rental_uris":{"android":"levelo://app?vid=21b771f5-e12c-4d5b-be50-280d4e6da9bd","ios":"levelo://app?vid=21b771f5-e12c-4d5b-be50-280d4e6da9bd"},"vehicle_type_id":"4","last_reported":1729847443,"current_range_meters":25600,"station_id":"ce4bhg92rcd13ifvqf90","pricing_plan_id":"cebpf4jnsgd1na2vs0mg"},{"bike_id":"6b38ae1d-7e34-4dc3-89f5-dda1f7888cce","system_id":"levelo_inurba_marseille","lat":43.30426,"lon":5.36844,"is_reserved":false,"is_disabled":false,"rental_uris":{"android":"levelo://app?vid=6b38ae1d-7e34-4dc3-89f5-dda1f7888cce","ios":"levelo://app?vid=6b38ae1d-7e34-4dc3-89f5-dda1f7888cce"},"vehicle_type_id":"4","last_reported":1729847443,"current_range_meters":33200,"station_id":"","pricing_plan_id":"cebpf4jnsgd1na2vs0mg"},{"bike_id":"02095aeb-40df-4e58-a3e8-055824d2d542","system_id":"levelo_inurba_marseille","lat":43.29168,"lon":5.37157,"is_reserved":false,"is_disabled":false,"rental_uris":{"android":"levelo://app?vid=02095aeb-40df-4e58-a3e8-055824d2d542","ios":"levelo://app?vid=02095aeb-40df-4e58-a3e8-055824d2d542"},"vehicle_type_id":"4","last_reported":1729847443,"current_range_meters":38800,"station_id":"ce4bha92rcd13ifvqeh0","pricing_plan_id":"cebpf4jnsgd1na2vs0mg"},{"bike_id":"9547fe9f-7da9-478b-9033-f446ea71bb69","system_id":"levelo_inurba_marseille","lat":43.31076,"lon":5.42437,"is_reserved":false,"is_disabled":false,"rental_uris":{"android":"levelo://app?vid=9547fe9f-7da9-478b-9033-f446ea71bb69","ios":"levelo://app?vid=9547fe9f-7da9-478b-9033-f446ea71bb69"},"vehicle_type_id":"4","last_reported":1729847443,"current_range_meters":37600,"station_id":"ce4bhp92rcd13ifvqhag","pricing_plan_id":"cebpf4jnsgd1na2vs0mg"},{"bike_id":"998825e5-2e6e-4a68-bad6-c8d6020043fe","system_id":"levelo_inurba_marseille","lat":43.27058,"lon":5.40255,"is_reserved":false,"is_disabled":false,"rental_uris":{"android":"levelo://app?vid=998825e5-2e6e-4a68-bad6-c8d6020043fe","ios":"levelo://app?vid=998825e5-2e6e-4a68-bad6-c8d6020043fe"},"vehicle_type_id":"4","last_reported":1729847443,"current_range_meters":27200,"station_id":"ce4bhk92rcd13ifvqgc0","pricing_plan_id":"cebpf4jnsgd1na2vs0mg"},{"bike_id":"aa2296b3-9e48-4eb8-8736-02ee29db4f53","system_id":"levelo_inurba_marseille","lat":43.30277,"lon":5.37705,"is_reserved":false,"is_disabled":false,"rental_uris":{"android":"levelo://app?vid=aa2296b3-9e48-4eb8-8736-02ee29db4f53","ios":"levelo://app?vid=aa2296b3-9e48-4eb8-8736-02ee29db4f53"},"vehicle_type_id":"4","last_reported":1729847443,"current_range_meters":38800,"station_id":"ce4bguh2rcd13ifvqcj0","pricing_plan_id":"cebpf4jnsgd1na2vs0mg"},{"bike_id":"feda9bc1-b886-4640-ad92-201ddc16513e","system_id":"levelo_inurba_marseille","lat":43.32289,"lon":5.3827,"is_reserved":false,"is_disabled":false,"rental_uris":{"android":"levelo://app?vid=feda9bc1-b886-4640-ad92-201ddc16513e","ios":"levelo://app?vid=feda9bc1-b886-4640-ad92-201ddc16513e"},"vehicle_type_id":"4","last_reported":1729847443,"current_range_meters":39200,"station_id":"ce4bhr12rcd13ifvqhqg","pricing_plan_id":"cebpf4jnsgd1na2vs0mg"},{"bike_id":"a0db3d29-3d1d-4ca6-b459-338d53529492","system_id":"levelo_inurba_marseille","lat":43.2919,"lon":5.39318,"is_reserved":false,"is_disabled":false,"rental_uris":{"android":"levelo://app?vid=a0db3d29-3d1d-4ca6-b459-338d53529492","ios":"levelo://app?vid=a0db3d29-3d1d-4ca6-b459-338d53529492"},"vehicle_type_id":"4","last_reported":1729847443,"current_range_meters":38800,"station_id":"ce4bh192rcd13ifvqdd0","pricing_plan_id":"cebpf4jnsgd1na2vs0mg"},{"bike_id":"6819dfde-cec8-40f8-8dd0-66d3b46554d8","system_id":"levelo_inurba_marseille","lat":43.30945,"lon":5.39056,"is_reserved":false,"is_disabled":false,"rental_uris":{"android":"levelo://app?vid=6819dfde-cec8-40f8-8dd0-66d3b46554d8","ios":"levelo://app?vid=6819dfde-cec8-40f8-8dd0-66d3b46554d8"},"vehicle_type_id":"4","last_reported":1729847443,"current_range_meters":17200,"station_id":"ce4bgup2rcd13ifvqco0","pricing_plan_id":"cebpf4jnsgd1na2vs0mg"},{"bike_id":"efe0b02e-9dcd-4192-8f41-25a0bf494636","system_id":"levelo_inurba_marseille","lat":43.32482,"lon":5.36571,"is_reserved":false,"is_disabled":false,"rental_uris":{"android":"levelo://app?vid=efe0b02e-9dcd-4192-8f41-25a0bf494636","ios":"levelo://app?vid=efe0b02e-9dcd-4192-8f41-25a0bf494636"},"vehicle_type_id":"4","last_reported":1729847443,"current_range_meters":3600,"station_id":"ce4bhs12rcd13ifvqhvg","pricing_plan_id":"cebpf4jnsgd1na2vs0mg"},{"bike_id":"83813a32-8aaa-45b9-93e9-eb6e5eeb7b78","system_id":"levelo_inurba_marseille","lat":43.28479,"lon":5.38569,"is_reserved":false,"is_disabled":false,"rental_uris":{"android":"levelo://app?vid=83813a32-8aaa-45b9-93e9-eb6e5eeb7b78","ios":"levelo://app?vid=83813a32-8aaa-45b9-93e9-eb6e5eeb7b78"},"vehicle_type_id":"4","last_reported":1729847443,"current_range_meters":38800,"station_id":"ce4bh8p2rcd13ifvqeb0","pricing_plan_id":"cebpf4jnsgd1na2vs0mg"},{"bike_id":"a6372292-563d-4771-a01d-bf6771d8264b","system_id":"levelo_inurba_marseille","lat":43.29845,"lon":5.36276,"is_reserved":false,"is_disabled":false,"rental_uris":{"android":"levelo://app?vid=a6372292-563d-4771-a01d-bf6771d8264b","ios":"levelo://app?vid=a6372292-563d-4771-a01d-bf6771d8264b"},"vehicle_type_id":"4","last_reported":1729847443,"current_range_meters":14400,"station_id":"ce4bgpp2rcd13ifvqc3g","pricing_plan_id":"cebpf4jnsgd1na2vs0mg"},{"bike_id":"212337c5-c27c-4ce8-a37e-735a2e6c27ae","system_id":"levelo_inurba_marseille","lat":43.31702,"lon":5.37757,"is_reserved":false,"is_disabled":false,"rental_uris":{"android":"levelo://app?vid=212337c5-c27c-4ce8-a37e-735a2e6c27ae","ios":"levelo://app?vid=212337c5-c27c-4ce8-a37e-735a2e6c27ae"},"vehicle_type_id":"4","last_reported":1729847443,"current_range_meters":38800,"station_id":"ce4bgth2rcd13ifvqch0","pricing_plan_id":"cebpf4jnsgd1na2vs0mg"},{"bike_id":"ac5d0c42-0a97-4b76-8e63-18c0f73df0c1","system_id":"levelo_inurba_marseille","lat":43.30562,"lon":5.36715,"is_reserved":false,"is_disabled":false,"rental_uris":{"android":"levelo://app?vid=ac5d0c42-0a97-4b76-8e63-18c0f73df0c1","ios":"levelo://app?vid=ac5d0c42-0a97-4b76-8e63-18c0f73df0c1"},"vehicle_type_id":"4","last_reported":1729847443,"current_range_meters":4000,"station_id":"ce4bgrp2rcd13ifvqc9g","pricing_plan_id":"cebpf4jnsgd1na2vs0mg"},{"bike_id":"100759b9-44b8-4fb4-8d08-e5c88619dbba","system_id":"levelo_inurba_marseille","lat":43.29727,"lon":5.37693,"is_reserved":false,"is_disabled":false,"rental_uris":{"android":"levelo://app?vid=100759b9-44b8-4fb4-8d08-e5c88619dbba","ios":"levelo://app?vid=100759b9-44b8-4fb4-8d08-e5c88619dbba"},"vehicle_type_id":"4","last_reported":1729847443,"current_range_meters":25200,"station_id":"ce4bgkh2rcd13ifvqbl0","pricing_plan_id":"cebpf4jnsgd1na2vs0mg"},{"bike_id":"61eee6fa-5b8e-4081-a763-cb47ff01403e","system_id":"levelo_inurba_marseille","lat":43.3014,"lon":5.37418,"is_reserved":false,"is_disabled":false,"rental_uris":{"android":"levelo://app?vid=61eee6fa-5b8e-4081-a763-cb47ff01403e","ios":"levelo://app?vid=61eee6fa-5b8e-4081-a763-cb47ff01403e"},"vehicle_type_id":"4","last_reported":1729847443,"current_range_meters":30000,"station_id":"ce4bgs92rcd13ifvqcc0","pricing_plan_id":"cebpf4jnsgd1na2vs0mg"},{"bike_id":"c5d4767b-3e59-47bf-834e-c8722675028e","system_id":"levelo_inurba_marseille","lat":43.29354,"lon":5.37846,"is_reserved":false,"is_disabled":false,"rental_uris":{"android":"levelo://app?vid=c5d4767b-3e59-47bf-834e-c8722675028e","ios":"levelo://app?vid=c5d4767b-3e59-47bf-834e-c8722675028e"},"vehicle_type_id":"4","last_reported":1729847443,"current_range_meters":28400,"station_id":"ce4bgjh2rcd13ifvqbf0","pricing_plan_id":"cebpf4jnsgd1na2vs0mg"},{"bike_id":"000c9eb4-0f10-4dc6-84b2-7829018c9128","system_id":"levelo_inurba_marseille","lat":43.2919,"lon":5.35812,"is_reserved":false,"is_disabled":false,"rental_uris":{"android":"levelo://app?vid=000c9eb4-0f10-4dc6-84b2-7829018c9128","ios":"levelo://app?vid=000c9eb4-0f10-4dc6-84b2-7829018c9128"},"vehicle_type_id":"4","last_reported":1729847443,"current_range_meters":38800,"station_id":"ce4bhb12rcd13ifvqel0","pricing_plan_id":"cebpf4jnsgd1na2vs0mg"},{"bike_id":"33f3cd12-d731-4635-87bd-d537c8cccff6","system_id":"levelo_inurba_marseille","lat":43.23153,"lon":5.43711,"is_reserved":false,"is_disabled":false,"rental_uris":{"android":"levelo://app?vid=33f3cd12-d731-4635-87bd-d537c8cccff6","ios":"levelo://app?vid=33f3cd12-d731-4635-87bd-d537c8cccff6"},"vehicle_type_id":"4","last_reported":1729847443,"current_range_meters":33200,"station_id":"ce4bhmp2rcd13ifvqgog","pricing_plan_id":"cebpf4jnsgd1na2vs0mg"},{"bike_id":"bef79c7b-6150-4763-acf5-15940fe8d437","system_id":"levelo_inurba_marseille","lat":43.23153,"lon":5.43706,"is_reserved":false,"is_disabled":false,"rental_uris":{"android":"levelo://app?vid=bef79c7b-6150-4763-acf5-15940fe8d437","ios":"levelo://app?vid=bef79c7b-6150-4763-acf5-15940fe8d437"},"vehicle_type_id":"4","last_reported":1729847443,"current_range_meters":15200,"station_id":"ce4bhmp2rcd13ifvqgog","pricing_plan_id":"cebpf4jnsgd1na2vs0mg"},{"bike_id":"27f07749-69c9-4079-9dec-2b38276cccb0","system_id":"levelo_inurba_marseille","lat":43.23154,"lon":5.43704,"is_reserved":false,"is_disabled":false,"rental_uris":{"android":"levelo://app?vid=27f07749-69c9-4079-9dec-2b38276cccb0","ios":"levelo://app?vid=27f07749-69c9-4079-9dec-2b38276cccb0"},"vehicle_type_id":"4","last_reported":1729847443,"current_range_meters":40000,"station_id":"ce4bhmp2rcd13ifvqgog","pricing_plan_id":"cebpf4jnsgd1na2vs0mg"},{"bike_id":"7691659f-eea1-4b4d-8db5-2728fcde3a23","system_id":"levelo_inurba_marseille","lat":43.29386,"lon":5.37528,"is_reserved":false,"is_disabled":false,"rental_uris":{"android":"levelo://app?vid=7691659f-eea1-4b4d-8db5-2728fcde3a23","ios":"levelo://app?vid=7691659f-eea1-4b4d-8db5-2728fcde3a23"},"vehicle_type_id":"4","last_reported":1729847443,"current_range_meters":27200,"station_id":"ce4bhr12rcd13ifvqhqg","pricing_plan_id":"cebpf4jnsgd1na2vs0mg"},{"bike_id":"41951dfb-5533-408a-8fc9-8a73235cd504","system_id":"levelo_inurba_marseille","lat":43.29164,"lon":5.37152,"is_reserved":false,"is_disabled":false,"rental_uris":{"android":"levelo://app?vid=41951dfb-5533-408a-8fc9-8a73235cd504","ios":"levelo://app?vid=41951dfb-5533-408a-8fc9-8a73235cd504"},"vehicle_type_id":"4","last_reported":1729847443,"current_range_meters":38800,"station_id":"ce4bha92rcd13ifvqeh0","pricing_plan_id":"cebpf4jnsgd1na2vs0mg"},{"bike_id":"25d7399c-85f4-4413-be85-4a3a66b590cf","system_id":"levelo_inurba_marseille","lat":43.304262,"lon":5.412817,"is_reserved":false,"is_disabled":false,"rental_uris":{"android":"levelo://app?vid=25d7399c-85f4-4413-be85-4a3a66b590cf","ios":"levelo://app?vid=25d7399c-85f4-4413-be85-4a3a66b590cf"},"vehicle_type_id":"4","last_reported":1729847443,"current_range_meters":23200,"station_id":"ce4bhop2rcd13ifvqh8g","pricing_plan_id":"cebpf4jnsgd1na2vs0mg"},{"bike_id":"2350cb5d-ff21-4b58-b0dc-ebdeffb3d9a8","system_id":"levelo_inurba_marseille","lat":43.33748,"lon":5.37463,"is_reserved":false,"is_disabled":false,"rental_uris":{"android":"levelo://app?vid=2350cb5d-ff21-4b58-b0dc-ebdeffb3d9a8","ios":"levelo://app?vid=2350cb5d-ff21-4b58-b0dc-ebdeffb3d9a8"},"vehicle_type_id":"4","last_reported":1729847443,"current_range_meters":38000,"station_id":"","pricing_plan_id":"cebpf4jnsgd1na2vs0mg"},{"bike_id":"5066a086-1066-40d1-9082-797e2d21a279","system_id":"levelo_inurba_marseille","lat":43.26931,"lon":5.38915,"is_reserved":false,"is_disabled":false,"rental_uris":{"android":"levelo://app?vid=5066a086-1066-40d1-9082-797e2d21a279","ios":"levelo://app?vid=5066a086-1066-40d1-9082-797e2d21a279"},"vehicle_type_id":"4","last_reported":1729847443,"current_range_meters":38000,"station_id":"ce4bhhh2rcd13ifvqfl0","pricing_plan_id":"cebpf4jnsgd1na2vs0mg"},{"bike_id":"f60c9e82-d1ec-4d84-b346-c7732145b9a3","system_id":"levelo_inurba_marseille","lat":43.29307,"lon":5.37166,"is_reserved":false,"is_disabled":false,"rental_uris":{"android":"levelo://app?vid=f60c9e82-d1ec-4d84-b346-c7732145b9a3","ios":"levelo://app?vid=f60c9e82-d1ec-4d84-b346-c7732145b9a3"},"vehicle_type_id":"4","last_reported":1729847443,"current_range_meters":18000,"station_id":"ce4bgh92rcd13ifvqb40","pricing_plan_id":"cebpf4jnsgd1na2vs0mg"},{"bike_id":"7f660910-5c6f-4cea-a6d8-14e4f8ea1e75","system_id":"levelo_inurba_marseille","lat":43.2762,"lon":5.36113,"is_reserved":false,"is_disabled":false,"rental_uris":{"android":"levelo://app?vid=7f660910-5c6f-4cea-a6d8-14e4f8ea1e75","ios":"levelo://app?vid=7f660910-5c6f-4cea-a6d8-14e4f8ea1e75"},"vehicle_type_id":"4","last_reported":1729847443,"current_range_meters":29600,"station_id":"ce4bgj92rcd13ifvqbe0","pricing_plan_id":"cebpf4jnsgd1na2vs0mg"},{"bike_id":"f9d1f7fc-cf8f-493b-b3b6-011275ab25ab","system_id":"levelo_inurba_marseille","lat":43.26784,"lon":5.39414,"is_reserved":false,"is_disabled":false,"rental_uris":{"android":"levelo://app?vid=f9d1f7fc-cf8f-493b-b3b6-011275ab25ab","ios":"levelo://app?vid=f9d1f7fc-cf8f-493b-b3b6-011275ab25ab"},"vehicle_type_id":"4","last_reported":1729847443,"current_range_meters":38800,"station_id":"ce4bhh12rcd13ifvqfg0","pricing_plan_id":"cebpf4jnsgd1na2vs0mg"},{"bike_id":"c006d23a-0d84-499b-b2a1-2452d8146785","system_id":"levelo_inurba_marseille","lat":43.25726,"lon":5.4111,"is_reserved":false,"is_disabled":false,"rental_uris":{"android":"levelo://app?vid=c006d23a-0d84-499b-b2a1-2452d8146785","ios":"levelo://app?vid=c006d23a-0d84-499b-b2a1-2452d8146785"},"vehicle_type_id":"4","last_reported":1729847443,"current_range_meters":12800,"station_id":"ce4bhkp2rcd13ifvqgd0","pricing_plan_id":"cebpf4jnsgd1na2vs0mg"},{"bike_id":"3225153f-a0c4-43c8-aff8-3d937d83550b","system_id":"levelo_inurba_marseille","lat":43.26792,"lon":5.39415,"is_reserved":false,"is_disabled":false,"rental_uris":{"android":"levelo://app?vid=3225153f-a0c4-43c8-aff8-3d937d83550b","ios":"levelo://app?vid=3225153f-a0c4-43c8-aff8-3d937d83550b"},"vehicle_type_id":"4","last_reported":1729847443,"current_range_meters":8400,"station_id":"ce4bhh12rcd13ifvqfg0","pricing_plan_id":"cebpf4jnsgd1na2vs0mg"},{"bike_id":"b2abab08-9a8a-41c3-9da9-725fbf5fc847","system_id":"levelo_inurba_marseille","lat":43.25002,"lon":5.38925,"is_reserved":false,"is_disabled":false,"rental_uris":{"android":"levelo://app?vid=b2abab08-9a8a-41c3-9da9-725fbf5fc847","ios":"levelo://app?vid=b2abab08-9a8a-41c3-9da9-725fbf5fc847"},"vehicle_type_id":"4","last_reported":1729847443,"current_range_meters":35600,"station_id":"ce4bhgp2rcd13ifvqfd0","pricing_plan_id":"cebpf4jnsgd1na2vs0mg"},{"bike_id":"b6917784-1237-413b-beab-3ed506304f38","system_id":"levelo_inurba_marseille","lat":43.293671,"lon":5.37856,"is_reserved":false,"is_disabled":false,"rental_uris":{"android":"levelo://app?vid=b6917784-1237-413b-beab-3ed506304f38","ios":"levelo://app?vid=b6917784-1237-413b-beab-3ed506304f38"},"vehicle_type_id":"4","last_reported":1729847443,"current_range_meters":22400,"station_id":"ce4bgjh2rcd13ifvqbf0","pricing_plan_id":"cebpf4jnsgd1na2vs0mg"},{"bike_id":"66f020ae-5526-4ad0-8af9-6a968240ac52","system_id":"levelo_inurba_marseille","lat":43.32481,"lon":5.3657,"is_reserved":false,"is_disabled":false,"rental_uris":{"android":"levelo://app?vid=66f020ae-5526-4ad0-8af9-6a968240ac52","ios":"levelo://app?vid=66f020ae-5526-4ad0-8af9-6a968240ac52"},"vehicle_type_id":"4","last_reported":1729847443,"current_range_meters":38000,"station_id":"ce4bhs12rcd13ifvqhvg","pricing_plan_id":"cebpf4jnsgd1na2vs0mg"},{"bike_id":"6e490ada-941f-4a47-b70c-faae73b36f3c","system_id":"levelo_inurba_marseille","lat":43.24068,"lon":5.37757,"is_reserved":false,"is_disabled":false,"rental_uris":{"android":"levelo://app?vid=6e490ada-941f-4a47-b70c-faae73b36f3c","ios":"levelo://app?vid=6e490ada-941f-4a47-b70c-faae73b36f3c"},"vehicle_type_id":"4","last_reported":1729847443,"current_range_meters":28400,"station_id":"ce4bhnp2rcd13ifvqgvg","pricing_plan_id":"cebpf4jnsgd1na2vs0mg"},{"bike_id":"35e94745-dd9f-4662-a974-ea234f010053","system_id":"levelo_inurba_marseille","lat":43.31349,"lon":5.36724,"is_reserved":false,"is_disabled":false,"rental_uris":{"android":"levelo://app?vid=35e94745-dd9f-4662-a974-ea234f010053","ios":"levelo://app?vid=35e94745-dd9f-4662-a974-ea234f010053"},"vehicle_type_id":"4","last_reported":1729847443,"current_range_meters":38800,"station_id":"ce4bgr92rcd13ifvqc6g","pricing_plan_id":"cebpf4jnsgd1na2vs0mg"},{"bike_id":"e121f930-c62c-435a-964f-38aaea1095f3","system_id":"levelo_inurba_marseille","lat":43.28711,"lon":5.39985,"is_reserved":false,"is_disabled":false,"rental_uris":{"android":"levelo://app?vid=e121f930-c62c-435a-964f-38aaea1095f3","ios":"levelo://app?vid=e121f930-c62c-435a-964f-38aaea1095f3"},"vehicle_type_id":"4","last_reported":1729847443,"current_range_meters":10000,"station_id":"ce4bho92rcd13ifvqh3g","pricing_plan_id":"cebpf4jnsgd1na2vs0mg"},{"bike_id":"e57c76c1-22c8-4e83-81e2-8acecdd924b9","system_id":"levelo_inurba_marseille","lat":43.28835,"lon":5.3586,"is_reserved":false,"is_disabled":false,"rental_uris":{"android":"levelo://app?vid=e57c76c1-22c8-4e83-81e2-8acecdd924b9","ios":"levelo://app?vid=e57c76c1-22c8-4e83-81e2-8acecdd924b9"},"vehicle_type_id":"4","last_reported":1729847443,"current_range_meters":38400,"station_id":"ce4bhb12rcd13ifvqem0","pricing_plan_id":"cebpf4jnsgd1na2vs0mg"},{"bike_id":"7276050f-79ec-49ec-b168-664b03c90fb2","system_id":"levelo_inurba_marseille","lat":43.30459,"lon":5.37905,"is_reserved":false,"is_disabled":false,"rental_uris":{"android":"levelo://app?vid=7276050f-79ec-49ec-b168-664b03c90fb2","ios":"levelo://app?vid=7276050f-79ec-49ec-b168-664b03c90fb2"},"vehicle_type_id":"4","last_reported":1729847443,"current_range_meters":3200,"station_id":"ce4bgup2rcd13ifvqcn0","pricing_plan_id":"cebpf4jnsgd1na2vs0mg"},{"bike_id":"81c4b7a3-3e44-4907-a60a-bfba71ab372e","system_id":"levelo_inurba_marseille","lat":43.26202,"lon":5.37929,"is_reserved":false,"is_disabled":false,"rental_uris":{"android":"levelo://app?vid=81c4b7a3-3e44-4907-a60a-bfba71ab372e","ios":"levelo://app?vid=81c4b7a3-3e44-4907-a60a-bfba71ab372e"},"vehicle_type_id":"4","last_reported":1729847443,"current_range_meters":17200,"station_id":"ce4bhjp2rcd13ifvqg90","pricing_plan_id":"cebpf4jnsgd1na2vs0mg"},{"bike_id":"97f67f56-9e3d-4890-aa15-0793e8998e10","system_id":"levelo_inurba_marseille","lat":43.29514,"lon":5.39404,"is_reserved":false,"is_disabled":false,"rental_uris":{"android":"levelo://app?vid=97f67f56-9e3d-4890-aa15-0793e8998e10","ios":"levelo://app?vid=97f67f56-9e3d-4890-aa15-0793e8998e10"},"vehicle_type_id":"4","last_reported":1729847443,"current_range_meters":3200,"station_id":"ce4bh292rcd13ifvqdf0","pricing_plan_id":"cebpf4jnsgd1na2vs0mg"},{"bike_id":"acbfb634-9458-4521-8d39-79b36fc061b2","system_id":"levelo_inurba_marseille","lat":43.31713,"lon":5.43704,"is_reserved":false,"is_disabled":false,"rental_uris":{"android":"levelo://app?vid=acbfb634-9458-4521-8d39-79b36fc061b2","ios":"levelo://app?vid=acbfb634-9458-4521-8d39-79b36fc061b2"},"vehicle_type_id":"4","last_reported":1729847443,"current_range_meters":38000,"station_id":"ce4bhp92rcd13ifvqhcg","pricing_plan_id":"cebpf4jnsgd1na2vs0mg"},{"bike_id":"86edebb0-a452-4519-8985-db568b9817e6","system_id":"levelo_inurba_marseille","lat":43.27308,"lon":5.39106,"is_reserved":false,"is_disabled":false,"rental_uris":{"android":"levelo://app?vid=86edebb0-a452-4519-8985-db568b9817e6","ios":"levelo://app?vid=86edebb0-a452-4519-8985-db568b9817e6"},"vehicle_type_id":"4","last_reported":1729847443,"current_range_meters":28800,"station_id":"ce4bhgp2rcd13ifvqfe0","pricing_plan_id":"cebpf4jnsgd1na2vs0mg"},{"bike_id":"8b59008c-4ef8-4665-8bee-7b4d420c2bba","system_id":"levelo_inurba_marseille","lat":43.30312,"lon":5.369,"is_reserved":false,"is_disabled":false,"rental_uris":{"android":"levelo://app?vid=8b59008c-4ef8-4665-8bee-7b4d420c2bba","ios":"levelo://app?vid=8b59008c-4ef8-4665-8bee-7b4d420c2bba"},"vehicle_type_id":"4","last_reported":1729847443,"current_range_meters":37600,"station_id":"ce4bgqh2rcd13ifvqc5g","pricing_plan_id":"cebpf4jnsgd1na2vs0mg"},{"bike_id":"6fcb2428-d68a-4a7c-bcdc-0d507d962a65","system_id":"levelo_inurba_marseille","lat":43.24544,"lon":5.39534,"is_reserved":false,"is_disabled":false,"rental_uris":{"android":"levelo://app?vid=6fcb2428-d68a-4a7c-bcdc-0d507d962a65","ios":"levelo://app?vid=6fcb2428-d68a-4a7c-bcdc-0d507d962a65"},"vehicle_type_id":"4","last_reported":1729847443,"current_range_meters":18000,"station_id":"ce4bhlp2rcd13ifvqgjg","pricing_plan_id":"cebpf4jnsgd1na2vs0mg"},{"bike_id":"0bc90dc2-cf8c-457e-a6aa-9b91de95f992","system_id":"levelo_inurba_marseille","lat":43.26185,"lon":5.37454,"is_reserved":false,"is_disabled":false,"rental_uris":{"android":"levelo://app?vid=0bc90dc2-cf8c-457e-a6aa-9b91de95f992","ios":"levelo://app?vid=0bc90dc2-cf8c-457e-a6aa-9b91de95f992"},"vehicle_type_id":"4","last_reported":1729847443,"current_range_meters":28400,"station_id":"","pricing_plan_id":"cebpf4jnsgd1na2vs0mg"},{"bike_id":"d51e70e3-e500-4ad8-afdb-77e572148b3c","system_id":"levelo_inurba_marseille","lat":43.30283,"lon":5.37697,"is_reserved":false,"is_disabled":false,"rental_uris":{"android":"levelo://app?vid=d51e70e3-e500-4ad8-afdb-77e572148b3c","ios":"levelo://app?vid=d51e70e3-e500-4ad8-afdb-77e572148b3c"},"vehicle_type_id":"4","last_reported":1729847443,"current_range_meters":38400,"station_id":"ce4bguh2rcd13ifvqcj0","pricing_plan_id":"cebpf4jnsgd1na2vs0mg"},{"bike_id":"28709b84-b83d-46ed-8adb-237970d4384b","system_id":"levelo_inurba_marseille","lat":43.32363,"lon":5.38881,"is_reserved":false,"is_disabled":false,"rental_uris":{"android":"levelo://app?vid=28709b84-b83d-46ed-8adb-237970d4384b","ios":"levelo://app?vid=28709b84-b83d-46ed-8adb-237970d4384b"},"vehicle_type_id":"4","last_reported":1729847443,"current_range_meters":27600,"station_id":"ce4bhqp2rcd13ifvqhog","pricing_plan_id":"cebpf4jnsgd1na2vs0mg"},{"bike_id":"6ae5c146-3499-40d3-86c2-6885fd8ebd2d","system_id":"levelo_inurba_marseille","lat":43.29585,"lon":5.36744,"is_reserved":false,"is_disabled":false,"rental_uris":{"android":"levelo://app?vid=6ae5c146-3499-40d3-86c2-6885fd8ebd2d","ios":"levelo://app?vid=6ae5c146-3499-40d3-86c2-6885fd8ebd2d"},"vehicle_type_id":"4","last_reported":1729847443,"current_range_meters":38000,"station_id":"ce4bgph2rcd13ifvqc2g","pricing_plan_id":"cebpf4jnsgd1na2vs0mg"},{"bike_id":"106ffd58-5ff3-4239-b573-ce3a7d8e7a52","system_id":"levelo_inurba_marseille","lat":43.30543,"lon":5.36542,"is_reserved":false,"is_disabled":false,"rental_uris":{"android":"levelo://app?vid=106ffd58-5ff3-4239-b573-ce3a7d8e7a52","ios":"levelo://app?vid=106ffd58-5ff3-4239-b573-ce3a7d8e7a52"},"vehicle_type_id":"4","last_reported":1729847443,"current_range_meters":33600,"station_id":"ce4bgs12rcd13ifvqcag","pricing_plan_id":"cebpf4jnsgd1na2vs0mg"},{"bike_id":"ce42fb7a-0448-4758-8a74-e9e6ef4991ec","system_id":"levelo_inurba_marseille","lat":43.30355,"lon":5.41877,"is_reserved":false,"is_disabled":false,"rental_uris":{"android":"levelo://app?vid=ce42fb7a-0448-4758-8a74-e9e6ef4991ec","ios":"levelo://app?vid=ce42fb7a-0448-4758-8a74-e9e6ef4991ec"},"vehicle_type_id":"4","last_reported":1729847443,"current_range_meters":38800,"station_id":"ce4bhop2rcd13ifvqh7g","pricing_plan_id":"cebpf4jnsgd1na2vs0mg"},{"bike_id":"b56e21ab-14c0-4c6c-af8d-b6c5222088d4","system_id":"levelo_inurba_marseille","lat":43.27818,"lon":5.40724,"is_reserved":false,"is_disabled":false,"rental_uris":{"android":"levelo://app?vid=b56e21ab-14c0-4c6c-af8d-b6c5222088d4","ios":"levelo://app?vid=b56e21ab-14c0-4c6c-af8d-b6c5222088d4"},"vehicle_type_id":"4","last_reported":1729847443,"current_range_meters":30000,"station_id":"ce4bhnh2rcd13ifvqgtg","pricing_plan_id":"cebpf4jnsgd1na2vs0mg"},{"bike_id":"190b49ac-2174-4a94-a43b-6781438b16a5","system_id":"levelo_inurba_marseille","lat":43.26034,"lon":5.37543,"is_reserved":false,"is_disabled":false,"rental_uris":{"android":"levelo://app?vid=190b49ac-2174-4a94-a43b-6781438b16a5","ios":"levelo://app?vid=190b49ac-2174-4a94-a43b-6781438b16a5"},"vehicle_type_id":"4","last_reported":1729847443,"current_range_meters":39200,"station_id":"ce4bhgh2rcd13ifvqfa0","pricing_plan_id":"cebpf4jnsgd1na2vs0mg"},{"bike_id":"467bfdb6-1722-469c-9a5e-479cb9b4e1b6","system_id":"levelo_inurba_marseille","lat":43.26686,"lon":5.38274,"is_reserved":false,"is_disabled":false,"rental_uris":{"android":"levelo://app?vid=467bfdb6-1722-469c-9a5e-479cb9b4e1b6","ios":"levelo://app?vid=467bfdb6-1722-469c-9a5e-479cb9b4e1b6"},"vehicle_type_id":"4","last_reported":1729847443,"current_range_meters":24800,"station_id":"ce4bhg92rcd13ifvqf90","pricing_plan_id":"cebpf4jnsgd1na2vs0mg"},{"bike_id":"e2c65bd7-36e3-433a-8913-100ebe186b23","system_id":"levelo_inurba_marseille","lat":43.287,"lon":5.39984,"is_reserved":false,"is_disabled":false,"rental_uris":{"android":"levelo://app?vid=e2c65bd7-36e3-433a-8913-100ebe186b23","ios":"levelo://app?vid=e2c65bd7-36e3-433a-8913-100ebe186b23"},"vehicle_type_id":"4","last_reported":1729847443,"current_range_meters":38400,"station_id":"ce4bho92rcd13ifvqh3g","pricing_plan_id":"cebpf4jnsgd1na2vs0mg"},{"bike_id":"afb85bfa-0e4d-434c-84a7-234f6929fc39","system_id":"levelo_inurba_marseille","lat":43.295868,"lon":5.378579,"is_reserved":false,"is_disabled":false,"rental_uris":{"android":"levelo://app?vid=afb85bfa-0e4d-434c-84a7-234f6929fc39","ios":"levelo://app?vid=afb85bfa-0e4d-434c-84a7-234f6929fc39"},"vehicle_type_id":"4","last_reported":1729847443,"current_range_meters":34000,"station_id":"ce4bhbh2rcd13ifvqepg","pricing_plan_id":"cebpf4jnsgd1na2vs0mg"},{"bike_id":"46419dc0-d4be-4b83-bbfb-10aa2d207094","system_id":"levelo_inurba_marseille","lat":43.294356,"lon":5.397413,"is_reserved":false,"is_disabled":false,"rental_uris":{"android":"levelo://app?vid=46419dc0-d4be-4b83-bbfb-10aa2d207094","ios":"levelo://app?vid=46419dc0-d4be-4b83-bbfb-10aa2d207094"},"vehicle_type_id":"4","last_reported":1729847443,"current_range_meters":2800,"station_id":"ce4bh3h2rcd13ifvqdo0","pricing_plan_id":"cebpf4jnsgd1na2vs0mg"},{"bike_id":"a6141e1c-ebd6-4938-9d61-857ead7a1a6e","system_id":"levelo_inurba_marseille","lat":43.30828,"lon":5.37732,"is_reserved":false,"is_disabled":false,"rental_uris":{"android":"levelo://app?vid=a6141e1c-ebd6-4938-9d61-857ead7a1a6e","ios":"levelo://app?vid=a6141e1c-ebd6-4938-9d61-857ead7a1a6e"},"vehicle_type_id":"4","last_reported":1729847443,"current_range_meters":38400,"station_id":"ce4bgv92rcd13ifvqcq0","pricing_plan_id":"cebpf4jnsgd1na2vs0mg"},{"bike_id":"36856ec2-b80b-4ae8-abff-10088c18f7e8","system_id":"levelo_inurba_marseille","lat":43.24159,"lon":5.36404,"is_reserved":false,"is_disabled":false,"rental_uris":{"android":"levelo://app?vid=36856ec2-b80b-4ae8-abff-10088c18f7e8","ios":"levelo://app?vid=36856ec2-b80b-4ae8-abff-10088c18f7e8"},"vehicle_type_id":"4","last_reported":1729847443,"current_range_meters":37600,"station_id":"cpo36qri1sfpv3e86is0","pricing_plan_id":"cebpf4jnsgd1na2vs0mg"},{"bike_id":"d2b4a30c-fa04-4d83-8504-421bcece3b1e","system_id":"levelo_inurba_marseille","lat":43.30889,"lon":5.37208,"is_reserved":false,"is_disabled":false,"rental_uris":{"android":"levelo://app?vid=d2b4a30c-fa04-4d83-8504-421bcece3b1e","ios":"levelo://app?vid=d2b4a30c-fa04-4d83-8504-421bcece3b1e"},"vehicle_type_id":"4","last_reported":1729847443,"current_range_meters":28400,"station_id":"ce4bguh2rcd13ifvqckg","pricing_plan_id":"cebpf4jnsgd1na2vs0mg"},{"bike_id":"bd995abb-12e7-47a6-b0b9-e1f25439576a","system_id":"levelo_inurba_marseille","lat":43.24998,"lon":5.38924,"is_reserved":false,"is_disabled":false,"rental_uris":{"android":"levelo://app?vid=bd995abb-12e7-47a6-b0b9-e1f25439576a","ios":"levelo://app?vid=bd995abb-12e7-47a6-b0b9-e1f25439576a"},"vehicle_type_id":"4","last_reported":1729847443,"current_range_meters":38800,"station_id":"ce4bhgp2rcd13ifvqfd0","pricing_plan_id":"cebpf4jnsgd1na2vs0mg"},{"bike_id":"fbfac620-b382-42c4-bf17-b935124b96ca","system_id":"levelo_inurba_marseille","lat":43.26946,"lon":5.38635,"is_reserved":false,"is_disabled":false,"rental_uris":{"android":"levelo://app?vid=fbfac620-b382-42c4-bf17-b935124b96ca","ios":"levelo://app?vid=fbfac620-b382-42c4-bf17-b935124b96ca"},"vehicle_type_id":"4","last_reported":1729847443,"current_range_meters":34800,"station_id":"ce4bhh92rcd13ifvqfh0","pricing_plan_id":"cebpf4jnsgd1na2vs0mg"},{"bike_id":"e49bdabe-7da4-4b77-996f-8ac928b9addf","system_id":"levelo_inurba_marseille","lat":43.29909,"lon":5.38156,"is_reserved":false,"is_disabled":false,"rental_uris":{"android":"levelo://app?vid=e49bdabe-7da4-4b77-996f-8ac928b9addf","ios":"levelo://app?vid=e49bdabe-7da4-4b77-996f-8ac928b9addf"},"vehicle_type_id":"4","last_reported":1729847443,"current_range_meters":27600,"station_id":"ce4bgj12rcd13ifvqbc0","pricing_plan_id":"cebpf4jnsgd1na2vs0mg"},{"bike_id":"80e19c95-c236-4e67-8386-6f6940025c29","system_id":"levelo_inurba_marseille","lat":43.28977,"lon":5.37837,"is_reserved":false,"is_disabled":false,"rental_uris":{"android":"levelo://app?vid=80e19c95-c236-4e67-8386-6f6940025c29","ios":"levelo://app?vid=80e19c95-c236-4e67-8386-6f6940025c29"},"vehicle_type_id":"4","last_reported":1729847443,"current_range_meters":25600,"station_id":"ce4bh9p2rcd13ifvqed0","pricing_plan_id":"cebpf4jnsgd1na2vs0mg"},{"bike_id":"3e9b9deb-e84f-43cc-adab-c5d392737ac6","system_id":"levelo_inurba_marseille","lat":43.30717,"lon":5.38258,"is_reserved":false,"is_disabled":false,"rental_uris":{"android":"levelo://app?vid=3e9b9deb-e84f-43cc-adab-c5d392737ac6","ios":"levelo://app?vid=3e9b9deb-e84f-43cc-adab-c5d392737ac6"},"vehicle_type_id":"4","last_reported":1729847443,"current_range_meters":34000,"station_id":"","pricing_plan_id":"cebpf4jnsgd1na2vs0mg"},{"bike_id":"69c50a7a-8960-41bd-bcf6-67af981ebe82","system_id":"levelo_inurba_marseille","lat":43.28847,"lon":5.35851,"is_reserved":false,"is_disabled":false,"rental_uris":{"android":"levelo://app?vid=69c50a7a-8960-41bd-bcf6-67af981ebe82","ios":"levelo://app?vid=69c50a7a-8960-41bd-bcf6-67af981ebe82"},"vehicle_type_id":"4","last_reported":1729847443,"current_range_meters":38000,"station_id":"ce4bhb12rcd13ifvqem0","pricing_plan_id":"cebpf4jnsgd1na2vs0mg"},{"bike_id":"ab922779-bbad-48db-955a-89366d4c8d66","system_id":"levelo_inurba_marseille","lat":43.30796,"lon":5.38154,"is_reserved":false,"is_disabled":false,"rental_uris":{"android":"levelo://app?vid=ab922779-bbad-48db-955a-89366d4c8d66","ios":"levelo://app?vid=ab922779-bbad-48db-955a-89366d4c8d66"},"vehicle_type_id":"4","last_reported":1729847443,"current_range_meters":36800,"station_id":"ce4bgt12rcd13ifvqce0","pricing_plan_id":"cebpf4jnsgd1na2vs0mg"},{"bike_id":"44be9d2e-bde0-4bb5-b728-f98352844703","system_id":"levelo_inurba_marseille","lat":43.25934,"lon":5.40915,"is_reserved":false,"is_disabled":false,"rental_uris":{"android":"levelo://app?vid=44be9d2e-bde0-4bb5-b728-f98352844703","ios":"levelo://app?vid=44be9d2e-bde0-4bb5-b728-f98352844703"},"vehicle_type_id":"4","last_reported":1729847443,"current_range_meters":17200,"station_id":"ce4bhm92rcd13ifvqglg","pricing_plan_id":"cebpf4jnsgd1na2vs0mg"},{"bike_id":"ce770b54-44c4-4678-8c4a-ee271f30dc45","system_id":"levelo_inurba_marseille","lat":43.31172,"lon":5.38712,"is_reserved":false,"is_disabled":false,"rental_uris":{"android":"levelo://app?vid=ce770b54-44c4-4678-8c4a-ee271f30dc45","ios":"levelo://app?vid=ce770b54-44c4-4678-8c4a-ee271f30dc45"},"vehicle_type_id":"4","last_reported":1729847443,"current_range_meters":37600,"station_id":"ce4bgv12rcd13ifvqcp0","pricing_plan_id":"cebpf4jnsgd1na2vs0mg"},{"bike_id":"365a5e76-e012-4983-b8a9-1a07480bde83","system_id":"levelo_inurba_marseille","lat":43.23192,"lon":5.35547,"is_reserved":false,"is_disabled":false,"rental_uris":{"android":"levelo://app?vid=365a5e76-e012-4983-b8a9-1a07480bde83","ios":"levelo://app?vid=365a5e76-e012-4983-b8a9-1a07480bde83"},"vehicle_type_id":"4","last_reported":1729847443,"current_range_meters":38800,"station_id":"ce4bhu92rcd13ifvqi70","pricing_plan_id":"cebpf4jnsgd1na2vs0mg"},{"bike_id":"176c2bd2-7d0c-4278-833a-48f82a51f6ca","system_id":"levelo_inurba_marseille","lat":43.26192,"lon":5.37929,"is_reserved":false,"is_disabled":false,"rental_uris":{"android":"levelo://app?vid=176c2bd2-7d0c-4278-833a-48f82a51f6ca","ios":"levelo://app?vid=176c2bd2-7d0c-4278-833a-48f82a51f6ca"},"vehicle_type_id":"4","last_reported":1729847443,"current_range_meters":38800,"station_id":"ce4bhjp2rcd13ifvqg90","pricing_plan_id":"cebpf4jnsgd1na2vs0mg"},{"bike_id":"6feb7ded-3bea-4297-b3d7-056a1104c816","system_id":"levelo_inurba_marseille","lat":43.33119,"lon":5.38218,"is_reserved":false,"is_disabled":false,"rental_uris":{"android":"levelo://app?vid=6feb7ded-3bea-4297-b3d7-056a1104c816","ios":"levelo://app?vid=6feb7ded-3bea-4297-b3d7-056a1104c816"},"vehicle_type_id":"4","last_reported":1729847443,"current_range_meters":32000,"station_id":"","pricing_plan_id":"cebpf4jnsgd1na2vs0mg"},{"bike_id":"3ed821f3-cfc4-488c-b7de-280e69521fee","system_id":"levelo_inurba_marseille","lat":43.27621,"lon":5.36115,"is_reserved":false,"is_disabled":false,"rental_uris":{"android":"levelo://app?vid=3ed821f3-cfc4-488c-b7de-280e69521fee","ios":"levelo://app?vid=3ed821f3-cfc4-488c-b7de-280e69521fee"},"vehicle_type_id":"4","last_reported":1729847443,"current_range_meters":38000,"station_id":"ce4bgj92rcd13ifvqbe0","pricing_plan_id":"cebpf4jnsgd1na2vs0mg"},{"bike_id":"2b9eead0-d729-4eef-b339-573474a69b2f","system_id":"levelo_inurba_marseille","lat":43.29007,"lon":5.35609,"is_reserved":false,"is_disabled":false,"rental_uris":{"android":"levelo://app?vid=2b9eead0-d729-4eef-b339-573474a69b2f","ios":"levelo://app?vid=2b9eead0-d729-4eef-b339-573474a69b2f"},"vehicle_type_id":"4","last_reported":1729847443,"current_range_meters":30000,"station_id":"ce4bhb92rcd13ifvqen0","pricing_plan_id":"cebpf4jnsgd1na2vs0mg"},{"bike_id":"973b854a-5fe9-40bd-9dcd-7bfe59f37d07","system_id":"levelo_inurba_marseille","lat":43.30171,"lon":5.36632,"is_reserved":false,"is_disabled":false,"rental_uris":{"android":"levelo://app?vid=973b854a-5fe9-40bd-9dcd-7bfe59f37d07","ios":"levelo://app?vid=973b854a-5fe9-40bd-9dcd-7bfe59f37d07"},"vehicle_type_id":"4","last_reported":1729847443,"current_range_meters":38800,"station_id":"ce4bgrh2rcd13ifvqc8g","pricing_plan_id":"cebpf4jnsgd1na2vs0mg"},{"bike_id":"ffaf6d1c-64f9-4c62-bbf1-b08f3ad9a305","system_id":"levelo_inurba_marseille","lat":43.33741,"lon":5.37454,"is_reserved":false,"is_disabled":false,"rental_uris":{"android":"levelo://app?vid=ffaf6d1c-64f9-4c62-bbf1-b08f3ad9a305","ios":"levelo://app?vid=ffaf6d1c-64f9-4c62-bbf1-b08f3ad9a305"},"vehicle_type_id":"4","last_reported":1729847443,"current_range_meters":19200,"station_id":"","pricing_plan_id":"cebpf4jnsgd1na2vs0mg"},{"bike_id":"762c6d21-bc78-4a52-9810-72ccbbfb0132","system_id":"levelo_inurba_marseille","lat":43.23154,"lon":5.4372,"is_reserved":false,"is_disabled":false,"rental_uris":{"android":"levelo://app?vid=762c6d21-bc78-4a52-9810-72ccbbfb0132","ios":"levelo://app?vid=762c6d21-bc78-4a52-9810-72ccbbfb0132"},"vehicle_type_id":"4","last_reported":1729847443,"current_range_meters":32400,"station_id":"ce4bhmp2rcd13ifvqgog","pricing_plan_id":"cebpf4jnsgd1na2vs0mg"},{"bike_id":"a9439cd1-ab91-4240-9638-f44040b4f85e","system_id":"levelo_inurba_marseille","lat":43.30296,"lon":5.3691,"is_reserved":false,"is_disabled":false,"rental_uris":{"android":"levelo://app?vid=a9439cd1-ab91-4240-9638-f44040b4f85e","ios":"levelo://app?vid=a9439cd1-ab91-4240-9638-f44040b4f85e"},"vehicle_type_id":"4","last_reported":1729847443,"current_range_meters":39200,"station_id":"ce4bgqh2rcd13ifvqc5g","pricing_plan_id":"cebpf4jnsgd1na2vs0mg"},{"bike_id":"4f93ed81-26ad-45ce-aec2-a7405c4c696e","system_id":"levelo_inurba_marseille","lat":43.28855,"lon":5.35846,"is_reserved":false,"is_disabled":false,"rental_uris":{"android":"levelo://app?vid=4f93ed81-26ad-45ce-aec2-a7405c4c696e","ios":"levelo://app?vid=4f93ed81-26ad-45ce-aec2-a7405c4c696e"},"vehicle_type_id":"4","last_reported":1729847443,"current_range_meters":37600,"station_id":"ce4bhb12rcd13ifvqem0","pricing_plan_id":"cebpf4jnsgd1na2vs0mg"},{"bike_id":"9c6fc028-3986-41cc-bf02-716316e6edd0","system_id":"levelo_inurba_marseille","lat":43.30888,"lon":5.37203,"is_reserved":false,"is_disabled":false,"rental_uris":{"android":"levelo://app?vid=9c6fc028-3986-41cc-bf02-716316e6edd0","ios":"levelo://app?vid=9c6fc028-3986-41cc-bf02-716316e6edd0"},"vehicle_type_id":"4","last_reported":1729847443,"current_range_meters":34800,"station_id":"ce4bguh2rcd13ifvqckg","pricing_plan_id":"cebpf4jnsgd1na2vs0mg"},{"bike_id":"ec08ffb1-e849-4a8f-93d9-2197e87be663","system_id":"levelo_inurba_marseille","lat":43.2847,"lon":5.38417,"is_reserved":false,"is_disabled":false,"rental_uris":{"android":"levelo://app?vid=ec08ffb1-e849-4a8f-93d9-2197e87be663","ios":"levelo://app?vid=ec08ffb1-e849-4a8f-93d9-2197e87be663"},"vehicle_type_id":"4","last_reported":1729847443,"current_range_meters":38800,"station_id":"ce4bh512rcd13ifvqe3g","pricing_plan_id":"cebpf4jnsgd1na2vs0mg"},{"bike_id":"31f0f8a4-66ce-41b6-91bf-4ea20a5b7460","system_id":"levelo_inurba_marseille","lat":43.29258,"lon":5.38447,"is_reserved":false,"is_disabled":false,"rental_uris":{"android":"levelo://app?vid=31f0f8a4-66ce-41b6-91bf-4ea20a5b7460","ios":"levelo://app?vid=31f0f8a4-66ce-41b6-91bf-4ea20a5b7460"},"vehicle_type_id":"4","last_reported":1729847443,"current_range_meters":28000,"station_id":"ce4bh692rcd13ifvqea0","pricing_plan_id":"cebpf4jnsgd1na2vs0mg"},{"bike_id":"86f5b5db-e099-401a-8178-1feba09f475a","system_id":"levelo_inurba_marseille","lat":43.3414,"lon":5.409123,"is_reserved":false,"is_disabled":false,"rental_uris":{"android":"levelo://app?vid=86f5b5db-e099-401a-8178-1feba09f475a","ios":"levelo://app?vid=86f5b5db-e099-401a-8178-1feba09f475a"},"vehicle_type_id":"4","last_reported":1729847443,"current_range_meters":32800,"station_id":"ce4bhqh2rcd13ifvqhlg","pricing_plan_id":"cebpf4jnsgd1na2vs0mg"},{"bike_id":"8b334494-4658-40b8-9961-1bec772036f2","system_id":"levelo_inurba_marseille","lat":43.29844,"lon":5.36265,"is_reserved":false,"is_disabled":false,"rental_uris":{"android":"levelo://app?vid=8b334494-4658-40b8-9961-1bec772036f2","ios":"levelo://app?vid=8b334494-4658-40b8-9961-1bec772036f2"},"vehicle_type_id":"4","last_reported":1729847443,"current_range_meters":39200,"station_id":"ce4bgpp2rcd13ifvqc3g","pricing_plan_id":"cebpf4jnsgd1na2vs0mg"},{"bike_id":"15e795f5-7c75-4a84-b680-d23960287ad4","system_id":"levelo_inurba_marseille","lat":43.25088,"lon":5.39517,"is_reserved":false,"is_disabled":false,"rental_uris":{"android":"levelo://app?vid=15e795f5-7c75-4a84-b680-d23960287ad4","ios":"levelo://app?vid=15e795f5-7c75-4a84-b680-d23960287ad4"},"vehicle_type_id":"4","last_reported":1729847443,"current_range_meters":28400,"station_id":"ce4bhm12rcd13ifvqgkg","pricing_plan_id":"cebpf4jnsgd1na2vs0mg"},{"bike_id":"9aa99984-3aab-4a38-a014-145c49eab468","system_id":"levelo_inurba_marseille","lat":43.24654,"lon":5.389,"is_reserved":false,"is_disabled":false,"rental_uris":{"android":"levelo://app?vid=9aa99984-3aab-4a38-a014-145c49eab468","ios":"levelo://app?vid=9aa99984-3aab-4a38-a014-145c49eab468"},"vehicle_type_id":"4","last_reported":1729847443,"current_range_meters":38800,"station_id":"ce4bhg12rcd13ifvqf60","pricing_plan_id":"cebpf4jnsgd1na2vs0mg"},{"bike_id":"3e951bfc-91bd-40b3-aeba-1ebdba43879e","system_id":"levelo_inurba_marseille","lat":43.32661,"lon":5.40995,"is_reserved":false,"is_disabled":false,"rental_uris":{"android":"levelo://app?vid=3e951bfc-91bd-40b3-aeba-1ebdba43879e","ios":"levelo://app?vid=3e951bfc-91bd-40b3-aeba-1ebdba43879e"},"vehicle_type_id":"4","last_reported":1729847443,"current_range_meters":38800,"station_id":"ce4bhpp2rcd13ifvqhgg","pricing_plan_id":"cebpf4jnsgd1na2vs0mg"},{"bike_id":"7c1e729b-7c6a-4f7f-87cd-db2dd498acc3","system_id":"levelo_inurba_marseille","lat":43.25937,"lon":5.40902,"is_reserved":false,"is_disabled":false,"rental_uris":{"android":"levelo://app?vid=7c1e729b-7c6a-4f7f-87cd-db2dd498acc3","ios":"levelo://app?vid=7c1e729b-7c6a-4f7f-87cd-db2dd498acc3"},"vehicle_type_id":"4","last_reported":1729847443,"current_range_meters":22400,"station_id":"ce4bhm92rcd13ifvqglg","pricing_plan_id":"cebpf4jnsgd1na2vs0mg"},{"bike_id":"13ccce09-e91f-40bb-b11c-618231f3c425","system_id":"levelo_inurba_marseille","lat":43.31497,"lon":5.37304,"is_reserved":false,"is_disabled":false,"rental_uris":{"android":"levelo://app?vid=13ccce09-e91f-40bb-b11c-618231f3c425","ios":"levelo://app?vid=13ccce09-e91f-40bb-b11c-618231f3c425"},"vehicle_type_id":"4","last_reported":1729847443,"current_range_meters":34000,"station_id":"ce4bgt12rcd13ifvqcd0","pricing_plan_id":"cebpf4jnsgd1na2vs0mg"},{"bike_id":"71312711-4f6c-465d-b9de-7eb006b96a28","system_id":"levelo_inurba_marseille","lat":43.26027,"lon":5.37552,"is_reserved":false,"is_disabled":false,"rental_uris":{"android":"levelo://app?vid=71312711-4f6c-465d-b9de-7eb006b96a28","ios":"levelo://app?vid=71312711-4f6c-465d-b9de-7eb006b96a28"},"vehicle_type_id":"4","last_reported":1729847443,"current_range_meters":24400,"station_id":"ce4bhgh2rcd13ifvqfa0","pricing_plan_id":"cebpf4jnsgd1na2vs0mg"},{"bike_id":"3d842674-b26d-4bd1-8c29-6b56ea1a1f40","system_id":"levelo_inurba_marseille","lat":43.24987,"lon":5.38937,"is_reserved":false,"is_disabled":false,"rental_uris":{"android":"levelo://app?vid=3d842674-b26d-4bd1-8c29-6b56ea1a1f40","ios":"levelo://app?vid=3d842674-b26d-4bd1-8c29-6b56ea1a1f40"},"vehicle_type_id":"4","last_reported":1729847443,"current_range_meters":25600,"station_id":"ce4bhgp2rcd13ifvqfd0","pricing_plan_id":"cebpf4jnsgd1na2vs0mg"},{"bike_id":"4edd932e-9306-425f-b341-6a63750e98d7","system_id":"levelo_inurba_marseille","lat":43.29841,"lon":5.36267,"is_reserved":false,"is_disabled":false,"rental_uris":{"android":"levelo://app?vid=4edd932e-9306-425f-b341-6a63750e98d7","ios":"levelo://app?vid=4edd932e-9306-425f-b341-6a63750e98d7"},"vehicle_type_id":"4","last_reported":1729847443,"current_range_meters":36000,"station_id":"ce4bgpp2rcd13ifvqc3g","pricing_plan_id":"cebpf4jnsgd1na2vs0mg"},{"bike_id":"83a4f77c-7d54-4d63-b2f8-4dd1147b6bd3","system_id":"levelo_inurba_marseille","lat":43.25864,"lon":5.39903,"is_reserved":false,"is_disabled":false,"rental_uris":{"android":"levelo://app?vid=83a4f77c-7d54-4d63-b2f8-4dd1147b6bd3","ios":"levelo://app?vid=83a4f77c-7d54-4d63-b2f8-4dd1147b6bd3"},"vehicle_type_id":"4","last_reported":1729847443,"current_range_meters":19200,"station_id":"ce4bhl92rcd13ifvqghg","pricing_plan_id":"cebpf4jnsgd1na2vs0mg"},{"bike_id":"e2213fe9-2ce2-4b4e-9cdf-b32f4c29ce14","system_id":"levelo_inurba_marseille","lat":43.3111,"lon":5.37772,"is_reserved":false,"is_disabled":false,"rental_uris":{"android":"levelo://app?vid=e2213fe9-2ce2-4b4e-9cdf-b32f4c29ce14","ios":"levelo://app?vid=e2213fe9-2ce2-4b4e-9cdf-b32f4c29ce14"},"vehicle_type_id":"4","last_reported":1729847443,"current_range_meters":13600,"station_id":"ce4bgt92rcd13ifvqcg0","pricing_plan_id":"cebpf4jnsgd1na2vs0mg"},{"bike_id":"b8c9ac1e-bdf8-4af3-8039-13c51d6bb64d","system_id":"levelo_inurba_marseille","lat":43.30529,"lon":5.36708,"is_reserved":false,"is_disabled":false,"rental_uris":{"android":"levelo://app?vid=b8c9ac1e-bdf8-4af3-8039-13c51d6bb64d","ios":"levelo://app?vid=b8c9ac1e-bdf8-4af3-8039-13c51d6bb64d"},"vehicle_type_id":"4","last_reported":1729847443,"current_range_meters":39200,"station_id":"ce4bgrp2rcd13ifvqc9g","pricing_plan_id":"cebpf4jnsgd1na2vs0mg"},{"bike_id":"64b170f8-2500-48ef-96a3-25f7c0707542","system_id":"levelo_inurba_marseille","lat":43.337444,"lon":5.374475,"is_reserved":false,"is_disabled":false,"rental_uris":{"android":"levelo://app?vid=64b170f8-2500-48ef-96a3-25f7c0707542","ios":"levelo://app?vid=64b170f8-2500-48ef-96a3-25f7c0707542"},"vehicle_type_id":"4","last_reported":1729847443,"current_range_meters":3200,"station_id":"","pricing_plan_id":"cebpf4jnsgd1na2vs0mg"},{"bike_id":"89f5781e-f020-44c4-9544-3d5b1aa72850","system_id":"levelo_inurba_marseille","lat":43.23189,"lon":5.35554,"is_reserved":false,"is_disabled":false,"rental_uris":{"android":"levelo://app?vid=89f5781e-f020-44c4-9544-3d5b1aa72850","ios":"levelo://app?vid=89f5781e-f020-44c4-9544-3d5b1aa72850"},"vehicle_type_id":"4","last_reported":1729847443,"current_range_meters":5600,"station_id":"ce4bhu92rcd13ifvqi70","pricing_plan_id":"cebpf4jnsgd1na2vs0mg"},{"bike_id":"4f409860-e0f7-4877-99ee-a24fed7f0e97","system_id":"levelo_inurba_marseille","lat":43.27814,"lon":5.40721,"is_reserved":false,"is_disabled":false,"rental_uris":{"android":"levelo://app?vid=4f409860-e0f7-4877-99ee-a24fed7f0e97","ios":"levelo://app?vid=4f409860-e0f7-4877-99ee-a24fed7f0e97"},"vehicle_type_id":"4","last_reported":1729847443,"current_range_meters":30800,"station_id":"ce4bhnh2rcd13ifvqgtg","pricing_plan_id":"cebpf4jnsgd1na2vs0mg"},{"bike_id":"d657a82f-ab02-452b-b617-a1426953567e","system_id":"levelo_inurba_marseille","lat":43.2619,"lon":5.37448,"is_reserved":false,"is_disabled":false,"rental_uris":{"android":"levelo://app?vid=d657a82f-ab02-452b-b617-a1426953567e","ios":"levelo://app?vid=d657a82f-ab02-452b-b617-a1426953567e"},"vehicle_type_id":"4","last_reported":1729847443,"current_range_meters":38800,"station_id":"ce4bhgp2rcd13ifvqfc0","pricing_plan_id":"cebpf4jnsgd1na2vs0mg"},