{"last_updated":1773949124,"ttl":60,"version":"2.2","data":{"bikes":[{"bike_id":"c539bd65-0e65-469f-b4ed-962f8c4aff1f","system_id":"levelo_inurba_marseille","lat":43.28661,"lon":5.36351,"is_reserved":false,"is_disabled":false,"rental_uris":{"android":"levelo://app?vid=c539bd65-0e65-469f-b4ed-962f8c4aff1f","ios":"levelo://app?vid=c539bd65-0e65-469f-b4ed-962f8c4aff1f"},"vehicle_type_id":"4","last_reported":1773949125,"current_range_meters":2800,"station_id":"ce4bhah2rcd13ifvqej0","pricing_plan_id":"cebpf4jnsgd1na2vs0mg"},{"bike_id":"743e6a69-6005-4781-9508-e1ff7dd16364","system_id":"levelo_inurba_marseille","lat":43.30246,"lon":5.40055,"is_reserved":false,"is_disabled":false,"rental_uris":{"android":"levelo://app?vid=743e6a69-6005-4781-9508-e1ff7dd16364","ios":"levelo://app?vid=743e6a69-6005-4781-9508-e1ff7dd16364"},"vehicle_type_id":"4","last_reported":1773949125,"current_range_meters":2800,"station_id":"ce4bgvh2rcd13ifvqcs0","pricing_plan_id":"cebpf4jnsgd1na2vs0mg"},{"bike_id":"a456198f-3b15-417f-a5a2-f7fb7f4bd937","system_id":"levelo_inurba_marseille","lat":43.32447,"lon":5.37381,"is_reserved":false,"is_disabled":false,"rental_uris":{"android":"levelo://app?vid=a456198f-3b15-417f-a5a2-f7fb7f4bd937","ios":"levelo://app?vid=a456198f-3b15-417f-a5a2-f7fb7f4bd937"},"vehicle_type_id":"4","last_reported":1773949125,"current_range_meters":2800,"station_id":"","pricing_plan_id":"cebpf4jnsgd1na2vs0mg"},{"bike_id":"7eef0b8b-8b88-41d8-89b3-c7d44733b5ad","system_id":"levelo_inurba_marseille","lat":43.30155,"lon":5.38108,"is_reserved":false,"is_disabled":true,"rental_uris":{"android":"levelo://app?vid=7eef0b8b-8b88-41d8-89b3-c7d44733b5ad","ios":"levelo://app?vid=7eef0b8b-8b88-41d8-89b3-c7d44733b5ad"},"vehicle_type_id":"4","last_reported":1773949125,"current_range_meters":2800,"station_id":"ce4bgjp2rcd13ifvqbh0","pricing_plan_id":"cebpf4jnsgd1na2vs0mg"},{"bike_id":"fba488f1-9397-49d4-9e0a-afbcae468949","system_id":"levelo_inurba_marseille","lat":43.30782,"lon":5.41357,"is_reserved":false,"is_disabled":false,"rental_uris":{"android":"levelo://app?vid=fba488f1-9397-49d4-9e0a-afbcae468949","ios":"levelo://app?vid=fba488f1-9397-49d4-9e0a-afbcae468949"},"vehicle_type_id":"4","last_reported":1773949125,"current_range_meters":2800,"station_id":"","pricing_plan_id":"cebpf4jnsgd1na2vs0mg"},{"bike_id":"55d183f8-88c0-43bf-b343-96bccab84a71","system_id":"levelo_inurba_marseille","lat":43.28708,"lon":5.37396,"is_reserved":false,"is_disabled":false,"rental_uris":{"android":"levelo://app?vid=55d183f8-88c0-43bf-b343-96bccab84a71","ios":"levelo://app?vid=55d183f8-88c0-43bf-b343-96bccab84a71"},"vehicle_type_id":"4","last_reported":1773949125,"current_range_meters":2800,"station_id":"ce4bh3p2rcd13ifvqdq0","pricing_plan_id":"cebpf4jnsgd1na2vs0mg"},{"bike_id":"09e10eda-5428-4eef-bc71-8eaa49fd754f","system_id":"levelo_inurba_marseille","lat":43.28606,"lon":5.35092,"is_reserved":false,"is_disabled":false,"rental_uris":{"android":"levelo://app?vid=09e10eda-5428-4eef-bc71-8eaa49fd754f","ios":"levelo://app?vid=09e10eda-5428-4eef-bc71-8eaa49fd754f"},"vehicle_type_id":"4","last_reported":1773949125,"current_range_meters":2800,"station_id":"ce4bhch2rcd13ifvqeug","pricing_plan_id":"cebpf4jnsgd1na2vs0mg"},{"bike_id":"37688e3c-3133-492b-b2fc-6272ecb0ea8d","system_id":"levelo_inurba_marseille","lat":43.29293,"lon":5.37462,"is_reserved":false,"is_disabled":false,"rental_uris":{"android":"levelo://app?vid=37688e3c-3133-492b-b2fc-6272ecb0ea8d","ios":"levelo://app?vid=37688e3c-3133-492b-b2fc-6272ecb0ea8d"},"vehicle_type_id":"4","last_reported":1773949125,"current_range_meters":2800,"station_id":"ce4bgi12rcd13ifvqb70","pricing_plan_id":"cebpf4jnsgd1na2vs0mg"},{"bike_id":"30322009-1b4a-417d-9d1f-c56f2576f4e3","system_id":"levelo_inurba_marseille","lat":43.29276,"lon":5.38437,"is_reserved":false,"is_disabled":false,"rental_uris":{"android":"levelo://app?vid=30322009-1b4a-417d-9d1f-c56f2576f4e3","ios":"levelo://app?vid=30322009-1b4a-417d-9d1f-c56f2576f4e3"},"vehicle_type_id":"4","last_reported":1773949125,"current_range_meters":2800,"station_id":"ce4bh692rcd13ifvqea0","pricing_plan_id":"cebpf4jnsgd1na2vs0mg"},{"bike_id":"2cc0d97c-5ca8-4112-8c8f-b37680534657","system_id":"levelo_inurba_marseille","lat":43.28151,"lon":5.42629,"is_reserved":false,"is_disabled":false,"rental_uris":{"android":"levelo://app?vid=2cc0d97c-5ca8-4112-8c8f-b37680534657","ios":"levelo://app?vid=2cc0d97c-5ca8-4112-8c8f-b37680534657"},"vehicle_type_id":"4","last_reported":1773949125,"current_range_meters":2800,"station_id":"ce4bhnh2rcd13ifvqgug","pricing_plan_id":"cebpf4jnsgd1na2vs0mg"},{"bike_id":"7d938851-65f8-476e-b5a5-66b6d8d52327","system_id":"levelo_inurba_marseille","lat":43.21193,"lon":5.35108,"is_reserved":false,"is_disabled":false,"rental_uris":{"android":"levelo://app?vid=7d938851-65f8-476e-b5a5-66b6d8d52327","ios":"levelo://app?vid=7d938851-65f8-476e-b5a5-66b6d8d52327"},"vehicle_type_id":"4","last_reported":1773949125,"current_range_meters":2800,"station_id":"st_cvj6sg6p6f1abm77japg","pricing_plan_id":"cebpf4jnsgd1na2vs0mg"},{"bike_id":"e3bb0bf1-4261-472e-8a7f-2e9efae74773","system_id":"levelo_inurba_marseille","lat":43.29258,"lon":5.4014,"is_reserved":false,"is_disabled":false,"rental_uris":{"android":"levelo://app?vid=e3bb0bf1-4261-472e-8a7f-2e9efae74773","ios":"levelo://app?vid=e3bb0bf1-4261-472e-8a7f-2e9efae74773"},"vehicle_type_id":"4","last_reported":1773949125,"current_range_meters":2800,"station_id":"ce4bh312rcd13ifvqdk0","pricing_plan_id":"cebpf4jnsgd1na2vs0mg"},{"bike_id":"0385a297-5af2-4968-a393-7b2ff60cc312","system_id":"levelo_inurba_marseille","lat":43.29572,"lon":5.399774,"is_reserved":false,"is_disabled":false,"rental_uris":{"android":"levelo://app?vid=0385a297-5af2-4968-a393-7b2ff60cc312","ios":"levelo://app?vid=0385a297-5af2-4968-a393-7b2ff60cc312"},"vehicle_type_id":"4","last_reported":1773949125,"current_range_meters":2800,"station_id":"ce4bh312rcd13ifvqdj0","pricing_plan_id":"cebpf4jnsgd1na2vs0mg"},{"bike_id":"e107cb22-a13d-4c03-93ce-8114e06b9a0f","system_id":"levelo_inurba_marseille","lat":43.28483,"lon":5.48393,"is_reserved":false,"is_disabled":false,"rental_uris":{"android":"levelo://app?vid=e107cb22-a13d-4c03-93ce-8114e06b9a0f","ios":"levelo://app?vid=e107cb22-a13d-4c03-93ce-8114e06b9a0f"},"vehicle_type_id":"4","last_reported":1773949125,"current_range_meters":2800,"station_id":"","pricing_plan_id":"cebpf4jnsgd1na2vs0mg"},{"bike_id":"02b775a4-9cf6-4890-9683-92e3f7881c47","system_id":"levelo_inurba_marseille","lat":43.29864,"lon":5.38921,"is_reserved":false,"is_disabled":false,"rental_uris":{"android":"levelo://app?vid=02b775a4-9cf6-4890-9683-92e3f7881c47","ios":"levelo://app?vid=02b775a4-9cf6-4890-9683-92e3f7881c47"},"vehicle_type_id":"4","last_reported":1773949125,"current_range_meters":2800,"station_id":"ce4bh392rcd13ifvqdl0","pricing_plan_id":"cebpf4jnsgd1na2vs0mg"},{"bike_id":"8e2e7106-1900-4ab7-9d6a-b62727ac0c3c","system_id":"levelo_inurba_marseille","lat":43.29244,"lon":5.3843,"is_reserved":false,"is_disabled":false,"rental_uris":{"android":"levelo://app?vid=8e2e7106-1900-4ab7-9d6a-b62727ac0c3c","ios":"levelo://app?vid=8e2e7106-1900-4ab7-9d6a-b62727ac0c3c"},"vehicle_type_id":"4","last_reported":1773949125,"current_range_meters":2800,"station_id":"ce4bh692rcd13ifvqea0","pricing_plan_id":"cebpf4jnsgd1na2vs0mg"},{"bike_id":"8643fa0e-f884-49e4-b313-406227ebf5ab","system_id":"levelo_inurba_marseille","lat":43.29267,"lon":5.38437,"is_reserved":false,"is_disabled":false,"rental_uris":{"android":"levelo://app?vid=8643fa0e-f884-49e4-b313-406227ebf5ab","ios":"levelo://app?vid=8643fa0e-f884-49e4-b313-406227ebf5ab"},"vehicle_type_id":"4","last_reported":1773949125,"current_range_meters":2800,"station_id":"ce4bh692rcd13ifvqea0","pricing_plan_id":"cebpf4jnsgd1na2vs0mg"},{"bike_id":"ef1bb9bf-832c-4e98-94c1-63238ed58d7c","system_id":"levelo_inurba_marseille","lat":43.28734,"lon":5.36079,"is_reserved":false,"is_disabled":false,"rental_uris":{"android":"levelo://app?vid=ef1bb9bf-832c-4e98-94c1-63238ed58d7c","ios":"levelo://app?vid=ef1bb9bf-832c-4e98-94c1-63238ed58d7c"},"vehicle_type_id":"4","last_reported":1773949125,"current_range_meters":2800,"station_id":"cki0cbj6b192h4jlfktg","pricing_plan_id":"cebpf4jnsgd1na2vs0mg"},{"bike_id":"779b8a3c-1846-46b5-9cab-bf0ec2b1118f","system_id":"levelo_inurba_marseille","lat":43.28486,"lon":5.4838,"is_reserved":false,"is_disabled":false,"rental_uris":{"android":"levelo://app?vid=779b8a3c-1846-46b5-9cab-bf0ec2b1118f","ios":"levelo://app?vid=779b8a3c-1846-46b5-9cab-bf0ec2b1118f"},"vehicle_type_id":"4","last_reported":1773949125,"current_range_meters":2800,"station_id":"st_d3svhcjqgbts73a3dn0g","pricing_plan_id":"cebpf4jnsgd1na2vs0mg"},{"bike_id":"f5633142-06b4-41a8-9523-f83ce443c69f","system_id":"levelo_inurba_marseille","lat":43.286096,"lon":5.35101,"is_reserved":false,"is_disabled":false,"rental_uris":{"android":"levelo://app?vid=f5633142-06b4-41a8-9523-f83ce443c69f","ios":"levelo://app?vid=f5633142-06b4-41a8-9523-f83ce443c69f"},"vehicle_type_id":"4","last_reported":1773949125,"current_range_meters":3200,"station_id":"","pricing_plan_id":"cebpf4jnsgd1na2vs0mg"},{"bike_id":"c4aae831-406f-4fc3-bf4b-ab0fcee1969f","system_id":"levelo_inurba_marseille","lat":43.29906,"lon":5.38149,"is_reserved":false,"is_disabled":false,"rental_uris":{"android":"levelo://app?vid=c4aae831-406f-4fc3-bf4b-ab0fcee1969f","ios":"levelo://app?vid=c4aae831-406f-4fc3-bf4b-ab0fcee1969f"},"vehicle_type_id":"4","last_reported":1773949125,"current_range_meters":3200,"station_id":"ce4bgj12rcd13ifvqbc0","pricing_plan_id":"cebpf4jnsgd1na2vs0mg"},{"bike_id":"7e13f0af-e4ca-4594-9ce2-d54c2ffd641d","system_id":"levelo_inurba_marseille","lat":43.29046,"lon":5.3876,"is_reserved":false,"is_disabled":false,"rental_uris":{"android":"levelo://app?vid=7e13f0af-e4ca-4594-9ce2-d54c2ffd641d","ios":"levelo://app?vid=7e13f0af-e4ca-4594-9ce2-d54c2ffd641d"},"vehicle_type_id":"4","last_reported":1773949125,"current_range_meters":3200,"station_id":"","pricing_plan_id":"cebpf4jnsgd1na2vs0mg"},{"bike_id":"1835d134-aa60-491b-98ba-9ebfed3004cb","system_id":"levelo_inurba_marseille","lat":43.2799,"lon":5.40034,"is_reserved":false,"is_disabled":false,"rental_uris":{"android":"levelo://app?vid=1835d134-aa60-491b-98ba-9ebfed3004cb","ios":"levelo://app?vid=1835d134-aa60-491b-98ba-9ebfed3004cb"},"vehicle_type_id":"4","last_reported":1773949125,"current_range_meters":3200,"station_id":"ce4bho92rcd13ifvqh4g","pricing_plan_id":"cebpf4jnsgd1na2vs0mg"},{"bike_id":"2cd6d2c4-9839-4b08-8d75-805c4c2214dc","system_id":"levelo_inurba_marseille","lat":43.23047,"lon":5.35497,"is_reserved":false,"is_disabled":false,"rental_uris":{"android":"levelo://app?vid=2cd6d2c4-9839-4b08-8d75-805c4c2214dc","ios":"levelo://app?vid=2cd6d2c4-9839-4b08-8d75-805c4c2214dc"},"vehicle_type_id":"4","last_reported":1773949125,"current_range_meters":3200,"station_id":"cpo3342slgdg3j2ifvpg","pricing_plan_id":"cebpf4jnsgd1na2vs0mg"},{"bike_id":"8a854e0a-3b9f-471d-80f2-bfadb0595e6b","system_id":"levelo_inurba_marseille","lat":43.31259,"lon":5.38276,"is_reserved":false,"is_disabled":false,"rental_uris":{"android":"levelo://app?vid=8a854e0a-3b9f-471d-80f2-bfadb0595e6b","ios":"levelo://app?vid=8a854e0a-3b9f-471d-80f2-bfadb0595e6b"},"vehicle_type_id":"4","last_reported":1773949125,"current_range_meters":3200,"station_id":"","pricing_plan_id":"cebpf4jnsgd1na2vs0mg"},{"bike_id":"56b97f63-7d68-4f2e-ba6e-3ac28ff4ee85","system_id":"levelo_inurba_marseille","lat":43.29023,"lon":5.38131,"is_reserved":false,"is_disabled":false,"rental_uris":{"android":"levelo://app?vid=56b97f63-7d68-4f2e-ba6e-3ac28ff4ee85","ios":"levelo://app?vid=56b97f63-7d68-4f2e-ba6e-3ac28ff4ee85"},"vehicle_type_id":"4","last_reported":1773949125,"current_range_meters":3200,"station_id":"ce4bh4p2rcd13ifvqe1g","pricing_plan_id":"cebpf4jnsgd1na2vs0mg"},{"bike_id":"f6eef633-bed7-4c4d-bcfd-52d77fe3a5c1","system_id":"levelo_inurba_marseille","lat":43.25339,"lon":5.4217,"is_reserved":false,"is_disabled":false,"rental_uris":{"android":"levelo://app?vid=f6eef633-bed7-4c4d-bcfd-52d77fe3a5c1","ios":"levelo://app?vid=f6eef633-bed7-4c4d-bcfd-52d77fe3a5c1"},"vehicle_type_id":"4","last_reported":1773949125,"current_range_meters":3200,"station_id":"st_d2m65c5bi1j21697t3ng","pricing_plan_id":"cebpf4jnsgd1na2vs0mg"},{"bike_id":"8bd5fd69-5551-4977-8094-9b73bd678347","system_id":"levelo_inurba_marseille","lat":43.27187,"lon":5.39145,"is_reserved":false,"is_disabled":false,"rental_uris":{"android":"levelo://app?vid=8bd5fd69-5551-4977-8094-9b73bd678347","ios":"levelo://app?vid=8bd5fd69-5551-4977-8094-9b73bd678347"},"vehicle_type_id":"4","last_reported":1773949125,"current_range_meters":3200,"station_id":"ce4bhhp2rcd13ifvqfm0","pricing_plan_id":"cebpf4jnsgd1na2vs0mg"},{"bike_id":"50c589ba-1ee7-42e5-b2e8-270213ce2a50","system_id":"levelo_inurba_marseille","lat":43.28708,"lon":5.37418,"is_reserved":false,"is_disabled":false,"rental_uris":{"android":"levelo://app?vid=50c589ba-1ee7-42e5-b2e8-270213ce2a50","ios":"levelo://app?vid=50c589ba-1ee7-42e5-b2e8-270213ce2a50"},"vehicle_type_id":"4","last_reported":1773949125,"current_range_meters":3200,"station_id":"ce4bh3p2rcd13ifvqdq0","pricing_plan_id":"cebpf4jnsgd1na2vs0mg"},{"bike_id":"a9d31829-7e0d-482f-af05-97ddd320ae16","system_id":"levelo_inurba_marseille","lat":43.29751,"lon":5.42771,"is_reserved":false,"is_disabled":true,"rental_uris":{"android":"levelo://app?vid=a9d31829-7e0d-482f-af05-97ddd320ae16","ios":"levelo://app?vid=a9d31829-7e0d-482f-af05-97ddd320ae16"},"vehicle_type_id":"4","last_reported":1773949125,"current_range_meters":3200,"station_id":"st_d3md5207bmas73dh9klg","pricing_plan_id":"cebpf4jnsgd1na2vs0mg"},{"bike_id":"2b9d3d39-1405-49f9-97c0-4318c8a64ea3","system_id":"levelo_inurba_marseille","lat":43.22925,"lon":5.3538,"is_reserved":false,"is_disabled":false,"rental_uris":{"android":"levelo://app?vid=2b9d3d39-1405-49f9-97c0-4318c8a64ea3","ios":"levelo://app?vid=2b9d3d39-1405-49f9-97c0-4318c8a64ea3"},"vehicle_type_id":"4","last_reported":1773949125,"current_range_meters":3200,"station_id":"cpo3532slgdg3j2ikp40","pricing_plan_id":"cebpf4jnsgd1na2vs0mg"},{"bike_id":"24e3771f-e706-48ce-9711-2331d480393c","system_id":"levelo_inurba_marseille","lat":43.24811,"lon":5.37437,"is_reserved":false,"is_disabled":false,"rental_uris":{"android":"levelo://app?vid=24e3771f-e706-48ce-9711-2331d480393c","ios":"levelo://app?vid=24e3771f-e706-48ce-9711-2331d480393c"},"vehicle_type_id":"4","last_reported":1773949125,"current_range_meters":3200,"station_id":"ce4bhgh2rcd13ifvqfb0","pricing_plan_id":"cebpf4jnsgd1na2vs0mg"},{"bike_id":"c9cfc67c-4e42-4833-b4ab-11ad690d27f6","system_id":"levelo_inurba_marseille","lat":43.33024,"lon":5.39478,"is_reserved":false,"is_disabled":false,"rental_uris":{"android":"levelo://app?vid=c9cfc67c-4e42-4833-b4ab-11ad690d27f6","ios":"levelo://app?vid=c9cfc67c-4e42-4833-b4ab-11ad690d27f6"},"vehicle_type_id":"4","last_reported":1773949125,"current_range_meters":3200,"station_id":"","pricing_plan_id":"cebpf4jnsgd1na2vs0mg"},{"bike_id":"f11c3308-36cb-41d9-9775-f36c4dd3ac39","system_id":"levelo_inurba_marseille","lat":43.29277,"lon":5.38448,"is_reserved":false,"is_disabled":false,"rental_uris":{"android":"levelo://app?vid=f11c3308-36cb-41d9-9775-f36c4dd3ac39","ios":"levelo://app?vid=f11c3308-36cb-41d9-9775-f36c4dd3ac39"},"vehicle_type_id":"4","last_reported":1773949125,"current_range_meters":3200,"station_id":"ce4bh692rcd13ifvqea0","pricing_plan_id":"cebpf4jnsgd1na2vs0mg"},{"bike_id":"1687210f-77cf-49e1-8e10-4f940eb67ab9","system_id":"levelo_inurba_marseille","lat":43.25277,"lon":5.38025,"is_reserved":false,"is_disabled":false,"rental_uris":{"android":"levelo://app?vid=1687210f-77cf-49e1-8e10-4f940eb67ab9","ios":"levelo://app?vid=1687210f-77cf-49e1-8e10-4f940eb67ab9"},"vehicle_type_id":"4","last_reported":1773949125,"current_range_meters":3200,"station_id":"","pricing_plan_id":"cebpf4jnsgd1na2vs0mg"},{"bike_id":"488022cf-ae8c-4b5a-bfe4-ba5db4a587f4","system_id":"levelo_inurba_marseille","lat":43.31917,"lon":5.36795,"is_reserved":false,"is_disabled":false,"rental_uris":{"android":"levelo://app?vid=488022cf-ae8c-4b5a-bfe4-ba5db4a587f4","ios":"levelo://app?vid=488022cf-ae8c-4b5a-bfe4-ba5db4a587f4"},"vehicle_type_id":"4","last_reported":1773949125,"current_range_meters":3200,"station_id":"ce4bguh2rcd13ifvqcj0","pricing_plan_id":"cebpf4jnsgd1na2vs0mg"},{"bike_id":"bd76c094-5344-424d-b7c4-60f8801fbb04","system_id":"levelo_inurba_marseille","lat":43.29884,"lon":5.40181,"is_reserved":false,"is_disabled":false,"rental_uris":{"android":"levelo://app?vid=bd76c094-5344-424d-b7c4-60f8801fbb04","ios":"levelo://app?vid=bd76c094-5344-424d-b7c4-60f8801fbb04"},"vehicle_type_id":"4","last_reported":1773949125,"current_range_meters":3200,"station_id":"","pricing_plan_id":"cebpf4jnsgd1na2vs0mg"},{"bike_id":"9d6017c4-d825-482b-ae2d-df3192f76cb6","system_id":"levelo_inurba_marseille","lat":43.28413,"lon":5.37523,"is_reserved":false,"is_disabled":false,"rental_uris":{"android":"levelo://app?vid=9d6017c4-d825-482b-ae2d-df3192f76cb6","ios":"levelo://app?vid=9d6017c4-d825-482b-ae2d-df3192f76cb6"},"vehicle_type_id":"4","last_reported":1773949125,"current_range_meters":3200,"station_id":"ce4bh412rcd13ifvqds0","pricing_plan_id":"cebpf4jnsgd1na2vs0mg"},{"bike_id":"d3a8c26b-e6d8-4ab1-8565-05ff448114c7","system_id":"levelo_inurba_marseille","lat":43.31668,"lon":5.4047,"is_reserved":false,"is_disabled":false,"rental_uris":{"android":"levelo://app?vid=d3a8c26b-e6d8-4ab1-8565-05ff448114c7","ios":"levelo://app?vid=d3a8c26b-e6d8-4ab1-8565-05ff448114c7"},"vehicle_type_id":"4","last_reported":1773949125,"current_range_meters":3200,"station_id":"ce4bh012rcd13ifvqd00","pricing_plan_id":"cebpf4jnsgd1na2vs0mg"},{"bike_id":"ec622c6c-2b8e-40d8-a29b-0183a7e49719","system_id":"levelo_inurba_marseille","lat":43.28549,"lon":5.44117,"is_reserved":false,"is_disabled":false,"rental_uris":{"android":"levelo://app?vid=ec622c6c-2b8e-40d8-a29b-0183a7e49719","ios":"levelo://app?vid=ec622c6c-2b8e-40d8-a29b-0183a7e49719"},"vehicle_type_id":"4","last_reported":1773949125,"current_range_meters":3200,"station_id":"st_d3j3df2ikq2c7380ej80","pricing_plan_id":"cebpf4jnsgd1na2vs0mg"},{"bike_id":"f98880e8-d6eb-4305-8992-618bd4c5e621","system_id":"levelo_inurba_marseille","lat":43.30002,"lon":5.37192,"is_reserved":false,"is_disabled":false,"rental_uris":{"android":"levelo://app?vid=f98880e8-d6eb-4305-8992-618bd4c5e621","ios":"levelo://app?vid=f98880e8-d6eb-4305-8992-618bd4c5e621"},"vehicle_type_id":"4","last_reported":1773949125,"current_range_meters":3200,"station_id":"ce4bgr92rcd13ifvqc7g","pricing_plan_id":"cebpf4jnsgd1na2vs0mg"},{"bike_id":"cbc8599d-0f53-4276-b29f-85b323d36cb9","system_id":"levelo_inurba_marseille","lat":43.25497,"lon":5.37647,"is_reserved":false,"is_disabled":false,"rental_uris":{"android":"levelo://app?vid=cbc8599d-0f53-4276-b29f-85b323d36cb9","ios":"levelo://app?vid=cbc8599d-0f53-4276-b29f-85b323d36cb9"},"vehicle_type_id":"4","last_reported":1773949125,"current_range_meters":3600,"station_id":"ce4bhh12rcd13ifvqff0","pricing_plan_id":"cebpf4jnsgd1na2vs0mg"},{"bike_id":"0f9ac63b-b035-4b44-83f4-ffdcc8a29b09","system_id":"levelo_inurba_marseille","lat":43.29873,"lon":5.39729,"is_reserved":false,"is_disabled":false,"rental_uris":{"android":"levelo://app?vid=0f9ac63b-b035-4b44-83f4-ffdcc8a29b09","ios":"levelo://app?vid=0f9ac63b-b035-4b44-83f4-ffdcc8a29b09"},"vehicle_type_id":"4","last_reported":1773949125,"current_range_meters":3600,"station_id":"ce4bh0h2rcd13ifvqd50","pricing_plan_id":"cebpf4jnsgd1na2vs0mg"},{"bike_id":"13f88d23-8297-4587-839a-a3ec92f34aa6","system_id":"levelo_inurba_marseille","lat":43.29609,"lon":5.38111,"is_reserved":false,"is_disabled":false,"rental_uris":{"android":"levelo://app?vid=13f88d23-8297-4587-839a-a3ec92f34aa6","ios":"levelo://app?vid=13f88d23-8297-4587-839a-a3ec92f34aa6"},"vehicle_type_id":"4","last_reported":1773949125,"current_range_meters":3600,"station_id":"ce4bgl12rcd13ifvqbo0","pricing_plan_id":"cebpf4jnsgd1na2vs0mg"},{"bike_id":"9aa31db1-3d5f-4c76-9b8a-ff6ecb64e7a0","system_id":"levelo_inurba_marseille","lat":43.28396,"lon":5.37544,"is_reserved":false,"is_disabled":false,"rental_uris":{"android":"levelo://app?vid=9aa31db1-3d5f-4c76-9b8a-ff6ecb64e7a0","ios":"levelo://app?vid=9aa31db1-3d5f-4c76-9b8a-ff6ecb64e7a0"},"vehicle_type_id":"4","last_reported":1773949125,"current_range_meters":3600,"station_id":"ce4bh412rcd13ifvqds0","pricing_plan_id":"cebpf4jnsgd1na2vs0mg"},{"bike_id":"bc8d4909-7df2-4328-940f-132ae8fb5a27","system_id":"levelo_inurba_marseille","lat":43.25584,"lon":5.38201,"is_reserved":false,"is_disabled":false,"rental_uris":{"android":"levelo://app?vid=bc8d4909-7df2-4328-940f-132ae8fb5a27","ios":"levelo://app?vid=bc8d4909-7df2-4328-940f-132ae8fb5a27"},"vehicle_type_id":"4","last_reported":1773949125,"current_range_meters":3600,"station_id":"ce4bhih2rcd13ifvqfs0","pricing_plan_id":"cebpf4jnsgd1na2vs0mg"},{"bike_id":"425983bc-83c2-4cea-8df4-3c8f5bb514c1","system_id":"levelo_inurba_marseille","lat":43.2893,"lon":5.38397,"is_reserved":false,"is_disabled":false,"rental_uris":{"android":"levelo://app?vid=425983bc-83c2-4cea-8df4-3c8f5bb514c1","ios":"levelo://app?vid=425983bc-83c2-4cea-8df4-3c8f5bb514c1"},"vehicle_type_id":"4","last_reported":1773949125,"current_range_meters":3600,"station_id":"ce4bh612rcd13ifvqe6g","pricing_plan_id":"cebpf4jnsgd1na2vs0mg"},{"bike_id":"d0b1f448-6af4-4ef1-a755-e03baf4488aa","system_id":"levelo_inurba_marseille","lat":43.29254,"lon":5.35737,"is_reserved":false,"is_disabled":false,"rental_uris":{"android":"levelo://app?vid=d0b1f448-6af4-4ef1-a755-e03baf4488aa","ios":"levelo://app?vid=d0b1f448-6af4-4ef1-a755-e03baf4488aa"},"vehicle_type_id":"4","last_reported":1773949125,"current_range_meters":3600,"station_id":"","pricing_plan_id":"cebpf4jnsgd1na2vs0mg"},{"bike_id":"72e492c4-0343-4695-ad93-8176ad5e8de2","system_id":"levelo_inurba_marseille","lat":43.28846,"lon":5.35854,"is_reserved":false,"is_disabled":false,"rental_uris":{"android":"levelo://app?vid=72e492c4-0343-4695-ad93-8176ad5e8de2","ios":"levelo://app?vid=72e492c4-0343-4695-ad93-8176ad5e8de2"},"vehicle_type_id":"4","last_reported":1773949125,"current_range_meters":3600,"station_id":"ce4bhb12rcd13ifvqem0","pricing_plan_id":"cebpf4jnsgd1na2vs0mg"},{"bike_id":"4c5d836e-ad01-47da-97a0-e883f94cfeb1","system_id":"levelo_inurba_marseille","lat":43.29609,"lon":5.38103,"is_reserved":false,"is_disabled":false,"rental_uris":{"android":"levelo://app?vid=4c5d836e-ad01-47da-97a0-e883f94cfeb1","ios":"levelo://app?vid=4c5d836e-ad01-47da-97a0-e883f94cfeb1"},"vehicle_type_id":"4","last_reported":1773949125,"current_range_meters":3600,"station_id":"ce4bgl12rcd13ifvqbo0","pricing_plan_id":"cebpf4jnsgd1na2vs0mg"},{"bike_id":"65fe4b0d-a9f3-4040-bc5e-3d1fde563ac2","system_id":"levelo_inurba_marseille","lat":43.29537,"lon":5.38542,"is_reserved":false,"is_disabled":false,"rental_uris":{"android":"levelo://app?vid=65fe4b0d-a9f3-4040-bc5e-3d1fde563ac2","ios":"levelo://app?vid=65fe4b0d-a9f3-4040-bc5e-3d1fde563ac2"},"vehicle_type_id":"4","last_reported":1773949125,"current_range_meters":3600,"station_id":"ce4bgih2rcd13ifvqba0","pricing_plan_id":"cebpf4jnsgd1na2vs0mg"},{"bike_id":"c6b4ba83-d211-421f-82a7-0a8a0abe04b2","system_id":"levelo_inurba_marseille","lat":43.28965,"lon":5.36642,"is_reserved":false,"is_disabled":false,"rental_uris":{"android":"levelo://app?vid=c6b4ba83-d211-421f-82a7-0a8a0abe04b2","ios":"levelo://app?vid=c6b4ba83-d211-421f-82a7-0a8a0abe04b2"},"vehicle_type_id":"4","last_reported":1773949125,"current_range_meters":3600,"station_id":"","pricing_plan_id":"cebpf4jnsgd1na2vs0mg"},{"bike_id":"3163b1af-c490-4991-b1e2-a5c7a0d85120","system_id":"levelo_inurba_marseille","lat":43.29529,"lon":5.39045,"is_reserved":false,"is_disabled":false,"rental_uris":{"android":"levelo://app?vid=3163b1af-c490-4991-b1e2-a5c7a0d85120","ios":"levelo://app?vid=3163b1af-c490-4991-b1e2-a5c7a0d85120"},"vehicle_type_id":"4","last_reported":1773949125,"current_range_meters":3600,"station_id":"ce4bh3p2rcd13ifvqdp0","pricing_plan_id":"cebpf4jnsgd1na2vs0mg"},{"bike_id":"90df2976-00f1-427e-bc04-5655664bfcea","system_id":"levelo_inurba_marseille","lat":43.29606,"lon":5.36763,"is_reserved":false,"is_disabled":false,"rental_uris":{"android":"levelo://app?vid=90df2976-00f1-427e-bc04-5655664bfcea","ios":"levelo://app?vid=90df2976-00f1-427e-bc04-5655664bfcea"},"vehicle_type_id":"4","last_reported":1773949125,"current_range_meters":3600,"station_id":"ce4bgph2rcd13ifvqc2g","pricing_plan_id":"cebpf4jnsgd1na2vs0mg"},{"bike_id":"a4047013-0ff6-4693-8c38-4dd10d059e1f","system_id":"levelo_inurba_marseille","lat":43.31178,"lon":5.38712,"is_reserved":false,"is_disabled":false,"rental_uris":{"android":"levelo://app?vid=a4047013-0ff6-4693-8c38-4dd10d059e1f","ios":"levelo://app?vid=a4047013-0ff6-4693-8c38-4dd10d059e1f"},"vehicle_type_id":"4","last_reported":1773949125,"current_range_meters":3600,"station_id":"ce4bgv12rcd13ifvqcp0","pricing_plan_id":"cebpf4jnsgd1na2vs0mg"},{"bike_id":"fad8e96d-acb2-4874-9608-7180f6b034b8","system_id":"levelo_inurba_marseille","lat":43.29157,"lon":5.40898,"is_reserved":false,"is_disabled":false,"rental_uris":{"android":"levelo://app?vid=fad8e96d-acb2-4874-9608-7180f6b034b8","ios":"levelo://app?vid=fad8e96d-acb2-4874-9608-7180f6b034b8"},"vehicle_type_id":"4","last_reported":1773949125,"current_range_meters":3600,"station_id":"","pricing_plan_id":"cebpf4jnsgd1na2vs0mg"},{"bike_id":"447b11a1-21b5-4523-80dc-ebe593853403","system_id":"levelo_inurba_marseille","lat":43.29132,"lon":5.42614,"is_reserved":false,"is_disabled":false,"rental_uris":{"android":"levelo://app?vid=447b11a1-21b5-4523-80dc-ebe593853403","ios":"levelo://app?vid=447b11a1-21b5-4523-80dc-ebe593853403"},"vehicle_type_id":"4","last_reported":1773949125,"current_range_meters":3600,"station_id":"","pricing_plan_id":"cebpf4jnsgd1na2vs0mg"},{"bike_id":"ae43c1fd-cb37-4504-b9f4-a86d051e70db","system_id":"levelo_inurba_marseille","lat":43.29264,"lon":5.38436,"is_reserved":false,"is_disabled":false,"rental_uris":{"android":"levelo://app?vid=ae43c1fd-cb37-4504-b9f4-a86d051e70db","ios":"levelo://app?vid=ae43c1fd-cb37-4504-b9f4-a86d051e70db"},"vehicle_type_id":"4","last_reported":1773949125,"current_range_meters":3600,"station_id":"ce4bh692rcd13ifvqea0","pricing_plan_id":"cebpf4jnsgd1na2vs0mg"},{"bike_id":"a15529e2-dad5-4ece-a060-3e7f5185c086","system_id":"levelo_inurba_marseille","lat":43.31359,"lon":5.38482,"is_reserved":false,"is_disabled":false,"rental_uris":{"android":"levelo://app?vid=a15529e2-dad5-4ece-a060-3e7f5185c086","ios":"levelo://app?vid=a15529e2-dad5-4ece-a060-3e7f5185c086"},"vehicle_type_id":"4","last_reported":1773949125,"current_range_meters":3600,"station_id":"ce4bgt92rcd13ifvqcf0","pricing_plan_id":"cebpf4jnsgd1na2vs0mg"},{"bike_id":"e193a20b-450a-4386-b80c-7f4426970f73","system_id":"levelo_inurba_marseille","lat":43.29579,"lon":5.36746,"is_reserved":false,"is_disabled":false,"rental_uris":{"android":"levelo://app?vid=e193a20b-450a-4386-b80c-7f4426970f73","ios":"levelo://app?vid=e193a20b-450a-4386-b80c-7f4426970f73"},"vehicle_type_id":"4","last_reported":1773949125,"current_range_meters":3600,"station_id":"ce4bgph2rcd13ifvqc2g","pricing_plan_id":"cebpf4jnsgd1na2vs0mg"},{"bike_id":"e1fb84b5-fcdd-4c4e-9849-745581d01b95","system_id":"levelo_inurba_marseille","lat":43.29973,"lon":5.37192,"is_reserved":false,"is_disabled":false,"rental_uris":{"android":"levelo://app?vid=e1fb84b5-fcdd-4c4e-9849-745581d01b95","ios":"levelo://app?vid=e1fb84b5-fcdd-4c4e-9849-745581d01b95"},"vehicle_type_id":"4","last_reported":1773949125,"current_range_meters":4000,"station_id":"ce4bgr92rcd13ifvqc7g","pricing_plan_id":"cebpf4jnsgd1na2vs0mg"},{"bike_id":"1c51670a-46e5-4a0c-9d9c-3c2806d077a8","system_id":"levelo_inurba_marseille","lat":43.29026,"lon":5.38134,"is_reserved":false,"is_disabled":true,"rental_uris":{"android":"levelo://app?vid=1c51670a-46e5-4a0c-9d9c-3c2806d077a8","ios":"levelo://app?vid=1c51670a-46e5-4a0c-9d9c-3c2806d077a8"},"vehicle_type_id":"4","last_reported":1773949125,"current_range_meters":4000,"station_id":"ce4bh4p2rcd13ifvqe1g","pricing_plan_id":"cebpf4jnsgd1na2vs0mg"},{"bike_id":"ad0cd57e-33a0-41b1-9838-4bb8121cf1c7","system_id":"levelo_inurba_marseille","lat":43.31226,"lon":5.38666,"is_reserved":false,"is_disabled":false,"rental_uris":{"android":"levelo://app?vid=ad0cd57e-33a0-41b1-9838-4bb8121cf1c7","ios":"levelo://app?vid=ad0cd57e-33a0-41b1-9838-4bb8121cf1c7"},"vehicle_type_id":"4","last_reported":1773949125,"current_range_meters":4000,"station_id":"","pricing_plan_id":"cebpf4jnsgd1na2vs0mg"},{"bike_id":"392fcf9a-86d3-4e46-a438-cc6b3eecb0e3","system_id":"levelo_inurba_marseille","lat":43.28656,"lon":5.36346,"is_reserved":false,"is_disabled":false,"rental_uris":{"android":"levelo://app?vid=392fcf9a-86d3-4e46-a438-cc6b3eecb0e3","ios":"levelo://app?vid=392fcf9a-86d3-4e46-a438-cc6b3eecb0e3"},"vehicle_type_id":"4","last_reported":1773949125,"current_range_meters":4000,"station_id":"ce4bhah2rcd13ifvqej0","pricing_plan_id":"cebpf4jnsgd1na2vs0mg"},{"bike_id":"95d31319-d36d-403e-adf6-0b51cdaa5b1b","system_id":"levelo_inurba_marseille","lat":43.31425,"lon":5.39271,"is_reserved":false,"is_disabled":true,"rental_uris":{"android":"levelo://app?vid=95d31319-d36d-403e-adf6-0b51cdaa5b1b","ios":"levelo://app?vid=95d31319-d36d-403e-adf6-0b51cdaa5b1b"},"vehicle_type_id":"4","last_reported":1773949125,"current_range_meters":4000,"station_id":"","pricing_plan_id":"cebpf4jnsgd1na2vs0mg"},{"bike_id":"fa929248-ca9a-4446-8111-5adf29ff86cd","system_id":"levelo_inurba_marseille","lat":43.28939,"lon":5.39627,"is_reserved":false,"is_disabled":false,"rental_uris":{"android":"levelo://app?vid=fa929248-ca9a-4446-8111-5adf29ff86cd","ios":"levelo://app?vid=fa929248-ca9a-4446-8111-5adf29ff86cd"},"vehicle_type_id":"4","last_reported":1773949125,"current_range_meters":4000,"station_id":"ce4bh3h2rcd13ifvqdn0","pricing_plan_id":"cebpf4jnsgd1na2vs0mg"},{"bike_id":"3dcfba69-0432-4dc6-9064-f4c0dafe939f","system_id":"levelo_inurba_marseille","lat":43.243877,"lon":5.370474,"is_reserved":false,"is_disabled":false,"rental_uris":{"android":"levelo://app?vid=3dcfba69-0432-4dc6-9064-f4c0dafe939f","ios":"levelo://app?vid=3dcfba69-0432-4dc6-9064-f4c0dafe939f"},"vehicle_type_id":"4","last_reported":1773949125,"current_range_meters":4000,"station_id":"ce4bhhh2rcd13ifvqfk0","pricing_plan_id":"cebpf4jnsgd1na2vs0mg"},{"bike_id":"506661fa-d7d4-473c-8038-c16d45410fe8","system_id":"levelo_inurba_marseille","lat":43.28867,"lon":5.42515,"is_reserved":false,"is_disabled":false,"rental_uris":{"android":"levelo://app?vid=506661fa-d7d4-473c-8038-c16d45410fe8","ios":"levelo://app?vid=506661fa-d7d4-473c-8038-c16d45410fe8"},"vehicle_type_id":"4","last_reported":1773949125,"current_range_meters":4000,"station_id":"","pricing_plan_id":"cebpf4jnsgd1na2vs0mg"},{"bike_id":"faf40ad0-520a-4e09-b956-d35624908cec","system_id":"levelo_inurba_marseille","lat":43.29218,"lon":5.36047,"is_reserved":false,"is_disabled":false,"rental_uris":{"android":"levelo://app?vid=faf40ad0-520a-4e09-b956-d35624908cec","ios":"levelo://app?vid=faf40ad0-520a-4e09-b956-d35624908cec"},"vehicle_type_id":"4","last_reported":1773949125,"current_range_meters":4000,"station_id":"ce4bhbh2rcd13ifvqeqg","pricing_plan_id":"cebpf4jnsgd1na2vs0mg"},{"bike_id":"ab8e59d7-35b3-41e1-95f9-9d78741bc131","system_id":"levelo_inurba_marseille","lat":43.21846,"lon":5.34588,"is_reserved":false,"is_disabled":false,"rental_uris":{"android":"levelo://app?vid=ab8e59d7-35b3-41e1-95f9-9d78741bc131","ios":"levelo://app?vid=ab8e59d7-35b3-41e1-95f9-9d78741bc131"},"vehicle_type_id":"4","last_reported":1773949125,"current_range_meters":4000,"station_id":"","pricing_plan_id":"cebpf4jnsgd1na2vs0mg"},{"bike_id":"78091c84-79e3-435f-8ee3-e135a643baae","system_id":"levelo_inurba_marseille","lat":43.31241,"lon":5.38444,"is_reserved":false,"is_disabled":false,"rental_uris":{"android":"levelo://app?vid=78091c84-79e3-435f-8ee3-e135a643baae","ios":"levelo://app?vid=78091c84-79e3-435f-8ee3-e135a643baae"},"vehicle_type_id":"4","last_reported":1773949125,"current_range_meters":4000,"station_id":"","pricing_plan_id":"cebpf4jnsgd1na2vs0mg"},{"bike_id":"f268f2fe-467e-40c0-b855-6883c59cb486","system_id":"levelo_inurba_marseille","lat":43.2927,"lon":5.38443,"is_reserved":false,"is_disabled":false,"rental_uris":{"android":"levelo://app?vid=f268f2fe-467e-40c0-b855-6883c59cb486","ios":"levelo://app?vid=f268f2fe-467e-40c0-b855-6883c59cb486"},"vehicle_type_id":"4","last_reported":1773949125,"current_range_meters":4000,"station_id":"ce4bh692rcd13ifvqea0","pricing_plan_id":"cebpf4jnsgd1na2vs0mg"},{"bike_id":"d9a10f7e-e86c-4125-b9e9-77ee7b81a91f","system_id":"levelo_inurba_marseille","lat":43.28473,"lon":5.38416,"is_reserved":false,"is_disabled":false,"rental_uris":{"android":"levelo://app?vid=d9a10f7e-e86c-4125-b9e9-77ee7b81a91f","ios":"levelo://app?vid=d9a10f7e-e86c-4125-b9e9-77ee7b81a91f"},"vehicle_type_id":"4","last_reported":1773949125,"current_range_meters":4000,"station_id":"ce4bh512rcd13ifvqe3g","pricing_plan_id":"cebpf4jnsgd1na2vs0mg"},{"bike_id":"dd8390c9-eed9-4b5d-95df-1b40250bc11f","system_id":"levelo_inurba_marseille","lat":43.21627,"lon":5.34527,"is_reserved":false,"is_disabled":false,"rental_uris":{"android":"levelo://app?vid=dd8390c9-eed9-4b5d-95df-1b40250bc11f","ios":"levelo://app?vid=dd8390c9-eed9-4b5d-95df-1b40250bc11f"},"vehicle_type_id":"4","last_reported":1773949125,"current_range_meters":4000,"station_id":"","pricing_plan_id":"cebpf4jnsgd1na2vs0mg"},{"bike_id":"21d0cfbf-5476-4e40-9eb4-2e7c4ce7feb9","system_id":"levelo_inurba_marseille","lat":43.29306,"lon":5.37159,"is_reserved":false,"is_disabled":false,"rental_uris":{"android":"levelo://app?vid=21d0cfbf-5476-4e40-9eb4-2e7c4ce7feb9","ios":"levelo://app?vid=21d0cfbf-5476-4e40-9eb4-2e7c4ce7feb9"},"vehicle_type_id":"4","last_reported":1773949125,"current_range_meters":4400,"station_id":"ce4bgh92rcd13ifvqb40","pricing_plan_id":"cebpf4jnsgd1na2vs0mg"},{"bike_id":"0084a46c-0392-412e-b2db-a24c4e660624","system_id":"levelo_inurba_marseille","lat":43.24489,"lon":5.39689,"is_reserved":false,"is_disabled":false,"rental_uris":{"android":"levelo://app?vid=0084a46c-0392-412e-b2db-a24c4e660624","ios":"levelo://app?vid=0084a46c-0392-412e-b2db-a24c4e660624"},"vehicle_type_id":"4","last_reported":1773949125,"current_range_meters":4400,"station_id":"","pricing_plan_id":"cebpf4jnsgd1na2vs0mg"},{"bike_id":"a244dbb4-0f4e-4feb-860e-324fc6945b7a","system_id":"levelo_inurba_marseille","lat":43.29527,"lon":5.39017,"is_reserved":false,"is_disabled":false,"rental_uris":{"android":"levelo://app?vid=a244dbb4-0f4e-4feb-860e-324fc6945b7a","ios":"levelo://app?vid=a244dbb4-0f4e-4feb-860e-324fc6945b7a"},"vehicle_type_id":"4","last_reported":1773949125,"current_range_meters":4400,"station_id":"ce4bh3p2rcd13ifvqdp0","pricing_plan_id":"cebpf4jnsgd1na2vs0mg"},{"bike_id":"1fdbd032-af28-4158-a02e-01bb107fd2a7","system_id":"levelo_inurba_marseille","lat":43.337444,"lon":5.374475,"is_reserved":false,"is_disabled":false,"rental_uris":{"android":"levelo://app?vid=1fdbd032-af28-4158-a02e-01bb107fd2a7","ios":"levelo://app?vid=1fdbd032-af28-4158-a02e-01bb107fd2a7"},"vehicle_type_id":"4","last_reported":1773949125,"current_range_meters":4400,"station_id":"","pricing_plan_id":"cebpf4jnsgd1na2vs0mg"},{"bike_id":"07f521f2-168c-437f-9ee7-8d100cdbdf6d","system_id":"levelo_inurba_marseille","lat":43.25582,"lon":5.38236,"is_reserved":false,"is_disabled":false,"rental_uris":{"android":"levelo://app?vid=07f521f2-168c-437f-9ee7-8d100cdbdf6d","ios":"levelo://app?vid=07f521f2-168c-437f-9ee7-8d100cdbdf6d"},"vehicle_type_id":"4","last_reported":1773949125,"current_range_meters":4400,"station_id":"ce4bhih2rcd13ifvqfs0","pricing_plan_id":"cebpf4jnsgd1na2vs0mg"},{"bike_id":"64dc1be2-6543-47f9-9ff4-c0ad24f9d126","system_id":"levelo_inurba_marseille","lat":43.29794,"lon":5.38107,"is_reserved":false,"is_disabled":false,"rental_uris":{"android":"levelo://app?vid=64dc1be2-6543-47f9-9ff4-c0ad24f9d126","ios":"levelo://app?vid=64dc1be2-6543-47f9-9ff4-c0ad24f9d126"},"vehicle_type_id":"4","last_reported":1773949125,"current_range_meters":4400,"station_id":"ce4bgip2rcd13ifvqbb0","pricing_plan_id":"cebpf4jnsgd1na2vs0mg"},{"bike_id":"13ad50bf-7f2f-4ad1-a82f-209db682ff58","system_id":"levelo_inurba_marseille","lat":43.26553,"lon":5.39037,"is_reserved":false,"is_disabled":true,"rental_uris":{"android":"levelo://app?vid=13ad50bf-7f2f-4ad1-a82f-209db682ff58","ios":"levelo://app?vid=13ad50bf-7f2f-4ad1-a82f-209db682ff58"},"vehicle_type_id":"4","last_reported":1773949125,"current_range_meters":4400,"station_id":"ce4bhe12rcd13ifvqf30","pricing_plan_id":"cebpf4jnsgd1na2vs0mg"},{"bike_id":"4e3195b9-dd9e-464c-a049-e82a7bc62b10","system_id":"levelo_inurba_marseille","lat":43.29886,"lon":5.39723,"is_reserved":false,"is_disabled":false,"rental_uris":{"android":"levelo://app?vid=4e3195b9-dd9e-464c-a049-e82a7bc62b10","ios":"levelo://app?vid=4e3195b9-dd9e-464c-a049-e82a7bc62b10"},"vehicle_type_id":"4","last_reported":1773949125,"current_range_meters":4400,"station_id":"ce4bh0h2rcd13ifvqd50","pricing_plan_id":"cebpf4jnsgd1na2vs0mg"},{"bike_id":"b540ff6b-9338-43e2-93e5-fd42f02236aa","system_id":"levelo_inurba_marseille","lat":43.2951,"lon":5.39033,"is_reserved":false,"is_disabled":false,"rental_uris":{"android":"levelo://app?vid=b540ff6b-9338-43e2-93e5-fd42f02236aa","ios":"levelo://app?vid=b540ff6b-9338-43e2-93e5-fd42f02236aa"},"vehicle_type_id":"4","last_reported":1773949125,"current_range_meters":4400,"station_id":"ce4bh3p2rcd13ifvqdp0","pricing_plan_id":"cebpf4jnsgd1na2vs0mg"},{"bike_id":"d29c05f8-d760-43ef-be8f-e483abd8aa24","system_id":"levelo_inurba_marseille","lat":43.27608,"lon":5.3612,"is_reserved":false,"is_disabled":false,"rental_uris":{"android":"levelo://app?vid=d29c05f8-d760-43ef-be8f-e483abd8aa24","ios":"levelo://app?vid=d29c05f8-d760-43ef-be8f-e483abd8aa24"},"vehicle_type_id":"4","last_reported":1773949125,"current_range_meters":4400,"station_id":"ce4bgj92rcd13ifvqbe0","pricing_plan_id":"cebpf4jnsgd1na2vs0mg"},{"bike_id":"6b1f2e35-84d0-429b-a27f-805576686136","system_id":"levelo_inurba_marseille","lat":43.28747,"lon":5.37939,"is_reserved":false,"is_disabled":false,"rental_uris":{"android":"levelo://app?vid=6b1f2e35-84d0-429b-a27f-805576686136","ios":"levelo://app?vid=6b1f2e35-84d0-429b-a27f-805576686136"},"vehicle_type_id":"4","last_reported":1773949125,"current_range_meters":4400,"station_id":"ce4bh9p2rcd13ifvqec0","pricing_plan_id":"cebpf4jnsgd1na2vs0mg"},{"bike_id":"7e8b6cb5-137a-41fc-a670-68cf90671688","system_id":"levelo_inurba_marseille","lat":43.29266,"lon":5.38458,"is_reserved":false,"is_disabled":false,"rental_uris":{"android":"levelo://app?vid=7e8b6cb5-137a-41fc-a670-68cf90671688","ios":"levelo://app?vid=7e8b6cb5-137a-41fc-a670-68cf90671688"},"vehicle_type_id":"4","last_reported":1773949125,"current_range_meters":4400,"station_id":"ce4bh692rcd13ifvqea0","pricing_plan_id":"cebpf4jnsgd1na2vs0mg"},{"bike_id":"0b5bfda8-82aa-4ee1-9e4d-325513313ed0","system_id":"levelo_inurba_marseille","lat":43.28942,"lon":5.38411,"is_reserved":false,"is_disabled":false,"rental_uris":{"android":"levelo://app?vid=0b5bfda8-82aa-4ee1-9e4d-325513313ed0","ios":"levelo://app?vid=0b5bfda8-82aa-4ee1-9e4d-325513313ed0"},"vehicle_type_id":"4","last_reported":1773949125,"current_range_meters":4400,"station_id":"ce4bh612rcd13ifvqe6g","pricing_plan_id":"cebpf4jnsgd1na2vs0mg"},{"bike_id":"ed3a3835-310e-4099-88c4-5fc24101e9b5","system_id":"levelo_inurba_marseille","lat":43.28151,"lon":5.4264,"is_reserved":false,"is_disabled":false,"rental_uris":{"android":"levelo://app?vid=ed3a3835-310e-4099-88c4-5fc24101e9b5","ios":"levelo://app?vid=ed3a3835-310e-4099-88c4-5fc24101e9b5"},"vehicle_type_id":"4","last_reported":1773949125,"current_range_meters":4400,"station_id":"ce4bhnh2rcd13ifvqgug","pricing_plan_id":"cebpf4jnsgd1na2vs0mg"},{"bike_id":"90d431be-eb5d-4b99-9258-4641f47781a1","system_id":"levelo_inurba_marseille","lat":43.32654,"lon":5.40998,"is_reserved":false,"is_disabled":false,"rental_uris":{"android":"levelo://app?vid=90d431be-eb5d-4b99-9258-4641f47781a1","ios":"levelo://app?vid=90d431be-eb5d-4b99-9258-4641f47781a1"},"vehicle_type_id":"4","last_reported":1773949125,"current_range_meters":4400,"station_id":"ce4bhpp2rcd13ifvqhgg","pricing_plan_id":"cebpf4jnsgd1na2vs0mg"},{"bike_id":"d154e39b-bb17-44a2-b44f-05209b2a5131","system_id":"levelo_inurba_marseille","lat":43.2175,"lon":5.34594,"is_reserved":false,"is_disabled":false,"rental_uris":{"android":"levelo://app?vid=d154e39b-bb17-44a2-b44f-05209b2a5131","ios":"levelo://app?vid=d154e39b-bb17-44a2-b44f-05209b2a5131"},"vehicle_type_id":"4","last_reported":1773949125,"current_range_meters":4800,"station_id":"","pricing_plan_id":"cebpf4jnsgd1na2vs0mg"},{"bike_id":"27327998-7d66-4efe-ae71-3e43984777b0","system_id":"levelo_inurba_marseille","lat":43.30192,"lon":5.39471,"is_reserved":false,"is_disabled":false,"rental_uris":{"android":"levelo://app?vid=27327998-7d66-4efe-ae71-3e43984777b0","ios":"levelo://app?vid=27327998-7d66-4efe-ae71-3e43984777b0"},"vehicle_type_id":"4","last_reported":1773949125,"current_range_meters":4800,"station_id":"ce4bh0p2rcd13ifvqd70","pricing_plan_id":"cebpf4jnsgd1na2vs0mg"},{"bike_id":"69eb8448-c0e0-496f-831c-8ada77fd31e2","system_id":"levelo_inurba_marseille","lat":43.2306,"lon":5.35487,"is_reserved":false,"is_disabled":false,"rental_uris":{"android":"levelo://app?vid=69eb8448-c0e0-496f-831c-8ada77fd31e2","ios":"levelo://app?vid=69eb8448-c0e0-496f-831c-8ada77fd31e2"},"vehicle_type_id":"4","last_reported":1773949125,"current_range_meters":4800,"station_id":"cpo3342slgdg3j2ifvpg","pricing_plan_id":"cebpf4jnsgd1na2vs0mg"},{"bike_id":"dc0f9891-d222-4b5b-a342-dcb03c4b8dfa","system_id":"levelo_inurba_marseille","lat":43.31711,"lon":5.37791,"is_reserved":false,"is_disabled":false,"rental_uris":{"android":"levelo://app?vid=dc0f9891-d222-4b5b-a342-dcb03c4b8dfa","ios":"levelo://app?vid=dc0f9891-d222-4b5b-a342-dcb03c4b8dfa"},"vehicle_type_id":"4","last_reported":1773949125,"current_range_meters":4800,"station_id":"ce4bgth2rcd13ifvqch0","pricing_plan_id":"cebpf4jnsgd1na2vs0mg"},{"bike_id":"0ee4ce16-829f-49ee-9a2a-4b4670dfbc6f","system_id":"levelo_inurba_marseille","lat":43.2848,"lon":5.48407,"is_reserved":false,"is_disabled":false,"rental_uris":{"android":"levelo://app?vid=0ee4ce16-829f-49ee-9a2a-4b4670dfbc6f","ios":"levelo://app?vid=0ee4ce16-829f-49ee-9a2a-4b4670dfbc6f"},"vehicle_type_id":"4","last_reported":1773949125,"current_range_meters":4800,"station_id":"st_d3svhcjqgbts73a3dn0g","pricing_plan_id":"cebpf4jnsgd1na2vs0mg"},{"bike_id":"caf5e45c-f3f2-43eb-99a6-b11ec33451e8","system_id":"levelo_inurba_marseille","lat":43.23975,"lon":5.36639,"is_reserved":false,"is_disabled":false,"rental_uris":{"android":"levelo://app?vid=caf5e45c-f3f2-43eb-99a6-b11ec33451e8","ios":"levelo://app?vid=caf5e45c-f3f2-43eb-99a6-b11ec33451e8"},"vehicle_type_id":"4","last_reported":1773949125,"current_range_meters":4800,"station_id":"ce4bhi12rcd13ifvqfp0","pricing_plan_id":"cebpf4jnsgd1na2vs0mg"},{"bike_id":"a8270c24-86a4-441d-8bd3-87569569f64d","system_id":"levelo_inurba_marseille","lat":43.2767,"lon":5.38881,"is_reserved":false,"is_disabled":false,"rental_uris":{"android":"levelo://app?vid=a8270c24-86a4-441d-8bd3-87569569f64d","ios":"levelo://app?vid=a8270c24-86a4-441d-8bd3-87569569f64d"},"vehicle_type_id":"4","last_reported":1773949125,"current_range_meters":4800,"station_id":"ce4bhi12rcd13ifvqfo0","pricing_plan_id":"cebpf4jnsgd1na2vs0mg"},{"bike_id":"6f0da953-2adc-429d-bb7c-360d8a3447c9","system_id":"levelo_inurba_marseille","lat":43.27506,"lon":5.41647,"is_reserved":false,"is_disabled":false,"rental_uris":{"android":"levelo://app?vid=6f0da953-2adc-429d-bb7c-360d8a3447c9","ios":"levelo://app?vid=6f0da953-2adc-429d-bb7c-360d8a3447c9"},"vehicle_type_id":"4","last_reported":1773949125,"current_range_meters":4800,"station_id":"st_d6im8g6chgec73a5pndg","pricing_plan_id":"cebpf4jnsgd1na2vs0mg"},{"bike_id":"365fa532-e0cf-4687-b2c7-b459f9f20595","system_id":"levelo_inurba_marseille","lat":43.3043,"lon":5.38883,"is_reserved":false,"is_disabled":false,"rental_uris":{"android":"levelo://app?vid=365fa532-e0cf-4687-b2c7-b459f9f20595","ios":"levelo://app?vid=365fa532-e0cf-4687-b2c7-b459f9f20595"},"vehicle_type_id":"4","last_reported":1773949125,"current_range_meters":4800,"station_id":"ce4bgk12rcd13ifvqbi0","pricing_plan_id":"cebpf4jnsgd1na2vs0mg"},{"bike_id":"4fb83e48-9ddd-4a06-962f-2206a9a52063","system_id":"levelo_inurba_marseille","lat":43.29846,"lon":5.39755,"is_reserved":false,"is_disabled":false,"rental_uris":{"android":"levelo://app?vid=4fb83e48-9ddd-4a06-962f-2206a9a52063","ios":"levelo://app?vid=4fb83e48-9ddd-4a06-962f-2206a9a52063"},"vehicle_type_id":"4","last_reported":1773949125,"current_range_meters":4800,"station_id":"ce4bh0h2rcd13ifvqd50","pricing_plan_id":"cebpf4jnsgd1na2vs0mg"},{"bike_id":"40e9b082-ee82-4167-9f65-c3754e3e97fe","system_id":"levelo_inurba_marseille","lat":43.309619,"lon":5.390401,"is_reserved":false,"is_disabled":false,"rental_uris":{"android":"levelo://app?vid=40e9b082-ee82-4167-9f65-c3754e3e97fe","ios":"levelo://app?vid=40e9b082-ee82-4167-9f65-c3754e3e97fe"},"vehicle_type_id":"4","last_reported":1773949125,"current_range_meters":4800,"station_id":"ce4bgup2rcd13ifvqco0","pricing_plan_id":"cebpf4jnsgd1na2vs0mg"},{"bike_id":"ee9d83ea-4edf-4b1f-8714-2525a5649daf","system_id":"levelo_inurba_marseille","lat":43.24468,"lon":5.42564,"is_reserved":false,"is_disabled":false,"rental_uris":{"android":"levelo://app?vid=ee9d83ea-4edf-4b1f-8714-2525a5649daf","ios":"levelo://app?vid=ee9d83ea-4edf-4b1f-8714-2525a5649daf"},"vehicle_type_id":"4","last_reported":1773949125,"current_range_meters":4800,"station_id":"st_d4a3vfp97mjs738cd8kg","pricing_plan_id":"cebpf4jnsgd1na2vs0mg"},{"bike_id":"46d5a887-e69e-4b92-9937-af16138c60d7","system_id":"levelo_inurba_marseille","lat":43.25576,"lon":5.38245,"is_reserved":false,"is_disabled":false,"rental_uris":{"android":"levelo://app?vid=46d5a887-e69e-4b92-9937-af16138c60d7","ios":"levelo://app?vid=46d5a887-e69e-4b92-9937-af16138c60d7"},"vehicle_type_id":"4","last_reported":1773949125,"current_range_meters":4800,"station_id":"ce4bhih2rcd13ifvqfs0","pricing_plan_id":"cebpf4jnsgd1na2vs0mg"},{"bike_id":"73e44213-1cd8-4593-a09e-a9c4a914a5d2","system_id":"levelo_inurba_marseille","lat":43.28487,"lon":5.48448,"is_reserved":false,"is_disabled":false,"rental_uris":{"android":"levelo://app?vid=73e44213-1cd8-4593-a09e-a9c4a914a5d2","ios":"levelo://app?vid=73e44213-1cd8-4593-a09e-a9c4a914a5d2"},"vehicle_type_id":"4","last_reported":1773949125,"current_range_meters":4800,"station_id":"st_d3svhcjqgbts73a3dn0g","pricing_plan_id":"cebpf4jnsgd1na2vs0mg"},{"bike_id":"78c86868-a79f-4f2a-bb9a-961b0f22d36b","system_id":"levelo_inurba_marseille","lat":43.29976,"lon":5.38647,"is_reserved":false,"is_disabled":false,"rental_uris":{"android":"levelo://app?vid=78c86868-a79f-4f2a-bb9a-961b0f22d36b","ios":"levelo://app?vid=78c86868-a79f-4f2a-bb9a-961b0f22d36b"},"vehicle_type_id":"4","last_reported":1773949125,"current_range_meters":4800,"station_id":"","pricing_plan_id":"cebpf4jnsgd1na2vs0mg"},{"bike_id":"1fa61de3-b178-4a2b-955c-80681f7198a9","system_id":"levelo_inurba_marseille","lat":43.29326,"lon":5.41174,"is_reserved":false,"is_disabled":false,"rental_uris":{"android":"levelo://app?vid=1fa61de3-b178-4a2b-955c-80681f7198a9","ios":"levelo://app?vid=1fa61de3-b178-4a2b-955c-80681f7198a9"},"vehicle_type_id":"4","last_reported":1773949125,"current_range_meters":4800,"station_id":"","pricing_plan_id":"cebpf4jnsgd1na2vs0mg"},{"bike_id":"2f0354fc-31aa-4398-9c3e-f0f50b7b2184","system_id":"levelo_inurba_marseille","lat":43.2415,"lon":5.39736,"is_reserved":false,"is_disabled":false,"rental_uris":{"android":"levelo://app?vid=2f0354fc-31aa-4398-9c3e-f0f50b7b2184","ios":"levelo://app?vid=2f0354fc-31aa-4398-9c3e-f0f50b7b2184"},"vehicle_type_id":"4","last_reported":1773949125,"current_range_meters":5600,"station_id":"ce4bhn12rcd13ifvqgpg","pricing_plan_id":"cebpf4jnsgd1na2vs0mg"},{"bike_id":"174d3974-c735-4f47-926b-87dba695db90","system_id":"levelo_inurba_marseille","lat":43.23898,"lon":5.37471,"is_reserved":false,"is_disabled":false,"rental_uris":{"android":"levelo://app?vid=174d3974-c735-4f47-926b-87dba695db90","ios":"levelo://app?vid=174d3974-c735-4f47-926b-87dba695db90"},"vehicle_type_id":"4","last_reported":1773949125,"current_range_meters":5600,"station_id":"st_d6sm7csbq4hs73f8fpjg","pricing_plan_id":"cebpf4jnsgd1na2vs0mg"},{"bike_id":"719e9861-af82-4022-a2ea-bd7d6f00ff5f","system_id":"levelo_inurba_marseille","lat":43.28752,"lon":5.42517,"is_reserved":false,"is_disabled":true,"rental_uris":{"android":"levelo://app?vid=719e9861-af82-4022-a2ea-bd7d6f00ff5f","ios":"levelo://app?vid=719e9861-af82-4022-a2ea-bd7d6f00ff5f"},"vehicle_type_id":"4","last_reported":1773949125,"current_range_meters":5600,"station_id":"","pricing_plan_id":"cebpf4jnsgd1na2vs0mg"},{"bike_id":"8de93d8f-26b3-449b-9a04-bba6830a3a4d","system_id":"levelo_inurba_marseille","lat":43.33724,"lon":5.39213,"is_reserved":false,"is_disabled":false,"rental_uris":{"android":"levelo://app?vid=8de93d8f-26b3-449b-9a04-bba6830a3a4d","ios":"levelo://app?vid=8de93d8f-26b3-449b-9a04-bba6830a3a4d"},"vehicle_type_id":"4","last_reported":1773949125,"current_range_meters":5600,"station_id":"ce4bhr92rcd13ifvqhsg","pricing_plan_id":"cebpf4jnsgd1na2vs0mg"},{"bike_id":"3bce7349-273d-425c-a811-ae0340ff499c","system_id":"levelo_inurba_marseille","lat":43.29267,"lon":5.3844,"is_reserved":false,"is_disabled":false,"rental_uris":{"android":"levelo://app?vid=3bce7349-273d-425c-a811-ae0340ff499c","ios":"levelo://app?vid=3bce7349-273d-425c-a811-ae0340ff499c"},"vehicle_type_id":"4","last_reported":1773949125,"current_range_meters":5600,"station_id":"ce4bh692rcd13ifvqea0","pricing_plan_id":"cebpf4jnsgd1na2vs0mg"},{"bike_id":"f548d54e-59c2-46b6-8855-0454d4dc0779","system_id":"levelo_inurba_marseille","lat":43.28206,"lon":5.39063,"is_reserved":false,"is_disabled":false,"rental_uris":{"android":"levelo://app?vid=f548d54e-59c2-46b6-8855-0454d4dc0779","ios":"levelo://app?vid=f548d54e-59c2-46b6-8855-0454d4dc0779"},"vehicle_type_id":"4","last_reported":1773949125,"current_range_meters":5600,"station_id":"ce4bhn92rcd13ifvqgsg","pricing_plan_id":"cebpf4jnsgd1na2vs0mg"},{"bike_id":"085d65c3-df77-421d-af86-5814a9658cd2","system_id":"levelo_inurba_marseille","lat":43.28731,"lon":5.37956,"is_reserved":false,"is_disabled":false,"rental_uris":{"android":"levelo://app?vid=085d65c3-df77-421d-af86-5814a9658cd2","ios":"levelo://app?vid=085d65c3-df77-421d-af86-5814a9658cd2"},"vehicle_type_id":"4","last_reported":1773949125,"current_range_meters":5600,"station_id":"ce4bh9p2rcd13ifvqec0","pricing_plan_id":"cebpf4jnsgd1na2vs0mg"},{"bike_id":"28025302-46d2-4169-9ce9-8e064c7a81fd","system_id":"levelo_inurba_marseille","lat":43.26383,"lon":5.41068,"is_reserved":false,"is_disabled":true,"rental_uris":{"android":"levelo://app?vid=28025302-46d2-4169-9ce9-8e064c7a81fd","ios":"levelo://app?vid=28025302-46d2-4169-9ce9-8e064c7a81fd"},"vehicle_type_id":"4","last_reported":1773949125,"current_range_meters":5600,"station_id":"","pricing_plan_id":"cebpf4jnsgd1na2vs0mg"},{"bike_id":"9b15e990-a964-42e6-86de-69c5dc0befde","system_id":"levelo_inurba_marseille","lat":43.29199,"lon":5.39327,"is_reserved":false,"is_disabled":false,"rental_uris":{"android":"levelo://app?vid=9b15e990-a964-42e6-86de-69c5dc0befde","ios":"levelo://app?vid=9b15e990-a964-42e6-86de-69c5dc0befde"},"vehicle_type_id":"4","last_reported":1773949125,"current_range_meters":5600,"station_id":"ce4bh192rcd13ifvqdd0","pricing_plan_id":"cebpf4jnsgd1na2vs0mg"},{"bike_id":"d31f30f9-c644-42a8-ba33-167d11dae2f7","system_id":"levelo_inurba_marseille","lat":43.29607,"lon":5.37982,"is_reserved":false,"is_disabled":false,"rental_uris":{"android":"levelo://app?vid=d31f30f9-c644-42a8-ba33-167d11dae2f7","ios":"levelo://app?vid=d31f30f9-c644-42a8-ba33-167d11dae2f7"},"vehicle_type_id":"4","last_reported":1773949125,"current_range_meters":5600,"station_id":"","pricing_plan_id":"cebpf4jnsgd1na2vs0mg"},{"bike_id":"65518791-09ea-49fa-8ba6-d86c214c69fb","system_id":"levelo_inurba_marseille","lat":43.29269,"lon":5.38436,"is_reserved":false,"is_disabled":false,"rental_uris":{"android":"levelo://app?vid=65518791-09ea-49fa-8ba6-d86c214c69fb","ios":"levelo://app?vid=65518791-09ea-49fa-8ba6-d86c214c69fb"},"vehicle_type_id":"4","last_reported":1773949125,"current_range_meters":5600,"station_id":"ce4bh692rcd13ifvqea0","pricing_plan_id":"cebpf4jnsgd1na2vs0mg"},{"bike_id":"82dac7dc-baf9-49dd-ae7e-c9092db1fe4a","system_id":"levelo_inurba_marseille","lat":43.29533,"lon":5.38538,"is_reserved":false,"is_disabled":false,"rental_uris":{"android":"levelo://app?vid=82dac7dc-baf9-49dd-ae7e-c9092db1fe4a","ios":"levelo://app?vid=82dac7dc-baf9-49dd-ae7e-c9092db1fe4a"},"vehicle_type_id":"4","last_reported":1773949125,"current_range_meters":5600,"station_id":"ce4bgih2rcd13ifvqba0","pricing_plan_id":"cebpf4jnsgd1na2vs0mg"},{"bike_id":"5f744b7f-d9ac-4940-9d12-c0e19756661f","system_id":"levelo_inurba_marseille","lat":43.29404,"lon":5.4132,"is_reserved":false,"is_disabled":false,"rental_uris":{"android":"levelo://app?vid=5f744b7f-d9ac-4940-9d12-c0e19756661f","ios":"levelo://app?vid=5f744b7f-d9ac-4940-9d12-c0e19756661f"},"vehicle_type_id":"4","last_reported":1773949125,"current_range_meters":5600,"station_id":"","pricing_plan_id":"cebpf4jnsgd1na2vs0mg"},{"bike_id":"13f22504-41ee-4c06-bb43-b22067e22b34","system_id":"levelo_inurba_marseille","lat":43.27392,"lon":5.39381,"is_reserved":false,"is_disabled":false,"rental_uris":{"android":"levelo://app?vid=13f22504-41ee-4c06-bb43-b22067e22b34","ios":"levelo://app?vid=13f22504-41ee-4c06-bb43-b22067e22b34"},"vehicle_type_id":"4","last_reported":1773949125,"current_range_meters":5600,"station_id":"ce4bhdp2rcd13ifvqf20","pricing_plan_id":"cebpf4jnsgd1na2vs0mg"},{"bike_id":"69dc0199-53d1-4a6e-ade3-580f2c888e49","system_id":"levelo_inurba_marseille","lat":43.24643,"lon":5.38891,"is_reserved":false,"is_disabled":false,"rental_uris":{"android":"levelo://app?vid=69dc0199-53d1-4a6e-ade3-580f2c888e49","ios":"levelo://app?vid=69dc0199-53d1-4a6e-ade3-580f2c888e49"},"vehicle_type_id":"4","last_reported":1773949125,"current_range_meters":5600,"station_id":"ce4bhg12rcd13ifvqf60","pricing_plan_id":"cebpf4jnsgd1na2vs0mg"},{"bike_id":"cf21a704-d1d6-45ac-b508-b7d48f023c9f","system_id":"levelo_inurba_marseille","lat":43.32124,"lon":5.36875,"is_reserved":false,"is_disabled":false,"rental_uris":{"android":"levelo://app?vid=cf21a704-d1d6-45ac-b508-b7d48f023c9f","ios":"levelo://app?vid=cf21a704-d1d6-45ac-b508-b7d48f023c9f"},"vehicle_type_id":"4","last_reported":1773949125,"current_range_meters":6000,"station_id":"","pricing_plan_id":"cebpf4jnsgd1na2vs0mg"},{"bike_id":"249f1bb2-5bae-40ae-bcc9-61a12ea8fe83","system_id":"levelo_inurba_marseille","lat":43.29631,"lon":5.40599,"is_reserved":false,"is_disabled":false,"rental_uris":{"android":"levelo://app?vid=249f1bb2-5bae-40ae-bcc9-61a12ea8fe83","ios":"levelo://app?vid=249f1bb2-5bae-40ae-bcc9-61a12ea8fe83"},"vehicle_type_id":"4","last_reported":1773949125,"current_range_meters":6000,"station_id":"ce4bh0h2rcd13ifvqd60","pricing_plan_id":"cebpf4jnsgd1na2vs0mg"},{"bike_id":"f8002e32-7d40-48f8-99b3-a631b985eba5","system_id":"levelo_inurba_marseille","lat":43.337566,"lon":5.374557,"is_reserved":false,"is_disabled":false,"rental_uris":{"android":"levelo://app?vid=f8002e32-7d40-48f8-99b3-a631b985eba5","ios":"levelo://app?vid=f8002e32-7d40-48f8-99b3-a631b985eba5"},"vehicle_type_id":"4","last_reported":1773949125,"current_range_meters":6000,"station_id":"","pricing_plan_id":"cebpf4jnsgd1na2vs0mg"},{"bike_id":"c7d66e66-7ea6-411a-82ec-d30bd10b3e87","system_id":"levelo_inurba_marseille","lat":43.30444,"lon":5.38879,"is_reserved":false,"is_disabled":false,"rental_uris":{"android":"levelo://app?vid=c7d66e66-7ea6-411a-82ec-d30bd10b3e87","ios":"levelo://app?vid=c7d66e66-7ea6-411a-82ec-d30bd10b3e87"},"vehicle_type_id":"4","last_reported":1773949125,"current_range_meters":6000,"station_id":"ce4bgk12rcd13ifvqbi0","pricing_plan_id":"cebpf4jnsgd1na2vs0mg"},{"bike_id":"d81d3f14-bf55-4445-b5c3-dc058f55d05b","system_id":"levelo_inurba_marseille","lat":43.29886,"lon":5.3889,"is_reserved":false,"is_disabled":false,"rental_uris":{"android":"levelo://app?vid=d81d3f14-bf55-4445-b5c3-dc058f55d05b","ios":"levelo://app?vid=d81d3f14-bf55-4445-b5c3-dc058f55d05b"},"vehicle_type_id":"4","last_reported":1773949125,"current_range_meters":6000,"station_id":"ce4bh392rcd13ifvqdl0","pricing_plan_id":"cebpf4jnsgd1na2vs0mg"},{"bike_id":"25a235b7-3b5d-4bbd-9b7e-7bd77524d1e3","system_id":"levelo_inurba_marseille","lat":43.24169,"lon":5.39718,"is_reserved":false,"is_disabled":false,"rental_uris":{"android":"levelo://app?vid=25a235b7-3b5d-4bbd-9b7e-7bd77524d1e3","ios":"levelo://app?vid=25a235b7-3b5d-4bbd-9b7e-7bd77524d1e3"},"vehicle_type_id":"4","last_reported":1773949125,"current_range_meters":6000,"station_id":"ce4bhn12rcd13ifvqgpg","pricing_plan_id":"cebpf4jnsgd1na2vs0mg"},{"bike_id":"8c29270d-5d11-446e-a3f0-f5c56ae9c816","system_id":"levelo_inurba_marseille","lat":43.27561,"lon":5.43282,"is_reserved":false,"is_disabled":false,"rental_uris":{"android":"levelo://app?vid=8c29270d-5d11-446e-a3f0-f5c56ae9c816","ios":"levelo://app?vid=8c29270d-5d11-446e-a3f0-f5c56ae9c816"},"vehicle_type_id":"4","last_reported":1773949125,"current_range_meters":6000,"station_id":"","pricing_plan_id":"cebpf4jnsgd1na2vs0mg"},{"bike_id":"3ead39a4-807a-44fa-84fd-662cbd412bef","system_id":"levelo_inurba_marseille","lat":43.32096,"lon":5.36771,"is_reserved":false,"is_disabled":false,"rental_uris":{"android":"levelo://app?vid=3ead39a4-807a-44fa-84fd-662cbd412bef","ios":"levelo://app?vid=3ead39a4-807a-44fa-84fd-662cbd412bef"},"vehicle_type_id":"4","last_reported":1773949125,"current_range_meters":6000,"station_id":"ce4bhrh2rcd13ifvqhug","pricing_plan_id":"cebpf4jnsgd1na2vs0mg"},{"bike_id":"b0e875b1-36cb-49bd-ba59-9ea6a6f13d1c","system_id":"levelo_inurba_marseille","lat":43.29255,"lon":5.38432,"is_reserved":false,"is_disabled":false,"rental_uris":{"android":"levelo://app?vid=b0e875b1-36cb-49bd-ba59-9ea6a6f13d1c","ios":"levelo://app?vid=b0e875b1-36cb-49bd-ba59-9ea6a6f13d1c"},"vehicle_type_id":"4","last_reported":1773949125,"current_range_meters":6000,"station_id":"ce4bh692rcd13ifvqea0","pricing_plan_id":"cebpf4jnsgd1na2vs0mg"},{"bike_id":"e71aee5c-105a-4327-9048-67909c29ab24","system_id":"levelo_inurba_marseille","lat":43.28937,"lon":5.38403,"is_reserved":false,"is_disabled":false,"rental_uris":{"android":"levelo://app?vid=e71aee5c-105a-4327-9048-67909c29ab24","ios":"levelo://app?vid=e71aee5c-105a-4327-9048-67909c29ab24"},"vehicle_type_id":"4","last_reported":1773949125,"current_range_meters":6000,"station_id":"ce4bh612rcd13ifvqe6g","pricing_plan_id":"cebpf4jnsgd1na2vs0mg"},{"bike_id":"80b7eb86-d44d-4945-8f3c-c36c8aeeddf5","system_id":"levelo_inurba_marseille","lat":43.28205,"lon":5.39074,"is_reserved":false,"is_disabled":false,"rental_uris":{"android":"levelo://app?vid=80b7eb86-d44d-4945-8f3c-c36c8aeeddf5","ios":"levelo://app?vid=80b7eb86-d44d-4945-8f3c-c36c8aeeddf5"},"vehicle_type_id":"4","last_reported":1773949125,"current_range_meters":6000,"station_id":"ce4bhn92rcd13ifvqgsg","pricing_plan_id":"cebpf4jnsgd1na2vs0mg"},{"bike_id":"593c0fd0-b0c0-4c99-b6fe-e4d2a1f17ca0","system_id":"levelo_inurba_marseille","lat":43.29919,"lon":5.36561,"is_reserved":false,"is_disabled":false,"rental_uris":{"android":"levelo://app?vid=593c0fd0-b0c0-4c99-b6fe-e4d2a1f17ca0","ios":"levelo://app?vid=593c0fd0-b0c0-4c99-b6fe-e4d2a1f17ca0"},"vehicle_type_id":"4","last_reported":1773949125,"current_range_meters":6000,"station_id":"ce4bgm92rcd13ifvqbr0","pricing_plan_id":"cebpf4jnsgd1na2vs0mg"},{"bike_id":"6758c5b1-42aa-479e-9750-b0e19de057e9","system_id":"levelo_inurba_marseille","lat":43.29271,"lon":5.38434,"is_reserved":false,"is_disabled":false,"rental_uris":{"android":"levelo://app?vid=6758c5b1-42aa-479e-9750-b0e19de057e9","ios":"levelo://app?vid=6758c5b1-42aa-479e-9750-b0e19de057e9"},"vehicle_type_id":"4","last_reported":1773949125,"current_range_meters":6000,"station_id":"ce4bh692rcd13ifvqea0","pricing_plan_id":"cebpf4jnsgd1na2vs0mg"},{"bike_id":"b6582774-366a-4011-8e66-88320bffa176","system_id":"levelo_inurba_marseille","lat":43.24392,"lon":5.37075,"is_reserved":false,"is_disabled":false,"rental_uris":{"android":"levelo://app?vid=b6582774-366a-4011-8e66-88320bffa176","ios":"levelo://app?vid=b6582774-366a-4011-8e66-88320bffa176"},"vehicle_type_id":"4","last_reported":1773949125,"current_range_meters":6000,"station_id":"ce4bhhh2rcd13ifvqfk0","pricing_plan_id":"cebpf4jnsgd1na2vs0mg"},{"bike_id":"1b5b0898-d892-4ddf-93cf-27cce0d0c2e7","system_id":"levelo_inurba_marseille","lat":43.24079,"lon":5.37762,"is_reserved":false,"is_disabled":false,"rental_uris":{"android":"levelo://app?vid=1b5b0898-d892-4ddf-93cf-27cce0d0c2e7","ios":"levelo://app?vid=1b5b0898-d892-4ddf-93cf-27cce0d0c2e7"},"vehicle_type_id":"4","last_reported":1773949125,"current_range_meters":6000,"station_id":"ce4bhnp2rcd13ifvqgvg","pricing_plan_id":"cebpf4jnsgd1na2vs0mg"},{"bike_id":"fe05c8a8-d4a3-48d4-8f32-905762f11cf6","system_id":"levelo_inurba_marseille","lat":43.27274,"lon":5.39183,"is_reserved":false,"is_disabled":false,"rental_uris":{"android":"levelo://app?vid=fe05c8a8-d4a3-48d4-8f32-905762f11cf6","ios":"levelo://app?vid=fe05c8a8-d4a3-48d4-8f32-905762f11cf6"},"vehicle_type_id":"4","last_reported":1773949125,"current_range_meters":6000,"station_id":"","pricing_plan_id":"cebpf4jnsgd1na2vs0mg"},{"bike_id":"1bb44250-1ce7-403e-87ed-23d26e1a9ea4","system_id":"levelo_inurba_marseille","lat":43.29887,"lon":5.3747,"is_reserved":false,"is_disabled":false,"rental_uris":{"android":"levelo://app?vid=1bb44250-1ce7-403e-87ed-23d26e1a9ea4","ios":"levelo://app?vid=1bb44250-1ce7-403e-87ed-23d26e1a9ea4"},"vehicle_type_id":"4","last_reported":1773949125,"current_range_meters":6000,"station_id":"ce4bgjh2rcd13ifvqbg0","pricing_plan_id":"cebpf4jnsgd1na2vs0mg"},{"bike_id":"cb080fe5-2e59-47b2-aaa2-8ff1c5739058","system_id":"levelo_inurba_marseille","lat":43.28077,"lon":5.39659,"is_reserved":false,"is_disabled":false,"rental_uris":{"android":"levelo://app?vid=cb080fe5-2e59-47b2-aaa2-8ff1c5739058","ios":"levelo://app?vid=cb080fe5-2e59-47b2-aaa2-8ff1c5739058"},"vehicle_type_id":"4","last_reported":1773949125,"current_range_meters":6000,"station_id":"ce4bho12rcd13ifvqh2g","pricing_plan_id":"cebpf4jnsgd1na2vs0mg"},{"bike_id":"3cdb9282-92ea-46a0-a841-f2dd988ecc68","system_id":"levelo_inurba_marseille","lat":43.22953,"lon":5.35393,"is_reserved":false,"is_disabled":false,"rental_uris":{"android":"levelo://app?vid=3cdb9282-92ea-46a0-a841-f2dd988ecc68","ios":"levelo://app?vid=3cdb9282-92ea-46a0-a841-f2dd988ecc68"},"vehicle_type_id":"4","last_reported":1773949125,"current_range_meters":6000,"station_id":"cpo3532slgdg3j2ikp40","pricing_plan_id":"cebpf4jnsgd1na2vs0mg"},{"bike_id":"61abe7b6-a1d5-4fb1-8e97-6efff73823a7","system_id":"levelo_inurba_marseille","lat":43.23807,"lon":5.36616,"is_reserved":false,"is_disabled":true,"rental_uris":{"android":"levelo://app?vid=61abe7b6-a1d5-4fb1-8e97-6efff73823a7","ios":"levelo://app?vid=61abe7b6-a1d5-4fb1-8e97-6efff73823a7"},"vehicle_type_id":"4","last_reported":1773949125,"current_range_meters":6400,"station_id":"st_d3nk18o9ro0c73en2l3g","pricing_plan_id":"cebpf4jnsgd1na2vs0mg"},{"bike_id":"24dc1ce5-2db6-421b-869a-69d6f082b300","system_id":"levelo_inurba_marseille","lat":43.29788,"lon":5.36241,"is_reserved":false,"is_disabled":false,"rental_uris":{"android":"levelo://app?vid=24dc1ce5-2db6-421b-869a-69d6f082b300","ios":"levelo://app?vid=24dc1ce5-2db6-421b-869a-69d6f082b300"},"vehicle_type_id":"4","last_reported":1773949125,"current_range_meters":6400,"station_id":"","pricing_plan_id":"cebpf4jnsgd1na2vs0mg"},{"bike_id":"f7e79517-161a-451a-8a95-bb710b1b4d21","system_id":"levelo_inurba_marseille","lat":43.29849,"lon":5.37897,"is_reserved":false,"is_disabled":false,"rental_uris":{"android":"levelo://app?vid=f7e79517-161a-451a-8a95-bb710b1b4d21","ios":"levelo://app?vid=f7e79517-161a-451a-8a95-bb710b1b4d21"},"vehicle_type_id":"4","last_reported":1773949125,"current_range_meters":6400,"station_id":"","pricing_plan_id":"cebpf4jnsgd1na2vs0mg"},{"bike_id":"c2ec74e2-04f1-403d-a8c2-2e7ecb886a36","system_id":"levelo_inurba_marseille","lat":43.29069,"lon":5.37155,"is_reserved":false,"is_disabled":false,"rental_uris":{"android":"levelo://app?vid=c2ec74e2-04f1-403d-a8c2-2e7ecb886a36","ios":"levelo://app?vid=c2ec74e2-04f1-403d-a8c2-2e7ecb886a36"},"vehicle_type_id":"4","last_reported":1773949125,"current_range_meters":6400,"station_id":"ce4bh5p2rcd13ifvqe4g","pricing_plan_id":"cebpf4jnsgd1na2vs0mg"},{"bike_id":"1a5dab9f-6faf-498f-953b-4b6b67324ef7","system_id":"levelo_inurba_marseille","lat":43.28398,"lon":5.37506,"is_reserved":false,"is_disabled":false,"rental_uris":{"android":"levelo://app?vid=1a5dab9f-6faf-498f-953b-4b6b67324ef7","ios":"levelo://app?vid=1a5dab9f-6faf-498f-953b-4b6b67324ef7"},"vehicle_type_id":"4","last_reported":1773949125,"current_range_meters":6400,"station_id":"ce4bh412rcd13ifvqds0","pricing_plan_id":"cebpf4jnsgd1na2vs0mg"},{"bike_id":"6dc02c2b-66f8-4a61-bb5d-75c222a6f2c3","system_id":"levelo_inurba_marseille","lat":43.28459,"lon":5.35858,"is_reserved":false,"is_disabled":false,"rental_uris":{"android":"levelo://app?vid=6dc02c2b-66f8-4a61-bb5d-75c222a6f2c3","ios":"levelo://app?vid=6dc02c2b-66f8-4a61-bb5d-75c222a6f2c3"},"vehicle_type_id":"4","last_reported":1773949125,"current_range_meters":6400,"station_id":"ce4bhah2rcd13ifvqei0","pricing_plan_id":"cebpf4jnsgd1na2vs0mg"},{"bike_id":"9949bb18-8490-4f62-a48b-c7fe28a932c3","system_id":"levelo_inurba_marseille","lat":43.25818,"lon":5.39429,"is_reserved":false,"is_disabled":false,"rental_uris":{"android":"levelo://app?vid=9949bb18-8490-4f62-a48b-c7fe28a932c3","ios":"levelo://app?vid=9949bb18-8490-4f62-a48b-c7fe28a932c3"},"vehicle_type_id":"4","last_reported":1773949125,"current_range_meters":6400,"station_id":"ce4bhip2rcd13ifvqft0","pricing_plan_id":"cebpf4jnsgd1na2vs0mg"},{"bike_id":"d587c369-7b5a-4f48-88cf-962803ec71ba","system_id":"levelo_inurba_marseille","lat":43.24818,"lon":5.37455,"is_reserved":false,"is_disabled":false,"rental_uris":{"android":"levelo://app?vid=d587c369-7b5a-4f48-88cf-962803ec71ba","ios":"levelo://app?vid=d587c369-7b5a-4f48-88cf-962803ec71ba"},"vehicle_type_id":"4","last_reported":1773949125,"current_range_meters":6400,"station_id":"ce4bhgh2rcd13ifvqfb0","pricing_plan_id":"cebpf4jnsgd1na2vs0mg"},{"bike_id":"8848071d-b600-491f-9bd6-4ed190de957f","system_id":"levelo_inurba_marseille","lat":43.30435,"lon":5.38885,"is_reserved":false,"is_disabled":false,"rental_uris":{"android":"levelo://app?vid=8848071d-b600-491f-9bd6-4ed190de957f","ios":"levelo://app?vid=8848071d-b600-491f-9bd6-4ed190de957f"},"vehicle_type_id":"4","last_reported":1773949125,"current_range_meters":6400,"station_id":"ce4bgk12rcd13ifvqbi0","pricing_plan_id":"cebpf4jnsgd1na2vs0mg"},{"bike_id":"730ffb5d-408c-403f-ac8c-aeaf0b8ab37d","system_id":"levelo_inurba_marseille","lat":43.28111,"lon":5.37855,"is_reserved":false,"is_disabled":false,"rental_uris":{"android":"levelo://app?vid=730ffb5d-408c-403f-ac8c-aeaf0b8ab37d","ios":"levelo://app?vid=730ffb5d-408c-403f-ac8c-aeaf0b8ab37d"},"vehicle_type_id":"4","last_reported":1773949125,"current_range_meters":6800,"station_id":"ce4bha12rcd13ifvqee0","pricing_plan_id":"cebpf4jnsgd1na2vs0mg"},{"bike_id":"1a3ca22b-b218-49e0-b070-faf9435cf978","system_id":"levelo_inurba_marseille","lat":43.3013,"lon":5.38093,"is_reserved":false,"is_disabled":false,"rental_uris":{"android":"levelo://app?vid=1a3ca22b-b218-49e0-b070-faf9435cf978","ios":"levelo://app?vid=1a3ca22b-b218-49e0-b070-faf9435cf978"},"vehicle_type_id":"4","last_reported":1773949125,"current_range_meters":6800,"station_id":"ce4bgjp2rcd13ifvqbh0","pricing_plan_id":"cebpf4jnsgd1na2vs0mg"},{"bike_id":"864f588c-6c9a-47f2-bf8a-559a5ddb02ea","system_id":"levelo_inurba_marseille","lat":43.32087,"lon":5.36843,"is_reserved":false,"is_disabled":false,"rental_uris":{"android":"levelo://app?vid=864f588c-6c9a-47f2-bf8a-559a5ddb02ea","ios":"levelo://app?vid=864f588c-6c9a-47f2-bf8a-559a5ddb02ea"},"vehicle_type_id":"4","last_reported":1773949125,"current_range_meters":6800,"station_id":"","pricing_plan_id":"cebpf4jnsgd1na2vs0mg"},{"bike_id":"a9b7ca13-2660-4df5-ac7e-17daa08bbb3e","system_id":"levelo_inurba_marseille","lat":43.28935,"lon":5.38401,"is_reserved":false,"is_disabled":false,"rental_uris":{"android":"levelo://app?vid=a9b7ca13-2660-4df5-ac7e-17daa08bbb3e","ios":"levelo://app?vid=a9b7ca13-2660-4df5-ac7e-17daa08bbb3e"},"vehicle_type_id":"4","last_reported":1773949125,"current_range_meters":6800,"station_id":"ce4bh612rcd13ifvqe6g","pricing_plan_id":"cebpf4jnsgd1na2vs0mg"},{"bike_id":"081a0881-89b6-4aec-8d87-38fd39de8439","system_id":"levelo_inurba_marseille","lat":43.28545,"lon":5.44108,"is_reserved":false,"is_disabled":false,"rental_uris":{"android":"levelo://app?vid=081a0881-89b6-4aec-8d87-38fd39de8439","ios":"levelo://app?vid=081a0881-89b6-4aec-8d87-38fd39de8439"},"vehicle_type_id":"4","last_reported":1773949125,"current_range_meters":6800,"station_id":"st_d3j3df2ikq2c7380ej80","pricing_plan_id":"cebpf4jnsgd1na2vs0mg"},{"bike_id":"c4d8542e-d8d6-44f3-8e60-2b26474273b5","system_id":"levelo_inurba_marseille","lat":43.26936,"lon":5.38919,"is_reserved":false,"is_disabled":false,"rental_uris":{"android":"levelo://app?vid=c4d8542e-d8d6-44f3-8e60-2b26474273b5","ios":"levelo://app?vid=c4d8542e-d8d6-44f3-8e60-2b26474273b5"},"vehicle_type_id":"4","last_reported":1773949125,"current_range_meters":6800,"station_id":"ce4bhhh2rcd13ifvqfl0","pricing_plan_id":"cebpf4jnsgd1na2vs0mg"},{"bike_id":"bc7b59c0-9131-4927-8aba-07d26e63b0ed","system_id":"levelo_inurba_marseille","lat":43.29264,"lon":5.38439,"is_reserved":false,"is_disabled":false,"rental_uris":{"android":"levelo://app?vid=bc7b59c0-9131-4927-8aba-07d26e63b0ed","ios":"levelo://app?vid=bc7b59c0-9131-4927-8aba-07d26e63b0ed"},"vehicle_type_id":"4","last_reported":1773949125,"current_range_meters":6800,"station_id":"ce4bh692rcd13ifvqea0","pricing_plan_id":"cebpf4jnsgd1na2vs0mg"},{"bike_id":"95157e4d-2707-499b-a312-630dad09c2f1","system_id":"levelo_inurba_marseille","lat":43.3021,"lon":5.36561,"is_reserved":false,"is_disabled":false,"rental_uris":{"android":"levelo://app?vid=95157e4d-2707-499b-a312-630dad09c2f1","ios":"levelo://app?vid=95157e4d-2707-499b-a312-630dad09c2f1"},"vehicle_type_id":"4","last_reported":1773949125,"current_range_meters":6800,"station_id":"","pricing_plan_id":"cebpf4jnsgd1na2vs0mg"},{"bike_id":"d03a2022-6922-4b85-aada-659333694e5e","system_id":"levelo_inurba_marseille","lat":43.31175,"lon":5.38708,"is_reserved":false,"is_disabled":true,"rental_uris":{"android":"levelo://app?vid=d03a2022-6922-4b85-aada-659333694e5e","ios":"levelo://app?vid=d03a2022-6922-4b85-aada-659333694e5e"},"vehicle_type_id":"4","last_reported":1773949125,"current_range_meters":6800,"station_id":"ce4bgv12rcd13ifvqcp0","pricing_plan_id":"cebpf4jnsgd1na2vs0mg"},{"bike_id":"78beea6e-fd38-45c1-919e-297e7a3c4aab","system_id":"levelo_inurba_marseille","lat":43.28613,"lon":5.37067,"is_reserved":false,"is_disabled":false,"rental_uris":{"android":"levelo://app?vid=78beea6e-fd38-45c1-919e-297e7a3c4aab","ios":"levelo://app?vid=78beea6e-fd38-45c1-919e-297e7a3c4aab"},"vehicle_type_id":"4","last_reported":1773949125,"current_range_meters":6800,"station_id":"ce4bht12rcd13ifvqi60","pricing_plan_id":"cebpf4jnsgd1na2vs0mg"},{"bike_id":"dd10efc5-28b9-436a-be78-8011941e89fc","system_id":"levelo_inurba_marseille","lat":43.28448,"lon":5.4836,"is_reserved":false,"is_disabled":false,"rental_uris":{"android":"levelo://app?vid=dd10efc5-28b9-436a-be78-8011941e89fc","ios":"levelo://app?vid=dd10efc5-28b9-436a-be78-8011941e89fc"},"vehicle_type_id":"4","last_reported":1773949125,"current_range_meters":6800,"station_id":"st_d3svhcjqgbts73a3dn0g","pricing_plan_id":"cebpf4jnsgd1na2vs0mg"},{"bike_id":"d23c05b7-87d3-4b7e-ab00-2b4fe6a988a5","system_id":"levelo_inurba_marseille","lat":43.27932,"lon":5.41032,"is_reserved":false,"is_disabled":false,"rental_uris":{"android":"levelo://app?vid=d23c05b7-87d3-4b7e-ab00-2b4fe6a988a5","ios":"levelo://app?vid=d23c05b7-87d3-4b7e-ab00-2b4fe6a988a5"},"vehicle_type_id":"4","last_reported":1773949125,"current_range_meters":6800,"station_id":"ce4bhnp2rcd13ifvqh0g","pricing_plan_id":"cebpf4jnsgd1na2vs0mg"},{"bike_id":"c0767c47-36c3-4d93-9512-c6d20dee6c9f","system_id":"levelo_inurba_marseille","lat":43.2587,"lon":5.39892,"is_reserved":false,"is_disabled":false,"rental_uris":{"android":"levelo://app?vid=c0767c47-36c3-4d93-9512-c6d20dee6c9f","ios":"levelo://app?vid=c0767c47-36c3-4d93-9512-c6d20dee6c9f"},"vehicle_type_id":"4","last_reported":1773949125,"current_range_meters":6800,"station_id":"ce4bhl92rcd13ifvqghg","pricing_plan_id":"cebpf4jnsgd1na2vs0mg"},{"bike_id":"a7589a93-7e92-46e3-9adb-33c382fc7b2d","system_id":"levelo_inurba_marseille","lat":43.23962,"lon":5.36615,"is_reserved":false,"is_disabled":false,"rental_uris":{"android":"levelo://app?vid=a7589a93-7e92-46e3-9adb-33c382fc7b2d","ios":"levelo://app?vid=a7589a93-7e92-46e3-9adb-33c382fc7b2d"},"vehicle_type_id":"4","last_reported":1773949125,"current_range_meters":6800,"station_id":"ce4bhi12rcd13ifvqfp0","pricing_plan_id":"cebpf4jnsgd1na2vs0mg"},{"bike_id":"5265449a-322c-43df-acd6-3e368dd1fbaa","system_id":"levelo_inurba_marseille","lat":43.31397,"lon":5.38498,"is_reserved":false,"is_disabled":false,"rental_uris":{"android":"levelo://app?vid=5265449a-322c-43df-acd6-3e368dd1fbaa","ios":"levelo://app?vid=5265449a-322c-43df-acd6-3e368dd1fbaa"},"vehicle_type_id":"4","last_reported":1773949125,"current_range_meters":6800,"station_id":"ce4bgt92rcd13ifvqcf0","pricing_plan_id":"cebpf4jnsgd1na2vs0mg"},{"bike_id":"715ad7df-17ef-4313-a1e8-f66982db6f58","system_id":"levelo_inurba_marseille","lat":43.29204,"lon":5.39325,"is_reserved":false,"is_disabled":false,"rental_uris":{"android":"levelo://app?vid=715ad7df-17ef-4313-a1e8-f66982db6f58","ios":"levelo://app?vid=715ad7df-17ef-4313-a1e8-f66982db6f58"},"vehicle_type_id":"4","last_reported":1773949125,"current_range_meters":6800,"station_id":"ce4bh192rcd13ifvqdd0","pricing_plan_id":"cebpf4jnsgd1na2vs0mg"},{"bike_id":"cb8342d7-f052-43b9-9d8f-397b79b97921","system_id":"levelo_inurba_marseille","lat":43.2848,"lon":5.3842,"is_reserved":false,"is_disabled":false,"rental_uris":{"android":"levelo://app?vid=cb8342d7-f052-43b9-9d8f-397b79b97921","ios":"levelo://app?vid=cb8342d7-f052-43b9-9d8f-397b79b97921"},"vehicle_type_id":"4","last_reported":1773949125,"current_range_meters":6800,"station_id":"ce4bh512rcd13ifvqe3g","pricing_plan_id":"cebpf4jnsgd1na2vs0mg"},{"bike_id":"e84409cd-ab11-47ab-92ac-0bad50daf5c3","system_id":"levelo_inurba_marseille","lat":43.31908,"lon":5.36843,"is_reserved":false,"is_disabled":false,"rental_uris":{"android":"levelo://app?vid=e84409cd-ab11-47ab-92ac-0bad50daf5c3","ios":"levelo://app?vid=e84409cd-ab11-47ab-92ac-0bad50daf5c3"},"vehicle_type_id":"4","last_reported":1773949125,"current_range_meters":6800,"station_id":"st_d6o2h0d0559c73evc1b0","pricing_plan_id":"cebpf4jnsgd1na2vs0mg"},{"bike_id":"17a139df-17a2-4cb5-8cdc-aa40d036a00a","system_id":"levelo_inurba_marseille","lat":43.23817,"lon":5.36624,"is_reserved":false,"is_disabled":false,"rental_uris":{"android":"levelo://app?vid=17a139df-17a2-4cb5-8cdc-aa40d036a00a","ios":"levelo://app?vid=17a139df-17a2-4cb5-8cdc-aa40d036a00a"},"vehicle_type_id":"4","last_reported":1773949125,"current_range_meters":6800,"station_id":"st_d3nk18o9ro0c73en2l3g","pricing_plan_id":"cebpf4jnsgd1na2vs0mg"},{"bike_id":"74adf27d-23ee-4519-ab26-85df09b7c575","system_id":"levelo_inurba_marseille","lat":43.27067,"lon":5.42283,"is_reserved":false,"is_disabled":false,"rental_uris":{"android":"levelo://app?vid=74adf27d-23ee-4519-ab26-85df09b7c575","ios":"levelo://app?vid=74adf27d-23ee-4519-ab26-85df09b7c575"},"vehicle_type_id":"4","last_reported":1773949125,"current_range_meters":6800,"station_id":"ce4bhk92rcd13ifvqgb0","pricing_plan_id":"cebpf4jnsgd1na2vs0mg"},{"bike_id":"2042b168-377d-44b9-86a1-a8003ce7916b","system_id":"levelo_inurba_marseille","lat":43.31338,"lon":5.38823,"is_reserved":false,"is_disabled":false,"rental_uris":{"android":"levelo://app?vid=2042b168-377d-44b9-86a1-a8003ce7916b","ios":"levelo://app?vid=2042b168-377d-44b9-86a1-a8003ce7916b"},"vehicle_type_id":"4","last_reported":1773949125,"current_range_meters":6800,"station_id":"","pricing_plan_id":"cebpf4jnsgd1na2vs0mg"},{"bike_id":"b26badbd-8536-49ab-8218-28fa760818b2","system_id":"levelo_inurba_marseille","lat":43.289969,"lon":5.366161,"is_reserved":false,"is_disabled":false,"rental_uris":{"android":"levelo://app?vid=b26badbd-8536-49ab-8218-28fa760818b2","ios":"levelo://app?vid=b26badbd-8536-49ab-8218-28fa760818b2"},"vehicle_type_id":"4","last_reported":1773949125,"current_range_meters":6800,"station_id":"ce4bhap2rcd13ifvqek0","pricing_plan_id":"cebpf4jnsgd1na2vs0mg"},{"bike_id":"bf4f5e3d-6588-43c8-a2fb-72df7ed8c197","system_id":"levelo_inurba_marseille","lat":43.30516,"lon":5.36711,"is_reserved":false,"is_disabled":false,"rental_uris":{"android":"levelo://app?vid=bf4f5e3d-6588-43c8-a2fb-72df7ed8c197","ios":"levelo://app?vid=bf4f5e3d-6588-43c8-a2fb-72df7ed8c197"},"vehicle_type_id":"4","last_reported":1773949125,"current_range_meters":6800,"station_id":"ce4bgrp2rcd13ifvqc9g","pricing_plan_id":"cebpf4jnsgd1na2vs0mg"},{"bike_id":"6cda15e7-fe2d-4eca-9a9a-008e31fbee7c","system_id":"levelo_inurba_marseille","lat":43.24701,"lon":5.38164,"is_reserved":false,"is_disabled":true,"rental_uris":{"android":"levelo://app?vid=6cda15e7-fe2d-4eca-9a9a-008e31fbee7c","ios":"levelo://app?vid=6cda15e7-fe2d-4eca-9a9a-008e31fbee7c"},"vehicle_type_id":"4","last_reported":1773949125,"current_range_meters":6800,"station_id":"ce4bhih2rcd13ifvqfr0","pricing_plan_id":"cebpf4jnsgd1na2vs0mg"},{"bike_id":"1a35434d-c9e2-448e-ab11-b763a506a6ff","system_id":"levelo_inurba_marseille","lat":43.29928,"lon":5.38091,"is_reserved":false,"is_disabled":true,"rental_uris":{"android":"levelo://app?vid=1a35434d-c9e2-448e-ab11-b763a506a6ff","ios":"levelo://app?vid=1a35434d-c9e2-448e-ab11-b763a506a6ff"},"vehicle_type_id":"4","last_reported":1773949125,"current_range_meters":6800,"station_id":"","pricing_plan_id":"cebpf4jnsgd1na2vs0mg"},{"bike_id":"8d89d907-aa29-493b-b1ab-072a2a09a903","system_id":"levelo_inurba_marseille","lat":43.29177,"lon":5.39319,"is_reserved":false,"is_disabled":false,"rental_uris":{"android":"levelo://app?vid=8d89d907-aa29-493b-b1ab-072a2a09a903","ios":"levelo://app?vid=8d89d907-aa29-493b-b1ab-072a2a09a903"},"vehicle_type_id":"4","last_reported":1773949125,"current_range_meters":6800,"station_id":"ce4bh192rcd13ifvqdd0","pricing_plan_id":"cebpf4jnsgd1na2vs0mg"},{"bike_id":"c39752ab-c51d-425c-ac87-ff7476209bd0","system_id":"levelo_inurba_marseille","lat":43.29881,"lon":5.39742,"is_reserved":false,"is_disabled":false,"rental_uris":{"android":"levelo://app?vid=c39752ab-c51d-425c-ac87-ff7476209bd0","ios":"levelo://app?vid=c39752ab-c51d-425c-ac87-ff7476209bd0"},"vehicle_type_id":"4","last_reported":1773949125,"current_range_meters":6800,"station_id":"ce4bh0h2rcd13ifvqd50","pricing_plan_id":"cebpf4jnsgd1na2vs0mg"},{"bike_id":"1ed14975-ffc4-4856-bb43-9428d8562a11","system_id":"levelo_inurba_marseille","lat":43.28341,"lon":5.38118,"is_reserved":false,"is_disabled":false,"rental_uris":{"android":"levelo://app?vid=1ed14975-ffc4-4856-bb43-9428d8562a11","ios":"levelo://app?vid=1ed14975-ffc4-4856-bb43-9428d8562a11"},"vehicle_type_id":"4","last_reported":1773949125,"current_range_meters":6800,"station_id":"ce4bh412rcd13ifvqdr0","pricing_plan_id":"cebpf4jnsgd1na2vs0mg"},{"bike_id":"a5a47c34-2b71-4e44-ae9c-b03b13ee7312","system_id":"levelo_inurba_marseille","lat":43.26565,"lon":5.39036,"is_reserved":false,"is_disabled":false,"rental_uris":{"android":"levelo://app?vid=a5a47c34-2b71-4e44-ae9c-b03b13ee7312","ios":"levelo://app?vid=a5a47c34-2b71-4e44-ae9c-b03b13ee7312"},"vehicle_type_id":"4","last_reported":1773949125,"current_range_meters":6800,"station_id":"ce4bhe12rcd13ifvqf30","pricing_plan_id":"cebpf4jnsgd1na2vs0mg"},{"bike_id":"88248b08-a692-4a7a-b9bf-6cc9aba701f2","system_id":"levelo_inurba_marseille","lat":43.2986,"lon":5.39732,"is_reserved":false,"is_disabled":false,"rental_uris":{"android":"levelo://app?vid=88248b08-a692-4a7a-b9bf-6cc9aba701f2","ios":"levelo://app?vid=88248b08-a692-4a7a-b9bf-6cc9aba701f2"},"vehicle_type_id":"4","last_reported":1773949125,"current_range_meters":7200,"station_id":"ce4bh0h2rcd13ifvqd50","pricing_plan_id":"cebpf4jnsgd1na2vs0mg"},{"bike_id":"8721fee8-fce5-4528-8fb7-a9e8a2a6b808","system_id":"levelo_inurba_marseille","lat":43.31355,"lon":5.38476,"is_reserved":false,"is_disabled":false,"rental_uris":{"android":"levelo://app?vid=8721fee8-fce5-4528-8fb7-a9e8a2a6b808","ios":"levelo://app?vid=8721fee8-fce5-4528-8fb7-a9e8a2a6b808"},"vehicle_type_id":"4","last_reported":1773949125,"current_range_meters":7200,"station_id":"ce4bgt92rcd13ifvqcf0","pricing_plan_id":"cebpf4jnsgd1na2vs0mg"},{"bike_id":"a11c8cfa-453a-4892-a974-6a22bafa8290","system_id":"levelo_inurba_marseille","lat":43.23188,"lon":5.35546,"is_reserved":false,"is_disabled":false,"rental_uris":{"android":"levelo://app?vid=a11c8cfa-453a-4892-a974-6a22bafa8290","ios":"levelo://app?vid=a11c8cfa-453a-4892-a974-6a22bafa8290"},"vehicle_type_id":"4","last_reported":1773949125,"current_range_meters":7200,"station_id":"ce4bhu92rcd13ifvqi70","pricing_plan_id":"cebpf4jnsgd1na2vs0mg"},{"bike_id":"13ece891-29b9-4ae9-a4c4-ae3da55ec954","system_id":"levelo_inurba_marseille","lat":43.23199,"lon":5.35534,"is_reserved":false,"is_disabled":false,"rental_uris":{"android":"levelo://app?vid=13ece891-29b9-4ae9-a4c4-ae3da55ec954","ios":"levelo://app?vid=13ece891-29b9-4ae9-a4c4-ae3da55ec954"},"vehicle_type_id":"4","last_reported":1773949125,"current_range_meters":7200,"station_id":"ce4bhu92rcd13ifvqi70","pricing_plan_id":"cebpf4jnsgd1na2vs0mg"},{"bike_id":"6018d565-5c8a-4bab-ba5d-0061fbbaec08","system_id":"levelo_inurba_marseille","lat":43.22925,"lon":5.35394,"is_reserved":false,"is_disabled":false,"rental_uris":{"android":"levelo://app?vid=6018d565-5c8a-4bab-ba5d-0061fbbaec08","ios":"levelo://app?vid=6018d565-5c8a-4bab-ba5d-0061fbbaec08"},"vehicle_type_id":"4","last_reported":1773949125,"current_range_meters":7200,"station_id":"cpo3532slgdg3j2ikp40","pricing_plan_id":"cebpf4jnsgd1na2vs0mg"},{"bike_id":"dd2f7881-755c-4593-bb3a-7ba359f1b823","system_id":"levelo_inurba_marseille","lat":43.29108,"lon":5.38143,"is_reserved":false,"is_disabled":true,"rental_uris":{"android":"levelo://app?vid=dd2f7881-755c-4593-bb3a-7ba359f1b823","ios":"levelo://app?vid=dd2f7881-755c-4593-bb3a-7ba359f1b823"},"vehicle_type_id":"4","last_reported":1773949125,"current_range_meters":7200,"station_id":"ce4bh512rcd13ifvqe2g","pricing_plan_id":"cebpf4jnsgd1na2vs0mg"},{"bike_id":"d5f7f0bf-c4f5-45e1-bf7d-f4959ca7505e","system_id":"levelo_inurba_marseille","lat":43.244,"lon":5.37064,"is_reserved":false,"is_disabled":false,"rental_uris":{"android":"levelo://app?vid=d5f7f0bf-c4f5-45e1-bf7d-f4959ca7505e","ios":"levelo://app?vid=d5f7f0bf-c4f5-45e1-bf7d-f4959ca7505e"},"vehicle_type_id":"4","last_reported":1773949125,"current_range_meters":7200,"station_id":"ce4bhhh2rcd13ifvqfk0","pricing_plan_id":"cebpf4jnsgd1na2vs0mg"},{"bike_id":"8c1bb7e1-fc52-410e-bc8b-57e5a8629823","system_id":"levelo_inurba_marseille","lat":43.29224,"lon":5.37732,"is_reserved":false,"is_disabled":false,"rental_uris":{"android":"levelo://app?vid=8c1bb7e1-fc52-410e-bc8b-57e5a8629823","ios":"levelo://app?vid=8c1bb7e1-fc52-410e-bc8b-57e5a8629823"},"vehicle_type_id":"4","last_reported":1773949125,"current_range_meters":7200,"station_id":"","pricing_plan_id":"cebpf4jnsgd1na2vs0mg"},{"bike_id":"33aeb233-a64b-4104-ae47-aa0850e767b8","system_id":"levelo_inurba_marseille","lat":43.29258,"lon":5.40904,"is_reserved":false,"is_disabled":false,"rental_uris":{"android":"levelo://app?vid=33aeb233-a64b-4104-ae47-aa0850e767b8","ios":"levelo://app?vid=33aeb233-a64b-4104-ae47-aa0850e767b8"},"vehicle_type_id":"4","last_reported":1773949125,"current_range_meters":7200,"station_id":"ce4bh192rcd13ifvqdc0","pricing_plan_id":"cebpf4jnsgd1na2vs0mg"},{"bike_id":"47b958a5-a9e9-4494-8472-abb0f760256b","system_id":"levelo_inurba_marseille","lat":43.23782,"lon":5.36619,"is_reserved":false,"is_disabled":false,"rental_uris":{"android":"levelo://app?vid=47b958a5-a9e9-4494-8472-abb0f760256b","ios":"levelo://app?vid=47b958a5-a9e9-4494-8472-abb0f760256b"},"vehicle_type_id":"4","last_reported":1773949125,"current_range_meters":7200,"station_id":"st_d3nk18o9ro0c73en2l3g","pricing_plan_id":"cebpf4jnsgd1na2vs0mg"},{"bike_id":"d51fe815-5335-4e1f-8e42-efe91c7e85aa","system_id":"levelo_inurba_marseille","lat":43.22933,"lon":5.35378,"is_reserved":false,"is_disabled":false,"rental_uris":{"android":"levelo://app?vid=d51fe815-5335-4e1f-8e42-efe91c7e85aa","ios":"levelo://app?vid=d51fe815-5335-4e1f-8e42-efe91c7e85aa"},"vehicle_type_id":"4","last_reported":1773949125,"current_range_meters":7200,"station_id":"cpo3532slgdg3j2ikp40","pricing_plan_id":"cebpf4jnsgd1na2vs0mg"},{"bike_id":"600469f9-bda4-4951-a61e-12b2370882e2","system_id":"levelo_inurba_marseille","lat":43.28867,"lon":5.4251,"is_reserved":false,"is_disabled":false,"rental_uris":{"android":"levelo://app?vid=600469f9-bda4-4951-a61e-12b2370882e2","ios":"levelo://app?vid=600469f9-bda4-4951-a61e-12b2370882e2"},"vehicle_type_id":"4","last_reported":1773949125,"current_range_meters":7200,"station_id":"","pricing_plan_id":"cebpf4jnsgd1na2vs0mg"},{"bike_id":"7f632e24-9a53-4c9d-9057-46275a1ce539","system_id":"levelo_inurba_marseille","lat":43.29325,"lon":5.37185,"is_reserved":false,"is_disabled":false,"rental_uris":{"android":"levelo://app?vid=7f632e24-9a53-4c9d-9057-46275a1ce539","ios":"levelo://app?vid=7f632e24-9a53-4c9d-9057-46275a1ce539"},"vehicle_type_id":"4","last_reported":1773949125,"current_range_meters":7200,"station_id":"ce4bgh92rcd13ifvqb40","pricing_plan_id":"cebpf4jnsgd1na2vs0mg"},{"bike_id":"b7e87515-c3ea-478e-bf01-a70f86b2f092","system_id":"levelo_inurba_marseille","lat":43.24171,"lon":5.36408,"is_reserved":false,"is_disabled":false,"rental_uris":{"android":"levelo://app?vid=b7e87515-c3ea-478e-bf01-a70f86b2f092","ios":"levelo://app?vid=b7e87515-c3ea-478e-bf01-a70f86b2f092"},"vehicle_type_id":"4","last_reported":1773949125,"current_range_meters":7200,"station_id":"cpo36qri1sfpv3e86is0","pricing_plan_id":"cebpf4jnsgd1na2vs0mg"},{"bike_id":"6fc72c7e-a4af-4996-a31d-94c2cb3dc596","system_id":"levelo_inurba_marseille","lat":43.2953,"lon":5.38533,"is_reserved":false,"is_disabled":false,"rental_uris":{"android":"levelo://app?vid=6fc72c7e-a4af-4996-a31d-94c2cb3dc596","ios":"levelo://app?vid=6fc72c7e-a4af-4996-a31d-94c2cb3dc596"},"vehicle_type_id":"4","last_reported":1773949125,"current_range_meters":7200,"station_id":"ce4bgih2rcd13ifvqba0","pricing_plan_id":"cebpf4jnsgd1na2vs0mg"},{"bike_id":"4167ba2b-bb51-4946-9504-43baf0e59610","system_id":"levelo_inurba_marseille","lat":43.28613,"lon":5.39872,"is_reserved":false,"is_disabled":false,"rental_uris":{"android":"levelo://app?vid=4167ba2b-bb51-4946-9504-43baf0e59610","ios":"levelo://app?vid=4167ba2b-bb51-4946-9504-43baf0e59610"},"vehicle_type_id":"4","last_reported":1773949125,"current_range_meters":7200,"station_id":"st_d4a7ka997mjs738ck50g","pricing_plan_id":"cebpf4jnsgd1na2vs0mg"},{"bike_id":"2d21f7ff-18db-459b-8b86-649e13d322f9","system_id":"levelo_inurba_marseille","lat":43.29894,"lon":5.4367,"is_reserved":false,"is_disabled":false,"rental_uris":{"android":"levelo://app?vid=2d21f7ff-18db-459b-8b86-649e13d322f9","ios":"levelo://app?vid=2d21f7ff-18db-459b-8b86-649e13d322f9"},"vehicle_type_id":"4","last_reported":1773949125,"current_range_meters":7200,"station_id":"ce4bhpp2rcd13ifvqhfg","pricing_plan_id":"cebpf4jnsgd1na2vs0mg"},{"bike_id":"5d009c9b-fae7-477f-ad5c-fcc6c0634d6e","system_id":"levelo_inurba_marseille","lat":43.30419,"lon":5.389,"is_reserved":false,"is_disabled":false,"rental_uris":{"android":"levelo://app?vid=5d009c9b-fae7-477f-ad5c-fcc6c0634d6e","ios":"levelo://app?vid=5d009c9b-fae7-477f-ad5c-fcc6c0634d6e"},"vehicle_type_id":"4","last_reported":1773949125,"current_range_meters":7200,"station_id":"ce4bgk12rcd13ifvqbi0","pricing_plan_id":"cebpf4jnsgd1na2vs0mg"},{"bike_id":"e1fcda96-10f8-4416-a2de-b3c0381d6f12","system_id":"levelo_inurba_marseille","lat":43.27394,"lon":5.36255,"is_reserved":false,"is_disabled":true,"rental_uris":{"android":"levelo://app?vid=e1fcda96-10f8-4416-a2de-b3c0381d6f12","ios":"levelo://app?vid=e1fcda96-10f8-4416-a2de-b3c0381d6f12"},"vehicle_type_id":"4","last_reported":1773949125,"current_range_meters":7200,"station_id":"ce4bhbh2rcd13ifvqeo0","pricing_plan_id":"cebpf4jnsgd1na2vs0mg"},{"bike_id":"be523ae7-f0fc-4e2a-970b-30a3029fa717","system_id":"levelo_inurba_marseille","lat":43.2847,"lon":5.4839,"is_reserved":false,"is_disabled":false,"rental_uris":{"android":"levelo://app?vid=be523ae7-f0fc-4e2a-970b-30a3029fa717","ios":"levelo://app?vid=be523ae7-f0fc-4e2a-970b-30a3029fa717"},"vehicle_type_id":"4","last_reported":1773949125,"current_range_meters":7200,"station_id":"","pricing_plan_id":"cebpf4jnsgd1na2vs0mg"},{"bike_id":"d3ec5979-54e8-4a74-8bb1-cf1bbb5dec0a","system_id":"levelo_inurba_marseille","lat":43.2508,"lon":5.39506,"is_reserved":false,"is_disabled":false,"rental_uris":{"android":"levelo://app?vid=d3ec5979-54e8-4a74-8bb1-cf1bbb5dec0a","ios":"levelo://app?vid=d3ec5979-54e8-4a74-8bb1-cf1bbb5dec0a"},"vehicle_type_id":"4","last_reported":1773949125,"current_range_meters":7200,"station_id":"ce4bhm12rcd13ifvqgkg","pricing_plan_id":"cebpf4jnsgd1na2vs0mg"},{"bike_id":"b656aabe-7c73-4de4-a3ab-51dc49496f82","system_id":"levelo_inurba_marseille","lat":43.29296,"lon":5.37168,"is_reserved":false,"is_disabled":true,"rental_uris":{"android":"levelo://app?vid=b656aabe-7c73-4de4-a3ab-51dc49496f82","ios":"levelo://app?vid=b656aabe-7c73-4de4-a3ab-51dc49496f82"},"vehicle_type_id":"4","last_reported":1773949125,"current_range_meters":8000,"station_id":"ce4bgh92rcd13ifvqb40","pricing_plan_id":"cebpf4jnsgd1na2vs0mg"},{"bike_id":"27cfd7f2-48c6-4fe4-9d82-e5b76120df75","system_id":"levelo_inurba_marseille","lat":43.29797,"lon":5.44067,"is_reserved":false,"is_disabled":false,"rental_uris":{"android":"levelo://app?vid=27cfd7f2-48c6-4fe4-9d82-e5b76120df75","ios":"levelo://app?vid=27cfd7f2-48c6-4fe4-9d82-e5b76120df75"},"vehicle_type_id":"4","last_reported":1773949125,"current_range_meters":8000,"station_id":"st_d3jp68qikq2c7381ktn0","pricing_plan_id":"cebpf4jnsgd1na2vs0mg"},{"bike_id":"92fded19-de99-42e5-8e2b-38526f48eef0","system_id":"levelo_inurba_marseille","lat":43.28465,"lon":5.35879,"is_reserved":false,"is_disabled":false,"rental_uris":{"android":"levelo://app?vid=92fded19-de99-42e5-8e2b-38526f48eef0","ios":"levelo://app?vid=92fded19-de99-42e5-8e2b-38526f48eef0"},"vehicle_type_id":"4","last_reported":1773949125,"current_range_meters":8000,"station_id":"ce4bhah2rcd13ifvqei0","pricing_plan_id":"cebpf4jnsgd1na2vs0mg"},{"bike_id":"addd9e53-bfde-4c2f-8c89-4a891b6a7add","system_id":"levelo_inurba_marseille","lat":43.31333,"lon":5.37925,"is_reserved":false,"is_disabled":false,"rental_uris":{"android":"levelo://app?vid=addd9e53-bfde-4c2f-8c89-4a891b6a7add","ios":"levelo://app?vid=addd9e53-bfde-4c2f-8c89-4a891b6a7add"},"vehicle_type_id":"4","last_reported":1773949125,"current_range_meters":8000,"station_id":"","pricing_plan_id":"cebpf4jnsgd1na2vs0mg"},{"bike_id":"bd60a6ec-18d4-4476-ab1b-f354043c4b72","system_id":"levelo_inurba_marseille","lat":43.29804,"lon":5.42606,"is_reserved":false,"is_disabled":false,"rental_uris":{"android":"levelo://app?vid=bd60a6ec-18d4-4476-ab1b-f354043c4b72","ios":"levelo://app?vid=bd60a6ec-18d4-4476-ab1b-f354043c4b72"},"vehicle_type_id":"4","last_reported":1773949125,"current_range_meters":8000,"station_id":"","pricing_plan_id":"cebpf4jnsgd1na2vs0mg"},{"bike_id":"84f19330-3ad5-498e-82fe-e17ac9cf42e9","system_id":"levelo_inurba_marseille","lat":43.28354,"lon":5.38634,"is_reserved":false,"is_disabled":false,"rental_uris":{"android":"levelo://app?vid=84f19330-3ad5-498e-82fe-e17ac9cf42e9","ios":"levelo://app?vid=84f19330-3ad5-498e-82fe-e17ac9cf42e9"},"vehicle_type_id":"4","last_reported":1773949125,"current_range_meters":8000,"station_id":"ce4bh492rcd13ifvqdvg","pricing_plan_id":"cebpf4jnsgd1na2vs0mg"},{"bike_id":"52f6a6b9-7af9-4956-b458-baf5061e66bf","system_id":"levelo_inurba_marseille","lat":43.23337,"lon":5.44468,"is_reserved":false,"is_disabled":false,"rental_uris":{"android":"levelo://app?vid=52f6a6b9-7af9-4956-b458-baf5061e66bf","ios":"levelo://app?vid=52f6a6b9-7af9-4956-b458-baf5061e66bf"},"vehicle_type_id":"4","last_reported":1773949125,"current_range_meters":8000,"station_id":"","pricing_plan_id":"cebpf4jnsgd1na2vs0mg"},{"bike_id":"8b291d6a-6d76-4815-aaff-af40d66cb4be","system_id":"levelo_inurba_marseille","lat":43.29048,"lon":5.38649,"is_reserved":false,"is_disabled":false,"rental_uris":{"android":"levelo://app?vid=8b291d6a-6d76-4815-aaff-af40d66cb4be","ios":"levelo://app?vid=8b291d6a-6d76-4815-aaff-af40d66cb4be"},"vehicle_type_id":"4","last_reported":1773949125,"current_range_meters":8000,"station_id":"ce4bh4p2rcd13ifvqe0g","pricing_plan_id":"cebpf4jnsgd1na2vs0mg"},{"bike_id":"347a0133-45d3-4213-ae48-606f4453bbf3","system_id":"levelo_inurba_marseille","lat":43.23052,"lon":5.35494,"is_reserved":false,"is_disabled":false,"rental_uris":{"android":"levelo://app?vid=347a0133-45d3-4213-ae48-606f4453bbf3","ios":"levelo://app?vid=347a0133-45d3-4213-ae48-606f4453bbf3"},"vehicle_type_id":"4","last_reported":1773949125,"current_range_meters":8000,"station_id":"cpo3342slgdg3j2ifvpg","pricing_plan_id":"cebpf4jnsgd1na2vs0mg"},{"bike_id":"bd5d151d-bc5e-4404-aad5-3f0aed11549e","system_id":"levelo_inurba_marseille","lat":43.243882,"lon":5.370484,"is_reserved":false,"is_disabled":false,"rental_uris":{"android":"levelo://app?vid=bd5d151d-bc5e-4404-aad5-3f0aed11549e","ios":"levelo://app?vid=bd5d151d-bc5e-4404-aad5-3f0aed11549e"},"vehicle_type_id":"4","last_reported":1773949125,"current_range_meters":8000,"station_id":"ce4bhhh2rcd13ifvqfk0","pricing_plan_id":"cebpf4jnsgd1na2vs0mg"},{"bike_id":"5b633a99-6e6c-40eb-b51a-c5e14db697a0","system_id":"levelo_inurba_marseille","lat":43.27081,"lon":5.4228,"is_reserved":false,"is_disabled":false,"rental_uris":{"android":"levelo://app?vid=5b633a99-6e6c-40eb-b51a-c5e14db697a0","ios":"levelo://app?vid=5b633a99-6e6c-40eb-b51a-c5e14db697a0"},"vehicle_type_id":"4","last_reported":1773949125,"current_range_meters":8000,"station_id":"ce4bhk92rcd13ifvqgb0","pricing_plan_id":"cebpf4jnsgd1na2vs0mg"},{"bike_id":"7c2e3462-f946-43cf-b7be-ca898aac5d33","system_id":"levelo_inurba_marseille","lat":43.33607,"lon":5.41022,"is_reserved":false,"is_disabled":false,"rental_uris":{"android":"levelo://app?vid=7c2e3462-f946-43cf-b7be-ca898aac5d33","ios":"levelo://app?vid=7c2e3462-f946-43cf-b7be-ca898aac5d33"},"vehicle_type_id":"4","last_reported":1773949125,"current_range_meters":8000,"station_id":"ce4bhqh2rcd13ifvqhmg","pricing_plan_id":"cebpf4jnsgd1na2vs0mg"},{"bike_id":"31de91b8-2554-4f66-8bc6-9dfb581be216","system_id":"levelo_inurba_marseille","lat":43.28854,"lon":5.39328,"is_reserved":false,"is_disabled":false,"rental_uris":{"android":"levelo://app?vid=31de91b8-2554-4f66-8bc6-9dfb581be216","ios":"levelo://app?vid=31de91b8-2554-4f66-8bc6-9dfb581be216"},"vehicle_type_id":"4","last_reported":1773949125,"current_range_meters":8000,"station_id":"ce4bh2p2rcd13ifvqdi0","pricing_plan_id":"cebpf4jnsgd1na2vs0mg"},{"bike_id":"8c34b7c1-77dc-43df-92bf-62c8c2a27ed2","system_id":"levelo_inurba_marseille","lat":43.29515,"lon":5.38555,"is_reserved":false,"is_disabled":false,"rental_uris":{"android":"levelo://app?vid=8c34b7c1-77dc-43df-92bf-62c8c2a27ed2","ios":"levelo://app?vid=8c34b7c1-77dc-43df-92bf-62c8c2a27ed2"},"vehicle_type_id":"4","last_reported":1773949125,"current_range_meters":8000,"station_id":"ce4bgih2rcd13ifvqba0","pricing_plan_id":"cebpf4jnsgd1na2vs0mg"},{"bike_id":"e49b656b-03c2-45c8-ac66-a6c3f01b12f7","system_id":"levelo_inurba_marseille","lat":43.29024,"lon":5.38624,"is_reserved":false,"is_disabled":false,"rental_uris":{"android":"levelo://app?vid=e49b656b-03c2-45c8-ac66-a6c3f01b12f7","ios":"levelo://app?vid=e49b656b-03c2-45c8-ac66-a6c3f01b12f7"},"vehicle_type_id":"4","last_reported":1773949125,"current_range_meters":8000,"station_id":"ce4bh4p2rcd13ifvqe0g","pricing_plan_id":"cebpf4jnsgd1na2vs0mg"},{"bike_id":"294b6fa0-0091-49c2-acc2-793d404445a1","system_id":"levelo_inurba_marseille","lat":43.30134,"lon":5.3987,"is_reserved":false,"is_disabled":false,"rental_uris":{"android":"levelo://app?vid=294b6fa0-0091-49c2-acc2-793d404445a1","ios":"levelo://app?vid=294b6fa0-0091-49c2-acc2-793d404445a1"},"vehicle_type_id":"4","last_reported":1773949125,"current_range_meters":8000,"station_id":"ce4bh0h2rcd13ifvqd40","pricing_plan_id":"cebpf4jnsgd1na2vs0mg"},{"bike_id":"8a48b1c7-a0eb-4b2d-a98b-97e34b602df3","system_id":"levelo_inurba_marseille","lat":43.28936,"lon":5.36634,"is_reserved":false,"is_disabled":false,"rental_uris":{"android":"levelo://app?vid=8a48b1c7-a0eb-4b2d-a98b-97e34b602df3","ios":"levelo://app?vid=8a48b1c7-a0eb-4b2d-a98b-97e34b602df3"},"vehicle_type_id":"4","last_reported":1773949125,"current_range_meters":8000,"station_id":"ce4bhap2rcd13ifvqek0","pricing_plan_id":"cebpf4jnsgd1na2vs0mg"},{"bike_id":"f33024bd-13d0-432f-ac79-252b51f2e7df","system_id":"levelo_inurba_marseille","lat":43.26568,"lon":5.39042,"is_reserved":false,"is_disabled":false,"rental_uris":{"android":"levelo://app?vid=f33024bd-13d0-432f-ac79-252b51f2e7df","ios":"levelo://app?vid=f33024bd-13d0-432f-ac79-252b51f2e7df"},"vehicle_type_id":"4","last_reported":1773949125,"current_range_meters":8000,"station_id":"ce4bhe12rcd13ifvqf30","pricing_plan_id":"cebpf4jnsgd1na2vs0mg"},{"bike_id":"15750178-4f9b-426f-bafa-493e04eb7e36","system_id":"levelo_inurba_marseille","lat":43.30836,"lon":5.40674,"is_reserved":false,"is_disabled":false,"rental_uris":{"android":"levelo://app?vid=15750178-4f9b-426f-bafa-493e04eb7e36","ios":"levelo://app?vid=15750178-4f9b-426f-bafa-493e04eb7e36"},"vehicle_type_id":"4","last_reported":1773949125,"current_range_meters":8000,"station_id":"","pricing_plan_id":"cebpf4jnsgd1na2vs0mg"},{"bike_id":"eabf4d2f-073c-41a2-a840-9f5f81a65f64","system_id":"levelo_inurba_marseille","lat":43.2909,"lon":5.42738,"is_reserved":false,"is_disabled":false,"rental_uris":{"android":"levelo://app?vid=eabf4d2f-073c-41a2-a840-9f5f81a65f64","ios":"levelo://app?vid=eabf4d2f-073c-41a2-a840-9f5f81a65f64"},"vehicle_type_id":"4","last_reported":1773949125,"current_range_meters":8000,"station_id":"","pricing_plan_id":"cebpf4jnsgd1na2vs0mg"},{"bike_id":"25a42123-6964-4661-8bf1-09608b7ca956","system_id":"levelo_inurba_marseille","lat":43.28924,"lon":5.38397,"is_reserved":false,"is_disabled":false,"rental_uris":{"android":"levelo://app?vid=25a42123-6964-4661-8bf1-09608b7ca956","ios":"levelo://app?vid=25a42123-6964-4661-8bf1-09608b7ca956"},"vehicle_type_id":"4","last_reported":1773949125,"current_range_meters":8000,"station_id":"ce4bh612rcd13ifvqe6g","pricing_plan_id":"cebpf4jnsgd1na2vs0mg"},{"bike_id":"ab09d209-60f6-4303-8d09-86dc43261279","system_id":"levelo_inurba_marseille","lat":43.21201,"lon":5.35059,"is_reserved":false,"is_disabled":true,"rental_uris":{"android":"levelo://app?vid=ab09d209-60f6-4303-8d09-86dc43261279","ios":"levelo://app?vid=ab09d209-60f6-4303-8d09-86dc43261279"},"vehicle_type_id":"4","last_reported":1773949125,"current_range_meters":8000,"station_id":"st_cvj6sg6p6f1abm77japg","pricing_plan_id":"cebpf4jnsgd1na2vs0mg"},{"bike_id":"3bcd3f37-7909-4e8a-be03-a9562a2c0e45","system_id":"levelo_inurba_marseille","lat":43.28508,"lon":5.48393,"is_reserved":false,"is_disabled":false,"rental_uris":{"android":"levelo://app?vid=3bcd3f37-7909-4e8a-be03-a9562a2c0e45","ios":"levelo://app?vid=3bcd3f37-7909-4e8a-be03-a9562a2c0e45"},"vehicle_type_id":"4","last_reported":1773949125,"current_range_meters":8400,"station_id":"","pricing_plan_id":"cebpf4jnsgd1na2vs0mg"},