{"last_updated":1721333331,"ttl":30,"version":"2.2","data":{"bikes":[{"bike_id":"d1d81e54-fed9-443c-944a-6820c8a62e66","system_id":"levelo_inurba_marseille","lat":43.31251,"lon":5.36793,"is_reserved":false,"is_disabled":false,"rental_uris":{"android":"levelo://app?vid=d1d81e54-fed9-443c-944a-6820c8a62e66","ios":"levelo://app?vid=d1d81e54-fed9-443c-944a-6820c8a62e66"},"vehicle_type_id":"4","last_reported":1721333331,"current_range_meters":7200,"station_id":"","pricing_plan_id":"cebpf4jnsgd1na2vs0mg"},{"bike_id":"8b093828-6a7f-4b97-a033-eeaba2418faf","system_id":"levelo_inurba_marseille","lat":43.309039,"lon":5.371797,"is_reserved":false,"is_disabled":false,"rental_uris":{"android":"levelo://app?vid=8b093828-6a7f-4b97-a033-eeaba2418faf","ios":"levelo://app?vid=8b093828-6a7f-4b97-a033-eeaba2418faf"},"vehicle_type_id":"4","last_reported":1721333331,"current_range_meters":18000,"station_id":"ce4bguh2rcd13ifvqckg","pricing_plan_id":"cebpf4jnsgd1na2vs0mg"},{"bike_id":"f7abb88f-793f-48c3-b0af-fecea5e7ac9d","system_id":"levelo_inurba_marseille","lat":43.309076,"lon":5.368465,"is_reserved":false,"is_disabled":false,"rental_uris":{"android":"levelo://app?vid=f7abb88f-793f-48c3-b0af-fecea5e7ac9d","ios":"levelo://app?vid=f7abb88f-793f-48c3-b0af-fecea5e7ac9d"},"vehicle_type_id":"4","last_reported":1721333331,"current_range_meters":14400,"station_id":"ce4bgn92rcd13ifvqbvg","pricing_plan_id":"cebpf4jnsgd1na2vs0mg"},{"bike_id":"8b9e9a70-eef0-4086-a2e0-9002bda0113c","system_id":"levelo_inurba_marseille","lat":43.309076,"lon":5.368465,"is_reserved":false,"is_disabled":false,"rental_uris":{"android":"levelo://app?vid=8b9e9a70-eef0-4086-a2e0-9002bda0113c","ios":"levelo://app?vid=8b9e9a70-eef0-4086-a2e0-9002bda0113c"},"vehicle_type_id":"4","last_reported":1721333331,"current_range_meters":10000,"station_id":"ce4bgn92rcd13ifvqbvg","pricing_plan_id":"cebpf4jnsgd1na2vs0mg"},{"bike_id":"b52b5af5-50cc-42e0-ae80-d5463f2e53da","system_id":"levelo_inurba_marseille","lat":43.309076,"lon":5.368465,"is_reserved":false,"is_disabled":false,"rental_uris":{"android":"levelo://app?vid=b52b5af5-50cc-42e0-ae80-d5463f2e53da","ios":"levelo://app?vid=b52b5af5-50cc-42e0-ae80-d5463f2e53da"},"vehicle_type_id":"4","last_reported":1721333331,"current_range_meters":23600,"station_id":"ce4bgn92rcd13ifvqbvg","pricing_plan_id":"cebpf4jnsgd1na2vs0mg"},{"bike_id":"7df8dd4a-c865-4f29-b768-21740d0daaaa","system_id":"levelo_inurba_marseille","lat":43.31444,"lon":5.37377,"is_reserved":false,"is_disabled":false,"rental_uris":{"android":"levelo://app?vid=7df8dd4a-c865-4f29-b768-21740d0daaaa","ios":"levelo://app?vid=7df8dd4a-c865-4f29-b768-21740d0daaaa"},"vehicle_type_id":"4","last_reported":1721333331,"current_range_meters":26800,"station_id":"","pricing_plan_id":"cebpf4jnsgd1na2vs0mg"},{"bike_id":"3ce5589e-f58d-4ec8-a086-9d8a483f985e","system_id":"levelo_inurba_marseille","lat":43.30537,"lon":5.367345,"is_reserved":false,"is_disabled":false,"rental_uris":{"android":"levelo://app?vid=3ce5589e-f58d-4ec8-a086-9d8a483f985e","ios":"levelo://app?vid=3ce5589e-f58d-4ec8-a086-9d8a483f985e"},"vehicle_type_id":"4","last_reported":1721333331,"current_range_meters":4000,"station_id":"ce4bgrp2rcd13ifvqc9g","pricing_plan_id":"cebpf4jnsgd1na2vs0mg"},{"bike_id":"486b143b-aa38-4b69-9f4f-9f2fa1f59879","system_id":"levelo_inurba_marseille","lat":43.30545,"lon":5.36531,"is_reserved":false,"is_disabled":false,"rental_uris":{"android":"levelo://app?vid=486b143b-aa38-4b69-9f4f-9f2fa1f59879","ios":"levelo://app?vid=486b143b-aa38-4b69-9f4f-9f2fa1f59879"},"vehicle_type_id":"4","last_reported":1721333331,"current_range_meters":0,"station_id":"ce4bgs12rcd13ifvqcag","pricing_plan_id":"cebpf4jnsgd1na2vs0mg"},{"bike_id":"a946f8f8-1460-4293-8121-6ee50b71c486","system_id":"levelo_inurba_marseille","lat":43.3054,"lon":5.3655,"is_reserved":false,"is_disabled":false,"rental_uris":{"android":"levelo://app?vid=a946f8f8-1460-4293-8121-6ee50b71c486","ios":"levelo://app?vid=a946f8f8-1460-4293-8121-6ee50b71c486"},"vehicle_type_id":"4","last_reported":1721333331,"current_range_meters":2000,"station_id":"ce4bgs12rcd13ifvqcag","pricing_plan_id":"cebpf4jnsgd1na2vs0mg"},{"bike_id":"70465c97-b6ce-4cce-97b8-8a7b5d6bd44e","system_id":"levelo_inurba_marseille","lat":43.3053,"lon":5.36652,"is_reserved":false,"is_disabled":false,"rental_uris":{"android":"levelo://app?vid=70465c97-b6ce-4cce-97b8-8a7b5d6bd44e","ios":"levelo://app?vid=70465c97-b6ce-4cce-97b8-8a7b5d6bd44e"},"vehicle_type_id":"4","last_reported":1721333331,"current_range_meters":4400,"station_id":"","pricing_plan_id":"cebpf4jnsgd1na2vs0mg"},{"bike_id":"e17ce841-e7d0-4712-bf51-e486b9ebd7e2","system_id":"levelo_inurba_marseille","lat":43.304905,"lon":5.36604,"is_reserved":false,"is_disabled":false,"rental_uris":{"android":"levelo://app?vid=e17ce841-e7d0-4712-bf51-e486b9ebd7e2","ios":"levelo://app?vid=e17ce841-e7d0-4712-bf51-e486b9ebd7e2"},"vehicle_type_id":"4","last_reported":1721333331,"current_range_meters":2400,"station_id":"","pricing_plan_id":"cebpf4jnsgd1na2vs0mg"},{"bike_id":"43975514-7d20-42bc-8152-8391cf2ab2fb","system_id":"levelo_inurba_marseille","lat":43.311131,"lon":5.377651,"is_reserved":false,"is_disabled":false,"rental_uris":{"android":"levelo://app?vid=43975514-7d20-42bc-8152-8391cf2ab2fb","ios":"levelo://app?vid=43975514-7d20-42bc-8152-8391cf2ab2fb"},"vehicle_type_id":"4","last_reported":1721333331,"current_range_meters":1200,"station_id":"ce4bgt92rcd13ifvqcg0","pricing_plan_id":"cebpf4jnsgd1na2vs0mg"},{"bike_id":"8fbc0921-4f1f-42c0-90f8-6d769e9ba285","system_id":"levelo_inurba_marseille","lat":43.31123,"lon":5.37759,"is_reserved":false,"is_disabled":false,"rental_uris":{"android":"levelo://app?vid=8fbc0921-4f1f-42c0-90f8-6d769e9ba285","ios":"levelo://app?vid=8fbc0921-4f1f-42c0-90f8-6d769e9ba285"},"vehicle_type_id":"4","last_reported":1721333331,"current_range_meters":31200,"station_id":"ce4bgt92rcd13ifvqcg0","pricing_plan_id":"cebpf4jnsgd1na2vs0mg"},{"bike_id":"edbe7361-36c0-4b10-a0a1-6e88f007838a","system_id":"levelo_inurba_marseille","lat":43.31122,"lon":5.37759,"is_reserved":false,"is_disabled":false,"rental_uris":{"android":"levelo://app?vid=edbe7361-36c0-4b10-a0a1-6e88f007838a","ios":"levelo://app?vid=edbe7361-36c0-4b10-a0a1-6e88f007838a"},"vehicle_type_id":"4","last_reported":1721333331,"current_range_meters":31200,"station_id":"ce4bgt92rcd13ifvqcg0","pricing_plan_id":"cebpf4jnsgd1na2vs0mg"},{"bike_id":"245c81c0-fe69-4c03-9c30-d168a63a4fe2","system_id":"levelo_inurba_marseille","lat":43.311125,"lon":5.377624,"is_reserved":false,"is_disabled":false,"rental_uris":{"android":"levelo://app?vid=245c81c0-fe69-4c03-9c30-d168a63a4fe2","ios":"levelo://app?vid=245c81c0-fe69-4c03-9c30-d168a63a4fe2"},"vehicle_type_id":"4","last_reported":1721333331,"current_range_meters":22000,"station_id":"ce4bgt92rcd13ifvqcg0","pricing_plan_id":"cebpf4jnsgd1na2vs0mg"},{"bike_id":"58c7ffb0-caa1-4f83-bcf7-2d5f7f728e6d","system_id":"levelo_inurba_marseille","lat":43.311131,"lon":5.377651,"is_reserved":false,"is_disabled":false,"rental_uris":{"android":"levelo://app?vid=58c7ffb0-caa1-4f83-bcf7-2d5f7f728e6d","ios":"levelo://app?vid=58c7ffb0-caa1-4f83-bcf7-2d5f7f728e6d"},"vehicle_type_id":"4","last_reported":1721333331,"current_range_meters":31200,"station_id":"ce4bgt92rcd13ifvqcg0","pricing_plan_id":"cebpf4jnsgd1na2vs0mg"},{"bike_id":"769c1331-2d25-45f3-98fd-c23311c6a49d","system_id":"levelo_inurba_marseille","lat":43.311198,"lon":5.377616,"is_reserved":false,"is_disabled":false,"rental_uris":{"android":"levelo://app?vid=769c1331-2d25-45f3-98fd-c23311c6a49d","ios":"levelo://app?vid=769c1331-2d25-45f3-98fd-c23311c6a49d"},"vehicle_type_id":"4","last_reported":1721333331,"current_range_meters":25600,"station_id":"ce4bgt92rcd13ifvqcg0","pricing_plan_id":"cebpf4jnsgd1na2vs0mg"},{"bike_id":"370f2a2f-714c-4d0f-9f6b-0711d9a92908","system_id":"levelo_inurba_marseille","lat":43.311196,"lon":5.377706,"is_reserved":false,"is_disabled":false,"rental_uris":{"android":"levelo://app?vid=370f2a2f-714c-4d0f-9f6b-0711d9a92908","ios":"levelo://app?vid=370f2a2f-714c-4d0f-9f6b-0711d9a92908"},"vehicle_type_id":"4","last_reported":1721333331,"current_range_meters":0,"station_id":"ce4bgt92rcd13ifvqcg0","pricing_plan_id":"cebpf4jnsgd1na2vs0mg"},{"bike_id":"61ace41d-579c-4177-b31d-bb24addb9d61","system_id":"levelo_inurba_marseille","lat":43.307945,"lon":5.376487,"is_reserved":false,"is_disabled":false,"rental_uris":{"android":"levelo://app?vid=61ace41d-579c-4177-b31d-bb24addb9d61","ios":"levelo://app?vid=61ace41d-579c-4177-b31d-bb24addb9d61"},"vehicle_type_id":"4","last_reported":1721333331,"current_range_meters":26400,"station_id":"ce4bgv92rcd13ifvqcq0","pricing_plan_id":"cebpf4jnsgd1na2vs0mg"},{"bike_id":"3964a051-6683-4c7e-b465-17b1c00f2f49","system_id":"levelo_inurba_marseille","lat":43.307945,"lon":5.376487,"is_reserved":false,"is_disabled":false,"rental_uris":{"android":"levelo://app?vid=3964a051-6683-4c7e-b465-17b1c00f2f49","ios":"levelo://app?vid=3964a051-6683-4c7e-b465-17b1c00f2f49"},"vehicle_type_id":"4","last_reported":1721333331,"current_range_meters":4800,"station_id":"ce4bgv92rcd13ifvqcq0","pricing_plan_id":"cebpf4jnsgd1na2vs0mg"},{"bike_id":"5bc8ddb0-8f09-463e-a103-6104bae2489b","system_id":"levelo_inurba_marseille","lat":43.307945,"lon":5.376487,"is_reserved":false,"is_disabled":false,"rental_uris":{"android":"levelo://app?vid=5bc8ddb0-8f09-463e-a103-6104bae2489b","ios":"levelo://app?vid=5bc8ddb0-8f09-463e-a103-6104bae2489b"},"vehicle_type_id":"4","last_reported":1721333331,"current_range_meters":4800,"station_id":"ce4bgv92rcd13ifvqcq0","pricing_plan_id":"cebpf4jnsgd1na2vs0mg"},{"bike_id":"bc070511-06da-48b5-9a50-d865b2c34d95","system_id":"levelo_inurba_marseille","lat":43.315289,"lon":5.380349,"is_reserved":false,"is_disabled":false,"rental_uris":{"android":"levelo://app?vid=bc070511-06da-48b5-9a50-d865b2c34d95","ios":"levelo://app?vid=bc070511-06da-48b5-9a50-d865b2c34d95"},"vehicle_type_id":"4","last_reported":1721333331,"current_range_meters":10400,"station_id":"ce4bhsp2rcd13ifvqi50","pricing_plan_id":"cebpf4jnsgd1na2vs0mg"},{"bike_id":"938dd9d1-5a51-42d7-92b6-1731cda1ff72","system_id":"levelo_inurba_marseille","lat":43.315289,"lon":5.380349,"is_reserved":false,"is_disabled":false,"rental_uris":{"android":"levelo://app?vid=938dd9d1-5a51-42d7-92b6-1731cda1ff72","ios":"levelo://app?vid=938dd9d1-5a51-42d7-92b6-1731cda1ff72"},"vehicle_type_id":"4","last_reported":1721333331,"current_range_meters":10400,"station_id":"ce4bhsp2rcd13ifvqi50","pricing_plan_id":"cebpf4jnsgd1na2vs0mg"},{"bike_id":"8792da5f-55c5-4761-a17b-075d5104db6c","system_id":"levelo_inurba_marseille","lat":43.315289,"lon":5.380349,"is_reserved":false,"is_disabled":false,"rental_uris":{"android":"levelo://app?vid=8792da5f-55c5-4761-a17b-075d5104db6c","ios":"levelo://app?vid=8792da5f-55c5-4761-a17b-075d5104db6c"},"vehicle_type_id":"4","last_reported":1721333331,"current_range_meters":16000,"station_id":"ce4bhsp2rcd13ifvqi50","pricing_plan_id":"cebpf4jnsgd1na2vs0mg"},{"bike_id":"c06c1eae-3882-4eb1-a67b-567e9f301595","system_id":"levelo_inurba_marseille","lat":43.308012,"lon":5.381511,"is_reserved":false,"is_disabled":false,"rental_uris":{"android":"levelo://app?vid=c06c1eae-3882-4eb1-a67b-567e9f301595","ios":"levelo://app?vid=c06c1eae-3882-4eb1-a67b-567e9f301595"},"vehicle_type_id":"4","last_reported":1721333331,"current_range_meters":20400,"station_id":"ce4bgt12rcd13ifvqce0","pricing_plan_id":"cebpf4jnsgd1na2vs0mg"},{"bike_id":"3e4535be-04a4-42d4-81f2-cfa307d8364f","system_id":"levelo_inurba_marseille","lat":43.308012,"lon":5.381511,"is_reserved":false,"is_disabled":false,"rental_uris":{"android":"levelo://app?vid=3e4535be-04a4-42d4-81f2-cfa307d8364f","ios":"levelo://app?vid=3e4535be-04a4-42d4-81f2-cfa307d8364f"},"vehicle_type_id":"4","last_reported":1721333331,"current_range_meters":6800,"station_id":"ce4bgt12rcd13ifvqce0","pricing_plan_id":"cebpf4jnsgd1na2vs0mg"},{"bike_id":"8f962ede-c569-4563-8b57-1cf223c13657","system_id":"levelo_inurba_marseille","lat":43.324771,"lon":5.36557,"is_reserved":false,"is_disabled":false,"rental_uris":{"android":"levelo://app?vid=8f962ede-c569-4563-8b57-1cf223c13657","ios":"levelo://app?vid=8f962ede-c569-4563-8b57-1cf223c13657"},"vehicle_type_id":"4","last_reported":1721333331,"current_range_meters":18800,"station_id":"ce4bhs12rcd13ifvqhvg","pricing_plan_id":"cebpf4jnsgd1na2vs0mg"},{"bike_id":"4916e7b9-ad42-444d-bdf5-d4cbd7d19856","system_id":"levelo_inurba_marseille","lat":43.32474,"lon":5.36564,"is_reserved":false,"is_disabled":false,"rental_uris":{"android":"levelo://app?vid=4916e7b9-ad42-444d-bdf5-d4cbd7d19856","ios":"levelo://app?vid=4916e7b9-ad42-444d-bdf5-d4cbd7d19856"},"vehicle_type_id":"4","last_reported":1721333331,"current_range_meters":2800,"station_id":"ce4bhs12rcd13ifvqhvg","pricing_plan_id":"cebpf4jnsgd1na2vs0mg"},{"bike_id":"843acb09-ec00-42a4-8f8a-3a11a4562824","system_id":"levelo_inurba_marseille","lat":43.324771,"lon":5.36557,"is_reserved":false,"is_disabled":false,"rental_uris":{"android":"levelo://app?vid=843acb09-ec00-42a4-8f8a-3a11a4562824","ios":"levelo://app?vid=843acb09-ec00-42a4-8f8a-3a11a4562824"},"vehicle_type_id":"4","last_reported":1721333331,"current_range_meters":15200,"station_id":"ce4bhs12rcd13ifvqhvg","pricing_plan_id":"cebpf4jnsgd1na2vs0mg"},{"bike_id":"0d7a37ce-b0f3-4121-b10b-b171f38a5a1a","system_id":"levelo_inurba_marseille","lat":43.324771,"lon":5.36557,"is_reserved":false,"is_disabled":false,"rental_uris":{"android":"levelo://app?vid=0d7a37ce-b0f3-4121-b10b-b171f38a5a1a","ios":"levelo://app?vid=0d7a37ce-b0f3-4121-b10b-b171f38a5a1a"},"vehicle_type_id":"4","last_reported":1721333331,"current_range_meters":2800,"station_id":"ce4bhs12rcd13ifvqhvg","pricing_plan_id":"cebpf4jnsgd1na2vs0mg"},{"bike_id":"9d3ad9e9-768f-4d74-9053-c832934ce231","system_id":"levelo_inurba_marseille","lat":43.310804,"lon":5.38359,"is_reserved":false,"is_disabled":false,"rental_uris":{"android":"levelo://app?vid=9d3ad9e9-768f-4d74-9053-c832934ce231","ios":"levelo://app?vid=9d3ad9e9-768f-4d74-9053-c832934ce231"},"vehicle_type_id":"4","last_reported":1721333331,"current_range_meters":31200,"station_id":"ce4bgv92rcd13ifvqcr0","pricing_plan_id":"cebpf4jnsgd1na2vs0mg"},{"bike_id":"c9da4a91-a978-40dd-acbf-a58f321e7b5f","system_id":"levelo_inurba_marseille","lat":43.31073,"lon":5.3835,"is_reserved":false,"is_disabled":false,"rental_uris":{"android":"levelo://app?vid=c9da4a91-a978-40dd-acbf-a58f321e7b5f","ios":"levelo://app?vid=c9da4a91-a978-40dd-acbf-a58f321e7b5f"},"vehicle_type_id":"4","last_reported":1721333331,"current_range_meters":31200,"station_id":"ce4bgv92rcd13ifvqcr0","pricing_plan_id":"cebpf4jnsgd1na2vs0mg"},{"bike_id":"1bffd251-6f35-4b0c-abfb-01f2abbfa733","system_id":"levelo_inurba_marseille","lat":43.31073,"lon":5.38351,"is_reserved":false,"is_disabled":false,"rental_uris":{"android":"levelo://app?vid=1bffd251-6f35-4b0c-abfb-01f2abbfa733","ios":"levelo://app?vid=1bffd251-6f35-4b0c-abfb-01f2abbfa733"},"vehicle_type_id":"4","last_reported":1721333331,"current_range_meters":8000,"station_id":"ce4bgv92rcd13ifvqcr0","pricing_plan_id":"cebpf4jnsgd1na2vs0mg"},{"bike_id":"fd732cac-b01b-4ff2-aa62-877448aad935","system_id":"levelo_inurba_marseille","lat":43.310804,"lon":5.38359,"is_reserved":false,"is_disabled":false,"rental_uris":{"android":"levelo://app?vid=fd732cac-b01b-4ff2-aa62-877448aad935","ios":"levelo://app?vid=fd732cac-b01b-4ff2-aa62-877448aad935"},"vehicle_type_id":"4","last_reported":1721333331,"current_range_meters":9200,"station_id":"ce4bgv92rcd13ifvqcr0","pricing_plan_id":"cebpf4jnsgd1na2vs0mg"},{"bike_id":"4cbe9bb3-6d72-4605-8149-d3e7d30e0320","system_id":"levelo_inurba_marseille","lat":43.310804,"lon":5.38359,"is_reserved":false,"is_disabled":false,"rental_uris":{"android":"levelo://app?vid=4cbe9bb3-6d72-4605-8149-d3e7d30e0320","ios":"levelo://app?vid=4cbe9bb3-6d72-4605-8149-d3e7d30e0320"},"vehicle_type_id":"4","last_reported":1721333331,"current_range_meters":14400,"station_id":"ce4bgv92rcd13ifvqcr0","pricing_plan_id":"cebpf4jnsgd1na2vs0mg"},{"bike_id":"05bd28a7-9c82-49d9-9526-c5f675122454","system_id":"levelo_inurba_marseille","lat":43.30143,"lon":5.37413,"is_reserved":false,"is_disabled":false,"rental_uris":{"android":"levelo://app?vid=05bd28a7-9c82-49d9-9526-c5f675122454","ios":"levelo://app?vid=05bd28a7-9c82-49d9-9526-c5f675122454"},"vehicle_type_id":"4","last_reported":1721333331,"current_range_meters":0,"station_id":"ce4bgs92rcd13ifvqcc0","pricing_plan_id":"cebpf4jnsgd1na2vs0mg"},{"bike_id":"f6e32b72-0585-4c81-ae90-fdf4bc8d0032","system_id":"levelo_inurba_marseille","lat":43.301429,"lon":5.37413,"is_reserved":false,"is_disabled":false,"rental_uris":{"android":"levelo://app?vid=f6e32b72-0585-4c81-ae90-fdf4bc8d0032","ios":"levelo://app?vid=f6e32b72-0585-4c81-ae90-fdf4bc8d0032"},"vehicle_type_id":"4","last_reported":1721333331,"current_range_meters":20400,"station_id":"ce4bgs92rcd13ifvqcc0","pricing_plan_id":"cebpf4jnsgd1na2vs0mg"},{"bike_id":"10d18acc-bd58-4e92-b1b5-88e6c5a3eff4","system_id":"levelo_inurba_marseille","lat":43.319935,"lon":5.381699,"is_reserved":false,"is_disabled":false,"rental_uris":{"android":"levelo://app?vid=10d18acc-bd58-4e92-b1b5-88e6c5a3eff4","ios":"levelo://app?vid=10d18acc-bd58-4e92-b1b5-88e6c5a3eff4"},"vehicle_type_id":"4","last_reported":1721333331,"current_range_meters":12800,"station_id":"ce4bhr12rcd13ifvqhpg","pricing_plan_id":"cebpf4jnsgd1na2vs0mg"},{"bike_id":"84b4c84f-6a09-4c42-8658-68cee18acb95","system_id":"levelo_inurba_marseille","lat":43.313571,"lon":5.384829,"is_reserved":false,"is_disabled":false,"rental_uris":{"android":"levelo://app?vid=84b4c84f-6a09-4c42-8658-68cee18acb95","ios":"levelo://app?vid=84b4c84f-6a09-4c42-8658-68cee18acb95"},"vehicle_type_id":"4","last_reported":1721333331,"current_range_meters":6000,"station_id":"ce4bgt92rcd13ifvqcf0","pricing_plan_id":"cebpf4jnsgd1na2vs0mg"},{"bike_id":"a7561f50-de05-4064-8582-d9afa7aa598d","system_id":"levelo_inurba_marseille","lat":43.299724,"lon":5.371829,"is_reserved":false,"is_disabled":false,"rental_uris":{"android":"levelo://app?vid=a7561f50-de05-4064-8582-d9afa7aa598d","ios":"levelo://app?vid=a7561f50-de05-4064-8582-d9afa7aa598d"},"vehicle_type_id":"4","last_reported":1721333331,"current_range_meters":2400,"station_id":"ce4bgr92rcd13ifvqc7g","pricing_plan_id":"cebpf4jnsgd1na2vs0mg"},{"bike_id":"5036039f-543d-4ad8-a5db-c2b0779568b2","system_id":"levelo_inurba_marseille","lat":43.299222,"lon":5.365554,"is_reserved":false,"is_disabled":false,"rental_uris":{"android":"levelo://app?vid=5036039f-543d-4ad8-a5db-c2b0779568b2","ios":"levelo://app?vid=5036039f-543d-4ad8-a5db-c2b0779568b2"},"vehicle_type_id":"4","last_reported":1721333331,"current_range_meters":5200,"station_id":"ce4bgm92rcd13ifvqbr0","pricing_plan_id":"cebpf4jnsgd1na2vs0mg"},{"bike_id":"db2cc200-a390-4f0e-9976-c784e1bdcc01","system_id":"levelo_inurba_marseille","lat":43.299724,"lon":5.371829,"is_reserved":false,"is_disabled":false,"rental_uris":{"android":"levelo://app?vid=db2cc200-a390-4f0e-9976-c784e1bdcc01","ios":"levelo://app?vid=db2cc200-a390-4f0e-9976-c784e1bdcc01"},"vehicle_type_id":"4","last_reported":1721333331,"current_range_meters":400,"station_id":"ce4bgr92rcd13ifvqc7g","pricing_plan_id":"cebpf4jnsgd1na2vs0mg"},{"bike_id":"8cb26606-d26d-4f65-aabc-2ccef5d80cbe","system_id":"levelo_inurba_marseille","lat":43.299209,"lon":5.365547,"is_reserved":false,"is_disabled":false,"rental_uris":{"android":"levelo://app?vid=8cb26606-d26d-4f65-aabc-2ccef5d80cbe","ios":"levelo://app?vid=8cb26606-d26d-4f65-aabc-2ccef5d80cbe"},"vehicle_type_id":"4","last_reported":1721333331,"current_range_meters":1200,"station_id":"ce4bgm92rcd13ifvqbr0","pricing_plan_id":"cebpf4jnsgd1na2vs0mg"},{"bike_id":"44b2c331-bf3c-4e13-8abd-8ac1ab840772","system_id":"levelo_inurba_marseille","lat":43.305364,"lon":5.384119,"is_reserved":false,"is_disabled":false,"rental_uris":{"android":"levelo://app?vid=44b2c331-bf3c-4e13-8abd-8ac1ab840772","ios":"levelo://app?vid=44b2c331-bf3c-4e13-8abd-8ac1ab840772"},"vehicle_type_id":"4","last_reported":1721333331,"current_range_meters":26000,"station_id":"ce4bgg92rcd13ifvqb30","pricing_plan_id":"cebpf4jnsgd1na2vs0mg"},{"bike_id":"72e04d50-ed27-445c-b2af-47e059f049d1","system_id":"levelo_inurba_marseille","lat":43.311722,"lon":5.387247,"is_reserved":false,"is_disabled":false,"rental_uris":{"android":"levelo://app?vid=72e04d50-ed27-445c-b2af-47e059f049d1","ios":"levelo://app?vid=72e04d50-ed27-445c-b2af-47e059f049d1"},"vehicle_type_id":"4","last_reported":1721333331,"current_range_meters":26000,"station_id":"ce4bgv12rcd13ifvqcp0","pricing_plan_id":"cebpf4jnsgd1na2vs0mg"},{"bike_id":"55866209-3f81-41da-9dce-444965e7f654","system_id":"levelo_inurba_marseille","lat":43.311722,"lon":5.387247,"is_reserved":false,"is_disabled":false,"rental_uris":{"android":"levelo://app?vid=55866209-3f81-41da-9dce-444965e7f654","ios":"levelo://app?vid=55866209-3f81-41da-9dce-444965e7f654"},"vehicle_type_id":"4","last_reported":1721333331,"current_range_meters":10000,"station_id":"ce4bgv12rcd13ifvqcp0","pricing_plan_id":"cebpf4jnsgd1na2vs0mg"},{"bike_id":"47af5039-5e09-404e-8434-fb66ac27c507","system_id":"levelo_inurba_marseille","lat":43.311722,"lon":5.387247,"is_reserved":false,"is_disabled":false,"rental_uris":{"android":"levelo://app?vid=47af5039-5e09-404e-8434-fb66ac27c507","ios":"levelo://app?vid=47af5039-5e09-404e-8434-fb66ac27c507"},"vehicle_type_id":"4","last_reported":1721333331,"current_range_meters":6800,"station_id":"ce4bgv12rcd13ifvqcp0","pricing_plan_id":"cebpf4jnsgd1na2vs0mg"},{"bike_id":"02d4ff43-6a6d-4587-9584-531f60039aae","system_id":"levelo_inurba_marseille","lat":43.311722,"lon":5.387247,"is_reserved":false,"is_disabled":false,"rental_uris":{"android":"levelo://app?vid=02d4ff43-6a6d-4587-9584-531f60039aae","ios":"levelo://app?vid=02d4ff43-6a6d-4587-9584-531f60039aae"},"vehicle_type_id":"4","last_reported":1721333331,"current_range_meters":22800,"station_id":"ce4bgv12rcd13ifvqcp0","pricing_plan_id":"cebpf4jnsgd1na2vs0mg"},{"bike_id":"9de3d0fc-cfac-4baa-bd62-9d5a7487cccf","system_id":"levelo_inurba_marseille","lat":43.311722,"lon":5.387247,"is_reserved":false,"is_disabled":false,"rental_uris":{"android":"levelo://app?vid=9de3d0fc-cfac-4baa-bd62-9d5a7487cccf","ios":"levelo://app?vid=9de3d0fc-cfac-4baa-bd62-9d5a7487cccf"},"vehicle_type_id":"4","last_reported":1721333331,"current_range_meters":4000,"station_id":"ce4bgv12rcd13ifvqcp0","pricing_plan_id":"cebpf4jnsgd1na2vs0mg"},{"bike_id":"91f7f859-75b2-4871-95f4-74f0f4104310","system_id":"levelo_inurba_marseille","lat":43.311722,"lon":5.387247,"is_reserved":false,"is_disabled":false,"rental_uris":{"android":"levelo://app?vid=91f7f859-75b2-4871-95f4-74f0f4104310","ios":"levelo://app?vid=91f7f859-75b2-4871-95f4-74f0f4104310"},"vehicle_type_id":"4","last_reported":1721333331,"current_range_meters":11200,"station_id":"ce4bgv12rcd13ifvqcp0","pricing_plan_id":"cebpf4jnsgd1na2vs0mg"},{"bike_id":"d2d81174-6c80-4db9-af08-9295460183b7","system_id":"levelo_inurba_marseille","lat":43.311722,"lon":5.387247,"is_reserved":false,"is_disabled":false,"rental_uris":{"android":"levelo://app?vid=d2d81174-6c80-4db9-af08-9295460183b7","ios":"levelo://app?vid=d2d81174-6c80-4db9-af08-9295460183b7"},"vehicle_type_id":"4","last_reported":1721333331,"current_range_meters":18800,"station_id":"ce4bgv12rcd13ifvqcp0","pricing_plan_id":"cebpf4jnsgd1na2vs0mg"},{"bike_id":"fbdb890b-1bea-42c5-bb9f-06b114efb281","system_id":"levelo_inurba_marseille","lat":43.311722,"lon":5.387247,"is_reserved":false,"is_disabled":false,"rental_uris":{"android":"levelo://app?vid=fbdb890b-1bea-42c5-bb9f-06b114efb281","ios":"levelo://app?vid=fbdb890b-1bea-42c5-bb9f-06b114efb281"},"vehicle_type_id":"4","last_reported":1721333331,"current_range_meters":0,"station_id":"ce4bgv12rcd13ifvqcp0","pricing_plan_id":"cebpf4jnsgd1na2vs0mg"},{"bike_id":"f5b7abbf-8471-4cad-a4ff-f2f349f089d0","system_id":"levelo_inurba_marseille","lat":43.302515,"lon":5.382145,"is_reserved":false,"is_disabled":false,"rental_uris":{"android":"levelo://app?vid=f5b7abbf-8471-4cad-a4ff-f2f349f089d0","ios":"levelo://app?vid=f5b7abbf-8471-4cad-a4ff-f2f349f089d0"},"vehicle_type_id":"4","last_reported":1721333331,"current_range_meters":8400,"station_id":"ce4bh092rcd13ifvqd30","pricing_plan_id":"cebpf4jnsgd1na2vs0mg"},{"bike_id":"2ba1cd19-4d4f-45ac-aae7-9679f5682841","system_id":"levelo_inurba_marseille","lat":43.32279,"lon":5.38254,"is_reserved":false,"is_disabled":false,"rental_uris":{"android":"levelo://app?vid=2ba1cd19-4d4f-45ac-aae7-9679f5682841","ios":"levelo://app?vid=2ba1cd19-4d4f-45ac-aae7-9679f5682841"},"vehicle_type_id":"4","last_reported":1721333331,"current_range_meters":30000,"station_id":"ce4bhr12rcd13ifvqhqg","pricing_plan_id":"cebpf4jnsgd1na2vs0mg"},{"bike_id":"5359900e-fe23-4ab6-82cf-78baf044e566","system_id":"levelo_inurba_marseille","lat":43.322847,"lon":5.382603,"is_reserved":false,"is_disabled":false,"rental_uris":{"android":"levelo://app?vid=5359900e-fe23-4ab6-82cf-78baf044e566","ios":"levelo://app?vid=5359900e-fe23-4ab6-82cf-78baf044e566"},"vehicle_type_id":"4","last_reported":1721333331,"current_range_meters":31200,"station_id":"ce4bhr12rcd13ifvqhqg","pricing_plan_id":"cebpf4jnsgd1na2vs0mg"},{"bike_id":"2f97dda1-141c-4d5f-924f-b73292f8c15f","system_id":"levelo_inurba_marseille","lat":43.322872,"lon":5.382756,"is_reserved":false,"is_disabled":false,"rental_uris":{"android":"levelo://app?vid=2f97dda1-141c-4d5f-924f-b73292f8c15f","ios":"levelo://app?vid=2f97dda1-141c-4d5f-924f-b73292f8c15f"},"vehicle_type_id":"4","last_reported":1721333331,"current_range_meters":11200,"station_id":"ce4bhr12rcd13ifvqhqg","pricing_plan_id":"cebpf4jnsgd1na2vs0mg"},{"bike_id":"4a22abcb-9529-47ee-9d7d-a57a1be01538","system_id":"levelo_inurba_marseille","lat":43.322872,"lon":5.382756,"is_reserved":false,"is_disabled":false,"rental_uris":{"android":"levelo://app?vid=4a22abcb-9529-47ee-9d7d-a57a1be01538","ios":"levelo://app?vid=4a22abcb-9529-47ee-9d7d-a57a1be01538"},"vehicle_type_id":"4","last_reported":1721333331,"current_range_meters":6000,"station_id":"ce4bhr12rcd13ifvqhqg","pricing_plan_id":"cebpf4jnsgd1na2vs0mg"},{"bike_id":"f5546d63-3b20-4433-87f2-a3dafb5df54a","system_id":"levelo_inurba_marseille","lat":43.322872,"lon":5.382756,"is_reserved":false,"is_disabled":false,"rental_uris":{"android":"levelo://app?vid=f5546d63-3b20-4433-87f2-a3dafb5df54a","ios":"levelo://app?vid=f5546d63-3b20-4433-87f2-a3dafb5df54a"},"vehicle_type_id":"4","last_reported":1721333331,"current_range_meters":21200,"station_id":"ce4bhr12rcd13ifvqhqg","pricing_plan_id":"cebpf4jnsgd1na2vs0mg"},{"bike_id":"5d09c540-3302-4731-9cc7-8cea9203cf4a","system_id":"levelo_inurba_marseille","lat":43.322872,"lon":5.382756,"is_reserved":false,"is_disabled":false,"rental_uris":{"android":"levelo://app?vid=5d09c540-3302-4731-9cc7-8cea9203cf4a","ios":"levelo://app?vid=5d09c540-3302-4731-9cc7-8cea9203cf4a"},"vehicle_type_id":"4","last_reported":1721333331,"current_range_meters":28400,"station_id":"ce4bhr12rcd13ifvqhqg","pricing_plan_id":"cebpf4jnsgd1na2vs0mg"},{"bike_id":"72fb286f-0b1e-4efc-86d7-5ad7f25b1a3a","system_id":"levelo_inurba_marseille","lat":43.322872,"lon":5.382756,"is_reserved":false,"is_disabled":false,"rental_uris":{"android":"levelo://app?vid=72fb286f-0b1e-4efc-86d7-5ad7f25b1a3a","ios":"levelo://app?vid=72fb286f-0b1e-4efc-86d7-5ad7f25b1a3a"},"vehicle_type_id":"4","last_reported":1721333331,"current_range_meters":10000,"station_id":"ce4bhr12rcd13ifvqhqg","pricing_plan_id":"cebpf4jnsgd1na2vs0mg"},{"bike_id":"739a6624-4ce9-45bb-9bd4-ccecc1f224e7","system_id":"levelo_inurba_marseille","lat":43.322872,"lon":5.382756,"is_reserved":false,"is_disabled":false,"rental_uris":{"android":"levelo://app?vid=739a6624-4ce9-45bb-9bd4-ccecc1f224e7","ios":"levelo://app?vid=739a6624-4ce9-45bb-9bd4-ccecc1f224e7"},"vehicle_type_id":"4","last_reported":1721333331,"current_range_meters":31200,"station_id":"ce4bhr12rcd13ifvqhqg","pricing_plan_id":"cebpf4jnsgd1na2vs0mg"},{"bike_id":"cbc2e90a-d90b-4e78-87c0-e82d5dcd35d2","system_id":"levelo_inurba_marseille","lat":43.29753,"lon":5.36282,"is_reserved":false,"is_disabled":false,"rental_uris":{"android":"levelo://app?vid=cbc2e90a-d90b-4e78-87c0-e82d5dcd35d2","ios":"levelo://app?vid=cbc2e90a-d90b-4e78-87c0-e82d5dcd35d2"},"vehicle_type_id":"4","last_reported":1721333331,"current_range_meters":4800,"station_id":"","pricing_plan_id":"cebpf4jnsgd1na2vs0mg"},{"bike_id":"392ff22c-a8b7-41ef-be9d-98c73d8fdf5a","system_id":"levelo_inurba_marseille","lat":43.297163,"lon":5.365866,"is_reserved":false,"is_disabled":false,"rental_uris":{"android":"levelo://app?vid=392ff22c-a8b7-41ef-be9d-98c73d8fdf5a","ios":"levelo://app?vid=392ff22c-a8b7-41ef-be9d-98c73d8fdf5a"},"vehicle_type_id":"4","last_reported":1721333331,"current_range_meters":0,"station_id":"ce4bgn12rcd13ifvqbt0","pricing_plan_id":"cebpf4jnsgd1na2vs0mg"},{"bike_id":"4bcf8e1b-d8ba-4d3b-9ac1-1cd9106afb3d","system_id":"levelo_inurba_marseille","lat":43.30799,"lon":5.38787,"is_reserved":false,"is_disabled":false,"rental_uris":{"android":"levelo://app?vid=4bcf8e1b-d8ba-4d3b-9ac1-1cd9106afb3d","ios":"levelo://app?vid=4bcf8e1b-d8ba-4d3b-9ac1-1cd9106afb3d"},"vehicle_type_id":"4","last_reported":1721333331,"current_range_meters":6400,"station_id":"","pricing_plan_id":"cebpf4jnsgd1na2vs0mg"},{"bike_id":"56690580-8f39-461c-a034-f24eaa4f5b20","system_id":"levelo_inurba_marseille","lat":43.2968,"lon":5.37291,"is_reserved":false,"is_disabled":false,"rental_uris":{"android":"levelo://app?vid=56690580-8f39-461c-a034-f24eaa4f5b20","ios":"levelo://app?vid=56690580-8f39-461c-a034-f24eaa4f5b20"},"vehicle_type_id":"4","last_reported":1721333331,"current_range_meters":8000,"station_id":"ce4bgk12rcd13ifvqbj0","pricing_plan_id":"cebpf4jnsgd1na2vs0mg"},{"bike_id":"0e9d9ff9-9d04-4f79-b2a9-a586abf647cd","system_id":"levelo_inurba_marseille","lat":43.29587,"lon":5.367413,"is_reserved":false,"is_disabled":false,"rental_uris":{"android":"levelo://app?vid=0e9d9ff9-9d04-4f79-b2a9-a586abf647cd","ios":"levelo://app?vid=0e9d9ff9-9d04-4f79-b2a9-a586abf647cd"},"vehicle_type_id":"4","last_reported":1721333331,"current_range_meters":0,"station_id":"ce4bgph2rcd13ifvqc2g","pricing_plan_id":"cebpf4jnsgd1na2vs0mg"},{"bike_id":"08c610a1-4934-4431-a09b-7b743d67453d","system_id":"levelo_inurba_marseille","lat":43.29573,"lon":5.367355,"is_reserved":false,"is_disabled":false,"rental_uris":{"android":"levelo://app?vid=08c610a1-4934-4431-a09b-7b743d67453d","ios":"levelo://app?vid=08c610a1-4934-4431-a09b-7b743d67453d"},"vehicle_type_id":"4","last_reported":1721333331,"current_range_meters":0,"station_id":"ce4bgph2rcd13ifvqc2g","pricing_plan_id":"cebpf4jnsgd1na2vs0mg"},{"bike_id":"873d2246-d05d-480f-b06f-18a63a510154","system_id":"levelo_inurba_marseille","lat":43.296921,"lon":5.376579,"is_reserved":false,"is_disabled":false,"rental_uris":{"android":"levelo://app?vid=873d2246-d05d-480f-b06f-18a63a510154","ios":"levelo://app?vid=873d2246-d05d-480f-b06f-18a63a510154"},"vehicle_type_id":"4","last_reported":1721333331,"current_range_meters":3600,"station_id":"ce4bgkh2rcd13ifvqbl0","pricing_plan_id":"cebpf4jnsgd1na2vs0mg"},{"bike_id":"37e41d9c-57ca-4083-aa15-dee610b68453","system_id":"levelo_inurba_marseille","lat":43.296921,"lon":5.376579,"is_reserved":false,"is_disabled":false,"rental_uris":{"android":"levelo://app?vid=37e41d9c-57ca-4083-aa15-dee610b68453","ios":"levelo://app?vid=37e41d9c-57ca-4083-aa15-dee610b68453"},"vehicle_type_id":"4","last_reported":1721333331,"current_range_meters":17200,"station_id":"ce4bgkh2rcd13ifvqbl0","pricing_plan_id":"cebpf4jnsgd1na2vs0mg"},{"bike_id":"fd4c70d5-4685-4122-a68a-ea312226ff8f","system_id":"levelo_inurba_marseille","lat":43.296935,"lon":5.376544,"is_reserved":false,"is_disabled":false,"rental_uris":{"android":"levelo://app?vid=fd4c70d5-4685-4122-a68a-ea312226ff8f","ios":"levelo://app?vid=fd4c70d5-4685-4122-a68a-ea312226ff8f"},"vehicle_type_id":"4","last_reported":1721333331,"current_range_meters":25200,"station_id":"ce4bgkh2rcd13ifvqbl0","pricing_plan_id":"cebpf4jnsgd1na2vs0mg"},{"bike_id":"180ee9c5-3cb9-42ea-b95e-64f3b9553518","system_id":"levelo_inurba_marseille","lat":43.309589,"lon":5.390258,"is_reserved":false,"is_disabled":false,"rental_uris":{"android":"levelo://app?vid=180ee9c5-3cb9-42ea-b95e-64f3b9553518","ios":"levelo://app?vid=180ee9c5-3cb9-42ea-b95e-64f3b9553518"},"vehicle_type_id":"4","last_reported":1721333331,"current_range_meters":21600,"station_id":"ce4bgup2rcd13ifvqco0","pricing_plan_id":"cebpf4jnsgd1na2vs0mg"},{"bike_id":"6a75ba47-170b-4234-aa95-87cd4a189862","system_id":"levelo_inurba_marseille","lat":43.309589,"lon":5.390258,"is_reserved":false,"is_disabled":false,"rental_uris":{"android":"levelo://app?vid=6a75ba47-170b-4234-aa95-87cd4a189862","ios":"levelo://app?vid=6a75ba47-170b-4234-aa95-87cd4a189862"},"vehicle_type_id":"4","last_reported":1721333331,"current_range_meters":28000,"station_id":"ce4bgup2rcd13ifvqco0","pricing_plan_id":"cebpf4jnsgd1na2vs0mg"},{"bike_id":"8e94fd27-5046-4e48-9468-6e1aacd2fb43","system_id":"levelo_inurba_marseille","lat":43.309589,"lon":5.390258,"is_reserved":false,"is_disabled":false,"rental_uris":{"android":"levelo://app?vid=8e94fd27-5046-4e48-9468-6e1aacd2fb43","ios":"levelo://app?vid=8e94fd27-5046-4e48-9468-6e1aacd2fb43"},"vehicle_type_id":"4","last_reported":1721333331,"current_range_meters":23600,"station_id":"ce4bgup2rcd13ifvqco0","pricing_plan_id":"cebpf4jnsgd1na2vs0mg"},{"bike_id":"e402b444-f49c-42ca-894b-82decd692667","system_id":"levelo_inurba_marseille","lat":43.309589,"lon":5.390258,"is_reserved":false,"is_disabled":false,"rental_uris":{"android":"levelo://app?vid=e402b444-f49c-42ca-894b-82decd692667","ios":"levelo://app?vid=e402b444-f49c-42ca-894b-82decd692667"},"vehicle_type_id":"4","last_reported":1721333331,"current_range_meters":14000,"station_id":"ce4bgup2rcd13ifvqco0","pricing_plan_id":"cebpf4jnsgd1na2vs0mg"},{"bike_id":"b4a99880-b20c-4f9a-aa53-79839986ca31","system_id":"levelo_inurba_marseille","lat":43.309491,"lon":5.390263,"is_reserved":false,"is_disabled":false,"rental_uris":{"android":"levelo://app?vid=b4a99880-b20c-4f9a-aa53-79839986ca31","ios":"levelo://app?vid=b4a99880-b20c-4f9a-aa53-79839986ca31"},"vehicle_type_id":"4","last_reported":1721333331,"current_range_meters":31200,"station_id":"ce4bgup2rcd13ifvqco0","pricing_plan_id":"cebpf4jnsgd1na2vs0mg"},{"bike_id":"f16d1abf-23c0-46f6-a06d-2ce26d83f35b","system_id":"levelo_inurba_marseille","lat":43.309589,"lon":5.390258,"is_reserved":false,"is_disabled":false,"rental_uris":{"android":"levelo://app?vid=f16d1abf-23c0-46f6-a06d-2ce26d83f35b","ios":"levelo://app?vid=f16d1abf-23c0-46f6-a06d-2ce26d83f35b"},"vehicle_type_id":"4","last_reported":1721333331,"current_range_meters":23200,"station_id":"ce4bgup2rcd13ifvqco0","pricing_plan_id":"cebpf4jnsgd1na2vs0mg"},{"bike_id":"a38846ef-4732-4569-9fec-f68ea61030e5","system_id":"levelo_inurba_marseille","lat":43.309589,"lon":5.390258,"is_reserved":false,"is_disabled":false,"rental_uris":{"android":"levelo://app?vid=a38846ef-4732-4569-9fec-f68ea61030e5","ios":"levelo://app?vid=a38846ef-4732-4569-9fec-f68ea61030e5"},"vehicle_type_id":"4","last_reported":1721333331,"current_range_meters":10800,"station_id":"ce4bgup2rcd13ifvqco0","pricing_plan_id":"cebpf4jnsgd1na2vs0mg"},{"bike_id":"cc7062b5-027c-4413-a177-3fbd689da3bf","system_id":"levelo_inurba_marseille","lat":43.309589,"lon":5.390258,"is_reserved":false,"is_disabled":false,"rental_uris":{"android":"levelo://app?vid=cc7062b5-027c-4413-a177-3fbd689da3bf","ios":"levelo://app?vid=cc7062b5-027c-4413-a177-3fbd689da3bf"},"vehicle_type_id":"4","last_reported":1721333331,"current_range_meters":17200,"station_id":"ce4bgup2rcd13ifvqco0","pricing_plan_id":"cebpf4jnsgd1na2vs0mg"},{"bike_id":"60fe8824-fd63-4a3e-9231-8dc5f7e4056b","system_id":"levelo_inurba_marseille","lat":43.309589,"lon":5.390258,"is_reserved":false,"is_disabled":false,"rental_uris":{"android":"levelo://app?vid=60fe8824-fd63-4a3e-9231-8dc5f7e4056b","ios":"levelo://app?vid=60fe8824-fd63-4a3e-9231-8dc5f7e4056b"},"vehicle_type_id":"4","last_reported":1721333331,"current_range_meters":0,"station_id":"ce4bgup2rcd13ifvqco0","pricing_plan_id":"cebpf4jnsgd1na2vs0mg"},{"bike_id":"448f2c60-9fb3-4e67-833a-41d1ce6fbd35","system_id":"levelo_inurba_marseille","lat":43.309589,"lon":5.390258,"is_reserved":false,"is_disabled":false,"rental_uris":{"android":"levelo://app?vid=448f2c60-9fb3-4e67-833a-41d1ce6fbd35","ios":"levelo://app?vid=448f2c60-9fb3-4e67-833a-41d1ce6fbd35"},"vehicle_type_id":"4","last_reported":1721333331,"current_range_meters":9200,"station_id":"ce4bgup2rcd13ifvqco0","pricing_plan_id":"cebpf4jnsgd1na2vs0mg"},{"bike_id":"08ea8e73-a76c-482a-ad63-54840e1982c6","system_id":"levelo_inurba_marseille","lat":43.309589,"lon":5.390258,"is_reserved":false,"is_disabled":false,"rental_uris":{"android":"levelo://app?vid=08ea8e73-a76c-482a-ad63-54840e1982c6","ios":"levelo://app?vid=08ea8e73-a76c-482a-ad63-54840e1982c6"},"vehicle_type_id":"4","last_reported":1721333331,"current_range_meters":0,"station_id":"ce4bgup2rcd13ifvqco0","pricing_plan_id":"cebpf4jnsgd1na2vs0mg"},{"bike_id":"75ec5381-a06d-48fb-ab64-588f56b60ab0","system_id":"levelo_inurba_marseille","lat":43.309589,"lon":5.390258,"is_reserved":false,"is_disabled":false,"rental_uris":{"android":"levelo://app?vid=75ec5381-a06d-48fb-ab64-588f56b60ab0","ios":"levelo://app?vid=75ec5381-a06d-48fb-ab64-588f56b60ab0"},"vehicle_type_id":"4","last_reported":1721333331,"current_range_meters":24400,"station_id":"ce4bgup2rcd13ifvqco0","pricing_plan_id":"cebpf4jnsgd1na2vs0mg"},{"bike_id":"a7c4611e-1df9-4af8-a4fe-ea6bb84bbd66","system_id":"levelo_inurba_marseille","lat":43.309589,"lon":5.390258,"is_reserved":false,"is_disabled":false,"rental_uris":{"android":"levelo://app?vid=a7c4611e-1df9-4af8-a4fe-ea6bb84bbd66","ios":"levelo://app?vid=a7c4611e-1df9-4af8-a4fe-ea6bb84bbd66"},"vehicle_type_id":"4","last_reported":1721333331,"current_range_meters":14400,"station_id":"ce4bgup2rcd13ifvqco0","pricing_plan_id":"cebpf4jnsgd1na2vs0mg"},{"bike_id":"c0d5e421-2061-4532-b873-897eb2187562","system_id":"levelo_inurba_marseille","lat":43.309589,"lon":5.390258,"is_reserved":false,"is_disabled":false,"rental_uris":{"android":"levelo://app?vid=c0d5e421-2061-4532-b873-897eb2187562","ios":"levelo://app?vid=c0d5e421-2061-4532-b873-897eb2187562"},"vehicle_type_id":"4","last_reported":1721333331,"current_range_meters":21200,"station_id":"ce4bgup2rcd13ifvqco0","pricing_plan_id":"cebpf4jnsgd1na2vs0mg"},{"bike_id":"84a6beb9-94e9-44e7-81cb-f621420174c0","system_id":"levelo_inurba_marseille","lat":43.309589,"lon":5.390258,"is_reserved":false,"is_disabled":false,"rental_uris":{"android":"levelo://app?vid=84a6beb9-94e9-44e7-81cb-f621420174c0","ios":"levelo://app?vid=84a6beb9-94e9-44e7-81cb-f621420174c0"},"vehicle_type_id":"4","last_reported":1721333331,"current_range_meters":3200,"station_id":"ce4bgup2rcd13ifvqco0","pricing_plan_id":"cebpf4jnsgd1na2vs0mg"},{"bike_id":"7769eaa8-7fbc-428c-a729-31fb361b8e27","system_id":"levelo_inurba_marseille","lat":43.31745,"lon":5.39014,"is_reserved":false,"is_disabled":false,"rental_uris":{"android":"levelo://app?vid=7769eaa8-7fbc-428c-a729-31fb361b8e27","ios":"levelo://app?vid=7769eaa8-7fbc-428c-a729-31fb361b8e27"},"vehicle_type_id":"4","last_reported":1721333331,"current_range_meters":31600,"station_id":"ce4bhqp2rcd13ifvqhng","pricing_plan_id":"cebpf4jnsgd1na2vs0mg"},{"bike_id":"ec32fbb8-6cd9-4ccb-adb6-126a4b41897f","system_id":"levelo_inurba_marseille","lat":43.317557,"lon":5.390173,"is_reserved":false,"is_disabled":false,"rental_uris":{"android":"levelo://app?vid=ec32fbb8-6cd9-4ccb-adb6-126a4b41897f","ios":"levelo://app?vid=ec32fbb8-6cd9-4ccb-adb6-126a4b41897f"},"vehicle_type_id":"4","last_reported":1721333331,"current_range_meters":26000,"station_id":"ce4bhqp2rcd13ifvqhng","pricing_plan_id":"cebpf4jnsgd1na2vs0mg"},{"bike_id":"2cac684d-eb84-4925-9548-848fc7c20900","system_id":"levelo_inurba_marseille","lat":43.31755,"lon":5.39023,"is_reserved":false,"is_disabled":false,"rental_uris":{"android":"levelo://app?vid=2cac684d-eb84-4925-9548-848fc7c20900","ios":"levelo://app?vid=2cac684d-eb84-4925-9548-848fc7c20900"},"vehicle_type_id":"4","last_reported":1721333331,"current_range_meters":24800,"station_id":"ce4bhqp2rcd13ifvqhng","pricing_plan_id":"cebpf4jnsgd1na2vs0mg"},{"bike_id":"0b54b523-8496-48bf-974d-e54ad0a1efd9","system_id":"levelo_inurba_marseille","lat":43.309589,"lon":5.390258,"is_reserved":false,"is_disabled":false,"rental_uris":{"android":"levelo://app?vid=0b54b523-8496-48bf-974d-e54ad0a1efd9","ios":"levelo://app?vid=0b54b523-8496-48bf-974d-e54ad0a1efd9"},"vehicle_type_id":"4","last_reported":1721333331,"current_range_meters":11600,"station_id":"ce4bgup2rcd13ifvqco0","pricing_plan_id":"cebpf4jnsgd1na2vs0mg"},{"bike_id":"6d3ec0c0-a94f-4fe1-b3ea-bac2c8c22677","system_id":"levelo_inurba_marseille","lat":43.298037,"lon":5.381066,"is_reserved":false,"is_disabled":false,"rental_uris":{"android":"levelo://app?vid=6d3ec0c0-a94f-4fe1-b3ea-bac2c8c22677","ios":"levelo://app?vid=6d3ec0c0-a94f-4fe1-b3ea-bac2c8c22677"},"vehicle_type_id":"4","last_reported":1721333331,"current_range_meters":0,"station_id":"ce4bgip2rcd13ifvqbb0","pricing_plan_id":"cebpf4jnsgd1na2vs0mg"},{"bike_id":"4c77b185-2d52-4383-b798-9d9bd1ada6c9","system_id":"levelo_inurba_marseille","lat":43.309589,"lon":5.390258,"is_reserved":false,"is_disabled":false,"rental_uris":{"android":"levelo://app?vid=4c77b185-2d52-4383-b798-9d9bd1ada6c9","ios":"levelo://app?vid=4c77b185-2d52-4383-b798-9d9bd1ada6c9"},"vehicle_type_id":"4","last_reported":1721333331,"current_range_meters":0,"station_id":"ce4bgup2rcd13ifvqco0","pricing_plan_id":"cebpf4jnsgd1na2vs0mg"},{"bike_id":"29f99488-1e81-4a3f-b876-c636cbc8c534","system_id":"levelo_inurba_marseille","lat":43.295748,"lon":5.37522,"is_reserved":false,"is_disabled":false,"rental_uris":{"android":"levelo://app?vid=29f99488-1e81-4a3f-b876-c636cbc8c534","ios":"levelo://app?vid=29f99488-1e81-4a3f-b876-c636cbc8c534"},"vehicle_type_id":"4","last_reported":1721333331,"current_range_meters":1200,"station_id":"ce4bgh92rcd13ifvqb50","pricing_plan_id":"cebpf4jnsgd1na2vs0mg"},{"bike_id":"b61347bd-c1de-425b-9f03-c31510042e95","system_id":"levelo_inurba_marseille","lat":43.304274,"lon":5.388873,"is_reserved":false,"is_disabled":false,"rental_uris":{"android":"levelo://app?vid=b61347bd-c1de-425b-9f03-c31510042e95","ios":"levelo://app?vid=b61347bd-c1de-425b-9f03-c31510042e95"},"vehicle_type_id":"4","last_reported":1721333331,"current_range_meters":12400,"station_id":"ce4bgk12rcd13ifvqbi0","pricing_plan_id":"cebpf4jnsgd1na2vs0mg"},{"bike_id":"e44905fb-4dd6-46bc-8494-1f5448efdd1c","system_id":"levelo_inurba_marseille","lat":43.304274,"lon":5.388873,"is_reserved":false,"is_disabled":false,"rental_uris":{"android":"levelo://app?vid=e44905fb-4dd6-46bc-8494-1f5448efdd1c","ios":"levelo://app?vid=e44905fb-4dd6-46bc-8494-1f5448efdd1c"},"vehicle_type_id":"4","last_reported":1721333331,"current_range_meters":25600,"station_id":"ce4bgk12rcd13ifvqbi0","pricing_plan_id":"cebpf4jnsgd1na2vs0mg"},{"bike_id":"f95f124f-c7a1-4359-9fe3-9f229872b82c","system_id":"levelo_inurba_marseille","lat":43.295775,"lon":5.375585,"is_reserved":false,"is_disabled":false,"rental_uris":{"android":"levelo://app?vid=f95f124f-c7a1-4359-9fe3-9f229872b82c","ios":"levelo://app?vid=f95f124f-c7a1-4359-9fe3-9f229872b82c"},"vehicle_type_id":"4","last_reported":1721333331,"current_range_meters":2000,"station_id":"ce4bgh92rcd13ifvqb50","pricing_plan_id":"cebpf4jnsgd1na2vs0mg"},{"bike_id":"4a046536-cc2f-4043-a888-885bd31255de","system_id":"levelo_inurba_marseille","lat":43.291675,"lon":5.371583,"is_reserved":false,"is_disabled":false,"rental_uris":{"android":"levelo://app?vid=4a046536-cc2f-4043-a888-885bd31255de","ios":"levelo://app?vid=4a046536-cc2f-4043-a888-885bd31255de"},"vehicle_type_id":"4","last_reported":1721333331,"current_range_meters":28400,"station_id":"ce4bha92rcd13ifvqeh0","pricing_plan_id":"cebpf4jnsgd1na2vs0mg"},{"bike_id":"f76e231e-a50e-43de-bf1e-238f365263f7","system_id":"levelo_inurba_marseille","lat":43.29514,"lon":5.37423,"is_reserved":false,"is_disabled":false,"rental_uris":{"android":"levelo://app?vid=f76e231e-a50e-43de-bf1e-238f365263f7","ios":"levelo://app?vid=f76e231e-a50e-43de-bf1e-238f365263f7"},"vehicle_type_id":"4","last_reported":1721333331,"current_range_meters":0,"station_id":"","pricing_plan_id":"cebpf4jnsgd1na2vs0mg"},{"bike_id":"b2d2ccfb-914b-4548-9c02-f0ac83922268","system_id":"levelo_inurba_marseille","lat":43.299707,"lon":5.384859,"is_reserved":false,"is_disabled":false,"rental_uris":{"android":"levelo://app?vid=b2d2ccfb-914b-4548-9c02-f0ac83922268","ios":"levelo://app?vid=b2d2ccfb-914b-4548-9c02-f0ac83922268"},"vehicle_type_id":"4","last_reported":1721333331,"current_range_meters":6800,"station_id":"ce4bgj92rcd13ifvqbd0","pricing_plan_id":"cebpf4jnsgd1na2vs0mg"},{"bike_id":"d69377f1-bd2a-412c-9002-641644cf64ea","system_id":"levelo_inurba_marseille","lat":43.299707,"lon":5.384859,"is_reserved":false,"is_disabled":false,"rental_uris":{"android":"levelo://app?vid=d69377f1-bd2a-412c-9002-641644cf64ea","ios":"levelo://app?vid=d69377f1-bd2a-412c-9002-641644cf64ea"},"vehicle_type_id":"4","last_reported":1721333331,"current_range_meters":3600,"station_id":"ce4bgj92rcd13ifvqbd0","pricing_plan_id":"cebpf4jnsgd1na2vs0mg"},{"bike_id":"83650b90-4e9d-4c0a-9dcb-3e1da055469b","system_id":"levelo_inurba_marseille","lat":43.295279,"lon":5.375048,"is_reserved":false,"is_disabled":false,"rental_uris":{"android":"levelo://app?vid=83650b90-4e9d-4c0a-9dcb-3e1da055469b","ios":"levelo://app?vid=83650b90-4e9d-4c0a-9dcb-3e1da055469b"},"vehicle_type_id":"4","last_reported":1721333331,"current_range_meters":4400,"station_id":"ce4bgkp2rcd13ifvqbmg","pricing_plan_id":"cebpf4jnsgd1na2vs0mg"},{"bike_id":"18491e9b-089a-423d-92a6-2224fb4ac1cb","system_id":"levelo_inurba_marseille","lat":43.30473,"lon":5.39011,"is_reserved":false,"is_disabled":false,"rental_uris":{"android":"levelo://app?vid=18491e9b-089a-423d-92a6-2224fb4ac1cb","ios":"levelo://app?vid=18491e9b-089a-423d-92a6-2224fb4ac1cb"},"vehicle_type_id":"4","last_reported":1721333331,"current_range_meters":10400,"station_id":"","pricing_plan_id":"cebpf4jnsgd1na2vs0mg"},{"bike_id":"755ab4bd-c0fa-496b-8a0c-424fa099cc2b","system_id":"levelo_inurba_marseille","lat":43.301396,"lon":5.387812,"is_reserved":false,"is_disabled":false,"rental_uris":{"android":"levelo://app?vid=755ab4bd-c0fa-496b-8a0c-424fa099cc2b","ios":"levelo://app?vid=755ab4bd-c0fa-496b-8a0c-424fa099cc2b"},"vehicle_type_id":"4","last_reported":1721333331,"current_range_meters":18000,"station_id":"ce4bghh2rcd13ifvqb60","pricing_plan_id":"cebpf4jnsgd1na2vs0mg"},{"bike_id":"08f18dec-c599-4626-b090-77d2051b99e9","system_id":"levelo_inurba_marseille","lat":43.301396,"lon":5.387812,"is_reserved":false,"is_disabled":false,"rental_uris":{"android":"levelo://app?vid=08f18dec-c599-4626-b090-77d2051b99e9","ios":"levelo://app?vid=08f18dec-c599-4626-b090-77d2051b99e9"},"vehicle_type_id":"4","last_reported":1721333331,"current_range_meters":24400,"station_id":"ce4bghh2rcd13ifvqb60","pricing_plan_id":"cebpf4jnsgd1na2vs0mg"},{"bike_id":"43e240ff-0bac-4b4f-af49-b0983202e4b2","system_id":"levelo_inurba_marseille","lat":43.301396,"lon":5.387812,"is_reserved":false,"is_disabled":false,"rental_uris":{"android":"levelo://app?vid=43e240ff-0bac-4b4f-af49-b0983202e4b2","ios":"levelo://app?vid=43e240ff-0bac-4b4f-af49-b0983202e4b2"},"vehicle_type_id":"4","last_reported":1721333331,"current_range_meters":20800,"station_id":"ce4bghh2rcd13ifvqb60","pricing_plan_id":"cebpf4jnsgd1na2vs0mg"},{"bike_id":"41d7001d-30d8-433b-9dec-ec69ddf78ae8","system_id":"levelo_inurba_marseille","lat":43.307513,"lon":5.392357,"is_reserved":false,"is_disabled":false,"rental_uris":{"android":"levelo://app?vid=41d7001d-30d8-433b-9dec-ec69ddf78ae8","ios":"levelo://app?vid=41d7001d-30d8-433b-9dec-ec69ddf78ae8"},"vehicle_type_id":"4","last_reported":1721333331,"current_range_meters":31200,"station_id":"","pricing_plan_id":"cebpf4jnsgd1na2vs0mg"},{"bike_id":"687bbc27-b79b-4aef-89a1-b0e3fc9e407f","system_id":"levelo_inurba_marseille","lat":43.29896,"lon":5.38537,"is_reserved":false,"is_disabled":false,"rental_uris":{"android":"levelo://app?vid=687bbc27-b79b-4aef-89a1-b0e3fc9e407f","ios":"levelo://app?vid=687bbc27-b79b-4aef-89a1-b0e3fc9e407f"},"vehicle_type_id":"4","last_reported":1721333331,"current_range_meters":0,"station_id":"","pricing_plan_id":"cebpf4jnsgd1na2vs0mg"},{"bike_id":"25b8aa59-691b-4ac9-b9a9-fb683857b682","system_id":"levelo_inurba_marseille","lat":43.32363,"lon":5.3888,"is_reserved":false,"is_disabled":false,"rental_uris":{"android":"levelo://app?vid=25b8aa59-691b-4ac9-b9a9-fb683857b682","ios":"levelo://app?vid=25b8aa59-691b-4ac9-b9a9-fb683857b682"},"vehicle_type_id":"4","last_reported":1721333331,"current_range_meters":8000,"station_id":"ce4bhqp2rcd13ifvqhog","pricing_plan_id":"cebpf4jnsgd1na2vs0mg"},{"bike_id":"4049ffca-81c0-49e4-8543-7569d388e12c","system_id":"levelo_inurba_marseille","lat":43.32367,"lon":5.388836,"is_reserved":false,"is_disabled":false,"rental_uris":{"android":"levelo://app?vid=4049ffca-81c0-49e4-8543-7569d388e12c","ios":"levelo://app?vid=4049ffca-81c0-49e4-8543-7569d388e12c"},"vehicle_type_id":"4","last_reported":1721333331,"current_range_meters":25200,"station_id":"ce4bhqp2rcd13ifvqhog","pricing_plan_id":"cebpf4jnsgd1na2vs0mg"},{"bike_id":"e6b19f64-210b-4b8f-8d7a-ff002aa99a45","system_id":"levelo_inurba_marseille","lat":43.32367,"lon":5.388836,"is_reserved":false,"is_disabled":false,"rental_uris":{"android":"levelo://app?vid=e6b19f64-210b-4b8f-8d7a-ff002aa99a45","ios":"levelo://app?vid=e6b19f64-210b-4b8f-8d7a-ff002aa99a45"},"vehicle_type_id":"4","last_reported":1721333331,"current_range_meters":6800,"station_id":"ce4bhqp2rcd13ifvqhog","pricing_plan_id":"cebpf4jnsgd1na2vs0mg"},{"bike_id":"ed894eb1-9ee4-49d3-9948-71fe65977c89","system_id":"levelo_inurba_marseille","lat":43.32367,"lon":5.38887,"is_reserved":false,"is_disabled":false,"rental_uris":{"android":"levelo://app?vid=ed894eb1-9ee4-49d3-9948-71fe65977c89","ios":"levelo://app?vid=ed894eb1-9ee4-49d3-9948-71fe65977c89"},"vehicle_type_id":"4","last_reported":1721333331,"current_range_meters":31200,"station_id":"ce4bhqp2rcd13ifvqhog","pricing_plan_id":"cebpf4jnsgd1na2vs0mg"},{"bike_id":"ba514446-4531-4ecf-9c09-350be85521cf","system_id":"levelo_inurba_marseille","lat":43.32367,"lon":5.388836,"is_reserved":false,"is_disabled":false,"rental_uris":{"android":"levelo://app?vid=ba514446-4531-4ecf-9c09-350be85521cf","ios":"levelo://app?vid=ba514446-4531-4ecf-9c09-350be85521cf"},"vehicle_type_id":"4","last_reported":1721333331,"current_range_meters":31200,"station_id":"ce4bhqp2rcd13ifvqhog","pricing_plan_id":"cebpf4jnsgd1na2vs0mg"},{"bike_id":"2aeaaab9-ad82-417d-8e44-8375dffaf90a","system_id":"levelo_inurba_marseille","lat":43.30747,"lon":5.39261,"is_reserved":false,"is_disabled":false,"rental_uris":{"android":"levelo://app?vid=2aeaaab9-ad82-417d-8e44-8375dffaf90a","ios":"levelo://app?vid=2aeaaab9-ad82-417d-8e44-8375dffaf90a"},"vehicle_type_id":"4","last_reported":1721333331,"current_range_meters":16400,"station_id":"","pricing_plan_id":"cebpf4jnsgd1na2vs0mg"},{"bike_id":"ba924273-4206-4758-bbdb-400b725a319e","system_id":"levelo_inurba_marseille","lat":43.293249,"lon":5.371578,"is_reserved":false,"is_disabled":false,"rental_uris":{"android":"levelo://app?vid=ba924273-4206-4758-bbdb-400b725a319e","ios":"levelo://app?vid=ba924273-4206-4758-bbdb-400b725a319e"},"vehicle_type_id":"4","last_reported":1721333331,"current_range_meters":30400,"station_id":"ce4bgh92rcd13ifvqb40","pricing_plan_id":"cebpf4jnsgd1na2vs0mg"},{"bike_id":"9241eaf5-c13e-4cff-91b2-1eb3ba871f6a","system_id":"levelo_inurba_marseille","lat":43.292749,"lon":5.368402,"is_reserved":false,"is_disabled":false,"rental_uris":{"android":"levelo://app?vid=9241eaf5-c13e-4cff-91b2-1eb3ba871f6a","ios":"levelo://app?vid=9241eaf5-c13e-4cff-91b2-1eb3ba871f6a"},"vehicle_type_id":"4","last_reported":1721333331,"current_range_meters":21600,"station_id":"ce4bhbp2rcd13ifvqesg","pricing_plan_id":"cebpf4jnsgd1na2vs0mg"},{"bike_id":"8138a7f7-148d-4bea-bf02-1ccf01697dbe","system_id":"levelo_inurba_marseille","lat":43.292741,"lon":5.368461,"is_reserved":false,"is_disabled":false,"rental_uris":{"android":"levelo://app?vid=8138a7f7-148d-4bea-bf02-1ccf01697dbe","ios":"levelo://app?vid=8138a7f7-148d-4bea-bf02-1ccf01697dbe"},"vehicle_type_id":"4","last_reported":1721333331,"current_range_meters":0,"station_id":"ce4bhbp2rcd13ifvqesg","pricing_plan_id":"cebpf4jnsgd1na2vs0mg"},{"bike_id":"64055800-0545-4760-9c73-77a138d11e3a","system_id":"levelo_inurba_marseille","lat":43.292749,"lon":5.368402,"is_reserved":false,"is_disabled":false,"rental_uris":{"android":"levelo://app?vid=64055800-0545-4760-9c73-77a138d11e3a","ios":"levelo://app?vid=64055800-0545-4760-9c73-77a138d11e3a"},"vehicle_type_id":"4","last_reported":1721333331,"current_range_meters":26400,"station_id":"ce4bhbp2rcd13ifvqesg","pricing_plan_id":"cebpf4jnsgd1na2vs0mg"},{"bike_id":"a0515ad9-bf17-4f72-84f9-ada7e63efa48","system_id":"levelo_inurba_marseille","lat":43.293259,"lon":5.371586,"is_reserved":false,"is_disabled":false,"rental_uris":{"android":"levelo://app?vid=a0515ad9-bf17-4f72-84f9-ada7e63efa48","ios":"levelo://app?vid=a0515ad9-bf17-4f72-84f9-ada7e63efa48"},"vehicle_type_id":"4","last_reported":1721333331,"current_range_meters":26800,"station_id":"ce4bgh92rcd13ifvqb40","pricing_plan_id":"cebpf4jnsgd1na2vs0mg"},{"bike_id":"3b944a4c-4d53-49f7-b12e-0d2e9f08b74e","system_id":"levelo_inurba_marseille","lat":43.292749,"lon":5.368402,"is_reserved":false,"is_disabled":false,"rental_uris":{"android":"levelo://app?vid=3b944a4c-4d53-49f7-b12e-0d2e9f08b74e","ios":"levelo://app?vid=3b944a4c-4d53-49f7-b12e-0d2e9f08b74e"},"vehicle_type_id":"4","last_reported":1721333331,"current_range_meters":24800,"station_id":"ce4bhbp2rcd13ifvqesg","pricing_plan_id":"cebpf4jnsgd1na2vs0mg"},{"bike_id":"9c317725-d619-4bc5-89c0-19629f9b83f6","system_id":"levelo_inurba_marseille","lat":43.293,"lon":5.37174,"is_reserved":false,"is_disabled":false,"rental_uris":{"android":"levelo://app?vid=9c317725-d619-4bc5-89c0-19629f9b83f6","ios":"levelo://app?vid=9c317725-d619-4bc5-89c0-19629f9b83f6"},"vehicle_type_id":"4","last_reported":1721333331,"current_range_meters":0,"station_id":"ce4bgh92rcd13ifvqb40","pricing_plan_id":"cebpf4jnsgd1na2vs0mg"},{"bike_id":"c3dc6dfc-81a5-4aaa-9658-6909a74ce172","system_id":"levelo_inurba_marseille","lat":43.29305,"lon":5.3746,"is_reserved":false,"is_disabled":false,"rental_uris":{"android":"levelo://app?vid=c3dc6dfc-81a5-4aaa-9658-6909a74ce172","ios":"levelo://app?vid=c3dc6dfc-81a5-4aaa-9658-6909a74ce172"},"vehicle_type_id":"4","last_reported":1721333331,"current_range_meters":0,"station_id":"ce4bgi12rcd13ifvqb70","pricing_plan_id":"cebpf4jnsgd1na2vs0mg"},{"bike_id":"46e2b0c9-cf45-4342-a001-43e764894170","system_id":"levelo_inurba_marseille","lat":43.30599,"lon":5.39356,"is_reserved":false,"is_disabled":false,"rental_uris":{"android":"levelo://app?vid=46e2b0c9-cf45-4342-a001-43e764894170","ios":"levelo://app?vid=46e2b0c9-cf45-4342-a001-43e764894170"},"vehicle_type_id":"4","last_reported":1721333331,"current_range_meters":31200,"station_id":"ce4bh0p2rcd13ifvqd80","pricing_plan_id":"cebpf4jnsgd1na2vs0mg"},{"bike_id":"ae4ad4a2-5e38-43db-abe0-edd90ca2eb7f","system_id":"levelo_inurba_marseille","lat":43.305994,"lon":5.393687,"is_reserved":false,"is_disabled":false,"rental_uris":{"android":"levelo://app?vid=ae4ad4a2-5e38-43db-abe0-edd90ca2eb7f","ios":"levelo://app?vid=ae4ad4a2-5e38-43db-abe0-edd90ca2eb7f"},"vehicle_type_id":"4","last_reported":1721333331,"current_range_meters":11200,"station_id":"ce4bh0p2rcd13ifvqd80","pricing_plan_id":"cebpf4jnsgd1na2vs0mg"},{"bike_id":"5a748b50-3a62-4215-b7af-adec97f51518","system_id":"levelo_inurba_marseille","lat":43.293009,"lon":5.374584,"is_reserved":false,"is_disabled":false,"rental_uris":{"android":"levelo://app?vid=5a748b50-3a62-4215-b7af-adec97f51518","ios":"levelo://app?vid=5a748b50-3a62-4215-b7af-adec97f51518"},"vehicle_type_id":"4","last_reported":1721333331,"current_range_meters":31200,"station_id":"ce4bgi12rcd13ifvqb70","pricing_plan_id":"cebpf4jnsgd1na2vs0mg"},{"bike_id":"3e31b187-03d6-49be-bc32-e48cf8301d45","system_id":"levelo_inurba_marseille","lat":43.303002,"lon":5.392142,"is_reserved":false,"is_disabled":false,"rental_uris":{"android":"levelo://app?vid=3e31b187-03d6-49be-bc32-e48cf8301d45","ios":"levelo://app?vid=3e31b187-03d6-49be-bc32-e48cf8301d45"},"vehicle_type_id":"4","last_reported":1721333331,"current_range_meters":24400,"station_id":"ce4bgkh2rcd13ifvqbk0","pricing_plan_id":"cebpf4jnsgd1na2vs0mg"},{"bike_id":"a6681ea5-74ef-4068-9936-aa8c7c02cc4b","system_id":"levelo_inurba_marseille","lat":43.302992,"lon":5.392136,"is_reserved":false,"is_disabled":false,"rental_uris":{"android":"levelo://app?vid=a6681ea5-74ef-4068-9936-aa8c7c02cc4b","ios":"levelo://app?vid=a6681ea5-74ef-4068-9936-aa8c7c02cc4b"},"vehicle_type_id":"4","last_reported":1721333331,"current_range_meters":7600,"station_id":"ce4bgkh2rcd13ifvqbk0","pricing_plan_id":"cebpf4jnsgd1na2vs0mg"},{"bike_id":"228c126e-95cd-4050-be12-8e8bbb3a17dc","system_id":"levelo_inurba_marseille","lat":43.2936,"lon":5.37835,"is_reserved":false,"is_disabled":false,"rental_uris":{"android":"levelo://app?vid=228c126e-95cd-4050-be12-8e8bbb3a17dc","ios":"levelo://app?vid=228c126e-95cd-4050-be12-8e8bbb3a17dc"},"vehicle_type_id":"4","last_reported":1721333331,"current_range_meters":0,"station_id":"ce4bgjh2rcd13ifvqbf0","pricing_plan_id":"cebpf4jnsgd1na2vs0mg"},{"bike_id":"a8f10877-e8e3-4807-80ae-32f332451fcc","system_id":"levelo_inurba_marseille","lat":43.2936,"lon":5.37835,"is_reserved":false,"is_disabled":false,"rental_uris":{"android":"levelo://app?vid=a8f10877-e8e3-4807-80ae-32f332451fcc","ios":"levelo://app?vid=a8f10877-e8e3-4807-80ae-32f332451fcc"},"vehicle_type_id":"4","last_reported":1721333331,"current_range_meters":0,"station_id":"ce4bgjh2rcd13ifvqbf0","pricing_plan_id":"cebpf4jnsgd1na2vs0mg"},{"bike_id":"9b256cd9-a365-4bb7-99ca-293f6b3b4e54","system_id":"levelo_inurba_marseille","lat":43.292311,"lon":5.360731,"is_reserved":false,"is_disabled":false,"rental_uris":{"android":"levelo://app?vid=9b256cd9-a365-4bb7-99ca-293f6b3b4e54","ios":"levelo://app?vid=9b256cd9-a365-4bb7-99ca-293f6b3b4e54"},"vehicle_type_id":"4","last_reported":1721333331,"current_range_meters":0,"station_id":"ce4bhbh2rcd13ifvqeqg","pricing_plan_id":"cebpf4jnsgd1na2vs0mg"},{"bike_id":"47817b32-fce0-4397-bb81-43b3d472d1a6","system_id":"levelo_inurba_marseille","lat":43.32657,"lon":5.3886,"is_reserved":false,"is_disabled":false,"rental_uris":{"android":"levelo://app?vid=47817b32-fce0-4397-bb81-43b3d472d1a6","ios":"levelo://app?vid=47817b32-fce0-4397-bb81-43b3d472d1a6"},"vehicle_type_id":"4","last_reported":1721333331,"current_range_meters":2000,"station_id":"","pricing_plan_id":"cebpf4jnsgd1na2vs0mg"},{"bike_id":"bb54ff3c-4c23-4a74-b278-6426e4ce3deb","system_id":"levelo_inurba_marseille","lat":43.29219,"lon":5.36059,"is_reserved":false,"is_disabled":false,"rental_uris":{"android":"levelo://app?vid=bb54ff3c-4c23-4a74-b278-6426e4ce3deb","ios":"levelo://app?vid=bb54ff3c-4c23-4a74-b278-6426e4ce3deb"},"vehicle_type_id":"4","last_reported":1721333331,"current_range_meters":31200,"station_id":"ce4bhbh2rcd13ifvqeqg","pricing_plan_id":"cebpf4jnsgd1na2vs0mg"},{"bike_id":"cf732074-2be0-4509-98f1-37ff8e9b5cd5","system_id":"levelo_inurba_marseille","lat":43.298764,"lon":5.388973,"is_reserved":false,"is_disabled":false,"rental_uris":{"android":"levelo://app?vid=cf732074-2be0-4509-98f1-37ff8e9b5cd5","ios":"levelo://app?vid=cf732074-2be0-4509-98f1-37ff8e9b5cd5"},"vehicle_type_id":"4","last_reported":1721333331,"current_range_meters":0,"station_id":"ce4bh392rcd13ifvqdl0","pricing_plan_id":"cebpf4jnsgd1na2vs0mg"},{"bike_id":"4a80487d-7739-47dc-8058-05f20761bd44","system_id":"levelo_inurba_marseille","lat":43.298764,"lon":5.388973,"is_reserved":false,"is_disabled":false,"rental_uris":{"android":"levelo://app?vid=4a80487d-7739-47dc-8058-05f20761bd44","ios":"levelo://app?vid=4a80487d-7739-47dc-8058-05f20761bd44"},"vehicle_type_id":"4","last_reported":1721333331,"current_range_meters":18400,"station_id":"ce4bh392rcd13ifvqdl0","pricing_plan_id":"cebpf4jnsgd1na2vs0mg"},{"bike_id":"d34487f0-31cd-4057-8287-3e5aacc31800","system_id":"levelo_inurba_marseille","lat":43.291671,"lon":5.371575,"is_reserved":false,"is_disabled":false,"rental_uris":{"android":"levelo://app?vid=d34487f0-31cd-4057-8287-3e5aacc31800","ios":"levelo://app?vid=d34487f0-31cd-4057-8287-3e5aacc31800"},"vehicle_type_id":"4","last_reported":1721333331,"current_range_meters":0,"station_id":"ce4bha92rcd13ifvqeh0","pricing_plan_id":"cebpf4jnsgd1na2vs0mg"},{"bike_id":"52d182b2-2b1f-4faf-aad9-4961623734ae","system_id":"levelo_inurba_marseille","lat":43.298764,"lon":5.388973,"is_reserved":false,"is_disabled":false,"rental_uris":{"android":"levelo://app?vid=52d182b2-2b1f-4faf-aad9-4961623734ae","ios":"levelo://app?vid=52d182b2-2b1f-4faf-aad9-4961623734ae"},"vehicle_type_id":"4","last_reported":1721333331,"current_range_meters":3200,"station_id":"ce4bh392rcd13ifvqdl0","pricing_plan_id":"cebpf4jnsgd1na2vs0mg"},{"bike_id":"1cbf670c-e4ea-45e2-a81e-113568166983","system_id":"levelo_inurba_marseille","lat":43.291671,"lon":5.371575,"is_reserved":false,"is_disabled":false,"rental_uris":{"android":"levelo://app?vid=1cbf670c-e4ea-45e2-a81e-113568166983","ios":"levelo://app?vid=1cbf670c-e4ea-45e2-a81e-113568166983"},"vehicle_type_id":"4","last_reported":1721333331,"current_range_meters":23600,"station_id":"ce4bha92rcd13ifvqeh0","pricing_plan_id":"cebpf4jnsgd1na2vs0mg"},{"bike_id":"6c963b60-d3b8-452e-8163-ba2aba5d814a","system_id":"levelo_inurba_marseille","lat":43.291671,"lon":5.371575,"is_reserved":false,"is_disabled":false,"rental_uris":{"android":"levelo://app?vid=6c963b60-d3b8-452e-8163-ba2aba5d814a","ios":"levelo://app?vid=6c963b60-d3b8-452e-8163-ba2aba5d814a"},"vehicle_type_id":"4","last_reported":1721333331,"current_range_meters":0,"station_id":"ce4bha92rcd13ifvqeh0","pricing_plan_id":"cebpf4jnsgd1na2vs0mg"},{"bike_id":"c6d77443-6315-4f37-8d2f-f8add7604441","system_id":"levelo_inurba_marseille","lat":43.290995,"lon":5.381361,"is_reserved":false,"is_disabled":false,"rental_uris":{"android":"levelo://app?vid=c6d77443-6315-4f37-8d2f-f8add7604441","ios":"levelo://app?vid=c6d77443-6315-4f37-8d2f-f8add7604441"},"vehicle_type_id":"4","last_reported":1721333331,"current_range_meters":0,"station_id":"ce4bh512rcd13ifvqe2g","pricing_plan_id":"cebpf4jnsgd1na2vs0mg"},{"bike_id":"808e28f0-e1b3-4972-8219-2afc9a36bb2e","system_id":"levelo_inurba_marseille","lat":43.313291,"lon":5.396838,"is_reserved":false,"is_disabled":false,"rental_uris":{"android":"levelo://app?vid=808e28f0-e1b3-4972-8219-2afc9a36bb2e","ios":"levelo://app?vid=808e28f0-e1b3-4972-8219-2afc9a36bb2e"},"vehicle_type_id":"4","last_reported":1721333331,"current_range_meters":6800,"station_id":"ce4bgvp2rcd13ifvqcu0","pricing_plan_id":"cebpf4jnsgd1na2vs0mg"},{"bike_id":"365d47f2-f8b0-4229-a755-e600b8c16949","system_id":"levelo_inurba_marseille","lat":43.309038,"lon":5.396546,"is_reserved":false,"is_disabled":false,"rental_uris":{"android":"levelo://app?vid=365d47f2-f8b0-4229-a755-e600b8c16949","ios":"levelo://app?vid=365d47f2-f8b0-4229-a755-e600b8c16949"},"vehicle_type_id":"4","last_reported":1721333331,"current_range_meters":19200,"station_id":"ce4bh012rcd13ifvqcv0","pricing_plan_id":"cebpf4jnsgd1na2vs0mg"},{"bike_id":"916a8c94-9695-4a2a-8248-9b1304d89d1b","system_id":"levelo_inurba_marseille","lat":43.313291,"lon":5.396838,"is_reserved":false,"is_disabled":false,"rental_uris":{"android":"levelo://app?vid=916a8c94-9695-4a2a-8248-9b1304d89d1b","ios":"levelo://app?vid=916a8c94-9695-4a2a-8248-9b1304d89d1b"},"vehicle_type_id":"4","last_reported":1721333331,"current_range_meters":30000,"station_id":"ce4bgvp2rcd13ifvqcu0","pricing_plan_id":"cebpf4jnsgd1na2vs0mg"},{"bike_id":"4182fe1c-a865-4d17-a880-653cbecc42ca","system_id":"levelo_inurba_marseille","lat":43.313291,"lon":5.396838,"is_reserved":false,"is_disabled":false,"rental_uris":{"android":"levelo://app?vid=4182fe1c-a865-4d17-a880-653cbecc42ca","ios":"levelo://app?vid=4182fe1c-a865-4d17-a880-653cbecc42ca"},"vehicle_type_id":"4","last_reported":1721333331,"current_range_meters":23200,"station_id":"ce4bgvp2rcd13ifvqcu0","pricing_plan_id":"cebpf4jnsgd1na2vs0mg"},{"bike_id":"b4554ab1-1e80-4a3a-8307-25cd59b5fdf3","system_id":"levelo_inurba_marseille","lat":43.31323,"lon":5.39695,"is_reserved":false,"is_disabled":false,"rental_uris":{"android":"levelo://app?vid=b4554ab1-1e80-4a3a-8307-25cd59b5fdf3","ios":"levelo://app?vid=b4554ab1-1e80-4a3a-8307-25cd59b5fdf3"},"vehicle_type_id":"4","last_reported":1721333331,"current_range_meters":0,"station_id":"ce4bgvp2rcd13ifvqcu0","pricing_plan_id":"cebpf4jnsgd1na2vs0mg"},{"bike_id":"1339ea25-55f4-4b8a-b0be-576d08565684","system_id":"levelo_inurba_marseille","lat":43.291994,"lon":5.357886,"is_reserved":false,"is_disabled":false,"rental_uris":{"android":"levelo://app?vid=1339ea25-55f4-4b8a-b0be-576d08565684","ios":"levelo://app?vid=1339ea25-55f4-4b8a-b0be-576d08565684"},"vehicle_type_id":"4","last_reported":1721333331,"current_range_meters":13200,"station_id":"ce4bhb12rcd13ifvqel0","pricing_plan_id":"cebpf4jnsgd1na2vs0mg"},{"bike_id":"4065b95a-65a4-42f9-bbd8-6159bef428f1","system_id":"levelo_inurba_marseille","lat":43.309047,"lon":5.396551,"is_reserved":false,"is_disabled":false,"rental_uris":{"android":"levelo://app?vid=4065b95a-65a4-42f9-bbd8-6159bef428f1","ios":"levelo://app?vid=4065b95a-65a4-42f9-bbd8-6159bef428f1"},"vehicle_type_id":"4","last_reported":1721333331,"current_range_meters":17600,"station_id":"ce4bh012rcd13ifvqcv0","pricing_plan_id":"cebpf4jnsgd1na2vs0mg"},{"bike_id":"88702ff0-dd64-42d9-a9e8-9643b904bf22","system_id":"levelo_inurba_marseille","lat":43.29529,"lon":5.385581,"is_reserved":false,"is_disabled":false,"rental_uris":{"android":"levelo://app?vid=88702ff0-dd64-42d9-a9e8-9643b904bf22","ios":"levelo://app?vid=88702ff0-dd64-42d9-a9e8-9643b904bf22"},"vehicle_type_id":"4","last_reported":1721333331,"current_range_meters":7600,"station_id":"ce4bgih2rcd13ifvqba0","pricing_plan_id":"cebpf4jnsgd1na2vs0mg"},{"bike_id":"c6df36cd-8abc-4e98-8d92-8952618acbde","system_id":"levelo_inurba_marseille","lat":43.29514,"lon":5.38529,"is_reserved":false,"is_disabled":false,"rental_uris":{"android":"levelo://app?vid=c6df36cd-8abc-4e98-8d92-8952618acbde","ios":"levelo://app?vid=c6df36cd-8abc-4e98-8d92-8952618acbde"},"vehicle_type_id":"4","last_reported":1721333331,"current_range_meters":0,"station_id":"ce4bgih2rcd13ifvqba0","pricing_plan_id":"cebpf4jnsgd1na2vs0mg"},{"bike_id":"2c970fb2-a1b4-464e-944b-59e784cd1f47","system_id":"levelo_inurba_marseille","lat":43.290624,"lon":5.359245,"is_reserved":false,"is_disabled":false,"rental_uris":{"android":"levelo://app?vid=2c970fb2-a1b4-464e-944b-59e784cd1f47","ios":"levelo://app?vid=2c970fb2-a1b4-464e-944b-59e784cd1f47"},"vehicle_type_id":"4","last_reported":1721333331,"current_range_meters":0,"station_id":"ce4bha92rcd13ifvqeg0","pricing_plan_id":"cebpf4jnsgd1na2vs0mg"},{"bike_id":"a9ad4661-91cd-4451-a392-958fb6078a81","system_id":"levelo_inurba_marseille","lat":43.330442,"lon":5.389148,"is_reserved":false,"is_disabled":false,"rental_uris":{"android":"levelo://app?vid=a9ad4661-91cd-4451-a392-958fb6078a81","ios":"levelo://app?vid=a9ad4661-91cd-4451-a392-958fb6078a81"},"vehicle_type_id":"4","last_reported":1721333331,"current_range_meters":8000,"station_id":"ce4bhr92rcd13ifvqhrg","pricing_plan_id":"cebpf4jnsgd1na2vs0mg"},{"bike_id":"f4bbf082-20ef-476a-8f7f-b51607ca42cc","system_id":"levelo_inurba_marseille","lat":43.290319,"lon":5.375732,"is_reserved":false,"is_disabled":false,"rental_uris":{"android":"levelo://app?vid=f4bbf082-20ef-476a-8f7f-b51607ca42cc","ios":"levelo://app?vid=f4bbf082-20ef-476a-8f7f-b51607ca42cc"},"vehicle_type_id":"4","last_reported":1721333331,"current_range_meters":19600,"station_id":"ce4bh692rcd13ifvqe90","pricing_plan_id":"cebpf4jnsgd1na2vs0mg"},{"bike_id":"748cced9-c241-4aad-99b9-99f8f2d4ca61","system_id":"levelo_inurba_marseille","lat":43.29419,"lon":5.38617,"is_reserved":false,"is_disabled":false,"rental_uris":{"android":"levelo://app?vid=748cced9-c241-4aad-99b9-99f8f2d4ca61","ios":"levelo://app?vid=748cced9-c241-4aad-99b9-99f8f2d4ca61"},"vehicle_type_id":"4","last_reported":1721333331,"current_range_meters":0,"station_id":"ce4bh2h2rcd13ifvqdh0","pricing_plan_id":"cebpf4jnsgd1na2vs0mg"},{"bike_id":"ac123960-23a3-412e-a9a0-322e0506719c","system_id":"levelo_inurba_marseille","lat":43.29419,"lon":5.38617,"is_reserved":false,"is_disabled":false,"rental_uris":{"android":"levelo://app?vid=ac123960-23a3-412e-a9a0-322e0506719c","ios":"levelo://app?vid=ac123960-23a3-412e-a9a0-322e0506719c"},"vehicle_type_id":"4","last_reported":1721333331,"current_range_meters":1600,"station_id":"ce4bh2h2rcd13ifvqdh0","pricing_plan_id":"cebpf4jnsgd1na2vs0mg"},{"bike_id":"30470d0e-8b88-42f0-b578-9f3cd9aa3da4","system_id":"levelo_inurba_marseille","lat":43.294153,"lon":5.386305,"is_reserved":false,"is_disabled":false,"rental_uris":{"android":"levelo://app?vid=30470d0e-8b88-42f0-b578-9f3cd9aa3da4","ios":"levelo://app?vid=30470d0e-8b88-42f0-b578-9f3cd9aa3da4"},"vehicle_type_id":"4","last_reported":1721333331,"current_range_meters":4400,"station_id":"ce4bh2h2rcd13ifvqdh0","pricing_plan_id":"cebpf4jnsgd1na2vs0mg"},{"bike_id":"61b2f5e2-9dcb-48c2-ac52-5724052e22ab","system_id":"levelo_inurba_marseille","lat":43.29417,"lon":5.38616,"is_reserved":false,"is_disabled":false,"rental_uris":{"android":"levelo://app?vid=61b2f5e2-9dcb-48c2-ac52-5724052e22ab","ios":"levelo://app?vid=61b2f5e2-9dcb-48c2-ac52-5724052e22ab"},"vehicle_type_id":"4","last_reported":1721333331,"current_range_meters":0,"station_id":"ce4bh2h2rcd13ifvqdh0","pricing_plan_id":"cebpf4jnsgd1na2vs0mg"},{"bike_id":"d7665ab2-362e-45ff-84bf-32f9445a31e2","system_id":"levelo_inurba_marseille","lat":43.29418,"lon":5.38618,"is_reserved":false,"is_disabled":false,"rental_uris":{"android":"levelo://app?vid=d7665ab2-362e-45ff-84bf-32f9445a31e2","ios":"levelo://app?vid=d7665ab2-362e-45ff-84bf-32f9445a31e2"},"vehicle_type_id":"4","last_reported":1721333331,"current_range_meters":800,"station_id":"ce4bh2h2rcd13ifvqdh0","pricing_plan_id":"cebpf4jnsgd1na2vs0mg"},{"bike_id":"5b450b75-ce39-4ce4-8807-9bd934234e62","system_id":"levelo_inurba_marseille","lat":43.29418,"lon":5.38619,"is_reserved":false,"is_disabled":false,"rental_uris":{"android":"levelo://app?vid=5b450b75-ce39-4ce4-8807-9bd934234e62","ios":"levelo://app?vid=5b450b75-ce39-4ce4-8807-9bd934234e62"},"vehicle_type_id":"4","last_reported":1721333331,"current_range_meters":21200,"station_id":"ce4bh2h2rcd13ifvqdh0","pricing_plan_id":"cebpf4jnsgd1na2vs0mg"},{"bike_id":"2902579e-2f8f-4087-8e34-ba0bde3e6a57","system_id":"levelo_inurba_marseille","lat":43.29414,"lon":5.38616,"is_reserved":false,"is_disabled":false,"rental_uris":{"android":"levelo://app?vid=2902579e-2f8f-4087-8e34-ba0bde3e6a57","ios":"levelo://app?vid=2902579e-2f8f-4087-8e34-ba0bde3e6a57"},"vehicle_type_id":"4","last_reported":1721333331,"current_range_meters":16000,"station_id":"ce4bh2h2rcd13ifvqdh0","pricing_plan_id":"cebpf4jnsgd1na2vs0mg"},{"bike_id":"32c5d714-d13b-4b5a-b54b-ecc4fc32543f","system_id":"levelo_inurba_marseille","lat":43.29413,"lon":5.38618,"is_reserved":false,"is_disabled":false,"rental_uris":{"android":"levelo://app?vid=32c5d714-d13b-4b5a-b54b-ecc4fc32543f","ios":"levelo://app?vid=32c5d714-d13b-4b5a-b54b-ecc4fc32543f"},"vehicle_type_id":"4","last_reported":1721333331,"current_range_meters":21600,"station_id":"ce4bh2h2rcd13ifvqdh0","pricing_plan_id":"cebpf4jnsgd1na2vs0mg"},{"bike_id":"5c3c2b81-9f0b-4969-a1b6-fb53f917d314","system_id":"levelo_inurba_marseille","lat":43.29414,"lon":5.38623,"is_reserved":false,"is_disabled":false,"rental_uris":{"android":"levelo://app?vid=5c3c2b81-9f0b-4969-a1b6-fb53f917d314","ios":"levelo://app?vid=5c3c2b81-9f0b-4969-a1b6-fb53f917d314"},"vehicle_type_id":"4","last_reported":1721333331,"current_range_meters":6000,"station_id":"ce4bh2h2rcd13ifvqdh0","pricing_plan_id":"cebpf4jnsgd1na2vs0mg"},{"bike_id":"a194ae01-0517-4ab9-bc91-848f05d24f53","system_id":"levelo_inurba_marseille","lat":43.294162,"lon":5.386292,"is_reserved":false,"is_disabled":false,"rental_uris":{"android":"levelo://app?vid=a194ae01-0517-4ab9-bc91-848f05d24f53","ios":"levelo://app?vid=a194ae01-0517-4ab9-bc91-848f05d24f53"},"vehicle_type_id":"4","last_reported":1721333331,"current_range_meters":5200,"station_id":"ce4bh2h2rcd13ifvqdh0","pricing_plan_id":"cebpf4jnsgd1na2vs0mg"},{"bike_id":"c47b72c9-91a8-4e08-a247-5b50e1b90994","system_id":"levelo_inurba_marseille","lat":43.28942,"lon":5.36642,"is_reserved":false,"is_disabled":false,"rental_uris":{"android":"levelo://app?vid=c47b72c9-91a8-4e08-a247-5b50e1b90994","ios":"levelo://app?vid=c47b72c9-91a8-4e08-a247-5b50e1b90994"},"vehicle_type_id":"4","last_reported":1721333331,"current_range_meters":0,"station_id":"ce4bhap2rcd13ifvqek0","pricing_plan_id":"cebpf4jnsgd1na2vs0mg"},{"bike_id":"2de9fa25-4737-41fa-8a1e-bdee6f7d150e","system_id":"levelo_inurba_marseille","lat":43.289184,"lon":5.366408,"is_reserved":false,"is_disabled":false,"rental_uris":{"android":"levelo://app?vid=2de9fa25-4737-41fa-8a1e-bdee6f7d150e","ios":"levelo://app?vid=2de9fa25-4737-41fa-8a1e-bdee6f7d150e"},"vehicle_type_id":"4","last_reported":1721333331,"current_range_meters":20800,"station_id":"ce4bhap2rcd13ifvqek0","pricing_plan_id":"cebpf4jnsgd1na2vs0mg"},{"bike_id":"f6204bb6-0a2b-43a9-a61a-cc6252b5ac52","system_id":"levelo_inurba_marseille","lat":43.294162,"lon":5.386292,"is_reserved":false,"is_disabled":false,"rental_uris":{"android":"levelo://app?vid=f6204bb6-0a2b-43a9-a61a-cc6252b5ac52","ios":"levelo://app?vid=f6204bb6-0a2b-43a9-a61a-cc6252b5ac52"},"vehicle_type_id":"4","last_reported":1721333331,"current_range_meters":5600,"station_id":"ce4bh2h2rcd13ifvqdh0","pricing_plan_id":"cebpf4jnsgd1na2vs0mg"},{"bike_id":"5f804245-9c2e-4f2a-a736-0f9a76ff428d","system_id":"levelo_inurba_marseille","lat":43.294162,"lon":5.386292,"is_reserved":false,"is_disabled":false,"rental_uris":{"android":"levelo://app?vid=5f804245-9c2e-4f2a-a736-0f9a76ff428d","ios":"levelo://app?vid=5f804245-9c2e-4f2a-a736-0f9a76ff428d"},"vehicle_type_id":"4","last_reported":1721333331,"current_range_meters":28400,"station_id":"ce4bh2h2rcd13ifvqdh0","pricing_plan_id":"cebpf4jnsgd1na2vs0mg"},{"bike_id":"3055d85a-b0c1-44b7-b06e-5bc5919bead5","system_id":"levelo_inurba_marseille","lat":43.2941,"lon":5.38623,"is_reserved":false,"is_disabled":false,"rental_uris":{"android":"levelo://app?vid=3055d85a-b0c1-44b7-b06e-5bc5919bead5","ios":"levelo://app?vid=3055d85a-b0c1-44b7-b06e-5bc5919bead5"},"vehicle_type_id":"4","last_reported":1721333331,"current_range_meters":0,"station_id":"ce4bh2h2rcd13ifvqdh0","pricing_plan_id":"cebpf4jnsgd1na2vs0mg"},{"bike_id":"57137745-882e-42b6-8340-5b6d765b0643","system_id":"levelo_inurba_marseille","lat":43.289184,"lon":5.366408,"is_reserved":false,"is_disabled":false,"rental_uris":{"android":"levelo://app?vid=57137745-882e-42b6-8340-5b6d765b0643","ios":"levelo://app?vid=57137745-882e-42b6-8340-5b6d765b0643"},"vehicle_type_id":"4","last_reported":1721333331,"current_range_meters":30800,"station_id":"ce4bhap2rcd13ifvqek0","pricing_plan_id":"cebpf4jnsgd1na2vs0mg"},{"bike_id":"82522b11-df78-4937-8705-3ca62a31ab7a","system_id":"levelo_inurba_marseille","lat":43.289184,"lon":5.366408,"is_reserved":false,"is_disabled":false,"rental_uris":{"android":"levelo://app?vid=82522b11-df78-4937-8705-3ca62a31ab7a","ios":"levelo://app?vid=82522b11-df78-4937-8705-3ca62a31ab7a"},"vehicle_type_id":"4","last_reported":1721333331,"current_range_meters":800,"station_id":"ce4bhap2rcd13ifvqek0","pricing_plan_id":"cebpf4jnsgd1na2vs0mg"},{"bike_id":"a28a1270-a984-480b-b850-f3a02ded67d9","system_id":"levelo_inurba_marseille","lat":43.3042,"lon":5.39743,"is_reserved":false,"is_disabled":false,"rental_uris":{"android":"levelo://app?vid=a28a1270-a984-480b-b850-f3a02ded67d9","ios":"levelo://app?vid=a28a1270-a984-480b-b850-f3a02ded67d9"},"vehicle_type_id":"4","last_reported":1721333331,"current_range_meters":22000,"station_id":"ce4bh092rcd13ifvqd20","pricing_plan_id":"cebpf4jnsgd1na2vs0mg"},{"bike_id":"1df67df5-bf0b-4c8a-9140-284b8ca2f00a","system_id":"levelo_inurba_marseille","lat":43.29267,"lon":5.38447,"is_reserved":false,"is_disabled":false,"rental_uris":{"android":"levelo://app?vid=1df67df5-bf0b-4c8a-9140-284b8ca2f00a","ios":"levelo://app?vid=1df67df5-bf0b-4c8a-9140-284b8ca2f00a"},"vehicle_type_id":"4","last_reported":1721333331,"current_range_meters":21200,"station_id":"ce4bh692rcd13ifvqea0","pricing_plan_id":"cebpf4jnsgd1na2vs0mg"},{"bike_id":"44dea83d-432d-4792-8980-180228f3f2fd","system_id":"levelo_inurba_marseille","lat":43.30419,"lon":5.39745,"is_reserved":false,"is_disabled":false,"rental_uris":{"android":"levelo://app?vid=44dea83d-432d-4792-8980-180228f3f2fd","ios":"levelo://app?vid=44dea83d-432d-4792-8980-180228f3f2fd"},"vehicle_type_id":"4","last_reported":1721333331,"current_range_meters":0,"station_id":"ce4bh092rcd13ifvqd20","pricing_plan_id":"cebpf4jnsgd1na2vs0mg"},{"bike_id":"8c06bd59-9248-4a20-974b-91d829f2c93d","system_id":"levelo_inurba_marseille","lat":43.29259,"lon":5.3845,"is_reserved":false,"is_disabled":false,"rental_uris":{"android":"levelo://app?vid=8c06bd59-9248-4a20-974b-91d829f2c93d","ios":"levelo://app?vid=8c06bd59-9248-4a20-974b-91d829f2c93d"},"vehicle_type_id":"4","last_reported":1721333331,"current_range_meters":17200,"station_id":"ce4bh692rcd13ifvqea0","pricing_plan_id":"cebpf4jnsgd1na2vs0mg"},{"bike_id":"9cc5c00c-ade0-4bc4-a1b6-7fdef9dbdc6e","system_id":"levelo_inurba_marseille","lat":43.290103,"lon":5.356114,"is_reserved":false,"is_disabled":false,"rental_uris":{"android":"levelo://app?vid=9cc5c00c-ade0-4bc4-a1b6-7fdef9dbdc6e","ios":"levelo://app?vid=9cc5c00c-ade0-4bc4-a1b6-7fdef9dbdc6e"},"vehicle_type_id":"4","last_reported":1721333331,"current_range_meters":0,"station_id":"ce4bhb92rcd13ifvqen0","pricing_plan_id":"cebpf4jnsgd1na2vs0mg"},{"bike_id":"6fa5978c-efcb-4fc6-8bb7-f4388fba8e09","system_id":"levelo_inurba_marseille","lat":43.290995,"lon":5.381361,"is_reserved":false,"is_disabled":false,"rental_uris":{"android":"levelo://app?vid=6fa5978c-efcb-4fc6-8bb7-f4388fba8e09","ios":"levelo://app?vid=6fa5978c-efcb-4fc6-8bb7-f4388fba8e09"},"vehicle_type_id":"4","last_reported":1721333331,"current_range_meters":4800,"station_id":"ce4bh512rcd13ifvqe2g","pricing_plan_id":"cebpf4jnsgd1na2vs0mg"},{"bike_id":"11019dea-fc04-4e29-865e-860df013f773","system_id":"levelo_inurba_marseille","lat":43.286961,"lon":5.373785,"is_reserved":false,"is_disabled":false,"rental_uris":{"android":"levelo://app?vid=11019dea-fc04-4e29-865e-860df013f773","ios":"levelo://app?vid=11019dea-fc04-4e29-865e-860df013f773"},"vehicle_type_id":"4","last_reported":1721333331,"current_range_meters":16000,"station_id":"ce4bh3p2rcd13ifvqdq0","pricing_plan_id":"cebpf4jnsgd1na2vs0mg"},{"bike_id":"88e5c2fa-d420-4e99-be29-158db21a8d98","system_id":"levelo_inurba_marseille","lat":43.290995,"lon":5.381361,"is_reserved":false,"is_disabled":false,"rental_uris":{"android":"levelo://app?vid=88e5c2fa-d420-4e99-be29-158db21a8d98","ios":"levelo://app?vid=88e5c2fa-d420-4e99-be29-158db21a8d98"},"vehicle_type_id":"4","last_reported":1721333331,"current_range_meters":25200,"station_id":"ce4bh512rcd13ifvqe2g","pricing_plan_id":"cebpf4jnsgd1na2vs0mg"},{"bike_id":"0ca37791-2993-4e46-80ea-df1ffd491ad2","system_id":"levelo_inurba_marseille","lat":43.297807,"lon":5.393533,"is_reserved":false,"is_disabled":false,"rental_uris":{"android":"levelo://app?vid=0ca37791-2993-4e46-80ea-df1ffd491ad2","ios":"levelo://app?vid=0ca37791-2993-4e46-80ea-df1ffd491ad2"},"vehicle_type_id":"4","last_reported":1721333331,"current_range_meters":20800,"station_id":"chh1huq6cuj3fo74tm60","pricing_plan_id":"cebpf4jnsgd1na2vs0mg"},{"bike_id":"b742391f-86b7-49c5-a17e-eb1f52a164a5","system_id":"levelo_inurba_marseille","lat":43.297807,"lon":5.393533,"is_reserved":false,"is_disabled":false,"rental_uris":{"android":"levelo://app?vid=b742391f-86b7-49c5-a17e-eb1f52a164a5","ios":"levelo://app?vid=b742391f-86b7-49c5-a17e-eb1f52a164a5"},"vehicle_type_id":"4","last_reported":1721333331,"current_range_meters":31600,"station_id":"chh1huq6cuj3fo74tm60","pricing_plan_id":"cebpf4jnsgd1na2vs0mg"},{"bike_id":"611d30b8-8fbf-403e-ac97-27003f10f74a","system_id":"levelo_inurba_marseille","lat":43.297815,"lon":5.393548,"is_reserved":false,"is_disabled":false,"rental_uris":{"android":"levelo://app?vid=611d30b8-8fbf-403e-ac97-27003f10f74a","ios":"levelo://app?vid=611d30b8-8fbf-403e-ac97-27003f10f74a"},"vehicle_type_id":"4","last_reported":1721333331,"current_range_meters":6400,"station_id":"chh1huq6cuj3fo74tm60","pricing_plan_id":"cebpf4jnsgd1na2vs0mg"},{"bike_id":"8350d953-45b8-4ce0-89ae-0d74302dcd0f","system_id":"levelo_inurba_marseille","lat":43.290995,"lon":5.381361,"is_reserved":false,"is_disabled":false,"rental_uris":{"android":"levelo://app?vid=8350d953-45b8-4ce0-89ae-0d74302dcd0f","ios":"levelo://app?vid=8350d953-45b8-4ce0-89ae-0d74302dcd0f"},"vehicle_type_id":"4","last_reported":1721333331,"current_range_meters":18400,"station_id":"ce4bh512rcd13ifvqe2g","pricing_plan_id":"cebpf4jnsgd1na2vs0mg"},{"bike_id":"7f287821-acc4-44c0-8327-08ec41be43c7","system_id":"levelo_inurba_marseille","lat":43.297807,"lon":5.393533,"is_reserved":false,"is_disabled":false,"rental_uris":{"android":"levelo://app?vid=7f287821-acc4-44c0-8327-08ec41be43c7","ios":"levelo://app?vid=7f287821-acc4-44c0-8327-08ec41be43c7"},"vehicle_type_id":"4","last_reported":1721333331,"current_range_meters":0,"station_id":"chh1huq6cuj3fo74tm60","pricing_plan_id":"cebpf4jnsgd1na2vs0mg"},{"bike_id":"083e5269-6876-449f-ab10-1e7d6d86fba7","system_id":"levelo_inurba_marseille","lat":43.297807,"lon":5.393533,"is_reserved":false,"is_disabled":false,"rental_uris":{"android":"levelo://app?vid=083e5269-6876-449f-ab10-1e7d6d86fba7","ios":"levelo://app?vid=083e5269-6876-449f-ab10-1e7d6d86fba7"},"vehicle_type_id":"4","last_reported":1721333331,"current_range_meters":31600,"station_id":"chh1huq6cuj3fo74tm60","pricing_plan_id":"cebpf4jnsgd1na2vs0mg"},{"bike_id":"d7b7ea34-6605-4af5-9ebc-e8b99a8f6d65","system_id":"levelo_inurba_marseille","lat":43.330442,"lon":5.389148,"is_reserved":false,"is_disabled":false,"rental_uris":{"android":"levelo://app?vid=d7b7ea34-6605-4af5-9ebc-e8b99a8f6d65","ios":"levelo://app?vid=d7b7ea34-6605-4af5-9ebc-e8b99a8f6d65"},"vehicle_type_id":"4","last_reported":1721333331,"current_range_meters":12000,"station_id":"ce4bhr92rcd13ifvqhrg","pricing_plan_id":"cebpf4jnsgd1na2vs0mg"},{"bike_id":"424b51c7-b20a-400f-967f-d0b6d06b8988","system_id":"levelo_inurba_marseille","lat":43.297815,"lon":5.393548,"is_reserved":false,"is_disabled":false,"rental_uris":{"android":"levelo://app?vid=424b51c7-b20a-400f-967f-d0b6d06b8988","ios":"levelo://app?vid=424b51c7-b20a-400f-967f-d0b6d06b8988"},"vehicle_type_id":"4","last_reported":1721333331,"current_range_meters":1200,"station_id":"chh1huq6cuj3fo74tm60","pricing_plan_id":"cebpf4jnsgd1na2vs0mg"},{"bike_id":"62e5dd16-6a60-4306-b948-f41db0af116f","system_id":"levelo_inurba_marseille","lat":43.3302,"lon":5.39038,"is_reserved":false,"is_disabled":false,"rental_uris":{"android":"levelo://app?vid=62e5dd16-6a60-4306-b948-f41db0af116f","ios":"levelo://app?vid=62e5dd16-6a60-4306-b948-f41db0af116f"},"vehicle_type_id":"4","last_reported":1721333331,"current_range_meters":31200,"station_id":"ce4bhr92rcd13ifvqhrg","pricing_plan_id":"cebpf4jnsgd1na2vs0mg"},{"bike_id":"5c4110da-167f-4a7c-a1a7-82fd25ed46c2","system_id":"levelo_inurba_marseille","lat":43.330442,"lon":5.389148,"is_reserved":false,"is_disabled":false,"rental_uris":{"android":"levelo://app?vid=5c4110da-167f-4a7c-a1a7-82fd25ed46c2","ios":"levelo://app?vid=5c4110da-167f-4a7c-a1a7-82fd25ed46c2"},"vehicle_type_id":"4","last_reported":1721333331,"current_range_meters":20800,"station_id":"ce4bhr92rcd13ifvqhrg","pricing_plan_id":"cebpf4jnsgd1na2vs0mg"},{"bike_id":"88594f8b-d435-4f0f-a7f4-449ae581634e","system_id":"levelo_inurba_marseille","lat":43.33023,"lon":5.39039,"is_reserved":false,"is_disabled":false,"rental_uris":{"android":"levelo://app?vid=88594f8b-d435-4f0f-a7f4-449ae581634e","ios":"levelo://app?vid=88594f8b-d435-4f0f-a7f4-449ae581634e"},"vehicle_type_id":"4","last_reported":1721333331,"current_range_meters":31200,"station_id":"ce4bhr92rcd13ifvqhrg","pricing_plan_id":"cebpf4jnsgd1na2vs0mg"},{"bike_id":"8a06b9d3-2808-4674-8d92-52e94026c358","system_id":"levelo_inurba_marseille","lat":43.29524,"lon":5.39037,"is_reserved":false,"is_disabled":false,"rental_uris":{"android":"levelo://app?vid=8a06b9d3-2808-4674-8d92-52e94026c358","ios":"levelo://app?vid=8a06b9d3-2808-4674-8d92-52e94026c358"},"vehicle_type_id":"4","last_reported":1721333331,"current_range_meters":9200,"station_id":"ce4bh3p2rcd13ifvqdp0","pricing_plan_id":"cebpf4jnsgd1na2vs0mg"},{"bike_id":"cbf096c5-d7db-4be0-85c3-453cf777b273","system_id":"levelo_inurba_marseille","lat":43.289741,"lon":5.378306,"is_reserved":false,"is_disabled":false,"rental_uris":{"android":"levelo://app?vid=cbf096c5-d7db-4be0-85c3-453cf777b273","ios":"levelo://app?vid=cbf096c5-d7db-4be0-85c3-453cf777b273"},"vehicle_type_id":"4","last_reported":1721333331,"current_range_meters":30000,"station_id":"ce4bh9p2rcd13ifvqed0","pricing_plan_id":"cebpf4jnsgd1na2vs0mg"},{"bike_id":"9eddf5fe-63fc-4930-8995-0209b42d2410","system_id":"levelo_inurba_marseille","lat":43.330442,"lon":5.389148,"is_reserved":false,"is_disabled":false,"rental_uris":{"android":"levelo://app?vid=9eddf5fe-63fc-4930-8995-0209b42d2410","ios":"levelo://app?vid=9eddf5fe-63fc-4930-8995-0209b42d2410"},"vehicle_type_id":"4","last_reported":1721333331,"current_range_meters":26000,"station_id":"ce4bhr92rcd13ifvqhrg","pricing_plan_id":"cebpf4jnsgd1na2vs0mg"},{"bike_id":"8d0aeca1-60bf-4514-ad24-02e94937587c","system_id":"levelo_inurba_marseille","lat":43.330442,"lon":5.389148,"is_reserved":false,"is_disabled":false,"rental_uris":{"android":"levelo://app?vid=8d0aeca1-60bf-4514-ad24-02e94937587c","ios":"levelo://app?vid=8d0aeca1-60bf-4514-ad24-02e94937587c"},"vehicle_type_id":"4","last_reported":1721333331,"current_range_meters":8400,"station_id":"ce4bhr92rcd13ifvqhrg","pricing_plan_id":"cebpf4jnsgd1na2vs0mg"},{"bike_id":"9de5f53c-6fc7-4e9a-9c4f-b830640f4835","system_id":"levelo_inurba_marseille","lat":43.33024,"lon":5.39042,"is_reserved":false,"is_disabled":false,"rental_uris":{"android":"levelo://app?vid=9de5f53c-6fc7-4e9a-9c4f-b830640f4835","ios":"levelo://app?vid=9de5f53c-6fc7-4e9a-9c4f-b830640f4835"},"vehicle_type_id":"4","last_reported":1721333331,"current_range_meters":30400,"station_id":"ce4bhr92rcd13ifvqhrg","pricing_plan_id":"cebpf4jnsgd1na2vs0mg"},{"bike_id":"54e7880f-b84e-49a5-af68-766f16cce7f2","system_id":"levelo_inurba_marseille","lat":43.330442,"lon":5.389148,"is_reserved":false,"is_disabled":false,"rental_uris":{"android":"levelo://app?vid=54e7880f-b84e-49a5-af68-766f16cce7f2","ios":"levelo://app?vid=54e7880f-b84e-49a5-af68-766f16cce7f2"},"vehicle_type_id":"4","last_reported":1721333331,"current_range_meters":24400,"station_id":"ce4bhr92rcd13ifvqhrg","pricing_plan_id":"cebpf4jnsgd1na2vs0mg"},{"bike_id":"45899d14-93d8-4261-bd61-482f2d6637b3","system_id":"levelo_inurba_marseille","lat":43.330442,"lon":5.389148,"is_reserved":false,"is_disabled":false,"rental_uris":{"android":"levelo://app?vid=45899d14-93d8-4261-bd61-482f2d6637b3","ios":"levelo://app?vid=45899d14-93d8-4261-bd61-482f2d6637b3"},"vehicle_type_id":"4","last_reported":1721333331,"current_range_meters":18000,"station_id":"ce4bhr92rcd13ifvqhrg","pricing_plan_id":"cebpf4jnsgd1na2vs0mg"},{"bike_id":"8285cc45-34fd-4b1f-8e8b-2397afa1cc6e","system_id":"levelo_inurba_marseille","lat":43.2902,"lon":5.38141,"is_reserved":false,"is_disabled":false,"rental_uris":{"android":"levelo://app?vid=8285cc45-34fd-4b1f-8e8b-2397afa1cc6e","ios":"levelo://app?vid=8285cc45-34fd-4b1f-8e8b-2397afa1cc6e"},"vehicle_type_id":"4","last_reported":1721333331,"current_range_meters":0,"station_id":"ce4bh4p2rcd13ifvqe1g","pricing_plan_id":"cebpf4jnsgd1na2vs0mg"},{"bike_id":"cd993fa2-42ad-428a-8392-98168e7fdd89","system_id":"levelo_inurba_marseille","lat":43.28856,"lon":5.358371,"is_reserved":false,"is_disabled":false,"rental_uris":{"android":"levelo://app?vid=cd993fa2-42ad-428a-8392-98168e7fdd89","ios":"levelo://app?vid=cd993fa2-42ad-428a-8392-98168e7fdd89"},"vehicle_type_id":"4","last_reported":1721333331,"current_range_meters":7200,"station_id":"ce4bhb12rcd13ifvqem0","pricing_plan_id":"cebpf4jnsgd1na2vs0mg"},{"bike_id":"dfd5726e-3c87-4be9-8294-186c2e663291","system_id":"levelo_inurba_marseille","lat":43.28856,"lon":5.358371,"is_reserved":false,"is_disabled":false,"rental_uris":{"android":"levelo://app?vid=dfd5726e-3c87-4be9-8294-186c2e663291","ios":"levelo://app?vid=dfd5726e-3c87-4be9-8294-186c2e663291"},"vehicle_type_id":"4","last_reported":1721333331,"current_range_meters":19600,"station_id":"ce4bhb12rcd13ifvqem0","pricing_plan_id":"cebpf4jnsgd1na2vs0mg"},{"bike_id":"e3a0b82f-5401-4498-8d3a-191d15d4024c","system_id":"levelo_inurba_marseille","lat":43.31197,"lon":5.40121,"is_reserved":false,"is_disabled":false,"rental_uris":{"android":"levelo://app?vid=e3a0b82f-5401-4498-8d3a-191d15d4024c","ios":"levelo://app?vid=e3a0b82f-5401-4498-8d3a-191d15d4024c"},"vehicle_type_id":"4","last_reported":1721333331,"current_range_meters":0,"station_id":"","pricing_plan_id":"cebpf4jnsgd1na2vs0mg"},{"bike_id":"3b7c3f8b-6d3c-4059-88de-29ce9482553c","system_id":"levelo_inurba_marseille","lat":43.28856,"lon":5.358371,"is_reserved":false,"is_disabled":false,"rental_uris":{"android":"levelo://app?vid=3b7c3f8b-6d3c-4059-88de-29ce9482553c","ios":"levelo://app?vid=3b7c3f8b-6d3c-4059-88de-29ce9482553c"},"vehicle_type_id":"4","last_reported":1721333331,"current_range_meters":400,"station_id":"ce4bhb12rcd13ifvqem0","pricing_plan_id":"cebpf4jnsgd1na2vs0mg"},{"bike_id":"3c9732f6-265e-4c21-bba9-3d82e13758dd","system_id":"levelo_inurba_marseille","lat":43.28856,"lon":5.358371,"is_reserved":false,"is_disabled":false,"rental_uris":{"android":"levelo://app?vid=3c9732f6-265e-4c21-bba9-3d82e13758dd","ios":"levelo://app?vid=3c9732f6-265e-4c21-bba9-3d82e13758dd"},"vehicle_type_id":"4","last_reported":1721333331,"current_range_meters":26800,"station_id":"ce4bhb12rcd13ifvqem0","pricing_plan_id":"cebpf4jnsgd1na2vs0mg"},{"bike_id":"f334b967-79f6-44d6-b42a-288393a060ea","system_id":"levelo_inurba_marseille","lat":43.297807,"lon":5.393533,"is_reserved":false,"is_disabled":false,"rental_uris":{"android":"levelo://app?vid=f334b967-79f6-44d6-b42a-288393a060ea","ios":"levelo://app?vid=f334b967-79f6-44d6-b42a-288393a060ea"},"vehicle_type_id":"4","last_reported":1721333331,"current_range_meters":29600,"station_id":"chh1huq6cuj3fo74tm60","pricing_plan_id":"cebpf4jnsgd1na2vs0mg"},{"bike_id":"52bbf952-ed42-4af3-a26d-af3c1a264dff","system_id":"levelo_inurba_marseille","lat":43.31268,"lon":5.40167,"is_reserved":false,"is_disabled":false,"rental_uris":{"android":"levelo://app?vid=52bbf952-ed42-4af3-a26d-af3c1a264dff","ios":"levelo://app?vid=52bbf952-ed42-4af3-a26d-af3c1a264dff"},"vehicle_type_id":"4","last_reported":1721333331,"current_range_meters":21200,"station_id":"ce4bh092rcd13ifvqd30","pricing_plan_id":"cebpf4jnsgd1na2vs0mg"},{"bike_id":"d702b83b-02ae-421b-a367-b37c792c73c1","system_id":"levelo_inurba_marseille","lat":43.323464,"lon":5.406297,"is_reserved":false,"is_disabled":false,"rental_uris":{"android":"levelo://app?vid=d702b83b-02ae-421b-a367-b37c792c73c1","ios":"levelo://app?vid=d702b83b-02ae-421b-a367-b37c792c73c1"},"vehicle_type_id":"4","last_reported":1721333331,"current_range_meters":1600,"station_id":"ce4bhq92rcd13ifvqhjg","pricing_plan_id":"cebpf4jnsgd1na2vs0mg"},{"bike_id":"fc1985b8-5314-41fe-8e24-abd61fd01251","system_id":"levelo_inurba_marseille","lat":43.337466,"lon":5.374604,"is_reserved":false,"is_disabled":false,"rental_uris":{"android":"levelo://app?vid=fc1985b8-5314-41fe-8e24-abd61fd01251","ios":"levelo://app?vid=fc1985b8-5314-41fe-8e24-abd61fd01251"},"vehicle_type_id":"4","last_reported":1721333331,"current_range_meters":27200,"station_id":"","pricing_plan_id":"cebpf4jnsgd1na2vs0mg"},{"bike_id":"241d666c-dfd7-4426-8dfc-fba405eb68f7","system_id":"levelo_inurba_marseille","lat":43.337521,"lon":5.374456,"is_reserved":false,"is_disabled":false,"rental_uris":{"android":"levelo://app?vid=241d666c-dfd7-4426-8dfc-fba405eb68f7","ios":"levelo://app?vid=241d666c-dfd7-4426-8dfc-fba405eb68f7"},"vehicle_type_id":"4","last_reported":1721333331,"current_range_meters":30400,"station_id":"","pricing_plan_id":"cebpf4jnsgd1na2vs0mg"},{"bike_id":"42880c5f-0374-44c5-8f6a-9475743bf4ac","system_id":"levelo_inurba_marseille","lat":43.309371,"lon":5.401449,"is_reserved":false,"is_disabled":false,"rental_uris":{"android":"levelo://app?vid=42880c5f-0374-44c5-8f6a-9475743bf4ac","ios":"levelo://app?vid=42880c5f-0374-44c5-8f6a-9475743bf4ac"},"vehicle_type_id":"4","last_reported":1721333331,"current_range_meters":9600,"station_id":"ce4bgvp2rcd13ifvqct0","pricing_plan_id":"cebpf4jnsgd1na2vs0mg"},{"bike_id":"a6af206f-6cbc-44a7-bb3f-4274a3587e11","system_id":"levelo_inurba_marseille","lat":43.312881,"lon":5.401855,"is_reserved":false,"is_disabled":false,"rental_uris":{"android":"levelo://app?vid=a6af206f-6cbc-44a7-bb3f-4274a3587e11","ios":"levelo://app?vid=a6af206f-6cbc-44a7-bb3f-4274a3587e11"},"vehicle_type_id":"4","last_reported":1721333331,"current_range_meters":23200,"station_id":"ce4bh092rcd13ifvqd30","pricing_plan_id":"cebpf4jnsgd1na2vs0mg"},{"bike_id":"ac377a63-6a02-42fa-8a70-d5bb9b7546c9","system_id":"levelo_inurba_marseille","lat":43.33763,"lon":5.37435,"is_reserved":false,"is_disabled":false,"rental_uris":{"android":"levelo://app?vid=ac377a63-6a02-42fa-8a70-d5bb9b7546c9","ios":"levelo://app?vid=ac377a63-6a02-42fa-8a70-d5bb9b7546c9"},"vehicle_type_id":"4","last_reported":1721333331,"current_range_meters":28800,"station_id":"","pricing_plan_id":"cebpf4jnsgd1na2vs0mg"},{"bike_id":"b5f84fb0-09bb-4914-b36d-004ae4988198","system_id":"levelo_inurba_marseille","lat":43.33769,"lon":5.374615,"is_reserved":false,"is_disabled":false,"rental_uris":{"android":"levelo://app?vid=b5f84fb0-09bb-4914-b36d-004ae4988198","ios":"levelo://app?vid=b5f84fb0-09bb-4914-b36d-004ae4988198"},"vehicle_type_id":"4","last_reported":1721333331,"current_range_meters":3200,"station_id":"","pricing_plan_id":"cebpf4jnsgd1na2vs0mg"},{"bike_id":"3c78c10d-ecde-4a76-8ff0-05cdc4e90368","system_id":"levelo_inurba_marseille","lat":43.33775,"lon":5.37469,"is_reserved":false,"is_disabled":false,"rental_uris":{"android":"levelo://app?vid=3c78c10d-ecde-4a76-8ff0-05cdc4e90368","ios":"levelo://app?vid=3c78c10d-ecde-4a76-8ff0-05cdc4e90368"},"vehicle_type_id":"4","last_reported":1721333331,"current_range_meters":16000,"station_id":"","pricing_plan_id":"cebpf4jnsgd1na2vs0mg"},{"bike_id":"53097fc0-d609-4821-8cc0-c5c0b0c5b690","system_id":"levelo_inurba_marseille","lat":43.286961,"lon":5.373785,"is_reserved":false,"is_disabled":false,"rental_uris":{"android":"levelo://app?vid=53097fc0-d609-4821-8cc0-c5c0b0c5b690","ios":"levelo://app?vid=53097fc0-d609-4821-8cc0-c5c0b0c5b690"},"vehicle_type_id":"4","last_reported":1721333331,"current_range_meters":0,"station_id":"ce4bh3p2rcd13ifvqdq0","pricing_plan_id":"cebpf4jnsgd1na2vs0mg"},{"bike_id":"3dad70e4-5659-427d-b087-4b7b887b6b73","system_id":"levelo_inurba_marseille","lat":43.298685,"lon":5.39731,"is_reserved":false,"is_disabled":false,"rental_uris":{"android":"levelo://app?vid=3dad70e4-5659-427d-b087-4b7b887b6b73","ios":"levelo://app?vid=3dad70e4-5659-427d-b087-4b7b887b6b73"},"vehicle_type_id":"4","last_reported":1721333331,"current_range_meters":2000,"station_id":"ce4bh0h2rcd13ifvqd50","pricing_plan_id":"cebpf4jnsgd1na2vs0mg"},{"bike_id":"f9e57795-60b9-4698-a44d-2a67915b0a9f","system_id":"levelo_inurba_marseille","lat":43.287008,"lon":5.373773,"is_reserved":false,"is_disabled":false,"rental_uris":{"android":"levelo://app?vid=f9e57795-60b9-4698-a44d-2a67915b0a9f","ios":"levelo://app?vid=f9e57795-60b9-4698-a44d-2a67915b0a9f"},"vehicle_type_id":"4","last_reported":1721333331,"current_range_meters":28400,"station_id":"ce4bh3p2rcd13ifvqdq0","pricing_plan_id":"cebpf4jnsgd1na2vs0mg"},{"bike_id":"43ddb7f2-ac12-4755-a899-84ec9320638f","system_id":"levelo_inurba_marseille","lat":43.286593,"lon":5.363346,"is_reserved":false,"is_disabled":false,"rental_uris":{"android":"levelo://app?vid=43ddb7f2-ac12-4755-a899-84ec9320638f","ios":"levelo://app?vid=43ddb7f2-ac12-4755-a899-84ec9320638f"},"vehicle_type_id":"4","last_reported":1721333331,"current_range_meters":0,"station_id":"ce4bhah2rcd13ifvqej0","pricing_plan_id":"cebpf4jnsgd1na2vs0mg"},{"bike_id":"1b676791-cb7b-4d51-bd32-8144a7dd0133","system_id":"levelo_inurba_marseille","lat":43.286961,"lon":5.373785,"is_reserved":false,"is_disabled":false,"rental_uris":{"android":"levelo://app?vid=1b676791-cb7b-4d51-bd32-8144a7dd0133","ios":"levelo://app?vid=1b676791-cb7b-4d51-bd32-8144a7dd0133"},"vehicle_type_id":"4","last_reported":1721333331,"current_range_meters":30400,"station_id":"ce4bh3p2rcd13ifvqdq0","pricing_plan_id":"cebpf4jnsgd1na2vs0mg"},{"bike_id":"e98b0a49-42f0-4984-a3fb-5cfcda5edd62","system_id":"levelo_inurba_marseille","lat":43.28663,"lon":5.3635,"is_reserved":false,"is_disabled":false,"rental_uris":{"android":"levelo://app?vid=e98b0a49-42f0-4984-a3fb-5cfcda5edd62","ios":"levelo://app?vid=e98b0a49-42f0-4984-a3fb-5cfcda5edd62"},"vehicle_type_id":"4","last_reported":1721333331,"current_range_meters":0,"station_id":"ce4bhah2rcd13ifvqej0","pricing_plan_id":"cebpf4jnsgd1na2vs0mg"},{"bike_id":"451395e9-16c0-48b6-840a-64d64327f926","system_id":"levelo_inurba_marseille","lat":43.286986,"lon":5.37384,"is_reserved":false,"is_disabled":false,"rental_uris":{"android":"levelo://app?vid=451395e9-16c0-48b6-840a-64d64327f926","ios":"levelo://app?vid=451395e9-16c0-48b6-840a-64d64327f926"},"vehicle_type_id":"4","last_reported":1721333331,"current_range_meters":10000,"station_id":"ce4bh3p2rcd13ifvqdq0","pricing_plan_id":"cebpf4jnsgd1na2vs0mg"},{"bike_id":"19c5e679-65d7-4829-90b9-f36e0e4a40ec","system_id":"levelo_inurba_marseille","lat":43.297807,"lon":5.393533,"is_reserved":false,"is_disabled":false,"rental_uris":{"android":"levelo://app?vid=19c5e679-65d7-4829-90b9-f36e0e4a40ec","ios":"levelo://app?vid=19c5e679-65d7-4829-90b9-f36e0e4a40ec"},"vehicle_type_id":"4","last_reported":1721333331,"current_range_meters":11600,"station_id":"chh1huq6cuj3fo74tm60","pricing_plan_id":"cebpf4jnsgd1na2vs0mg"},{"bike_id":"60b44306-f0e5-44c8-b6b6-c46c19860533","system_id":"levelo_inurba_marseille","lat":43.302759,"lon":5.400793,"is_reserved":false,"is_disabled":false,"rental_uris":{"android":"levelo://app?vid=60b44306-f0e5-44c8-b6b6-c46c19860533","ios":"levelo://app?vid=60b44306-f0e5-44c8-b6b6-c46c19860533"},"vehicle_type_id":"4","last_reported":1721333331,"current_range_meters":7200,"station_id":"ce4bgvh2rcd13ifvqcs0","pricing_plan_id":"cebpf4jnsgd1na2vs0mg"},{"bike_id":"9454912f-90ee-436c-8c88-be53f05b773a","system_id":"levelo_inurba_marseille","lat":43.28923,"lon":5.38389,"is_reserved":false,"is_disabled":false,"rental_uris":{"android":"levelo://app?vid=9454912f-90ee-436c-8c88-be53f05b773a","ios":"levelo://app?vid=9454912f-90ee-436c-8c88-be53f05b773a"},"vehicle_type_id":"4","last_reported":1721333331,"current_range_meters":21600,"station_id":"ce4bh612rcd13ifvqe6g","pricing_plan_id":"cebpf4jnsgd1na2vs0mg"},{"bike_id":"effea02d-8200-4c70-a164-84894f898fef","system_id":"levelo_inurba_marseille","lat":43.29028,"lon":5.38642,"is_reserved":false,"is_disabled":false,"rental_uris":{"android":"levelo://app?vid=effea02d-8200-4c70-a164-84894f898fef","ios":"levelo://app?vid=effea02d-8200-4c70-a164-84894f898fef"},"vehicle_type_id":"4","last_reported":1721333331,"current_range_meters":2800,"station_id":"ce4bh4p2rcd13ifvqe0g","pricing_plan_id":"cebpf4jnsgd1na2vs0mg"},