{"last_updated":1698620767,"ttl":30,"version":"2.2","data":{"bikes":[{"bike_id":"95d65668-fe76-4a56-ac13-52f4144ad064","system_id":"levelo_inurba_marseille","lat":43.312239,"lon":5.368562,"is_reserved":false,"is_disabled":false,"rental_uris":{"android":"levelo://app?vid=95d65668-fe76-4a56-ac13-52f4144ad064","ios":"levelo://app?vid=95d65668-fe76-4a56-ac13-52f4144ad064"},"vehicle_type_id":"4","last_reported":1698620767,"current_range_meters":24400,"station_id":"ce4bgl92rcd13ifvqbq0","pricing_plan_id":"free"},{"bike_id":"ddc9a885-dc38-47f6-9115-e6041246f29f","system_id":"levelo_inurba_marseille","lat":43.312239,"lon":5.368562,"is_reserved":false,"is_disabled":false,"rental_uris":{"android":"levelo://app?vid=ddc9a885-dc38-47f6-9115-e6041246f29f","ios":"levelo://app?vid=ddc9a885-dc38-47f6-9115-e6041246f29f"},"vehicle_type_id":"4","last_reported":1698620767,"current_range_meters":20400,"station_id":"ce4bgl92rcd13ifvqbq0","pricing_plan_id":"free"},{"bike_id":"b1cb48cb-22d4-4cd4-97b0-038c1cf723b7","system_id":"levelo_inurba_marseille","lat":43.315186,"lon":5.371432,"is_reserved":false,"is_disabled":false,"rental_uris":{"android":"levelo://app?vid=b1cb48cb-22d4-4cd4-97b0-038c1cf723b7","ios":"levelo://app?vid=b1cb48cb-22d4-4cd4-97b0-038c1cf723b7"},"vehicle_type_id":"4","last_reported":1698620767,"current_range_meters":13600,"station_id":"","pricing_plan_id":"free"},{"bike_id":"c42499bf-529e-449d-b3dd-686d714db680","system_id":"levelo_inurba_marseille","lat":43.314811,"lon":5.373103,"is_reserved":false,"is_disabled":false,"rental_uris":{"android":"levelo://app?vid=c42499bf-529e-449d-b3dd-686d714db680","ios":"levelo://app?vid=c42499bf-529e-449d-b3dd-686d714db680"},"vehicle_type_id":"4","last_reported":1698620767,"current_range_meters":6800,"station_id":"ce4bgt12rcd13ifvqcd0","pricing_plan_id":"free"},{"bike_id":"ac196216-f9b0-460a-86b8-65d764cccbc9","system_id":"levelo_inurba_marseille","lat":43.314811,"lon":5.373103,"is_reserved":false,"is_disabled":false,"rental_uris":{"android":"levelo://app?vid=ac196216-f9b0-460a-86b8-65d764cccbc9","ios":"levelo://app?vid=ac196216-f9b0-460a-86b8-65d764cccbc9"},"vehicle_type_id":"4","last_reported":1698620767,"current_range_meters":6000,"station_id":"ce4bgt12rcd13ifvqcd0","pricing_plan_id":"free"},{"bike_id":"3bfe5ed4-35c6-4c83-8077-cfee0b469202","system_id":"levelo_inurba_marseille","lat":43.314811,"lon":5.373103,"is_reserved":false,"is_disabled":false,"rental_uris":{"android":"levelo://app?vid=3bfe5ed4-35c6-4c83-8077-cfee0b469202","ios":"levelo://app?vid=3bfe5ed4-35c6-4c83-8077-cfee0b469202"},"vehicle_type_id":"4","last_reported":1698620767,"current_range_meters":30000,"station_id":"ce4bgt12rcd13ifvqcd0","pricing_plan_id":"free"},{"bike_id":"1bb5abd7-8021-4a3e-ae78-9928663939cd","system_id":"levelo_inurba_marseille","lat":43.314811,"lon":5.373103,"is_reserved":false,"is_disabled":false,"rental_uris":{"android":"levelo://app?vid=1bb5abd7-8021-4a3e-ae78-9928663939cd","ios":"levelo://app?vid=1bb5abd7-8021-4a3e-ae78-9928663939cd"},"vehicle_type_id":"4","last_reported":1698620767,"current_range_meters":11600,"station_id":"ce4bgt12rcd13ifvqcd0","pricing_plan_id":"free"},{"bike_id":"f252b071-dddd-4e5f-ad07-506846af6d1a","system_id":"levelo_inurba_marseille","lat":43.30548,"lon":5.3653,"is_reserved":false,"is_disabled":false,"rental_uris":{"android":"levelo://app?vid=f252b071-dddd-4e5f-ad07-506846af6d1a","ios":"levelo://app?vid=f252b071-dddd-4e5f-ad07-506846af6d1a"},"vehicle_type_id":"4","last_reported":1698620767,"current_range_meters":30800,"station_id":"ce4bgs12rcd13ifvqcag","pricing_plan_id":"free"},{"bike_id":"72df54fd-0387-4f8e-8e05-0bf279ce6626","system_id":"levelo_inurba_marseille","lat":43.305325,"lon":5.367146,"is_reserved":false,"is_disabled":false,"rental_uris":{"android":"levelo://app?vid=72df54fd-0387-4f8e-8e05-0bf279ce6626","ios":"levelo://app?vid=72df54fd-0387-4f8e-8e05-0bf279ce6626"},"vehicle_type_id":"4","last_reported":1698620767,"current_range_meters":26800,"station_id":"ce4bgrp2rcd13ifvqc9g","pricing_plan_id":"free"},{"bike_id":"4ffa1791-04b8-4a35-b5b8-d859cd622a3d","system_id":"levelo_inurba_marseille","lat":43.311125,"lon":5.377624,"is_reserved":false,"is_disabled":false,"rental_uris":{"android":"levelo://app?vid=4ffa1791-04b8-4a35-b5b8-d859cd622a3d","ios":"levelo://app?vid=4ffa1791-04b8-4a35-b5b8-d859cd622a3d"},"vehicle_type_id":"4","last_reported":1698620767,"current_range_meters":6000,"station_id":"ce4bgt92rcd13ifvqcg0","pricing_plan_id":"free"},{"bike_id":"d7964bb4-3e4a-46be-be71-3eb960212d8d","system_id":"levelo_inurba_marseille","lat":43.31116,"lon":5.37763,"is_reserved":false,"is_disabled":false,"rental_uris":{"android":"levelo://app?vid=d7964bb4-3e4a-46be-be71-3eb960212d8d","ios":"levelo://app?vid=d7964bb4-3e4a-46be-be71-3eb960212d8d"},"vehicle_type_id":"4","last_reported":1698620767,"current_range_meters":16400,"station_id":"ce4bgt92rcd13ifvqcg0","pricing_plan_id":"free"},{"bike_id":"a6463711-ed20-419c-bc16-0c44a75ed012","system_id":"levelo_inurba_marseille","lat":43.311125,"lon":5.377624,"is_reserved":false,"is_disabled":false,"rental_uris":{"android":"levelo://app?vid=a6463711-ed20-419c-bc16-0c44a75ed012","ios":"levelo://app?vid=a6463711-ed20-419c-bc16-0c44a75ed012"},"vehicle_type_id":"4","last_reported":1698620767,"current_range_meters":23600,"station_id":"ce4bgt92rcd13ifvqcg0","pricing_plan_id":"free"},{"bike_id":"724041de-c99e-45d8-93ad-7cddc3df85f9","system_id":"levelo_inurba_marseille","lat":43.31118,"lon":5.37768,"is_reserved":false,"is_disabled":false,"rental_uris":{"android":"levelo://app?vid=724041de-c99e-45d8-93ad-7cddc3df85f9","ios":"levelo://app?vid=724041de-c99e-45d8-93ad-7cddc3df85f9"},"vehicle_type_id":"4","last_reported":1698620767,"current_range_meters":27200,"station_id":"ce4bgt92rcd13ifvqcg0","pricing_plan_id":"free"},{"bike_id":"693a05c9-2a99-411d-bc64-54b153b327a3","system_id":"levelo_inurba_marseille","lat":43.311125,"lon":5.377624,"is_reserved":false,"is_disabled":false,"rental_uris":{"android":"levelo://app?vid=693a05c9-2a99-411d-bc64-54b153b327a3","ios":"levelo://app?vid=693a05c9-2a99-411d-bc64-54b153b327a3"},"vehicle_type_id":"4","last_reported":1698620767,"current_range_meters":3200,"station_id":"ce4bgt92rcd13ifvqcg0","pricing_plan_id":"free"},{"bike_id":"a2bf4980-45ba-4e09-9dda-74f677699ac0","system_id":"levelo_inurba_marseille","lat":43.317075,"lon":5.377367,"is_reserved":false,"is_disabled":false,"rental_uris":{"android":"levelo://app?vid=a2bf4980-45ba-4e09-9dda-74f677699ac0","ios":"levelo://app?vid=a2bf4980-45ba-4e09-9dda-74f677699ac0"},"vehicle_type_id":"4","last_reported":1698620767,"current_range_meters":25200,"station_id":"ce4bgth2rcd13ifvqch0","pricing_plan_id":"free"},{"bike_id":"2b9931f5-6d99-4091-9d8f-986af16e0ac5","system_id":"levelo_inurba_marseille","lat":43.315292,"lon":5.3803,"is_reserved":false,"is_disabled":false,"rental_uris":{"android":"levelo://app?vid=2b9931f5-6d99-4091-9d8f-986af16e0ac5","ios":"levelo://app?vid=2b9931f5-6d99-4091-9d8f-986af16e0ac5"},"vehicle_type_id":"4","last_reported":1698620767,"current_range_meters":400,"station_id":"ce4bhsp2rcd13ifvqi50","pricing_plan_id":"free"},{"bike_id":"a46d12fc-69f3-482c-829d-1222a2311398","system_id":"levelo_inurba_marseille","lat":43.315285,"lon":5.38032,"is_reserved":false,"is_disabled":false,"rental_uris":{"android":"levelo://app?vid=a46d12fc-69f3-482c-829d-1222a2311398","ios":"levelo://app?vid=a46d12fc-69f3-482c-829d-1222a2311398"},"vehicle_type_id":"4","last_reported":1698620767,"current_range_meters":3600,"station_id":"ce4bhsp2rcd13ifvqi50","pricing_plan_id":"free"},{"bike_id":"39226469-8481-49c3-b7e8-0c9f561586b6","system_id":"levelo_inurba_marseille","lat":43.301939,"lon":5.366286,"is_reserved":false,"is_disabled":false,"rental_uris":{"android":"levelo://app?vid=39226469-8481-49c3-b7e8-0c9f561586b6","ios":"levelo://app?vid=39226469-8481-49c3-b7e8-0c9f561586b6"},"vehicle_type_id":"4","last_reported":1698620767,"current_range_meters":22000,"station_id":"ce4bgrh2rcd13ifvqc8g","pricing_plan_id":"free"},{"bike_id":"493a9721-e484-45c8-b5be-884c74c52232","system_id":"levelo_inurba_marseille","lat":43.301939,"lon":5.366286,"is_reserved":false,"is_disabled":false,"rental_uris":{"android":"levelo://app?vid=493a9721-e484-45c8-b5be-884c74c52232","ios":"levelo://app?vid=493a9721-e484-45c8-b5be-884c74c52232"},"vehicle_type_id":"4","last_reported":1698620767,"current_range_meters":28800,"station_id":"ce4bgrh2rcd13ifvqc8g","pricing_plan_id":"free"},{"bike_id":"8f31e15b-d085-463c-93d8-0c9cd86c500f","system_id":"levelo_inurba_marseille","lat":43.308012,"lon":5.381511,"is_reserved":false,"is_disabled":false,"rental_uris":{"android":"levelo://app?vid=8f31e15b-d085-463c-93d8-0c9cd86c500f","ios":"levelo://app?vid=8f31e15b-d085-463c-93d8-0c9cd86c500f"},"vehicle_type_id":"4","last_reported":1698620767,"current_range_meters":0,"station_id":"ce4bgt12rcd13ifvqce0","pricing_plan_id":"free"},{"bike_id":"e3f253a1-9788-4492-938f-39b642fbd881","system_id":"levelo_inurba_marseille","lat":43.3245,"lon":5.36788,"is_reserved":false,"is_disabled":false,"rental_uris":{"android":"levelo://app?vid=e3f253a1-9788-4492-938f-39b642fbd881","ios":"levelo://app?vid=e3f253a1-9788-4492-938f-39b642fbd881"},"vehicle_type_id":"4","last_reported":1698620767,"current_range_meters":4400,"station_id":"","pricing_plan_id":"free"},{"bike_id":"d797f1e6-f3ca-4ad7-8b56-5ed6191da53c","system_id":"levelo_inurba_marseille","lat":43.304606,"lon":5.379026,"is_reserved":false,"is_disabled":false,"rental_uris":{"android":"levelo://app?vid=d797f1e6-f3ca-4ad7-8b56-5ed6191da53c","ios":"levelo://app?vid=d797f1e6-f3ca-4ad7-8b56-5ed6191da53c"},"vehicle_type_id":"4","last_reported":1698620767,"current_range_meters":28400,"station_id":"ce4bgup2rcd13ifvqcn0","pricing_plan_id":"free"},{"bike_id":"33799d3a-1a35-4946-b871-92caf48036ec","system_id":"levelo_inurba_marseille","lat":43.324747,"lon":5.36564,"is_reserved":false,"is_disabled":false,"rental_uris":{"android":"levelo://app?vid=33799d3a-1a35-4946-b871-92caf48036ec","ios":"levelo://app?vid=33799d3a-1a35-4946-b871-92caf48036ec"},"vehicle_type_id":"4","last_reported":1698620767,"current_range_meters":23200,"station_id":"","pricing_plan_id":"free"},{"bike_id":"d177f840-926d-43b5-b656-8750c3d13e8a","system_id":"levelo_inurba_marseille","lat":43.32479,"lon":5.36566,"is_reserved":false,"is_disabled":false,"rental_uris":{"android":"levelo://app?vid=d177f840-926d-43b5-b656-8750c3d13e8a","ios":"levelo://app?vid=d177f840-926d-43b5-b656-8750c3d13e8a"},"vehicle_type_id":"4","last_reported":1698620767,"current_range_meters":24400,"station_id":"","pricing_plan_id":"free"},{"bike_id":"31a6c390-abdc-4b53-9e81-f3d196ca3d02","system_id":"levelo_inurba_marseille","lat":43.301411,"lon":5.374117,"is_reserved":false,"is_disabled":false,"rental_uris":{"android":"levelo://app?vid=31a6c390-abdc-4b53-9e81-f3d196ca3d02","ios":"levelo://app?vid=31a6c390-abdc-4b53-9e81-f3d196ca3d02"},"vehicle_type_id":"4","last_reported":1698620767,"current_range_meters":3200,"station_id":"ce4bgs92rcd13ifvqcc0","pricing_plan_id":"free"},{"bike_id":"504dadd1-24d1-45d8-bef6-1c3693924251","system_id":"levelo_inurba_marseille","lat":43.319878,"lon":5.381395,"is_reserved":false,"is_disabled":false,"rental_uris":{"android":"levelo://app?vid=504dadd1-24d1-45d8-bef6-1c3693924251","ios":"levelo://app?vid=504dadd1-24d1-45d8-bef6-1c3693924251"},"vehicle_type_id":"4","last_reported":1698620767,"current_range_meters":6000,"station_id":"ce4bhr12rcd13ifvqhpg","pricing_plan_id":"free"},{"bike_id":"cb61aa21-59b5-429a-8468-122a4c5e452c","system_id":"levelo_inurba_marseille","lat":43.319944,"lon":5.3816,"is_reserved":false,"is_disabled":false,"rental_uris":{"android":"levelo://app?vid=cb61aa21-59b5-429a-8468-122a4c5e452c","ios":"levelo://app?vid=cb61aa21-59b5-429a-8468-122a4c5e452c"},"vehicle_type_id":"4","last_reported":1698620767,"current_range_meters":11200,"station_id":"ce4bhr12rcd13ifvqhpg","pricing_plan_id":"free"},{"bike_id":"a1b5bccf-b05a-4c32-b853-aabb8ae676e2","system_id":"levelo_inurba_marseille","lat":43.29942,"lon":5.36538,"is_reserved":false,"is_disabled":false,"rental_uris":{"android":"levelo://app?vid=a1b5bccf-b05a-4c32-b853-aabb8ae676e2","ios":"levelo://app?vid=a1b5bccf-b05a-4c32-b853-aabb8ae676e2"},"vehicle_type_id":"4","last_reported":1698620767,"current_range_meters":0,"station_id":"ce4bgm92rcd13ifvqbr0","pricing_plan_id":"free"},{"bike_id":"5ba66772-20b6-408d-a6c3-0df1cd4bb678","system_id":"levelo_inurba_marseille","lat":43.3264,"lon":5.367334,"is_reserved":false,"is_disabled":false,"rental_uris":{"android":"levelo://app?vid=5ba66772-20b6-408d-a6c3-0df1cd4bb678","ios":"levelo://app?vid=5ba66772-20b6-408d-a6c3-0df1cd4bb678"},"vehicle_type_id":"4","last_reported":1698620767,"current_range_meters":12400,"station_id":"","pricing_plan_id":"free"},{"bike_id":"e3f8bd11-2852-45ae-85b6-cede6e20a6de","system_id":"levelo_inurba_marseille","lat":43.298433,"lon":5.362774,"is_reserved":false,"is_disabled":false,"rental_uris":{"android":"levelo://app?vid=e3f8bd11-2852-45ae-85b6-cede6e20a6de","ios":"levelo://app?vid=e3f8bd11-2852-45ae-85b6-cede6e20a6de"},"vehicle_type_id":"4","last_reported":1698620767,"current_range_meters":26000,"station_id":"ce4bgpp2rcd13ifvqc3g","pricing_plan_id":"free"},{"bike_id":"ce1299c9-4ccb-4f72-ae23-51b1c4e88e94","system_id":"levelo_inurba_marseille","lat":43.305364,"lon":5.384119,"is_reserved":false,"is_disabled":false,"rental_uris":{"android":"levelo://app?vid=ce1299c9-4ccb-4f72-ae23-51b1c4e88e94","ios":"levelo://app?vid=ce1299c9-4ccb-4f72-ae23-51b1c4e88e94"},"vehicle_type_id":"4","last_reported":1698620767,"current_range_meters":14400,"station_id":"ce4bgg92rcd13ifvqb30","pricing_plan_id":"free"},{"bike_id":"261c6688-6e80-4224-8298-aa3256b8468f","system_id":"levelo_inurba_marseille","lat":43.305364,"lon":5.384119,"is_reserved":false,"is_disabled":false,"rental_uris":{"android":"levelo://app?vid=261c6688-6e80-4224-8298-aa3256b8468f","ios":"levelo://app?vid=261c6688-6e80-4224-8298-aa3256b8468f"},"vehicle_type_id":"4","last_reported":1698620767,"current_range_meters":4800,"station_id":"ce4bgg92rcd13ifvqb30","pricing_plan_id":"free"},{"bike_id":"12502785-0416-48b1-ace3-e097f07644a4","system_id":"levelo_inurba_marseille","lat":43.311722,"lon":5.387247,"is_reserved":false,"is_disabled":false,"rental_uris":{"android":"levelo://app?vid=12502785-0416-48b1-ace3-e097f07644a4","ios":"levelo://app?vid=12502785-0416-48b1-ace3-e097f07644a4"},"vehicle_type_id":"4","last_reported":1698620767,"current_range_meters":30000,"station_id":"ce4bgv12rcd13ifvqcp0","pricing_plan_id":"free"},{"bike_id":"dd19d9ac-aa90-45a2-8163-da0aeeea09b9","system_id":"levelo_inurba_marseille","lat":43.311722,"lon":5.387247,"is_reserved":false,"is_disabled":false,"rental_uris":{"android":"levelo://app?vid=dd19d9ac-aa90-45a2-8163-da0aeeea09b9","ios":"levelo://app?vid=dd19d9ac-aa90-45a2-8163-da0aeeea09b9"},"vehicle_type_id":"4","last_reported":1698620767,"current_range_meters":31600,"station_id":"ce4bgv12rcd13ifvqcp0","pricing_plan_id":"free"},{"bike_id":"261ee04e-503f-442a-92b8-9a21484fc4c3","system_id":"levelo_inurba_marseille","lat":43.311722,"lon":5.387247,"is_reserved":false,"is_disabled":false,"rental_uris":{"android":"levelo://app?vid=261ee04e-503f-442a-92b8-9a21484fc4c3","ios":"levelo://app?vid=261ee04e-503f-442a-92b8-9a21484fc4c3"},"vehicle_type_id":"4","last_reported":1698620767,"current_range_meters":31200,"station_id":"ce4bgv12rcd13ifvqcp0","pricing_plan_id":"free"},{"bike_id":"5188b664-334e-478e-a6c2-7c462c912c53","system_id":"levelo_inurba_marseille","lat":43.311722,"lon":5.387247,"is_reserved":false,"is_disabled":false,"rental_uris":{"android":"levelo://app?vid=5188b664-334e-478e-a6c2-7c462c912c53","ios":"levelo://app?vid=5188b664-334e-478e-a6c2-7c462c912c53"},"vehicle_type_id":"4","last_reported":1698620767,"current_range_meters":17600,"station_id":"ce4bgv12rcd13ifvqcp0","pricing_plan_id":"free"},{"bike_id":"2afa9301-dba6-48a6-9325-b09e5580a843","system_id":"levelo_inurba_marseille","lat":43.311722,"lon":5.387247,"is_reserved":false,"is_disabled":false,"rental_uris":{"android":"levelo://app?vid=2afa9301-dba6-48a6-9325-b09e5580a843","ios":"levelo://app?vid=2afa9301-dba6-48a6-9325-b09e5580a843"},"vehicle_type_id":"4","last_reported":1698620767,"current_range_meters":19200,"station_id":"ce4bgv12rcd13ifvqcp0","pricing_plan_id":"free"},{"bike_id":"d73bdb55-9b1c-4e22-b38b-50c2237083a0","system_id":"levelo_inurba_marseille","lat":43.311722,"lon":5.387247,"is_reserved":false,"is_disabled":false,"rental_uris":{"android":"levelo://app?vid=d73bdb55-9b1c-4e22-b38b-50c2237083a0","ios":"levelo://app?vid=d73bdb55-9b1c-4e22-b38b-50c2237083a0"},"vehicle_type_id":"4","last_reported":1698620767,"current_range_meters":14400,"station_id":"ce4bgv12rcd13ifvqcp0","pricing_plan_id":"free"},{"bike_id":"49754a0f-6c4f-41ac-9039-11c63b693080","system_id":"levelo_inurba_marseille","lat":43.328371,"lon":5.366909,"is_reserved":false,"is_disabled":false,"rental_uris":{"android":"levelo://app?vid=49754a0f-6c4f-41ac-9039-11c63b693080","ios":"levelo://app?vid=49754a0f-6c4f-41ac-9039-11c63b693080"},"vehicle_type_id":"4","last_reported":1698620767,"current_range_meters":17200,"station_id":"ce4bhs92rcd13ifvqi0g","pricing_plan_id":"free"},{"bike_id":"b268b5a1-f520-4edd-b3be-a567d7dc309c","system_id":"levelo_inurba_marseille","lat":43.328371,"lon":5.366909,"is_reserved":false,"is_disabled":false,"rental_uris":{"android":"levelo://app?vid=b268b5a1-f520-4edd-b3be-a567d7dc309c","ios":"levelo://app?vid=b268b5a1-f520-4edd-b3be-a567d7dc309c"},"vehicle_type_id":"4","last_reported":1698620767,"current_range_meters":22800,"station_id":"ce4bhs92rcd13ifvqi0g","pricing_plan_id":"free"},{"bike_id":"1401713a-906e-435e-8b48-1afc57029fa7","system_id":"levelo_inurba_marseille","lat":43.328371,"lon":5.366909,"is_reserved":false,"is_disabled":false,"rental_uris":{"android":"levelo://app?vid=1401713a-906e-435e-8b48-1afc57029fa7","ios":"levelo://app?vid=1401713a-906e-435e-8b48-1afc57029fa7"},"vehicle_type_id":"4","last_reported":1698620767,"current_range_meters":11200,"station_id":"ce4bhs92rcd13ifvqi0g","pricing_plan_id":"free"},{"bike_id":"2bf09692-7151-4aba-9fa7-8ce1d6106004","system_id":"levelo_inurba_marseille","lat":43.328303,"lon":5.366873,"is_reserved":false,"is_disabled":false,"rental_uris":{"android":"levelo://app?vid=2bf09692-7151-4aba-9fa7-8ce1d6106004","ios":"levelo://app?vid=2bf09692-7151-4aba-9fa7-8ce1d6106004"},"vehicle_type_id":"4","last_reported":1698620767,"current_range_meters":7600,"station_id":"","pricing_plan_id":"free"},{"bike_id":"ca43266d-8f64-4304-9316-b8acc0650052","system_id":"levelo_inurba_marseille","lat":43.328371,"lon":5.366909,"is_reserved":false,"is_disabled":false,"rental_uris":{"android":"levelo://app?vid=ca43266d-8f64-4304-9316-b8acc0650052","ios":"levelo://app?vid=ca43266d-8f64-4304-9316-b8acc0650052"},"vehicle_type_id":"4","last_reported":1698620767,"current_range_meters":3200,"station_id":"ce4bhs92rcd13ifvqi0g","pricing_plan_id":"free"},{"bike_id":"7058fde7-e208-4c67-9c3f-b8160ae07a6d","system_id":"levelo_inurba_marseille","lat":43.328371,"lon":5.366909,"is_reserved":false,"is_disabled":false,"rental_uris":{"android":"levelo://app?vid=7058fde7-e208-4c67-9c3f-b8160ae07a6d","ios":"levelo://app?vid=7058fde7-e208-4c67-9c3f-b8160ae07a6d"},"vehicle_type_id":"4","last_reported":1698620767,"current_range_meters":12000,"station_id":"ce4bhs92rcd13ifvqi0g","pricing_plan_id":"free"},{"bike_id":"86bb0a20-8123-4e0e-84f3-756c4bdb05df","system_id":"levelo_inurba_marseille","lat":43.32833,"lon":5.3669,"is_reserved":false,"is_disabled":false,"rental_uris":{"android":"levelo://app?vid=86bb0a20-8123-4e0e-84f3-756c4bdb05df","ios":"levelo://app?vid=86bb0a20-8123-4e0e-84f3-756c4bdb05df"},"vehicle_type_id":"4","last_reported":1698620767,"current_range_meters":18400,"station_id":"ce4bhs92rcd13ifvqi0g","pricing_plan_id":"free"},{"bike_id":"98cdae56-93ed-4430-a8b5-f41663ddefc0","system_id":"levelo_inurba_marseille","lat":43.328371,"lon":5.366909,"is_reserved":false,"is_disabled":false,"rental_uris":{"android":"levelo://app?vid=98cdae56-93ed-4430-a8b5-f41663ddefc0","ios":"levelo://app?vid=98cdae56-93ed-4430-a8b5-f41663ddefc0"},"vehicle_type_id":"4","last_reported":1698620767,"current_range_meters":30800,"station_id":"ce4bhs92rcd13ifvqi0g","pricing_plan_id":"free"},{"bike_id":"dd1c0b20-019a-4f88-ae15-bb2c3eed70ed","system_id":"levelo_inurba_marseille","lat":43.319049,"lon":5.387963,"is_reserved":false,"is_disabled":false,"rental_uris":{"android":"levelo://app?vid=dd1c0b20-019a-4f88-ae15-bb2c3eed70ed","ios":"levelo://app?vid=dd1c0b20-019a-4f88-ae15-bb2c3eed70ed"},"vehicle_type_id":"4","last_reported":1698620767,"current_range_meters":0,"station_id":"","pricing_plan_id":"free"},{"bike_id":"32b40b5f-ad70-4674-85c0-0b1e9703c048","system_id":"levelo_inurba_marseille","lat":43.296131,"lon":5.370791,"is_reserved":false,"is_disabled":false,"rental_uris":{"android":"levelo://app?vid=32b40b5f-ad70-4674-85c0-0b1e9703c048","ios":"levelo://app?vid=32b40b5f-ad70-4674-85c0-0b1e9703c048"},"vehicle_type_id":"4","last_reported":1698620767,"current_range_meters":10000,"station_id":"ce4bgnh2rcd13ifvqc0g","pricing_plan_id":"free"},{"bike_id":"ab8657c9-bbec-4f10-85d4-9bf12b3cc817","system_id":"levelo_inurba_marseille","lat":43.29618,"lon":5.37155,"is_reserved":false,"is_disabled":false,"rental_uris":{"android":"levelo://app?vid=ab8657c9-bbec-4f10-85d4-9bf12b3cc817","ios":"levelo://app?vid=ab8657c9-bbec-4f10-85d4-9bf12b3cc817"},"vehicle_type_id":"4","last_reported":1698620767,"current_range_meters":10000,"station_id":"ce4bgnh2rcd13ifvqc0g","pricing_plan_id":"free"},{"bike_id":"f3d0381f-7a2d-409e-a12f-bd3d9095653d","system_id":"levelo_inurba_marseille","lat":43.329673,"lon":5.365468,"is_reserved":false,"is_disabled":false,"rental_uris":{"android":"levelo://app?vid=f3d0381f-7a2d-409e-a12f-bd3d9095653d","ios":"levelo://app?vid=f3d0381f-7a2d-409e-a12f-bd3d9095653d"},"vehicle_type_id":"4","last_reported":1698620767,"current_range_meters":0,"station_id":"","pricing_plan_id":"free"},{"bike_id":"bca23f9a-1efe-4432-af0c-4a08a2b6c98d","system_id":"levelo_inurba_marseille","lat":43.29916,"lon":5.38132,"is_reserved":false,"is_disabled":false,"rental_uris":{"android":"levelo://app?vid=bca23f9a-1efe-4432-af0c-4a08a2b6c98d","ios":"levelo://app?vid=bca23f9a-1efe-4432-af0c-4a08a2b6c98d"},"vehicle_type_id":"4","last_reported":1698620767,"current_range_meters":16000,"station_id":"ce4bgnh2rcd13ifvqc0g","pricing_plan_id":"free"},{"bike_id":"db030a99-cf55-45ef-8227-74482cff3ef8","system_id":"levelo_inurba_marseille","lat":43.309589,"lon":5.390258,"is_reserved":false,"is_disabled":false,"rental_uris":{"android":"levelo://app?vid=db030a99-cf55-45ef-8227-74482cff3ef8","ios":"levelo://app?vid=db030a99-cf55-45ef-8227-74482cff3ef8"},"vehicle_type_id":"4","last_reported":1698620767,"current_range_meters":20400,"station_id":"ce4bgup2rcd13ifvqco0","pricing_plan_id":"free"},{"bike_id":"1d2c5514-6961-4ee6-952e-694f4d60fad5","system_id":"levelo_inurba_marseille","lat":43.317557,"lon":5.390173,"is_reserved":false,"is_disabled":false,"rental_uris":{"android":"levelo://app?vid=1d2c5514-6961-4ee6-952e-694f4d60fad5","ios":"levelo://app?vid=1d2c5514-6961-4ee6-952e-694f4d60fad5"},"vehicle_type_id":"4","last_reported":1698620767,"current_range_meters":11200,"station_id":"ce4bhqp2rcd13ifvqhng","pricing_plan_id":"free"},{"bike_id":"d2330b69-e424-41d8-a009-0931c9af4488","system_id":"levelo_inurba_marseille","lat":43.317557,"lon":5.390173,"is_reserved":false,"is_disabled":false,"rental_uris":{"android":"levelo://app?vid=d2330b69-e424-41d8-a009-0931c9af4488","ios":"levelo://app?vid=d2330b69-e424-41d8-a009-0931c9af4488"},"vehicle_type_id":"4","last_reported":1698620767,"current_range_meters":11600,"station_id":"ce4bhqp2rcd13ifvqhng","pricing_plan_id":"free"},{"bike_id":"be328c6d-4598-44fd-84c7-bc9e91c0afce","system_id":"levelo_inurba_marseille","lat":43.30424,"lon":5.388822,"is_reserved":false,"is_disabled":false,"rental_uris":{"android":"levelo://app?vid=be328c6d-4598-44fd-84c7-bc9e91c0afce","ios":"levelo://app?vid=be328c6d-4598-44fd-84c7-bc9e91c0afce"},"vehicle_type_id":"4","last_reported":1698620767,"current_range_meters":24800,"station_id":"ce4bgk12rcd13ifvqbi0","pricing_plan_id":"free"},{"bike_id":"090ded91-e619-4fdb-9c4b-371caa9a8fb7","system_id":"levelo_inurba_marseille","lat":43.30434,"lon":5.38892,"is_reserved":false,"is_disabled":false,"rental_uris":{"android":"levelo://app?vid=090ded91-e619-4fdb-9c4b-371caa9a8fb7","ios":"levelo://app?vid=090ded91-e619-4fdb-9c4b-371caa9a8fb7"},"vehicle_type_id":"4","last_reported":1698620767,"current_range_meters":23600,"station_id":"ce4bgk12rcd13ifvqbi0","pricing_plan_id":"free"},{"bike_id":"04637a05-d902-46c2-bf63-7d66b308efe1","system_id":"levelo_inurba_marseille","lat":43.304274,"lon":5.388873,"is_reserved":false,"is_disabled":false,"rental_uris":{"android":"levelo://app?vid=04637a05-d902-46c2-bf63-7d66b308efe1","ios":"levelo://app?vid=04637a05-d902-46c2-bf63-7d66b308efe1"},"vehicle_type_id":"4","last_reported":1698620767,"current_range_meters":10400,"station_id":"ce4bgk12rcd13ifvqbi0","pricing_plan_id":"free"},{"bike_id":"95de5542-6169-4cc9-ac6c-3d5eadba97c0","system_id":"levelo_inurba_marseille","lat":43.32366,"lon":5.38882,"is_reserved":false,"is_disabled":false,"rental_uris":{"android":"levelo://app?vid=95de5542-6169-4cc9-ac6c-3d5eadba97c0","ios":"levelo://app?vid=95de5542-6169-4cc9-ac6c-3d5eadba97c0"},"vehicle_type_id":"4","last_reported":1698620767,"current_range_meters":0,"station_id":"ce4bhqp2rcd13ifvqhog","pricing_plan_id":"free"},{"bike_id":"59f50a34-44ec-4c1e-849a-f5f6e0c5e7e4","system_id":"levelo_inurba_marseille","lat":43.323663,"lon":5.38882,"is_reserved":false,"is_disabled":false,"rental_uris":{"android":"levelo://app?vid=59f50a34-44ec-4c1e-849a-f5f6e0c5e7e4","ios":"levelo://app?vid=59f50a34-44ec-4c1e-849a-f5f6e0c5e7e4"},"vehicle_type_id":"4","last_reported":1698620767,"current_range_meters":28000,"station_id":"ce4bhqp2rcd13ifvqhog","pricing_plan_id":"free"},{"bike_id":"fffdb89f-d0fa-48b2-8a15-e8865b4139a1","system_id":"levelo_inurba_marseille","lat":43.32367,"lon":5.388836,"is_reserved":false,"is_disabled":false,"rental_uris":{"android":"levelo://app?vid=fffdb89f-d0fa-48b2-8a15-e8865b4139a1","ios":"levelo://app?vid=fffdb89f-d0fa-48b2-8a15-e8865b4139a1"},"vehicle_type_id":"4","last_reported":1698620767,"current_range_meters":800,"station_id":"ce4bhqp2rcd13ifvqhog","pricing_plan_id":"free"},{"bike_id":"671e2fdc-9d8d-4dcf-9e86-540fefa301cc","system_id":"levelo_inurba_marseille","lat":43.32367,"lon":5.38883,"is_reserved":false,"is_disabled":false,"rental_uris":{"android":"levelo://app?vid=671e2fdc-9d8d-4dcf-9e86-540fefa301cc","ios":"levelo://app?vid=671e2fdc-9d8d-4dcf-9e86-540fefa301cc"},"vehicle_type_id":"4","last_reported":1698620767,"current_range_meters":8000,"station_id":"ce4bhqp2rcd13ifvqhog","pricing_plan_id":"free"},{"bike_id":"67bb7dbe-50ea-4249-bc98-d0ad4814b4a6","system_id":"levelo_inurba_marseille","lat":43.32367,"lon":5.388836,"is_reserved":false,"is_disabled":false,"rental_uris":{"android":"levelo://app?vid=67bb7dbe-50ea-4249-bc98-d0ad4814b4a6","ios":"levelo://app?vid=67bb7dbe-50ea-4249-bc98-d0ad4814b4a6"},"vehicle_type_id":"4","last_reported":1698620767,"current_range_meters":6800,"station_id":"ce4bhqp2rcd13ifvqhog","pricing_plan_id":"free"},{"bike_id":"abd10a78-59c2-400e-a7fb-7c39367f0939","system_id":"levelo_inurba_marseille","lat":43.323862,"lon":5.389279,"is_reserved":false,"is_disabled":false,"rental_uris":{"android":"levelo://app?vid=abd10a78-59c2-400e-a7fb-7c39367f0939","ios":"levelo://app?vid=abd10a78-59c2-400e-a7fb-7c39367f0939"},"vehicle_type_id":"4","last_reported":1698620767,"current_range_meters":0,"station_id":"ce4bhqp2rcd13ifvqhog","pricing_plan_id":"free"},{"bike_id":"91e8a461-9ac5-4aab-b94b-461c2963fe99","system_id":"levelo_inurba_marseille","lat":43.292951,"lon":5.374439,"is_reserved":false,"is_disabled":false,"rental_uris":{"android":"levelo://app?vid=91e8a461-9ac5-4aab-b94b-461c2963fe99","ios":"levelo://app?vid=91e8a461-9ac5-4aab-b94b-461c2963fe99"},"vehicle_type_id":"4","last_reported":1698620767,"current_range_meters":0,"station_id":"ce4bgi12rcd13ifvqb70","pricing_plan_id":"free"},{"bike_id":"a9f7a4d6-016a-4848-89e2-07121985d347","system_id":"levelo_inurba_marseille","lat":43.303002,"lon":5.392142,"is_reserved":false,"is_disabled":false,"rental_uris":{"android":"levelo://app?vid=a9f7a4d6-016a-4848-89e2-07121985d347","ios":"levelo://app?vid=a9f7a4d6-016a-4848-89e2-07121985d347"},"vehicle_type_id":"4","last_reported":1698620767,"current_range_meters":26000,"station_id":"ce4bgkh2rcd13ifvqbk0","pricing_plan_id":"free"},{"bike_id":"195dd465-44c8-4755-acf0-6a87229efd51","system_id":"levelo_inurba_marseille","lat":43.302992,"lon":5.392136,"is_reserved":false,"is_disabled":false,"rental_uris":{"android":"levelo://app?vid=195dd465-44c8-4755-acf0-6a87229efd51","ios":"levelo://app?vid=195dd465-44c8-4755-acf0-6a87229efd51"},"vehicle_type_id":"4","last_reported":1698620767,"current_range_meters":15600,"station_id":"ce4bgkh2rcd13ifvqbk0","pricing_plan_id":"free"},{"bike_id":"4ef65eb2-2c09-4908-9f2a-bec46e0323ed","system_id":"levelo_inurba_marseille","lat":43.2936,"lon":5.37835,"is_reserved":false,"is_disabled":false,"rental_uris":{"android":"levelo://app?vid=4ef65eb2-2c09-4908-9f2a-bec46e0323ed","ios":"levelo://app?vid=4ef65eb2-2c09-4908-9f2a-bec46e0323ed"},"vehicle_type_id":"4","last_reported":1698620767,"current_range_meters":21600,"station_id":"ce4bgjh2rcd13ifvqbf0","pricing_plan_id":"free"},{"bike_id":"02b332b2-028e-4a4a-b4a5-ea3d482bd099","system_id":"levelo_inurba_marseille","lat":43.298764,"lon":5.388973,"is_reserved":false,"is_disabled":false,"rental_uris":{"android":"levelo://app?vid=02b332b2-028e-4a4a-b4a5-ea3d482bd099","ios":"levelo://app?vid=02b332b2-028e-4a4a-b4a5-ea3d482bd099"},"vehicle_type_id":"4","last_reported":1698620767,"current_range_meters":6800,"station_id":"ce4bh392rcd13ifvqdl0","pricing_plan_id":"free"},{"bike_id":"0e8233d2-0d57-470f-8c07-e9f753046a4f","system_id":"levelo_inurba_marseille","lat":43.332197,"lon":5.379064,"is_reserved":false,"is_disabled":false,"rental_uris":{"android":"levelo://app?vid=0e8233d2-0d57-470f-8c07-e9f753046a4f","ios":"levelo://app?vid=0e8233d2-0d57-470f-8c07-e9f753046a4f"},"vehicle_type_id":"4","last_reported":1698620767,"current_range_meters":27600,"station_id":"","pricing_plan_id":"free"},{"bike_id":"1f580447-7b2c-4630-9a51-33e28281b372","system_id":"levelo_inurba_marseille","lat":43.332219,"lon":5.380002,"is_reserved":false,"is_disabled":false,"rental_uris":{"android":"levelo://app?vid=1f580447-7b2c-4630-9a51-33e28281b372","ios":"levelo://app?vid=1f580447-7b2c-4630-9a51-33e28281b372"},"vehicle_type_id":"4","last_reported":1698620767,"current_range_meters":30400,"station_id":"","pricing_plan_id":"free"},{"bike_id":"3e585604-efbe-4353-840b-177e55fb1fbd","system_id":"levelo_inurba_marseille","lat":43.308758,"lon":5.396306,"is_reserved":false,"is_disabled":false,"rental_uris":{"android":"levelo://app?vid=3e585604-efbe-4353-840b-177e55fb1fbd","ios":"levelo://app?vid=3e585604-efbe-4353-840b-177e55fb1fbd"},"vehicle_type_id":"4","last_reported":1698620767,"current_range_meters":0,"station_id":"ce4bh012rcd13ifvqcv0","pricing_plan_id":"free"},{"bike_id":"aeeb5a82-e087-4b99-a3b0-ca4d3d77a75b","system_id":"levelo_inurba_marseille","lat":43.313291,"lon":5.396838,"is_reserved":false,"is_disabled":false,"rental_uris":{"android":"levelo://app?vid=aeeb5a82-e087-4b99-a3b0-ca4d3d77a75b","ios":"levelo://app?vid=aeeb5a82-e087-4b99-a3b0-ca4d3d77a75b"},"vehicle_type_id":"4","last_reported":1698620767,"current_range_meters":15600,"station_id":"ce4bgvp2rcd13ifvqcu0","pricing_plan_id":"free"},{"bike_id":"1ccea910-e6fd-4ade-beaa-d1141e72e330","system_id":"levelo_inurba_marseille","lat":43.313336,"lon":5.396909,"is_reserved":false,"is_disabled":false,"rental_uris":{"android":"levelo://app?vid=1ccea910-e6fd-4ade-beaa-d1141e72e330","ios":"levelo://app?vid=1ccea910-e6fd-4ade-beaa-d1141e72e330"},"vehicle_type_id":"4","last_reported":1698620767,"current_range_meters":16400,"station_id":"ce4bgvp2rcd13ifvqcu0","pricing_plan_id":"free"},{"bike_id":"5f8000e6-fee4-4289-9ec1-1d056f93d057","system_id":"levelo_inurba_marseille","lat":43.309047,"lon":5.396551,"is_reserved":false,"is_disabled":false,"rental_uris":{"android":"levelo://app?vid=5f8000e6-fee4-4289-9ec1-1d056f93d057","ios":"levelo://app?vid=5f8000e6-fee4-4289-9ec1-1d056f93d057"},"vehicle_type_id":"4","last_reported":1698620767,"current_range_meters":7600,"station_id":"ce4bh012rcd13ifvqcv0","pricing_plan_id":"free"},{"bike_id":"18b45b95-637c-4f0e-b4c7-c0583efea8e4","system_id":"levelo_inurba_marseille","lat":43.31332,"lon":5.39694,"is_reserved":false,"is_disabled":false,"rental_uris":{"android":"levelo://app?vid=18b45b95-637c-4f0e-b4c7-c0583efea8e4","ios":"levelo://app?vid=18b45b95-637c-4f0e-b4c7-c0583efea8e4"},"vehicle_type_id":"4","last_reported":1698620767,"current_range_meters":800,"station_id":"ce4bgvp2rcd13ifvqcu0","pricing_plan_id":"free"},{"bike_id":"a7f66838-cd85-4d19-addb-be683bb2a208","system_id":"levelo_inurba_marseille","lat":43.309047,"lon":5.396551,"is_reserved":false,"is_disabled":false,"rental_uris":{"android":"levelo://app?vid=a7f66838-cd85-4d19-addb-be683bb2a208","ios":"levelo://app?vid=a7f66838-cd85-4d19-addb-be683bb2a208"},"vehicle_type_id":"4","last_reported":1698620767,"current_range_meters":6800,"station_id":"ce4bh012rcd13ifvqcv0","pricing_plan_id":"free"},{"bike_id":"af91bb6f-2924-4403-b911-b6b7a73f8fb2","system_id":"levelo_inurba_marseille","lat":43.302008,"lon":5.394694,"is_reserved":false,"is_disabled":false,"rental_uris":{"android":"levelo://app?vid=af91bb6f-2924-4403-b911-b6b7a73f8fb2","ios":"levelo://app?vid=af91bb6f-2924-4403-b911-b6b7a73f8fb2"},"vehicle_type_id":"4","last_reported":1698620767,"current_range_meters":28800,"station_id":"ce4bh0p2rcd13ifvqd70","pricing_plan_id":"free"},{"bike_id":"50c18bdd-0db2-4c20-b74f-f972af7f0cc1","system_id":"levelo_inurba_marseille","lat":43.302008,"lon":5.394694,"is_reserved":false,"is_disabled":false,"rental_uris":{"android":"levelo://app?vid=50c18bdd-0db2-4c20-b74f-f972af7f0cc1","ios":"levelo://app?vid=50c18bdd-0db2-4c20-b74f-f972af7f0cc1"},"vehicle_type_id":"4","last_reported":1698620767,"current_range_meters":6800,"station_id":"ce4bh0p2rcd13ifvqd70","pricing_plan_id":"free"},{"bike_id":"9e186f55-d906-4b54-9553-eed70e222375","system_id":"levelo_inurba_marseille","lat":43.331093,"lon":5.385637,"is_reserved":false,"is_disabled":false,"rental_uris":{"android":"levelo://app?vid=9e186f55-d906-4b54-9553-eed70e222375","ios":"levelo://app?vid=9e186f55-d906-4b54-9553-eed70e222375"},"vehicle_type_id":"4","last_reported":1698620767,"current_range_meters":23600,"station_id":"","pricing_plan_id":"free"},{"bike_id":"4633c36c-a833-4a06-b9c5-5c08f6da6fee","system_id":"levelo_inurba_marseille","lat":43.29575,"lon":5.38818,"is_reserved":false,"is_disabled":false,"rental_uris":{"android":"levelo://app?vid=4633c36c-a833-4a06-b9c5-5c08f6da6fee","ios":"levelo://app?vid=4633c36c-a833-4a06-b9c5-5c08f6da6fee"},"vehicle_type_id":"4","last_reported":1698620767,"current_range_meters":20800,"station_id":"","pricing_plan_id":"free"},{"bike_id":"f873fe12-dc0b-424b-9955-e29b5b1b33f6","system_id":"levelo_inurba_marseille","lat":43.294162,"lon":5.386292,"is_reserved":false,"is_disabled":false,"rental_uris":{"android":"levelo://app?vid=f873fe12-dc0b-424b-9955-e29b5b1b33f6","ios":"levelo://app?vid=f873fe12-dc0b-424b-9955-e29b5b1b33f6"},"vehicle_type_id":"4","last_reported":1698620767,"current_range_meters":30000,"station_id":"ce4bh2h2rcd13ifvqdh0","pricing_plan_id":"free"},{"bike_id":"1773622b-9ee7-451c-a816-7cc525024ce1","system_id":"levelo_inurba_marseille","lat":43.289468,"lon":5.363719,"is_reserved":false,"is_disabled":false,"rental_uris":{"android":"levelo://app?vid=1773622b-9ee7-451c-a816-7cc525024ce1","ios":"levelo://app?vid=1773622b-9ee7-451c-a816-7cc525024ce1"},"vehicle_type_id":"4","last_reported":1698620767,"current_range_meters":12000,"station_id":"ce4bhc92rcd13ifvqetg","pricing_plan_id":"free"},{"bike_id":"a6211470-cd0a-40a4-858e-c8c486bfd8b1","system_id":"levelo_inurba_marseille","lat":43.289468,"lon":5.363719,"is_reserved":false,"is_disabled":false,"rental_uris":{"android":"levelo://app?vid=a6211470-cd0a-40a4-858e-c8c486bfd8b1","ios":"levelo://app?vid=a6211470-cd0a-40a4-858e-c8c486bfd8b1"},"vehicle_type_id":"4","last_reported":1698620767,"current_range_meters":31200,"station_id":"ce4bhc92rcd13ifvqetg","pricing_plan_id":"free"},{"bike_id":"0697a4c7-e9b4-475e-b066-2c4aaff49118","system_id":"levelo_inurba_marseille","lat":43.289468,"lon":5.363719,"is_reserved":false,"is_disabled":false,"rental_uris":{"android":"levelo://app?vid=0697a4c7-e9b4-475e-b066-2c4aaff49118","ios":"levelo://app?vid=0697a4c7-e9b4-475e-b066-2c4aaff49118"},"vehicle_type_id":"4","last_reported":1698620767,"current_range_meters":16800,"station_id":"ce4bhc92rcd13ifvqetg","pricing_plan_id":"free"},{"bike_id":"46b0c2bd-3630-4db3-a1e6-5b1b785f7b6f","system_id":"levelo_inurba_marseille","lat":43.33043,"lon":5.38917,"is_reserved":false,"is_disabled":false,"rental_uris":{"android":"levelo://app?vid=46b0c2bd-3630-4db3-a1e6-5b1b785f7b6f","ios":"levelo://app?vid=46b0c2bd-3630-4db3-a1e6-5b1b785f7b6f"},"vehicle_type_id":"4","last_reported":1698620767,"current_range_meters":7200,"station_id":"ce4bhr92rcd13ifvqhrg","pricing_plan_id":"free"},{"bike_id":"d5d3925f-f867-4392-8d62-29b79e249aaa","system_id":"levelo_inurba_marseille","lat":43.330442,"lon":5.389148,"is_reserved":false,"is_disabled":false,"rental_uris":{"android":"levelo://app?vid=d5d3925f-f867-4392-8d62-29b79e249aaa","ios":"levelo://app?vid=d5d3925f-f867-4392-8d62-29b79e249aaa"},"vehicle_type_id":"4","last_reported":1698620767,"current_range_meters":22000,"station_id":"ce4bhr92rcd13ifvqhrg","pricing_plan_id":"free"},{"bike_id":"c10da6c2-beda-4ee6-b96c-ba5d86476fb1","system_id":"levelo_inurba_marseille","lat":43.33042,"lon":5.38919,"is_reserved":false,"is_disabled":false,"rental_uris":{"android":"levelo://app?vid=c10da6c2-beda-4ee6-b96c-ba5d86476fb1","ios":"levelo://app?vid=c10da6c2-beda-4ee6-b96c-ba5d86476fb1"},"vehicle_type_id":"4","last_reported":1698620767,"current_range_meters":18400,"station_id":"ce4bhr92rcd13ifvqhrg","pricing_plan_id":"free"},{"bike_id":"64144b34-46b8-45e1-aab1-3423b2bc3cdf","system_id":"levelo_inurba_marseille","lat":43.290104,"lon":5.356111,"is_reserved":false,"is_disabled":false,"rental_uris":{"android":"levelo://app?vid=64144b34-46b8-45e1-aab1-3423b2bc3cdf","ios":"levelo://app?vid=64144b34-46b8-45e1-aab1-3423b2bc3cdf"},"vehicle_type_id":"4","last_reported":1698620767,"current_range_meters":26000,"station_id":"ce4bhb92rcd13ifvqen0","pricing_plan_id":"free"},{"bike_id":"0eff0305-e9ce-4a1b-931b-a217ffec80d0","system_id":"levelo_inurba_marseille","lat":43.330442,"lon":5.389148,"is_reserved":false,"is_disabled":false,"rental_uris":{"android":"levelo://app?vid=0eff0305-e9ce-4a1b-931b-a217ffec80d0","ios":"levelo://app?vid=0eff0305-e9ce-4a1b-931b-a217ffec80d0"},"vehicle_type_id":"4","last_reported":1698620767,"current_range_meters":19600,"station_id":"ce4bhr92rcd13ifvqhrg","pricing_plan_id":"free"},{"bike_id":"8ec8b72c-dd6f-469d-aee0-017da7f125f4","system_id":"levelo_inurba_marseille","lat":43.330442,"lon":5.389148,"is_reserved":false,"is_disabled":false,"rental_uris":{"android":"levelo://app?vid=8ec8b72c-dd6f-469d-aee0-017da7f125f4","ios":"levelo://app?vid=8ec8b72c-dd6f-469d-aee0-017da7f125f4"},"vehicle_type_id":"4","last_reported":1698620767,"current_range_meters":4800,"station_id":"ce4bhr92rcd13ifvqhrg","pricing_plan_id":"free"},{"bike_id":"e56fac8a-9820-411e-a6f7-b51b7301494e","system_id":"levelo_inurba_marseille","lat":43.290104,"lon":5.356111,"is_reserved":false,"is_disabled":false,"rental_uris":{"android":"levelo://app?vid=e56fac8a-9820-411e-a6f7-b51b7301494e","ios":"levelo://app?vid=e56fac8a-9820-411e-a6f7-b51b7301494e"},"vehicle_type_id":"4","last_reported":1698620767,"current_range_meters":16800,"station_id":"ce4bhb92rcd13ifvqen0","pricing_plan_id":"free"},{"bike_id":"c95b86f4-0a16-4322-873d-952781f61794","system_id":"levelo_inurba_marseille","lat":43.290103,"lon":5.356114,"is_reserved":false,"is_disabled":false,"rental_uris":{"android":"levelo://app?vid=c95b86f4-0a16-4322-873d-952781f61794","ios":"levelo://app?vid=c95b86f4-0a16-4322-873d-952781f61794"},"vehicle_type_id":"4","last_reported":1698620767,"current_range_meters":4800,"station_id":"ce4bhb92rcd13ifvqen0","pricing_plan_id":"free"},{"bike_id":"dfc692d1-905e-4c58-930b-9b7620817eb4","system_id":"levelo_inurba_marseille","lat":43.290103,"lon":5.356114,"is_reserved":false,"is_disabled":false,"rental_uris":{"android":"levelo://app?vid=dfc692d1-905e-4c58-930b-9b7620817eb4","ios":"levelo://app?vid=dfc692d1-905e-4c58-930b-9b7620817eb4"},"vehicle_type_id":"4","last_reported":1698620767,"current_range_meters":26800,"station_id":"ce4bhb92rcd13ifvqen0","pricing_plan_id":"free"},{"bike_id":"51a9d447-9f51-4453-ac00-a564b0af2a9f","system_id":"levelo_inurba_marseille","lat":43.290104,"lon":5.356111,"is_reserved":false,"is_disabled":false,"rental_uris":{"android":"levelo://app?vid=51a9d447-9f51-4453-ac00-a564b0af2a9f","ios":"levelo://app?vid=51a9d447-9f51-4453-ac00-a564b0af2a9f"},"vehicle_type_id":"4","last_reported":1698620767,"current_range_meters":31200,"station_id":"ce4bhb92rcd13ifvqen0","pricing_plan_id":"free"},{"bike_id":"8a4cb22a-a2b6-4aeb-88e9-54480f7d381e","system_id":"levelo_inurba_marseille","lat":43.290104,"lon":5.356111,"is_reserved":false,"is_disabled":false,"rental_uris":{"android":"levelo://app?vid=8a4cb22a-a2b6-4aeb-88e9-54480f7d381e","ios":"levelo://app?vid=8a4cb22a-a2b6-4aeb-88e9-54480f7d381e"},"vehicle_type_id":"4","last_reported":1698620767,"current_range_meters":17200,"station_id":"ce4bhb92rcd13ifvqen0","pricing_plan_id":"free"},{"bike_id":"f27d2106-9d2e-4c71-a7e3-74a923829943","system_id":"levelo_inurba_marseille","lat":43.295169,"lon":5.390426,"is_reserved":false,"is_disabled":false,"rental_uris":{"android":"levelo://app?vid=f27d2106-9d2e-4c71-a7e3-74a923829943","ios":"levelo://app?vid=f27d2106-9d2e-4c71-a7e3-74a923829943"},"vehicle_type_id":"4","last_reported":1698620767,"current_range_meters":11600,"station_id":"ce4bh3p2rcd13ifvqdp0","pricing_plan_id":"free"},{"bike_id":"e0d713cd-ec81-44ec-8ba4-571dd76a2b05","system_id":"levelo_inurba_marseille","lat":43.295169,"lon":5.390426,"is_reserved":false,"is_disabled":false,"rental_uris":{"android":"levelo://app?vid=e0d713cd-ec81-44ec-8ba4-571dd76a2b05","ios":"levelo://app?vid=e0d713cd-ec81-44ec-8ba4-571dd76a2b05"},"vehicle_type_id":"4","last_reported":1698620767,"current_range_meters":22800,"station_id":"ce4bh3p2rcd13ifvqdp0","pricing_plan_id":"free"},{"bike_id":"162d9f4c-522d-4730-84ee-6144fa4f4405","system_id":"levelo_inurba_marseille","lat":43.297886,"lon":5.393384,"is_reserved":false,"is_disabled":false,"rental_uris":{"android":"levelo://app?vid=162d9f4c-522d-4730-84ee-6144fa4f4405","ios":"levelo://app?vid=162d9f4c-522d-4730-84ee-6144fa4f4405"},"vehicle_type_id":"4","last_reported":1698620767,"current_range_meters":12000,"station_id":"chh1huq6cuj3fo74tm60","pricing_plan_id":"free"},{"bike_id":"172324cb-6880-41b8-8f96-59dfd5aaad69","system_id":"levelo_inurba_marseille","lat":43.297812,"lon":5.39339,"is_reserved":false,"is_disabled":false,"rental_uris":{"android":"levelo://app?vid=172324cb-6880-41b8-8f96-59dfd5aaad69","ios":"levelo://app?vid=172324cb-6880-41b8-8f96-59dfd5aaad69"},"vehicle_type_id":"4","last_reported":1698620767,"current_range_meters":10800,"station_id":"chh1huq6cuj3fo74tm60","pricing_plan_id":"free"},{"bike_id":"d6c2b89a-784d-47e9-ab63-3f943866ae8c","system_id":"levelo_inurba_marseille","lat":43.297815,"lon":5.393548,"is_reserved":false,"is_disabled":false,"rental_uris":{"android":"levelo://app?vid=d6c2b89a-784d-47e9-ab63-3f943866ae8c","ios":"levelo://app?vid=d6c2b89a-784d-47e9-ab63-3f943866ae8c"},"vehicle_type_id":"4","last_reported":1698620767,"current_range_meters":8400,"station_id":"chh1huq6cuj3fo74tm60","pricing_plan_id":"free"},{"bike_id":"c97dfb48-aa62-457e-a1a0-66a34a44bae4","system_id":"levelo_inurba_marseille","lat":43.295169,"lon":5.390426,"is_reserved":false,"is_disabled":false,"rental_uris":{"android":"levelo://app?vid=c97dfb48-aa62-457e-a1a0-66a34a44bae4","ios":"levelo://app?vid=c97dfb48-aa62-457e-a1a0-66a34a44bae4"},"vehicle_type_id":"4","last_reported":1698620767,"current_range_meters":10400,"station_id":"ce4bh3p2rcd13ifvqdp0","pricing_plan_id":"free"},{"bike_id":"13b584be-3b7b-491b-8737-0253eb7d1c6d","system_id":"levelo_inurba_marseille","lat":43.28856,"lon":5.358371,"is_reserved":false,"is_disabled":false,"rental_uris":{"android":"levelo://app?vid=13b584be-3b7b-491b-8737-0253eb7d1c6d","ios":"levelo://app?vid=13b584be-3b7b-491b-8737-0253eb7d1c6d"},"vehicle_type_id":"4","last_reported":1698620767,"current_range_meters":3200,"station_id":"ce4bhb12rcd13ifvqem0","pricing_plan_id":"free"},{"bike_id":"f0d92729-1eca-4397-bf1c-00e544b7f4e9","system_id":"levelo_inurba_marseille","lat":43.28856,"lon":5.358371,"is_reserved":false,"is_disabled":false,"rental_uris":{"android":"levelo://app?vid=f0d92729-1eca-4397-bf1c-00e544b7f4e9","ios":"levelo://app?vid=f0d92729-1eca-4397-bf1c-00e544b7f4e9"},"vehicle_type_id":"4","last_reported":1698620767,"current_range_meters":8000,"station_id":"ce4bhb12rcd13ifvqem0","pricing_plan_id":"free"},{"bike_id":"7ee0ef27-faeb-46b1-a529-2252ce86eb86","system_id":"levelo_inurba_marseille","lat":43.28856,"lon":5.358371,"is_reserved":false,"is_disabled":false,"rental_uris":{"android":"levelo://app?vid=7ee0ef27-faeb-46b1-a529-2252ce86eb86","ios":"levelo://app?vid=7ee0ef27-faeb-46b1-a529-2252ce86eb86"},"vehicle_type_id":"4","last_reported":1698620767,"current_range_meters":0,"station_id":"ce4bhb12rcd13ifvqem0","pricing_plan_id":"free"},{"bike_id":"7b79906c-0596-4ff7-857e-75b98276907f","system_id":"levelo_inurba_marseille","lat":43.28856,"lon":5.358371,"is_reserved":false,"is_disabled":false,"rental_uris":{"android":"levelo://app?vid=7b79906c-0596-4ff7-857e-75b98276907f","ios":"levelo://app?vid=7b79906c-0596-4ff7-857e-75b98276907f"},"vehicle_type_id":"4","last_reported":1698620767,"current_range_meters":27200,"station_id":"ce4bhb12rcd13ifvqem0","pricing_plan_id":"free"},{"bike_id":"5ab8e17e-809e-45e4-9dd3-67440142c155","system_id":"levelo_inurba_marseille","lat":43.309293,"lon":5.401343,"is_reserved":false,"is_disabled":false,"rental_uris":{"android":"levelo://app?vid=5ab8e17e-809e-45e4-9dd3-67440142c155","ios":"levelo://app?vid=5ab8e17e-809e-45e4-9dd3-67440142c155"},"vehicle_type_id":"4","last_reported":1698620767,"current_range_meters":2800,"station_id":"ce4bgvp2rcd13ifvqct0","pricing_plan_id":"free"},{"bike_id":"eed08c2b-a977-4b94-ac2b-5d046ba5de32","system_id":"levelo_inurba_marseille","lat":43.30931,"lon":5.40145,"is_reserved":false,"is_disabled":false,"rental_uris":{"android":"levelo://app?vid=eed08c2b-a977-4b94-ac2b-5d046ba5de32","ios":"levelo://app?vid=eed08c2b-a977-4b94-ac2b-5d046ba5de32"},"vehicle_type_id":"4","last_reported":1698620767,"current_range_meters":14800,"station_id":"ce4bgvp2rcd13ifvqct0","pricing_plan_id":"free"},{"bike_id":"ffc3fe4d-9429-4086-94ef-8f19136b3b3f","system_id":"levelo_inurba_marseille","lat":43.33753,"lon":5.374386,"is_reserved":false,"is_disabled":false,"rental_uris":{"android":"levelo://app?vid=ffc3fe4d-9429-4086-94ef-8f19136b3b3f","ios":"levelo://app?vid=ffc3fe4d-9429-4086-94ef-8f19136b3b3f"},"vehicle_type_id":"4","last_reported":1698620767,"current_range_meters":28800,"station_id":"","pricing_plan_id":"free"},{"bike_id":"ea05b300-2454-44b0-a78e-1f53848a01e1","system_id":"levelo_inurba_marseille","lat":43.306412,"lon":5.401035,"is_reserved":false,"is_disabled":false,"rental_uris":{"android":"levelo://app?vid=ea05b300-2454-44b0-a78e-1f53848a01e1","ios":"levelo://app?vid=ea05b300-2454-44b0-a78e-1f53848a01e1"},"vehicle_type_id":"4","last_reported":1698620767,"current_range_meters":7200,"station_id":"ce4bh112rcd13ifvqda0","pricing_plan_id":"free"},{"bike_id":"b231822a-119b-4312-911c-e2fb07219e92","system_id":"levelo_inurba_marseille","lat":43.337571,"lon":5.374607,"is_reserved":false,"is_disabled":false,"rental_uris":{"android":"levelo://app?vid=b231822a-119b-4312-911c-e2fb07219e92","ios":"levelo://app?vid=b231822a-119b-4312-911c-e2fb07219e92"},"vehicle_type_id":"4","last_reported":1698620767,"current_range_meters":26800,"station_id":"","pricing_plan_id":"free"},{"bike_id":"008e2b77-78c4-44d7-9932-2f5baf62ff68","system_id":"levelo_inurba_marseille","lat":43.306412,"lon":5.401035,"is_reserved":false,"is_disabled":false,"rental_uris":{"android":"levelo://app?vid=008e2b77-78c4-44d7-9932-2f5baf62ff68","ios":"levelo://app?vid=008e2b77-78c4-44d7-9932-2f5baf62ff68"},"vehicle_type_id":"4","last_reported":1698620767,"current_range_meters":9600,"station_id":"ce4bh112rcd13ifvqda0","pricing_plan_id":"free"},{"bike_id":"1edde51a-7c09-489b-93c9-6165023c56c7","system_id":"levelo_inurba_marseille","lat":43.337651,"lon":5.374318,"is_reserved":false,"is_disabled":false,"rental_uris":{"android":"levelo://app?vid=1edde51a-7c09-489b-93c9-6165023c56c7","ios":"levelo://app?vid=1edde51a-7c09-489b-93c9-6165023c56c7"},"vehicle_type_id":"4","last_reported":1698620767,"current_range_meters":18400,"station_id":"","pricing_plan_id":"free"},{"bike_id":"719733c6-957a-4c3e-b64a-aef2d958712f","system_id":"levelo_inurba_marseille","lat":43.306412,"lon":5.401035,"is_reserved":false,"is_disabled":false,"rental_uris":{"android":"levelo://app?vid=719733c6-957a-4c3e-b64a-aef2d958712f","ios":"levelo://app?vid=719733c6-957a-4c3e-b64a-aef2d958712f"},"vehicle_type_id":"4","last_reported":1698620767,"current_range_meters":3200,"station_id":"ce4bh112rcd13ifvqda0","pricing_plan_id":"free"},{"bike_id":"4e8e9bd3-b294-4140-8cca-99cb9742dede","system_id":"levelo_inurba_marseille","lat":43.30642,"lon":5.401031,"is_reserved":false,"is_disabled":false,"rental_uris":{"android":"levelo://app?vid=4e8e9bd3-b294-4140-8cca-99cb9742dede","ios":"levelo://app?vid=4e8e9bd3-b294-4140-8cca-99cb9742dede"},"vehicle_type_id":"4","last_reported":1698620767,"current_range_meters":6400,"station_id":"ce4bh112rcd13ifvqda0","pricing_plan_id":"free"},{"bike_id":"8fa49ebe-2c54-4f44-92f2-404b7cb9f180","system_id":"levelo_inurba_marseille","lat":43.306412,"lon":5.401035,"is_reserved":false,"is_disabled":false,"rental_uris":{"android":"levelo://app?vid=8fa49ebe-2c54-4f44-92f2-404b7cb9f180","ios":"levelo://app?vid=8fa49ebe-2c54-4f44-92f2-404b7cb9f180"},"vehicle_type_id":"4","last_reported":1698620767,"current_range_meters":28000,"station_id":"ce4bh112rcd13ifvqda0","pricing_plan_id":"free"},{"bike_id":"bb174b93-fcc8-4446-8457-f9658b318524","system_id":"levelo_inurba_marseille","lat":43.301117,"lon":5.398795,"is_reserved":false,"is_disabled":false,"rental_uris":{"android":"levelo://app?vid=bb174b93-fcc8-4446-8457-f9658b318524","ios":"levelo://app?vid=bb174b93-fcc8-4446-8457-f9658b318524"},"vehicle_type_id":"4","last_reported":1698620767,"current_range_meters":0,"station_id":"ce4bh0h2rcd13ifvqd40","pricing_plan_id":"free"},{"bike_id":"ef1808d4-4ef7-46ef-bd00-143cb54da8ad","system_id":"levelo_inurba_marseille","lat":43.28727,"lon":5.36078,"is_reserved":false,"is_disabled":false,"rental_uris":{"android":"levelo://app?vid=ef1808d4-4ef7-46ef-bd00-143cb54da8ad","ios":"levelo://app?vid=ef1808d4-4ef7-46ef-bd00-143cb54da8ad"},"vehicle_type_id":"4","last_reported":1698620767,"current_range_meters":16800,"station_id":"cki0cbj6b192h4jlfktg","pricing_plan_id":"free"},{"bike_id":"0f6931eb-6f1c-4afb-9de3-a9ff747fac84","system_id":"levelo_inurba_marseille","lat":43.28727,"lon":5.36078,"is_reserved":false,"is_disabled":false,"rental_uris":{"android":"levelo://app?vid=0f6931eb-6f1c-4afb-9de3-a9ff747fac84","ios":"levelo://app?vid=0f6931eb-6f1c-4afb-9de3-a9ff747fac84"},"vehicle_type_id":"4","last_reported":1698620767,"current_range_meters":31600,"station_id":"cki0cbj6b192h4jlfktg","pricing_plan_id":"free"},{"bike_id":"97abed36-146b-4f7a-bf59-cd8799f8738b","system_id":"levelo_inurba_marseille","lat":43.28727,"lon":5.36078,"is_reserved":false,"is_disabled":false,"rental_uris":{"android":"levelo://app?vid=97abed36-146b-4f7a-bf59-cd8799f8738b","ios":"levelo://app?vid=97abed36-146b-4f7a-bf59-cd8799f8738b"},"vehicle_type_id":"4","last_reported":1698620767,"current_range_meters":22400,"station_id":"cki0cbj6b192h4jlfktg","pricing_plan_id":"free"},{"bike_id":"a4c979c1-1788-46f0-a02c-ae0b8e10527d","system_id":"levelo_inurba_marseille","lat":43.298681,"lon":5.397225,"is_reserved":false,"is_disabled":false,"rental_uris":{"android":"levelo://app?vid=a4c979c1-1788-46f0-a02c-ae0b8e10527d","ios":"levelo://app?vid=a4c979c1-1788-46f0-a02c-ae0b8e10527d"},"vehicle_type_id":"4","last_reported":1698620767,"current_range_meters":18000,"station_id":"ce4bh0h2rcd13ifvqd50","pricing_plan_id":"free"},{"bike_id":"a616ee85-c1c1-4cc3-8754-d15aa0b3b2d5","system_id":"levelo_inurba_marseille","lat":43.286961,"lon":5.373785,"is_reserved":false,"is_disabled":false,"rental_uris":{"android":"levelo://app?vid=a616ee85-c1c1-4cc3-8754-d15aa0b3b2d5","ios":"levelo://app?vid=a616ee85-c1c1-4cc3-8754-d15aa0b3b2d5"},"vehicle_type_id":"4","last_reported":1698620767,"current_range_meters":12000,"station_id":"ce4bh3p2rcd13ifvqdq0","pricing_plan_id":"free"},{"bike_id":"1622a35e-0195-4296-9b74-d4034fae19e8","system_id":"levelo_inurba_marseille","lat":43.295194,"lon":5.39397,"is_reserved":false,"is_disabled":false,"rental_uris":{"android":"levelo://app?vid=1622a35e-0195-4296-9b74-d4034fae19e8","ios":"levelo://app?vid=1622a35e-0195-4296-9b74-d4034fae19e8"},"vehicle_type_id":"4","last_reported":1698620767,"current_range_meters":8800,"station_id":"ce4bh292rcd13ifvqdf0","pricing_plan_id":"free"},{"bike_id":"f5ea6c23-b1de-4aea-8411-0e3bd0d2ae2d","system_id":"levelo_inurba_marseille","lat":43.295196,"lon":5.39397,"is_reserved":false,"is_disabled":false,"rental_uris":{"android":"levelo://app?vid=f5ea6c23-b1de-4aea-8411-0e3bd0d2ae2d","ios":"levelo://app?vid=f5ea6c23-b1de-4aea-8411-0e3bd0d2ae2d"},"vehicle_type_id":"4","last_reported":1698620767,"current_range_meters":26800,"station_id":"ce4bh292rcd13ifvqdf0","pricing_plan_id":"free"},{"bike_id":"a8f2e19f-28dc-4a46-85d9-0b2ef65bb318","system_id":"levelo_inurba_marseille","lat":43.28932,"lon":5.38395,"is_reserved":false,"is_disabled":false,"rental_uris":{"android":"levelo://app?vid=a8f2e19f-28dc-4a46-85d9-0b2ef65bb318","ios":"levelo://app?vid=a8f2e19f-28dc-4a46-85d9-0b2ef65bb318"},"vehicle_type_id":"4","last_reported":1698620767,"current_range_meters":24400,"station_id":"ce4bh612rcd13ifvqe6g","pricing_plan_id":"free"},{"bike_id":"784f5d2d-5be3-4d28-a6a7-14e353d50978","system_id":"levelo_inurba_marseille","lat":43.28925,"lon":5.38389,"is_reserved":false,"is_disabled":false,"rental_uris":{"android":"levelo://app?vid=784f5d2d-5be3-4d28-a6a7-14e353d50978","ios":"levelo://app?vid=784f5d2d-5be3-4d28-a6a7-14e353d50978"},"vehicle_type_id":"4","last_reported":1698620767,"current_range_meters":19200,"station_id":"ce4bh612rcd13ifvqe6g","pricing_plan_id":"free"},{"bike_id":"54994914-4930-48f8-97ee-1f1552fb3885","system_id":"levelo_inurba_marseille","lat":43.289281,"lon":5.384004,"is_reserved":false,"is_disabled":false,"rental_uris":{"android":"levelo://app?vid=54994914-4930-48f8-97ee-1f1552fb3885","ios":"levelo://app?vid=54994914-4930-48f8-97ee-1f1552fb3885"},"vehicle_type_id":"4","last_reported":1698620767,"current_range_meters":31600,"station_id":"ce4bh612rcd13ifvqe6g","pricing_plan_id":"free"},{"bike_id":"4ae9f7e6-8057-406b-abb8-f0adc03adba3","system_id":"levelo_inurba_marseille","lat":43.289224,"lon":5.383894,"is_reserved":false,"is_disabled":false,"rental_uris":{"android":"levelo://app?vid=4ae9f7e6-8057-406b-abb8-f0adc03adba3","ios":"levelo://app?vid=4ae9f7e6-8057-406b-abb8-f0adc03adba3"},"vehicle_type_id":"4","last_reported":1698620767,"current_range_meters":27600,"station_id":"ce4bh612rcd13ifvqe6g","pricing_plan_id":"free"},{"bike_id":"35741105-56df-4cbe-9697-e65624c43e1d","system_id":"levelo_inurba_marseille","lat":43.28922,"lon":5.38389,"is_reserved":false,"is_disabled":false,"rental_uris":{"android":"levelo://app?vid=35741105-56df-4cbe-9697-e65624c43e1d","ios":"levelo://app?vid=35741105-56df-4cbe-9697-e65624c43e1d"},"vehicle_type_id":"4","last_reported":1698620767,"current_range_meters":31200,"station_id":"ce4bh612rcd13ifvqe6g","pricing_plan_id":"free"},{"bike_id":"56dce50a-5fce-48dc-a9f1-3e39a230c0d6","system_id":"levelo_inurba_marseille","lat":43.286039,"lon":5.370679,"is_reserved":false,"is_disabled":false,"rental_uris":{"android":"levelo://app?vid=56dce50a-5fce-48dc-a9f1-3e39a230c0d6","ios":"levelo://app?vid=56dce50a-5fce-48dc-a9f1-3e39a230c0d6"},"vehicle_type_id":"4","last_reported":1698620767,"current_range_meters":31200,"station_id":"ce4bht12rcd13ifvqi60","pricing_plan_id":"free"},{"bike_id":"0db9e5d0-a6a2-4bcc-b616-9f5cc668017f","system_id":"levelo_inurba_marseille","lat":43.28611,"lon":5.370547,"is_reserved":false,"is_disabled":false,"rental_uris":{"android":"levelo://app?vid=0db9e5d0-a6a2-4bcc-b616-9f5cc668017f","ios":"levelo://app?vid=0db9e5d0-a6a2-4bcc-b616-9f5cc668017f"},"vehicle_type_id":"4","last_reported":1698620767,"current_range_meters":2000,"station_id":"ce4bht12rcd13ifvqi60","pricing_plan_id":"free"},{"bike_id":"5fb1fda2-ecf7-47e7-89fa-3666ff7fb54b","system_id":"levelo_inurba_marseille","lat":43.28611,"lon":5.37061,"is_reserved":false,"is_disabled":false,"rental_uris":{"android":"levelo://app?vid=5fb1fda2-ecf7-47e7-89fa-3666ff7fb54b","ios":"levelo://app?vid=5fb1fda2-ecf7-47e7-89fa-3666ff7fb54b"},"vehicle_type_id":"4","last_reported":1698620767,"current_range_meters":25600,"station_id":"ce4bht12rcd13ifvqi60","pricing_plan_id":"free"},{"bike_id":"c5aee890-15dd-435e-b99d-549132d9c092","system_id":"levelo_inurba_marseille","lat":43.316478,"lon":5.404365,"is_reserved":false,"is_disabled":false,"rental_uris":{"android":"levelo://app?vid=c5aee890-15dd-435e-b99d-549132d9c092","ios":"levelo://app?vid=c5aee890-15dd-435e-b99d-549132d9c092"},"vehicle_type_id":"4","last_reported":1698620767,"current_range_meters":11600,"station_id":"ce4bh012rcd13ifvqd00","pricing_plan_id":"free"},{"bike_id":"6d81855b-3bce-43e2-9bea-3cccd308f39e","system_id":"levelo_inurba_marseille","lat":43.28464,"lon":5.35883,"is_reserved":false,"is_disabled":false,"rental_uris":{"android":"levelo://app?vid=6d81855b-3bce-43e2-9bea-3cccd308f39e","ios":"levelo://app?vid=6d81855b-3bce-43e2-9bea-3cccd308f39e"},"vehicle_type_id":"4","last_reported":1698620767,"current_range_meters":31200,"station_id":"ce4bhah2rcd13ifvqei0","pricing_plan_id":"free"},{"bike_id":"6282286a-b586-4ba0-86af-76ef709dd1f2","system_id":"levelo_inurba_marseille","lat":43.294314,"lon":5.397498,"is_reserved":false,"is_disabled":false,"rental_uris":{"android":"levelo://app?vid=6282286a-b586-4ba0-86af-76ef709dd1f2","ios":"levelo://app?vid=6282286a-b586-4ba0-86af-76ef709dd1f2"},"vehicle_type_id":"4","last_reported":1698620767,"current_range_meters":8800,"station_id":"ce4bh3h2rcd13ifvqdo0","pricing_plan_id":"free"},{"bike_id":"b8ff6d02-179d-4174-9f99-fb6f9a8466f9","system_id":"levelo_inurba_marseille","lat":43.28458,"lon":5.35895,"is_reserved":false,"is_disabled":false,"rental_uris":{"android":"levelo://app?vid=b8ff6d02-179d-4174-9f99-fb6f9a8466f9","ios":"levelo://app?vid=b8ff6d02-179d-4174-9f99-fb6f9a8466f9"},"vehicle_type_id":"4","last_reported":1698620767,"current_range_meters":31200,"station_id":"ce4bhah2rcd13ifvqei0","pricing_plan_id":"free"},{"bike_id":"bcd00e1f-8c5e-4ea4-a802-ccbca3d288b9","system_id":"levelo_inurba_marseille","lat":43.28457,"lon":5.35893,"is_reserved":false,"is_disabled":false,"rental_uris":{"android":"levelo://app?vid=bcd00e1f-8c5e-4ea4-a802-ccbca3d288b9","ios":"levelo://app?vid=bcd00e1f-8c5e-4ea4-a802-ccbca3d288b9"},"vehicle_type_id":"4","last_reported":1698620767,"current_range_meters":15600,"station_id":"ce4bhah2rcd13ifvqei0","pricing_plan_id":"free"},{"bike_id":"6234cb09-e2e0-45be-9891-60311a96baaa","system_id":"levelo_inurba_marseille","lat":43.294314,"lon":5.397498,"is_reserved":false,"is_disabled":false,"rental_uris":{"android":"levelo://app?vid=6234cb09-e2e0-45be-9891-60311a96baaa","ios":"levelo://app?vid=6234cb09-e2e0-45be-9891-60311a96baaa"},"vehicle_type_id":"4","last_reported":1698620767,"current_range_meters":23200,"station_id":"ce4bh3h2rcd13ifvqdo0","pricing_plan_id":"free"},{"bike_id":"4fdb268d-38cf-4cad-929b-d569b625694f","system_id":"levelo_inurba_marseille","lat":43.283998,"lon":5.375062,"is_reserved":false,"is_disabled":false,"rental_uris":{"android":"levelo://app?vid=4fdb268d-38cf-4cad-929b-d569b625694f","ios":"levelo://app?vid=4fdb268d-38cf-4cad-929b-d569b625694f"},"vehicle_type_id":"4","last_reported":1698620767,"current_range_meters":11200,"station_id":"ce4bh412rcd13ifvqds0","pricing_plan_id":"free"},{"bike_id":"69f289b3-17a6-4fa3-bd05-3f381fa2db06","system_id":"levelo_inurba_marseille","lat":43.283998,"lon":5.375062,"is_reserved":false,"is_disabled":false,"rental_uris":{"android":"levelo://app?vid=69f289b3-17a6-4fa3-bd05-3f381fa2db06","ios":"levelo://app?vid=69f289b3-17a6-4fa3-bd05-3f381fa2db06"},"vehicle_type_id":"4","last_reported":1698620767,"current_range_meters":11600,"station_id":"ce4bh412rcd13ifvqds0","pricing_plan_id":"free"},{"bike_id":"dbfd99a0-6d42-4b58-94da-1a899b9b80e1","system_id":"levelo_inurba_marseille","lat":43.283998,"lon":5.375062,"is_reserved":false,"is_disabled":false,"rental_uris":{"android":"levelo://app?vid=dbfd99a0-6d42-4b58-94da-1a899b9b80e1","ios":"levelo://app?vid=dbfd99a0-6d42-4b58-94da-1a899b9b80e1"},"vehicle_type_id":"4","last_reported":1698620767,"current_range_meters":26800,"station_id":"ce4bh412rcd13ifvqds0","pricing_plan_id":"free"},{"bike_id":"0377452f-25b8-4b46-94cb-dbfbc50b14ca","system_id":"levelo_inurba_marseille","lat":43.284093,"lon":5.375162,"is_reserved":false,"is_disabled":false,"rental_uris":{"android":"levelo://app?vid=0377452f-25b8-4b46-94cb-dbfbc50b14ca","ios":"levelo://app?vid=0377452f-25b8-4b46-94cb-dbfbc50b14ca"},"vehicle_type_id":"4","last_reported":1698620767,"current_range_meters":15200,"station_id":"ce4bh412rcd13ifvqds0","pricing_plan_id":"free"},{"bike_id":"1acc451e-d2b2-49c6-b94b-40e4d4a27448","system_id":"levelo_inurba_marseille","lat":43.283998,"lon":5.375062,"is_reserved":false,"is_disabled":false,"rental_uris":{"android":"levelo://app?vid=1acc451e-d2b2-49c6-b94b-40e4d4a27448","ios":"levelo://app?vid=1acc451e-d2b2-49c6-b94b-40e4d4a27448"},"vehicle_type_id":"4","last_reported":1698620767,"current_range_meters":21600,"station_id":"ce4bh412rcd13ifvqds0","pricing_plan_id":"free"},{"bike_id":"3cc6b68a-4cba-4d3e-ba27-5ec73b9b8910","system_id":"levelo_inurba_marseille","lat":43.29576,"lon":5.39973,"is_reserved":false,"is_disabled":false,"rental_uris":{"android":"levelo://app?vid=3cc6b68a-4cba-4d3e-ba27-5ec73b9b8910","ios":"levelo://app?vid=3cc6b68a-4cba-4d3e-ba27-5ec73b9b8910"},"vehicle_type_id":"4","last_reported":1698620767,"current_range_meters":27600,"station_id":"ce4bh312rcd13ifvqdj0","pricing_plan_id":"free"},{"bike_id":"9a7259a5-c799-4c86-a407-81ecc576b881","system_id":"levelo_inurba_marseille","lat":43.286238,"lon":5.386089,"is_reserved":false,"is_disabled":false,"rental_uris":{"android":"levelo://app?vid=9a7259a5-c799-4c86-a407-81ecc576b881","ios":"levelo://app?vid=9a7259a5-c799-4c86-a407-81ecc576b881"},"vehicle_type_id":"4","last_reported":1698620767,"current_range_meters":6400,"station_id":"","pricing_plan_id":"free"},{"bike_id":"fceb2f5a-6aa3-462f-83db-0b9253193b47","system_id":"levelo_inurba_marseille","lat":43.323464,"lon":5.406297,"is_reserved":false,"is_disabled":false,"rental_uris":{"android":"levelo://app?vid=fceb2f5a-6aa3-462f-83db-0b9253193b47","ios":"levelo://app?vid=fceb2f5a-6aa3-462f-83db-0b9253193b47"},"vehicle_type_id":"4","last_reported":1698620767,"current_range_meters":22400,"station_id":"ce4bhq92rcd13ifvqhjg","pricing_plan_id":"free"},{"bike_id":"b7d4af58-6dda-455a-82ec-d9026e43abcd","system_id":"levelo_inurba_marseille","lat":43.323464,"lon":5.406297,"is_reserved":false,"is_disabled":false,"rental_uris":{"android":"levelo://app?vid=b7d4af58-6dda-455a-82ec-d9026e43abcd","ios":"levelo://app?vid=b7d4af58-6dda-455a-82ec-d9026e43abcd"},"vehicle_type_id":"4","last_reported":1698620767,"current_range_meters":27200,"station_id":"ce4bhq92rcd13ifvqhjg","pricing_plan_id":"free"},{"bike_id":"15bdef24-340e-4fcc-8b69-a97001c44759","system_id":"levelo_inurba_marseille","lat":43.340456,"lon":5.384784,"is_reserved":false,"is_disabled":false,"rental_uris":{"android":"levelo://app?vid=15bdef24-340e-4fcc-8b69-a97001c44759","ios":"levelo://app?vid=15bdef24-340e-4fcc-8b69-a97001c44759"},"vehicle_type_id":"4","last_reported":1698620767,"current_range_meters":30400,"station_id":"","pricing_plan_id":"free"},{"bike_id":"2f666bbb-190f-4291-ade2-95e2c0cfd815","system_id":"levelo_inurba_marseille","lat":43.325281,"lon":5.405683,"is_reserved":false,"is_disabled":false,"rental_uris":{"android":"levelo://app?vid=2f666bbb-190f-4291-ade2-95e2c0cfd815","ios":"levelo://app?vid=2f666bbb-190f-4291-ade2-95e2c0cfd815"},"vehicle_type_id":"4","last_reported":1698620767,"current_range_meters":12400,"station_id":"","pricing_plan_id":"free"},{"bike_id":"32bc8975-dfb7-4518-88c7-b1ca1f6db010","system_id":"levelo_inurba_marseille","lat":43.288467,"lon":5.393342,"is_reserved":false,"is_disabled":false,"rental_uris":{"android":"levelo://app?vid=32bc8975-dfb7-4518-88c7-b1ca1f6db010","ios":"levelo://app?vid=32bc8975-dfb7-4518-88c7-b1ca1f6db010"},"vehicle_type_id":"4","last_reported":1698620767,"current_range_meters":6800,"station_id":"ce4bh2p2rcd13ifvqdi0","pricing_plan_id":"free"},{"bike_id":"be136d25-d0e8-4656-9d5a-0ee1b0e3ab99","system_id":"levelo_inurba_marseille","lat":43.28413,"lon":5.34979,"is_reserved":false,"is_disabled":false,"rental_uris":{"android":"levelo://app?vid=be136d25-d0e8-4656-9d5a-0ee1b0e3ab99","ios":"levelo://app?vid=be136d25-d0e8-4656-9d5a-0ee1b0e3ab99"},"vehicle_type_id":"4","last_reported":1698620767,"current_range_meters":7600,"station_id":"ce4bhbh2rcd13ifvqepg","pricing_plan_id":"free"},{"bike_id":"cd734fb8-634a-4f13-86b5-143037de2c45","system_id":"levelo_inurba_marseille","lat":43.282744,"lon":5.350533,"is_reserved":false,"is_disabled":false,"rental_uris":{"android":"levelo://app?vid=cd734fb8-634a-4f13-86b5-143037de2c45","ios":"levelo://app?vid=cd734fb8-634a-4f13-86b5-143037de2c45"},"vehicle_type_id":"4","last_reported":1698620767,"current_range_meters":6000,"station_id":"ce4bhbp2rcd13ifvqerg","pricing_plan_id":"free"},{"bike_id":"789aae98-0cdb-4fa5-ade0-b32bc4d903d4","system_id":"levelo_inurba_marseille","lat":43.282763,"lon":5.350657,"is_reserved":false,"is_disabled":false,"rental_uris":{"android":"levelo://app?vid=789aae98-0cdb-4fa5-ade0-b32bc4d903d4","ios":"levelo://app?vid=789aae98-0cdb-4fa5-ade0-b32bc4d903d4"},"vehicle_type_id":"4","last_reported":1698620767,"current_range_meters":22800,"station_id":"ce4bhbp2rcd13ifvqerg","pricing_plan_id":"free"},{"bike_id":"021016d5-75d5-4c6a-bb23-a6d7991b7979","system_id":"levelo_inurba_marseille","lat":43.282754,"lon":5.350519,"is_reserved":false,"is_disabled":false,"rental_uris":{"android":"levelo://app?vid=021016d5-75d5-4c6a-bb23-a6d7991b7979","ios":"levelo://app?vid=021016d5-75d5-4c6a-bb23-a6d7991b7979"},"vehicle_type_id":"4","last_reported":1698620767,"current_range_meters":14000,"station_id":"ce4bhbp2rcd13ifvqerg","pricing_plan_id":"free"},{"bike_id":"3f50daa6-5fa1-45bc-8d2f-86ad35da3139","system_id":"levelo_inurba_marseille","lat":43.282754,"lon":5.350519,"is_reserved":false,"is_disabled":false,"rental_uris":{"android":"levelo://app?vid=3f50daa6-5fa1-45bc-8d2f-86ad35da3139","ios":"levelo://app?vid=3f50daa6-5fa1-45bc-8d2f-86ad35da3139"},"vehicle_type_id":"4","last_reported":1698620767,"current_range_meters":16800,"station_id":"ce4bhbp2rcd13ifvqerg","pricing_plan_id":"free"},{"bike_id":"2a0db3e3-11b9-4308-a479-11e1c76c77c2","system_id":"levelo_inurba_marseille","lat":43.28037,"lon":5.36944,"is_reserved":false,"is_disabled":false,"rental_uris":{"android":"levelo://app?vid=2a0db3e3-11b9-4308-a479-11e1c76c77c2","ios":"levelo://app?vid=2a0db3e3-11b9-4308-a479-11e1c76c77c2"},"vehicle_type_id":"4","last_reported":1698620767,"current_range_meters":16000,"station_id":"ce4bha12rcd13ifvqef0","pricing_plan_id":"free"},{"bike_id":"1ca242fe-6084-4f9b-8b54-35d465872844","system_id":"levelo_inurba_marseille","lat":43.29041,"lon":5.399634,"is_reserved":false,"is_disabled":false,"rental_uris":{"android":"levelo://app?vid=1ca242fe-6084-4f9b-8b54-35d465872844","ios":"levelo://app?vid=1ca242fe-6084-4f9b-8b54-35d465872844"},"vehicle_type_id":"4","last_reported":1698620767,"current_range_meters":21600,"station_id":"ce4bh392rcd13ifvqdm0","pricing_plan_id":"free"},{"bike_id":"2225dc21-4d77-4e55-8dd6-9b7278d52226","system_id":"levelo_inurba_marseille","lat":43.29039,"lon":5.39958,"is_reserved":false,"is_disabled":false,"rental_uris":{"android":"levelo://app?vid=2225dc21-4d77-4e55-8dd6-9b7278d52226","ios":"levelo://app?vid=2225dc21-4d77-4e55-8dd6-9b7278d52226"},"vehicle_type_id":"4","last_reported":1698620767,"current_range_meters":0,"station_id":"ce4bh392rcd13ifvqdm0","pricing_plan_id":"free"},{"bike_id":"1cd0fdae-eee6-4507-a9b5-daae16a32928","system_id":"levelo_inurba_marseille","lat":43.28109,"lon":5.37833,"is_reserved":false,"is_disabled":false,"rental_uris":{"android":"levelo://app?vid=1cd0fdae-eee6-4507-a9b5-daae16a32928","ios":"levelo://app?vid=1cd0fdae-eee6-4507-a9b5-daae16a32928"},"vehicle_type_id":"4","last_reported":1698620767,"current_range_meters":30000,"station_id":"ce4bha12rcd13ifvqee0","pricing_plan_id":"free"},{"bike_id":"9b369f82-8379-4e3a-81e9-1f6fb5de61b7","system_id":"levelo_inurba_marseille","lat":43.281044,"lon":5.378308,"is_reserved":false,"is_disabled":false,"rental_uris":{"android":"levelo://app?vid=9b369f82-8379-4e3a-81e9-1f6fb5de61b7","ios":"levelo://app?vid=9b369f82-8379-4e3a-81e9-1f6fb5de61b7"},"vehicle_type_id":"4","last_reported":1698620767,"current_range_meters":3600,"station_id":"ce4bha12rcd13ifvqee0","pricing_plan_id":"free"},{"bike_id":"d445e7dc-8f39-4198-8d15-1838ad42556e","system_id":"levelo_inurba_marseille","lat":43.296263,"lon":5.40601,"is_reserved":false,"is_disabled":false,"rental_uris":{"android":"levelo://app?vid=d445e7dc-8f39-4198-8d15-1838ad42556e","ios":"levelo://app?vid=d445e7dc-8f39-4198-8d15-1838ad42556e"},"vehicle_type_id":"4","last_reported":1698620767,"current_range_meters":20400,"station_id":"ce4bh0h2rcd13ifvqd60","pricing_plan_id":"free"},{"bike_id":"8de9bd78-7d0e-4fd5-8c0c-a01ae883f9b7","system_id":"levelo_inurba_marseille","lat":43.284462,"lon":5.392121,"is_reserved":false,"is_disabled":false,"rental_uris":{"android":"levelo://app?vid=8de9bd78-7d0e-4fd5-8c0c-a01ae883f9b7","ios":"levelo://app?vid=8de9bd78-7d0e-4fd5-8c0c-a01ae883f9b7"},"vehicle_type_id":"4","last_reported":1698620767,"current_range_meters":6000,"station_id":"ce4bhoh2rcd13ifvqh5g","pricing_plan_id":"free"},{"bike_id":"92737f99-f7d2-4c9c-af9a-7b6b57ce46cc","system_id":"levelo_inurba_marseille","lat":43.284462,"lon":5.392121,"is_reserved":false,"is_disabled":false,"rental_uris":{"android":"levelo://app?vid=92737f99-f7d2-4c9c-af9a-7b6b57ce46cc","ios":"levelo://app?vid=92737f99-f7d2-4c9c-af9a-7b6b57ce46cc"},"vehicle_type_id":"4","last_reported":1698620767,"current_range_meters":25200,"station_id":"ce4bhoh2rcd13ifvqh5g","pricing_plan_id":"free"},{"bike_id":"5b145b5c-2448-4b06-ad7d-667870f368db","system_id":"levelo_inurba_marseille","lat":43.284338,"lon":5.392049,"is_reserved":false,"is_disabled":false,"rental_uris":{"android":"levelo://app?vid=5b145b5c-2448-4b06-ad7d-667870f368db","ios":"levelo://app?vid=5b145b5c-2448-4b06-ad7d-667870f368db"},"vehicle_type_id":"4","last_reported":1698620767,"current_range_meters":30800,"station_id":"ce4bhoh2rcd13ifvqh5g","pricing_plan_id":"free"},{"bike_id":"89d3d3df-e85d-4a3c-96b9-4678e734eecd","system_id":"levelo_inurba_marseille","lat":43.285742,"lon":5.395004,"is_reserved":false,"is_disabled":false,"rental_uris":{"android":"levelo://app?vid=89d3d3df-e85d-4a3c-96b9-4678e734eecd","ios":"levelo://app?vid=89d3d3df-e85d-4a3c-96b9-4678e734eecd"},"vehicle_type_id":"4","last_reported":1698620767,"current_range_meters":12400,"station_id":"ce4bh292rcd13ifvqdg0","pricing_plan_id":"free"},{"bike_id":"70d36ca4-6ef0-43f2-884b-3d6377b84e73","system_id":"levelo_inurba_marseille","lat":43.287154,"lon":5.399979,"is_reserved":false,"is_disabled":false,"rental_uris":{"android":"levelo://app?vid=70d36ca4-6ef0-43f2-884b-3d6377b84e73","ios":"levelo://app?vid=70d36ca4-6ef0-43f2-884b-3d6377b84e73"},"vehicle_type_id":"4","last_reported":1698620767,"current_range_meters":13200,"station_id":"ce4bho92rcd13ifvqh3g","pricing_plan_id":"free"},{"bike_id":"92a108c8-314c-4087-88dc-ace532aca17c","system_id":"levelo_inurba_marseille","lat":43.29529,"lon":5.385581,"is_reserved":false,"is_disabled":false,"rental_uris":{"android":"levelo://app?vid=92a108c8-314c-4087-88dc-ace532aca17c","ios":"levelo://app?vid=92a108c8-314c-4087-88dc-ace532aca17c"},"vehicle_type_id":"4","last_reported":1698620767,"current_range_meters":18400,"station_id":"ce4bgih2rcd13ifvqba0","pricing_plan_id":"free"},{"bike_id":"1dd398bf-923a-4669-9b88-630d431d528b","system_id":"levelo_inurba_marseille","lat":43.287154,"lon":5.399979,"is_reserved":false,"is_disabled":false,"rental_uris":{"android":"levelo://app?vid=1dd398bf-923a-4669-9b88-630d431d528b","ios":"levelo://app?vid=1dd398bf-923a-4669-9b88-630d431d528b"},"vehicle_type_id":"4","last_reported":1698620767,"current_range_meters":12400,"station_id":"ce4bho92rcd13ifvqh3g","pricing_plan_id":"free"},{"bike_id":"ad59cecb-9f14-4f37-9c44-4887548a6e4f","system_id":"levelo_inurba_marseille","lat":43.287154,"lon":5.399979,"is_reserved":false,"is_disabled":false,"rental_uris":{"android":"levelo://app?vid=ad59cecb-9f14-4f37-9c44-4887548a6e4f","ios":"levelo://app?vid=ad59cecb-9f14-4f37-9c44-4887548a6e4f"},"vehicle_type_id":"4","last_reported":1698620767,"current_range_meters":26400,"station_id":"ce4bho92rcd13ifvqh3g","pricing_plan_id":"free"},{"bike_id":"dbf7971b-20ba-4289-8159-5c8e3ea1cc21","system_id":"levelo_inurba_marseille","lat":43.287154,"lon":5.399979,"is_reserved":false,"is_disabled":false,"rental_uris":{"android":"levelo://app?vid=dbf7971b-20ba-4289-8159-5c8e3ea1cc21","ios":"levelo://app?vid=dbf7971b-20ba-4289-8159-5c8e3ea1cc21"},"vehicle_type_id":"4","last_reported":1698620767,"current_range_meters":2000,"station_id":"ce4bho92rcd13ifvqh3g","pricing_plan_id":"free"},{"bike_id":"abc3454a-3259-41de-8db3-c56b57f4983e","system_id":"levelo_inurba_marseille","lat":43.287154,"lon":5.399979,"is_reserved":false,"is_disabled":false,"rental_uris":{"android":"levelo://app?vid=abc3454a-3259-41de-8db3-c56b57f4983e","ios":"levelo://app?vid=abc3454a-3259-41de-8db3-c56b57f4983e"},"vehicle_type_id":"4","last_reported":1698620767,"current_range_meters":23200,"station_id":"ce4bho92rcd13ifvqh3g","pricing_plan_id":"free"},{"bike_id":"3db8d9d4-aa48-4dab-aa7e-2091be281b64","system_id":"levelo_inurba_marseille","lat":43.27903,"lon":5.38289,"is_reserved":false,"is_disabled":false,"rental_uris":{"android":"levelo://app?vid=3db8d9d4-aa48-4dab-aa7e-2091be281b64","ios":"levelo://app?vid=3db8d9d4-aa48-4dab-aa7e-2091be281b64"},"vehicle_type_id":"4","last_reported":1698620767,"current_range_meters":26000,"station_id":"","pricing_plan_id":"free"},{"bike_id":"dcd1be66-8906-4f64-b39d-2be1b1b4e8ef","system_id":"levelo_inurba_marseille","lat":43.279742,"lon":5.38744,"is_reserved":false,"is_disabled":false,"rental_uris":{"android":"levelo://app?vid=dcd1be66-8906-4f64-b39d-2be1b1b4e8ef","ios":"levelo://app?vid=dcd1be66-8906-4f64-b39d-2be1b1b4e8ef"},"vehicle_type_id":"4","last_reported":1698620767,"current_range_meters":22400,"station_id":"ce4bhg12rcd13ifvqf80","pricing_plan_id":"free"},{"bike_id":"4e311977-6770-426b-a575-a14fc93b6d12","system_id":"levelo_inurba_marseille","lat":43.279742,"lon":5.38744,"is_reserved":false,"is_disabled":false,"rental_uris":{"android":"levelo://app?vid=4e311977-6770-426b-a575-a14fc93b6d12","ios":"levelo://app?vid=4e311977-6770-426b-a575-a14fc93b6d12"},"vehicle_type_id":"4","last_reported":1698620767,"current_range_meters":28400,"station_id":"ce4bhg12rcd13ifvqf80","pricing_plan_id":"free"},{"bike_id":"b51ca2d5-7576-4860-a3db-66374c38e90a","system_id":"levelo_inurba_marseille","lat":43.279742,"lon":5.38744,"is_reserved":false,"is_disabled":false,"rental_uris":{"android":"levelo://app?vid=b51ca2d5-7576-4860-a3db-66374c38e90a","ios":"levelo://app?vid=b51ca2d5-7576-4860-a3db-66374c38e90a"},"vehicle_type_id":"4","last_reported":1698620767,"current_range_meters":26000,"station_id":"ce4bhg12rcd13ifvqf80","pricing_plan_id":"free"},{"bike_id":"927558f0-a40a-4ac8-ba09-5b25c8a93cad","system_id":"levelo_inurba_marseille","lat":43.320045,"lon":5.415046,"is_reserved":false,"is_disabled":false,"rental_uris":{"android":"levelo://app?vid=927558f0-a40a-4ac8-ba09-5b25c8a93cad","ios":"levelo://app?vid=927558f0-a40a-4ac8-ba09-5b25c8a93cad"},"vehicle_type_id":"4","last_reported":1698620767,"current_range_meters":15600,"station_id":"ce4bhq92rcd13ifvqhkg","pricing_plan_id":"free"},{"bike_id":"4deb2b33-9540-4702-ab63-3a9922384963","system_id":"levelo_inurba_marseille","lat":43.279742,"lon":5.38744,"is_reserved":false,"is_disabled":false,"rental_uris":{"android":"levelo://app?vid=4deb2b33-9540-4702-ab63-3a9922384963","ios":"levelo://app?vid=4deb2b33-9540-4702-ab63-3a9922384963"},"vehicle_type_id":"4","last_reported":1698620767,"current_range_meters":27600,"station_id":"ce4bhg12rcd13ifvqf80","pricing_plan_id":"free"},{"bike_id":"bea048fe-a03f-4ed4-a114-9237e72a63f2","system_id":"levelo_inurba_marseille","lat":43.279742,"lon":5.38744,"is_reserved":false,"is_disabled":false,"rental_uris":{"android":"levelo://app?vid=bea048fe-a03f-4ed4-a114-9237e72a63f2","ios":"levelo://app?vid=bea048fe-a03f-4ed4-a114-9237e72a63f2"},"vehicle_type_id":"4","last_reported":1698620767,"current_range_meters":19600,"station_id":"ce4bhg12rcd13ifvqf80","pricing_plan_id":"free"},{"bike_id":"7d1980ff-5830-498f-a758-539a26184ba1","system_id":"levelo_inurba_marseille","lat":43.279742,"lon":5.38744,"is_reserved":false,"is_disabled":false,"rental_uris":{"android":"levelo://app?vid=7d1980ff-5830-498f-a758-539a26184ba1","ios":"levelo://app?vid=7d1980ff-5830-498f-a758-539a26184ba1"},"vehicle_type_id":"4","last_reported":1698620767,"current_range_meters":26800,"station_id":"ce4bhg12rcd13ifvqf80","pricing_plan_id":"free"},{"bike_id":"145e4e64-d089-4795-b74d-483190249fc9","system_id":"levelo_inurba_marseille","lat":43.279742,"lon":5.38744,"is_reserved":false,"is_disabled":false,"rental_uris":{"android":"levelo://app?vid=145e4e64-d089-4795-b74d-483190249fc9","ios":"levelo://app?vid=145e4e64-d089-4795-b74d-483190249fc9"},"vehicle_type_id":"4","last_reported":1698620767,"current_range_meters":3200,"station_id":"ce4bhg12rcd13ifvqf80","pricing_plan_id":"free"},{"bike_id":"0dad850e-12ec-4ede-8b09-8a28066afec1","system_id":"levelo_inurba_marseille","lat":43.279742,"lon":5.38744,"is_reserved":false,"is_disabled":false,"rental_uris":{"android":"levelo://app?vid=0dad850e-12ec-4ede-8b09-8a28066afec1","ios":"levelo://app?vid=0dad850e-12ec-4ede-8b09-8a28066afec1"},"vehicle_type_id":"4","last_reported":1698620767,"current_range_meters":17600,"station_id":"ce4bhg12rcd13ifvqf80","pricing_plan_id":"free"},{"bike_id":"c82d440a-5e5b-45c9-b76a-e08ab3b7ab47","system_id":"levelo_inurba_marseille","lat":43.292569,"lon":5.409107,"is_reserved":false,"is_disabled":false,"rental_uris":{"android":"levelo://app?vid=c82d440a-5e5b-45c9-b76a-e08ab3b7ab47","ios":"levelo://app?vid=c82d440a-5e5b-45c9-b76a-e08ab3b7ab47"},"vehicle_type_id":"4","last_reported":1698620767,"current_range_meters":23200,"station_id":"ce4bh192rcd13ifvqdc0","pricing_plan_id":"free"},{"bike_id":"ba3361d6-72be-4cac-b81b-535651101d4e","system_id":"levelo_inurba_marseille","lat":43.292569,"lon":5.409107,"is_reserved":false,"is_disabled":false,"rental_uris":{"android":"levelo://app?vid=ba3361d6-72be-4cac-b81b-535651101d4e","ios":"levelo://app?vid=ba3361d6-72be-4cac-b81b-535651101d4e"},"vehicle_type_id":"4","last_reported":1698620767,"current_range_meters":20800,"station_id":"ce4bh192rcd13ifvqdc0","pricing_plan_id":"free"},{"bike_id":"e06c6de6-378e-47d0-afbb-06f3a39ee2b0","system_id":"levelo_inurba_marseille","lat":43.325269,"lon":5.414571,"is_reserved":false,"is_disabled":false,"rental_uris":{"android":"levelo://app?vid=e06c6de6-378e-47d0-afbb-06f3a39ee2b0","ios":"levelo://app?vid=e06c6de6-378e-47d0-afbb-06f3a39ee2b0"},"vehicle_type_id":"4","last_reported":1698620767,"current_range_meters":29200,"station_id":"ce4bhq12rcd13ifvqhhg","pricing_plan_id":"free"},{"bike_id":"824dabd4-c04b-427c-b708-965b48c96a3c","system_id":"levelo_inurba_marseille","lat":43.325233,"lon":5.414318,"is_reserved":false,"is_disabled":false,"rental_uris":{"android":"levelo://app?vid=824dabd4-c04b-427c-b708-965b48c96a3c","ios":"levelo://app?vid=824dabd4-c04b-427c-b708-965b48c96a3c"},"vehicle_type_id":"4","last_reported":1698620767,"current_range_meters":29200,"station_id":"ce4bhq12rcd13ifvqhhg","pricing_plan_id":"free"},{"bike_id":"ab441268-3e03-4104-94cc-7705d60c6788","system_id":"levelo_inurba_marseille","lat":43.347892,"lon":5.348552,"is_reserved":false,"is_disabled":false,"rental_uris":{"android":"levelo://app?vid=ab441268-3e03-4104-94cc-7705d60c6788","ios":"levelo://app?vid=ab441268-3e03-4104-94cc-7705d60c6788"},"vehicle_type_id":"4","last_reported":1698620767,"current_range_meters":14000,"station_id":"","pricing_plan_id":"free"},{"bike_id":"6f388752-a1d1-471a-804d-4e54112a7c61","system_id":"levelo_inurba_marseille","lat":43.280784,"lon":5.396622,"is_reserved":false,"is_disabled":false,"rental_uris":{"android":"levelo://app?vid=6f388752-a1d1-471a-804d-4e54112a7c61","ios":"levelo://app?vid=6f388752-a1d1-471a-804d-4e54112a7c61"},"vehicle_type_id":"4","last_reported":1698620767,"current_range_meters":29600,"station_id":"ce4bho12rcd13ifvqh2g","pricing_plan_id":"free"},{"bike_id":"234a5bb9-a611-40a9-8248-5d50d4df5944","system_id":"levelo_inurba_marseille","lat":43.278128,"lon":5.407195,"is_reserved":false,"is_disabled":false,"rental_uris":{"android":"levelo://app?vid=234a5bb9-a611-40a9-8248-5d50d4df5944","ios":"levelo://app?vid=234a5bb9-a611-40a9-8248-5d50d4df5944"},"vehicle_type_id":"4","last_reported":1698620767,"current_range_meters":9600,"station_id":"ce4bhnh2rcd13ifvqgtg","pricing_plan_id":"free"},{"bike_id":"90887c53-8192-4a1a-8cc3-1dbade925f18","system_id":"levelo_inurba_marseille","lat":43.278401,"lon":5.392152,"is_reserved":false,"is_disabled":false,"rental_uris":{"android":"levelo://app?vid=90887c53-8192-4a1a-8cc3-1dbade925f18","ios":"levelo://app?vid=90887c53-8192-4a1a-8cc3-1dbade925f18"},"vehicle_type_id":"4","last_reported":1698620767,"current_range_meters":11200,"station_id":"ce4bhjp2rcd13ifvqga0","pricing_plan_id":"free"},{"bike_id":"9450a689-fa47-445e-b94b-d601f366ae3a","system_id":"levelo_inurba_marseille","lat":43.278399,"lon":5.392139,"is_reserved":false,"is_disabled":false,"rental_uris":{"android":"levelo://app?vid=9450a689-fa47-445e-b94b-d601f366ae3a","ios":"levelo://app?vid=9450a689-fa47-445e-b94b-d601f366ae3a"},"vehicle_type_id":"4","last_reported":1698620767,"current_range_meters":7200,"station_id":"ce4bhjp2rcd13ifvqga0","pricing_plan_id":"free"},{"bike_id":"ad792d74-0fe0-4f28-8273-babb3dc4f382","system_id":"levelo_inurba_marseille","lat":43.273613,"lon":5.362705,"is_reserved":false,"is_disabled":false,"rental_uris":{"android":"levelo://app?vid=ad792d74-0fe0-4f28-8273-babb3dc4f382","ios":"levelo://app?vid=ad792d74-0fe0-4f28-8273-babb3dc4f382"},"vehicle_type_id":"4","last_reported":1698620767,"current_range_meters":0,"station_id":"ce4bhbh2rcd13ifvqeo0","pricing_plan_id":"free"},{"bike_id":"7ce2338d-fd9b-44bf-a2c7-164674f3ec9a","system_id":"levelo_inurba_marseille","lat":43.275625,"lon":5.384392,"is_reserved":false,"is_disabled":false,"rental_uris":{"android":"levelo://app?vid=7ce2338d-fd9b-44bf-a2c7-164674f3ec9a","ios":"levelo://app?vid=7ce2338d-fd9b-44bf-a2c7-164674f3ec9a"},"vehicle_type_id":"4","last_reported":1698620767,"current_range_meters":16800,"station_id":"ce4bhh92rcd13ifvqfi0","pricing_plan_id":"free"},{"bike_id":"bdd92ce3-3fac-4b1e-87df-cce7dd768bb0","system_id":"levelo_inurba_marseille","lat":43.275625,"lon":5.384392,"is_reserved":false,"is_disabled":false,"rental_uris":{"android":"levelo://app?vid=bdd92ce3-3fac-4b1e-87df-cce7dd768bb0","ios":"levelo://app?vid=bdd92ce3-3fac-4b1e-87df-cce7dd768bb0"},"vehicle_type_id":"4","last_reported":1698620767,"current_range_meters":30400,"station_id":"ce4bhh92rcd13ifvqfi0","pricing_plan_id":"free"},{"bike_id":"3443da63-f4f0-4324-90f6-59dda177c20f","system_id":"levelo_inurba_marseille","lat":43.33603,"lon":5.41036,"is_reserved":false,"is_disabled":false,"rental_uris":{"android":"levelo://app?vid=3443da63-f4f0-4324-90f6-59dda177c20f","ios":"levelo://app?vid=3443da63-f4f0-4324-90f6-59dda177c20f"},"vehicle_type_id":"4","last_reported":1698620767,"current_range_meters":400,"station_id":"ce4bhqh2rcd13ifvqhmg","pricing_plan_id":"free"},{"bike_id":"af8426e9-2b53-433f-8139-73b450165afd","system_id":"levelo_inurba_marseille","lat":43.336134,"lon":5.410341,"is_reserved":false,"is_disabled":false,"rental_uris":{"android":"levelo://app?vid=af8426e9-2b53-433f-8139-73b450165afd","ios":"levelo://app?vid=af8426e9-2b53-433f-8139-73b450165afd"},"vehicle_type_id":"4","last_reported":1698620767,"current_range_meters":18400,"station_id":"ce4bhqh2rcd13ifvqhmg","pricing_plan_id":"free"},{"bike_id":"7af969f5-8d84-406b-9e13-40bd95c7537c","system_id":"levelo_inurba_marseille","lat":43.33614,"lon":5.41029,"is_reserved":false,"is_disabled":false,"rental_uris":{"android":"levelo://app?vid=7af969f5-8d84-406b-9e13-40bd95c7537c","ios":"levelo://app?vid=7af969f5-8d84-406b-9e13-40bd95c7537c"},"vehicle_type_id":"4","last_reported":1698620767,"current_range_meters":22400,"station_id":"ce4bhqh2rcd13ifvqhmg","pricing_plan_id":"free"},{"bike_id":"01b14aaf-b7fc-41e8-b11c-f5f9ba41824f","system_id":"levelo_inurba_marseille","lat":43.275602,"lon":5.385631,"is_reserved":false,"is_disabled":false,"rental_uris":{"android":"levelo://app?vid=01b14aaf-b7fc-41e8-b11c-f5f9ba41824f","ios":"levelo://app?vid=01b14aaf-b7fc-41e8-b11c-f5f9ba41824f"},"vehicle_type_id":"4","last_reported":1698620767,"current_range_meters":4400,"station_id":"","pricing_plan_id":"free"},{"bike_id":"ab4c105f-b95d-4588-b30a-4236f77815dc","system_id":"levelo_inurba_marseille","lat":43.310785,"lon":5.424305,"is_reserved":false,"is_disabled":false,"rental_uris":{"android":"levelo://app?vid=ab4c105f-b95d-4588-b30a-4236f77815dc","ios":"levelo://app?vid=ab4c105f-b95d-4588-b30a-4236f77815dc"},"vehicle_type_id":"4","last_reported":1698620767,"current_range_meters":26000,"station_id":"ce4bhp92rcd13ifvqhag","pricing_plan_id":"free"},{"bike_id":"d58dc1b0-a920-45a9-b8ae-bc43ae7fdaaf","system_id":"levelo_inurba_marseille","lat":43.31078,"lon":5.42433,"is_reserved":false,"is_disabled":false,"rental_uris":{"android":"levelo://app?vid=d58dc1b0-a920-45a9-b8ae-bc43ae7fdaaf","ios":"levelo://app?vid=d58dc1b0-a920-45a9-b8ae-bc43ae7fdaaf"},"vehicle_type_id":"4","last_reported":1698620767,"current_range_meters":12000,"station_id":"ce4bhp92rcd13ifvqhag","pricing_plan_id":"free"},{"bike_id":"cf1669ca-2049-4ae9-9b7e-00a41239a62e","system_id":"levelo_inurba_marseille","lat":43.340804,"lon":5.410219,"is_reserved":false,"is_disabled":false,"rental_uris":{"android":"levelo://app?vid=cf1669ca-2049-4ae9-9b7e-00a41239a62e","ios":"levelo://app?vid=cf1669ca-2049-4ae9-9b7e-00a41239a62e"},"vehicle_type_id":"4","last_reported":1698620767,"current_range_meters":26000,"station_id":"ce4bhqh2rcd13ifvqhlg","pricing_plan_id":"free"},{"bike_id":"7759184d-41d5-433a-9fce-4a881688bcfa","system_id":"levelo_inurba_marseille","lat":43.340804,"lon":5.410219,"is_reserved":false,"is_disabled":false,"rental_uris":{"android":"levelo://app?vid=7759184d-41d5-433a-9fce-4a881688bcfa","ios":"levelo://app?vid=7759184d-41d5-433a-9fce-4a881688bcfa"},"vehicle_type_id":"4","last_reported":1698620767,"current_range_meters":31200,"station_id":"ce4bhqh2rcd13ifvqhlg","pricing_plan_id":"free"},{"bike_id":"5c6740b1-5e78-4e38-9c6a-5024b53863a5","system_id":"levelo_inurba_marseille","lat":43.340804,"lon":5.410219,"is_reserved":false,"is_disabled":false,"rental_uris":{"android":"levelo://app?vid=5c6740b1-5e78-4e38-9c6a-5024b53863a5","ios":"levelo://app?vid=5c6740b1-5e78-4e38-9c6a-5024b53863a5"},"vehicle_type_id":"4","last_reported":1698620767,"current_range_meters":10800,"station_id":"ce4bhqh2rcd13ifvqhlg","pricing_plan_id":"free"},{"bike_id":"a98e2835-0ef0-4e9f-b7c4-d2c740e08dcb","system_id":"levelo_inurba_marseille","lat":43.340804,"lon":5.410219,"is_reserved":false,"is_disabled":false,"rental_uris":{"android":"levelo://app?vid=a98e2835-0ef0-4e9f-b7c4-d2c740e08dcb","ios":"levelo://app?vid=a98e2835-0ef0-4e9f-b7c4-d2c740e08dcb"},"vehicle_type_id":"4","last_reported":1698620767,"current_range_meters":12800,"station_id":"ce4bhqh2rcd13ifvqhlg","pricing_plan_id":"free"},{"bike_id":"ec1b0d2b-9021-4725-a4cd-48695836cce5","system_id":"levelo_inurba_marseille","lat":43.27334,"lon":5.39075,"is_reserved":false,"is_disabled":false,"rental_uris":{"android":"levelo://app?vid=ec1b0d2b-9021-4725-a4cd-48695836cce5","ios":"levelo://app?vid=ec1b0d2b-9021-4725-a4cd-48695836cce5"},"vehicle_type_id":"4","last_reported":1698620767,"current_range_meters":27600,"station_id":"","pricing_plan_id":"free"},{"bike_id":"0200f6e6-b866-428f-a792-7bb216aa0885","system_id":"levelo_inurba_marseille","lat":43.27323,"lon":5.39083,"is_reserved":false,"is_disabled":false,"rental_uris":{"android":"levelo://app?vid=0200f6e6-b866-428f-a792-7bb216aa0885","ios":"levelo://app?vid=0200f6e6-b866-428f-a792-7bb216aa0885"},"vehicle_type_id":"4","last_reported":1698620767,"current_range_meters":31200,"station_id":"ce4bhgp2rcd13ifvqfe0","pricing_plan_id":"free"},{"bike_id":"17efc775-d2b3-49ac-b363-68cbab9ca678","system_id":"levelo_inurba_marseille","lat":43.27325,"lon":5.39095,"is_reserved":false,"is_disabled":false,"rental_uris":{"android":"levelo://app?vid=17efc775-d2b3-49ac-b363-68cbab9ca678","ios":"levelo://app?vid=17efc775-d2b3-49ac-b363-68cbab9ca678"},"vehicle_type_id":"4","last_reported":1698620767,"current_range_meters":29200,"station_id":"ce4bhgp2rcd13ifvqfe0","pricing_plan_id":"free"},{"bike_id":"fcf5b8d1-861e-4d3c-a809-6932515374b9","system_id":"levelo_inurba_marseille","lat":43.27319,"lon":5.39079,"is_reserved":false,"is_disabled":false,"rental_uris":{"android":"levelo://app?vid=fcf5b8d1-861e-4d3c-a809-6932515374b9","ios":"levelo://app?vid=fcf5b8d1-861e-4d3c-a809-6932515374b9"},"vehicle_type_id":"4","last_reported":1698620767,"current_range_meters":20400,"station_id":"ce4bhgp2rcd13ifvqfe0","pricing_plan_id":"free"},{"bike_id":"ef232fb1-2403-41b8-b58e-bad572968e44","system_id":"levelo_inurba_marseille","lat":43.273162,"lon":5.390716,"is_reserved":false,"is_disabled":false,"rental_uris":{"android":"levelo://app?vid=ef232fb1-2403-41b8-b58e-bad572968e44","ios":"levelo://app?vid=ef232fb1-2403-41b8-b58e-bad572968e44"},"vehicle_type_id":"4","last_reported":1698620767,"current_range_meters":22400,"station_id":"","pricing_plan_id":"free"},{"bike_id":"e9f1952f-53e3-41b2-89a3-447e8dc7b034","system_id":"levelo_inurba_marseille","lat":43.273184,"lon":5.39081,"is_reserved":false,"is_disabled":false,"rental_uris":{"android":"levelo://app?vid=e9f1952f-53e3-41b2-89a3-447e8dc7b034","ios":"levelo://app?vid=e9f1952f-53e3-41b2-89a3-447e8dc7b034"},"vehicle_type_id":"4","last_reported":1698620767,"current_range_meters":31200,"station_id":"ce4bhgp2rcd13ifvqfe0","pricing_plan_id":"free"},{"bike_id":"41bdffd7-8f52-4b5a-8119-c9eed1b777ef","system_id":"levelo_inurba_marseille","lat":43.273232,"lon":5.39096,"is_reserved":false,"is_disabled":false,"rental_uris":{"android":"levelo://app?vid=41bdffd7-8f52-4b5a-8119-c9eed1b777ef","ios":"levelo://app?vid=41bdffd7-8f52-4b5a-8119-c9eed1b777ef"},"vehicle_type_id":"4","last_reported":1698620767,"current_range_meters":31200,"station_id":"ce4bhgp2rcd13ifvqfe0","pricing_plan_id":"free"},{"bike_id":"ec93bbe3-8e19-43ed-8604-d2f519c4907c","system_id":"levelo_inurba_marseille","lat":43.27315,"lon":5.39073,"is_reserved":false,"is_disabled":false,"rental_uris":{"android":"levelo://app?vid=ec93bbe3-8e19-43ed-8604-d2f519c4907c","ios":"levelo://app?vid=ec93bbe3-8e19-43ed-8604-d2f519c4907c"},"vehicle_type_id":"4","last_reported":1698620767,"current_range_meters":26400,"station_id":"ce4bhgp2rcd13ifvqfe0","pricing_plan_id":"free"},{"bike_id":"a859a417-b2dd-4151-ad62-4d448a57b0f2","system_id":"levelo_inurba_marseille","lat":43.273179,"lon":5.39089,"is_reserved":false,"is_disabled":false,"rental_uris":{"android":"levelo://app?vid=a859a417-b2dd-4151-ad62-4d448a57b0f2","ios":"levelo://app?vid=a859a417-b2dd-4151-ad62-4d448a57b0f2"},"vehicle_type_id":"4","last_reported":1698620767,"current_range_meters":18800,"station_id":"ce4bhgp2rcd13ifvqfe0","pricing_plan_id":"free"},{"bike_id":"4ebce7ea-47a9-4b80-8469-aa50d1c59071","system_id":"levelo_inurba_marseille","lat":43.273213,"lon":5.391005,"is_reserved":false,"is_disabled":false,"rental_uris":{"android":"levelo://app?vid=4ebce7ea-47a9-4b80-8469-aa50d1c59071","ios":"levelo://app?vid=4ebce7ea-47a9-4b80-8469-aa50d1c59071"},"vehicle_type_id":"4","last_reported":1698620767,"current_range_meters":31200,"station_id":"ce4bhgp2rcd13ifvqfe0","pricing_plan_id":"free"},{"bike_id":"9c63e94f-fd0e-4a71-957c-88e337be9492","system_id":"levelo_inurba_marseille","lat":43.273227,"lon":5.391063,"is_reserved":false,"is_disabled":false,"rental_uris":{"android":"levelo://app?vid=9c63e94f-fd0e-4a71-957c-88e337be9492","ios":"levelo://app?vid=9c63e94f-fd0e-4a71-957c-88e337be9492"},"vehicle_type_id":"4","last_reported":1698620767,"current_range_meters":30000,"station_id":"ce4bhgp2rcd13ifvqfe0","pricing_plan_id":"free"},{"bike_id":"6a979465-9cc3-440e-84d1-be26785a7e07","system_id":"levelo_inurba_marseille","lat":43.27311,"lon":5.39076,"is_reserved":false,"is_disabled":false,"rental_uris":{"android":"levelo://app?vid=6a979465-9cc3-440e-84d1-be26785a7e07","ios":"levelo://app?vid=6a979465-9cc3-440e-84d1-be26785a7e07"},"vehicle_type_id":"4","last_reported":1698620767,"current_range_meters":29600,"station_id":"ce4bhgp2rcd13ifvqfe0","pricing_plan_id":"free"},{"bike_id":"8d59e56b-161b-45c2-99c1-ecac1f579347","system_id":"levelo_inurba_marseille","lat":43.27319,"lon":5.39101,"is_reserved":false,"is_disabled":false,"rental_uris":{"android":"levelo://app?vid=8d59e56b-161b-45c2-99c1-ecac1f579347","ios":"levelo://app?vid=8d59e56b-161b-45c2-99c1-ecac1f579347"},"vehicle_type_id":"4","last_reported":1698620767,"current_range_meters":30000,"station_id":"ce4bhgp2rcd13ifvqfe0","pricing_plan_id":"free"},{"bike_id":"63c07bf7-3273-4106-ac38-f617942677bd","system_id":"levelo_inurba_marseille","lat":43.274218,"lon":5.39408,"is_reserved":false,"is_disabled":false,"rental_uris":{"android":"levelo://app?vid=63c07bf7-3273-4106-ac38-f617942677bd","ios":"levelo://app?vid=63c07bf7-3273-4106-ac38-f617942677bd"},"vehicle_type_id":"4","last_reported":1698620767,"current_range_meters":0,"station_id":"ce4bhdp2rcd13ifvqf20","pricing_plan_id":"free"},{"bike_id":"9866be94-b2a3-44d3-bfb7-925fe402826a","system_id":"levelo_inurba_marseille","lat":43.274099,"lon":5.394019,"is_reserved":false,"is_disabled":false,"rental_uris":{"android":"levelo://app?vid=9866be94-b2a3-44d3-bfb7-925fe402826a","ios":"levelo://app?vid=9866be94-b2a3-44d3-bfb7-925fe402826a"},"vehicle_type_id":"4","last_reported":1698620767,"current_range_meters":400,"station_id":"ce4bhdp2rcd13ifvqf20","pricing_plan_id":"free"},{"bike_id":"9d598902-feed-4506-a6a9-fb3d97a99d1f","system_id":"levelo_inurba_marseille","lat":43.295511,"lon":5.422926,"is_reserved":false,"is_disabled":false,"rental_uris":{"android":"levelo://app?vid=9d598902-feed-4506-a6a9-fb3d97a99d1f","ios":"levelo://app?vid=9d598902-feed-4506-a6a9-fb3d97a99d1f"},"vehicle_type_id":"4","last_reported":1698620767,"current_range_meters":3200,"station_id":"ce4bhph2rcd13ifvqhdg","pricing_plan_id":"free"},{"bike_id":"d3997d8b-b06b-473b-808f-ca3e4bd57995","system_id":"levelo_inurba_marseille","lat":43.295511,"lon":5.422926,"is_reserved":false,"is_disabled":false,"rental_uris":{"android":"levelo://app?vid=d3997d8b-b06b-473b-808f-ca3e4bd57995","ios":"levelo://app?vid=d3997d8b-b06b-473b-808f-ca3e4bd57995"},"vehicle_type_id":"4","last_reported":1698620767,"current_range_meters":25600,"station_id":"ce4bhph2rcd13ifvqhdg","pricing_plan_id":"free"},{"bike_id":"291a32c9-e8fe-4c60-819c-bf8d640a2016","system_id":"levelo_inurba_marseille","lat":43.2936,"lon":5.37835,"is_reserved":false,"is_disabled":false,"rental_uris":{"android":"levelo://app?vid=291a32c9-e8fe-4c60-819c-bf8d640a2016","ios":"levelo://app?vid=291a32c9-e8fe-4c60-819c-bf8d640a2016"},"vehicle_type_id":"4","last_reported":1698620767,"current_range_meters":18400,"station_id":"ce4bgjh2rcd13ifvqbf0","pricing_plan_id":"free"},{"bike_id":"b690986b-0f67-4766-bb88-15c87960678a","system_id":"levelo_inurba_marseille","lat":43.27205,"lon":5.39189,"is_reserved":false,"is_disabled":false,"rental_uris":{"android":"levelo://app?vid=b690986b-0f67-4766-bb88-15c87960678a","ios":"levelo://app?vid=b690986b-0f67-4766-bb88-15c87960678a"},"vehicle_type_id":"4","last_reported":1698620767,"current_range_meters":0,"station_id":"ce4bhhp2rcd13ifvqfm0","pricing_plan_id":"free"},{"bike_id":"fbd47642-a623-4abf-af67-42e166bf74dd","system_id":"levelo_inurba_marseille","lat":43.278128,"lon":5.407195,"is_reserved":false,"is_disabled":false,"rental_uris":{"android":"levelo://app?vid=fbd47642-a623-4abf-af67-42e166bf74dd","ios":"levelo://app?vid=fbd47642-a623-4abf-af67-42e166bf74dd"},"vehicle_type_id":"4","last_reported":1698620767,"current_range_meters":22000,"station_id":"ce4bhnh2rcd13ifvqgtg","pricing_plan_id":"free"},{"bike_id":"aa3b0425-989a-473f-ab44-001c28453eb1","system_id":"levelo_inurba_marseille","lat":43.278128,"lon":5.407195,"is_reserved":false,"is_disabled":false,"rental_uris":{"android":"levelo://app?vid=aa3b0425-989a-473f-ab44-001c28453eb1","ios":"levelo://app?vid=aa3b0425-989a-473f-ab44-001c28453eb1"},"vehicle_type_id":"4","last_reported":1698620767,"current_range_meters":8000,"station_id":"ce4bhnh2rcd13ifvqgtg","pricing_plan_id":"free"},{"bike_id":"e5b43416-fdd4-4920-a227-96d0c4917c6e","system_id":"levelo_inurba_marseille","lat":43.278128,"lon":5.407195,"is_reserved":false,"is_disabled":false,"rental_uris":{"android":"levelo://app?vid=e5b43416-fdd4-4920-a227-96d0c4917c6e","ios":"levelo://app?vid=e5b43416-fdd4-4920-a227-96d0c4917c6e"},"vehicle_type_id":"4","last_reported":1698620767,"current_range_meters":31200,"station_id":"ce4bhnh2rcd13ifvqgtg","pricing_plan_id":"free"},{"bike_id":"1680c852-be23-4927-8fba-a5c1ee4aa350","system_id":"levelo_inurba_marseille","lat":43.278128,"lon":5.407195,"is_reserved":false,"is_disabled":false,"rental_uris":{"android":"levelo://app?vid=1680c852-be23-4927-8fba-a5c1ee4aa350","ios":"levelo://app?vid=1680c852-be23-4927-8fba-a5c1ee4aa350"},"vehicle_type_id":"4","last_reported":1698620767,"current_range_meters":31200,"station_id":"ce4bhnh2rcd13ifvqgtg","pricing_plan_id":"free"},{"bike_id":"f513e07b-660f-45ee-8d95-acf33ccffc3c","system_id":"levelo_inurba_marseille","lat":43.279465,"lon":5.410561,"is_reserved":false,"is_disabled":false,"rental_uris":{"android":"levelo://app?vid=f513e07b-660f-45ee-8d95-acf33ccffc3c","ios":"levelo://app?vid=f513e07b-660f-45ee-8d95-acf33ccffc3c"},"vehicle_type_id":"4","last_reported":1698620767,"current_range_meters":19600,"station_id":"ce4bhnp2rcd13ifvqh0g","pricing_plan_id":"free"},{"bike_id":"dcaa3506-1138-4c68-8941-a350600f2356","system_id":"levelo_inurba_marseille","lat":43.279465,"lon":5.410561,"is_reserved":false,"is_disabled":false,"rental_uris":{"android":"levelo://app?vid=dcaa3506-1138-4c68-8941-a350600f2356","ios":"levelo://app?vid=dcaa3506-1138-4c68-8941-a350600f2356"},"vehicle_type_id":"4","last_reported":1698620767,"current_range_meters":16400,"station_id":"ce4bhnp2rcd13ifvqh0g","pricing_plan_id":"free"},