{"last_updated":1705651805,"ttl":30,"version":"2.2","data":{"bikes":[{"bike_id":"06e2b4ae-cba1-4d02-9dbb-348e6b0928fe","system_id":"levelo_inurba_marseille","lat":43.313391,"lon":5.36706,"is_reserved":false,"is_disabled":false,"rental_uris":{"android":"levelo://app?vid=06e2b4ae-cba1-4d02-9dbb-348e6b0928fe","ios":"levelo://app?vid=06e2b4ae-cba1-4d02-9dbb-348e6b0928fe"},"vehicle_type_id":"4","last_reported":1705651805,"current_range_meters":3600,"station_id":"ce4bgr92rcd13ifvqc6g","pricing_plan_id":"free"},{"bike_id":"81f42363-fc6c-4cfc-abc7-394507c45b70","system_id":"levelo_inurba_marseille","lat":43.313391,"lon":5.36706,"is_reserved":false,"is_disabled":false,"rental_uris":{"android":"levelo://app?vid=81f42363-fc6c-4cfc-abc7-394507c45b70","ios":"levelo://app?vid=81f42363-fc6c-4cfc-abc7-394507c45b70"},"vehicle_type_id":"4","last_reported":1705651805,"current_range_meters":19200,"station_id":"ce4bgr92rcd13ifvqc6g","pricing_plan_id":"free"},{"bike_id":"4ed83b34-0f63-4a58-ab37-5c17b9b22eba","system_id":"levelo_inurba_marseille","lat":43.313391,"lon":5.36706,"is_reserved":false,"is_disabled":false,"rental_uris":{"android":"levelo://app?vid=4ed83b34-0f63-4a58-ab37-5c17b9b22eba","ios":"levelo://app?vid=4ed83b34-0f63-4a58-ab37-5c17b9b22eba"},"vehicle_type_id":"4","last_reported":1705651805,"current_range_meters":8800,"station_id":"ce4bgr92rcd13ifvqc6g","pricing_plan_id":"free"},{"bike_id":"8b045fe8-e3b4-4fdb-bb97-2a15077eb140","system_id":"levelo_inurba_marseille","lat":43.313391,"lon":5.36706,"is_reserved":false,"is_disabled":false,"rental_uris":{"android":"levelo://app?vid=8b045fe8-e3b4-4fdb-bb97-2a15077eb140","ios":"levelo://app?vid=8b045fe8-e3b4-4fdb-bb97-2a15077eb140"},"vehicle_type_id":"4","last_reported":1705651805,"current_range_meters":21200,"station_id":"ce4bgr92rcd13ifvqc6g","pricing_plan_id":"free"},{"bike_id":"97f08bf8-1ec8-41a0-9009-c1b03f85bd6a","system_id":"levelo_inurba_marseille","lat":43.31341,"lon":5.367098,"is_reserved":false,"is_disabled":false,"rental_uris":{"android":"levelo://app?vid=97f08bf8-1ec8-41a0-9009-c1b03f85bd6a","ios":"levelo://app?vid=97f08bf8-1ec8-41a0-9009-c1b03f85bd6a"},"vehicle_type_id":"4","last_reported":1705651805,"current_range_meters":14000,"station_id":"ce4bgr92rcd13ifvqc6g","pricing_plan_id":"free"},{"bike_id":"d7165863-4af8-4ea6-b42e-d9b2358d72a0","system_id":"levelo_inurba_marseille","lat":43.313391,"lon":5.36706,"is_reserved":false,"is_disabled":false,"rental_uris":{"android":"levelo://app?vid=d7165863-4af8-4ea6-b42e-d9b2358d72a0","ios":"levelo://app?vid=d7165863-4af8-4ea6-b42e-d9b2358d72a0"},"vehicle_type_id":"4","last_reported":1705651805,"current_range_meters":0,"station_id":"ce4bgr92rcd13ifvqc6g","pricing_plan_id":"free"},{"bike_id":"21f47aa9-7888-4e15-b6ad-53dcb49ea195","system_id":"levelo_inurba_marseille","lat":43.313391,"lon":5.36706,"is_reserved":false,"is_disabled":false,"rental_uris":{"android":"levelo://app?vid=21f47aa9-7888-4e15-b6ad-53dcb49ea195","ios":"levelo://app?vid=21f47aa9-7888-4e15-b6ad-53dcb49ea195"},"vehicle_type_id":"4","last_reported":1705651805,"current_range_meters":27600,"station_id":"ce4bgr92rcd13ifvqc6g","pricing_plan_id":"free"},{"bike_id":"11ea3866-1832-421d-8345-c8122112d6c1","system_id":"levelo_inurba_marseille","lat":43.313391,"lon":5.36706,"is_reserved":false,"is_disabled":false,"rental_uris":{"android":"levelo://app?vid=11ea3866-1832-421d-8345-c8122112d6c1","ios":"levelo://app?vid=11ea3866-1832-421d-8345-c8122112d6c1"},"vehicle_type_id":"4","last_reported":1705651805,"current_range_meters":6000,"station_id":"ce4bgr92rcd13ifvqc6g","pricing_plan_id":"free"},{"bike_id":"e26df410-e387-4896-aca7-2e3751542b63","system_id":"levelo_inurba_marseille","lat":43.312239,"lon":5.368562,"is_reserved":false,"is_disabled":false,"rental_uris":{"android":"levelo://app?vid=e26df410-e387-4896-aca7-2e3751542b63","ios":"levelo://app?vid=e26df410-e387-4896-aca7-2e3751542b63"},"vehicle_type_id":"4","last_reported":1705651805,"current_range_meters":22400,"station_id":"ce4bgl92rcd13ifvqbq0","pricing_plan_id":"free"},{"bike_id":"6032d1ea-954a-4972-b4e6-53cf6f2a7168","system_id":"levelo_inurba_marseille","lat":43.312239,"lon":5.368562,"is_reserved":false,"is_disabled":false,"rental_uris":{"android":"levelo://app?vid=6032d1ea-954a-4972-b4e6-53cf6f2a7168","ios":"levelo://app?vid=6032d1ea-954a-4972-b4e6-53cf6f2a7168"},"vehicle_type_id":"4","last_reported":1705651805,"current_range_meters":27600,"station_id":"ce4bgl92rcd13ifvqbq0","pricing_plan_id":"free"},{"bike_id":"9714b370-798a-4d9e-b291-ebabb695f88e","system_id":"levelo_inurba_marseille","lat":43.312239,"lon":5.368562,"is_reserved":false,"is_disabled":false,"rental_uris":{"android":"levelo://app?vid=9714b370-798a-4d9e-b291-ebabb695f88e","ios":"levelo://app?vid=9714b370-798a-4d9e-b291-ebabb695f88e"},"vehicle_type_id":"4","last_reported":1705651805,"current_range_meters":25600,"station_id":"ce4bgl92rcd13ifvqbq0","pricing_plan_id":"free"},{"bike_id":"978b5330-327c-45f7-ba45-a854f3760589","system_id":"levelo_inurba_marseille","lat":43.312239,"lon":5.368562,"is_reserved":false,"is_disabled":false,"rental_uris":{"android":"levelo://app?vid=978b5330-327c-45f7-ba45-a854f3760589","ios":"levelo://app?vid=978b5330-327c-45f7-ba45-a854f3760589"},"vehicle_type_id":"4","last_reported":1705651805,"current_range_meters":22400,"station_id":"ce4bgl92rcd13ifvqbq0","pricing_plan_id":"free"},{"bike_id":"1cff2b27-f42e-4afb-b92b-8f65b6c599ae","system_id":"levelo_inurba_marseille","lat":43.312239,"lon":5.368562,"is_reserved":false,"is_disabled":false,"rental_uris":{"android":"levelo://app?vid=1cff2b27-f42e-4afb-b92b-8f65b6c599ae","ios":"levelo://app?vid=1cff2b27-f42e-4afb-b92b-8f65b6c599ae"},"vehicle_type_id":"4","last_reported":1705651805,"current_range_meters":27200,"station_id":"ce4bgl92rcd13ifvqbq0","pricing_plan_id":"free"},{"bike_id":"d532ce73-aa35-4193-9ce9-10f3cc0c6508","system_id":"levelo_inurba_marseille","lat":43.312239,"lon":5.368562,"is_reserved":false,"is_disabled":false,"rental_uris":{"android":"levelo://app?vid=d532ce73-aa35-4193-9ce9-10f3cc0c6508","ios":"levelo://app?vid=d532ce73-aa35-4193-9ce9-10f3cc0c6508"},"vehicle_type_id":"4","last_reported":1705651805,"current_range_meters":10000,"station_id":"ce4bgl92rcd13ifvqbq0","pricing_plan_id":"free"},{"bike_id":"8d10b4d2-ffc4-4c9c-aefd-ffbd23cc5e98","system_id":"levelo_inurba_marseille","lat":43.312239,"lon":5.368562,"is_reserved":false,"is_disabled":false,"rental_uris":{"android":"levelo://app?vid=8d10b4d2-ffc4-4c9c-aefd-ffbd23cc5e98","ios":"levelo://app?vid=8d10b4d2-ffc4-4c9c-aefd-ffbd23cc5e98"},"vehicle_type_id":"4","last_reported":1705651805,"current_range_meters":27200,"station_id":"ce4bgl92rcd13ifvqbq0","pricing_plan_id":"free"},{"bike_id":"1b2ee33d-4188-46b3-9f5c-6a5fe287ce5c","system_id":"levelo_inurba_marseille","lat":43.312239,"lon":5.368562,"is_reserved":false,"is_disabled":false,"rental_uris":{"android":"levelo://app?vid=1b2ee33d-4188-46b3-9f5c-6a5fe287ce5c","ios":"levelo://app?vid=1b2ee33d-4188-46b3-9f5c-6a5fe287ce5c"},"vehicle_type_id":"4","last_reported":1705651805,"current_range_meters":19600,"station_id":"ce4bgl92rcd13ifvqbq0","pricing_plan_id":"free"},{"bike_id":"89e9423e-6944-4d7f-92ae-c7d3b056b5cc","system_id":"levelo_inurba_marseille","lat":43.309076,"lon":5.368465,"is_reserved":false,"is_disabled":false,"rental_uris":{"android":"levelo://app?vid=89e9423e-6944-4d7f-92ae-c7d3b056b5cc","ios":"levelo://app?vid=89e9423e-6944-4d7f-92ae-c7d3b056b5cc"},"vehicle_type_id":"4","last_reported":1705651805,"current_range_meters":21600,"station_id":"ce4bgn92rcd13ifvqbvg","pricing_plan_id":"free"},{"bike_id":"7f57cc82-d70c-4c1a-ba34-96ebd763daa3","system_id":"levelo_inurba_marseille","lat":43.310469,"lon":5.371315,"is_reserved":false,"is_disabled":false,"rental_uris":{"android":"levelo://app?vid=7f57cc82-d70c-4c1a-ba34-96ebd763daa3","ios":"levelo://app?vid=7f57cc82-d70c-4c1a-ba34-96ebd763daa3"},"vehicle_type_id":"4","last_reported":1705651805,"current_range_meters":3200,"station_id":"","pricing_plan_id":"free"},{"bike_id":"68cb40b2-684c-45a9-a526-3a161654aa25","system_id":"levelo_inurba_marseille","lat":43.31484,"lon":5.37303,"is_reserved":false,"is_disabled":false,"rental_uris":{"android":"levelo://app?vid=68cb40b2-684c-45a9-a526-3a161654aa25","ios":"levelo://app?vid=68cb40b2-684c-45a9-a526-3a161654aa25"},"vehicle_type_id":"4","last_reported":1705651805,"current_range_meters":3600,"station_id":"ce4bgt12rcd13ifvqcd0","pricing_plan_id":"free"},{"bike_id":"676fd381-09f2-40af-8522-67d68635a56a","system_id":"levelo_inurba_marseille","lat":43.314811,"lon":5.373104,"is_reserved":false,"is_disabled":false,"rental_uris":{"android":"levelo://app?vid=676fd381-09f2-40af-8522-67d68635a56a","ios":"levelo://app?vid=676fd381-09f2-40af-8522-67d68635a56a"},"vehicle_type_id":"4","last_reported":1705651805,"current_range_meters":11200,"station_id":"ce4bgt12rcd13ifvqcd0","pricing_plan_id":"free"},{"bike_id":"b8850593-5fd1-4141-b7e1-95cc17a7818c","system_id":"levelo_inurba_marseille","lat":43.314811,"lon":5.373104,"is_reserved":false,"is_disabled":false,"rental_uris":{"android":"levelo://app?vid=b8850593-5fd1-4141-b7e1-95cc17a7818c","ios":"levelo://app?vid=b8850593-5fd1-4141-b7e1-95cc17a7818c"},"vehicle_type_id":"4","last_reported":1705651805,"current_range_meters":8000,"station_id":"ce4bgt12rcd13ifvqcd0","pricing_plan_id":"free"},{"bike_id":"b60e5a4d-572a-4d2d-b3e8-74f299aa969f","system_id":"levelo_inurba_marseille","lat":43.309039,"lon":5.371797,"is_reserved":false,"is_disabled":false,"rental_uris":{"android":"levelo://app?vid=b60e5a4d-572a-4d2d-b3e8-74f299aa969f","ios":"levelo://app?vid=b60e5a4d-572a-4d2d-b3e8-74f299aa969f"},"vehicle_type_id":"4","last_reported":1705651805,"current_range_meters":31200,"station_id":"ce4bguh2rcd13ifvqckg","pricing_plan_id":"free"},{"bike_id":"0ff60d0a-17dd-4235-b490-be30c9d148af","system_id":"levelo_inurba_marseille","lat":43.309039,"lon":5.371797,"is_reserved":false,"is_disabled":false,"rental_uris":{"android":"levelo://app?vid=0ff60d0a-17dd-4235-b490-be30c9d148af","ios":"levelo://app?vid=0ff60d0a-17dd-4235-b490-be30c9d148af"},"vehicle_type_id":"4","last_reported":1705651805,"current_range_meters":27200,"station_id":"ce4bguh2rcd13ifvqckg","pricing_plan_id":"free"},{"bike_id":"5f838d90-cace-47c8-a8c2-671dc5a298a6","system_id":"levelo_inurba_marseille","lat":43.309039,"lon":5.371797,"is_reserved":false,"is_disabled":false,"rental_uris":{"android":"levelo://app?vid=5f838d90-cace-47c8-a8c2-671dc5a298a6","ios":"levelo://app?vid=5f838d90-cace-47c8-a8c2-671dc5a298a6"},"vehicle_type_id":"4","last_reported":1705651805,"current_range_meters":19600,"station_id":"ce4bguh2rcd13ifvqckg","pricing_plan_id":"free"},{"bike_id":"046a39d3-6e80-431c-a0be-137415dccbf7","system_id":"levelo_inurba_marseille","lat":43.309039,"lon":5.371797,"is_reserved":false,"is_disabled":false,"rental_uris":{"android":"levelo://app?vid=046a39d3-6e80-431c-a0be-137415dccbf7","ios":"levelo://app?vid=046a39d3-6e80-431c-a0be-137415dccbf7"},"vehicle_type_id":"4","last_reported":1705651805,"current_range_meters":31200,"station_id":"ce4bguh2rcd13ifvqckg","pricing_plan_id":"free"},{"bike_id":"357b62b6-9c8d-4ca8-b807-4e45847eea8b","system_id":"levelo_inurba_marseille","lat":43.309039,"lon":5.371797,"is_reserved":false,"is_disabled":false,"rental_uris":{"android":"levelo://app?vid=357b62b6-9c8d-4ca8-b807-4e45847eea8b","ios":"levelo://app?vid=357b62b6-9c8d-4ca8-b807-4e45847eea8b"},"vehicle_type_id":"4","last_reported":1705651805,"current_range_meters":16800,"station_id":"ce4bguh2rcd13ifvqckg","pricing_plan_id":"free"},{"bike_id":"bdeb0438-bfe3-4562-91e3-8d67a00a1d8d","system_id":"levelo_inurba_marseille","lat":43.309039,"lon":5.371797,"is_reserved":false,"is_disabled":false,"rental_uris":{"android":"levelo://app?vid=bdeb0438-bfe3-4562-91e3-8d67a00a1d8d","ios":"levelo://app?vid=bdeb0438-bfe3-4562-91e3-8d67a00a1d8d"},"vehicle_type_id":"4","last_reported":1705651805,"current_range_meters":23600,"station_id":"ce4bguh2rcd13ifvqckg","pricing_plan_id":"free"},{"bike_id":"d984e707-eae5-45a6-b19a-6c8514e957b6","system_id":"levelo_inurba_marseille","lat":43.31298,"lon":5.37576,"is_reserved":false,"is_disabled":false,"rental_uris":{"android":"levelo://app?vid=d984e707-eae5-45a6-b19a-6c8514e957b6","ios":"levelo://app?vid=d984e707-eae5-45a6-b19a-6c8514e957b6"},"vehicle_type_id":"4","last_reported":1705651805,"current_range_meters":0,"station_id":"","pricing_plan_id":"free"},{"bike_id":"52a1c2fe-c622-4c91-9d01-64f3fab1f855","system_id":"levelo_inurba_marseille","lat":43.305368,"lon":5.367343,"is_reserved":false,"is_disabled":false,"rental_uris":{"android":"levelo://app?vid=52a1c2fe-c622-4c91-9d01-64f3fab1f855","ios":"levelo://app?vid=52a1c2fe-c622-4c91-9d01-64f3fab1f855"},"vehicle_type_id":"4","last_reported":1705651805,"current_range_meters":26000,"station_id":"ce4bgrp2rcd13ifvqc9g","pricing_plan_id":"free"},{"bike_id":"3cdd9784-78bf-429c-911f-fa446d19a5ab","system_id":"levelo_inurba_marseille","lat":43.305368,"lon":5.367343,"is_reserved":false,"is_disabled":false,"rental_uris":{"android":"levelo://app?vid=3cdd9784-78bf-429c-911f-fa446d19a5ab","ios":"levelo://app?vid=3cdd9784-78bf-429c-911f-fa446d19a5ab"},"vehicle_type_id":"4","last_reported":1705651805,"current_range_meters":3600,"station_id":"ce4bgrp2rcd13ifvqc9g","pricing_plan_id":"free"},{"bike_id":"48245dd2-6e02-485c-8517-26890ddd0870","system_id":"levelo_inurba_marseille","lat":43.305712,"lon":5.365641,"is_reserved":false,"is_disabled":false,"rental_uris":{"android":"levelo://app?vid=48245dd2-6e02-485c-8517-26890ddd0870","ios":"levelo://app?vid=48245dd2-6e02-485c-8517-26890ddd0870"},"vehicle_type_id":"4","last_reported":1705651805,"current_range_meters":7600,"station_id":"ce4bgs12rcd13ifvqcag","pricing_plan_id":"free"},{"bike_id":"e75b3ddb-33be-4965-9654-dfc31f055542","system_id":"levelo_inurba_marseille","lat":43.305368,"lon":5.367343,"is_reserved":false,"is_disabled":false,"rental_uris":{"android":"levelo://app?vid=e75b3ddb-33be-4965-9654-dfc31f055542","ios":"levelo://app?vid=e75b3ddb-33be-4965-9654-dfc31f055542"},"vehicle_type_id":"4","last_reported":1705651805,"current_range_meters":20000,"station_id":"ce4bgrp2rcd13ifvqc9g","pricing_plan_id":"free"},{"bike_id":"a529f334-ba61-4f46-a4f2-8e6a18b1b5a9","system_id":"levelo_inurba_marseille","lat":43.305368,"lon":5.367343,"is_reserved":false,"is_disabled":false,"rental_uris":{"android":"levelo://app?vid=a529f334-ba61-4f46-a4f2-8e6a18b1b5a9","ios":"levelo://app?vid=a529f334-ba61-4f46-a4f2-8e6a18b1b5a9"},"vehicle_type_id":"4","last_reported":1705651805,"current_range_meters":23200,"station_id":"ce4bgrp2rcd13ifvqc9g","pricing_plan_id":"free"},{"bike_id":"1fb4a1d1-ee85-425d-9591-1eb8371235e6","system_id":"levelo_inurba_marseille","lat":43.305368,"lon":5.367343,"is_reserved":false,"is_disabled":false,"rental_uris":{"android":"levelo://app?vid=1fb4a1d1-ee85-425d-9591-1eb8371235e6","ios":"levelo://app?vid=1fb4a1d1-ee85-425d-9591-1eb8371235e6"},"vehicle_type_id":"4","last_reported":1705651805,"current_range_meters":21200,"station_id":"ce4bgrp2rcd13ifvqc9g","pricing_plan_id":"free"},{"bike_id":"83464e1d-3d5c-435c-b182-b255075dbb41","system_id":"levelo_inurba_marseille","lat":43.305706,"lon":5.365654,"is_reserved":false,"is_disabled":false,"rental_uris":{"android":"levelo://app?vid=83464e1d-3d5c-435c-b182-b255075dbb41","ios":"levelo://app?vid=83464e1d-3d5c-435c-b182-b255075dbb41"},"vehicle_type_id":"4","last_reported":1705651805,"current_range_meters":5200,"station_id":"ce4bgs12rcd13ifvqcag","pricing_plan_id":"free"},{"bike_id":"471a3ec9-0fd5-4070-ba3b-e861c151641b","system_id":"levelo_inurba_marseille","lat":43.305368,"lon":5.367343,"is_reserved":false,"is_disabled":false,"rental_uris":{"android":"levelo://app?vid=471a3ec9-0fd5-4070-ba3b-e861c151641b","ios":"levelo://app?vid=471a3ec9-0fd5-4070-ba3b-e861c151641b"},"vehicle_type_id":"4","last_reported":1705651805,"current_range_meters":28800,"station_id":"ce4bgrp2rcd13ifvqc9g","pricing_plan_id":"free"},{"bike_id":"50c730ba-4d08-438b-affa-74196ac67b67","system_id":"levelo_inurba_marseille","lat":43.305368,"lon":5.367343,"is_reserved":false,"is_disabled":false,"rental_uris":{"android":"levelo://app?vid=50c730ba-4d08-438b-affa-74196ac67b67","ios":"levelo://app?vid=50c730ba-4d08-438b-affa-74196ac67b67"},"vehicle_type_id":"4","last_reported":1705651805,"current_range_meters":17600,"station_id":"ce4bgrp2rcd13ifvqc9g","pricing_plan_id":"free"},{"bike_id":"fdba47da-eeee-4e9f-9e2f-7ce90a300bca","system_id":"levelo_inurba_marseille","lat":43.305368,"lon":5.367343,"is_reserved":false,"is_disabled":false,"rental_uris":{"android":"levelo://app?vid=fdba47da-eeee-4e9f-9e2f-7ce90a300bca","ios":"levelo://app?vid=fdba47da-eeee-4e9f-9e2f-7ce90a300bca"},"vehicle_type_id":"4","last_reported":1705651805,"current_range_meters":20800,"station_id":"ce4bgrp2rcd13ifvqc9g","pricing_plan_id":"free"},{"bike_id":"fdb6f704-296e-46d2-b4e3-bfcbdf526dff","system_id":"levelo_inurba_marseille","lat":43.305368,"lon":5.367343,"is_reserved":false,"is_disabled":false,"rental_uris":{"android":"levelo://app?vid=fdb6f704-296e-46d2-b4e3-bfcbdf526dff","ios":"levelo://app?vid=fdb6f704-296e-46d2-b4e3-bfcbdf526dff"},"vehicle_type_id":"4","last_reported":1705651805,"current_range_meters":7200,"station_id":"ce4bgrp2rcd13ifvqc9g","pricing_plan_id":"free"},{"bike_id":"8d74ac24-e192-4b43-9c9e-cad977b82073","system_id":"levelo_inurba_marseille","lat":43.305706,"lon":5.365654,"is_reserved":false,"is_disabled":false,"rental_uris":{"android":"levelo://app?vid=8d74ac24-e192-4b43-9c9e-cad977b82073","ios":"levelo://app?vid=8d74ac24-e192-4b43-9c9e-cad977b82073"},"vehicle_type_id":"4","last_reported":1705651805,"current_range_meters":6400,"station_id":"ce4bgs12rcd13ifvqcag","pricing_plan_id":"free"},{"bike_id":"e83a990e-caa2-4beb-96a3-9cc0ff30a5bc","system_id":"levelo_inurba_marseille","lat":43.305368,"lon":5.367343,"is_reserved":false,"is_disabled":false,"rental_uris":{"android":"levelo://app?vid=e83a990e-caa2-4beb-96a3-9cc0ff30a5bc","ios":"levelo://app?vid=e83a990e-caa2-4beb-96a3-9cc0ff30a5bc"},"vehicle_type_id":"4","last_reported":1705651805,"current_range_meters":20000,"station_id":"ce4bgrp2rcd13ifvqc9g","pricing_plan_id":"free"},{"bike_id":"a9cfd4bb-f4f9-49a4-b2ae-e0d3807d1fbd","system_id":"levelo_inurba_marseille","lat":43.305368,"lon":5.367343,"is_reserved":false,"is_disabled":false,"rental_uris":{"android":"levelo://app?vid=a9cfd4bb-f4f9-49a4-b2ae-e0d3807d1fbd","ios":"levelo://app?vid=a9cfd4bb-f4f9-49a4-b2ae-e0d3807d1fbd"},"vehicle_type_id":"4","last_reported":1705651805,"current_range_meters":14400,"station_id":"ce4bgrp2rcd13ifvqc9g","pricing_plan_id":"free"},{"bike_id":"c9ae05d6-e2d0-466c-806e-479a1145d2b6","system_id":"levelo_inurba_marseille","lat":43.305706,"lon":5.365654,"is_reserved":false,"is_disabled":false,"rental_uris":{"android":"levelo://app?vid=c9ae05d6-e2d0-466c-806e-479a1145d2b6","ios":"levelo://app?vid=c9ae05d6-e2d0-466c-806e-479a1145d2b6"},"vehicle_type_id":"4","last_reported":1705651805,"current_range_meters":2800,"station_id":"ce4bgs12rcd13ifvqcag","pricing_plan_id":"free"},{"bike_id":"92e57a9b-39a8-4092-891e-fcb582de2e34","system_id":"levelo_inurba_marseille","lat":43.305706,"lon":5.365654,"is_reserved":false,"is_disabled":false,"rental_uris":{"android":"levelo://app?vid=92e57a9b-39a8-4092-891e-fcb582de2e34","ios":"levelo://app?vid=92e57a9b-39a8-4092-891e-fcb582de2e34"},"vehicle_type_id":"4","last_reported":1705651805,"current_range_meters":22800,"station_id":"ce4bgs12rcd13ifvqcag","pricing_plan_id":"free"},{"bike_id":"a52fbb90-6c8a-43a4-a669-e401d31a5c1f","system_id":"levelo_inurba_marseille","lat":43.305706,"lon":5.365654,"is_reserved":false,"is_disabled":false,"rental_uris":{"android":"levelo://app?vid=a52fbb90-6c8a-43a4-a669-e401d31a5c1f","ios":"levelo://app?vid=a52fbb90-6c8a-43a4-a669-e401d31a5c1f"},"vehicle_type_id":"4","last_reported":1705651805,"current_range_meters":26400,"station_id":"ce4bgs12rcd13ifvqcag","pricing_plan_id":"free"},{"bike_id":"c137e875-dcb6-4ee5-bc3c-110725c2eadc","system_id":"levelo_inurba_marseille","lat":43.305706,"lon":5.365654,"is_reserved":false,"is_disabled":false,"rental_uris":{"android":"levelo://app?vid=c137e875-dcb6-4ee5-bc3c-110725c2eadc","ios":"levelo://app?vid=c137e875-dcb6-4ee5-bc3c-110725c2eadc"},"vehicle_type_id":"4","last_reported":1705651805,"current_range_meters":6800,"station_id":"ce4bgs12rcd13ifvqcag","pricing_plan_id":"free"},{"bike_id":"7f70b407-0b46-4634-9d6d-e88d2d2a73a1","system_id":"levelo_inurba_marseille","lat":43.305989,"lon":5.37225,"is_reserved":false,"is_disabled":false,"rental_uris":{"android":"levelo://app?vid=7f70b407-0b46-4634-9d6d-e88d2d2a73a1","ios":"levelo://app?vid=7f70b407-0b46-4634-9d6d-e88d2d2a73a1"},"vehicle_type_id":"4","last_reported":1705651805,"current_range_meters":27600,"station_id":"ce4bgqh2rcd13ifvqc4g","pricing_plan_id":"free"},{"bike_id":"8300a531-448a-4c70-9abe-939c5f47895d","system_id":"levelo_inurba_marseille","lat":43.305989,"lon":5.37225,"is_reserved":false,"is_disabled":false,"rental_uris":{"android":"levelo://app?vid=8300a531-448a-4c70-9abe-939c5f47895d","ios":"levelo://app?vid=8300a531-448a-4c70-9abe-939c5f47895d"},"vehicle_type_id":"4","last_reported":1705651805,"current_range_meters":17600,"station_id":"ce4bgqh2rcd13ifvqc4g","pricing_plan_id":"free"},{"bike_id":"e3bf667a-f35b-4a6c-964d-d80cad80435e","system_id":"levelo_inurba_marseille","lat":43.305989,"lon":5.37225,"is_reserved":false,"is_disabled":false,"rental_uris":{"android":"levelo://app?vid=e3bf667a-f35b-4a6c-964d-d80cad80435e","ios":"levelo://app?vid=e3bf667a-f35b-4a6c-964d-d80cad80435e"},"vehicle_type_id":"4","last_reported":1705651805,"current_range_meters":22000,"station_id":"ce4bgqh2rcd13ifvqc4g","pricing_plan_id":"free"},{"bike_id":"9d889b2a-dcb6-4301-94ff-b032c2977d4e","system_id":"levelo_inurba_marseille","lat":43.311125,"lon":5.377624,"is_reserved":false,"is_disabled":false,"rental_uris":{"android":"levelo://app?vid=9d889b2a-dcb6-4301-94ff-b032c2977d4e","ios":"levelo://app?vid=9d889b2a-dcb6-4301-94ff-b032c2977d4e"},"vehicle_type_id":"4","last_reported":1705651805,"current_range_meters":29200,"station_id":"ce4bgt92rcd13ifvqcg0","pricing_plan_id":"free"},{"bike_id":"3d371a0e-5dc6-4bcd-bd68-ad293934a47c","system_id":"levelo_inurba_marseille","lat":43.307945,"lon":5.376487,"is_reserved":false,"is_disabled":false,"rental_uris":{"android":"levelo://app?vid=3d371a0e-5dc6-4bcd-bd68-ad293934a47c","ios":"levelo://app?vid=3d371a0e-5dc6-4bcd-bd68-ad293934a47c"},"vehicle_type_id":"4","last_reported":1705651805,"current_range_meters":28000,"station_id":"ce4bgv92rcd13ifvqcq0","pricing_plan_id":"free"},{"bike_id":"819b1a40-d6df-482f-82e8-64b53a316ad6","system_id":"levelo_inurba_marseille","lat":43.317028,"lon":5.377413,"is_reserved":false,"is_disabled":false,"rental_uris":{"android":"levelo://app?vid=819b1a40-d6df-482f-82e8-64b53a316ad6","ios":"levelo://app?vid=819b1a40-d6df-482f-82e8-64b53a316ad6"},"vehicle_type_id":"4","last_reported":1705651805,"current_range_meters":11600,"station_id":"ce4bgth2rcd13ifvqch0","pricing_plan_id":"free"},{"bike_id":"956b0e11-9d8c-4070-8a05-8aa37ef08fae","system_id":"levelo_inurba_marseille","lat":43.303046,"lon":5.368981,"is_reserved":false,"is_disabled":false,"rental_uris":{"android":"levelo://app?vid=956b0e11-9d8c-4070-8a05-8aa37ef08fae","ios":"levelo://app?vid=956b0e11-9d8c-4070-8a05-8aa37ef08fae"},"vehicle_type_id":"4","last_reported":1705651805,"current_range_meters":6000,"station_id":"ce4bgqh2rcd13ifvqc5g","pricing_plan_id":"free"},{"bike_id":"2dc4c5c9-7f5f-49a0-9366-9644d54090cb","system_id":"levelo_inurba_marseille","lat":43.303046,"lon":5.368981,"is_reserved":false,"is_disabled":false,"rental_uris":{"android":"levelo://app?vid=2dc4c5c9-7f5f-49a0-9366-9644d54090cb","ios":"levelo://app?vid=2dc4c5c9-7f5f-49a0-9366-9644d54090cb"},"vehicle_type_id":"4","last_reported":1705651805,"current_range_meters":31600,"station_id":"ce4bgqh2rcd13ifvqc5g","pricing_plan_id":"free"},{"bike_id":"a8b17b95-ef27-4459-9552-eb6dab02a6e1","system_id":"levelo_inurba_marseille","lat":43.30311,"lon":5.36894,"is_reserved":false,"is_disabled":false,"rental_uris":{"android":"levelo://app?vid=a8b17b95-ef27-4459-9552-eb6dab02a6e1","ios":"levelo://app?vid=a8b17b95-ef27-4459-9552-eb6dab02a6e1"},"vehicle_type_id":"4","last_reported":1705651805,"current_range_meters":17600,"station_id":"ce4bgqh2rcd13ifvqc5g","pricing_plan_id":"free"},{"bike_id":"499d6004-5f87-4159-b64b-658b08ba5f49","system_id":"levelo_inurba_marseille","lat":43.30304,"lon":5.368987,"is_reserved":false,"is_disabled":false,"rental_uris":{"android":"levelo://app?vid=499d6004-5f87-4159-b64b-658b08ba5f49","ios":"levelo://app?vid=499d6004-5f87-4159-b64b-658b08ba5f49"},"vehicle_type_id":"4","last_reported":1705651805,"current_range_meters":24800,"station_id":"ce4bgqh2rcd13ifvqc5g","pricing_plan_id":"free"},{"bike_id":"15c787c0-c09d-4fdb-9d13-006f6c96b22d","system_id":"levelo_inurba_marseille","lat":43.31528,"lon":5.38029,"is_reserved":false,"is_disabled":false,"rental_uris":{"android":"levelo://app?vid=15c787c0-c09d-4fdb-9d13-006f6c96b22d","ios":"levelo://app?vid=15c787c0-c09d-4fdb-9d13-006f6c96b22d"},"vehicle_type_id":"4","last_reported":1705651805,"current_range_meters":14400,"station_id":"ce4bhsp2rcd13ifvqi50","pricing_plan_id":"free"},{"bike_id":"de858ec0-3c15-4905-b5ea-2880848ffcfa","system_id":"levelo_inurba_marseille","lat":43.301939,"lon":5.366286,"is_reserved":false,"is_disabled":false,"rental_uris":{"android":"levelo://app?vid=de858ec0-3c15-4905-b5ea-2880848ffcfa","ios":"levelo://app?vid=de858ec0-3c15-4905-b5ea-2880848ffcfa"},"vehicle_type_id":"4","last_reported":1705651805,"current_range_meters":6800,"station_id":"ce4bgrh2rcd13ifvqc8g","pricing_plan_id":"free"},{"bike_id":"da1b9c3d-f29a-4268-a2d6-b6af382dc103","system_id":"levelo_inurba_marseille","lat":43.301939,"lon":5.366286,"is_reserved":false,"is_disabled":false,"rental_uris":{"android":"levelo://app?vid=da1b9c3d-f29a-4268-a2d6-b6af382dc103","ios":"levelo://app?vid=da1b9c3d-f29a-4268-a2d6-b6af382dc103"},"vehicle_type_id":"4","last_reported":1705651805,"current_range_meters":9200,"station_id":"ce4bgrh2rcd13ifvqc8g","pricing_plan_id":"free"},{"bike_id":"85a9b4ca-d602-4f18-8d52-3476a952b96c","system_id":"levelo_inurba_marseille","lat":43.301939,"lon":5.366286,"is_reserved":false,"is_disabled":false,"rental_uris":{"android":"levelo://app?vid=85a9b4ca-d602-4f18-8d52-3476a952b96c","ios":"levelo://app?vid=85a9b4ca-d602-4f18-8d52-3476a952b96c"},"vehicle_type_id":"4","last_reported":1705651805,"current_range_meters":23200,"station_id":"ce4bgrh2rcd13ifvqc8g","pricing_plan_id":"free"},{"bike_id":"9206cc2a-f48b-44dd-bd5d-fb9ce3146402","system_id":"levelo_inurba_marseille","lat":43.301939,"lon":5.366286,"is_reserved":false,"is_disabled":false,"rental_uris":{"android":"levelo://app?vid=9206cc2a-f48b-44dd-bd5d-fb9ce3146402","ios":"levelo://app?vid=9206cc2a-f48b-44dd-bd5d-fb9ce3146402"},"vehicle_type_id":"4","last_reported":1705651805,"current_range_meters":19200,"station_id":"ce4bgrh2rcd13ifvqc8g","pricing_plan_id":"free"},{"bike_id":"005ea7c6-0d96-4979-9e9f-b4f56a2ed4d9","system_id":"levelo_inurba_marseille","lat":43.308,"lon":5.38146,"is_reserved":false,"is_disabled":false,"rental_uris":{"android":"levelo://app?vid=005ea7c6-0d96-4979-9e9f-b4f56a2ed4d9","ios":"levelo://app?vid=005ea7c6-0d96-4979-9e9f-b4f56a2ed4d9"},"vehicle_type_id":"4","last_reported":1705651805,"current_range_meters":29600,"station_id":"ce4bgt12rcd13ifvqce0","pricing_plan_id":"free"},{"bike_id":"f19142ea-d69f-4ef0-b694-1554bec3730a","system_id":"levelo_inurba_marseille","lat":43.308,"lon":5.38152,"is_reserved":false,"is_disabled":false,"rental_uris":{"android":"levelo://app?vid=f19142ea-d69f-4ef0-b694-1554bec3730a","ios":"levelo://app?vid=f19142ea-d69f-4ef0-b694-1554bec3730a"},"vehicle_type_id":"4","last_reported":1705651805,"current_range_meters":2000,"station_id":"ce4bgt12rcd13ifvqce0","pricing_plan_id":"free"},{"bike_id":"f73943a6-5301-42bb-b60f-63964bddc3a4","system_id":"levelo_inurba_marseille","lat":43.30801,"lon":5.381546,"is_reserved":false,"is_disabled":false,"rental_uris":{"android":"levelo://app?vid=f73943a6-5301-42bb-b60f-63964bddc3a4","ios":"levelo://app?vid=f73943a6-5301-42bb-b60f-63964bddc3a4"},"vehicle_type_id":"4","last_reported":1705651805,"current_range_meters":0,"station_id":"ce4bgt12rcd13ifvqce0","pricing_plan_id":"free"},{"bike_id":"fd85f526-2b34-4607-b74a-30e0789ec525","system_id":"levelo_inurba_marseille","lat":43.304606,"lon":5.379026,"is_reserved":false,"is_disabled":false,"rental_uris":{"android":"levelo://app?vid=fd85f526-2b34-4607-b74a-30e0789ec525","ios":"levelo://app?vid=fd85f526-2b34-4607-b74a-30e0789ec525"},"vehicle_type_id":"4","last_reported":1705651805,"current_range_meters":24800,"station_id":"ce4bgup2rcd13ifvqcn0","pricing_plan_id":"free"},{"bike_id":"d441c98c-2e43-4126-b47f-963c20fb6911","system_id":"levelo_inurba_marseille","lat":43.304606,"lon":5.379026,"is_reserved":false,"is_disabled":false,"rental_uris":{"android":"levelo://app?vid=d441c98c-2e43-4126-b47f-963c20fb6911","ios":"levelo://app?vid=d441c98c-2e43-4126-b47f-963c20fb6911"},"vehicle_type_id":"4","last_reported":1705651805,"current_range_meters":28400,"station_id":"ce4bgup2rcd13ifvqcn0","pricing_plan_id":"free"},{"bike_id":"9e0aff55-68fe-4579-a0bd-b62b59fcccee","system_id":"levelo_inurba_marseille","lat":43.304606,"lon":5.379026,"is_reserved":false,"is_disabled":false,"rental_uris":{"android":"levelo://app?vid=9e0aff55-68fe-4579-a0bd-b62b59fcccee","ios":"levelo://app?vid=9e0aff55-68fe-4579-a0bd-b62b59fcccee"},"vehicle_type_id":"4","last_reported":1705651805,"current_range_meters":24400,"station_id":"ce4bgup2rcd13ifvqcn0","pricing_plan_id":"free"},{"bike_id":"37a89537-539e-4afb-b428-02fe85b2df9b","system_id":"levelo_inurba_marseille","lat":43.304606,"lon":5.379026,"is_reserved":false,"is_disabled":false,"rental_uris":{"android":"levelo://app?vid=37a89537-539e-4afb-b428-02fe85b2df9b","ios":"levelo://app?vid=37a89537-539e-4afb-b428-02fe85b2df9b"},"vehicle_type_id":"4","last_reported":1705651805,"current_range_meters":19200,"station_id":"ce4bgup2rcd13ifvqcn0","pricing_plan_id":"free"},{"bike_id":"8e0d58fd-7084-4256-8abb-627c7a92c4a1","system_id":"levelo_inurba_marseille","lat":43.304606,"lon":5.379026,"is_reserved":false,"is_disabled":false,"rental_uris":{"android":"levelo://app?vid=8e0d58fd-7084-4256-8abb-627c7a92c4a1","ios":"levelo://app?vid=8e0d58fd-7084-4256-8abb-627c7a92c4a1"},"vehicle_type_id":"4","last_reported":1705651805,"current_range_meters":16800,"station_id":"ce4bgup2rcd13ifvqcn0","pricing_plan_id":"free"},{"bike_id":"fd71e410-64dd-4217-b8ad-cd802d5fcf7c","system_id":"levelo_inurba_marseille","lat":43.304606,"lon":5.379026,"is_reserved":false,"is_disabled":false,"rental_uris":{"android":"levelo://app?vid=fd71e410-64dd-4217-b8ad-cd802d5fcf7c","ios":"levelo://app?vid=fd71e410-64dd-4217-b8ad-cd802d5fcf7c"},"vehicle_type_id":"4","last_reported":1705651805,"current_range_meters":17600,"station_id":"ce4bgup2rcd13ifvqcn0","pricing_plan_id":"free"},{"bike_id":"c3692ec7-7344-4e6d-9af7-34c5bc1c46fc","system_id":"levelo_inurba_marseille","lat":43.304606,"lon":5.379026,"is_reserved":false,"is_disabled":false,"rental_uris":{"android":"levelo://app?vid=c3692ec7-7344-4e6d-9af7-34c5bc1c46fc","ios":"levelo://app?vid=c3692ec7-7344-4e6d-9af7-34c5bc1c46fc"},"vehicle_type_id":"4","last_reported":1705651805,"current_range_meters":20400,"station_id":"ce4bgup2rcd13ifvqcn0","pricing_plan_id":"free"},{"bike_id":"7ec1be20-6201-4fae-84cd-455ded7d0a4e","system_id":"levelo_inurba_marseille","lat":43.304606,"lon":5.379026,"is_reserved":false,"is_disabled":false,"rental_uris":{"android":"levelo://app?vid=7ec1be20-6201-4fae-84cd-455ded7d0a4e","ios":"levelo://app?vid=7ec1be20-6201-4fae-84cd-455ded7d0a4e"},"vehicle_type_id":"4","last_reported":1705651805,"current_range_meters":14400,"station_id":"ce4bgup2rcd13ifvqcn0","pricing_plan_id":"free"},{"bike_id":"bc5b3074-3336-4f53-8375-5fe8d078756f","system_id":"levelo_inurba_marseille","lat":43.304606,"lon":5.379026,"is_reserved":false,"is_disabled":false,"rental_uris":{"android":"levelo://app?vid=bc5b3074-3336-4f53-8375-5fe8d078756f","ios":"levelo://app?vid=bc5b3074-3336-4f53-8375-5fe8d078756f"},"vehicle_type_id":"4","last_reported":1705651805,"current_range_meters":13200,"station_id":"ce4bgup2rcd13ifvqcn0","pricing_plan_id":"free"},{"bike_id":"548e247c-47af-4e09-9cf9-a68d2d19f6fe","system_id":"levelo_inurba_marseille","lat":43.304606,"lon":5.379026,"is_reserved":false,"is_disabled":false,"rental_uris":{"android":"levelo://app?vid=548e247c-47af-4e09-9cf9-a68d2d19f6fe","ios":"levelo://app?vid=548e247c-47af-4e09-9cf9-a68d2d19f6fe"},"vehicle_type_id":"4","last_reported":1705651805,"current_range_meters":30400,"station_id":"ce4bgup2rcd13ifvqcn0","pricing_plan_id":"free"},{"bike_id":"dbc22a5a-5dbd-4491-96a0-6e34fb4d3d27","system_id":"levelo_inurba_marseille","lat":43.304606,"lon":5.379026,"is_reserved":false,"is_disabled":false,"rental_uris":{"android":"levelo://app?vid=dbc22a5a-5dbd-4491-96a0-6e34fb4d3d27","ios":"levelo://app?vid=dbc22a5a-5dbd-4491-96a0-6e34fb4d3d27"},"vehicle_type_id":"4","last_reported":1705651805,"current_range_meters":24400,"station_id":"ce4bgup2rcd13ifvqcn0","pricing_plan_id":"free"},{"bike_id":"b394d8c8-146a-45c2-8a65-1a483eec2322","system_id":"levelo_inurba_marseille","lat":43.304606,"lon":5.379026,"is_reserved":false,"is_disabled":false,"rental_uris":{"android":"levelo://app?vid=b394d8c8-146a-45c2-8a65-1a483eec2322","ios":"levelo://app?vid=b394d8c8-146a-45c2-8a65-1a483eec2322"},"vehicle_type_id":"4","last_reported":1705651805,"current_range_meters":15600,"station_id":"ce4bgup2rcd13ifvqcn0","pricing_plan_id":"free"},{"bike_id":"516e8ec7-dcc0-4eae-a5b9-12e43f3399da","system_id":"levelo_inurba_marseille","lat":43.304606,"lon":5.379026,"is_reserved":false,"is_disabled":false,"rental_uris":{"android":"levelo://app?vid=516e8ec7-dcc0-4eae-a5b9-12e43f3399da","ios":"levelo://app?vid=516e8ec7-dcc0-4eae-a5b9-12e43f3399da"},"vehicle_type_id":"4","last_reported":1705651805,"current_range_meters":27600,"station_id":"ce4bgup2rcd13ifvqcn0","pricing_plan_id":"free"},{"bike_id":"c7489a96-6454-48e7-825d-ec911cb91bbf","system_id":"levelo_inurba_marseille","lat":43.304606,"lon":5.379026,"is_reserved":false,"is_disabled":false,"rental_uris":{"android":"levelo://app?vid=c7489a96-6454-48e7-825d-ec911cb91bbf","ios":"levelo://app?vid=c7489a96-6454-48e7-825d-ec911cb91bbf"},"vehicle_type_id":"4","last_reported":1705651805,"current_range_meters":9600,"station_id":"ce4bgup2rcd13ifvqcn0","pricing_plan_id":"free"},{"bike_id":"4670fb2d-dc30-4855-964d-940313d18d6d","system_id":"levelo_inurba_marseille","lat":43.304606,"lon":5.379026,"is_reserved":false,"is_disabled":false,"rental_uris":{"android":"levelo://app?vid=4670fb2d-dc30-4855-964d-940313d18d6d","ios":"levelo://app?vid=4670fb2d-dc30-4855-964d-940313d18d6d"},"vehicle_type_id":"4","last_reported":1705651805,"current_range_meters":11600,"station_id":"ce4bgup2rcd13ifvqcn0","pricing_plan_id":"free"},{"bike_id":"2303b9c9-1389-46f0-9991-ac55230d8243","system_id":"levelo_inurba_marseille","lat":43.30466,"lon":5.37908,"is_reserved":false,"is_disabled":false,"rental_uris":{"android":"levelo://app?vid=2303b9c9-1389-46f0-9991-ac55230d8243","ios":"levelo://app?vid=2303b9c9-1389-46f0-9991-ac55230d8243"},"vehicle_type_id":"4","last_reported":1705651805,"current_range_meters":10000,"station_id":"ce4bgup2rcd13ifvqcn0","pricing_plan_id":"free"},{"bike_id":"75ba6554-940a-4647-a210-035b5e41dc36","system_id":"levelo_inurba_marseille","lat":43.304606,"lon":5.379026,"is_reserved":false,"is_disabled":false,"rental_uris":{"android":"levelo://app?vid=75ba6554-940a-4647-a210-035b5e41dc36","ios":"levelo://app?vid=75ba6554-940a-4647-a210-035b5e41dc36"},"vehicle_type_id":"4","last_reported":1705651805,"current_range_meters":3200,"station_id":"ce4bgup2rcd13ifvqcn0","pricing_plan_id":"free"},{"bike_id":"ffa5fef5-b0e0-45af-98bb-4fa6880af65d","system_id":"levelo_inurba_marseille","lat":43.304606,"lon":5.379026,"is_reserved":false,"is_disabled":false,"rental_uris":{"android":"levelo://app?vid=ffa5fef5-b0e0-45af-98bb-4fa6880af65d","ios":"levelo://app?vid=ffa5fef5-b0e0-45af-98bb-4fa6880af65d"},"vehicle_type_id":"4","last_reported":1705651805,"current_range_meters":19600,"station_id":"ce4bgup2rcd13ifvqcn0","pricing_plan_id":"free"},{"bike_id":"0e44ecba-16b8-4be0-a4e1-b04eff7ef760","system_id":"levelo_inurba_marseille","lat":43.304606,"lon":5.379026,"is_reserved":false,"is_disabled":false,"rental_uris":{"android":"levelo://app?vid=0e44ecba-16b8-4be0-a4e1-b04eff7ef760","ios":"levelo://app?vid=0e44ecba-16b8-4be0-a4e1-b04eff7ef760"},"vehicle_type_id":"4","last_reported":1705651805,"current_range_meters":20000,"station_id":"ce4bgup2rcd13ifvqcn0","pricing_plan_id":"free"},{"bike_id":"00911173-8e2e-4cd7-90f3-856a388830ce","system_id":"levelo_inurba_marseille","lat":43.304606,"lon":5.379026,"is_reserved":false,"is_disabled":false,"rental_uris":{"android":"levelo://app?vid=00911173-8e2e-4cd7-90f3-856a388830ce","ios":"levelo://app?vid=00911173-8e2e-4cd7-90f3-856a388830ce"},"vehicle_type_id":"4","last_reported":1705651805,"current_range_meters":25600,"station_id":"ce4bgup2rcd13ifvqcn0","pricing_plan_id":"free"},{"bike_id":"00fc2ee2-46cd-4c11-9c37-822296403f6d","system_id":"levelo_inurba_marseille","lat":43.304606,"lon":5.379026,"is_reserved":false,"is_disabled":false,"rental_uris":{"android":"levelo://app?vid=00fc2ee2-46cd-4c11-9c37-822296403f6d","ios":"levelo://app?vid=00fc2ee2-46cd-4c11-9c37-822296403f6d"},"vehicle_type_id":"4","last_reported":1705651805,"current_range_meters":5200,"station_id":"ce4bgup2rcd13ifvqcn0","pricing_plan_id":"free"},{"bike_id":"d4e69635-c5ab-4c76-8351-66543b69e03f","system_id":"levelo_inurba_marseille","lat":43.304606,"lon":5.379026,"is_reserved":false,"is_disabled":false,"rental_uris":{"android":"levelo://app?vid=d4e69635-c5ab-4c76-8351-66543b69e03f","ios":"levelo://app?vid=d4e69635-c5ab-4c76-8351-66543b69e03f"},"vehicle_type_id":"4","last_reported":1705651805,"current_range_meters":9200,"station_id":"ce4bgup2rcd13ifvqcn0","pricing_plan_id":"free"},{"bike_id":"7c53c2d8-36cd-4a8e-b6aa-4ee6e4b89aa4","system_id":"levelo_inurba_marseille","lat":43.304606,"lon":5.379026,"is_reserved":false,"is_disabled":false,"rental_uris":{"android":"levelo://app?vid=7c53c2d8-36cd-4a8e-b6aa-4ee6e4b89aa4","ios":"levelo://app?vid=7c53c2d8-36cd-4a8e-b6aa-4ee6e4b89aa4"},"vehicle_type_id":"4","last_reported":1705651805,"current_range_meters":16000,"station_id":"ce4bgup2rcd13ifvqcn0","pricing_plan_id":"free"},{"bike_id":"3a78043c-99af-4808-99bb-975569c77a6b","system_id":"levelo_inurba_marseille","lat":43.304606,"lon":5.379026,"is_reserved":false,"is_disabled":false,"rental_uris":{"android":"levelo://app?vid=3a78043c-99af-4808-99bb-975569c77a6b","ios":"levelo://app?vid=3a78043c-99af-4808-99bb-975569c77a6b"},"vehicle_type_id":"4","last_reported":1705651805,"current_range_meters":2800,"station_id":"ce4bgup2rcd13ifvqcn0","pricing_plan_id":"free"},{"bike_id":"ac883dcb-52a2-4b44-93b4-791bf6515000","system_id":"levelo_inurba_marseille","lat":43.304606,"lon":5.379026,"is_reserved":false,"is_disabled":false,"rental_uris":{"android":"levelo://app?vid=ac883dcb-52a2-4b44-93b4-791bf6515000","ios":"levelo://app?vid=ac883dcb-52a2-4b44-93b4-791bf6515000"},"vehicle_type_id":"4","last_reported":1705651805,"current_range_meters":27200,"station_id":"ce4bgup2rcd13ifvqcn0","pricing_plan_id":"free"},{"bike_id":"71a126c7-b719-426c-b069-4af1d4a5ba47","system_id":"levelo_inurba_marseille","lat":43.324756,"lon":5.365734,"is_reserved":false,"is_disabled":false,"rental_uris":{"android":"levelo://app?vid=71a126c7-b719-426c-b069-4af1d4a5ba47","ios":"levelo://app?vid=71a126c7-b719-426c-b069-4af1d4a5ba47"},"vehicle_type_id":"4","last_reported":1705651805,"current_range_meters":3200,"station_id":"ce4bhs12rcd13ifvqhvg","pricing_plan_id":"free"},{"bike_id":"303265ce-08f1-4bc2-afd3-0425b4b00f8f","system_id":"levelo_inurba_marseille","lat":43.32476,"lon":5.36576,"is_reserved":false,"is_disabled":false,"rental_uris":{"android":"levelo://app?vid=303265ce-08f1-4bc2-afd3-0425b4b00f8f","ios":"levelo://app?vid=303265ce-08f1-4bc2-afd3-0425b4b00f8f"},"vehicle_type_id":"4","last_reported":1705651805,"current_range_meters":22000,"station_id":"ce4bhs12rcd13ifvqhvg","pricing_plan_id":"free"},{"bike_id":"5d853006-7bbd-4819-9fd4-f91f52528b65","system_id":"levelo_inurba_marseille","lat":43.304606,"lon":5.379026,"is_reserved":false,"is_disabled":false,"rental_uris":{"android":"levelo://app?vid=5d853006-7bbd-4819-9fd4-f91f52528b65","ios":"levelo://app?vid=5d853006-7bbd-4819-9fd4-f91f52528b65"},"vehicle_type_id":"4","last_reported":1705651805,"current_range_meters":27600,"station_id":"ce4bgup2rcd13ifvqcn0","pricing_plan_id":"free"},{"bike_id":"2179bf7d-2ef3-478f-ab07-0d1474ed1fd2","system_id":"levelo_inurba_marseille","lat":43.324765,"lon":5.36572,"is_reserved":false,"is_disabled":false,"rental_uris":{"android":"levelo://app?vid=2179bf7d-2ef3-478f-ab07-0d1474ed1fd2","ios":"levelo://app?vid=2179bf7d-2ef3-478f-ab07-0d1474ed1fd2"},"vehicle_type_id":"4","last_reported":1705651805,"current_range_meters":7200,"station_id":"ce4bhs12rcd13ifvqhvg","pricing_plan_id":"free"},{"bike_id":"3cb5ad2b-e743-4194-9d67-007686b421e8","system_id":"levelo_inurba_marseille","lat":43.324771,"lon":5.36557,"is_reserved":false,"is_disabled":false,"rental_uris":{"android":"levelo://app?vid=3cb5ad2b-e743-4194-9d67-007686b421e8","ios":"levelo://app?vid=3cb5ad2b-e743-4194-9d67-007686b421e8"},"vehicle_type_id":"4","last_reported":1705651805,"current_range_meters":17600,"station_id":"ce4bhs12rcd13ifvqhvg","pricing_plan_id":"free"},{"bike_id":"7a783992-957e-490b-a4e1-f2dfaa4bc2a8","system_id":"levelo_inurba_marseille","lat":43.304606,"lon":5.379026,"is_reserved":false,"is_disabled":false,"rental_uris":{"android":"levelo://app?vid=7a783992-957e-490b-a4e1-f2dfaa4bc2a8","ios":"levelo://app?vid=7a783992-957e-490b-a4e1-f2dfaa4bc2a8"},"vehicle_type_id":"4","last_reported":1705651805,"current_range_meters":20400,"station_id":"ce4bgup2rcd13ifvqcn0","pricing_plan_id":"free"},{"bike_id":"d655f5bb-ed30-48d1-8fea-b10c22e797ad","system_id":"levelo_inurba_marseille","lat":43.324771,"lon":5.36557,"is_reserved":false,"is_disabled":false,"rental_uris":{"android":"levelo://app?vid=d655f5bb-ed30-48d1-8fea-b10c22e797ad","ios":"levelo://app?vid=d655f5bb-ed30-48d1-8fea-b10c22e797ad"},"vehicle_type_id":"4","last_reported":1705651805,"current_range_meters":21600,"station_id":"ce4bhs12rcd13ifvqhvg","pricing_plan_id":"free"},{"bike_id":"a3bbbcc9-80fd-4d27-a820-b5b86d437525","system_id":"levelo_inurba_marseille","lat":43.30285,"lon":5.3769,"is_reserved":false,"is_disabled":false,"rental_uris":{"android":"levelo://app?vid=a3bbbcc9-80fd-4d27-a820-b5b86d437525","ios":"levelo://app?vid=a3bbbcc9-80fd-4d27-a820-b5b86d437525"},"vehicle_type_id":"4","last_reported":1705651805,"current_range_meters":24400,"station_id":"","pricing_plan_id":"free"},{"bike_id":"8b823239-9f51-4ee7-b69b-6304b05fd101","system_id":"levelo_inurba_marseille","lat":43.30285,"lon":5.3769,"is_reserved":false,"is_disabled":false,"rental_uris":{"android":"levelo://app?vid=8b823239-9f51-4ee7-b69b-6304b05fd101","ios":"levelo://app?vid=8b823239-9f51-4ee7-b69b-6304b05fd101"},"vehicle_type_id":"4","last_reported":1705651805,"current_range_meters":19200,"station_id":"","pricing_plan_id":"free"},{"bike_id":"a763c8b3-8524-410f-9ebc-e3069cb374cc","system_id":"levelo_inurba_marseille","lat":43.30283,"lon":5.37694,"is_reserved":false,"is_disabled":false,"rental_uris":{"android":"levelo://app?vid=a763c8b3-8524-410f-9ebc-e3069cb374cc","ios":"levelo://app?vid=a763c8b3-8524-410f-9ebc-e3069cb374cc"},"vehicle_type_id":"4","last_reported":1705651805,"current_range_meters":28400,"station_id":"","pricing_plan_id":"free"},{"bike_id":"44ae915b-abfb-4ec8-8549-601801e3fd19","system_id":"levelo_inurba_marseille","lat":43.30285,"lon":5.37698,"is_reserved":false,"is_disabled":false,"rental_uris":{"android":"levelo://app?vid=44ae915b-abfb-4ec8-8549-601801e3fd19","ios":"levelo://app?vid=44ae915b-abfb-4ec8-8549-601801e3fd19"},"vehicle_type_id":"4","last_reported":1705651805,"current_range_meters":26800,"station_id":"","pricing_plan_id":"free"},{"bike_id":"5f0513f9-88e1-4300-8b58-e75262291bc9","system_id":"levelo_inurba_marseille","lat":43.302815,"lon":5.37694,"is_reserved":false,"is_disabled":false,"rental_uris":{"android":"levelo://app?vid=5f0513f9-88e1-4300-8b58-e75262291bc9","ios":"levelo://app?vid=5f0513f9-88e1-4300-8b58-e75262291bc9"},"vehicle_type_id":"4","last_reported":1705651805,"current_range_meters":30000,"station_id":"","pricing_plan_id":"free"},{"bike_id":"91a4173d-76ed-4fa1-a178-d07a50888f3b","system_id":"levelo_inurba_marseille","lat":43.30283,"lon":5.376978,"is_reserved":false,"is_disabled":false,"rental_uris":{"android":"levelo://app?vid=91a4173d-76ed-4fa1-a178-d07a50888f3b","ios":"levelo://app?vid=91a4173d-76ed-4fa1-a178-d07a50888f3b"},"vehicle_type_id":"4","last_reported":1705651805,"current_range_meters":19600,"station_id":"","pricing_plan_id":"free"},{"bike_id":"4882552d-04dc-4ad5-96fc-fa5d2c660440","system_id":"levelo_inurba_marseille","lat":43.30283,"lon":5.37698,"is_reserved":false,"is_disabled":false,"rental_uris":{"android":"levelo://app?vid=4882552d-04dc-4ad5-96fc-fa5d2c660440","ios":"levelo://app?vid=4882552d-04dc-4ad5-96fc-fa5d2c660440"},"vehicle_type_id":"4","last_reported":1705651805,"current_range_meters":27200,"station_id":"","pricing_plan_id":"free"},{"bike_id":"aa10fdc8-227b-4180-8e63-e9ed01058d1e","system_id":"levelo_inurba_marseille","lat":43.3028,"lon":5.37694,"is_reserved":false,"is_disabled":false,"rental_uris":{"android":"levelo://app?vid=aa10fdc8-227b-4180-8e63-e9ed01058d1e","ios":"levelo://app?vid=aa10fdc8-227b-4180-8e63-e9ed01058d1e"},"vehicle_type_id":"4","last_reported":1705651805,"current_range_meters":29200,"station_id":"","pricing_plan_id":"free"},{"bike_id":"2d2f779c-1af6-4b6f-8ac1-528871c73c6d","system_id":"levelo_inurba_marseille","lat":43.30288,"lon":5.37709,"is_reserved":false,"is_disabled":false,"rental_uris":{"android":"levelo://app?vid=2d2f779c-1af6-4b6f-8ac1-528871c73c6d","ios":"levelo://app?vid=2d2f779c-1af6-4b6f-8ac1-528871c73c6d"},"vehicle_type_id":"4","last_reported":1705651805,"current_range_meters":28000,"station_id":"","pricing_plan_id":"free"},{"bike_id":"86810773-dacb-40d2-9290-21b32c111fca","system_id":"levelo_inurba_marseille","lat":43.302765,"lon":5.37688,"is_reserved":false,"is_disabled":false,"rental_uris":{"android":"levelo://app?vid=86810773-dacb-40d2-9290-21b32c111fca","ios":"levelo://app?vid=86810773-dacb-40d2-9290-21b32c111fca"},"vehicle_type_id":"4","last_reported":1705651805,"current_range_meters":21600,"station_id":"","pricing_plan_id":"free"},{"bike_id":"009c4824-569c-4e4d-956c-907920f132ca","system_id":"levelo_inurba_marseille","lat":43.30282,"lon":5.376984,"is_reserved":false,"is_disabled":false,"rental_uris":{"android":"levelo://app?vid=009c4824-569c-4e4d-956c-907920f132ca","ios":"levelo://app?vid=009c4824-569c-4e4d-956c-907920f132ca"},"vehicle_type_id":"4","last_reported":1705651805,"current_range_meters":27600,"station_id":"","pricing_plan_id":"free"},{"bike_id":"d4af786c-2d6b-4a3e-bfd8-72a25c3bc2f1","system_id":"levelo_inurba_marseille","lat":43.3028,"lon":5.37696,"is_reserved":false,"is_disabled":false,"rental_uris":{"android":"levelo://app?vid=d4af786c-2d6b-4a3e-bfd8-72a25c3bc2f1","ios":"levelo://app?vid=d4af786c-2d6b-4a3e-bfd8-72a25c3bc2f1"},"vehicle_type_id":"4","last_reported":1705651805,"current_range_meters":22000,"station_id":"","pricing_plan_id":"free"},{"bike_id":"38364657-3212-40f5-9fd1-923bbe45536c","system_id":"levelo_inurba_marseille","lat":43.30282,"lon":5.377,"is_reserved":false,"is_disabled":false,"rental_uris":{"android":"levelo://app?vid=38364657-3212-40f5-9fd1-923bbe45536c","ios":"levelo://app?vid=38364657-3212-40f5-9fd1-923bbe45536c"},"vehicle_type_id":"4","last_reported":1705651805,"current_range_meters":28800,"station_id":"","pricing_plan_id":"free"},{"bike_id":"c028b312-71bf-4a9e-8703-a8f081420dde","system_id":"levelo_inurba_marseille","lat":43.30281,"lon":5.37707,"is_reserved":false,"is_disabled":false,"rental_uris":{"android":"levelo://app?vid=c028b312-71bf-4a9e-8703-a8f081420dde","ios":"levelo://app?vid=c028b312-71bf-4a9e-8703-a8f081420dde"},"vehicle_type_id":"4","last_reported":1705651805,"current_range_meters":5200,"station_id":"","pricing_plan_id":"free"},{"bike_id":"a7f59fbd-770e-4cbf-b837-88302684c60e","system_id":"levelo_inurba_marseille","lat":43.30281,"lon":5.37715,"is_reserved":false,"is_disabled":false,"rental_uris":{"android":"levelo://app?vid=a7f59fbd-770e-4cbf-b837-88302684c60e","ios":"levelo://app?vid=a7f59fbd-770e-4cbf-b837-88302684c60e"},"vehicle_type_id":"4","last_reported":1705651805,"current_range_meters":22000,"station_id":"","pricing_plan_id":"free"},{"bike_id":"8f42da1e-44dc-44a9-b399-4e15fedd2578","system_id":"levelo_inurba_marseille","lat":43.30143,"lon":5.37413,"is_reserved":false,"is_disabled":false,"rental_uris":{"android":"levelo://app?vid=8f42da1e-44dc-44a9-b399-4e15fedd2578","ios":"levelo://app?vid=8f42da1e-44dc-44a9-b399-4e15fedd2578"},"vehicle_type_id":"4","last_reported":1705651805,"current_range_meters":29600,"station_id":"ce4bgs92rcd13ifvqcc0","pricing_plan_id":"free"},{"bike_id":"782a2abf-1a0d-40bc-b3b2-5ca7546fa6b7","system_id":"levelo_inurba_marseille","lat":43.301429,"lon":5.37413,"is_reserved":false,"is_disabled":false,"rental_uris":{"android":"levelo://app?vid=782a2abf-1a0d-40bc-b3b2-5ca7546fa6b7","ios":"levelo://app?vid=782a2abf-1a0d-40bc-b3b2-5ca7546fa6b7"},"vehicle_type_id":"4","last_reported":1705651805,"current_range_meters":25600,"station_id":"ce4bgs92rcd13ifvqcc0","pricing_plan_id":"free"},{"bike_id":"468ae46f-8e54-4d0a-afd8-d3ec1a274231","system_id":"levelo_inurba_marseille","lat":43.302717,"lon":5.377083,"is_reserved":false,"is_disabled":false,"rental_uris":{"android":"levelo://app?vid=468ae46f-8e54-4d0a-afd8-d3ec1a274231","ios":"levelo://app?vid=468ae46f-8e54-4d0a-afd8-d3ec1a274231"},"vehicle_type_id":"4","last_reported":1705651805,"current_range_meters":29200,"station_id":"","pricing_plan_id":"free"},{"bike_id":"7875c0cc-de37-42ab-a755-665add84a923","system_id":"levelo_inurba_marseille","lat":43.301429,"lon":5.37413,"is_reserved":false,"is_disabled":false,"rental_uris":{"android":"levelo://app?vid=7875c0cc-de37-42ab-a755-665add84a923","ios":"levelo://app?vid=7875c0cc-de37-42ab-a755-665add84a923"},"vehicle_type_id":"4","last_reported":1705651805,"current_range_meters":1600,"station_id":"ce4bgs92rcd13ifvqcc0","pricing_plan_id":"free"},{"bike_id":"1b6ee8aa-9f26-4230-a915-3764fa12e029","system_id":"levelo_inurba_marseille","lat":43.30143,"lon":5.37413,"is_reserved":false,"is_disabled":false,"rental_uris":{"android":"levelo://app?vid=1b6ee8aa-9f26-4230-a915-3764fa12e029","ios":"levelo://app?vid=1b6ee8aa-9f26-4230-a915-3764fa12e029"},"vehicle_type_id":"4","last_reported":1705651805,"current_range_meters":18400,"station_id":"ce4bgs92rcd13ifvqcc0","pricing_plan_id":"free"},{"bike_id":"6f796b3a-0888-417b-b947-de1245f93ed4","system_id":"levelo_inurba_marseille","lat":43.301429,"lon":5.37413,"is_reserved":false,"is_disabled":false,"rental_uris":{"android":"levelo://app?vid=6f796b3a-0888-417b-b947-de1245f93ed4","ios":"levelo://app?vid=6f796b3a-0888-417b-b947-de1245f93ed4"},"vehicle_type_id":"4","last_reported":1705651805,"current_range_meters":8800,"station_id":"ce4bgs92rcd13ifvqcc0","pricing_plan_id":"free"},{"bike_id":"f056bb93-4d90-48e3-a325-6a463ab204ba","system_id":"levelo_inurba_marseille","lat":43.301429,"lon":5.37413,"is_reserved":false,"is_disabled":false,"rental_uris":{"android":"levelo://app?vid=f056bb93-4d90-48e3-a325-6a463ab204ba","ios":"levelo://app?vid=f056bb93-4d90-48e3-a325-6a463ab204ba"},"vehicle_type_id":"4","last_reported":1705651805,"current_range_meters":31200,"station_id":"ce4bgs92rcd13ifvqcc0","pricing_plan_id":"free"},{"bike_id":"515fe7c1-9909-450f-b263-4b451cdf430f","system_id":"levelo_inurba_marseille","lat":43.30143,"lon":5.37413,"is_reserved":false,"is_disabled":false,"rental_uris":{"android":"levelo://app?vid=515fe7c1-9909-450f-b263-4b451cdf430f","ios":"levelo://app?vid=515fe7c1-9909-450f-b263-4b451cdf430f"},"vehicle_type_id":"4","last_reported":1705651805,"current_range_meters":27200,"station_id":"ce4bgs92rcd13ifvqcc0","pricing_plan_id":"free"},{"bike_id":"81a7aac0-b0e9-4674-90a1-d6c2c595c904","system_id":"levelo_inurba_marseille","lat":43.301429,"lon":5.37413,"is_reserved":false,"is_disabled":false,"rental_uris":{"android":"levelo://app?vid=81a7aac0-b0e9-4674-90a1-d6c2c595c904","ios":"levelo://app?vid=81a7aac0-b0e9-4674-90a1-d6c2c595c904"},"vehicle_type_id":"4","last_reported":1705651805,"current_range_meters":30000,"station_id":"ce4bgs92rcd13ifvqcc0","pricing_plan_id":"free"},{"bike_id":"6cd2d6d0-3307-4d7b-9cf3-7dacff27e0c4","system_id":"levelo_inurba_marseille","lat":43.319935,"lon":5.381699,"is_reserved":false,"is_disabled":false,"rental_uris":{"android":"levelo://app?vid=6cd2d6d0-3307-4d7b-9cf3-7dacff27e0c4","ios":"levelo://app?vid=6cd2d6d0-3307-4d7b-9cf3-7dacff27e0c4"},"vehicle_type_id":"4","last_reported":1705651805,"current_range_meters":23600,"station_id":"ce4bhr12rcd13ifvqhpg","pricing_plan_id":"free"},{"bike_id":"f0e6f343-5d11-4ccd-b521-fba2ec1496b9","system_id":"levelo_inurba_marseille","lat":43.319935,"lon":5.381699,"is_reserved":false,"is_disabled":false,"rental_uris":{"android":"levelo://app?vid=f0e6f343-5d11-4ccd-b521-fba2ec1496b9","ios":"levelo://app?vid=f0e6f343-5d11-4ccd-b521-fba2ec1496b9"},"vehicle_type_id":"4","last_reported":1705651805,"current_range_meters":16800,"station_id":"ce4bhr12rcd13ifvqhpg","pricing_plan_id":"free"},{"bike_id":"2200c8c5-2419-4eb5-b913-cfff868d749d","system_id":"levelo_inurba_marseille","lat":43.319935,"lon":5.381699,"is_reserved":false,"is_disabled":false,"rental_uris":{"android":"levelo://app?vid=2200c8c5-2419-4eb5-b913-cfff868d749d","ios":"levelo://app?vid=2200c8c5-2419-4eb5-b913-cfff868d749d"},"vehicle_type_id":"4","last_reported":1705651805,"current_range_meters":1200,"station_id":"ce4bhr12rcd13ifvqhpg","pricing_plan_id":"free"},{"bike_id":"9426cd9d-4ca2-4df4-8414-1606b7267150","system_id":"levelo_inurba_marseille","lat":43.313571,"lon":5.384829,"is_reserved":false,"is_disabled":false,"rental_uris":{"android":"levelo://app?vid=9426cd9d-4ca2-4df4-8414-1606b7267150","ios":"levelo://app?vid=9426cd9d-4ca2-4df4-8414-1606b7267150"},"vehicle_type_id":"4","last_reported":1705651805,"current_range_meters":22000,"station_id":"ce4bgt92rcd13ifvqcf0","pricing_plan_id":"free"},{"bike_id":"781214c2-00c9-4639-9ac8-3eb4bfaee5f0","system_id":"levelo_inurba_marseille","lat":43.313571,"lon":5.384829,"is_reserved":false,"is_disabled":false,"rental_uris":{"android":"levelo://app?vid=781214c2-00c9-4639-9ac8-3eb4bfaee5f0","ios":"levelo://app?vid=781214c2-00c9-4639-9ac8-3eb4bfaee5f0"},"vehicle_type_id":"4","last_reported":1705651805,"current_range_meters":24400,"station_id":"ce4bgt92rcd13ifvqcf0","pricing_plan_id":"free"},{"bike_id":"6cd646d4-25fa-40ae-8ae8-f0345607fb98","system_id":"levelo_inurba_marseille","lat":43.313571,"lon":5.384829,"is_reserved":false,"is_disabled":false,"rental_uris":{"android":"levelo://app?vid=6cd646d4-25fa-40ae-8ae8-f0345607fb98","ios":"levelo://app?vid=6cd646d4-25fa-40ae-8ae8-f0345607fb98"},"vehicle_type_id":"4","last_reported":1705651805,"current_range_meters":27600,"station_id":"ce4bgt92rcd13ifvqcf0","pricing_plan_id":"free"},{"bike_id":"9ee1956c-f05e-410b-8c17-5f1b53e1ff5e","system_id":"levelo_inurba_marseille","lat":43.30537,"lon":5.38429,"is_reserved":false,"is_disabled":false,"rental_uris":{"android":"levelo://app?vid=9ee1956c-f05e-410b-8c17-5f1b53e1ff5e","ios":"levelo://app?vid=9ee1956c-f05e-410b-8c17-5f1b53e1ff5e"},"vehicle_type_id":"4","last_reported":1705651805,"current_range_meters":31200,"station_id":"ce4bgg92rcd13ifvqb30","pricing_plan_id":"free"},{"bike_id":"966ea75e-8284-41c8-b410-ec5c66e1c00c","system_id":"levelo_inurba_marseille","lat":43.299243,"lon":5.374807,"is_reserved":false,"is_disabled":false,"rental_uris":{"android":"levelo://app?vid=966ea75e-8284-41c8-b410-ec5c66e1c00c","ios":"levelo://app?vid=966ea75e-8284-41c8-b410-ec5c66e1c00c"},"vehicle_type_id":"4","last_reported":1705651805,"current_range_meters":27200,"station_id":"ce4bgjh2rcd13ifvqbg0","pricing_plan_id":"free"},{"bike_id":"73c23064-bbcd-480a-8cc8-052e65af91b2","system_id":"levelo_inurba_marseille","lat":43.299243,"lon":5.374807,"is_reserved":false,"is_disabled":false,"rental_uris":{"android":"levelo://app?vid=73c23064-bbcd-480a-8cc8-052e65af91b2","ios":"levelo://app?vid=73c23064-bbcd-480a-8cc8-052e65af91b2"},"vehicle_type_id":"4","last_reported":1705651805,"current_range_meters":28000,"station_id":"ce4bgjh2rcd13ifvqbg0","pricing_plan_id":"free"},{"bike_id":"867ab9cb-7af4-4225-a217-000f7eb5ab74","system_id":"levelo_inurba_marseille","lat":43.298433,"lon":5.362774,"is_reserved":false,"is_disabled":false,"rental_uris":{"android":"levelo://app?vid=867ab9cb-7af4-4225-a217-000f7eb5ab74","ios":"levelo://app?vid=867ab9cb-7af4-4225-a217-000f7eb5ab74"},"vehicle_type_id":"4","last_reported":1705651805,"current_range_meters":17600,"station_id":"ce4bgpp2rcd13ifvqc3g","pricing_plan_id":"free"},{"bike_id":"5338282a-f30d-4b4b-8718-5d977e06c4cd","system_id":"levelo_inurba_marseille","lat":43.29919,"lon":5.374767,"is_reserved":false,"is_disabled":false,"rental_uris":{"android":"levelo://app?vid=5338282a-f30d-4b4b-8718-5d977e06c4cd","ios":"levelo://app?vid=5338282a-f30d-4b4b-8718-5d977e06c4cd"},"vehicle_type_id":"4","last_reported":1705651805,"current_range_meters":21600,"station_id":"ce4bgjh2rcd13ifvqbg0","pricing_plan_id":"free"},{"bike_id":"293f8e52-4a79-4a93-9a8a-bd6f2d0fd366","system_id":"levelo_inurba_marseille","lat":43.299243,"lon":5.374807,"is_reserved":false,"is_disabled":false,"rental_uris":{"android":"levelo://app?vid=293f8e52-4a79-4a93-9a8a-bd6f2d0fd366","ios":"levelo://app?vid=293f8e52-4a79-4a93-9a8a-bd6f2d0fd366"},"vehicle_type_id":"4","last_reported":1705651805,"current_range_meters":10800,"station_id":"ce4bgjh2rcd13ifvqbg0","pricing_plan_id":"free"},{"bike_id":"89166dc7-c15b-4597-88d6-ed8dbf5c572a","system_id":"levelo_inurba_marseille","lat":43.299243,"lon":5.37481,"is_reserved":false,"is_disabled":false,"rental_uris":{"android":"levelo://app?vid=89166dc7-c15b-4597-88d6-ed8dbf5c572a","ios":"levelo://app?vid=89166dc7-c15b-4597-88d6-ed8dbf5c572a"},"vehicle_type_id":"4","last_reported":1705651805,"current_range_meters":26800,"station_id":"ce4bgjh2rcd13ifvqbg0","pricing_plan_id":"free"},{"bike_id":"34c8b400-5074-46e3-aa02-f5d274dfaa4f","system_id":"levelo_inurba_marseille","lat":43.32286,"lon":5.38259,"is_reserved":false,"is_disabled":false,"rental_uris":{"android":"levelo://app?vid=34c8b400-5074-46e3-aa02-f5d274dfaa4f","ios":"levelo://app?vid=34c8b400-5074-46e3-aa02-f5d274dfaa4f"},"vehicle_type_id":"4","last_reported":1705651805,"current_range_meters":6800,"station_id":"ce4bhr12rcd13ifvqhqg","pricing_plan_id":"free"},{"bike_id":"aa1b3cf4-5953-466c-a16f-697ec5cccb4c","system_id":"levelo_inurba_marseille","lat":43.322898,"lon":5.382657,"is_reserved":false,"is_disabled":false,"rental_uris":{"android":"levelo://app?vid=aa1b3cf4-5953-466c-a16f-697ec5cccb4c","ios":"levelo://app?vid=aa1b3cf4-5953-466c-a16f-697ec5cccb4c"},"vehicle_type_id":"4","last_reported":1705651805,"current_range_meters":6000,"station_id":"ce4bhr12rcd13ifvqhqg","pricing_plan_id":"free"},{"bike_id":"c59e915a-05cb-49b2-8b19-dcae4465ebcc","system_id":"levelo_inurba_marseille","lat":43.322885,"lon":5.3827,"is_reserved":false,"is_disabled":false,"rental_uris":{"android":"levelo://app?vid=c59e915a-05cb-49b2-8b19-dcae4465ebcc","ios":"levelo://app?vid=c59e915a-05cb-49b2-8b19-dcae4465ebcc"},"vehicle_type_id":"4","last_reported":1705651805,"current_range_meters":27600,"station_id":"ce4bhr12rcd13ifvqhqg","pricing_plan_id":"free"},{"bike_id":"510e4003-ad50-4182-a4bb-6da1b111fff5","system_id":"levelo_inurba_marseille","lat":43.322872,"lon":5.382756,"is_reserved":false,"is_disabled":false,"rental_uris":{"android":"levelo://app?vid=510e4003-ad50-4182-a4bb-6da1b111fff5","ios":"levelo://app?vid=510e4003-ad50-4182-a4bb-6da1b111fff5"},"vehicle_type_id":"4","last_reported":1705651805,"current_range_meters":18000,"station_id":"ce4bhr12rcd13ifvqhqg","pricing_plan_id":"free"},{"bike_id":"afe2d6ba-ebda-4981-9104-c77037901f05","system_id":"levelo_inurba_marseille","lat":43.322872,"lon":5.382756,"is_reserved":false,"is_disabled":false,"rental_uris":{"android":"levelo://app?vid=afe2d6ba-ebda-4981-9104-c77037901f05","ios":"levelo://app?vid=afe2d6ba-ebda-4981-9104-c77037901f05"},"vehicle_type_id":"4","last_reported":1705651805,"current_range_meters":8000,"station_id":"ce4bhr12rcd13ifvqhqg","pricing_plan_id":"free"},{"bike_id":"02f97db8-1e1e-4f38-89f3-11868234f7c3","system_id":"levelo_inurba_marseille","lat":43.32823,"lon":5.3668,"is_reserved":false,"is_disabled":false,"rental_uris":{"android":"levelo://app?vid=02f97db8-1e1e-4f38-89f3-11868234f7c3","ios":"levelo://app?vid=02f97db8-1e1e-4f38-89f3-11868234f7c3"},"vehicle_type_id":"4","last_reported":1705651805,"current_range_meters":10000,"station_id":"ce4bhs92rcd13ifvqi0g","pricing_plan_id":"free"},{"bike_id":"33a5b9b9-aec4-4925-974d-72730cfc5f44","system_id":"levelo_inurba_marseille","lat":43.32824,"lon":5.36675,"is_reserved":false,"is_disabled":false,"rental_uris":{"android":"levelo://app?vid=33a5b9b9-aec4-4925-974d-72730cfc5f44","ios":"levelo://app?vid=33a5b9b9-aec4-4925-974d-72730cfc5f44"},"vehicle_type_id":"4","last_reported":1705651805,"current_range_meters":19600,"station_id":"ce4bhs92rcd13ifvqi0g","pricing_plan_id":"free"},{"bike_id":"ea0178f3-2c6b-4af6-b062-91b0b8dde1df","system_id":"levelo_inurba_marseille","lat":43.328243,"lon":5.366805,"is_reserved":false,"is_disabled":false,"rental_uris":{"android":"levelo://app?vid=ea0178f3-2c6b-4af6-b062-91b0b8dde1df","ios":"levelo://app?vid=ea0178f3-2c6b-4af6-b062-91b0b8dde1df"},"vehicle_type_id":"4","last_reported":1705651805,"current_range_meters":28800,"station_id":"ce4bhs92rcd13ifvqi0g","pricing_plan_id":"free"},{"bike_id":"85cedcff-9e9a-415d-8415-195178ea3cb7","system_id":"levelo_inurba_marseille","lat":43.328255,"lon":5.366815,"is_reserved":false,"is_disabled":false,"rental_uris":{"android":"levelo://app?vid=85cedcff-9e9a-415d-8415-195178ea3cb7","ios":"levelo://app?vid=85cedcff-9e9a-415d-8415-195178ea3cb7"},"vehicle_type_id":"4","last_reported":1705651805,"current_range_meters":12800,"station_id":"ce4bhs92rcd13ifvqi0g","pricing_plan_id":"free"},{"bike_id":"b3d1df88-d8ad-420f-822b-89111e75191e","system_id":"levelo_inurba_marseille","lat":43.328269,"lon":5.366823,"is_reserved":false,"is_disabled":false,"rental_uris":{"android":"levelo://app?vid=b3d1df88-d8ad-420f-822b-89111e75191e","ios":"levelo://app?vid=b3d1df88-d8ad-420f-822b-89111e75191e"},"vehicle_type_id":"4","last_reported":1705651805,"current_range_meters":400,"station_id":"ce4bhs92rcd13ifvqi0g","pricing_plan_id":"free"},{"bike_id":"6da9db5a-42ba-4fa8-afc9-4fdbb45498c1","system_id":"levelo_inurba_marseille","lat":43.32827,"lon":5.36678,"is_reserved":false,"is_disabled":false,"rental_uris":{"android":"levelo://app?vid=6da9db5a-42ba-4fa8-afc9-4fdbb45498c1","ios":"levelo://app?vid=6da9db5a-42ba-4fa8-afc9-4fdbb45498c1"},"vehicle_type_id":"4","last_reported":1705651805,"current_range_meters":5200,"station_id":"ce4bhs92rcd13ifvqi0g","pricing_plan_id":"free"},{"bike_id":"2849c95b-f1a6-402d-aac7-80ea81f2feb2","system_id":"levelo_inurba_marseille","lat":43.328271,"lon":5.36686,"is_reserved":false,"is_disabled":false,"rental_uris":{"android":"levelo://app?vid=2849c95b-f1a6-402d-aac7-80ea81f2feb2","ios":"levelo://app?vid=2849c95b-f1a6-402d-aac7-80ea81f2feb2"},"vehicle_type_id":"4","last_reported":1705651805,"current_range_meters":26800,"station_id":"ce4bhs92rcd13ifvqi0g","pricing_plan_id":"free"},{"bike_id":"59148974-5dd5-4b80-aebd-ec12c23b58c1","system_id":"levelo_inurba_marseille","lat":43.328275,"lon":5.36682,"is_reserved":false,"is_disabled":false,"rental_uris":{"android":"levelo://app?vid=59148974-5dd5-4b80-aebd-ec12c23b58c1","ios":"levelo://app?vid=59148974-5dd5-4b80-aebd-ec12c23b58c1"},"vehicle_type_id":"4","last_reported":1705651805,"current_range_meters":10400,"station_id":"ce4bhs92rcd13ifvqi0g","pricing_plan_id":"free"},{"bike_id":"27f0b887-90b7-43ac-84c8-6bd71df6d2a1","system_id":"levelo_inurba_marseille","lat":43.32828,"lon":5.36684,"is_reserved":false,"is_disabled":false,"rental_uris":{"android":"levelo://app?vid=27f0b887-90b7-43ac-84c8-6bd71df6d2a1","ios":"levelo://app?vid=27f0b887-90b7-43ac-84c8-6bd71df6d2a1"},"vehicle_type_id":"4","last_reported":1705651805,"current_range_meters":21600,"station_id":"ce4bhs92rcd13ifvqi0g","pricing_plan_id":"free"},{"bike_id":"1782ad4d-7cbc-4ac0-af82-b65688e9d34c","system_id":"levelo_inurba_marseille","lat":43.328371,"lon":5.366909,"is_reserved":false,"is_disabled":false,"rental_uris":{"android":"levelo://app?vid=1782ad4d-7cbc-4ac0-af82-b65688e9d34c","ios":"levelo://app?vid=1782ad4d-7cbc-4ac0-af82-b65688e9d34c"},"vehicle_type_id":"4","last_reported":1705651805,"current_range_meters":19600,"station_id":"ce4bhs92rcd13ifvqi0g","pricing_plan_id":"free"},{"bike_id":"641739e6-19de-47df-9491-35da26c3c9da","system_id":"levelo_inurba_marseille","lat":43.328371,"lon":5.366909,"is_reserved":false,"is_disabled":false,"rental_uris":{"android":"levelo://app?vid=641739e6-19de-47df-9491-35da26c3c9da","ios":"levelo://app?vid=641739e6-19de-47df-9491-35da26c3c9da"},"vehicle_type_id":"4","last_reported":1705651805,"current_range_meters":20800,"station_id":"ce4bhs92rcd13ifvqi0g","pricing_plan_id":"free"},{"bike_id":"bae0e6ef-8eeb-485a-a054-bea3431d2035","system_id":"levelo_inurba_marseille","lat":43.328371,"lon":5.366909,"is_reserved":false,"is_disabled":false,"rental_uris":{"android":"levelo://app?vid=bae0e6ef-8eeb-485a-a054-bea3431d2035","ios":"levelo://app?vid=bae0e6ef-8eeb-485a-a054-bea3431d2035"},"vehicle_type_id":"4","last_reported":1705651805,"current_range_meters":10800,"station_id":"ce4bhs92rcd13ifvqi0g","pricing_plan_id":"free"},{"bike_id":"a53b6dde-9c97-4a96-897c-ee7f9265222d","system_id":"levelo_inurba_marseille","lat":43.328371,"lon":5.366909,"is_reserved":false,"is_disabled":false,"rental_uris":{"android":"levelo://app?vid=a53b6dde-9c97-4a96-897c-ee7f9265222d","ios":"levelo://app?vid=a53b6dde-9c97-4a96-897c-ee7f9265222d"},"vehicle_type_id":"4","last_reported":1705651805,"current_range_meters":13600,"station_id":"ce4bhs92rcd13ifvqi0g","pricing_plan_id":"free"},{"bike_id":"7a5cfd19-67b5-4404-837f-9d2597d5b4a4","system_id":"levelo_inurba_marseille","lat":43.32831,"lon":5.36675,"is_reserved":false,"is_disabled":false,"rental_uris":{"android":"levelo://app?vid=7a5cfd19-67b5-4404-837f-9d2597d5b4a4","ios":"levelo://app?vid=7a5cfd19-67b5-4404-837f-9d2597d5b4a4"},"vehicle_type_id":"4","last_reported":1705651805,"current_range_meters":6000,"station_id":"ce4bhs92rcd13ifvqi0g","pricing_plan_id":"free"},{"bike_id":"6b4ea496-3016-42db-af64-ba8beb6e73fc","system_id":"levelo_inurba_marseille","lat":43.328371,"lon":5.366909,"is_reserved":false,"is_disabled":false,"rental_uris":{"android":"levelo://app?vid=6b4ea496-3016-42db-af64-ba8beb6e73fc","ios":"levelo://app?vid=6b4ea496-3016-42db-af64-ba8beb6e73fc"},"vehicle_type_id":"4","last_reported":1705651805,"current_range_meters":16400,"station_id":"ce4bhs92rcd13ifvqi0g","pricing_plan_id":"free"},{"bike_id":"88638e12-da12-4596-b7e2-600ab2f62219","system_id":"levelo_inurba_marseille","lat":43.328371,"lon":5.366909,"is_reserved":false,"is_disabled":false,"rental_uris":{"android":"levelo://app?vid=88638e12-da12-4596-b7e2-600ab2f62219","ios":"levelo://app?vid=88638e12-da12-4596-b7e2-600ab2f62219"},"vehicle_type_id":"4","last_reported":1705651805,"current_range_meters":2400,"station_id":"ce4bhs92rcd13ifvqi0g","pricing_plan_id":"free"},{"bike_id":"38082c03-fac1-44d3-a79f-5142b4a113a9","system_id":"levelo_inurba_marseille","lat":43.328373,"lon":5.366902,"is_reserved":false,"is_disabled":false,"rental_uris":{"android":"levelo://app?vid=38082c03-fac1-44d3-a79f-5142b4a113a9","ios":"levelo://app?vid=38082c03-fac1-44d3-a79f-5142b4a113a9"},"vehicle_type_id":"4","last_reported":1705651805,"current_range_meters":15600,"station_id":"ce4bhs92rcd13ifvqi0g","pricing_plan_id":"free"},{"bike_id":"18eae68a-e419-4c9c-9f70-4fef019e42bc","system_id":"levelo_inurba_marseille","lat":43.2968,"lon":5.37291,"is_reserved":false,"is_disabled":false,"rental_uris":{"android":"levelo://app?vid=18eae68a-e419-4c9c-9f70-4fef019e42bc","ios":"levelo://app?vid=18eae68a-e419-4c9c-9f70-4fef019e42bc"},"vehicle_type_id":"4","last_reported":1705651805,"current_range_meters":25200,"station_id":"ce4bgk12rcd13ifvqbj0","pricing_plan_id":"free"},{"bike_id":"e55fb5c0-e19d-4c78-a94e-57085539ff46","system_id":"levelo_inurba_marseille","lat":43.2968,"lon":5.37291,"is_reserved":false,"is_disabled":false,"rental_uris":{"android":"levelo://app?vid=e55fb5c0-e19d-4c78-a94e-57085539ff46","ios":"levelo://app?vid=e55fb5c0-e19d-4c78-a94e-57085539ff46"},"vehicle_type_id":"4","last_reported":1705651805,"current_range_meters":25200,"station_id":"ce4bgk12rcd13ifvqbj0","pricing_plan_id":"free"},{"bike_id":"aa147695-b904-47eb-80f2-8d58fab22e5f","system_id":"levelo_inurba_marseille","lat":43.296131,"lon":5.370791,"is_reserved":false,"is_disabled":false,"rental_uris":{"android":"levelo://app?vid=aa147695-b904-47eb-80f2-8d58fab22e5f","ios":"levelo://app?vid=aa147695-b904-47eb-80f2-8d58fab22e5f"},"vehicle_type_id":"4","last_reported":1705651805,"current_range_meters":31200,"station_id":"ce4bgnh2rcd13ifvqc0g","pricing_plan_id":"free"},{"bike_id":"818f431b-fbef-4b52-a717-8fa7bb5e6401","system_id":"levelo_inurba_marseille","lat":43.296131,"lon":5.370791,"is_reserved":false,"is_disabled":false,"rental_uris":{"android":"levelo://app?vid=818f431b-fbef-4b52-a717-8fa7bb5e6401","ios":"levelo://app?vid=818f431b-fbef-4b52-a717-8fa7bb5e6401"},"vehicle_type_id":"4","last_reported":1705651805,"current_range_meters":31200,"station_id":"ce4bgnh2rcd13ifvqc0g","pricing_plan_id":"free"},{"bike_id":"4ca457c4-6317-453b-8e66-ce9ad219fb8f","system_id":"levelo_inurba_marseille","lat":43.29626,"lon":5.37157,"is_reserved":false,"is_disabled":false,"rental_uris":{"android":"levelo://app?vid=4ca457c4-6317-453b-8e66-ce9ad219fb8f","ios":"levelo://app?vid=4ca457c4-6317-453b-8e66-ce9ad219fb8f"},"vehicle_type_id":"4","last_reported":1705651805,"current_range_meters":26000,"station_id":"ce4bgnh2rcd13ifvqc0g","pricing_plan_id":"free"},{"bike_id":"1aa14191-e2a0-4fc9-97dd-3caf553dd3cc","system_id":"levelo_inurba_marseille","lat":43.296131,"lon":5.370791,"is_reserved":false,"is_disabled":false,"rental_uris":{"android":"levelo://app?vid=1aa14191-e2a0-4fc9-97dd-3caf553dd3cc","ios":"levelo://app?vid=1aa14191-e2a0-4fc9-97dd-3caf553dd3cc"},"vehicle_type_id":"4","last_reported":1705651805,"current_range_meters":28000,"station_id":"ce4bgnh2rcd13ifvqc0g","pricing_plan_id":"free"},{"bike_id":"90f9eee1-6a33-4c21-b377-fa32a8848534","system_id":"levelo_inurba_marseille","lat":43.29573,"lon":5.367355,"is_reserved":false,"is_disabled":false,"rental_uris":{"android":"levelo://app?vid=90f9eee1-6a33-4c21-b377-fa32a8848534","ios":"levelo://app?vid=90f9eee1-6a33-4c21-b377-fa32a8848534"},"vehicle_type_id":"4","last_reported":1705651805,"current_range_meters":13600,"station_id":"ce4bgph2rcd13ifvqc2g","pricing_plan_id":"free"},{"bike_id":"56b78931-0ac6-4612-ba9e-e109c4931b24","system_id":"levelo_inurba_marseille","lat":43.29573,"lon":5.367355,"is_reserved":false,"is_disabled":false,"rental_uris":{"android":"levelo://app?vid=56b78931-0ac6-4612-ba9e-e109c4931b24","ios":"levelo://app?vid=56b78931-0ac6-4612-ba9e-e109c4931b24"},"vehicle_type_id":"4","last_reported":1705651805,"current_range_meters":2800,"station_id":"ce4bgph2rcd13ifvqc2g","pricing_plan_id":"free"},{"bike_id":"0925bef1-112b-4b18-b4d8-328d609b2842","system_id":"levelo_inurba_marseille","lat":43.299028,"lon":5.381509,"is_reserved":false,"is_disabled":false,"rental_uris":{"android":"levelo://app?vid=0925bef1-112b-4b18-b4d8-328d609b2842","ios":"levelo://app?vid=0925bef1-112b-4b18-b4d8-328d609b2842"},"vehicle_type_id":"4","last_reported":1705651805,"current_range_meters":15200,"station_id":"ce4bgj12rcd13ifvqbc0","pricing_plan_id":"free"},{"bike_id":"1821a61e-9654-4943-8bbd-c9f5e9523790","system_id":"levelo_inurba_marseille","lat":43.299028,"lon":5.381509,"is_reserved":false,"is_disabled":false,"rental_uris":{"android":"levelo://app?vid=1821a61e-9654-4943-8bbd-c9f5e9523790","ios":"levelo://app?vid=1821a61e-9654-4943-8bbd-c9f5e9523790"},"vehicle_type_id":"4","last_reported":1705651805,"current_range_meters":23600,"station_id":"ce4bgj12rcd13ifvqbc0","pricing_plan_id":"free"},{"bike_id":"c811e294-6ed2-4ada-bfbc-92b71b356359","system_id":"levelo_inurba_marseille","lat":43.309589,"lon":5.390258,"is_reserved":false,"is_disabled":false,"rental_uris":{"android":"levelo://app?vid=c811e294-6ed2-4ada-bfbc-92b71b356359","ios":"levelo://app?vid=c811e294-6ed2-4ada-bfbc-92b71b356359"},"vehicle_type_id":"4","last_reported":1705651805,"current_range_meters":25200,"station_id":"ce4bgup2rcd13ifvqco0","pricing_plan_id":"free"},{"bike_id":"a6c6e186-1276-4d58-8ed5-8df57d670127","system_id":"levelo_inurba_marseille","lat":43.309589,"lon":5.390258,"is_reserved":false,"is_disabled":false,"rental_uris":{"android":"levelo://app?vid=a6c6e186-1276-4d58-8ed5-8df57d670127","ios":"levelo://app?vid=a6c6e186-1276-4d58-8ed5-8df57d670127"},"vehicle_type_id":"4","last_reported":1705651805,"current_range_meters":12800,"station_id":"ce4bgup2rcd13ifvqco0","pricing_plan_id":"free"},{"bike_id":"25cd02fe-c692-435e-82d2-15cc3664e769","system_id":"levelo_inurba_marseille","lat":43.309589,"lon":5.390258,"is_reserved":false,"is_disabled":false,"rental_uris":{"android":"levelo://app?vid=25cd02fe-c692-435e-82d2-15cc3664e769","ios":"levelo://app?vid=25cd02fe-c692-435e-82d2-15cc3664e769"},"vehicle_type_id":"4","last_reported":1705651805,"current_range_meters":24000,"station_id":"ce4bgup2rcd13ifvqco0","pricing_plan_id":"free"},{"bike_id":"ed513ae5-74f5-43c2-a2cd-4977437c6ac1","system_id":"levelo_inurba_marseille","lat":43.309589,"lon":5.390258,"is_reserved":false,"is_disabled":false,"rental_uris":{"android":"levelo://app?vid=ed513ae5-74f5-43c2-a2cd-4977437c6ac1","ios":"levelo://app?vid=ed513ae5-74f5-43c2-a2cd-4977437c6ac1"},"vehicle_type_id":"4","last_reported":1705651805,"current_range_meters":23200,"station_id":"ce4bgup2rcd13ifvqco0","pricing_plan_id":"free"},{"bike_id":"b3b0ec8d-b8d7-4029-80df-5fe9ec962c03","system_id":"levelo_inurba_marseille","lat":43.309589,"lon":5.390258,"is_reserved":false,"is_disabled":false,"rental_uris":{"android":"levelo://app?vid=b3b0ec8d-b8d7-4029-80df-5fe9ec962c03","ios":"levelo://app?vid=b3b0ec8d-b8d7-4029-80df-5fe9ec962c03"},"vehicle_type_id":"4","last_reported":1705651805,"current_range_meters":28000,"station_id":"ce4bgup2rcd13ifvqco0","pricing_plan_id":"free"},{"bike_id":"ae97e9b7-7231-495e-ada8-0e01feff78d1","system_id":"levelo_inurba_marseille","lat":43.309589,"lon":5.390258,"is_reserved":false,"is_disabled":false,"rental_uris":{"android":"levelo://app?vid=ae97e9b7-7231-495e-ada8-0e01feff78d1","ios":"levelo://app?vid=ae97e9b7-7231-495e-ada8-0e01feff78d1"},"vehicle_type_id":"4","last_reported":1705651805,"current_range_meters":30400,"station_id":"ce4bgup2rcd13ifvqco0","pricing_plan_id":"free"},{"bike_id":"7624b2d4-e2c8-4dbf-a3d5-435def3873f9","system_id":"levelo_inurba_marseille","lat":43.309589,"lon":5.390258,"is_reserved":false,"is_disabled":false,"rental_uris":{"android":"levelo://app?vid=7624b2d4-e2c8-4dbf-a3d5-435def3873f9","ios":"levelo://app?vid=7624b2d4-e2c8-4dbf-a3d5-435def3873f9"},"vehicle_type_id":"4","last_reported":1705651805,"current_range_meters":25600,"station_id":"ce4bgup2rcd13ifvqco0","pricing_plan_id":"free"},{"bike_id":"7d8ee653-4df0-4cbe-8624-9a044210a969","system_id":"levelo_inurba_marseille","lat":43.317557,"lon":5.390173,"is_reserved":false,"is_disabled":false,"rental_uris":{"android":"levelo://app?vid=7d8ee653-4df0-4cbe-8624-9a044210a969","ios":"levelo://app?vid=7d8ee653-4df0-4cbe-8624-9a044210a969"},"vehicle_type_id":"4","last_reported":1705651805,"current_range_meters":28000,"station_id":"ce4bhqp2rcd13ifvqhng","pricing_plan_id":"free"},{"bike_id":"986d08bb-3947-40d3-b2ab-e75d58963874","system_id":"levelo_inurba_marseille","lat":43.317557,"lon":5.390173,"is_reserved":false,"is_disabled":false,"rental_uris":{"android":"levelo://app?vid=986d08bb-3947-40d3-b2ab-e75d58963874","ios":"levelo://app?vid=986d08bb-3947-40d3-b2ab-e75d58963874"},"vehicle_type_id":"4","last_reported":1705651805,"current_range_meters":24400,"station_id":"ce4bhqp2rcd13ifvqhng","pricing_plan_id":"free"},{"bike_id":"56ee526c-0d7e-4324-a614-de856ed667b1","system_id":"levelo_inurba_marseille","lat":43.295748,"lon":5.37522,"is_reserved":false,"is_disabled":false,"rental_uris":{"android":"levelo://app?vid=56ee526c-0d7e-4324-a614-de856ed667b1","ios":"levelo://app?vid=56ee526c-0d7e-4324-a614-de856ed667b1"},"vehicle_type_id":"4","last_reported":1705651805,"current_range_meters":31200,"station_id":"ce4bgh92rcd13ifvqb50","pricing_plan_id":"free"},{"bike_id":"6a0e4b27-b95e-4744-8595-606e92744fbf","system_id":"levelo_inurba_marseille","lat":43.298037,"lon":5.381066,"is_reserved":false,"is_disabled":false,"rental_uris":{"android":"levelo://app?vid=6a0e4b27-b95e-4744-8595-606e92744fbf","ios":"levelo://app?vid=6a0e4b27-b95e-4744-8595-606e92744fbf"},"vehicle_type_id":"4","last_reported":1705651805,"current_range_meters":8800,"station_id":"ce4bgip2rcd13ifvqbb0","pricing_plan_id":"free"},{"bike_id":"9ab7d5b7-ae10-4ddb-a4bf-ed2f16200ba4","system_id":"levelo_inurba_marseille","lat":43.298037,"lon":5.381066,"is_reserved":false,"is_disabled":false,"rental_uris":{"android":"levelo://app?vid=9ab7d5b7-ae10-4ddb-a4bf-ed2f16200ba4","ios":"levelo://app?vid=9ab7d5b7-ae10-4ddb-a4bf-ed2f16200ba4"},"vehicle_type_id":"4","last_reported":1705651805,"current_range_meters":27200,"station_id":"ce4bgip2rcd13ifvqbb0","pricing_plan_id":"free"},{"bike_id":"a38960e6-833d-4b3d-9bc0-be61e148a5b7","system_id":"levelo_inurba_marseille","lat":43.298037,"lon":5.381066,"is_reserved":false,"is_disabled":false,"rental_uris":{"android":"levelo://app?vid=a38960e6-833d-4b3d-9bc0-be61e148a5b7","ios":"levelo://app?vid=a38960e6-833d-4b3d-9bc0-be61e148a5b7"},"vehicle_type_id":"4","last_reported":1705651805,"current_range_meters":31200,"station_id":"ce4bgip2rcd13ifvqbb0","pricing_plan_id":"free"},{"bike_id":"18a1737c-feea-49a9-80e9-7bec1d7d0a4e","system_id":"levelo_inurba_marseille","lat":43.298037,"lon":5.381066,"is_reserved":false,"is_disabled":false,"rental_uris":{"android":"levelo://app?vid=18a1737c-feea-49a9-80e9-7bec1d7d0a4e","ios":"levelo://app?vid=18a1737c-feea-49a9-80e9-7bec1d7d0a4e"},"vehicle_type_id":"4","last_reported":1705651805,"current_range_meters":6800,"station_id":"ce4bgip2rcd13ifvqbb0","pricing_plan_id":"free"},{"bike_id":"4f88a8b9-94c0-43e1-9d01-6d90f32b5b42","system_id":"levelo_inurba_marseille","lat":43.295748,"lon":5.37522,"is_reserved":false,"is_disabled":false,"rental_uris":{"android":"levelo://app?vid=4f88a8b9-94c0-43e1-9d01-6d90f32b5b42","ios":"levelo://app?vid=4f88a8b9-94c0-43e1-9d01-6d90f32b5b42"},"vehicle_type_id":"4","last_reported":1705651805,"current_range_meters":0,"station_id":"ce4bgh92rcd13ifvqb50","pricing_plan_id":"free"},{"bike_id":"5b4f3960-87f8-44a5-97fd-c772a6d872b5","system_id":"levelo_inurba_marseille","lat":43.299707,"lon":5.384859,"is_reserved":false,"is_disabled":false,"rental_uris":{"android":"levelo://app?vid=5b4f3960-87f8-44a5-97fd-c772a6d872b5","ios":"levelo://app?vid=5b4f3960-87f8-44a5-97fd-c772a6d872b5"},"vehicle_type_id":"4","last_reported":1705651805,"current_range_meters":23200,"station_id":"ce4bgj92rcd13ifvqbd0","pricing_plan_id":"free"},{"bike_id":"4a07e542-530c-4768-93f8-ae7c7a503c0e","system_id":"levelo_inurba_marseille","lat":43.295279,"lon":5.375048,"is_reserved":false,"is_disabled":false,"rental_uris":{"android":"levelo://app?vid=4a07e542-530c-4768-93f8-ae7c7a503c0e","ios":"levelo://app?vid=4a07e542-530c-4768-93f8-ae7c7a503c0e"},"vehicle_type_id":"4","last_reported":1705651805,"current_range_meters":25200,"station_id":"ce4bgkp2rcd13ifvqbmg","pricing_plan_id":"free"},{"bike_id":"018075ce-08a6-4e7a-851e-3ac8c1aba935","system_id":"levelo_inurba_marseille","lat":43.295279,"lon":5.375048,"is_reserved":false,"is_disabled":false,"rental_uris":{"android":"levelo://app?vid=018075ce-08a6-4e7a-851e-3ac8c1aba935","ios":"levelo://app?vid=018075ce-08a6-4e7a-851e-3ac8c1aba935"},"vehicle_type_id":"4","last_reported":1705651805,"current_range_meters":17600,"station_id":"ce4bgkp2rcd13ifvqbmg","pricing_plan_id":"free"},{"bike_id":"3373900c-ca82-46b7-8bbd-9bf86c81f210","system_id":"levelo_inurba_marseille","lat":43.299717,"lon":5.384845,"is_reserved":false,"is_disabled":false,"rental_uris":{"android":"levelo://app?vid=3373900c-ca82-46b7-8bbd-9bf86c81f210","ios":"levelo://app?vid=3373900c-ca82-46b7-8bbd-9bf86c81f210"},"vehicle_type_id":"4","last_reported":1705651805,"current_range_meters":0,"station_id":"ce4bgj92rcd13ifvqbd0","pricing_plan_id":"free"},{"bike_id":"7218317b-3a98-4f6d-b9bd-a4580fbf777b","system_id":"levelo_inurba_marseille","lat":43.29513,"lon":5.37488,"is_reserved":false,"is_disabled":false,"rental_uris":{"android":"levelo://app?vid=7218317b-3a98-4f6d-b9bd-a4580fbf777b","ios":"levelo://app?vid=7218317b-3a98-4f6d-b9bd-a4580fbf777b"},"vehicle_type_id":"4","last_reported":1705651805,"current_range_meters":26000,"station_id":"ce4bgkp2rcd13ifvqbmg","pricing_plan_id":"free"},{"bike_id":"2f3afc29-85c7-436f-9ab6-d02bb61063a2","system_id":"levelo_inurba_marseille","lat":43.29963,"lon":5.38494,"is_reserved":false,"is_disabled":false,"rental_uris":{"android":"levelo://app?vid=2f3afc29-85c7-436f-9ab6-d02bb61063a2","ios":"levelo://app?vid=2f3afc29-85c7-436f-9ab6-d02bb61063a2"},"vehicle_type_id":"4","last_reported":1705651805,"current_range_meters":24000,"station_id":"ce4bgj92rcd13ifvqbd0","pricing_plan_id":"free"},{"bike_id":"f6288be4-0175-4cd1-905a-50c8244d0fdb","system_id":"levelo_inurba_marseille","lat":43.299717,"lon":5.384845,"is_reserved":false,"is_disabled":false,"rental_uris":{"android":"levelo://app?vid=f6288be4-0175-4cd1-905a-50c8244d0fdb","ios":"levelo://app?vid=f6288be4-0175-4cd1-905a-50c8244d0fdb"},"vehicle_type_id":"4","last_reported":1705651805,"current_range_meters":27600,"station_id":"ce4bgj92rcd13ifvqbd0","pricing_plan_id":"free"},{"bike_id":"3f1ac6a1-e676-4499-a5d3-78914f1d8f7e","system_id":"levelo_inurba_marseille","lat":43.32366,"lon":5.38858,"is_reserved":false,"is_disabled":false,"rental_uris":{"android":"levelo://app?vid=3f1ac6a1-e676-4499-a5d3-78914f1d8f7e","ios":"levelo://app?vid=3f1ac6a1-e676-4499-a5d3-78914f1d8f7e"},"vehicle_type_id":"4","last_reported":1705651805,"current_range_meters":5200,"station_id":"ce4bhqp2rcd13ifvqhog","pricing_plan_id":"free"},{"bike_id":"48d01839-1c06-4604-a1d2-ae1f8bd3df35","system_id":"levelo_inurba_marseille","lat":43.32367,"lon":5.388836,"is_reserved":false,"is_disabled":false,"rental_uris":{"android":"levelo://app?vid=48d01839-1c06-4604-a1d2-ae1f8bd3df35","ios":"levelo://app?vid=48d01839-1c06-4604-a1d2-ae1f8bd3df35"},"vehicle_type_id":"4","last_reported":1705651805,"current_range_meters":6400,"station_id":"ce4bhqp2rcd13ifvqhog","pricing_plan_id":"free"},{"bike_id":"e488bc27-b4bd-4ecb-9994-ebd8743b5676","system_id":"levelo_inurba_marseille","lat":43.32362,"lon":5.38882,"is_reserved":false,"is_disabled":false,"rental_uris":{"android":"levelo://app?vid=e488bc27-b4bd-4ecb-9994-ebd8743b5676","ios":"levelo://app?vid=e488bc27-b4bd-4ecb-9994-ebd8743b5676"},"vehicle_type_id":"4","last_reported":1705651805,"current_range_meters":8800,"station_id":"ce4bhqp2rcd13ifvqhog","pricing_plan_id":"free"},{"bike_id":"8830a332-90e7-4935-8f04-108744eae5d6","system_id":"levelo_inurba_marseille","lat":43.32368,"lon":5.3888,"is_reserved":false,"is_disabled":false,"rental_uris":{"android":"levelo://app?vid=8830a332-90e7-4935-8f04-108744eae5d6","ios":"levelo://app?vid=8830a332-90e7-4935-8f04-108744eae5d6"},"vehicle_type_id":"4","last_reported":1705651805,"current_range_meters":1200,"station_id":"ce4bhqp2rcd13ifvqhog","pricing_plan_id":"free"},{"bike_id":"df682db8-071d-4913-96f5-57e9823065d1","system_id":"levelo_inurba_marseille","lat":43.32367,"lon":5.388836,"is_reserved":false,"is_disabled":false,"rental_uris":{"android":"levelo://app?vid=df682db8-071d-4913-96f5-57e9823065d1","ios":"levelo://app?vid=df682db8-071d-4913-96f5-57e9823065d1"},"vehicle_type_id":"4","last_reported":1705651805,"current_range_meters":16400,"station_id":"ce4bhqp2rcd13ifvqhog","pricing_plan_id":"free"},{"bike_id":"76d2d8d7-8638-4213-9d68-910604c565ee","system_id":"levelo_inurba_marseille","lat":43.32376,"lon":5.388889,"is_reserved":false,"is_disabled":false,"rental_uris":{"android":"levelo://app?vid=76d2d8d7-8638-4213-9d68-910604c565ee","ios":"levelo://app?vid=76d2d8d7-8638-4213-9d68-910604c565ee"},"vehicle_type_id":"4","last_reported":1705651805,"current_range_meters":0,"station_id":"ce4bhqp2rcd13ifvqhog","pricing_plan_id":"free"},{"bike_id":"bac455df-667c-4c19-8b17-6ffa078d4380","system_id":"levelo_inurba_marseille","lat":43.292749,"lon":5.368402,"is_reserved":false,"is_disabled":false,"rental_uris":{"android":"levelo://app?vid=bac455df-667c-4c19-8b17-6ffa078d4380","ios":"levelo://app?vid=bac455df-667c-4c19-8b17-6ffa078d4380"},"vehicle_type_id":"4","last_reported":1705651805,"current_range_meters":29200,"station_id":"ce4bhbp2rcd13ifvqesg","pricing_plan_id":"free"},{"bike_id":"c395b1ed-de2c-4230-81bc-565438897f92","system_id":"levelo_inurba_marseille","lat":43.305985,"lon":5.393369,"is_reserved":false,"is_disabled":false,"rental_uris":{"android":"levelo://app?vid=c395b1ed-de2c-4230-81bc-565438897f92","ios":"levelo://app?vid=c395b1ed-de2c-4230-81bc-565438897f92"},"vehicle_type_id":"4","last_reported":1705651805,"current_range_meters":28000,"station_id":"","pricing_plan_id":"free"},{"bike_id":"29d8b3cf-5857-44d8-89b0-95f54c48d88a","system_id":"levelo_inurba_marseille","lat":43.293009,"lon":5.374584,"is_reserved":false,"is_disabled":false,"rental_uris":{"android":"levelo://app?vid=29d8b3cf-5857-44d8-89b0-95f54c48d88a","ios":"levelo://app?vid=29d8b3cf-5857-44d8-89b0-95f54c48d88a"},"vehicle_type_id":"4","last_reported":1705651805,"current_range_meters":2000,"station_id":"ce4bgi12rcd13ifvqb70","pricing_plan_id":"free"},{"bike_id":"f2e52203-8358-4fe4-9ae3-d45c0a259bcd","system_id":"levelo_inurba_marseille","lat":43.305994,"lon":5.393687,"is_reserved":false,"is_disabled":false,"rental_uris":{"android":"levelo://app?vid=f2e52203-8358-4fe4-9ae3-d45c0a259bcd","ios":"levelo://app?vid=f2e52203-8358-4fe4-9ae3-d45c0a259bcd"},"vehicle_type_id":"4","last_reported":1705651805,"current_range_meters":17200,"station_id":"ce4bh0p2rcd13ifvqd80","pricing_plan_id":"free"},{"bike_id":"9973f473-b85e-421f-ae79-dbf360c51489","system_id":"levelo_inurba_marseille","lat":43.293009,"lon":5.374584,"is_reserved":false,"is_disabled":false,"rental_uris":{"android":"levelo://app?vid=9973f473-b85e-421f-ae79-dbf360c51489","ios":"levelo://app?vid=9973f473-b85e-421f-ae79-dbf360c51489"},"vehicle_type_id":"4","last_reported":1705651805,"current_range_meters":19600,"station_id":"ce4bgi12rcd13ifvqb70","pricing_plan_id":"free"},{"bike_id":"4d9c4a8c-0705-4255-b1f8-b897ca8e43d4","system_id":"levelo_inurba_marseille","lat":43.30595,"lon":5.39354,"is_reserved":false,"is_disabled":false,"rental_uris":{"android":"levelo://app?vid=4d9c4a8c-0705-4255-b1f8-b897ca8e43d4","ios":"levelo://app?vid=4d9c4a8c-0705-4255-b1f8-b897ca8e43d4"},"vehicle_type_id":"4","last_reported":1705651805,"current_range_meters":17600,"station_id":"ce4bh0p2rcd13ifvqd80","pricing_plan_id":"free"},{"bike_id":"91325232-b7c7-4ab0-b66b-ec7c31f5c08d","system_id":"levelo_inurba_marseille","lat":43.305994,"lon":5.393687,"is_reserved":false,"is_disabled":false,"rental_uris":{"android":"levelo://app?vid=91325232-b7c7-4ab0-b66b-ec7c31f5c08d","ios":"levelo://app?vid=91325232-b7c7-4ab0-b66b-ec7c31f5c08d"},"vehicle_type_id":"4","last_reported":1705651805,"current_range_meters":18000,"station_id":"ce4bh0p2rcd13ifvqd80","pricing_plan_id":"free"},{"bike_id":"93e1067e-6ed3-4ca4-a285-aa568dfed99a","system_id":"levelo_inurba_marseille","lat":43.305984,"lon":5.393562,"is_reserved":false,"is_disabled":false,"rental_uris":{"android":"levelo://app?vid=93e1067e-6ed3-4ca4-a285-aa568dfed99a","ios":"levelo://app?vid=93e1067e-6ed3-4ca4-a285-aa568dfed99a"},"vehicle_type_id":"4","last_reported":1705651805,"current_range_meters":21600,"station_id":"ce4bh0p2rcd13ifvqd80","pricing_plan_id":"free"},{"bike_id":"dc6f05ea-5af8-46d3-a45f-bacae308dd8b","system_id":"levelo_inurba_marseille","lat":43.293009,"lon":5.374584,"is_reserved":false,"is_disabled":false,"rental_uris":{"android":"levelo://app?vid=dc6f05ea-5af8-46d3-a45f-bacae308dd8b","ios":"levelo://app?vid=dc6f05ea-5af8-46d3-a45f-bacae308dd8b"},"vehicle_type_id":"4","last_reported":1705651805,"current_range_meters":28400,"station_id":"ce4bgi12rcd13ifvqb70","pricing_plan_id":"free"},{"bike_id":"3960338a-3845-4eec-a4df-2ba3b107e3c8","system_id":"levelo_inurba_marseille","lat":43.305994,"lon":5.393687,"is_reserved":false,"is_disabled":false,"rental_uris":{"android":"levelo://app?vid=3960338a-3845-4eec-a4df-2ba3b107e3c8","ios":"levelo://app?vid=3960338a-3845-4eec-a4df-2ba3b107e3c8"},"vehicle_type_id":"4","last_reported":1705651805,"current_range_meters":30000,"station_id":"ce4bh0p2rcd13ifvqd80","pricing_plan_id":"free"},{"bike_id":"e200ab54-65ef-48bf-8ab1-dc331bb4410b","system_id":"levelo_inurba_marseille","lat":43.30599,"lon":5.39359,"is_reserved":false,"is_disabled":false,"rental_uris":{"android":"levelo://app?vid=e200ab54-65ef-48bf-8ab1-dc331bb4410b","ios":"levelo://app?vid=e200ab54-65ef-48bf-8ab1-dc331bb4410b"},"vehicle_type_id":"4","last_reported":1705651805,"current_range_meters":27600,"station_id":"ce4bh0p2rcd13ifvqd80","pricing_plan_id":"free"},{"bike_id":"c7464e50-2373-41d8-8fb9-e8aa2f45b7ca","system_id":"levelo_inurba_marseille","lat":43.30599,"lon":5.39361,"is_reserved":false,"is_disabled":false,"rental_uris":{"android":"levelo://app?vid=c7464e50-2373-41d8-8fb9-e8aa2f45b7ca","ios":"levelo://app?vid=c7464e50-2373-41d8-8fb9-e8aa2f45b7ca"},"vehicle_type_id":"4","last_reported":1705651805,"current_range_meters":11200,"station_id":"ce4bh0p2rcd13ifvqd80","pricing_plan_id":"free"},{"bike_id":"bff8b308-e366-4a48-8ce0-9bce3ae4754c","system_id":"levelo_inurba_marseille","lat":43.305994,"lon":5.393687,"is_reserved":false,"is_disabled":false,"rental_uris":{"android":"levelo://app?vid=bff8b308-e366-4a48-8ce0-9bce3ae4754c","ios":"levelo://app?vid=bff8b308-e366-4a48-8ce0-9bce3ae4754c"},"vehicle_type_id":"4","last_reported":1705651805,"current_range_meters":17600,"station_id":"ce4bh0p2rcd13ifvqd80","pricing_plan_id":"free"},{"bike_id":"3fa4e361-1d10-4fdf-b9cd-f0ca0dd26347","system_id":"levelo_inurba_marseille","lat":43.305994,"lon":5.393687,"is_reserved":false,"is_disabled":false,"rental_uris":{"android":"levelo://app?vid=3fa4e361-1d10-4fdf-b9cd-f0ca0dd26347","ios":"levelo://app?vid=3fa4e361-1d10-4fdf-b9cd-f0ca0dd26347"},"vehicle_type_id":"4","last_reported":1705651805,"current_range_meters":12400,"station_id":"ce4bh0p2rcd13ifvqd80","pricing_plan_id":"free"},{"bike_id":"13173c9e-6f5b-457b-bd69-4eac9ef17d1f","system_id":"levelo_inurba_marseille","lat":43.305994,"lon":5.393687,"is_reserved":false,"is_disabled":false,"rental_uris":{"android":"levelo://app?vid=13173c9e-6f5b-457b-bd69-4eac9ef17d1f","ios":"levelo://app?vid=13173c9e-6f5b-457b-bd69-4eac9ef17d1f"},"vehicle_type_id":"4","last_reported":1705651805,"current_range_meters":18800,"station_id":"ce4bh0p2rcd13ifvqd80","pricing_plan_id":"free"},{"bike_id":"2ea58326-6855-408e-8e0b-3d6da41cbc2f","system_id":"levelo_inurba_marseille","lat":43.303002,"lon":5.392142,"is_reserved":false,"is_disabled":false,"rental_uris":{"android":"levelo://app?vid=2ea58326-6855-408e-8e0b-3d6da41cbc2f","ios":"levelo://app?vid=2ea58326-6855-408e-8e0b-3d6da41cbc2f"},"vehicle_type_id":"4","last_reported":1705651805,"current_range_meters":19600,"station_id":"ce4bgkh2rcd13ifvqbk0","pricing_plan_id":"free"},{"bike_id":"a6e7f250-7495-4cbc-a46d-c9387fd707cd","system_id":"levelo_inurba_marseille","lat":43.2936,"lon":5.37835,"is_reserved":false,"is_disabled":false,"rental_uris":{"android":"levelo://app?vid=a6e7f250-7495-4cbc-a46d-c9387fd707cd","ios":"levelo://app?vid=a6e7f250-7495-4cbc-a46d-c9387fd707cd"},"vehicle_type_id":"4","last_reported":1705651805,"current_range_meters":23600,"station_id":"ce4bgjh2rcd13ifvqbf0","pricing_plan_id":"free"},{"bike_id":"ee241511-ec2d-47fb-84da-0562496c8936","system_id":"levelo_inurba_marseille","lat":43.300852,"lon":5.390859,"is_reserved":false,"is_disabled":false,"rental_uris":{"android":"levelo://app?vid=ee241511-ec2d-47fb-84da-0562496c8936","ios":"levelo://app?vid=ee241511-ec2d-47fb-84da-0562496c8936"},"vehicle_type_id":"4","last_reported":1705651805,"current_range_meters":16400,"station_id":"ce4bh192rcd13ifvqdb0","pricing_plan_id":"free"},{"bike_id":"2c903a34-5101-40be-a3ef-0c5a3d012379","system_id":"levelo_inurba_marseille","lat":43.292311,"lon":5.360731,"is_reserved":false,"is_disabled":false,"rental_uris":{"android":"levelo://app?vid=2c903a34-5101-40be-a3ef-0c5a3d012379","ios":"levelo://app?vid=2c903a34-5101-40be-a3ef-0c5a3d012379"},"vehicle_type_id":"4","last_reported":1705651805,"current_range_meters":7600,"station_id":"ce4bhbh2rcd13ifvqeqg","pricing_plan_id":"free"},{"bike_id":"5c547bc0-ecce-4cc6-8e03-de128aa87c2f","system_id":"levelo_inurba_marseille","lat":43.292311,"lon":5.360731,"is_reserved":false,"is_disabled":false,"rental_uris":{"android":"levelo://app?vid=5c547bc0-ecce-4cc6-8e03-de128aa87c2f","ios":"levelo://app?vid=5c547bc0-ecce-4cc6-8e03-de128aa87c2f"},"vehicle_type_id":"4","last_reported":1705651805,"current_range_meters":24400,"station_id":"ce4bhbh2rcd13ifvqeqg","pricing_plan_id":"free"},{"bike_id":"c9e9d9c8-d770-40e7-a3e5-a0f3409e2397","system_id":"levelo_inurba_marseille","lat":43.30085,"lon":5.390856,"is_reserved":false,"is_disabled":false,"rental_uris":{"android":"levelo://app?vid=c9e9d9c8-d770-40e7-a3e5-a0f3409e2397","ios":"levelo://app?vid=c9e9d9c8-d770-40e7-a3e5-a0f3409e2397"},"vehicle_type_id":"4","last_reported":1705651805,"current_range_meters":3600,"station_id":"ce4bh192rcd13ifvqdb0","pricing_plan_id":"free"},{"bike_id":"d210c0c0-efe0-4845-80a5-31d054b291fb","system_id":"levelo_inurba_marseille","lat":43.298764,"lon":5.388973,"is_reserved":false,"is_disabled":false,"rental_uris":{"android":"levelo://app?vid=d210c0c0-efe0-4845-80a5-31d054b291fb","ios":"levelo://app?vid=d210c0c0-efe0-4845-80a5-31d054b291fb"},"vehicle_type_id":"4","last_reported":1705651805,"current_range_meters":0,"station_id":"ce4bh392rcd13ifvqdl0","pricing_plan_id":"free"},{"bike_id":"907baf9c-7b41-4431-a523-2a4549c0ae88","system_id":"levelo_inurba_marseille","lat":43.291649,"lon":5.371447,"is_reserved":false,"is_disabled":false,"rental_uris":{"android":"levelo://app?vid=907baf9c-7b41-4431-a523-2a4549c0ae88","ios":"levelo://app?vid=907baf9c-7b41-4431-a523-2a4549c0ae88"},"vehicle_type_id":"4","last_reported":1705651805,"current_range_meters":22800,"station_id":"ce4bha92rcd13ifvqeh0","pricing_plan_id":"free"},{"bike_id":"4d9c8c6d-2d61-4d7b-b26e-8df343a2a0ff","system_id":"levelo_inurba_marseille","lat":43.298764,"lon":5.388973,"is_reserved":false,"is_disabled":false,"rental_uris":{"android":"levelo://app?vid=4d9c8c6d-2d61-4d7b-b26e-8df343a2a0ff","ios":"levelo://app?vid=4d9c8c6d-2d61-4d7b-b26e-8df343a2a0ff"},"vehicle_type_id":"4","last_reported":1705651805,"current_range_meters":30800,"station_id":"ce4bh392rcd13ifvqdl0","pricing_plan_id":"free"},{"bike_id":"d77a5bb5-6454-4a6b-a351-466b0d80fb3b","system_id":"levelo_inurba_marseille","lat":43.309038,"lon":5.396546,"is_reserved":false,"is_disabled":false,"rental_uris":{"android":"levelo://app?vid=d77a5bb5-6454-4a6b-a351-466b0d80fb3b","ios":"levelo://app?vid=d77a5bb5-6454-4a6b-a351-466b0d80fb3b"},"vehicle_type_id":"4","last_reported":1705651805,"current_range_meters":31200,"station_id":"ce4bh012rcd13ifvqcv0","pricing_plan_id":"free"},{"bike_id":"69a5a573-6f73-4038-9d02-f377b6d7081f","system_id":"levelo_inurba_marseille","lat":43.31325,"lon":5.396954,"is_reserved":false,"is_disabled":false,"rental_uris":{"android":"levelo://app?vid=69a5a573-6f73-4038-9d02-f377b6d7081f","ios":"levelo://app?vid=69a5a573-6f73-4038-9d02-f377b6d7081f"},"vehicle_type_id":"4","last_reported":1705651805,"current_range_meters":28000,"station_id":"ce4bgvp2rcd13ifvqcu0","pricing_plan_id":"free"},{"bike_id":"19cb968a-139b-4325-a22b-ee785fecb501","system_id":"levelo_inurba_marseille","lat":43.290779,"lon":5.371482,"is_reserved":false,"is_disabled":false,"rental_uris":{"android":"levelo://app?vid=19cb968a-139b-4325-a22b-ee785fecb501","ios":"levelo://app?vid=19cb968a-139b-4325-a22b-ee785fecb501"},"vehicle_type_id":"4","last_reported":1705651805,"current_range_meters":6800,"station_id":"ce4bh5p2rcd13ifvqe4g","pricing_plan_id":"free"},{"bike_id":"3847d04e-74d7-417b-92e9-c96678943ed8","system_id":"levelo_inurba_marseille","lat":43.302008,"lon":5.394694,"is_reserved":false,"is_disabled":false,"rental_uris":{"android":"levelo://app?vid=3847d04e-74d7-417b-92e9-c96678943ed8","ios":"levelo://app?vid=3847d04e-74d7-417b-92e9-c96678943ed8"},"vehicle_type_id":"4","last_reported":1705651805,"current_range_meters":30800,"station_id":"ce4bh0p2rcd13ifvqd70","pricing_plan_id":"free"},{"bike_id":"357a745a-32a4-4c05-8557-00885035ea73","system_id":"levelo_inurba_marseille","lat":43.302008,"lon":5.394694,"is_reserved":false,"is_disabled":false,"rental_uris":{"android":"levelo://app?vid=357a745a-32a4-4c05-8557-00885035ea73","ios":"levelo://app?vid=357a745a-32a4-4c05-8557-00885035ea73"},"vehicle_type_id":"4","last_reported":1705651805,"current_range_meters":22400,"station_id":"ce4bh0p2rcd13ifvqd70","pricing_plan_id":"free"},{"bike_id":"b9860814-c6e4-4b95-994b-5d883dee5b54","system_id":"levelo_inurba_marseille","lat":43.302008,"lon":5.394694,"is_reserved":false,"is_disabled":false,"rental_uris":{"android":"levelo://app?vid=b9860814-c6e4-4b95-994b-5d883dee5b54","ios":"levelo://app?vid=b9860814-c6e4-4b95-994b-5d883dee5b54"},"vehicle_type_id":"4","last_reported":1705651805,"current_range_meters":0,"station_id":"ce4bh0p2rcd13ifvqd70","pricing_plan_id":"free"},{"bike_id":"556909c9-9847-4aa6-9d32-e459f722af01","system_id":"levelo_inurba_marseille","lat":43.302008,"lon":5.394694,"is_reserved":false,"is_disabled":false,"rental_uris":{"android":"levelo://app?vid=556909c9-9847-4aa6-9d32-e459f722af01","ios":"levelo://app?vid=556909c9-9847-4aa6-9d32-e459f722af01"},"vehicle_type_id":"4","last_reported":1705651805,"current_range_meters":14400,"station_id":"ce4bh0p2rcd13ifvqd70","pricing_plan_id":"free"},{"bike_id":"b6729334-e162-4ace-bc96-8f934cffd10b","system_id":"levelo_inurba_marseille","lat":43.289184,"lon":5.366408,"is_reserved":false,"is_disabled":false,"rental_uris":{"android":"levelo://app?vid=b6729334-e162-4ace-bc96-8f934cffd10b","ios":"levelo://app?vid=b6729334-e162-4ace-bc96-8f934cffd10b"},"vehicle_type_id":"4","last_reported":1705651805,"current_range_meters":12800,"station_id":"ce4bhap2rcd13ifvqek0","pricing_plan_id":"free"},{"bike_id":"5405b8a6-97bc-4e52-9e22-f6103c931a8b","system_id":"levelo_inurba_marseille","lat":43.289403,"lon":5.366419,"is_reserved":false,"is_disabled":false,"rental_uris":{"android":"levelo://app?vid=5405b8a6-97bc-4e52-9e22-f6103c931a8b","ios":"levelo://app?vid=5405b8a6-97bc-4e52-9e22-f6103c931a8b"},"vehicle_type_id":"4","last_reported":1705651805,"current_range_meters":18000,"station_id":"","pricing_plan_id":"free"},{"bike_id":"4d34078e-8711-45d8-a10f-caefe5ca4caf","system_id":"levelo_inurba_marseille","lat":43.289184,"lon":5.366408,"is_reserved":false,"is_disabled":false,"rental_uris":{"android":"levelo://app?vid=4d34078e-8711-45d8-a10f-caefe5ca4caf","ios":"levelo://app?vid=4d34078e-8711-45d8-a10f-caefe5ca4caf"},