{"last_updated":1736348943,"ttl":60,"version":"2.2","data":{"bikes":[{"bike_id":"e53ee841-b694-4ec4-b3ba-f18d13a12fbf","system_id":"levelo_inurba_marseille","lat":43.330331,"lon":5.390297,"is_reserved":false,"is_disabled":false,"rental_uris":{"android":"levelo://app?vid=e53ee841-b694-4ec4-b3ba-f18d13a12fbf","ios":"levelo://app?vid=e53ee841-b694-4ec4-b3ba-f18d13a12fbf"},"vehicle_type_id":"4","last_reported":1736348943,"current_range_meters":16400,"station_id":"ce4bhr92rcd13ifvqhrg","pricing_plan_id":"cebpf4jnsgd1na2vs0mg"},{"bike_id":"e8d00445-9c22-4d9c-8d30-7068bfdd2701","system_id":"levelo_inurba_marseille","lat":43.29894,"lon":5.43635,"is_reserved":false,"is_disabled":false,"rental_uris":{"android":"levelo://app?vid=e8d00445-9c22-4d9c-8d30-7068bfdd2701","ios":"levelo://app?vid=e8d00445-9c22-4d9c-8d30-7068bfdd2701"},"vehicle_type_id":"4","last_reported":1736348943,"current_range_meters":8000,"station_id":"ce4bhpp2rcd13ifvqhfg","pricing_plan_id":"cebpf4jnsgd1na2vs0mg"},{"bike_id":"a3c187cb-66d2-4342-ab9b-574b9c8c1d43","system_id":"levelo_inurba_marseille","lat":43.29555,"lon":5.42275,"is_reserved":false,"is_disabled":false,"rental_uris":{"android":"levelo://app?vid=a3c187cb-66d2-4342-ab9b-574b9c8c1d43","ios":"levelo://app?vid=a3c187cb-66d2-4342-ab9b-574b9c8c1d43"},"vehicle_type_id":"4","last_reported":1736348943,"current_range_meters":39200,"station_id":"ce4bhph2rcd13ifvqhdg","pricing_plan_id":"cebpf4jnsgd1na2vs0mg"},{"bike_id":"424b02a3-71fc-4629-934b-0ffcd9c06e9e","system_id":"levelo_inurba_marseille","lat":43.30889,"lon":5.39661,"is_reserved":false,"is_disabled":true,"rental_uris":{"android":"levelo://app?vid=424b02a3-71fc-4629-934b-0ffcd9c06e9e","ios":"levelo://app?vid=424b02a3-71fc-4629-934b-0ffcd9c06e9e"},"vehicle_type_id":"4","last_reported":1736348943,"current_range_meters":1200,"station_id":"ce4bh012rcd13ifvqcv0","pricing_plan_id":"cebpf4jnsgd1na2vs0mg"},{"bike_id":"fd0b0d10-e28b-4b1c-bc26-0dc542fef6e3","system_id":"levelo_inurba_marseille","lat":43.25581,"lon":5.38227,"is_reserved":false,"is_disabled":false,"rental_uris":{"android":"levelo://app?vid=fd0b0d10-e28b-4b1c-bc26-0dc542fef6e3","ios":"levelo://app?vid=fd0b0d10-e28b-4b1c-bc26-0dc542fef6e3"},"vehicle_type_id":"4","last_reported":1736348943,"current_range_meters":23200,"station_id":"ce4bhih2rcd13ifvqfs0","pricing_plan_id":"cebpf4jnsgd1na2vs0mg"},{"bike_id":"662b0f60-c988-46ba-9432-caa0f17cfd87","system_id":"levelo_inurba_marseille","lat":43.27371,"lon":5.36254,"is_reserved":false,"is_disabled":false,"rental_uris":{"android":"levelo://app?vid=662b0f60-c988-46ba-9432-caa0f17cfd87","ios":"levelo://app?vid=662b0f60-c988-46ba-9432-caa0f17cfd87"},"vehicle_type_id":"4","last_reported":1736348943,"current_range_meters":34000,"station_id":"ce4bhbh2rcd13ifvqeo0","pricing_plan_id":"cebpf4jnsgd1na2vs0mg"},{"bike_id":"079a2489-d193-414b-8b47-82e93bfb4b65","system_id":"levelo_inurba_marseille","lat":43.28725,"lon":5.37386,"is_reserved":false,"is_disabled":false,"rental_uris":{"android":"levelo://app?vid=079a2489-d193-414b-8b47-82e93bfb4b65","ios":"levelo://app?vid=079a2489-d193-414b-8b47-82e93bfb4b65"},"vehicle_type_id":"4","last_reported":1736348943,"current_range_meters":37600,"station_id":"ce4bh3p2rcd13ifvqdq0","pricing_plan_id":"cebpf4jnsgd1na2vs0mg"},{"bike_id":"d1244aa9-0aef-4cc0-95b0-1ab2bc0f68a2","system_id":"levelo_inurba_marseille","lat":43.27204,"lon":5.40999,"is_reserved":false,"is_disabled":false,"rental_uris":{"android":"levelo://app?vid=d1244aa9-0aef-4cc0-95b0-1ab2bc0f68a2","ios":"levelo://app?vid=d1244aa9-0aef-4cc0-95b0-1ab2bc0f68a2"},"vehicle_type_id":"4","last_reported":1736348943,"current_range_meters":37600,"station_id":"ce4bhl12rcd13ifvqgf0","pricing_plan_id":"cebpf4jnsgd1na2vs0mg"},{"bike_id":"95441836-7d57-4a6c-8cdb-64e7d50c6a32","system_id":"levelo_inurba_marseille","lat":43.25877,"lon":5.39895,"is_reserved":false,"is_disabled":false,"rental_uris":{"android":"levelo://app?vid=95441836-7d57-4a6c-8cdb-64e7d50c6a32","ios":"levelo://app?vid=95441836-7d57-4a6c-8cdb-64e7d50c6a32"},"vehicle_type_id":"4","last_reported":1736348943,"current_range_meters":38800,"station_id":"ce4bhl92rcd13ifvqghg","pricing_plan_id":"cebpf4jnsgd1na2vs0mg"},{"bike_id":"ec1e5d98-6909-4fc8-9c32-9a0d066ed133","system_id":"levelo_inurba_marseille","lat":43.30541,"lon":5.36706,"is_reserved":false,"is_disabled":false,"rental_uris":{"android":"levelo://app?vid=ec1e5d98-6909-4fc8-9c32-9a0d066ed133","ios":"levelo://app?vid=ec1e5d98-6909-4fc8-9c32-9a0d066ed133"},"vehicle_type_id":"4","last_reported":1736348943,"current_range_meters":35600,"station_id":"ce4bgrp2rcd13ifvqc9g","pricing_plan_id":"cebpf4jnsgd1na2vs0mg"},{"bike_id":"9622181b-018e-449d-b3cb-fb518218a990","system_id":"levelo_inurba_marseille","lat":43.29231,"lon":5.36073,"is_reserved":false,"is_disabled":false,"rental_uris":{"android":"levelo://app?vid=9622181b-018e-449d-b3cb-fb518218a990","ios":"levelo://app?vid=9622181b-018e-449d-b3cb-fb518218a990"},"vehicle_type_id":"4","last_reported":1736348943,"current_range_meters":10000,"station_id":"ce4bhbh2rcd13ifvqeqg","pricing_plan_id":"cebpf4jnsgd1na2vs0mg"},{"bike_id":"784c114c-6b4b-4d66-8437-8a364b7d7999","system_id":"levelo_inurba_marseille","lat":43.337298,"lon":5.391945,"is_reserved":false,"is_disabled":false,"rental_uris":{"android":"levelo://app?vid=784c114c-6b4b-4d66-8437-8a364b7d7999","ios":"levelo://app?vid=784c114c-6b4b-4d66-8437-8a364b7d7999"},"vehicle_type_id":"4","last_reported":1736348943,"current_range_meters":35600,"station_id":"ce4bhr92rcd13ifvqhsg","pricing_plan_id":"cebpf4jnsgd1na2vs0mg"},{"bike_id":"fe3704b1-1297-4b6e-a8fc-011883cc7d92","system_id":"levelo_inurba_marseille","lat":43.25509,"lon":5.37653,"is_reserved":false,"is_disabled":false,"rental_uris":{"android":"levelo://app?vid=fe3704b1-1297-4b6e-a8fc-011883cc7d92","ios":"levelo://app?vid=fe3704b1-1297-4b6e-a8fc-011883cc7d92"},"vehicle_type_id":"4","last_reported":1736348943,"current_range_meters":20800,"station_id":"ce4bhh12rcd13ifvqff0","pricing_plan_id":"cebpf4jnsgd1na2vs0mg"},{"bike_id":"2a250d61-8a11-4f0c-8194-7f90eada69de","system_id":"levelo_inurba_marseille","lat":43.31326,"lon":5.39687,"is_reserved":false,"is_disabled":false,"rental_uris":{"android":"levelo://app?vid=2a250d61-8a11-4f0c-8194-7f90eada69de","ios":"levelo://app?vid=2a250d61-8a11-4f0c-8194-7f90eada69de"},"vehicle_type_id":"4","last_reported":1736348943,"current_range_meters":26800,"station_id":"ce4bgvp2rcd13ifvqcu0","pricing_plan_id":"cebpf4jnsgd1na2vs0mg"},{"bike_id":"a9edd39b-2753-4de9-ad60-a7d0e413d73c","system_id":"levelo_inurba_marseille","lat":43.24809,"lon":5.37457,"is_reserved":false,"is_disabled":false,"rental_uris":{"android":"levelo://app?vid=a9edd39b-2753-4de9-ad60-a7d0e413d73c","ios":"levelo://app?vid=a9edd39b-2753-4de9-ad60-a7d0e413d73c"},"vehicle_type_id":"4","last_reported":1736348943,"current_range_meters":30000,"station_id":"ce4bhgh2rcd13ifvqfb0","pricing_plan_id":"cebpf4jnsgd1na2vs0mg"},{"bike_id":"181880e4-46aa-4a12-9bac-27fe3a058799","system_id":"levelo_inurba_marseille","lat":43.26687,"lon":5.38266,"is_reserved":false,"is_disabled":false,"rental_uris":{"android":"levelo://app?vid=181880e4-46aa-4a12-9bac-27fe3a058799","ios":"levelo://app?vid=181880e4-46aa-4a12-9bac-27fe3a058799"},"vehicle_type_id":"4","last_reported":1736348943,"current_range_meters":39200,"station_id":"ce4bhg92rcd13ifvqf90","pricing_plan_id":"cebpf4jnsgd1na2vs0mg"},{"bike_id":"f40a23e1-4db4-43c9-bf26-5d3436aadc87","system_id":"levelo_inurba_marseille","lat":43.28374,"lon":5.38631,"is_reserved":false,"is_disabled":true,"rental_uris":{"android":"levelo://app?vid=f40a23e1-4db4-43c9-bf26-5d3436aadc87","ios":"levelo://app?vid=f40a23e1-4db4-43c9-bf26-5d3436aadc87"},"vehicle_type_id":"4","last_reported":1736348943,"current_range_meters":37600,"station_id":"ce4bh492rcd13ifvqdvg","pricing_plan_id":"cebpf4jnsgd1na2vs0mg"},{"bike_id":"a8ce43be-4cc1-4b4c-a3a3-d5048bc9b7fa","system_id":"levelo_inurba_marseille","lat":43.33021,"lon":5.39041,"is_reserved":false,"is_disabled":false,"rental_uris":{"android":"levelo://app?vid=a8ce43be-4cc1-4b4c-a3a3-d5048bc9b7fa","ios":"levelo://app?vid=a8ce43be-4cc1-4b4c-a3a3-d5048bc9b7fa"},"vehicle_type_id":"4","last_reported":1736348943,"current_range_meters":38800,"station_id":"ce4bhr92rcd13ifvqhrg","pricing_plan_id":"cebpf4jnsgd1na2vs0mg"},{"bike_id":"73eb524f-2d58-4a00-9fa5-76f6077910dd","system_id":"levelo_inurba_marseille","lat":43.232,"lon":5.39983,"is_reserved":false,"is_disabled":true,"rental_uris":{"android":"levelo://app?vid=73eb524f-2d58-4a00-9fa5-76f6077910dd","ios":"levelo://app?vid=73eb524f-2d58-4a00-9fa5-76f6077910dd"},"vehicle_type_id":"4","last_reported":1736348943,"current_range_meters":12400,"station_id":"ce4bhn12rcd13ifvqgqg","pricing_plan_id":"cebpf4jnsgd1na2vs0mg"},{"bike_id":"c13e404c-3822-47fa-98e3-b2f91eef48ac","system_id":"levelo_inurba_marseille","lat":43.2894,"lon":5.39689,"is_reserved":false,"is_disabled":false,"rental_uris":{"android":"levelo://app?vid=c13e404c-3822-47fa-98e3-b2f91eef48ac","ios":"levelo://app?vid=c13e404c-3822-47fa-98e3-b2f91eef48ac"},"vehicle_type_id":"4","last_reported":1736348943,"current_range_meters":16800,"station_id":"ce4bh3h2rcd13ifvqdn0","pricing_plan_id":"cebpf4jnsgd1na2vs0mg"},{"bike_id":"2199d219-e0ca-4b28-a772-ba63161f237a","system_id":"levelo_inurba_marseille","lat":43.32125,"lon":5.36777,"is_reserved":false,"is_disabled":false,"rental_uris":{"android":"levelo://app?vid=2199d219-e0ca-4b28-a772-ba63161f237a","ios":"levelo://app?vid=2199d219-e0ca-4b28-a772-ba63161f237a"},"vehicle_type_id":"4","last_reported":1736348943,"current_range_meters":18800,"station_id":"ce4bhrh2rcd13ifvqhug","pricing_plan_id":"cebpf4jnsgd1na2vs0mg"},{"bike_id":"a81f0b25-2849-4974-9edb-1a08c6c0db79","system_id":"levelo_inurba_marseille","lat":43.231531,"lon":5.437148,"is_reserved":false,"is_disabled":false,"rental_uris":{"android":"levelo://app?vid=a81f0b25-2849-4974-9edb-1a08c6c0db79","ios":"levelo://app?vid=a81f0b25-2849-4974-9edb-1a08c6c0db79"},"vehicle_type_id":"4","last_reported":1736348943,"current_range_meters":38800,"station_id":"ce4bhmp2rcd13ifvqgog","pricing_plan_id":"cebpf4jnsgd1na2vs0mg"},{"bike_id":"4ad2fead-82d5-4f9b-b501-a7c79a911f0d","system_id":"levelo_inurba_marseille","lat":43.29848,"lon":5.36289,"is_reserved":false,"is_disabled":false,"rental_uris":{"android":"levelo://app?vid=4ad2fead-82d5-4f9b-b501-a7c79a911f0d","ios":"levelo://app?vid=4ad2fead-82d5-4f9b-b501-a7c79a911f0d"},"vehicle_type_id":"4","last_reported":1736348943,"current_range_meters":24800,"station_id":"ce4bgpp2rcd13ifvqc3g","pricing_plan_id":"cebpf4jnsgd1na2vs0mg"},{"bike_id":"cf2bd529-a291-4fa4-b157-c55a1a031bbb","system_id":"levelo_inurba_marseille","lat":43.30359,"lon":5.41881,"is_reserved":false,"is_disabled":false,"rental_uris":{"android":"levelo://app?vid=cf2bd529-a291-4fa4-b157-c55a1a031bbb","ios":"levelo://app?vid=cf2bd529-a291-4fa4-b157-c55a1a031bbb"},"vehicle_type_id":"4","last_reported":1736348943,"current_range_meters":27600,"station_id":"ce4bhop2rcd13ifvqh7g","pricing_plan_id":"cebpf4jnsgd1na2vs0mg"},{"bike_id":"0df9c977-359d-4a44-9f83-0885b05e76b1","system_id":"levelo_inurba_marseille","lat":43.31375,"lon":5.38523,"is_reserved":false,"is_disabled":false,"rental_uris":{"android":"levelo://app?vid=0df9c977-359d-4a44-9f83-0885b05e76b1","ios":"levelo://app?vid=0df9c977-359d-4a44-9f83-0885b05e76b1"},"vehicle_type_id":"4","last_reported":1736348943,"current_range_meters":1600,"station_id":"ce4bgt92rcd13ifvqcf0","pricing_plan_id":"cebpf4jnsgd1na2vs0mg"},{"bike_id":"e9811af6-2b58-44bf-8a8f-1cf010738c20","system_id":"levelo_inurba_marseille","lat":43.23225,"lon":5.40022,"is_reserved":false,"is_disabled":false,"rental_uris":{"android":"levelo://app?vid=e9811af6-2b58-44bf-8a8f-1cf010738c20","ios":"levelo://app?vid=e9811af6-2b58-44bf-8a8f-1cf010738c20"},"vehicle_type_id":"4","last_reported":1736348943,"current_range_meters":27200,"station_id":"","pricing_plan_id":"cebpf4jnsgd1na2vs0mg"},{"bike_id":"4746bea6-71d3-45b9-aef3-8bc50942d52a","system_id":"levelo_inurba_marseille","lat":43.28417,"lon":5.34992,"is_reserved":false,"is_disabled":false,"rental_uris":{"android":"levelo://app?vid=4746bea6-71d3-45b9-aef3-8bc50942d52a","ios":"levelo://app?vid=4746bea6-71d3-45b9-aef3-8bc50942d52a"},"vehicle_type_id":"4","last_reported":1736348943,"current_range_meters":18800,"station_id":"ce4bhbh2rcd13ifvqepg","pricing_plan_id":"cebpf4jnsgd1na2vs0mg"},{"bike_id":"dfcc14da-7aef-4d0c-99a2-b83ed10a02b9","system_id":"levelo_inurba_marseille","lat":43.28412,"lon":5.37511,"is_reserved":false,"is_disabled":false,"rental_uris":{"android":"levelo://app?vid=dfcc14da-7aef-4d0c-99a2-b83ed10a02b9","ios":"levelo://app?vid=dfcc14da-7aef-4d0c-99a2-b83ed10a02b9"},"vehicle_type_id":"4","last_reported":1736348943,"current_range_meters":14400,"station_id":"ce4bh412rcd13ifvqds0","pricing_plan_id":"cebpf4jnsgd1na2vs0mg"},{"bike_id":"cb2b6336-78ab-4eb9-af67-e32e664641da","system_id":"levelo_inurba_marseille","lat":43.23152,"lon":5.43701,"is_reserved":false,"is_disabled":false,"rental_uris":{"android":"levelo://app?vid=cb2b6336-78ab-4eb9-af67-e32e664641da","ios":"levelo://app?vid=cb2b6336-78ab-4eb9-af67-e32e664641da"},"vehicle_type_id":"4","last_reported":1736348943,"current_range_meters":38800,"station_id":"ce4bhmp2rcd13ifvqgog","pricing_plan_id":"cebpf4jnsgd1na2vs0mg"},{"bike_id":"9eae4cd6-1f38-44a0-8da2-85b53da6b9a4","system_id":"levelo_inurba_marseille","lat":43.309353,"lon":5.401443,"is_reserved":false,"is_disabled":false,"rental_uris":{"android":"levelo://app?vid=9eae4cd6-1f38-44a0-8da2-85b53da6b9a4","ios":"levelo://app?vid=9eae4cd6-1f38-44a0-8da2-85b53da6b9a4"},"vehicle_type_id":"4","last_reported":1736348943,"current_range_meters":20400,"station_id":"ce4bgvp2rcd13ifvqct0","pricing_plan_id":"cebpf4jnsgd1na2vs0mg"},{"bike_id":"b3e8a142-768b-4d34-93d8-6fd0d09a4f96","system_id":"levelo_inurba_marseille","lat":43.32669,"lon":5.41005,"is_reserved":false,"is_disabled":false,"rental_uris":{"android":"levelo://app?vid=b3e8a142-768b-4d34-93d8-6fd0d09a4f96","ios":"levelo://app?vid=b3e8a142-768b-4d34-93d8-6fd0d09a4f96"},"vehicle_type_id":"4","last_reported":1736348943,"current_range_meters":35600,"station_id":"ce4bhpp2rcd13ifvqhgg","pricing_plan_id":"cebpf4jnsgd1na2vs0mg"},{"bike_id":"2e94f94d-3ed0-4fad-ac11-0a7f0090b7e6","system_id":"levelo_inurba_marseille","lat":43.29797,"lon":5.3809,"is_reserved":false,"is_disabled":false,"rental_uris":{"android":"levelo://app?vid=2e94f94d-3ed0-4fad-ac11-0a7f0090b7e6","ios":"levelo://app?vid=2e94f94d-3ed0-4fad-ac11-0a7f0090b7e6"},"vehicle_type_id":"4","last_reported":1736348943,"current_range_meters":12000,"station_id":"ce4bgip2rcd13ifvqbb0","pricing_plan_id":"cebpf4jnsgd1na2vs0mg"},{"bike_id":"cf80c4c9-aadb-4f41-b2ed-522af0b77efa","system_id":"levelo_inurba_marseille","lat":43.30884,"lon":5.37181,"is_reserved":false,"is_disabled":false,"rental_uris":{"android":"levelo://app?vid=cf80c4c9-aadb-4f41-b2ed-522af0b77efa","ios":"levelo://app?vid=cf80c4c9-aadb-4f41-b2ed-522af0b77efa"},"vehicle_type_id":"4","last_reported":1736348943,"current_range_meters":36800,"station_id":"ce4bguh2rcd13ifvqckg","pricing_plan_id":"cebpf4jnsgd1na2vs0mg"},{"bike_id":"df02e1b6-3a50-4ccf-933f-7b5e41abfc53","system_id":"levelo_inurba_marseille","lat":43.308835,"lon":5.396589,"is_reserved":false,"is_disabled":false,"rental_uris":{"android":"levelo://app?vid=df02e1b6-3a50-4ccf-933f-7b5e41abfc53","ios":"levelo://app?vid=df02e1b6-3a50-4ccf-933f-7b5e41abfc53"},"vehicle_type_id":"4","last_reported":1736348943,"current_range_meters":3200,"station_id":"ce4bgvp2rcd13ifvqcu0","pricing_plan_id":"cebpf4jnsgd1na2vs0mg"},{"bike_id":"502fa043-8c15-4797-8f0a-611d6d5786e5","system_id":"levelo_inurba_marseille","lat":43.29381,"lon":5.37855,"is_reserved":false,"is_disabled":false,"rental_uris":{"android":"levelo://app?vid=502fa043-8c15-4797-8f0a-611d6d5786e5","ios":"levelo://app?vid=502fa043-8c15-4797-8f0a-611d6d5786e5"},"vehicle_type_id":"4","last_reported":1736348943,"current_range_meters":38800,"station_id":"ce4bgjh2rcd13ifvqbf0","pricing_plan_id":"cebpf4jnsgd1na2vs0mg"},{"bike_id":"be4c59f4-a498-44be-a430-245c96b05e75","system_id":"levelo_inurba_marseille","lat":43.32866,"lon":5.39166,"is_reserved":false,"is_disabled":false,"rental_uris":{"android":"levelo://app?vid=be4c59f4-a498-44be-a430-245c96b05e75","ios":"levelo://app?vid=be4c59f4-a498-44be-a430-245c96b05e75"},"vehicle_type_id":"4","last_reported":1736348943,"current_range_meters":16400,"station_id":"","pricing_plan_id":"cebpf4jnsgd1na2vs0mg"},{"bike_id":"feeeae9a-4bcc-477a-bc8c-e9391fa8aedd","system_id":"levelo_inurba_marseille","lat":43.29208,"lon":5.39314,"is_reserved":false,"is_disabled":true,"rental_uris":{"android":"levelo://app?vid=feeeae9a-4bcc-477a-bc8c-e9391fa8aedd","ios":"levelo://app?vid=feeeae9a-4bcc-477a-bc8c-e9391fa8aedd"},"vehicle_type_id":"4","last_reported":1736348943,"current_range_meters":3200,"station_id":"ce4bh192rcd13ifvqdd0","pricing_plan_id":"cebpf4jnsgd1na2vs0mg"},{"bike_id":"40193680-b0b8-48af-950c-216b3bbe9a5c","system_id":"levelo_inurba_marseille","lat":43.2707,"lon":5.42281,"is_reserved":false,"is_disabled":false,"rental_uris":{"android":"levelo://app?vid=40193680-b0b8-48af-950c-216b3bbe9a5c","ios":"levelo://app?vid=40193680-b0b8-48af-950c-216b3bbe9a5c"},"vehicle_type_id":"4","last_reported":1736348943,"current_range_meters":31200,"station_id":"ce4bhk92rcd13ifvqgb0","pricing_plan_id":"cebpf4jnsgd1na2vs0mg"},{"bike_id":"dbe4d7d2-95f9-4a28-b000-f9ac7c3f52eb","system_id":"levelo_inurba_marseille","lat":43.29168,"lon":5.39316,"is_reserved":false,"is_disabled":true,"rental_uris":{"android":"levelo://app?vid=dbe4d7d2-95f9-4a28-b000-f9ac7c3f52eb","ios":"levelo://app?vid=dbe4d7d2-95f9-4a28-b000-f9ac7c3f52eb"},"vehicle_type_id":"4","last_reported":1736348943,"current_range_meters":3200,"station_id":"ce4bh192rcd13ifvqdd0","pricing_plan_id":"cebpf4jnsgd1na2vs0mg"},{"bike_id":"29f5f10d-587d-434f-a4e9-c90482bde00c","system_id":"levelo_inurba_marseille","lat":43.32046,"lon":5.41545,"is_reserved":false,"is_disabled":false,"rental_uris":{"android":"levelo://app?vid=29f5f10d-587d-434f-a4e9-c90482bde00c","ios":"levelo://app?vid=29f5f10d-587d-434f-a4e9-c90482bde00c"},"vehicle_type_id":"4","last_reported":1736348943,"current_range_meters":11600,"station_id":"ce4bhq92rcd13ifvqhkg","pricing_plan_id":"cebpf4jnsgd1na2vs0mg"},{"bike_id":"b02ae6ee-06d8-4b9f-9872-c8fcf9b7576a","system_id":"levelo_inurba_marseille","lat":43.30565,"lon":5.36568,"is_reserved":false,"is_disabled":true,"rental_uris":{"android":"levelo://app?vid=b02ae6ee-06d8-4b9f-9872-c8fcf9b7576a","ios":"levelo://app?vid=b02ae6ee-06d8-4b9f-9872-c8fcf9b7576a"},"vehicle_type_id":"4","last_reported":1736348943,"current_range_meters":24800,"station_id":"ce4bgs12rcd13ifvqcag","pricing_plan_id":"cebpf4jnsgd1na2vs0mg"},{"bike_id":"eb82ad45-deeb-4f11-87b1-683e7b63813c","system_id":"levelo_inurba_marseille","lat":43.28935,"lon":5.36403,"is_reserved":false,"is_disabled":false,"rental_uris":{"android":"levelo://app?vid=eb82ad45-deeb-4f11-87b1-683e7b63813c","ios":"levelo://app?vid=eb82ad45-deeb-4f11-87b1-683e7b63813c"},"vehicle_type_id":"4","last_reported":1736348943,"current_range_meters":29600,"station_id":"ce4bhc92rcd13ifvqetg","pricing_plan_id":"cebpf4jnsgd1na2vs0mg"},{"bike_id":"bc56798a-5ce1-40dc-91c4-09605433014b","system_id":"levelo_inurba_marseille","lat":43.3025,"lon":5.40052,"is_reserved":false,"is_disabled":false,"rental_uris":{"android":"levelo://app?vid=bc56798a-5ce1-40dc-91c4-09605433014b","ios":"levelo://app?vid=bc56798a-5ce1-40dc-91c4-09605433014b"},"vehicle_type_id":"4","last_reported":1736348943,"current_range_meters":8800,"station_id":"ce4bgvh2rcd13ifvqcs0","pricing_plan_id":"cebpf4jnsgd1na2vs0mg"},{"bike_id":"8e2efa85-cfe7-418b-a254-ce744ac062a4","system_id":"levelo_inurba_marseille","lat":43.26707,"lon":5.38257,"is_reserved":false,"is_disabled":false,"rental_uris":{"android":"levelo://app?vid=8e2efa85-cfe7-418b-a254-ce744ac062a4","ios":"levelo://app?vid=8e2efa85-cfe7-418b-a254-ce744ac062a4"},"vehicle_type_id":"4","last_reported":1736348943,"current_range_meters":20400,"station_id":"ce4bhg92rcd13ifvqf90","pricing_plan_id":"cebpf4jnsgd1na2vs0mg"},{"bike_id":"9aec225d-a400-4174-9206-a94af0438f62","system_id":"levelo_inurba_marseille","lat":43.29512,"lon":5.42015,"is_reserved":false,"is_disabled":false,"rental_uris":{"android":"levelo://app?vid=9aec225d-a400-4174-9206-a94af0438f62","ios":"levelo://app?vid=9aec225d-a400-4174-9206-a94af0438f62"},"vehicle_type_id":"4","last_reported":1736348943,"current_range_meters":10800,"station_id":"","pricing_plan_id":"cebpf4jnsgd1na2vs0mg"},{"bike_id":"e547cf91-b6e6-4277-b19d-b2bcef6cfecc","system_id":"levelo_inurba_marseille","lat":43.29357,"lon":5.37834,"is_reserved":false,"is_disabled":false,"rental_uris":{"android":"levelo://app?vid=e547cf91-b6e6-4277-b19d-b2bcef6cfecc","ios":"levelo://app?vid=e547cf91-b6e6-4277-b19d-b2bcef6cfecc"},"vehicle_type_id":"4","last_reported":1736348943,"current_range_meters":24800,"station_id":"ce4bgjh2rcd13ifvqbf0","pricing_plan_id":"cebpf4jnsgd1na2vs0mg"},{"bike_id":"3702972d-59ed-481a-95d4-8c0f0f7e2400","system_id":"levelo_inurba_marseille","lat":43.31221,"lon":5.36857,"is_reserved":false,"is_disabled":false,"rental_uris":{"android":"levelo://app?vid=3702972d-59ed-481a-95d4-8c0f0f7e2400","ios":"levelo://app?vid=3702972d-59ed-481a-95d4-8c0f0f7e2400"},"vehicle_type_id":"4","last_reported":1736348943,"current_range_meters":35600,"station_id":"ce4bgl92rcd13ifvqbq0","pricing_plan_id":"cebpf4jnsgd1na2vs0mg"},{"bike_id":"5799bd93-59fa-47d0-83d4-90eb96548beb","system_id":"levelo_inurba_marseille","lat":43.29028,"lon":5.38643,"is_reserved":false,"is_disabled":false,"rental_uris":{"android":"levelo://app?vid=5799bd93-59fa-47d0-83d4-90eb96548beb","ios":"levelo://app?vid=5799bd93-59fa-47d0-83d4-90eb96548beb"},"vehicle_type_id":"4","last_reported":1736348943,"current_range_meters":32800,"station_id":"ce4bh4p2rcd13ifvqe0g","pricing_plan_id":"cebpf4jnsgd1na2vs0mg"},{"bike_id":"12fb8c06-7e0a-42d9-84c6-5c32160c5ea6","system_id":"levelo_inurba_marseille","lat":43.29681,"lon":5.37307,"is_reserved":false,"is_disabled":false,"rental_uris":{"android":"levelo://app?vid=12fb8c06-7e0a-42d9-84c6-5c32160c5ea6","ios":"levelo://app?vid=12fb8c06-7e0a-42d9-84c6-5c32160c5ea6"},"vehicle_type_id":"4","last_reported":1736348943,"current_range_meters":34800,"station_id":"ce4bgk12rcd13ifvqbj0","pricing_plan_id":"cebpf4jnsgd1na2vs0mg"},{"bike_id":"83e7e804-2b99-4e06-93a6-e481d372b06c","system_id":"levelo_inurba_marseille","lat":43.27829,"lon":5.40717,"is_reserved":false,"is_disabled":false,"rental_uris":{"android":"levelo://app?vid=83e7e804-2b99-4e06-93a6-e481d372b06c","ios":"levelo://app?vid=83e7e804-2b99-4e06-93a6-e481d372b06c"},"vehicle_type_id":"4","last_reported":1736348943,"current_range_meters":13600,"station_id":"ce4bhnh2rcd13ifvqgtg","pricing_plan_id":"cebpf4jnsgd1na2vs0mg"},{"bike_id":"f5ca1501-67dc-4227-a538-3638c9573471","system_id":"levelo_inurba_marseille","lat":43.25724,"lon":5.41108,"is_reserved":false,"is_disabled":false,"rental_uris":{"android":"levelo://app?vid=f5ca1501-67dc-4227-a538-3638c9573471","ios":"levelo://app?vid=f5ca1501-67dc-4227-a538-3638c9573471"},"vehicle_type_id":"4","last_reported":1736348943,"current_range_meters":38800,"station_id":"ce4bhkp2rcd13ifvqgd0","pricing_plan_id":"cebpf4jnsgd1na2vs0mg"},{"bike_id":"bd93e039-8312-422d-b562-d45f6831b1fa","system_id":"levelo_inurba_marseille","lat":43.26558,"lon":5.37296,"is_reserved":false,"is_disabled":false,"rental_uris":{"android":"levelo://app?vid=bd93e039-8312-422d-b562-d45f6831b1fa","ios":"levelo://app?vid=bd93e039-8312-422d-b562-d45f6831b1fa"},"vehicle_type_id":"4","last_reported":1736348943,"current_range_meters":27200,"station_id":"ce4bhg12rcd13ifvqf70","pricing_plan_id":"cebpf4jnsgd1na2vs0mg"},{"bike_id":"e0c5bcca-f38c-4415-8d3c-64dad8e411d9","system_id":"levelo_inurba_marseille","lat":43.27373,"lon":5.36232,"is_reserved":false,"is_disabled":false,"rental_uris":{"android":"levelo://app?vid=e0c5bcca-f38c-4415-8d3c-64dad8e411d9","ios":"levelo://app?vid=e0c5bcca-f38c-4415-8d3c-64dad8e411d9"},"vehicle_type_id":"4","last_reported":1736348943,"current_range_meters":38800,"station_id":"ce4bhbh2rcd13ifvqeo0","pricing_plan_id":"cebpf4jnsgd1na2vs0mg"},{"bike_id":"128e494f-c5f6-49d1-8da7-12ffc5ea9838","system_id":"levelo_inurba_marseille","lat":43.2417,"lon":5.36394,"is_reserved":false,"is_disabled":false,"rental_uris":{"android":"levelo://app?vid=128e494f-c5f6-49d1-8da7-12ffc5ea9838","ios":"levelo://app?vid=128e494f-c5f6-49d1-8da7-12ffc5ea9838"},"vehicle_type_id":"4","last_reported":1736348943,"current_range_meters":16800,"station_id":"cpo36qri1sfpv3e86is0","pricing_plan_id":"cebpf4jnsgd1na2vs0mg"},{"bike_id":"446e9ed2-2981-4b27-aae6-781fe8fac739","system_id":"levelo_inurba_marseille","lat":43.30429,"lon":5.38879,"is_reserved":false,"is_disabled":false,"rental_uris":{"android":"levelo://app?vid=446e9ed2-2981-4b27-aae6-781fe8fac739","ios":"levelo://app?vid=446e9ed2-2981-4b27-aae6-781fe8fac739"},"vehicle_type_id":"4","last_reported":1736348943,"current_range_meters":27200,"station_id":"ce4bgk12rcd13ifvqbi0","pricing_plan_id":"cebpf4jnsgd1na2vs0mg"},{"bike_id":"87cd4c8e-dd31-49cb-a754-0e97614559ef","system_id":"levelo_inurba_marseille","lat":43.29376,"lon":5.37858,"is_reserved":false,"is_disabled":false,"rental_uris":{"android":"levelo://app?vid=87cd4c8e-dd31-49cb-a754-0e97614559ef","ios":"levelo://app?vid=87cd4c8e-dd31-49cb-a754-0e97614559ef"},"vehicle_type_id":"4","last_reported":1736348943,"current_range_meters":31200,"station_id":"ce4bgjh2rcd13ifvqbf0","pricing_plan_id":"cebpf4jnsgd1na2vs0mg"},{"bike_id":"afd4d053-5b2c-4b95-974c-108689eb1cdd","system_id":"levelo_inurba_marseille","lat":43.27205,"lon":5.40998,"is_reserved":false,"is_disabled":false,"rental_uris":{"android":"levelo://app?vid=afd4d053-5b2c-4b95-974c-108689eb1cdd","ios":"levelo://app?vid=afd4d053-5b2c-4b95-974c-108689eb1cdd"},"vehicle_type_id":"4","last_reported":1736348943,"current_range_meters":38000,"station_id":"ce4bhl12rcd13ifvqgf0","pricing_plan_id":"cebpf4jnsgd1na2vs0mg"},{"bike_id":"a89d83b2-34a2-48f5-bd62-c1b8e6478ad8","system_id":"levelo_inurba_marseille","lat":43.31513,"lon":5.37284,"is_reserved":false,"is_disabled":false,"rental_uris":{"android":"levelo://app?vid=a89d83b2-34a2-48f5-bd62-c1b8e6478ad8","ios":"levelo://app?vid=a89d83b2-34a2-48f5-bd62-c1b8e6478ad8"},"vehicle_type_id":"4","last_reported":1736348943,"current_range_meters":34000,"station_id":"ce4bgt12rcd13ifvqcd0","pricing_plan_id":"cebpf4jnsgd1na2vs0mg"},{"bike_id":"12a0a3aa-7898-4493-8eb3-4819e5d00ab0","system_id":"levelo_inurba_marseille","lat":43.29006,"lon":5.35601,"is_reserved":false,"is_disabled":false,"rental_uris":{"android":"levelo://app?vid=12a0a3aa-7898-4493-8eb3-4819e5d00ab0","ios":"levelo://app?vid=12a0a3aa-7898-4493-8eb3-4819e5d00ab0"},"vehicle_type_id":"4","last_reported":1736348943,"current_range_meters":32400,"station_id":"ce4bhb92rcd13ifvqen0","pricing_plan_id":"cebpf4jnsgd1na2vs0mg"},{"bike_id":"da6c6534-8ab1-48da-9d99-aa2477aee4a0","system_id":"levelo_inurba_marseille","lat":43.31063,"lon":5.38341,"is_reserved":false,"is_disabled":false,"rental_uris":{"android":"levelo://app?vid=da6c6534-8ab1-48da-9d99-aa2477aee4a0","ios":"levelo://app?vid=da6c6534-8ab1-48da-9d99-aa2477aee4a0"},"vehicle_type_id":"4","last_reported":1736348943,"current_range_meters":39200,"station_id":"ce4bgv92rcd13ifvqcr0","pricing_plan_id":"cebpf4jnsgd1na2vs0mg"},{"bike_id":"7e647b87-ee39-48c8-8a57-8ca415c7293d","system_id":"levelo_inurba_marseille","lat":43.23048,"lon":5.35489,"is_reserved":false,"is_disabled":false,"rental_uris":{"android":"levelo://app?vid=7e647b87-ee39-48c8-8a57-8ca415c7293d","ios":"levelo://app?vid=7e647b87-ee39-48c8-8a57-8ca415c7293d"},"vehicle_type_id":"4","last_reported":1736348943,"current_range_meters":37600,"station_id":"cpo3342slgdg3j2ifvpg","pricing_plan_id":"cebpf4jnsgd1na2vs0mg"},{"bike_id":"0b2ae5f0-35aa-4038-afed-c6f5edc043e0","system_id":"levelo_inurba_marseille","lat":43.27377,"lon":5.36254,"is_reserved":false,"is_disabled":false,"rental_uris":{"android":"levelo://app?vid=0b2ae5f0-35aa-4038-afed-c6f5edc043e0","ios":"levelo://app?vid=0b2ae5f0-35aa-4038-afed-c6f5edc043e0"},"vehicle_type_id":"4","last_reported":1736348943,"current_range_meters":36400,"station_id":"ce4bhbh2rcd13ifvqeo0","pricing_plan_id":"cebpf4jnsgd1na2vs0mg"},{"bike_id":"ec871138-61ad-41e1-acd3-7372904dde2d","system_id":"levelo_inurba_marseille","lat":43.24549,"lon":5.39533,"is_reserved":false,"is_disabled":false,"rental_uris":{"android":"levelo://app?vid=ec871138-61ad-41e1-acd3-7372904dde2d","ios":"levelo://app?vid=ec871138-61ad-41e1-acd3-7372904dde2d"},"vehicle_type_id":"4","last_reported":1736348943,"current_range_meters":38800,"station_id":"ce4bhlp2rcd13ifvqgjg","pricing_plan_id":"cebpf4jnsgd1na2vs0mg"},{"bike_id":"41781055-f014-465a-83eb-b0538e0c84b5","system_id":"levelo_inurba_marseille","lat":43.24179,"lon":5.39734,"is_reserved":false,"is_disabled":false,"rental_uris":{"android":"levelo://app?vid=41781055-f014-465a-83eb-b0538e0c84b5","ios":"levelo://app?vid=41781055-f014-465a-83eb-b0538e0c84b5"},"vehicle_type_id":"4","last_reported":1736348943,"current_range_meters":15200,"station_id":"ce4bhn12rcd13ifvqgpg","pricing_plan_id":"cebpf4jnsgd1na2vs0mg"},{"bike_id":"102cb488-e37e-4a25-ae00-7f174450be41","system_id":"levelo_inurba_marseille","lat":43.27551,"lon":5.38433,"is_reserved":false,"is_disabled":true,"rental_uris":{"android":"levelo://app?vid=102cb488-e37e-4a25-ae00-7f174450be41","ios":"levelo://app?vid=102cb488-e37e-4a25-ae00-7f174450be41"},"vehicle_type_id":"4","last_reported":1736348943,"current_range_meters":1200,"station_id":"ce4bhh92rcd13ifvqfi0","pricing_plan_id":"cebpf4jnsgd1na2vs0mg"},{"bike_id":"295b1cd6-ba86-4be2-a2a5-dfa1adb3f42f","system_id":"levelo_inurba_marseille","lat":43.31071,"lon":5.401,"is_reserved":false,"is_disabled":false,"rental_uris":{"android":"levelo://app?vid=295b1cd6-ba86-4be2-a2a5-dfa1adb3f42f","ios":"levelo://app?vid=295b1cd6-ba86-4be2-a2a5-dfa1adb3f42f"},"vehicle_type_id":"4","last_reported":1736348943,"current_range_meters":18800,"station_id":"","pricing_plan_id":"cebpf4jnsgd1na2vs0mg"},{"bike_id":"292ae4c9-5ddc-4625-88b5-fae311143a9e","system_id":"levelo_inurba_marseille","lat":43.29368,"lon":5.37822,"is_reserved":false,"is_disabled":false,"rental_uris":{"android":"levelo://app?vid=292ae4c9-5ddc-4625-88b5-fae311143a9e","ios":"levelo://app?vid=292ae4c9-5ddc-4625-88b5-fae311143a9e"},"vehicle_type_id":"4","last_reported":1736348943,"current_range_meters":19200,"station_id":"ce4bgjh2rcd13ifvqbf0","pricing_plan_id":"cebpf4jnsgd1na2vs0mg"},{"bike_id":"b820a9cf-a825-4889-b7ec-db65feaeff81","system_id":"levelo_inurba_marseille","lat":43.29572,"lon":5.39978,"is_reserved":false,"is_disabled":false,"rental_uris":{"android":"levelo://app?vid=b820a9cf-a825-4889-b7ec-db65feaeff81","ios":"levelo://app?vid=b820a9cf-a825-4889-b7ec-db65feaeff81"},"vehicle_type_id":"4","last_reported":1736348943,"current_range_meters":16800,"station_id":"ce4bh312rcd13ifvqdj0","pricing_plan_id":"cebpf4jnsgd1na2vs0mg"},{"bike_id":"a59c61f5-3ca3-4e89-85e8-555e7ad52daf","system_id":"levelo_inurba_marseille","lat":43.2574,"lon":5.41094,"is_reserved":false,"is_disabled":false,"rental_uris":{"android":"levelo://app?vid=a59c61f5-3ca3-4e89-85e8-555e7ad52daf","ios":"levelo://app?vid=a59c61f5-3ca3-4e89-85e8-555e7ad52daf"},"vehicle_type_id":"4","last_reported":1736348943,"current_range_meters":38800,"station_id":"ce4bhkp2rcd13ifvqgd0","pricing_plan_id":"cebpf4jnsgd1na2vs0mg"},{"bike_id":"2d4836dd-4731-4cab-a24f-e08262d928fe","system_id":"levelo_inurba_marseille","lat":43.26204,"lon":5.37452,"is_reserved":false,"is_disabled":false,"rental_uris":{"android":"levelo://app?vid=2d4836dd-4731-4cab-a24f-e08262d928fe","ios":"levelo://app?vid=2d4836dd-4731-4cab-a24f-e08262d928fe"},"vehicle_type_id":"4","last_reported":1736348943,"current_range_meters":34000,"station_id":"ce4bhgp2rcd13ifvqfc0","pricing_plan_id":"cebpf4jnsgd1na2vs0mg"},{"bike_id":"4db3f818-4750-4b0f-bfb7-7f7f491458d7","system_id":"levelo_inurba_marseille","lat":43.28843,"lon":5.35852,"is_reserved":false,"is_disabled":false,"rental_uris":{"android":"levelo://app?vid=4db3f818-4750-4b0f-bfb7-7f7f491458d7","ios":"levelo://app?vid=4db3f818-4750-4b0f-bfb7-7f7f491458d7"},"vehicle_type_id":"4","last_reported":1736348943,"current_range_meters":38800,"station_id":"ce4bhb12rcd13ifvqem0","pricing_plan_id":"cebpf4jnsgd1na2vs0mg"},{"bike_id":"11d07089-c5fa-485c-a301-bf7c13747aef","system_id":"levelo_inurba_marseille","lat":43.28613,"lon":5.37055,"is_reserved":false,"is_disabled":false,"rental_uris":{"android":"levelo://app?vid=11d07089-c5fa-485c-a301-bf7c13747aef","ios":"levelo://app?vid=11d07089-c5fa-485c-a301-bf7c13747aef"},"vehicle_type_id":"4","last_reported":1736348943,"current_range_meters":32400,"station_id":"ce4bht12rcd13ifvqi60","pricing_plan_id":"cebpf4jnsgd1na2vs0mg"},{"bike_id":"e39f6b1f-389e-44fc-b750-d548ad83bcc0","system_id":"levelo_inurba_marseille","lat":43.2681,"lon":5.40272,"is_reserved":false,"is_disabled":false,"rental_uris":{"android":"levelo://app?vid=e39f6b1f-389e-44fc-b750-d548ad83bcc0","ios":"levelo://app?vid=e39f6b1f-389e-44fc-b750-d548ad83bcc0"},"vehicle_type_id":"4","last_reported":1736348943,"current_range_meters":36400,"station_id":"ce501612rcd8frsf0b60","pricing_plan_id":"cebpf4jnsgd1na2vs0mg"},{"bike_id":"80716bfe-ce4c-458a-a817-cd7a4ffc01a2","system_id":"levelo_inurba_marseille","lat":43.31705,"lon":5.37776,"is_reserved":false,"is_disabled":false,"rental_uris":{"android":"levelo://app?vid=80716bfe-ce4c-458a-a817-cd7a4ffc01a2","ios":"levelo://app?vid=80716bfe-ce4c-458a-a817-cd7a4ffc01a2"},"vehicle_type_id":"4","last_reported":1736348943,"current_range_meters":30800,"station_id":"ce4bgth2rcd13ifvqch0","pricing_plan_id":"cebpf4jnsgd1na2vs0mg"},{"bike_id":"06fd7ad9-5cf1-4d3c-ac13-74648804c0e1","system_id":"levelo_inurba_marseille","lat":43.2885,"lon":5.35854,"is_reserved":false,"is_disabled":false,"rental_uris":{"android":"levelo://app?vid=06fd7ad9-5cf1-4d3c-ac13-74648804c0e1","ios":"levelo://app?vid=06fd7ad9-5cf1-4d3c-ac13-74648804c0e1"},"vehicle_type_id":"4","last_reported":1736348943,"current_range_meters":23200,"station_id":"ce4bhb12rcd13ifvqem0","pricing_plan_id":"cebpf4jnsgd1na2vs0mg"},{"bike_id":"999a84c4-5a48-4fab-8075-54499b7975c4","system_id":"levelo_inurba_marseille","lat":43.29264,"lon":5.36848,"is_reserved":false,"is_disabled":false,"rental_uris":{"android":"levelo://app?vid=999a84c4-5a48-4fab-8075-54499b7975c4","ios":"levelo://app?vid=999a84c4-5a48-4fab-8075-54499b7975c4"},"vehicle_type_id":"4","last_reported":1736348943,"current_range_meters":24800,"station_id":"ce4bhbp2rcd13ifvqesg","pricing_plan_id":"cebpf4jnsgd1na2vs0mg"},{"bike_id":"a48ee251-975b-47cc-8bcf-5163b65b2f80","system_id":"levelo_inurba_marseille","lat":43.239584,"lon":5.366556,"is_reserved":false,"is_disabled":false,"rental_uris":{"android":"levelo://app?vid=a48ee251-975b-47cc-8bcf-5163b65b2f80","ios":"levelo://app?vid=a48ee251-975b-47cc-8bcf-5163b65b2f80"},"vehicle_type_id":"4","last_reported":1736348943,"current_range_meters":7200,"station_id":"ce4bhi12rcd13ifvqfp0","pricing_plan_id":"cebpf4jnsgd1na2vs0mg"},{"bike_id":"39faa2fe-395f-49c9-9056-e37436793a85","system_id":"levelo_inurba_marseille","lat":43.30321,"lon":5.40441,"is_reserved":false,"is_disabled":true,"rental_uris":{"android":"levelo://app?vid=39faa2fe-395f-49c9-9056-e37436793a85","ios":"levelo://app?vid=39faa2fe-395f-49c9-9056-e37436793a85"},"vehicle_type_id":"4","last_reported":1736348943,"current_range_meters":32400,"station_id":"ce4bh012rcd13ifvqd10","pricing_plan_id":"cebpf4jnsgd1na2vs0mg"},{"bike_id":"ad09d2f8-d1fd-4117-b032-9370ae2ea9db","system_id":"levelo_inurba_marseille","lat":43.25946,"lon":5.40916,"is_reserved":false,"is_disabled":false,"rental_uris":{"android":"levelo://app?vid=ad09d2f8-d1fd-4117-b032-9370ae2ea9db","ios":"levelo://app?vid=ad09d2f8-d1fd-4117-b032-9370ae2ea9db"},"vehicle_type_id":"4","last_reported":1736348943,"current_range_meters":36800,"station_id":"ce4bhm92rcd13ifvqglg","pricing_plan_id":"cebpf4jnsgd1na2vs0mg"},{"bike_id":"ff02a235-5fac-4689-9d0d-bafa263f706b","system_id":"levelo_inurba_marseille","lat":43.25127,"lon":5.40311,"is_reserved":false,"is_disabled":false,"rental_uris":{"android":"levelo://app?vid=ff02a235-5fac-4689-9d0d-bafa263f706b","ios":"levelo://app?vid=ff02a235-5fac-4689-9d0d-bafa263f706b"},"vehicle_type_id":"4","last_reported":1736348943,"current_range_meters":21600,"station_id":"ce4bhlh2rcd13ifvqgig","pricing_plan_id":"cebpf4jnsgd1na2vs0mg"},{"bike_id":"995c0590-781a-4b91-89cd-c0aeaeb619c1","system_id":"levelo_inurba_marseille","lat":43.285767,"lon":5.370912,"is_reserved":false,"is_disabled":true,"rental_uris":{"android":"levelo://app?vid=995c0590-781a-4b91-89cd-c0aeaeb619c1","ios":"levelo://app?vid=995c0590-781a-4b91-89cd-c0aeaeb619c1"},"vehicle_type_id":"4","last_reported":1736348943,"current_range_meters":1600,"station_id":"ce4bht12rcd13ifvqi60","pricing_plan_id":"cebpf4jnsgd1na2vs0mg"},{"bike_id":"4057a6a5-62d0-4a8f-bb97-2a269af90373","system_id":"levelo_inurba_marseille","lat":43.25725,"lon":5.41111,"is_reserved":false,"is_disabled":true,"rental_uris":{"android":"levelo://app?vid=4057a6a5-62d0-4a8f-bb97-2a269af90373","ios":"levelo://app?vid=4057a6a5-62d0-4a8f-bb97-2a269af90373"},"vehicle_type_id":"4","last_reported":1736348943,"current_range_meters":0,"station_id":"ce4bhkp2rcd13ifvqgd0","pricing_plan_id":"cebpf4jnsgd1na2vs0mg"},{"bike_id":"69203493-a4ce-4722-aa93-05ab9cdf478f","system_id":"levelo_inurba_marseille","lat":43.27566,"lon":5.38423,"is_reserved":false,"is_disabled":false,"rental_uris":{"android":"levelo://app?vid=69203493-a4ce-4722-aa93-05ab9cdf478f","ios":"levelo://app?vid=69203493-a4ce-4722-aa93-05ab9cdf478f"},"vehicle_type_id":"4","last_reported":1736348943,"current_range_meters":38000,"station_id":"ce4bhh92rcd13ifvqfi0","pricing_plan_id":"cebpf4jnsgd1na2vs0mg"},{"bike_id":"6b2300f9-bb72-470d-be93-87e294e55a83","system_id":"levelo_inurba_marseille","lat":43.32043,"lon":5.41552,"is_reserved":false,"is_disabled":false,"rental_uris":{"android":"levelo://app?vid=6b2300f9-bb72-470d-be93-87e294e55a83","ios":"levelo://app?vid=6b2300f9-bb72-470d-be93-87e294e55a83"},"vehicle_type_id":"4","last_reported":1736348943,"current_range_meters":27200,"station_id":"ce4bhq92rcd13ifvqhkg","pricing_plan_id":"cebpf4jnsgd1na2vs0mg"},{"bike_id":"6ee0b7f1-4f53-478b-a509-ffc36b12fbea","system_id":"levelo_inurba_marseille","lat":43.29517,"lon":5.375,"is_reserved":false,"is_disabled":false,"rental_uris":{"android":"levelo://app?vid=6ee0b7f1-4f53-478b-a509-ffc36b12fbea","ios":"levelo://app?vid=6ee0b7f1-4f53-478b-a509-ffc36b12fbea"},"vehicle_type_id":"4","last_reported":1736348943,"current_range_meters":25200,"station_id":"ce4bgkp2rcd13ifvqbmg","pricing_plan_id":"cebpf4jnsgd1na2vs0mg"},{"bike_id":"57105cad-b458-4d49-892c-3a99311d31a5","system_id":"levelo_inurba_marseille","lat":43.25736,"lon":5.41102,"is_reserved":false,"is_disabled":false,"rental_uris":{"android":"levelo://app?vid=57105cad-b458-4d49-892c-3a99311d31a5","ios":"levelo://app?vid=57105cad-b458-4d49-892c-3a99311d31a5"},"vehicle_type_id":"4","last_reported":1736348943,"current_range_meters":38800,"station_id":"ce4bhkp2rcd13ifvqgd0","pricing_plan_id":"cebpf4jnsgd1na2vs0mg"},{"bike_id":"f2536309-8d2b-4ccd-86e1-4c168080c77c","system_id":"levelo_inurba_marseille","lat":43.231979,"lon":5.355497,"is_reserved":false,"is_disabled":false,"rental_uris":{"android":"levelo://app?vid=f2536309-8d2b-4ccd-86e1-4c168080c77c","ios":"levelo://app?vid=f2536309-8d2b-4ccd-86e1-4c168080c77c"},"vehicle_type_id":"4","last_reported":1736348943,"current_range_meters":10000,"station_id":"ce4bhu92rcd13ifvqi70","pricing_plan_id":"cebpf4jnsgd1na2vs0mg"},{"bike_id":"6f15d1dc-f3e3-48ff-a848-9f93cd626584","system_id":"levelo_inurba_marseille","lat":43.30887,"lon":5.37178,"is_reserved":false,"is_disabled":false,"rental_uris":{"android":"levelo://app?vid=6f15d1dc-f3e3-48ff-a848-9f93cd626584","ios":"levelo://app?vid=6f15d1dc-f3e3-48ff-a848-9f93cd626584"},"vehicle_type_id":"4","last_reported":1736348943,"current_range_meters":38800,"station_id":"ce4bguh2rcd13ifvqckg","pricing_plan_id":"cebpf4jnsgd1na2vs0mg"},{"bike_id":"f695f842-574b-4a9f-887c-25bf5a9aaa13","system_id":"levelo_inurba_marseille","lat":43.29298,"lon":5.37437,"is_reserved":false,"is_disabled":true,"rental_uris":{"android":"levelo://app?vid=f695f842-574b-4a9f-887c-25bf5a9aaa13","ios":"levelo://app?vid=f695f842-574b-4a9f-887c-25bf5a9aaa13"},"vehicle_type_id":"4","last_reported":1736348943,"current_range_meters":800,"station_id":"ce4bgi12rcd13ifvqb70","pricing_plan_id":"cebpf4jnsgd1na2vs0mg"},{"bike_id":"1b9eeb91-1704-485d-9046-de6a0525e558","system_id":"levelo_inurba_marseille","lat":43.31488,"lon":5.37276,"is_reserved":false,"is_disabled":false,"rental_uris":{"android":"levelo://app?vid=1b9eeb91-1704-485d-9046-de6a0525e558","ios":"levelo://app?vid=1b9eeb91-1704-485d-9046-de6a0525e558"},"vehicle_type_id":"4","last_reported":1736348943,"current_range_meters":14800,"station_id":"ce4bgt12rcd13ifvqcd0","pricing_plan_id":"cebpf4jnsgd1na2vs0mg"},{"bike_id":"e0c957b0-0ab9-462e-86f3-9ef42f07a577","system_id":"levelo_inurba_marseille","lat":43.29597,"lon":5.37494,"is_reserved":false,"is_disabled":true,"rental_uris":{"android":"levelo://app?vid=e0c957b0-0ab9-462e-86f3-9ef42f07a577","ios":"levelo://app?vid=e0c957b0-0ab9-462e-86f3-9ef42f07a577"},"vehicle_type_id":"4","last_reported":1736348943,"current_range_meters":0,"station_id":"ce4bgh92rcd13ifvqb50","pricing_plan_id":"cebpf4jnsgd1na2vs0mg"},{"bike_id":"b29c418f-e002-4e26-8d22-6ac4e76bf266","system_id":"levelo_inurba_marseille","lat":43.31704,"lon":5.37776,"is_reserved":false,"is_disabled":false,"rental_uris":{"android":"levelo://app?vid=b29c418f-e002-4e26-8d22-6ac4e76bf266","ios":"levelo://app?vid=b29c418f-e002-4e26-8d22-6ac4e76bf266"},"vehicle_type_id":"4","last_reported":1736348943,"current_range_meters":38800,"station_id":"ce4bgth2rcd13ifvqch0","pricing_plan_id":"cebpf4jnsgd1na2vs0mg"},{"bike_id":"62278540-6b80-4c16-a4ce-0adf8c667703","system_id":"levelo_inurba_marseille","lat":43.29007,"lon":5.35604,"is_reserved":false,"is_disabled":true,"rental_uris":{"android":"levelo://app?vid=62278540-6b80-4c16-a4ce-0adf8c667703","ios":"levelo://app?vid=62278540-6b80-4c16-a4ce-0adf8c667703"},"vehicle_type_id":"4","last_reported":1736348943,"current_range_meters":0,"station_id":"ce4bhb92rcd13ifvqen0","pricing_plan_id":"cebpf4jnsgd1na2vs0mg"},{"bike_id":"6ce82496-1d25-4267-881f-07e98495a71d","system_id":"levelo_inurba_marseille","lat":43.2597,"lon":5.40897,"is_reserved":false,"is_disabled":false,"rental_uris":{"android":"levelo://app?vid=6ce82496-1d25-4267-881f-07e98495a71d","ios":"levelo://app?vid=6ce82496-1d25-4267-881f-07e98495a71d"},"vehicle_type_id":"4","last_reported":1736348943,"current_range_meters":26800,"station_id":"ce4bhm92rcd13ifvqglg","pricing_plan_id":"cebpf4jnsgd1na2vs0mg"},{"bike_id":"412641fb-1223-4549-a4fe-5d0cdf506cd0","system_id":"levelo_inurba_marseille","lat":43.29166,"lon":5.35812,"is_reserved":false,"is_disabled":false,"rental_uris":{"android":"levelo://app?vid=412641fb-1223-4549-a4fe-5d0cdf506cd0","ios":"levelo://app?vid=412641fb-1223-4549-a4fe-5d0cdf506cd0"},"vehicle_type_id":"4","last_reported":1736348943,"current_range_meters":38800,"station_id":"ce4bhb12rcd13ifvqel0","pricing_plan_id":"cebpf4jnsgd1na2vs0mg"},{"bike_id":"a023b9e2-2413-4b3d-a218-b9727e7097b5","system_id":"levelo_inurba_marseille","lat":43.292991,"lon":5.374633,"is_reserved":false,"is_disabled":true,"rental_uris":{"android":"levelo://app?vid=a023b9e2-2413-4b3d-a218-b9727e7097b5","ios":"levelo://app?vid=a023b9e2-2413-4b3d-a218-b9727e7097b5"},"vehicle_type_id":"4","last_reported":1736348943,"current_range_meters":33600,"station_id":"ce4bgi12rcd13ifvqb70","pricing_plan_id":"cebpf4jnsgd1na2vs0mg"},{"bike_id":"e056ef0c-5bd7-44bf-8e2a-eed162638820","system_id":"levelo_inurba_marseille","lat":43.2293,"lon":5.3538,"is_reserved":false,"is_disabled":false,"rental_uris":{"android":"levelo://app?vid=e056ef0c-5bd7-44bf-8e2a-eed162638820","ios":"levelo://app?vid=e056ef0c-5bd7-44bf-8e2a-eed162638820"},"vehicle_type_id":"4","last_reported":1736348943,"current_range_meters":33600,"station_id":"cpo3532slgdg3j2ikp40","pricing_plan_id":"cebpf4jnsgd1na2vs0mg"},{"bike_id":"412c961b-9eee-480e-9da4-be4fd2e54380","system_id":"levelo_inurba_marseille","lat":43.29572,"lon":5.42275,"is_reserved":false,"is_disabled":false,"rental_uris":{"android":"levelo://app?vid=412c961b-9eee-480e-9da4-be4fd2e54380","ios":"levelo://app?vid=412c961b-9eee-480e-9da4-be4fd2e54380"},"vehicle_type_id":"4","last_reported":1736348943,"current_range_meters":38800,"station_id":"ce4bhph2rcd13ifvqhdg","pricing_plan_id":"cebpf4jnsgd1na2vs0mg"},{"bike_id":"a7412a45-2296-4222-ba77-3e131a32fddd","system_id":"levelo_inurba_marseille","lat":43.28629,"lon":5.35104,"is_reserved":false,"is_disabled":false,"rental_uris":{"android":"levelo://app?vid=a7412a45-2296-4222-ba77-3e131a32fddd","ios":"levelo://app?vid=a7412a45-2296-4222-ba77-3e131a32fddd"},"vehicle_type_id":"4","last_reported":1736348943,"current_range_meters":38800,"station_id":"ce4bhch2rcd13ifvqeug","pricing_plan_id":"cebpf4jnsgd1na2vs0mg"},{"bike_id":"68bcb3bd-c66e-4fed-a80c-23b7b3bcf1a6","system_id":"levelo_inurba_marseille","lat":43.24165,"lon":5.36408,"is_reserved":false,"is_disabled":false,"rental_uris":{"android":"levelo://app?vid=68bcb3bd-c66e-4fed-a80c-23b7b3bcf1a6","ios":"levelo://app?vid=68bcb3bd-c66e-4fed-a80c-23b7b3bcf1a6"},"vehicle_type_id":"4","last_reported":1736348943,"current_range_meters":24000,"station_id":"cpo36qri1sfpv3e86is0","pricing_plan_id":"cebpf4jnsgd1na2vs0mg"},{"bike_id":"4795cc5a-7058-456b-bbbb-cdaf0bc9586c","system_id":"levelo_inurba_marseille","lat":43.29975,"lon":5.38481,"is_reserved":false,"is_disabled":true,"rental_uris":{"android":"levelo://app?vid=4795cc5a-7058-456b-bbbb-cdaf0bc9586c","ios":"levelo://app?vid=4795cc5a-7058-456b-bbbb-cdaf0bc9586c"},"vehicle_type_id":"4","last_reported":1736348943,"current_range_meters":33200,"station_id":"ce4bgj92rcd13ifvqbd0","pricing_plan_id":"cebpf4jnsgd1na2vs0mg"},{"bike_id":"12fce0f5-dc0b-4c26-a8a1-187b76edc045","system_id":"levelo_inurba_marseille","lat":43.30795,"lon":5.43525,"is_reserved":false,"is_disabled":false,"rental_uris":{"android":"levelo://app?vid=12fce0f5-dc0b-4c26-a8a1-187b76edc045","ios":"levelo://app?vid=12fce0f5-dc0b-4c26-a8a1-187b76edc045"},"vehicle_type_id":"4","last_reported":1736348943,"current_range_meters":10800,"station_id":"ce4bhph2rcd13ifvqheg","pricing_plan_id":"cebpf4jnsgd1na2vs0mg"},{"bike_id":"2ce58ce3-5833-48b2-8f5c-c93d4b0a2ebb","system_id":"levelo_inurba_marseille","lat":43.2842,"lon":5.34986,"is_reserved":false,"is_disabled":false,"rental_uris":{"android":"levelo://app?vid=2ce58ce3-5833-48b2-8f5c-c93d4b0a2ebb","ios":"levelo://app?vid=2ce58ce3-5833-48b2-8f5c-c93d4b0a2ebb"},"vehicle_type_id":"4","last_reported":1736348943,"current_range_meters":28400,"station_id":"ce4bhbh2rcd13ifvqepg","pricing_plan_id":"cebpf4jnsgd1na2vs0mg"},{"bike_id":"04c5f3d9-d069-49ba-9779-3dfe963da0d4","system_id":"levelo_inurba_marseille","lat":43.23192,"lon":5.39961,"is_reserved":false,"is_disabled":false,"rental_uris":{"android":"levelo://app?vid=04c5f3d9-d069-49ba-9779-3dfe963da0d4","ios":"levelo://app?vid=04c5f3d9-d069-49ba-9779-3dfe963da0d4"},"vehicle_type_id":"4","last_reported":1736348943,"current_range_meters":25200,"station_id":"ce4bhn12rcd13ifvqgqg","pricing_plan_id":"cebpf4jnsgd1na2vs0mg"},{"bike_id":"2825a119-5b5a-4630-b83a-5a86bf58ccad","system_id":"levelo_inurba_marseille","lat":43.31297,"lon":5.37378,"is_reserved":false,"is_disabled":false,"rental_uris":{"android":"levelo://app?vid=2825a119-5b5a-4630-b83a-5a86bf58ccad","ios":"levelo://app?vid=2825a119-5b5a-4630-b83a-5a86bf58ccad"},"vehicle_type_id":"4","last_reported":1736348943,"current_range_meters":9200,"station_id":"","pricing_plan_id":"cebpf4jnsgd1na2vs0mg"},{"bike_id":"ba8ba352-d516-4458-9df7-d48624981837","system_id":"levelo_inurba_marseille","lat":43.3107,"lon":5.38362,"is_reserved":false,"is_disabled":false,"rental_uris":{"android":"levelo://app?vid=ba8ba352-d516-4458-9df7-d48624981837","ios":"levelo://app?vid=ba8ba352-d516-4458-9df7-d48624981837"},"vehicle_type_id":"4","last_reported":1736348943,"current_range_meters":10000,"station_id":"ce4bgv92rcd13ifvqcr0","pricing_plan_id":"cebpf4jnsgd1na2vs0mg"},{"bike_id":"985d816b-bae4-460d-9a86-af74d07d3a03","system_id":"levelo_inurba_marseille","lat":43.2961,"lon":5.37731,"is_reserved":false,"is_disabled":false,"rental_uris":{"android":"levelo://app?vid=985d816b-bae4-460d-9a86-af74d07d3a03","ios":"levelo://app?vid=985d816b-bae4-460d-9a86-af74d07d3a03"},"vehicle_type_id":"4","last_reported":1736348943,"current_range_meters":38800,"station_id":"ce4bgi92rcd13ifvqb90","pricing_plan_id":"cebpf4jnsgd1na2vs0mg"},{"bike_id":"8be74d5f-969e-451c-9cb5-433d5bd67396","system_id":"levelo_inurba_marseille","lat":43.28573,"lon":5.39497,"is_reserved":false,"is_disabled":false,"rental_uris":{"android":"levelo://app?vid=8be74d5f-969e-451c-9cb5-433d5bd67396","ios":"levelo://app?vid=8be74d5f-969e-451c-9cb5-433d5bd67396"},"vehicle_type_id":"4","last_reported":1736348943,"current_range_meters":38000,"station_id":"ce4bh292rcd13ifvqdg0","pricing_plan_id":"cebpf4jnsgd1na2vs0mg"},{"bike_id":"b93a5933-2b30-4af6-9d4c-741b325e4d7a","system_id":"levelo_inurba_marseille","lat":43.30182,"lon":5.36607,"is_reserved":false,"is_disabled":false,"rental_uris":{"android":"levelo://app?vid=b93a5933-2b30-4af6-9d4c-741b325e4d7a","ios":"levelo://app?vid=b93a5933-2b30-4af6-9d4c-741b325e4d7a"},"vehicle_type_id":"4","last_reported":1736348943,"current_range_meters":38800,"station_id":"ce4bgrh2rcd13ifvqc8g","pricing_plan_id":"cebpf4jnsgd1na2vs0mg"},{"bike_id":"fb82947e-c4a1-4fe2-99e9-cd358b3581a4","system_id":"levelo_inurba_marseille","lat":43.28973,"lon":5.37815,"is_reserved":false,"is_disabled":false,"rental_uris":{"android":"levelo://app?vid=fb82947e-c4a1-4fe2-99e9-cd358b3581a4","ios":"levelo://app?vid=fb82947e-c4a1-4fe2-99e9-cd358b3581a4"},"vehicle_type_id":"4","last_reported":1736348943,"current_range_meters":17600,"station_id":"ce4bh9p2rcd13ifvqed0","pricing_plan_id":"cebpf4jnsgd1na2vs0mg"},{"bike_id":"f5b2de69-ea07-4b33-a436-49a7f21ea0f9","system_id":"levelo_inurba_marseille","lat":43.29621,"lon":5.36704,"is_reserved":false,"is_disabled":false,"rental_uris":{"android":"levelo://app?vid=f5b2de69-ea07-4b33-a436-49a7f21ea0f9","ios":"levelo://app?vid=f5b2de69-ea07-4b33-a436-49a7f21ea0f9"},"vehicle_type_id":"4","last_reported":1736348943,"current_range_meters":38800,"station_id":"ce4bgph2rcd13ifvqc2g","pricing_plan_id":"cebpf4jnsgd1na2vs0mg"},{"bike_id":"7a0a8a69-615c-43f3-a001-073b74f4a57b","system_id":"levelo_inurba_marseille","lat":43.25595,"lon":5.38249,"is_reserved":false,"is_disabled":false,"rental_uris":{"android":"levelo://app?vid=7a0a8a69-615c-43f3-a001-073b74f4a57b","ios":"levelo://app?vid=7a0a8a69-615c-43f3-a001-073b74f4a57b"},"vehicle_type_id":"4","last_reported":1736348943,"current_range_meters":35200,"station_id":"ce4bhih2rcd13ifvqfs0","pricing_plan_id":"cebpf4jnsgd1na2vs0mg"},{"bike_id":"16c041a2-2249-42ba-83f9-aa1e63bb87f4","system_id":"levelo_inurba_marseille","lat":43.28282,"lon":5.35055,"is_reserved":false,"is_disabled":false,"rental_uris":{"android":"levelo://app?vid=16c041a2-2249-42ba-83f9-aa1e63bb87f4","ios":"levelo://app?vid=16c041a2-2249-42ba-83f9-aa1e63bb87f4"},"vehicle_type_id":"4","last_reported":1736348943,"current_range_meters":32000,"station_id":"ce4bhbp2rcd13ifvqerg","pricing_plan_id":"cebpf4jnsgd1na2vs0mg"},{"bike_id":"d03baa4e-a1ff-4dbb-aa3a-8f7610789178","system_id":"levelo_inurba_marseille","lat":43.33741,"lon":5.39184,"is_reserved":false,"is_disabled":false,"rental_uris":{"android":"levelo://app?vid=d03baa4e-a1ff-4dbb-aa3a-8f7610789178","ios":"levelo://app?vid=d03baa4e-a1ff-4dbb-aa3a-8f7610789178"},"vehicle_type_id":"4","last_reported":1736348943,"current_range_meters":38800,"station_id":"ce4bhr92rcd13ifvqhsg","pricing_plan_id":"cebpf4jnsgd1na2vs0mg"},{"bike_id":"5cbc2cb3-489b-4757-bef9-84c199a03c26","system_id":"levelo_inurba_marseille","lat":43.23974,"lon":5.36622,"is_reserved":false,"is_disabled":false,"rental_uris":{"android":"levelo://app?vid=5cbc2cb3-489b-4757-bef9-84c199a03c26","ios":"levelo://app?vid=5cbc2cb3-489b-4757-bef9-84c199a03c26"},"vehicle_type_id":"4","last_reported":1736348943,"current_range_meters":8400,"station_id":"ce4bhi12rcd13ifvqfp0","pricing_plan_id":"cebpf4jnsgd1na2vs0mg"},{"bike_id":"bec44870-59c7-42c4-84e0-176ee46453be","system_id":"levelo_inurba_marseille","lat":43.26223,"lon":5.37924,"is_reserved":false,"is_disabled":false,"rental_uris":{"android":"levelo://app?vid=bec44870-59c7-42c4-84e0-176ee46453be","ios":"levelo://app?vid=bec44870-59c7-42c4-84e0-176ee46453be"},"vehicle_type_id":"4","last_reported":1736348943,"current_range_meters":8400,"station_id":"ce4bhjp2rcd13ifvqg90","pricing_plan_id":"cebpf4jnsgd1na2vs0mg"},{"bike_id":"916f737a-5043-4dae-983a-a3168258cdd5","system_id":"levelo_inurba_marseille","lat":43.29205,"lon":5.39323,"is_reserved":false,"is_disabled":false,"rental_uris":{"android":"levelo://app?vid=916f737a-5043-4dae-983a-a3168258cdd5","ios":"levelo://app?vid=916f737a-5043-4dae-983a-a3168258cdd5"},"vehicle_type_id":"4","last_reported":1736348943,"current_range_meters":38400,"station_id":"ce4bh192rcd13ifvqdd0","pricing_plan_id":"cebpf4jnsgd1na2vs0mg"},{"bike_id":"c8620edc-4b1a-4a54-992f-df9b92a06d3c","system_id":"levelo_inurba_marseille","lat":43.2905,"lon":5.35907,"is_reserved":false,"is_disabled":false,"rental_uris":{"android":"levelo://app?vid=c8620edc-4b1a-4a54-992f-df9b92a06d3c","ios":"levelo://app?vid=c8620edc-4b1a-4a54-992f-df9b92a06d3c"},"vehicle_type_id":"4","last_reported":1736348943,"current_range_meters":32400,"station_id":"ce4bha92rcd13ifvqeg0","pricing_plan_id":"cebpf4jnsgd1na2vs0mg"},{"bike_id":"5aff22fc-7da0-4fa1-950a-d0c864951366","system_id":"levelo_inurba_marseille","lat":43.2455,"lon":5.39535,"is_reserved":false,"is_disabled":false,"rental_uris":{"android":"levelo://app?vid=5aff22fc-7da0-4fa1-950a-d0c864951366","ios":"levelo://app?vid=5aff22fc-7da0-4fa1-950a-d0c864951366"},"vehicle_type_id":"4","last_reported":1736348943,"current_range_meters":20400,"station_id":"ce4bhlp2rcd13ifvqgjg","pricing_plan_id":"cebpf4jnsgd1na2vs0mg"},{"bike_id":"b753435e-f6bb-4c1f-9e42-1ce67c2a1696","system_id":"levelo_inurba_marseille","lat":43.27485,"lon":5.42421,"is_reserved":false,"is_disabled":true,"rental_uris":{"android":"levelo://app?vid=b753435e-f6bb-4c1f-9e42-1ce67c2a1696","ios":"levelo://app?vid=b753435e-f6bb-4c1f-9e42-1ce67c2a1696"},"vehicle_type_id":"4","last_reported":1736348943,"current_range_meters":400,"station_id":"ce4bhn92rcd13ifvqgrg","pricing_plan_id":"cebpf4jnsgd1na2vs0mg"},{"bike_id":"ed636160-0c7f-4e64-ac1c-553690cc6e7f","system_id":"levelo_inurba_marseille","lat":43.2798,"lon":5.38711,"is_reserved":false,"is_disabled":false,"rental_uris":{"android":"levelo://app?vid=ed636160-0c7f-4e64-ac1c-553690cc6e7f","ios":"levelo://app?vid=ed636160-0c7f-4e64-ac1c-553690cc6e7f"},"vehicle_type_id":"4","last_reported":1736348943,"current_range_meters":36800,"station_id":"ce4bhg12rcd13ifvqf80","pricing_plan_id":"cebpf4jnsgd1na2vs0mg"},{"bike_id":"bdaa3bef-66a9-4394-a00b-5b407d24db81","system_id":"levelo_inurba_marseille","lat":43.23195,"lon":5.35548,"is_reserved":false,"is_disabled":false,"rental_uris":{"android":"levelo://app?vid=bdaa3bef-66a9-4394-a00b-5b407d24db81","ios":"levelo://app?vid=bdaa3bef-66a9-4394-a00b-5b407d24db81"},"vehicle_type_id":"4","last_reported":1736348943,"current_range_meters":13600,"station_id":"ce4bhu92rcd13ifvqi70","pricing_plan_id":"cebpf4jnsgd1na2vs0mg"},{"bike_id":"7b71d2b1-0f5f-48b8-a921-ed516ad36cfa","system_id":"levelo_inurba_marseille","lat":43.2317,"lon":5.43695,"is_reserved":false,"is_disabled":false,"rental_uris":{"android":"levelo://app?vid=7b71d2b1-0f5f-48b8-a921-ed516ad36cfa","ios":"levelo://app?vid=7b71d2b1-0f5f-48b8-a921-ed516ad36cfa"},"vehicle_type_id":"4","last_reported":1736348943,"current_range_meters":18800,"station_id":"ce4bhmp2rcd13ifvqgog","pricing_plan_id":"cebpf4jnsgd1na2vs0mg"},{"bike_id":"3a1318d6-e0ec-4965-b6af-61d4c63f5f7d","system_id":"levelo_inurba_marseille","lat":43.26216,"lon":5.37922,"is_reserved":false,"is_disabled":false,"rental_uris":{"android":"levelo://app?vid=3a1318d6-e0ec-4965-b6af-61d4c63f5f7d","ios":"levelo://app?vid=3a1318d6-e0ec-4965-b6af-61d4c63f5f7d"},"vehicle_type_id":"4","last_reported":1736348943,"current_range_meters":36800,"station_id":"ce4bhjp2rcd13ifvqg90","pricing_plan_id":"cebpf4jnsgd1na2vs0mg"},{"bike_id":"8bd94cbf-b151-4b99-b95c-6f5b6975b5f8","system_id":"levelo_inurba_marseille","lat":43.25496,"lon":5.3765,"is_reserved":false,"is_disabled":false,"rental_uris":{"android":"levelo://app?vid=8bd94cbf-b151-4b99-b95c-6f5b6975b5f8","ios":"levelo://app?vid=8bd94cbf-b151-4b99-b95c-6f5b6975b5f8"},"vehicle_type_id":"4","last_reported":1736348943,"current_range_meters":20800,"station_id":"ce4bhh12rcd13ifvqff0","pricing_plan_id":"cebpf4jnsgd1na2vs0mg"},{"bike_id":"84b61e13-ab1d-4e5a-b607-c00b774a68d9","system_id":"levelo_inurba_marseille","lat":43.29222,"lon":5.36073,"is_reserved":false,"is_disabled":false,"rental_uris":{"android":"levelo://app?vid=84b61e13-ab1d-4e5a-b607-c00b774a68d9","ios":"levelo://app?vid=84b61e13-ab1d-4e5a-b607-c00b774a68d9"},"vehicle_type_id":"4","last_reported":1736348943,"current_range_meters":18800,"station_id":"ce4bhbh2rcd13ifvqeqg","pricing_plan_id":"cebpf4jnsgd1na2vs0mg"},{"bike_id":"61f80575-9f0e-4647-b8bb-2460d9473614","system_id":"levelo_inurba_marseille","lat":43.27575,"lon":5.38442,"is_reserved":false,"is_disabled":true,"rental_uris":{"android":"levelo://app?vid=61f80575-9f0e-4647-b8bb-2460d9473614","ios":"levelo://app?vid=61f80575-9f0e-4647-b8bb-2460d9473614"},"vehicle_type_id":"4","last_reported":1736348943,"current_range_meters":0,"station_id":"ce4bhh92rcd13ifvqfi0","pricing_plan_id":"cebpf4jnsgd1na2vs0mg"},{"bike_id":"f8e45345-edbd-485f-9b46-4acb9bcdae1f","system_id":"levelo_inurba_marseille","lat":43.25587,"lon":5.38259,"is_reserved":false,"is_disabled":false,"rental_uris":{"android":"levelo://app?vid=f8e45345-edbd-485f-9b46-4acb9bcdae1f","ios":"levelo://app?vid=f8e45345-edbd-485f-9b46-4acb9bcdae1f"},"vehicle_type_id":"4","last_reported":1736348943,"current_range_meters":24000,"station_id":"ce4bhih2rcd13ifvqfs0","pricing_plan_id":"cebpf4jnsgd1na2vs0mg"},{"bike_id":"7618ced7-b343-464e-817b-57b857eb31e9","system_id":"levelo_inurba_marseille","lat":43.28627,"lon":5.35092,"is_reserved":false,"is_disabled":false,"rental_uris":{"android":"levelo://app?vid=7618ced7-b343-464e-817b-57b857eb31e9","ios":"levelo://app?vid=7618ced7-b343-464e-817b-57b857eb31e9"},"vehicle_type_id":"4","last_reported":1736348943,"current_range_meters":24400,"station_id":"ce4bhch2rcd13ifvqeug","pricing_plan_id":"cebpf4jnsgd1na2vs0mg"},{"bike_id":"877d4fc0-cb89-47e7-a8a9-578048ccb8f3","system_id":"levelo_inurba_marseille","lat":43.26793,"lon":5.39413,"is_reserved":false,"is_disabled":false,"rental_uris":{"android":"levelo://app?vid=877d4fc0-cb89-47e7-a8a9-578048ccb8f3","ios":"levelo://app?vid=877d4fc0-cb89-47e7-a8a9-578048ccb8f3"},"vehicle_type_id":"4","last_reported":1736348943,"current_range_meters":22400,"station_id":"ce4bhh12rcd13ifvqfg0","pricing_plan_id":"cebpf4jnsgd1na2vs0mg"},{"bike_id":"37d8e1ef-d932-49d7-b893-49542cf44d13","system_id":"levelo_inurba_marseille","lat":43.32345,"lon":5.40629,"is_reserved":false,"is_disabled":true,"rental_uris":{"android":"levelo://app?vid=37d8e1ef-d932-49d7-b893-49542cf44d13","ios":"levelo://app?vid=37d8e1ef-d932-49d7-b893-49542cf44d13"},"vehicle_type_id":"4","last_reported":1736348943,"current_range_meters":0,"station_id":"ce4bhq92rcd13ifvqhjg","pricing_plan_id":"cebpf4jnsgd1na2vs0mg"},{"bike_id":"32a4fb87-34f7-41cc-a1bf-df05e6828b58","system_id":"levelo_inurba_marseille","lat":43.31354,"lon":5.39757,"is_reserved":false,"is_disabled":false,"rental_uris":{"android":"levelo://app?vid=32a4fb87-34f7-41cc-a1bf-df05e6828b58","ios":"levelo://app?vid=32a4fb87-34f7-41cc-a1bf-df05e6828b58"},"vehicle_type_id":"4","last_reported":1736348943,"current_range_meters":9200,"station_id":"","pricing_plan_id":"cebpf4jnsgd1na2vs0mg"},{"bike_id":"cbb8af73-88b7-4bca-850d-df336251502e","system_id":"levelo_inurba_marseille","lat":43.28634,"lon":5.35095,"is_reserved":false,"is_disabled":false,"rental_uris":{"android":"levelo://app?vid=cbb8af73-88b7-4bca-850d-df336251502e","ios":"levelo://app?vid=cbb8af73-88b7-4bca-850d-df336251502e"},"vehicle_type_id":"4","last_reported":1736348943,"current_range_meters":36800,"station_id":"ce4bhch2rcd13ifvqeug","pricing_plan_id":"cebpf4jnsgd1na2vs0mg"},{"bike_id":"665b6f15-ae32-484c-8a18-f3992221abd2","system_id":"levelo_inurba_marseille","lat":43.25834,"lon":5.39428,"is_reserved":false,"is_disabled":false,"rental_uris":{"android":"levelo://app?vid=665b6f15-ae32-484c-8a18-f3992221abd2","ios":"levelo://app?vid=665b6f15-ae32-484c-8a18-f3992221abd2"},"vehicle_type_id":"4","last_reported":1736348943,"current_range_meters":12400,"station_id":"ce4bhip2rcd13ifvqft0","pricing_plan_id":"cebpf4jnsgd1na2vs0mg"},{"bike_id":"63c817a8-7fe4-4bba-9c1c-70e578257f97","system_id":"levelo_inurba_marseille","lat":43.23968,"lon":5.36629,"is_reserved":false,"is_disabled":true,"rental_uris":{"android":"levelo://app?vid=63c817a8-7fe4-4bba-9c1c-70e578257f97","ios":"levelo://app?vid=63c817a8-7fe4-4bba-9c1c-70e578257f97"},"vehicle_type_id":"4","last_reported":1736348943,"current_range_meters":1200,"station_id":"ce4bhi12rcd13ifvqfp0","pricing_plan_id":"cebpf4jnsgd1na2vs0mg"},{"bike_id":"9b2f55e0-edd8-4d6c-b73b-00ee1872c633","system_id":"levelo_inurba_marseille","lat":43.33046,"lon":5.39036,"is_reserved":false,"is_disabled":false,"rental_uris":{"android":"levelo://app?vid=9b2f55e0-edd8-4d6c-b73b-00ee1872c633","ios":"levelo://app?vid=9b2f55e0-edd8-4d6c-b73b-00ee1872c633"},"vehicle_type_id":"4","last_reported":1736348943,"current_range_meters":12800,"station_id":"ce4bhr92rcd13ifvqhrg","pricing_plan_id":"cebpf4jnsgd1na2vs0mg"},{"bike_id":"91aae5cf-068f-4218-a6f9-db21593b4dfe","system_id":"levelo_inurba_marseille","lat":43.25965,"lon":5.40905,"is_reserved":false,"is_disabled":false,"rental_uris":{"android":"levelo://app?vid=91aae5cf-068f-4218-a6f9-db21593b4dfe","ios":"levelo://app?vid=91aae5cf-068f-4218-a6f9-db21593b4dfe"},"vehicle_type_id":"4","last_reported":1736348943,"current_range_meters":38800,"station_id":"ce4bhm92rcd13ifvqglg","pricing_plan_id":"cebpf4jnsgd1na2vs0mg"},{"bike_id":"9f328d76-6be6-47f4-9003-aaccfdeed092","system_id":"levelo_inurba_marseille","lat":43.30318,"lon":5.4044,"is_reserved":false,"is_disabled":false,"rental_uris":{"android":"levelo://app?vid=9f328d76-6be6-47f4-9003-aaccfdeed092","ios":"levelo://app?vid=9f328d76-6be6-47f4-9003-aaccfdeed092"},"vehicle_type_id":"4","last_reported":1736348943,"current_range_meters":38400,"station_id":"ce4bh012rcd13ifvqd10","pricing_plan_id":"cebpf4jnsgd1na2vs0mg"},{"bike_id":"ec070c9b-b204-4195-8da4-627432f984a9","system_id":"levelo_inurba_marseille","lat":43.262144,"lon":5.37444,"is_reserved":false,"is_disabled":false,"rental_uris":{"android":"levelo://app?vid=ec070c9b-b204-4195-8da4-627432f984a9","ios":"levelo://app?vid=ec070c9b-b204-4195-8da4-627432f984a9"},"vehicle_type_id":"4","last_reported":1736348943,"current_range_meters":34800,"station_id":"ce4bhgp2rcd13ifvqfc0","pricing_plan_id":"cebpf4jnsgd1na2vs0mg"},{"bike_id":"62f17cb9-2c66-4cff-81db-916d063de829","system_id":"levelo_inurba_marseille","lat":43.330053,"lon":5.390418,"is_reserved":false,"is_disabled":false,"rental_uris":{"android":"levelo://app?vid=62f17cb9-2c66-4cff-81db-916d063de829","ios":"levelo://app?vid=62f17cb9-2c66-4cff-81db-916d063de829"},"vehicle_type_id":"4","last_reported":1736348943,"current_range_meters":38800,"station_id":"ce4bhr92rcd13ifvqhrg","pricing_plan_id":"cebpf4jnsgd1na2vs0mg"},{"bike_id":"c6470ca7-0d06-42bc-af5a-e3ecae92fae2","system_id":"levelo_inurba_marseille","lat":43.279596,"lon":5.387036,"is_reserved":false,"is_disabled":true,"rental_uris":{"android":"levelo://app?vid=c6470ca7-0d06-42bc-af5a-e3ecae92fae2","ios":"levelo://app?vid=c6470ca7-0d06-42bc-af5a-e3ecae92fae2"},"vehicle_type_id":"4","last_reported":1736348943,"current_range_meters":800,"station_id":"ce4bhg12rcd13ifvqf80","pricing_plan_id":"cebpf4jnsgd1na2vs0mg"},{"bike_id":"f162e091-eaf8-40f8-b4ce-6d0b5a00bdb2","system_id":"levelo_inurba_marseille","lat":43.28027,"lon":5.36938,"is_reserved":false,"is_disabled":false,"rental_uris":{"android":"levelo://app?vid=f162e091-eaf8-40f8-b4ce-6d0b5a00bdb2","ios":"levelo://app?vid=f162e091-eaf8-40f8-b4ce-6d0b5a00bdb2"},"vehicle_type_id":"4","last_reported":1736348943,"current_range_meters":34800,"station_id":"ce4bha12rcd13ifvqef0","pricing_plan_id":"cebpf4jnsgd1na2vs0mg"},{"bike_id":"64e43754-579d-462e-a1e5-f17e1c068bca","system_id":"levelo_inurba_marseille","lat":43.28294,"lon":5.35071,"is_reserved":false,"is_disabled":false,"rental_uris":{"android":"levelo://app?vid=64e43754-579d-462e-a1e5-f17e1c068bca","ios":"levelo://app?vid=64e43754-579d-462e-a1e5-f17e1c068bca"},"vehicle_type_id":"4","last_reported":1736348943,"current_range_meters":19200,"station_id":"ce4bhbp2rcd13ifvqerg","pricing_plan_id":"cebpf4jnsgd1na2vs0mg"},{"bike_id":"db657076-5d98-41da-860a-11779a937773","system_id":"levelo_inurba_marseille","lat":43.268043,"lon":5.402692,"is_reserved":false,"is_disabled":false,"rental_uris":{"android":"levelo://app?vid=db657076-5d98-41da-860a-11779a937773","ios":"levelo://app?vid=db657076-5d98-41da-860a-11779a937773"},"vehicle_type_id":"4","last_reported":1736348943,"current_range_meters":26000,"station_id":"ce501612rcd8frsf0b60","pricing_plan_id":"cebpf4jnsgd1na2vs0mg"},{"bike_id":"1eeb7683-762a-469a-8708-1ea8b2e54405","system_id":"levelo_inurba_marseille","lat":43.30538,"lon":5.36556,"is_reserved":false,"is_disabled":false,"rental_uris":{"android":"levelo://app?vid=1eeb7683-762a-469a-8708-1ea8b2e54405","ios":"levelo://app?vid=1eeb7683-762a-469a-8708-1ea8b2e54405"},"vehicle_type_id":"4","last_reported":1736348943,"current_range_meters":32400,"station_id":"ce4bgs12rcd13ifvqcag","pricing_plan_id":"cebpf4jnsgd1na2vs0mg"},{"bike_id":"5907104a-fc5f-413a-905a-45a3e219ba01","system_id":"levelo_inurba_marseille","lat":43.29794,"lon":5.37101,"is_reserved":false,"is_disabled":false,"rental_uris":{"android":"levelo://app?vid=5907104a-fc5f-413a-905a-45a3e219ba01","ios":"levelo://app?vid=5907104a-fc5f-413a-905a-45a3e219ba01"},"vehicle_type_id":"4","last_reported":1736348943,"current_range_meters":11200,"station_id":"ce4bgop2rcd13ifvqc1g","pricing_plan_id":"cebpf4jnsgd1na2vs0mg"},{"bike_id":"60ce1b70-e47d-4caf-abee-52e7d5bfe299","system_id":"levelo_inurba_marseille","lat":43.24645,"lon":5.38885,"is_reserved":false,"is_disabled":false,"rental_uris":{"android":"levelo://app?vid=60ce1b70-e47d-4caf-abee-52e7d5bfe299","ios":"levelo://app?vid=60ce1b70-e47d-4caf-abee-52e7d5bfe299"},"vehicle_type_id":"4","last_reported":1736348943,"current_range_meters":38800,"station_id":"ce4bhg12rcd13ifvqf60","pricing_plan_id":"cebpf4jnsgd1na2vs0mg"},{"bike_id":"f966af55-c2d1-462a-ab2b-5f2c9a1a76cc","system_id":"levelo_inurba_marseille","lat":43.27908,"lon":5.38013,"is_reserved":false,"is_disabled":false,"rental_uris":{"android":"levelo://app?vid=f966af55-c2d1-462a-ab2b-5f2c9a1a76cc","ios":"levelo://app?vid=f966af55-c2d1-462a-ab2b-5f2c9a1a76cc"},"vehicle_type_id":"4","last_reported":1736348943,"current_range_meters":15200,"station_id":"ce4bhf92rcd13ifvqf50","pricing_plan_id":"cebpf4jnsgd1na2vs0mg"},{"bike_id":"85624395-3c04-4472-9522-b95ec246b287","system_id":"levelo_inurba_marseille","lat":43.28699,"lon":5.37389,"is_reserved":false,"is_disabled":false,"rental_uris":{"android":"levelo://app?vid=85624395-3c04-4472-9522-b95ec246b287","ios":"levelo://app?vid=85624395-3c04-4472-9522-b95ec246b287"},"vehicle_type_id":"4","last_reported":1736348943,"current_range_meters":800,"station_id":"ce4bh3p2rcd13ifvqdq0","pricing_plan_id":"cebpf4jnsgd1na2vs0mg"},{"bike_id":"cfadce18-c0e0-4839-933d-d43c57c9e158","system_id":"levelo_inurba_marseille","lat":43.30638,"lon":5.40097,"is_reserved":false,"is_disabled":false,"rental_uris":{"android":"levelo://app?vid=cfadce18-c0e0-4839-933d-d43c57c9e158","ios":"levelo://app?vid=cfadce18-c0e0-4839-933d-d43c57c9e158"},"vehicle_type_id":"4","last_reported":1736348943,"current_range_meters":9600,"station_id":"ce4bh112rcd13ifvqda0","pricing_plan_id":"cebpf4jnsgd1na2vs0mg"},{"bike_id":"805ac0db-3bf6-4fe5-bf7f-f6cda41e35f2","system_id":"levelo_inurba_marseille","lat":43.268,"lon":5.39437,"is_reserved":false,"is_disabled":false,"rental_uris":{"android":"levelo://app?vid=805ac0db-3bf6-4fe5-bf7f-f6cda41e35f2","ios":"levelo://app?vid=805ac0db-3bf6-4fe5-bf7f-f6cda41e35f2"},"vehicle_type_id":"4","last_reported":1736348943,"current_range_meters":38800,"station_id":"ce4bhh12rcd13ifvqfg0","pricing_plan_id":"cebpf4jnsgd1na2vs0mg"},{"bike_id":"6334e71e-10f4-40c4-8360-44ef7aa5daad","system_id":"levelo_inurba_marseille","lat":43.31465,"lon":5.37386,"is_reserved":false,"is_disabled":false,"rental_uris":{"android":"levelo://app?vid=6334e71e-10f4-40c4-8360-44ef7aa5daad","ios":"levelo://app?vid=6334e71e-10f4-40c4-8360-44ef7aa5daad"},"vehicle_type_id":"4","last_reported":1736348943,"current_range_meters":31200,"station_id":"","pricing_plan_id":"cebpf4jnsgd1na2vs0mg"},{"bike_id":"ba2a18e9-d2a5-4fc8-a4b6-3b6ef76241df","system_id":"levelo_inurba_marseille","lat":43.25582,"lon":5.38234,"is_reserved":false,"is_disabled":false,"rental_uris":{"android":"levelo://app?vid=ba2a18e9-d2a5-4fc8-a4b6-3b6ef76241df","ios":"levelo://app?vid=ba2a18e9-d2a5-4fc8-a4b6-3b6ef76241df"},"vehicle_type_id":"4","last_reported":1736348943,"current_range_meters":26800,"station_id":"ce4bhih2rcd13ifvqfs0","pricing_plan_id":"cebpf4jnsgd1na2vs0mg"},{"bike_id":"48ce03f6-f3a8-490e-8671-5ca1c760d650","system_id":"levelo_inurba_marseille","lat":43.28972,"lon":5.36627,"is_reserved":false,"is_disabled":true,"rental_uris":{"android":"levelo://app?vid=48ce03f6-f3a8-490e-8671-5ca1c760d650","ios":"levelo://app?vid=48ce03f6-f3a8-490e-8671-5ca1c760d650"},"vehicle_type_id":"4","last_reported":1736348943,"current_range_meters":38400,"station_id":"ce4bhap2rcd13ifvqek0","pricing_plan_id":"cebpf4jnsgd1na2vs0mg"},{"bike_id":"f1ac381a-1b3b-49da-b4e2-849dcac1f0a1","system_id":"levelo_inurba_marseille","lat":43.25718,"lon":5.41114,"is_reserved":false,"is_disabled":false,"rental_uris":{"android":"levelo://app?vid=f1ac381a-1b3b-49da-b4e2-849dcac1f0a1","ios":"levelo://app?vid=f1ac381a-1b3b-49da-b4e2-849dcac1f0a1"},"vehicle_type_id":"4","last_reported":1736348943,"current_range_meters":38400,"station_id":"ce4bhkp2rcd13ifvqgd0","pricing_plan_id":"cebpf4jnsgd1na2vs0mg"},{"bike_id":"de6104c5-55cf-44a7-899a-c4051f07b1b9","system_id":"levelo_inurba_marseille","lat":43.28848,"lon":5.35851,"is_reserved":false,"is_disabled":false,"rental_uris":{"android":"levelo://app?vid=de6104c5-55cf-44a7-899a-c4051f07b1b9","ios":"levelo://app?vid=de6104c5-55cf-44a7-899a-c4051f07b1b9"},"vehicle_type_id":"4","last_reported":1736348943,"current_range_meters":38000,"station_id":"ce4bhb12rcd13ifvqem0","pricing_plan_id":"cebpf4jnsgd1na2vs0mg"},{"bike_id":"ec139761-d570-47fe-8322-343df8d21414","system_id":"levelo_inurba_marseille","lat":43.26692,"lon":5.38262,"is_reserved":false,"is_disabled":false,"rental_uris":{"android":"levelo://app?vid=ec139761-d570-47fe-8322-343df8d21414","ios":"levelo://app?vid=ec139761-d570-47fe-8322-343df8d21414"},"vehicle_type_id":"4","last_reported":1736348943,"current_range_meters":38800,"station_id":"ce4bhg92rcd13ifvqf90","pricing_plan_id":"cebpf4jnsgd1na2vs0mg"},{"bike_id":"6c9daffc-e174-4a9a-8b3e-30a6cf4027c8","system_id":"levelo_inurba_marseille","lat":43.32105,"lon":5.367778,"is_reserved":false,"is_disabled":false,"rental_uris":{"android":"levelo://app?vid=6c9daffc-e174-4a9a-8b3e-30a6cf4027c8","ios":"levelo://app?vid=6c9daffc-e174-4a9a-8b3e-30a6cf4027c8"},"vehicle_type_id":"4","last_reported":1736348943,"current_range_meters":20400,"station_id":"ce4bhrh2rcd13ifvqhug","pricing_plan_id":"cebpf4jnsgd1na2vs0mg"},{"bike_id":"87610480-9ba3-4347-902f-c64a1e1fcb8e","system_id":"levelo_inurba_marseille","lat":43.27192,"lon":5.40983,"is_reserved":false,"is_disabled":false,"rental_uris":{"android":"levelo://app?vid=87610480-9ba3-4347-902f-c64a1e1fcb8e","ios":"levelo://app?vid=87610480-9ba3-4347-902f-c64a1e1fcb8e"},"vehicle_type_id":"4","last_reported":1736348943,"current_range_meters":6800,"station_id":"ce4bhl12rcd13ifvqgf0","pricing_plan_id":"cebpf4jnsgd1na2vs0mg"},{"bike_id":"9bc08367-0578-4066-804d-469c1c224792","system_id":"levelo_inurba_marseille","lat":43.3205,"lon":5.41508,"is_reserved":false,"is_disabled":false,"rental_uris":{"android":"levelo://app?vid=9bc08367-0578-4066-804d-469c1c224792","ios":"levelo://app?vid=9bc08367-0578-4066-804d-469c1c224792"},"vehicle_type_id":"4","last_reported":1736348943,"current_range_meters":23200,"station_id":"ce4bhq92rcd13ifvqhkg","pricing_plan_id":"cebpf4jnsgd1na2vs0mg"},{"bike_id":"49f71cfb-5f4f-4efd-8023-2c4eb676a391","system_id":"levelo_inurba_marseille","lat":43.24184,"lon":5.36391,"is_reserved":false,"is_disabled":false,"rental_uris":{"android":"levelo://app?vid=49f71cfb-5f4f-4efd-8023-2c4eb676a391","ios":"levelo://app?vid=49f71cfb-5f4f-4efd-8023-2c4eb676a391"},"vehicle_type_id":"4","last_reported":1736348943,"current_range_meters":37600,"station_id":"cpo36qri1sfpv3e86is0","pricing_plan_id":"cebpf4jnsgd1na2vs0mg"},{"bike_id":"a2c61229-d7c3-4f99-99e9-40860fc8966a","system_id":"levelo_inurba_marseille","lat":43.28137,"lon":5.40337,"is_reserved":false,"is_disabled":false,"rental_uris":{"android":"levelo://app?vid=a2c61229-d7c3-4f99-99e9-40860fc8966a","ios":"levelo://app?vid=a2c61229-d7c3-4f99-99e9-40860fc8966a"},"vehicle_type_id":"4","last_reported":1736348943,"current_range_meters":26000,"station_id":"ce4bhnh2rcd13ifvqgtg","pricing_plan_id":"cebpf4jnsgd1na2vs0mg"},{"bike_id":"f9ab61fc-15b7-4f61-ad4f-0454a98fe7e4","system_id":"levelo_inurba_marseille","lat":43.30417,"lon":5.39736,"is_reserved":false,"is_disabled":false,"rental_uris":{"android":"levelo://app?vid=f9ab61fc-15b7-4f61-ad4f-0454a98fe7e4","ios":"levelo://app?vid=f9ab61fc-15b7-4f61-ad4f-0454a98fe7e4"},"vehicle_type_id":"4","last_reported":1736348943,"current_range_meters":38800,"station_id":"ce4bh092rcd13ifvqd20","pricing_plan_id":"cebpf4jnsgd1na2vs0mg"},{"bike_id":"3786ed13-b3ab-430f-8688-db644655aec1","system_id":"levelo_inurba_marseille","lat":43.23199,"lon":5.40006,"is_reserved":false,"is_disabled":false,"rental_uris":{"android":"levelo://app?vid=3786ed13-b3ab-430f-8688-db644655aec1","ios":"levelo://app?vid=3786ed13-b3ab-430f-8688-db644655aec1"},"vehicle_type_id":"4","last_reported":1736348943,"current_range_meters":6800,"station_id":"ce4bhn12rcd13ifvqgqg","pricing_plan_id":"cebpf4jnsgd1na2vs0mg"},{"bike_id":"b3ef3328-c8b6-43ce-b697-b4b269c3fd2c","system_id":"levelo_inurba_marseille","lat":43.30208,"lon":5.39474,"is_reserved":false,"is_disabled":false,"rental_uris":{"android":"levelo://app?vid=b3ef3328-c8b6-43ce-b697-b4b269c3fd2c","ios":"levelo://app?vid=b3ef3328-c8b6-43ce-b697-b4b269c3fd2c"},"vehicle_type_id":"4","last_reported":1736348943,"current_range_meters":19600,"station_id":"ce4bh0p2rcd13ifvqd70","pricing_plan_id":"cebpf4jnsgd1na2vs0mg"},{"bike_id":"b1c05a28-e862-4024-a61b-ab8d551b8107","system_id":"levelo_inurba_marseille","lat":43.33031,"lon":5.39032,"is_reserved":false,"is_disabled":false,"rental_uris":{"android":"levelo://app?vid=b1c05a28-e862-4024-a61b-ab8d551b8107","ios":"levelo://app?vid=b1c05a28-e862-4024-a61b-ab8d551b8107"},"vehicle_type_id":"4","last_reported":1736348943,"current_range_meters":38000,"station_id":"ce4bhr92rcd13ifvqhrg","pricing_plan_id":"cebpf4jnsgd1na2vs0mg"},{"bike_id":"2875f589-d481-436a-bcd9-732200485325","system_id":"levelo_inurba_marseille","lat":43.27966,"lon":5.41043,"is_reserved":false,"is_disabled":false,"rental_uris":{"android":"levelo://app?vid=2875f589-d481-436a-bcd9-732200485325","ios":"levelo://app?vid=2875f589-d481-436a-bcd9-732200485325"},"vehicle_type_id":"4","last_reported":1736348943,"current_range_meters":5600,"station_id":"ce4bhnp2rcd13ifvqh0g","pricing_plan_id":"cebpf4jnsgd1na2vs0mg"},{"bike_id":"5ded65d4-9611-4173-8914-becef81af328","system_id":"levelo_inurba_marseille","lat":43.29048,"lon":5.359065,"is_reserved":false,"is_disabled":false,"rental_uris":{"android":"levelo://app?vid=5ded65d4-9611-4173-8914-becef81af328","ios":"levelo://app?vid=5ded65d4-9611-4173-8914-becef81af328"},"vehicle_type_id":"4","last_reported":1736348943,"current_range_meters":24800,"station_id":"ce4bha92rcd13ifvqeg0","pricing_plan_id":"cebpf4jnsgd1na2vs0mg"},{"bike_id":"30f12004-38e9-469d-a819-1c825686a374","system_id":"levelo_inurba_marseille","lat":43.27323,"lon":5.39085,"is_reserved":false,"is_disabled":false,"rental_uris":{"android":"levelo://app?vid=30f12004-38e9-469d-a819-1c825686a374","ios":"levelo://app?vid=30f12004-38e9-469d-a819-1c825686a374"},"vehicle_type_id":"4","last_reported":1736348943,"current_range_meters":9600,"station_id":"ce4bhgp2rcd13ifvqfe0","pricing_plan_id":"cebpf4jnsgd1na2vs0mg"},{"bike_id":"bc972982-3f4a-4485-bc1a-a2f6afbb3b39","system_id":"levelo_inurba_marseille","lat":43.28635,"lon":5.35083,"is_reserved":false,"is_disabled":false,"rental_uris":{"android":"levelo://app?vid=bc972982-3f4a-4485-bc1a-a2f6afbb3b39","ios":"levelo://app?vid=bc972982-3f4a-4485-bc1a-a2f6afbb3b39"},"vehicle_type_id":"4","last_reported":1736348943,"current_range_meters":38800,"station_id":"ce4bhch2rcd13ifvqeug","pricing_plan_id":"cebpf4jnsgd1na2vs0mg"},{"bike_id":"1e2223a2-c032-49e7-8dbf-982df86a0520","system_id":"levelo_inurba_marseille","lat":43.2294,"lon":5.35368,"is_reserved":false,"is_disabled":false,"rental_uris":{"android":"levelo://app?vid=1e2223a2-c032-49e7-8dbf-982df86a0520","ios":"levelo://app?vid=1e2223a2-c032-49e7-8dbf-982df86a0520"},"vehicle_type_id":"4","last_reported":1736348943,"current_range_meters":2800,"station_id":"cpo3532slgdg3j2ikp40","pricing_plan_id":"cebpf4jnsgd1na2vs0mg"},{"bike_id":"da2b7539-b6a7-411c-ad87-54bbd95c18e3","system_id":"levelo_inurba_marseille","lat":43.29851,"lon":5.36268,"is_reserved":false,"is_disabled":false,"rental_uris":{"android":"levelo://app?vid=da2b7539-b6a7-411c-ad87-54bbd95c18e3","ios":"levelo://app?vid=da2b7539-b6a7-411c-ad87-54bbd95c18e3"},"vehicle_type_id":"4","last_reported":1736348943,"current_range_meters":38800,"station_id":"ce4bgpp2rcd13ifvqc3g","pricing_plan_id":"cebpf4jnsgd1na2vs0mg"},{"bike_id":"7ac3d444-b1cd-44b8-9ff6-0b078ebd3993","system_id":"levelo_inurba_marseille","lat":43.25499,"lon":5.37649,"is_reserved":false,"is_disabled":false,"rental_uris":{"android":"levelo://app?vid=7ac3d444-b1cd-44b8-9ff6-0b078ebd3993","ios":"levelo://app?vid=7ac3d444-b1cd-44b8-9ff6-0b078ebd3993"},"vehicle_type_id":"4","last_reported":1736348943,"current_range_meters":24800,"station_id":"ce4bhh12rcd13ifvqff0","pricing_plan_id":"cebpf4jnsgd1na2vs0mg"},{"bike_id":"8938c717-7214-4127-a5d5-13fbcb9a21ba","system_id":"levelo_inurba_marseille","lat":43.30127,"lon":5.37367,"is_reserved":false,"is_disabled":false,"rental_uris":{"android":"levelo://app?vid=8938c717-7214-4127-a5d5-13fbcb9a21ba","ios":"levelo://app?vid=8938c717-7214-4127-a5d5-13fbcb9a21ba"},"vehicle_type_id":"4","last_reported":1736348943,"current_range_meters":36800,"station_id":"ce4bgs92rcd13ifvqcc0","pricing_plan_id":"cebpf4jnsgd1na2vs0mg"},{"bike_id":"be8a233f-ad85-41b2-af03-bfa1e3033438","system_id":"levelo_inurba_marseille","lat":43.23206,"lon":5.35553,"is_reserved":false,"is_disabled":false,"rental_uris":{"android":"levelo://app?vid=be8a233f-ad85-41b2-af03-bfa1e3033438","ios":"levelo://app?vid=be8a233f-ad85-41b2-af03-bfa1e3033438"},"vehicle_type_id":"4","last_reported":1736348943,"current_range_meters":32000,"station_id":"ce4bhu92rcd13ifvqi70","pricing_plan_id":"cebpf4jnsgd1na2vs0mg"},{"bike_id":"98ab625c-a622-4213-ba12-d88b9b4c3cc4","system_id":"levelo_inurba_marseille","lat":43.28848,"lon":5.35852,"is_reserved":false,"is_disabled":false,"rental_uris":{"android":"levelo://app?vid=98ab625c-a622-4213-ba12-d88b9b4c3cc4","ios":"levelo://app?vid=98ab625c-a622-4213-ba12-d88b9b4c3cc4"},"vehicle_type_id":"4","last_reported":1736348943,"current_range_meters":38800,"station_id":"ce4bhb12rcd13ifvqem0","pricing_plan_id":"cebpf4jnsgd1na2vs0mg"},{"bike_id":"65e45bc2-89fc-4f49-a256-2a9100c411cb","system_id":"levelo_inurba_marseille","lat":43.26777,"lon":5.39421,"is_reserved":false,"is_disabled":false,"rental_uris":{"android":"levelo://app?vid=65e45bc2-89fc-4f49-a256-2a9100c411cb","ios":"levelo://app?vid=65e45bc2-89fc-4f49-a256-2a9100c411cb"},"vehicle_type_id":"4","last_reported":1736348943,"current_range_meters":38800,"station_id":"ce4bhh12rcd13ifvqfg0","pricing_plan_id":"cebpf4jnsgd1na2vs0mg"},{"bike_id":"1bba0721-ebcc-49e8-987c-37a1d4c89bb0","system_id":"levelo_inurba_marseille","lat":43.29613,"lon":5.3772,"is_reserved":false,"is_disabled":false,"rental_uris":{"android":"levelo://app?vid=1bba0721-ebcc-49e8-987c-37a1d4c89bb0","ios":"levelo://app?vid=1bba0721-ebcc-49e8-987c-37a1d4c89bb0"},"vehicle_type_id":"4","last_reported":1736348943,"current_range_meters":35600,"station_id":"ce4bgi92rcd13ifvqb90","pricing_plan_id":"cebpf4jnsgd1na2vs0mg"},{"bike_id":"a0a46bf6-bf13-42cc-849a-400b69583eb5","system_id":"levelo_inurba_marseille","lat":43.29775,"lon":5.39333,"is_reserved":false,"is_disabled":false,"rental_uris":{"android":"levelo://app?vid=a0a46bf6-bf13-42cc-849a-400b69583eb5","ios":"levelo://app?vid=a0a46bf6-bf13-42cc-849a-400b69583eb5"},"vehicle_type_id":"4","last_reported":1736348943,"current_range_meters":35200,"station_id":"chh1huq6cuj3fo74tm60","pricing_plan_id":"cebpf4jnsgd1na2vs0mg"},{"bike_id":"0686a8cb-2b76-4424-87d1-4f58c91d61f2","system_id":"levelo_inurba_marseille","lat":43.25737,"lon":5.41101,"is_reserved":false,"is_disabled":false,"rental_uris":{"android":"levelo://app?vid=0686a8cb-2b76-4424-87d1-4f58c91d61f2","ios":"levelo://app?vid=0686a8cb-2b76-4424-87d1-4f58c91d61f2"},"vehicle_type_id":"4","last_reported":1736348943,"current_range_meters":38800,"station_id":"ce4bhkp2rcd13ifvqgd0","pricing_plan_id":"cebpf4jnsgd1na2vs0mg"},{"bike_id":"2d98c65c-8598-44a8-a69b-4b719bb0308b","system_id":"levelo_inurba_marseille","lat":43.28374,"lon":5.38648,"is_reserved":false,"is_disabled":false,"rental_uris":{"android":"levelo://app?vid=2d98c65c-8598-44a8-a69b-4b719bb0308b","ios":"levelo://app?vid=2d98c65c-8598-44a8-a69b-4b719bb0308b"},"vehicle_type_id":"4","last_reported":1736348943,"current_range_meters":28000,"station_id":"ce4bh492rcd13ifvqdvg","pricing_plan_id":"cebpf4jnsgd1na2vs0mg"},{"bike_id":"ad1dff91-2f95-4984-91ce-84be50678298","system_id":"levelo_inurba_marseille","lat":43.262145,"lon":5.379254,"is_reserved":false,"is_disabled":false,"rental_uris":{"android":"levelo://app?vid=ad1dff91-2f95-4984-91ce-84be50678298","ios":"levelo://app?vid=ad1dff91-2f95-4984-91ce-84be50678298"},"vehicle_type_id":"4","last_reported":1736348943,"current_range_meters":35600,"station_id":"ce4bhjp2rcd13ifvqg90","pricing_plan_id":"cebpf4jnsgd1na2vs0mg"},{"bike_id":"1f13abda-0c2f-485b-b7d9-de8f3b464a21","system_id":"levelo_inurba_marseille","lat":43.29611,"lon":5.37713,"is_reserved":false,"is_disabled":true,"rental_uris":{"android":"levelo://app?vid=1f13abda-0c2f-485b-b7d9-de8f3b464a21","ios":"levelo://app?vid=1f13abda-0c2f-485b-b7d9-de8f3b464a21"},"vehicle_type_id":"4","last_reported":1736348943,"current_range_meters":37600,"station_id":"ce4bgi92rcd13ifvqb90","pricing_plan_id":"cebpf4jnsgd1na2vs0mg"},{"bike_id":"c8c7ec8d-c9e8-446e-80dd-c15299e53145","system_id":"levelo_inurba_marseille","lat":43.31496,"lon":5.37309,"is_reserved":false,"is_disabled":false,"rental_uris":{"android":"levelo://app?vid=c8c7ec8d-c9e8-446e-80dd-c15299e53145","ios":"levelo://app?vid=c8c7ec8d-c9e8-446e-80dd-c15299e53145"},"vehicle_type_id":"4","last_reported":1736348943,"current_range_meters":27200,"station_id":"ce4bgt12rcd13ifvqcd0","pricing_plan_id":"cebpf4jnsgd1na2vs0mg"},{"bike_id":"ca5b73b8-bbae-4af5-a5a9-ad3889f9d436","system_id":"levelo_inurba_marseille","lat":43.27379,"lon":5.3627,"is_reserved":false,"is_disabled":false,"rental_uris":{"android":"levelo://app?vid=ca5b73b8-bbae-4af5-a5a9-ad3889f9d436","ios":"levelo://app?vid=ca5b73b8-bbae-4af5-a5a9-ad3889f9d436"},"vehicle_type_id":"4","last_reported":1736348943,"current_range_meters":3200,"station_id":"ce4bhbh2rcd13ifvqeo0","pricing_plan_id":"cebpf4jnsgd1na2vs0mg"},{"bike_id":"ad28bd53-1c8c-44ea-9a1c-1e5a5b2498fe","system_id":"levelo_inurba_marseille","lat":43.24186,"lon":5.36397,"is_reserved":false,"is_disabled":false,"rental_uris":{"android":"levelo://app?vid=ad28bd53-1c8c-44ea-9a1c-1e5a5b2498fe","ios":"levelo://app?vid=ad28bd53-1c8c-44ea-9a1c-1e5a5b2498fe"},"vehicle_type_id":"4","last_reported":1736348943,"current_range_meters":19200,"station_id":"cpo36qri1sfpv3e86is0","pricing_plan_id":"cebpf4jnsgd1na2vs0mg"},{"bike_id":"247347ad-5bef-4bd7-b4b8-b4f9435b48aa","system_id":"levelo_inurba_marseille","lat":43.27065,"lon":5.40262,"is_reserved":false,"is_disabled":false,"rental_uris":{"android":"levelo://app?vid=247347ad-5bef-4bd7-b4b8-b4f9435b48aa","ios":"levelo://app?vid=247347ad-5bef-4bd7-b4b8-b4f9435b48aa"},"vehicle_type_id":"4","last_reported":1736348943,"current_range_meters":38800,"station_id":"ce4bhk92rcd13ifvqgc0","pricing_plan_id":"cebpf4jnsgd1na2vs0mg"},{"bike_id":"5d2999e4-a22f-42d1-a4bf-5642695f0a99","system_id":"levelo_inurba_marseille","lat":43.29038,"lon":5.35927,"is_reserved":false,"is_disabled":false,"rental_uris":{"android":"levelo://app?vid=5d2999e4-a22f-42d1-a4bf-5642695f0a99","ios":"levelo://app?vid=5d2999e4-a22f-42d1-a4bf-5642695f0a99"},"vehicle_type_id":"4","last_reported":1736348943,"current_range_meters":35600,"station_id":"ce4bha92rcd13ifvqeg0","pricing_plan_id":"cebpf4jnsgd1na2vs0mg"},{"bike_id":"cac63351-e0d5-45ef-aec5-8adc937bf9f0","system_id":"levelo_inurba_marseille","lat":43.31267,"lon":5.40165,"is_reserved":false,"is_disabled":false,"rental_uris":{"android":"levelo://app?vid=cac63351-e0d5-45ef-aec5-8adc937bf9f0","ios":"levelo://app?vid=cac63351-e0d5-45ef-aec5-8adc937bf9f0"},"vehicle_type_id":"4","last_reported":1736348943,"current_range_meters":10000,"station_id":"ce4bh092rcd13ifvqd30","pricing_plan_id":"cebpf4jnsgd1na2vs0mg"},{"bike_id":"c8ebe7df-006f-4929-bdb9-97e0f784e301","system_id":"levelo_inurba_marseille","lat":43.29616,"lon":5.36738,"is_reserved":false,"is_disabled":false,"rental_uris":{"android":"levelo://app?vid=c8ebe7df-006f-4929-bdb9-97e0f784e301","ios":"levelo://app?vid=c8ebe7df-006f-4929-bdb9-97e0f784e301"},"vehicle_type_id":"4","last_reported":1736348943,"current_range_meters":38800,"station_id":"ce4bgph2rcd13ifvqc2g","pricing_plan_id":"cebpf4jnsgd1na2vs0mg"},{"bike_id":"dd2ed07d-aacc-4042-92e9-f341e7758bb3","system_id":"levelo_inurba_marseille","lat":43.26656,"lon":5.38301,"is_reserved":false,"is_disabled":false,"rental_uris":{"android":"levelo://app?vid=dd2ed07d-aacc-4042-92e9-f341e7758bb3","ios":"levelo://app?vid=dd2ed07d-aacc-4042-92e9-f341e7758bb3"},"vehicle_type_id":"4","last_reported":1736348943,"current_range_meters":34000,"station_id":"ce4bhg92rcd13ifvqf90","pricing_plan_id":"cebpf4jnsgd1na2vs0mg"},{"bike_id":"259cf233-df96-4c1f-976b-8c0c69ce55d0","system_id":"levelo_inurba_marseille","lat":43.27432,"lon":5.39407,"is_reserved":false,"is_disabled":false,"rental_uris":{"android":"levelo://app?vid=259cf233-df96-4c1f-976b-8c0c69ce55d0","ios":"levelo://app?vid=259cf233-df96-4c1f-976b-8c0c69ce55d0"},"vehicle_type_id":"4","last_reported":1736348943,"current_range_meters":20000,"station_id":"ce4bhdp2rcd13ifvqf20","pricing_plan_id":"cebpf4jnsgd1na2vs0mg"},{"bike_id":"cecb496a-19a6-4ad5-b31b-eac3846b2c8c","system_id":"levelo_inurba_marseille","lat":43.29363,"lon":5.37869,"is_reserved":false,"is_disabled":true,"rental_uris":{"android":"levelo://app?vid=cecb496a-19a6-4ad5-b31b-eac3846b2c8c","ios":"levelo://app?vid=cecb496a-19a6-4ad5-b31b-eac3846b2c8c"},"vehicle_type_id":"4","last_reported":1736348943,"current_range_meters":2800,"station_id":"ce4bgjh2rcd13ifvqbf0","pricing_plan_id":"cebpf4jnsgd1na2vs0mg"},{"bike_id":"1eaabab8-2049-48b4-abbd-d6b2411bfb42","system_id":"levelo_inurba_marseille","lat":43.29544,"lon":5.37509,"is_reserved":false,"is_disabled":true,"rental_uris":{"android":"levelo://app?vid=1eaabab8-2049-48b4-abbd-d6b2411bfb42","ios":"levelo://app?vid=1eaabab8-2049-48b4-abbd-d6b2411bfb42"},"vehicle_type_id":"4","last_reported":1736348943,"current_range_meters":1600,"station_id":"ce4bgkp2rcd13ifvqbmg","pricing_plan_id":"cebpf4jnsgd1na2vs0mg"},{"bike_id":"40c99db8-0691-4a5a-8dac-d6d47162fbd8","system_id":"levelo_inurba_marseille","lat":43.29577,"lon":5.37517,"is_reserved":false,"is_disabled":false,"rental_uris":{"android":"levelo://app?vid=40c99db8-0691-4a5a-8dac-d6d47162fbd8","ios":"levelo://app?vid=40c99db8-0691-4a5a-8dac-d6d47162fbd8"},"vehicle_type_id":"4","last_reported":1736348943,"current_range_meters":30800,"station_id":"ce4bgh92rcd13ifvqb50","pricing_plan_id":"cebpf4jnsgd1na2vs0mg"},{"bike_id":"ad56edcb-a79d-427f-9176-cae8e33bc4bd","system_id":"levelo_inurba_marseille","lat":43.29618,"lon":5.37721,"is_reserved":false,"is_disabled":true,"rental_uris":{"android":"levelo://app?vid=ad56edcb-a79d-427f-9176-cae8e33bc4bd","ios":"levelo://app?vid=ad56edcb-a79d-427f-9176-cae8e33bc4bd"},"vehicle_type_id":"4","last_reported":1736348943,"current_range_meters":2000,"station_id":"ce4bgi92rcd13ifvqb90","pricing_plan_id":"cebpf4jnsgd1na2vs0mg"},{"bike_id":"4a8da2ba-676b-4202-95a6-d547f915e48e","system_id":"levelo_inurba_marseille","lat":43.32297,"lon":5.38276,"is_reserved":false,"is_disabled":false,"rental_uris":{"android":"levelo://app?vid=4a8da2ba-676b-4202-95a6-d547f915e48e","ios":"levelo://app?vid=4a8da2ba-676b-4202-95a6-d547f915e48e"},"vehicle_type_id":"4","last_reported":1736348943,"current_range_meters":38800,"station_id":"ce4bhr12rcd13ifvqhqg","pricing_plan_id":"cebpf4jnsgd1na2vs0mg"},{"bike_id":"0f29e152-52cf-41dc-aa0a-fd7f8b1a81cd","system_id":"levelo_inurba_marseille","lat":43.26554,"lon":5.37285,"is_reserved":false,"is_disabled":false,"rental_uris":{"android":"levelo://app?vid=0f29e152-52cf-41dc-aa0a-fd7f8b1a81cd","ios":"levelo://app?vid=0f29e152-52cf-41dc-aa0a-fd7f8b1a81cd"},"vehicle_type_id":"4","last_reported":1736348943,"current_range_meters":12000,"station_id":"ce4bhg12rcd13ifvqf70","pricing_plan_id":"cebpf4jnsgd1na2vs0mg"},{"bike_id":"e1c96e15-8c1f-44db-bd4b-d97fe47974bb","system_id":"levelo_inurba_marseille","lat":43.28623,"lon":5.351,"is_reserved":false,"is_disabled":false,"rental_uris":{"android":"levelo://app?vid=e1c96e15-8c1f-44db-bd4b-d97fe47974bb","ios":"levelo://app?vid=e1c96e15-8c1f-44db-bd4b-d97fe47974bb"},"vehicle_type_id":"4","last_reported":1736348943,"current_range_meters":38400,"station_id":"ce4bhch2rcd13ifvqeug","pricing_plan_id":"cebpf4jnsgd1na2vs0mg"},{"bike_id":"e3db41b2-f3fa-48c9-8f25-7fc5776d4cf7","system_id":"levelo_inurba_marseille","lat":43.27376,"lon":5.36256,"is_reserved":false,"is_disabled":false,"rental_uris":{"android":"levelo://app?vid=e3db41b2-f3fa-48c9-8f25-7fc5776d4cf7","ios":"levelo://app?vid=e3db41b2-f3fa-48c9-8f25-7fc5776d4cf7"},"vehicle_type_id":"4","last_reported":1736348943,"current_range_meters":34800,"station_id":"ce4bhbh2rcd13ifvqeo0","pricing_plan_id":"cebpf4jnsgd1na2vs0mg"},{"bike_id":"9645b020-c305-4bbe-b77e-bfd273044975","system_id":"levelo_inurba_marseille","lat":43.29083,"lon":5.3806,"is_reserved":false,"is_disabled":false,"rental_uris":{"android":"levelo://app?vid=9645b020-c305-4bbe-b77e-bfd273044975","ios":"levelo://app?vid=9645b020-c305-4bbe-b77e-bfd273044975"},"vehicle_type_id":"4","last_reported":1736348943,"current_range_meters":31200,"station_id":"ce4bh512rcd13ifvqe2g","pricing_plan_id":"cebpf4jnsgd1na2vs0mg"},{"bike_id":"ae57f230-ec9d-44b0-ad5b-3ee6d1ca4574","system_id":"levelo_inurba_marseille","lat":43.270662,"lon":5.40269,"is_reserved":false,"is_disabled":false,"rental_uris":{"android":"levelo://app?vid=ae57f230-ec9d-44b0-ad5b-3ee6d1ca4574","ios":"levelo://app?vid=ae57f230-ec9d-44b0-ad5b-3ee6d1ca4574"},"vehicle_type_id":"4","last_reported":1736348943,"current_range_meters":38400,"station_id":"ce4bhk92rcd13ifvqgc0","pricing_plan_id":"cebpf4jnsgd1na2vs0mg"},{"bike_id":"2752747f-48be-4547-bc3f-7f3d03ebcf13","system_id":"levelo_inurba_marseille","lat":43.29095,"lon":5.38142,"is_reserved":false,"is_disabled":true,"rental_uris":{"android":"levelo://app?vid=2752747f-48be-4547-bc3f-7f3d03ebcf13","ios":"levelo://app?vid=2752747f-48be-4547-bc3f-7f3d03ebcf13"},"vehicle_type_id":"4","last_reported":1736348943,"current_range_meters":1600,"station_id":"ce4bh512rcd13ifvqe2g","pricing_plan_id":"cebpf4jnsgd1na2vs0mg"},{"bike_id":"51319175-ee32-4a41-9e56-3d7d71a16d4b","system_id":"levelo_inurba_marseille","lat":43.27059,"lon":5.40262,"is_reserved":false,"is_disabled":false,"rental_uris":{"android":"levelo://app?vid=51319175-ee32-4a41-9e56-3d7d71a16d4b","ios":"levelo://app?vid=51319175-ee32-4a41-9e56-3d7d71a16d4b"},"vehicle_type_id":"4","last_reported":1736348943,"current_range_meters":16400,"station_id":"ce4bhk92rcd13ifvqgc0","pricing_plan_id":"cebpf4jnsgd1na2vs0mg"},{"bike_id":"7bc5649e-6bf9-44e0-81e0-4779df803f45","system_id":"levelo_inurba_marseille","lat":43.28151,"lon":5.42639,"is_reserved":false,"is_disabled":true,"rental_uris":{"android":"levelo://app?vid=7bc5649e-6bf9-44e0-81e0-4779df803f45","ios":"levelo://app?vid=7bc5649e-6bf9-44e0-81e0-4779df803f45"},"vehicle_type_id":"4","last_reported":1736348943,"current_range_meters":400,"station_id":"ce4bhnh2rcd13ifvqgug","pricing_plan_id":"cebpf4jnsgd1na2vs0mg"},{"bike_id":"f4bbe9aa-6525-43bc-8798-653f0a3feaaa","system_id":"levelo_inurba_marseille","lat":43.25091,"lon":5.39516,"is_reserved":false,"is_disabled":false,"rental_uris":{"android":"levelo://app?vid=f4bbe9aa-6525-43bc-8798-653f0a3feaaa","ios":"levelo://app?vid=f4bbe9aa-6525-43bc-8798-653f0a3feaaa"},"vehicle_type_id":"4","last_reported":1736348943,"current_range_meters":21600,"station_id":"ce4bhm12rcd13ifvqgkg","pricing_plan_id":"cebpf4jnsgd1na2vs0mg"},{"bike_id":"a74a7bb3-4105-413b-a160-114d121df1ad","system_id":"levelo_inurba_marseille","lat":43.29033,"lon":5.35927,"is_reserved":false,"is_disabled":false,"rental_uris":{"android":"levelo://app?vid=a74a7bb3-4105-413b-a160-114d121df1ad","ios":"levelo://app?vid=a74a7bb3-4105-413b-a160-114d121df1ad"},"vehicle_type_id":"4","last_reported":1736348943,"current_range_meters":38800,"station_id":"ce4bha92rcd13ifvqeg0","pricing_plan_id":"cebpf4jnsgd1na2vs0mg"},{"bike_id":"77140e92-43d3-4e9c-b1bf-1a7db1513194","system_id":"levelo_inurba_marseille","lat":43.27817,"lon":5.40723,"is_reserved":false,"is_disabled":false,"rental_uris":{"android":"levelo://app?vid=77140e92-43d3-4e9c-b1bf-1a7db1513194","ios":"levelo://app?vid=77140e92-43d3-4e9c-b1bf-1a7db1513194"},"vehicle_type_id":"4","last_reported":1736348943,"current_range_meters":39200,"station_id":"ce4bhnh2rcd13ifvqgtg","pricing_plan_id":"cebpf4jnsgd1na2vs0mg"},{"bike_id":"b573ac69-92ea-4f3a-a3c8-430b125d2d46","system_id":"levelo_inurba_marseille","lat":43.30428,"lon":5.39752,"is_reserved":false,"is_disabled":false,"rental_uris":{"android":"levelo://app?vid=b573ac69-92ea-4f3a-a3c8-430b125d2d46","ios":"levelo://app?vid=b573ac69-92ea-4f3a-a3c8-430b125d2d46"},"vehicle_type_id":"4","last_reported":1736348943,"current_range_meters":5600,"station_id":"ce4bh092rcd13ifvqd20","pricing_plan_id":"cebpf4jnsgd1na2vs0mg"},{"bike_id":"b310cfc1-4224-4f41-a20d-2ddccecda97e","system_id":"levelo_inurba_marseille","lat":43.26791,"lon":5.39421,"is_reserved":false,"is_disabled":false,"rental_uris":{"android":"levelo://app?vid=b310cfc1-4224-4f41-a20d-2ddccecda97e","ios":"levelo://app?vid=b310cfc1-4224-4f41-a20d-2ddccecda97e"},"vehicle_type_id":"4","last_reported":1736348943,"current_range_meters":29600,"station_id":"ce4bhh12rcd13ifvqfg0","pricing_plan_id":"cebpf4jnsgd1na2vs0mg"},{"bike_id":"0ce73ae1-b154-43da-a4ed-8140bf82ff61","system_id":"levelo_inurba_marseille","lat":43.28625,"lon":5.35094,"is_reserved":false,"is_disabled":true,"rental_uris":{"android":"levelo://app?vid=0ce73ae1-b154-43da-a4ed-8140bf82ff61","ios":"levelo://app?vid=0ce73ae1-b154-43da-a4ed-8140bf82ff61"},"vehicle_type_id":"4","last_reported":1736348943,"current_range_meters":0,"station_id":"ce4bhch2rcd13ifvqeug","pricing_plan_id":"cebpf4jnsgd1na2vs0mg"},{"bike_id":"e974da24-beaf-41c3-9687-4c50524775a2","system_id":"levelo_inurba_marseille","lat":43.30159,"lon":5.37402,"is_reserved":false,"is_disabled":false,"rental_uris":{"android":"levelo://app?vid=e974da24-beaf-41c3-9687-4c50524775a2","ios":"levelo://app?vid=e974da24-beaf-41c3-9687-4c50524775a2"},"vehicle_type_id":"4","last_reported":1736348943,"current_range_meters":34000,"station_id":"ce4bgs92rcd13ifvqcc0","pricing_plan_id":"cebpf4jnsgd1na2vs0mg"},{"bike_id":"fc16b4ca-3f6b-4afa-92ce-20d3d57aa176","system_id":"levelo_inurba_marseille","lat":43.24554,"lon":5.39524,"is_reserved":false,"is_disabled":false,"rental_uris":{"android":"levelo://app?vid=fc16b4ca-3f6b-4afa-92ce-20d3d57aa176","ios":"levelo://app?vid=fc16b4ca-3f6b-4afa-92ce-20d3d57aa176"},"vehicle_type_id":"4","last_reported":1736348943,"current_range_meters":36800,"station_id":"ce4bhlp2rcd13ifvqgjg","pricing_plan_id":"cebpf4jnsgd1na2vs0mg"},{"bike_id":"2087c673-8bc9-4b01-b827-0ee077a6c1a0","system_id":"levelo_inurba_marseille","lat":43.26192,"lon":5.37461,"is_reserved":false,"is_disabled":false,"rental_uris":{"android":"levelo://app?vid=2087c673-8bc9-4b01-b827-0ee077a6c1a0","ios":"levelo://app?vid=2087c673-8bc9-4b01-b827-0ee077a6c1a0"},"vehicle_type_id":"4","last_reported":1736348943,"current_range_meters":28800,"station_id":"ce4bhgp2rcd13ifvqfc0","pricing_plan_id":"cebpf4jnsgd1na2vs0mg"},{"bike_id":"8a3e6b18-2c2b-49ca-9f0a-506d1fa5a0a1","system_id":"levelo_inurba_marseille","lat":43.27548,"lon":5.38434,"is_reserved":false,"is_disabled":false,"rental_uris":{"android":"levelo://app?vid=8a3e6b18-2c2b-49ca-9f0a-506d1fa5a0a1","ios":"levelo://app?vid=8a3e6b18-2c2b-49ca-9f0a-506d1fa5a0a1"},"vehicle_type_id":"4","last_reported":1736348943,"current_range_meters":38800,"station_id":"ce4bhh92rcd13ifvqfi0","pricing_plan_id":"cebpf4jnsgd1na2vs0mg"},{"bike_id":"ec58d8f9-75f3-45d0-bc92-6cb11f14b218","system_id":"levelo_inurba_marseille","lat":43.30135,"lon":5.39863,"is_reserved":false,"is_disabled":false,"rental_uris":{"android":"levelo://app?vid=ec58d8f9-75f3-45d0-bc92-6cb11f14b218","ios":"levelo://app?vid=ec58d8f9-75f3-45d0-bc92-6cb11f14b218"},"vehicle_type_id":"4","last_reported":1736348943,"current_range_meters":3200,"station_id":"ce4bh0h2rcd13ifvqd40","pricing_plan_id":"cebpf4jnsgd1na2vs0mg"},{"bike_id":"c2a7d9e7-4327-4946-89c8-36c870c045a8","system_id":"levelo_inurba_marseille","lat":43.25935,"lon":5.40878,"is_reserved":false,"is_disabled":false,"rental_uris":{"android":"levelo://app?vid=c2a7d9e7-4327-4946-89c8-36c870c045a8","ios":"levelo://app?vid=c2a7d9e7-4327-4946-89c8-36c870c045a8"},"vehicle_type_id":"4","last_reported":1736348943,"current_range_meters":28800,"station_id":"ce4bhm92rcd13ifvqglg","pricing_plan_id":"cebpf4jnsgd1na2vs0mg"},{"bike_id":"a9ba80cd-9fe7-46ce-bc34-8514f1edf221","system_id":"levelo_inurba_marseille","lat":43.27374,"lon":5.36258,"is_reserved":false,"is_disabled":false,"rental_uris":{"android":"levelo://app?vid=a9ba80cd-9fe7-46ce-bc34-8514f1edf221","ios":"levelo://app?vid=a9ba80cd-9fe7-46ce-bc34-8514f1edf221"},"vehicle_type_id":"4","last_reported":1736348943,"current_range_meters":34000,"station_id":"ce4bhbh2rcd13ifvqeo0","pricing_plan_id":"cebpf4jnsgd1na2vs0mg"},{"bike_id":"27ba571f-aff3-40f7-97fc-f3ea357b3812","system_id":"levelo_inurba_marseille","lat":43.27962,"lon":5.38728,"is_reserved":false,"is_disabled":false,"rental_uris":{"android":"levelo://app?vid=27ba571f-aff3-40f7-97fc-f3ea357b3812","ios":"levelo://app?vid=27ba571f-aff3-40f7-97fc-f3ea357b3812"},"vehicle_type_id":"4","last_reported":1736348943,"current_range_meters":27200,"station_id":"ce4bhg12rcd13ifvqf80","pricing_plan_id":"cebpf4jnsgd1na2vs0mg"},