{"last_updated":1742278482,"ttl":60,"version":"2.2","data":{"bikes":[{"bike_id":"5e7401c2-c372-430f-8491-0557cf6a4ff2","system_id":"levelo_inurba_marseille","lat":43.24553,"lon":5.37376,"is_reserved":false,"is_disabled":true,"rental_uris":{"android":"levelo://app?vid=5e7401c2-c372-430f-8491-0557cf6a4ff2","ios":"levelo://app?vid=5e7401c2-c372-430f-8491-0557cf6a4ff2"},"vehicle_type_id":"4","last_reported":1742278482,"current_range_meters":2800,"station_id":"","pricing_plan_id":"cebpf4jnsgd1na2vs0mg"},{"bike_id":"e2d1967e-5a56-406d-b78f-650a67b35429","system_id":"levelo_inurba_marseille","lat":43.2508,"lon":5.39546,"is_reserved":false,"is_disabled":false,"rental_uris":{"android":"levelo://app?vid=e2d1967e-5a56-406d-b78f-650a67b35429","ios":"levelo://app?vid=e2d1967e-5a56-406d-b78f-650a67b35429"},"vehicle_type_id":"4","last_reported":1742278482,"current_range_meters":2800,"station_id":"ce4bhm12rcd13ifvqgkg","pricing_plan_id":"cebpf4jnsgd1na2vs0mg"},{"bike_id":"d87d01b0-53bb-405d-a34e-24df13294a43","system_id":"levelo_inurba_marseille","lat":43.29192,"lon":5.39325,"is_reserved":false,"is_disabled":true,"rental_uris":{"android":"levelo://app?vid=d87d01b0-53bb-405d-a34e-24df13294a43","ios":"levelo://app?vid=d87d01b0-53bb-405d-a34e-24df13294a43"},"vehicle_type_id":"4","last_reported":1742278482,"current_range_meters":2800,"station_id":"ce4bh192rcd13ifvqdd0","pricing_plan_id":"cebpf4jnsgd1na2vs0mg"},{"bike_id":"2db41d65-2c09-4782-9a2e-b558284c305a","system_id":"levelo_inurba_marseille","lat":43.23185,"lon":5.3999,"is_reserved":false,"is_disabled":false,"rental_uris":{"android":"levelo://app?vid=2db41d65-2c09-4782-9a2e-b558284c305a","ios":"levelo://app?vid=2db41d65-2c09-4782-9a2e-b558284c305a"},"vehicle_type_id":"4","last_reported":1742278482,"current_range_meters":2800,"station_id":"ce4bhn12rcd13ifvqgqg","pricing_plan_id":"cebpf4jnsgd1na2vs0mg"},{"bike_id":"2cad790d-8767-4dde-a366-83aeeac91662","system_id":"levelo_inurba_marseille","lat":43.241717,"lon":5.397397,"is_reserved":false,"is_disabled":false,"rental_uris":{"android":"levelo://app?vid=2cad790d-8767-4dde-a366-83aeeac91662","ios":"levelo://app?vid=2cad790d-8767-4dde-a366-83aeeac91662"},"vehicle_type_id":"4","last_reported":1742278482,"current_range_meters":2800,"station_id":"ce4bhn12rcd13ifvqgpg","pricing_plan_id":"cebpf4jnsgd1na2vs0mg"},{"bike_id":"a156d38d-c587-49b6-879d-43f4f5296b6d","system_id":"levelo_inurba_marseille","lat":43.26557,"lon":5.39045,"is_reserved":false,"is_disabled":true,"rental_uris":{"android":"levelo://app?vid=a156d38d-c587-49b6-879d-43f4f5296b6d","ios":"levelo://app?vid=a156d38d-c587-49b6-879d-43f4f5296b6d"},"vehicle_type_id":"4","last_reported":1742278482,"current_range_meters":2800,"station_id":"ce4bhe12rcd13ifvqf30","pricing_plan_id":"cebpf4jnsgd1na2vs0mg"},{"bike_id":"c8e597d7-7d19-411f-be09-6321bf57a961","system_id":"levelo_inurba_marseille","lat":43.3228,"lon":5.38276,"is_reserved":false,"is_disabled":false,"rental_uris":{"android":"levelo://app?vid=c8e597d7-7d19-411f-be09-6321bf57a961","ios":"levelo://app?vid=c8e597d7-7d19-411f-be09-6321bf57a961"},"vehicle_type_id":"4","last_reported":1742278482,"current_range_meters":3200,"station_id":"ce4bhr12rcd13ifvqhqg","pricing_plan_id":"cebpf4jnsgd1na2vs0mg"},{"bike_id":"b374db7d-445f-46c7-b0aa-abfa510f7c01","system_id":"levelo_inurba_marseille","lat":43.3046,"lon":5.3792,"is_reserved":false,"is_disabled":false,"rental_uris":{"android":"levelo://app?vid=b374db7d-445f-46c7-b0aa-abfa510f7c01","ios":"levelo://app?vid=b374db7d-445f-46c7-b0aa-abfa510f7c01"},"vehicle_type_id":"4","last_reported":1742278482,"current_range_meters":3200,"station_id":"ce4bgup2rcd13ifvqcn0","pricing_plan_id":"cebpf4jnsgd1na2vs0mg"},{"bike_id":"f31da457-6e9b-4ad6-be1d-5ffba7cbc733","system_id":"levelo_inurba_marseille","lat":43.24996,"lon":5.38944,"is_reserved":false,"is_disabled":false,"rental_uris":{"android":"levelo://app?vid=f31da457-6e9b-4ad6-be1d-5ffba7cbc733","ios":"levelo://app?vid=f31da457-6e9b-4ad6-be1d-5ffba7cbc733"},"vehicle_type_id":"4","last_reported":1742278482,"current_range_meters":3200,"station_id":"ce4bhgp2rcd13ifvqfd0","pricing_plan_id":"cebpf4jnsgd1na2vs0mg"},{"bike_id":"2f13aaa8-354c-49dc-9122-f68d60889d44","system_id":"levelo_inurba_marseille","lat":43.28442,"lon":5.39204,"is_reserved":false,"is_disabled":false,"rental_uris":{"android":"levelo://app?vid=2f13aaa8-354c-49dc-9122-f68d60889d44","ios":"levelo://app?vid=2f13aaa8-354c-49dc-9122-f68d60889d44"},"vehicle_type_id":"4","last_reported":1742278482,"current_range_meters":3600,"station_id":"ce4bhoh2rcd13ifvqh5g","pricing_plan_id":"cebpf4jnsgd1na2vs0mg"},{"bike_id":"427f8971-810b-41c5-adaa-7bb62f1efb21","system_id":"levelo_inurba_marseille","lat":43.24642,"lon":5.388993,"is_reserved":false,"is_disabled":false,"rental_uris":{"android":"levelo://app?vid=427f8971-810b-41c5-adaa-7bb62f1efb21","ios":"levelo://app?vid=427f8971-810b-41c5-adaa-7bb62f1efb21"},"vehicle_type_id":"4","last_reported":1742278482,"current_range_meters":3600,"station_id":"ce4bhg12rcd13ifvqf60","pricing_plan_id":"cebpf4jnsgd1na2vs0mg"},{"bike_id":"91e040b4-0cf8-4c64-a2aa-af057050cf8e","system_id":"levelo_inurba_marseille","lat":43.30148,"lon":5.381,"is_reserved":false,"is_disabled":false,"rental_uris":{"android":"levelo://app?vid=91e040b4-0cf8-4c64-a2aa-af057050cf8e","ios":"levelo://app?vid=91e040b4-0cf8-4c64-a2aa-af057050cf8e"},"vehicle_type_id":"4","last_reported":1742278482,"current_range_meters":4000,"station_id":"ce4bgjp2rcd13ifvqbh0","pricing_plan_id":"cebpf4jnsgd1na2vs0mg"},{"bike_id":"14cd229a-e82f-4d5d-bc54-5bd7b491925a","system_id":"levelo_inurba_marseille","lat":43.23185,"lon":5.39979,"is_reserved":false,"is_disabled":false,"rental_uris":{"android":"levelo://app?vid=14cd229a-e82f-4d5d-bc54-5bd7b491925a","ios":"levelo://app?vid=14cd229a-e82f-4d5d-bc54-5bd7b491925a"},"vehicle_type_id":"4","last_reported":1742278482,"current_range_meters":4000,"station_id":"ce4bhn12rcd13ifvqgqg","pricing_plan_id":"cebpf4jnsgd1na2vs0mg"},{"bike_id":"705a4307-d3ab-486c-b52c-3d0b3026f036","system_id":"levelo_inurba_marseille","lat":43.25493,"lon":5.37662,"is_reserved":false,"is_disabled":false,"rental_uris":{"android":"levelo://app?vid=705a4307-d3ab-486c-b52c-3d0b3026f036","ios":"levelo://app?vid=705a4307-d3ab-486c-b52c-3d0b3026f036"},"vehicle_type_id":"4","last_reported":1742278482,"current_range_meters":4000,"station_id":"ce4bhh12rcd13ifvqff0","pricing_plan_id":"cebpf4jnsgd1na2vs0mg"},{"bike_id":"d1bc17a4-bd69-45a5-aa07-670f8af05e0c","system_id":"levelo_inurba_marseille","lat":43.26211,"lon":5.40501,"is_reserved":false,"is_disabled":false,"rental_uris":{"android":"levelo://app?vid=d1bc17a4-bd69-45a5-aa07-670f8af05e0c","ios":"levelo://app?vid=d1bc17a4-bd69-45a5-aa07-670f8af05e0c"},"vehicle_type_id":"4","last_reported":1742278482,"current_range_meters":4000,"station_id":"ce4bhmh2rcd13ifvqgmg","pricing_plan_id":"cebpf4jnsgd1na2vs0mg"},{"bike_id":"abd48a52-c8cc-4abb-a801-8dce64155a4a","system_id":"levelo_inurba_marseille","lat":43.24991,"lon":5.38946,"is_reserved":false,"is_disabled":false,"rental_uris":{"android":"levelo://app?vid=abd48a52-c8cc-4abb-a801-8dce64155a4a","ios":"levelo://app?vid=abd48a52-c8cc-4abb-a801-8dce64155a4a"},"vehicle_type_id":"4","last_reported":1742278482,"current_range_meters":4400,"station_id":"ce4bhgp2rcd13ifvqfd0","pricing_plan_id":"cebpf4jnsgd1na2vs0mg"},{"bike_id":"e39f083d-4542-4f7b-9173-1e8fe9e09597","system_id":"levelo_inurba_marseille","lat":43.2749,"lon":5.42463,"is_reserved":false,"is_disabled":true,"rental_uris":{"android":"levelo://app?vid=e39f083d-4542-4f7b-9173-1e8fe9e09597","ios":"levelo://app?vid=e39f083d-4542-4f7b-9173-1e8fe9e09597"},"vehicle_type_id":"4","last_reported":1742278482,"current_range_meters":4400,"station_id":"ce4bhn92rcd13ifvqgrg","pricing_plan_id":"cebpf4jnsgd1na2vs0mg"},{"bike_id":"43c8207c-26dc-456c-a71a-f9eb93c79664","system_id":"levelo_inurba_marseille","lat":43.30205,"lon":5.3946,"is_reserved":false,"is_disabled":true,"rental_uris":{"android":"levelo://app?vid=43c8207c-26dc-456c-a71a-f9eb93c79664","ios":"levelo://app?vid=43c8207c-26dc-456c-a71a-f9eb93c79664"},"vehicle_type_id":"4","last_reported":1742278482,"current_range_meters":4400,"station_id":"ce4bh0p2rcd13ifvqd70","pricing_plan_id":"cebpf4jnsgd1na2vs0mg"},{"bike_id":"3321b332-d0a2-4d1d-8681-1afa7f086e3f","system_id":"levelo_inurba_marseille","lat":43.262029,"lon":5.379224,"is_reserved":false,"is_disabled":false,"rental_uris":{"android":"levelo://app?vid=3321b332-d0a2-4d1d-8681-1afa7f086e3f","ios":"levelo://app?vid=3321b332-d0a2-4d1d-8681-1afa7f086e3f"},"vehicle_type_id":"4","last_reported":1742278482,"current_range_meters":4800,"station_id":"ce4bhjp2rcd13ifvqg90","pricing_plan_id":"cebpf4jnsgd1na2vs0mg"},{"bike_id":"ef9b20c2-24a5-462d-8f71-a0b89cbc915f","system_id":"levelo_inurba_marseille","lat":43.26025,"lon":5.41752,"is_reserved":false,"is_disabled":false,"rental_uris":{"android":"levelo://app?vid=ef9b20c2-24a5-462d-8f71-a0b89cbc915f","ios":"levelo://app?vid=ef9b20c2-24a5-462d-8f71-a0b89cbc915f"},"vehicle_type_id":"4","last_reported":1742278482,"current_range_meters":4800,"station_id":"","pricing_plan_id":"cebpf4jnsgd1na2vs0mg"},{"bike_id":"cd6bd228-ec34-418f-8538-14abbf44a6a3","system_id":"levelo_inurba_marseille","lat":43.31989,"lon":5.3746,"is_reserved":false,"is_disabled":false,"rental_uris":{"android":"levelo://app?vid=cd6bd228-ec34-418f-8538-14abbf44a6a3","ios":"levelo://app?vid=cd6bd228-ec34-418f-8538-14abbf44a6a3"},"vehicle_type_id":"4","last_reported":1742278482,"current_range_meters":4800,"station_id":"","pricing_plan_id":"cebpf4jnsgd1na2vs0mg"},{"bike_id":"a561f3af-dc1c-4af4-b9a4-ead55b35e495","system_id":"levelo_inurba_marseille","lat":43.23188,"lon":5.35576,"is_reserved":false,"is_disabled":false,"rental_uris":{"android":"levelo://app?vid=a561f3af-dc1c-4af4-b9a4-ead55b35e495","ios":"levelo://app?vid=a561f3af-dc1c-4af4-b9a4-ead55b35e495"},"vehicle_type_id":"4","last_reported":1742278482,"current_range_meters":4800,"station_id":"ce4bhu92rcd13ifvqi70","pricing_plan_id":"cebpf4jnsgd1na2vs0mg"},{"bike_id":"4a82e9fa-897e-4db9-9848-eca7bdecdfdc","system_id":"levelo_inurba_marseille","lat":43.27878,"lon":5.38275,"is_reserved":false,"is_disabled":false,"rental_uris":{"android":"levelo://app?vid=4a82e9fa-897e-4db9-9848-eca7bdecdfdc","ios":"levelo://app?vid=4a82e9fa-897e-4db9-9848-eca7bdecdfdc"},"vehicle_type_id":"4","last_reported":1742278482,"current_range_meters":4800,"station_id":"","pricing_plan_id":"cebpf4jnsgd1na2vs0mg"},{"bike_id":"39a279e7-f4d5-4437-90a8-72a9c6ddb649","system_id":"levelo_inurba_marseille","lat":43.27984,"lon":5.41655,"is_reserved":false,"is_disabled":false,"rental_uris":{"android":"levelo://app?vid=39a279e7-f4d5-4437-90a8-72a9c6ddb649","ios":"levelo://app?vid=39a279e7-f4d5-4437-90a8-72a9c6ddb649"},"vehicle_type_id":"4","last_reported":1742278482,"current_range_meters":4800,"station_id":"ce4bho12rcd13ifvqh1g","pricing_plan_id":"cebpf4jnsgd1na2vs0mg"},{"bike_id":"6b8ffa9f-0e09-4bfb-a7c9-f730a8d18a65","system_id":"levelo_inurba_marseille","lat":43.24383,"lon":5.37065,"is_reserved":false,"is_disabled":false,"rental_uris":{"android":"levelo://app?vid=6b8ffa9f-0e09-4bfb-a7c9-f730a8d18a65","ios":"levelo://app?vid=6b8ffa9f-0e09-4bfb-a7c9-f730a8d18a65"},"vehicle_type_id":"4","last_reported":1742278482,"current_range_meters":4800,"station_id":"ce4bhhh2rcd13ifvqfk0","pricing_plan_id":"cebpf4jnsgd1na2vs0mg"},{"bike_id":"4d1a8aeb-f96d-43ff-911b-66984650da28","system_id":"levelo_inurba_marseille","lat":43.274879,"lon":5.424732,"is_reserved":false,"is_disabled":true,"rental_uris":{"android":"levelo://app?vid=4d1a8aeb-f96d-43ff-911b-66984650da28","ios":"levelo://app?vid=4d1a8aeb-f96d-43ff-911b-66984650da28"},"vehicle_type_id":"4","last_reported":1742278482,"current_range_meters":4800,"station_id":"ce4bhn92rcd13ifvqgrg","pricing_plan_id":"cebpf4jnsgd1na2vs0mg"},{"bike_id":"74620aff-b1f0-4b60-8841-bc8a0a2edc3e","system_id":"levelo_inurba_marseille","lat":43.23187,"lon":5.35568,"is_reserved":false,"is_disabled":false,"rental_uris":{"android":"levelo://app?vid=74620aff-b1f0-4b60-8841-bc8a0a2edc3e","ios":"levelo://app?vid=74620aff-b1f0-4b60-8841-bc8a0a2edc3e"},"vehicle_type_id":"4","last_reported":1742278482,"current_range_meters":5600,"station_id":"ce4bhu92rcd13ifvqi70","pricing_plan_id":"cebpf4jnsgd1na2vs0mg"},{"bike_id":"259b2a62-eee3-46d4-9ba2-779b7755c371","system_id":"levelo_inurba_marseille","lat":43.26197,"lon":5.37454,"is_reserved":false,"is_disabled":true,"rental_uris":{"android":"levelo://app?vid=259b2a62-eee3-46d4-9ba2-779b7755c371","ios":"levelo://app?vid=259b2a62-eee3-46d4-9ba2-779b7755c371"},"vehicle_type_id":"4","last_reported":1742278482,"current_range_meters":5600,"station_id":"ce4bhgp2rcd13ifvqfc0","pricing_plan_id":"cebpf4jnsgd1na2vs0mg"},{"bike_id":"807d1c46-1543-4f63-8003-0d789a8aaaa9","system_id":"levelo_inurba_marseille","lat":43.27948,"lon":5.41058,"is_reserved":false,"is_disabled":false,"rental_uris":{"android":"levelo://app?vid=807d1c46-1543-4f63-8003-0d789a8aaaa9","ios":"levelo://app?vid=807d1c46-1543-4f63-8003-0d789a8aaaa9"},"vehicle_type_id":"4","last_reported":1742278482,"current_range_meters":5600,"station_id":"ce4bhnp2rcd13ifvqh0g","pricing_plan_id":"cebpf4jnsgd1na2vs0mg"},{"bike_id":"2b7011fc-7dee-42c2-86d6-7293fa23c29b","system_id":"levelo_inurba_marseille","lat":43.286136,"lon":5.35108,"is_reserved":false,"is_disabled":true,"rental_uris":{"android":"levelo://app?vid=2b7011fc-7dee-42c2-86d6-7293fa23c29b","ios":"levelo://app?vid=2b7011fc-7dee-42c2-86d6-7293fa23c29b"},"vehicle_type_id":"4","last_reported":1742278482,"current_range_meters":5600,"station_id":"","pricing_plan_id":"cebpf4jnsgd1na2vs0mg"},{"bike_id":"2fe6b5d4-c6f7-40d2-9a0b-4798d57f392b","system_id":"levelo_inurba_marseille","lat":43.23159,"lon":5.35446,"is_reserved":false,"is_disabled":false,"rental_uris":{"android":"levelo://app?vid=2fe6b5d4-c6f7-40d2-9a0b-4798d57f392b","ios":"levelo://app?vid=2fe6b5d4-c6f7-40d2-9a0b-4798d57f392b"},"vehicle_type_id":"4","last_reported":1742278482,"current_range_meters":6000,"station_id":"ce4bhu92rcd13ifvqi70","pricing_plan_id":"cebpf4jnsgd1na2vs0mg"},{"bike_id":"9dcb622a-e621-4cef-b659-02a845217b91","system_id":"levelo_inurba_marseille","lat":43.32359,"lon":5.38893,"is_reserved":false,"is_disabled":false,"rental_uris":{"android":"levelo://app?vid=9dcb622a-e621-4cef-b659-02a845217b91","ios":"levelo://app?vid=9dcb622a-e621-4cef-b659-02a845217b91"},"vehicle_type_id":"4","last_reported":1742278482,"current_range_meters":6000,"station_id":"ce4bhqp2rcd13ifvqhog","pricing_plan_id":"cebpf4jnsgd1na2vs0mg"},{"bike_id":"b53f3e84-0f81-4027-8329-613e23527245","system_id":"levelo_inurba_marseille","lat":43.307284,"lon":5.400429,"is_reserved":false,"is_disabled":false,"rental_uris":{"android":"levelo://app?vid=b53f3e84-0f81-4027-8329-613e23527245","ios":"levelo://app?vid=b53f3e84-0f81-4027-8329-613e23527245"},"vehicle_type_id":"4","last_reported":1742278482,"current_range_meters":6000,"station_id":"ce4bgvp2rcd13ifvqct0","pricing_plan_id":"cebpf4jnsgd1na2vs0mg"},{"bike_id":"021238b5-2b9d-46d2-b80c-a5e816fdc135","system_id":"levelo_inurba_marseille","lat":43.29511,"lon":5.42484,"is_reserved":false,"is_disabled":false,"rental_uris":{"android":"levelo://app?vid=021238b5-2b9d-46d2-b80c-a5e816fdc135","ios":"levelo://app?vid=021238b5-2b9d-46d2-b80c-a5e816fdc135"},"vehicle_type_id":"4","last_reported":1742278482,"current_range_meters":6000,"station_id":"","pricing_plan_id":"cebpf4jnsgd1na2vs0mg"},{"bike_id":"8fde4101-f431-43cd-961d-a5ec7c656054","system_id":"levelo_inurba_marseille","lat":43.3088,"lon":5.39623,"is_reserved":false,"is_disabled":false,"rental_uris":{"android":"levelo://app?vid=8fde4101-f431-43cd-961d-a5ec7c656054","ios":"levelo://app?vid=8fde4101-f431-43cd-961d-a5ec7c656054"},"vehicle_type_id":"4","last_reported":1742278482,"current_range_meters":6000,"station_id":"ce4bh012rcd13ifvqcv0","pricing_plan_id":"cebpf4jnsgd1na2vs0mg"},{"bike_id":"88531a84-c602-42aa-9e4f-8f2ca29ef55c","system_id":"levelo_inurba_marseille","lat":43.25088,"lon":5.3952,"is_reserved":false,"is_disabled":false,"rental_uris":{"android":"levelo://app?vid=88531a84-c602-42aa-9e4f-8f2ca29ef55c","ios":"levelo://app?vid=88531a84-c602-42aa-9e4f-8f2ca29ef55c"},"vehicle_type_id":"4","last_reported":1742278482,"current_range_meters":6000,"station_id":"ce4bhm12rcd13ifvqgkg","pricing_plan_id":"cebpf4jnsgd1na2vs0mg"},{"bike_id":"0a018086-283c-4259-a1ff-a9304b066761","system_id":"levelo_inurba_marseille","lat":43.25003,"lon":5.38919,"is_reserved":false,"is_disabled":false,"rental_uris":{"android":"levelo://app?vid=0a018086-283c-4259-a1ff-a9304b066761","ios":"levelo://app?vid=0a018086-283c-4259-a1ff-a9304b066761"},"vehicle_type_id":"4","last_reported":1742278482,"current_range_meters":6000,"station_id":"ce4bhgp2rcd13ifvqfd0","pricing_plan_id":"cebpf4jnsgd1na2vs0mg"},{"bike_id":"600352a7-4eb2-4149-a296-2e5df0ee4f01","system_id":"levelo_inurba_marseille","lat":43.30651,"lon":5.40095,"is_reserved":false,"is_disabled":false,"rental_uris":{"android":"levelo://app?vid=600352a7-4eb2-4149-a296-2e5df0ee4f01","ios":"levelo://app?vid=600352a7-4eb2-4149-a296-2e5df0ee4f01"},"vehicle_type_id":"4","last_reported":1742278482,"current_range_meters":6400,"station_id":"ce4bh112rcd13ifvqda0","pricing_plan_id":"cebpf4jnsgd1na2vs0mg"},{"bike_id":"4d46e037-8954-462a-b34f-64963174e243","system_id":"levelo_inurba_marseille","lat":43.27934,"lon":5.41135,"is_reserved":false,"is_disabled":false,"rental_uris":{"android":"levelo://app?vid=4d46e037-8954-462a-b34f-64963174e243","ios":"levelo://app?vid=4d46e037-8954-462a-b34f-64963174e243"},"vehicle_type_id":"4","last_reported":1742278482,"current_range_meters":6400,"station_id":"","pricing_plan_id":"cebpf4jnsgd1na2vs0mg"},{"bike_id":"4c24f8a2-fcb8-48f4-9cb1-53d858f2edb5","system_id":"levelo_inurba_marseille","lat":43.30429,"lon":5.3793,"is_reserved":false,"is_disabled":false,"rental_uris":{"android":"levelo://app?vid=4c24f8a2-fcb8-48f4-9cb1-53d858f2edb5","ios":"levelo://app?vid=4c24f8a2-fcb8-48f4-9cb1-53d858f2edb5"},"vehicle_type_id":"4","last_reported":1742278482,"current_range_meters":6400,"station_id":"ce4bgup2rcd13ifvqcn0","pricing_plan_id":"cebpf4jnsgd1na2vs0mg"},{"bike_id":"e30db461-2896-49e3-9534-e748842ec47f","system_id":"levelo_inurba_marseille","lat":43.27832,"lon":5.39212,"is_reserved":false,"is_disabled":false,"rental_uris":{"android":"levelo://app?vid=e30db461-2896-49e3-9534-e748842ec47f","ios":"levelo://app?vid=e30db461-2896-49e3-9534-e748842ec47f"},"vehicle_type_id":"4","last_reported":1742278482,"current_range_meters":6400,"station_id":"ce4bhjp2rcd13ifvqga0","pricing_plan_id":"cebpf4jnsgd1na2vs0mg"},{"bike_id":"d463b1ad-4edb-436a-a28d-1e68f5cf89b9","system_id":"levelo_inurba_marseille","lat":43.30882,"lon":5.37189,"is_reserved":false,"is_disabled":false,"rental_uris":{"android":"levelo://app?vid=d463b1ad-4edb-436a-a28d-1e68f5cf89b9","ios":"levelo://app?vid=d463b1ad-4edb-436a-a28d-1e68f5cf89b9"},"vehicle_type_id":"4","last_reported":1742278482,"current_range_meters":9200,"station_id":"ce4bguh2rcd13ifvqckg","pricing_plan_id":"cebpf4jnsgd1na2vs0mg"},{"bike_id":"ee6fabc2-7f33-4574-877a-5df1fea178f3","system_id":"levelo_inurba_marseille","lat":43.27834,"lon":5.39218,"is_reserved":false,"is_disabled":false,"rental_uris":{"android":"levelo://app?vid=ee6fabc2-7f33-4574-877a-5df1fea178f3","ios":"levelo://app?vid=ee6fabc2-7f33-4574-877a-5df1fea178f3"},"vehicle_type_id":"4","last_reported":1742278482,"current_range_meters":6400,"station_id":"ce4bhjp2rcd13ifvqga0","pricing_plan_id":"cebpf4jnsgd1na2vs0mg"},{"bike_id":"46def44c-7a7a-4892-982e-267cfa9da20c","system_id":"levelo_inurba_marseille","lat":43.258685,"lon":5.398982,"is_reserved":false,"is_disabled":false,"rental_uris":{"android":"levelo://app?vid=46def44c-7a7a-4892-982e-267cfa9da20c","ios":"levelo://app?vid=46def44c-7a7a-4892-982e-267cfa9da20c"},"vehicle_type_id":"4","last_reported":1742278482,"current_range_meters":6400,"station_id":"ce4bhl92rcd13ifvqghg","pricing_plan_id":"cebpf4jnsgd1na2vs0mg"},{"bike_id":"9ee8265a-0fdc-4849-933f-8351e6c3b1de","system_id":"levelo_inurba_marseille","lat":43.23189,"lon":5.39989,"is_reserved":false,"is_disabled":false,"rental_uris":{"android":"levelo://app?vid=9ee8265a-0fdc-4849-933f-8351e6c3b1de","ios":"levelo://app?vid=9ee8265a-0fdc-4849-933f-8351e6c3b1de"},"vehicle_type_id":"4","last_reported":1742278482,"current_range_meters":6400,"station_id":"ce4bhn12rcd13ifvqgqg","pricing_plan_id":"cebpf4jnsgd1na2vs0mg"},{"bike_id":"1c4dedbd-cff6-43e6-b2ba-da51a68b7542","system_id":"levelo_inurba_marseille","lat":43.27834,"lon":5.3921,"is_reserved":false,"is_disabled":false,"rental_uris":{"android":"levelo://app?vid=1c4dedbd-cff6-43e6-b2ba-da51a68b7542","ios":"levelo://app?vid=1c4dedbd-cff6-43e6-b2ba-da51a68b7542"},"vehicle_type_id":"4","last_reported":1742278482,"current_range_meters":6400,"station_id":"ce4bhjp2rcd13ifvqga0","pricing_plan_id":"cebpf4jnsgd1na2vs0mg"},{"bike_id":"057c4299-c24d-4a02-8ede-b4bf9523726b","system_id":"levelo_inurba_marseille","lat":43.23144,"lon":5.43751,"is_reserved":false,"is_disabled":false,"rental_uris":{"android":"levelo://app?vid=057c4299-c24d-4a02-8ede-b4bf9523726b","ios":"levelo://app?vid=057c4299-c24d-4a02-8ede-b4bf9523726b"},"vehicle_type_id":"4","last_reported":1742278482,"current_range_meters":6800,"station_id":"ce4bhmp2rcd13ifvqgog","pricing_plan_id":"cebpf4jnsgd1na2vs0mg"},{"bike_id":"e95151cd-abc4-4dae-8ab5-1de4cba734f5","system_id":"levelo_inurba_marseille","lat":43.24168,"lon":5.39728,"is_reserved":false,"is_disabled":false,"rental_uris":{"android":"levelo://app?vid=e95151cd-abc4-4dae-8ab5-1de4cba734f5","ios":"levelo://app?vid=e95151cd-abc4-4dae-8ab5-1de4cba734f5"},"vehicle_type_id":"4","last_reported":1742278482,"current_range_meters":6800,"station_id":"ce4bhn12rcd13ifvqgpg","pricing_plan_id":"cebpf4jnsgd1na2vs0mg"},{"bike_id":"b0d4f5f0-79ce-4a3f-92ac-2959ecb2dee0","system_id":"levelo_inurba_marseille","lat":43.33012,"lon":5.39063,"is_reserved":false,"is_disabled":false,"rental_uris":{"android":"levelo://app?vid=b0d4f5f0-79ce-4a3f-92ac-2959ecb2dee0","ios":"levelo://app?vid=b0d4f5f0-79ce-4a3f-92ac-2959ecb2dee0"},"vehicle_type_id":"4","last_reported":1742278482,"current_range_meters":6800,"station_id":"ce4bhr92rcd13ifvqhrg","pricing_plan_id":"cebpf4jnsgd1na2vs0mg"},{"bike_id":"dd117a7c-a536-40a1-91af-43693b0b8fe5","system_id":"levelo_inurba_marseille","lat":43.25932,"lon":5.40901,"is_reserved":false,"is_disabled":false,"rental_uris":{"android":"levelo://app?vid=dd117a7c-a536-40a1-91af-43693b0b8fe5","ios":"levelo://app?vid=dd117a7c-a536-40a1-91af-43693b0b8fe5"},"vehicle_type_id":"4","last_reported":1742278482,"current_range_meters":6800,"station_id":"ce4bhm92rcd13ifvqglg","pricing_plan_id":"cebpf4jnsgd1na2vs0mg"},{"bike_id":"1eef6fe9-8462-4804-b1c7-1b92116f17de","system_id":"levelo_inurba_marseille","lat":43.317653,"lon":5.390109,"is_reserved":false,"is_disabled":false,"rental_uris":{"android":"levelo://app?vid=1eef6fe9-8462-4804-b1c7-1b92116f17de","ios":"levelo://app?vid=1eef6fe9-8462-4804-b1c7-1b92116f17de"},"vehicle_type_id":"4","last_reported":1742278482,"current_range_meters":6800,"station_id":"ce4bhqp2rcd13ifvqhng","pricing_plan_id":"cebpf4jnsgd1na2vs0mg"},{"bike_id":"bd95e462-c605-4bd6-b0a6-7ecc3176c361","system_id":"levelo_inurba_marseille","lat":43.27168,"lon":5.40998,"is_reserved":false,"is_disabled":false,"rental_uris":{"android":"levelo://app?vid=bd95e462-c605-4bd6-b0a6-7ecc3176c361","ios":"levelo://app?vid=bd95e462-c605-4bd6-b0a6-7ecc3176c361"},"vehicle_type_id":"4","last_reported":1742278482,"current_range_meters":6800,"station_id":"ce4bhl12rcd13ifvqgf0","pricing_plan_id":"cebpf4jnsgd1na2vs0mg"},{"bike_id":"5e31fbed-d4b7-49e5-97ef-d23adbdbc443","system_id":"levelo_inurba_marseille","lat":43.257119,"lon":5.411154,"is_reserved":false,"is_disabled":false,"rental_uris":{"android":"levelo://app?vid=5e31fbed-d4b7-49e5-97ef-d23adbdbc443","ios":"levelo://app?vid=5e31fbed-d4b7-49e5-97ef-d23adbdbc443"},"vehicle_type_id":"4","last_reported":1742278482,"current_range_meters":6800,"station_id":"ce4bhkp2rcd13ifvqgd0","pricing_plan_id":"cebpf4jnsgd1na2vs0mg"},{"bike_id":"43ac644e-f900-485f-a519-d690d528fa1f","system_id":"levelo_inurba_marseille","lat":43.27805,"lon":5.40737,"is_reserved":false,"is_disabled":false,"rental_uris":{"android":"levelo://app?vid=43ac644e-f900-485f-a519-d690d528fa1f","ios":"levelo://app?vid=43ac644e-f900-485f-a519-d690d528fa1f"},"vehicle_type_id":"4","last_reported":1742278482,"current_range_meters":7200,"station_id":"ce4bhnh2rcd13ifvqgtg","pricing_plan_id":"cebpf4jnsgd1na2vs0mg"},{"bike_id":"0d126537-def7-47c3-bba6-892f83e3c00f","system_id":"levelo_inurba_marseille","lat":43.250048,"lon":5.389317,"is_reserved":false,"is_disabled":false,"rental_uris":{"android":"levelo://app?vid=0d126537-def7-47c3-bba6-892f83e3c00f","ios":"levelo://app?vid=0d126537-def7-47c3-bba6-892f83e3c00f"},"vehicle_type_id":"4","last_reported":1742278482,"current_range_meters":7200,"station_id":"ce4bhgp2rcd13ifvqfd0","pricing_plan_id":"cebpf4jnsgd1na2vs0mg"},{"bike_id":"73ba6054-b256-49f9-a881-8617a962027d","system_id":"levelo_inurba_marseille","lat":43.23037,"lon":5.35488,"is_reserved":false,"is_disabled":false,"rental_uris":{"android":"levelo://app?vid=73ba6054-b256-49f9-a881-8617a962027d","ios":"levelo://app?vid=73ba6054-b256-49f9-a881-8617a962027d"},"vehicle_type_id":"4","last_reported":1742278482,"current_range_meters":7200,"station_id":"cpo3342slgdg3j2ifvpg","pricing_plan_id":"cebpf4jnsgd1na2vs0mg"},{"bike_id":"ba22b769-c7e4-474a-a7e5-3ff558251ffd","system_id":"levelo_inurba_marseille","lat":43.255837,"lon":5.382331,"is_reserved":false,"is_disabled":false,"rental_uris":{"android":"levelo://app?vid=ba22b769-c7e4-474a-a7e5-3ff558251ffd","ios":"levelo://app?vid=ba22b769-c7e4-474a-a7e5-3ff558251ffd"},"vehicle_type_id":"4","last_reported":1742278482,"current_range_meters":7200,"station_id":"ce4bhih2rcd13ifvqfs0","pricing_plan_id":"cebpf4jnsgd1na2vs0mg"},{"bike_id":"d1676c12-45d0-460a-ab7d-e6bd42a8628c","system_id":"levelo_inurba_marseille","lat":43.259387,"lon":5.409038,"is_reserved":false,"is_disabled":false,"rental_uris":{"android":"levelo://app?vid=d1676c12-45d0-460a-ab7d-e6bd42a8628c","ios":"levelo://app?vid=d1676c12-45d0-460a-ab7d-e6bd42a8628c"},"vehicle_type_id":"4","last_reported":1742278482,"current_range_meters":7200,"station_id":"ce4bhm92rcd13ifvqglg","pricing_plan_id":"cebpf4jnsgd1na2vs0mg"},{"bike_id":"834d0112-c70c-4f37-b41c-35d51309eea6","system_id":"levelo_inurba_marseille","lat":43.30585,"lon":5.39351,"is_reserved":false,"is_disabled":false,"rental_uris":{"android":"levelo://app?vid=834d0112-c70c-4f37-b41c-35d51309eea6","ios":"levelo://app?vid=834d0112-c70c-4f37-b41c-35d51309eea6"},"vehicle_type_id":"4","last_reported":1742278482,"current_range_meters":7200,"station_id":"ce4bh0p2rcd13ifvqd80","pricing_plan_id":"cebpf4jnsgd1na2vs0mg"},{"bike_id":"ce4f518f-36ef-4b94-b18a-9bf3313e3b57","system_id":"levelo_inurba_marseille","lat":43.25503,"lon":5.37647,"is_reserved":false,"is_disabled":false,"rental_uris":{"android":"levelo://app?vid=ce4f518f-36ef-4b94-b18a-9bf3313e3b57","ios":"levelo://app?vid=ce4f518f-36ef-4b94-b18a-9bf3313e3b57"},"vehicle_type_id":"4","last_reported":1742278482,"current_range_meters":7200,"station_id":"ce4bhh12rcd13ifvqff0","pricing_plan_id":"cebpf4jnsgd1na2vs0mg"},{"bike_id":"fa5f15ab-8994-45e1-84de-31aa4c8b3ced","system_id":"levelo_inurba_marseille","lat":43.23178,"lon":5.35588,"is_reserved":false,"is_disabled":false,"rental_uris":{"android":"levelo://app?vid=fa5f15ab-8994-45e1-84de-31aa4c8b3ced","ios":"levelo://app?vid=fa5f15ab-8994-45e1-84de-31aa4c8b3ced"},"vehicle_type_id":"4","last_reported":1742278482,"current_range_meters":7200,"station_id":"ce4bhu92rcd13ifvqi70","pricing_plan_id":"cebpf4jnsgd1na2vs0mg"},{"bike_id":"43242342-73bc-4a76-a912-16362c9b752f","system_id":"levelo_inurba_marseille","lat":43.24095,"lon":5.3775,"is_reserved":false,"is_disabled":false,"rental_uris":{"android":"levelo://app?vid=43242342-73bc-4a76-a912-16362c9b752f","ios":"levelo://app?vid=43242342-73bc-4a76-a912-16362c9b752f"},"vehicle_type_id":"4","last_reported":1742278482,"current_range_meters":7200,"station_id":"ce4bhnp2rcd13ifvqgvg","pricing_plan_id":"cebpf4jnsgd1na2vs0mg"},{"bike_id":"22f4e4f1-c5d4-4114-8ea8-ce918cb1c40f","system_id":"levelo_inurba_marseille","lat":43.29033,"lon":5.37566,"is_reserved":false,"is_disabled":true,"rental_uris":{"android":"levelo://app?vid=22f4e4f1-c5d4-4114-8ea8-ce918cb1c40f","ios":"levelo://app?vid=22f4e4f1-c5d4-4114-8ea8-ce918cb1c40f"},"vehicle_type_id":"4","last_reported":1742278482,"current_range_meters":7200,"station_id":"ce4bh692rcd13ifvqe90","pricing_plan_id":"cebpf4jnsgd1na2vs0mg"},{"bike_id":"b54a649d-2707-4569-87ee-d2c230e19409","system_id":"levelo_inurba_marseille","lat":43.27452,"lon":5.40912,"is_reserved":false,"is_disabled":false,"rental_uris":{"android":"levelo://app?vid=b54a649d-2707-4569-87ee-d2c230e19409","ios":"levelo://app?vid=b54a649d-2707-4569-87ee-d2c230e19409"},"vehicle_type_id":"4","last_reported":1742278482,"current_range_meters":7200,"station_id":"","pricing_plan_id":"cebpf4jnsgd1na2vs0mg"},{"bike_id":"4fd0d6b1-80a9-4a00-a0f5-a410ce25c312","system_id":"levelo_inurba_marseille","lat":43.31072,"lon":5.42449,"is_reserved":false,"is_disabled":false,"rental_uris":{"android":"levelo://app?vid=4fd0d6b1-80a9-4a00-a0f5-a410ce25c312","ios":"levelo://app?vid=4fd0d6b1-80a9-4a00-a0f5-a410ce25c312"},"vehicle_type_id":"4","last_reported":1742278482,"current_range_meters":7200,"station_id":"ce4bhp92rcd13ifvqhag","pricing_plan_id":"cebpf4jnsgd1na2vs0mg"},{"bike_id":"9e2fcf04-35eb-4c39-98a4-f9f808ee3610","system_id":"levelo_inurba_marseille","lat":43.278334,"lon":5.392112,"is_reserved":false,"is_disabled":false,"rental_uris":{"android":"levelo://app?vid=9e2fcf04-35eb-4c39-98a4-f9f808ee3610","ios":"levelo://app?vid=9e2fcf04-35eb-4c39-98a4-f9f808ee3610"},"vehicle_type_id":"4","last_reported":1742278482,"current_range_meters":7200,"station_id":"ce4bhjp2rcd13ifvqga0","pricing_plan_id":"cebpf4jnsgd1na2vs0mg"},{"bike_id":"607496c0-5a33-47b9-ad9d-59952d6063d6","system_id":"levelo_inurba_marseille","lat":43.31061,"lon":5.38356,"is_reserved":false,"is_disabled":false,"rental_uris":{"android":"levelo://app?vid=607496c0-5a33-47b9-ad9d-59952d6063d6","ios":"levelo://app?vid=607496c0-5a33-47b9-ad9d-59952d6063d6"},"vehicle_type_id":"4","last_reported":1742278482,"current_range_meters":7200,"station_id":"ce4bgv92rcd13ifvqcr0","pricing_plan_id":"cebpf4jnsgd1na2vs0mg"},{"bike_id":"3a0cde75-889a-463f-a713-d23be745b055","system_id":"levelo_inurba_marseille","lat":43.28474,"lon":5.38447,"is_reserved":false,"is_disabled":false,"rental_uris":{"android":"levelo://app?vid=3a0cde75-889a-463f-a713-d23be745b055","ios":"levelo://app?vid=3a0cde75-889a-463f-a713-d23be745b055"},"vehicle_type_id":"4","last_reported":1742278482,"current_range_meters":8000,"station_id":"ce4bh512rcd13ifvqe3g","pricing_plan_id":"cebpf4jnsgd1na2vs0mg"},{"bike_id":"6d8e8090-a4c7-4966-a3f4-a833922b9e5a","system_id":"levelo_inurba_marseille","lat":43.23185,"lon":5.35575,"is_reserved":false,"is_disabled":false,"rental_uris":{"android":"levelo://app?vid=6d8e8090-a4c7-4966-a3f4-a833922b9e5a","ios":"levelo://app?vid=6d8e8090-a4c7-4966-a3f4-a833922b9e5a"},"vehicle_type_id":"4","last_reported":1742278482,"current_range_meters":8000,"station_id":"ce4bhu92rcd13ifvqi70","pricing_plan_id":"cebpf4jnsgd1na2vs0mg"},{"bike_id":"d155b6d7-4f04-4869-a663-a1baa5b8f97e","system_id":"levelo_inurba_marseille","lat":43.231929,"lon":5.355554,"is_reserved":false,"is_disabled":false,"rental_uris":{"android":"levelo://app?vid=d155b6d7-4f04-4869-a663-a1baa5b8f97e","ios":"levelo://app?vid=d155b6d7-4f04-4869-a663-a1baa5b8f97e"},"vehicle_type_id":"4","last_reported":1742278482,"current_range_meters":8000,"station_id":"ce4bhu92rcd13ifvqi70","pricing_plan_id":"cebpf4jnsgd1na2vs0mg"},{"bike_id":"c0b734de-c541-459a-a16b-35427d518794","system_id":"levelo_inurba_marseille","lat":43.33011,"lon":5.39027,"is_reserved":false,"is_disabled":false,"rental_uris":{"android":"levelo://app?vid=c0b734de-c541-459a-a16b-35427d518794","ios":"levelo://app?vid=c0b734de-c541-459a-a16b-35427d518794"},"vehicle_type_id":"4","last_reported":1742278482,"current_range_meters":8000,"station_id":"ce4bhr92rcd13ifvqhrg","pricing_plan_id":"cebpf4jnsgd1na2vs0mg"},{"bike_id":"a721223e-025d-42c9-b095-5c32c709b862","system_id":"levelo_inurba_marseille","lat":43.2705,"lon":5.42287,"is_reserved":false,"is_disabled":false,"rental_uris":{"android":"levelo://app?vid=a721223e-025d-42c9-b095-5c32c709b862","ios":"levelo://app?vid=a721223e-025d-42c9-b095-5c32c709b862"},"vehicle_type_id":"4","last_reported":1742278482,"current_range_meters":8000,"station_id":"ce4bhk92rcd13ifvqgb0","pricing_plan_id":"cebpf4jnsgd1na2vs0mg"},{"bike_id":"4d35af38-e078-4d87-8ec4-ceb367e0ff1d","system_id":"levelo_inurba_marseille","lat":43.25874,"lon":5.39908,"is_reserved":false,"is_disabled":false,"rental_uris":{"android":"levelo://app?vid=4d35af38-e078-4d87-8ec4-ceb367e0ff1d","ios":"levelo://app?vid=4d35af38-e078-4d87-8ec4-ceb367e0ff1d"},"vehicle_type_id":"4","last_reported":1742278482,"current_range_meters":8000,"station_id":"ce4bhl92rcd13ifvqghg","pricing_plan_id":"cebpf4jnsgd1na2vs0mg"},{"bike_id":"29ed66aa-cd16-4461-a255-d974a33f2560","system_id":"levelo_inurba_marseille","lat":43.30479,"lon":5.37913,"is_reserved":false,"is_disabled":false,"rental_uris":{"android":"levelo://app?vid=29ed66aa-cd16-4461-a255-d974a33f2560","ios":"levelo://app?vid=29ed66aa-cd16-4461-a255-d974a33f2560"},"vehicle_type_id":"4","last_reported":1742278482,"current_range_meters":8000,"station_id":"ce4bgup2rcd13ifvqcn0","pricing_plan_id":"cebpf4jnsgd1na2vs0mg"},{"bike_id":"b1b41327-66f3-4983-ac80-93a6af2a034d","system_id":"levelo_inurba_marseille","lat":43.23062,"lon":5.35507,"is_reserved":false,"is_disabled":false,"rental_uris":{"android":"levelo://app?vid=b1b41327-66f3-4983-ac80-93a6af2a034d","ios":"levelo://app?vid=b1b41327-66f3-4983-ac80-93a6af2a034d"},"vehicle_type_id":"4","last_reported":1742278482,"current_range_meters":8400,"station_id":"cpo3342slgdg3j2ifvpg","pricing_plan_id":"cebpf4jnsgd1na2vs0mg"},{"bike_id":"0228a793-7f9a-40bc-a8c8-e449ae4bc9a7","system_id":"levelo_inurba_marseille","lat":43.25577,"lon":5.38251,"is_reserved":false,"is_disabled":false,"rental_uris":{"android":"levelo://app?vid=0228a793-7f9a-40bc-a8c8-e449ae4bc9a7","ios":"levelo://app?vid=0228a793-7f9a-40bc-a8c8-e449ae4bc9a7"},"vehicle_type_id":"4","last_reported":1742278482,"current_range_meters":8400,"station_id":"ce4bhih2rcd13ifvqfs0","pricing_plan_id":"cebpf4jnsgd1na2vs0mg"},{"bike_id":"2665cc4b-07ed-4ae6-a66f-2b09983c709d","system_id":"levelo_inurba_marseille","lat":43.33761,"lon":5.37489,"is_reserved":false,"is_disabled":false,"rental_uris":{"android":"levelo://app?vid=2665cc4b-07ed-4ae6-a66f-2b09983c709d","ios":"levelo://app?vid=2665cc4b-07ed-4ae6-a66f-2b09983c709d"},"vehicle_type_id":"4","last_reported":1742278482,"current_range_meters":8400,"station_id":"","pricing_plan_id":"cebpf4jnsgd1na2vs0mg"},{"bike_id":"0d3accb9-853e-4df0-b9d8-4607b8048f46","system_id":"levelo_inurba_marseille","lat":43.24167,"lon":5.36397,"is_reserved":false,"is_disabled":false,"rental_uris":{"android":"levelo://app?vid=0d3accb9-853e-4df0-b9d8-4607b8048f46","ios":"levelo://app?vid=0d3accb9-853e-4df0-b9d8-4607b8048f46"},"vehicle_type_id":"4","last_reported":1742278482,"current_range_meters":8400,"station_id":"cpo36qri1sfpv3e86is0","pricing_plan_id":"cebpf4jnsgd1na2vs0mg"},{"bike_id":"737a1d64-a21d-4452-b1f9-a22f87a8d6bd","system_id":"levelo_inurba_marseille","lat":43.23065,"lon":5.35496,"is_reserved":false,"is_disabled":false,"rental_uris":{"android":"levelo://app?vid=737a1d64-a21d-4452-b1f9-a22f87a8d6bd","ios":"levelo://app?vid=737a1d64-a21d-4452-b1f9-a22f87a8d6bd"},"vehicle_type_id":"4","last_reported":1742278482,"current_range_meters":8400,"station_id":"cpo3342slgdg3j2ifvpg","pricing_plan_id":"cebpf4jnsgd1na2vs0mg"},{"bike_id":"8fe7e33b-57fc-439c-ba02-015988635c80","system_id":"levelo_inurba_marseille","lat":43.27059,"lon":5.42296,"is_reserved":false,"is_disabled":true,"rental_uris":{"android":"levelo://app?vid=8fe7e33b-57fc-439c-ba02-015988635c80","ios":"levelo://app?vid=8fe7e33b-57fc-439c-ba02-015988635c80"},"vehicle_type_id":"4","last_reported":1742278482,"current_range_meters":8400,"station_id":"ce4bhk92rcd13ifvqgb0","pricing_plan_id":"cebpf4jnsgd1na2vs0mg"},{"bike_id":"836e6160-43fb-4e74-bca4-6228c501760e","system_id":"levelo_inurba_marseille","lat":43.255044,"lon":5.376689,"is_reserved":false,"is_disabled":false,"rental_uris":{"android":"levelo://app?vid=836e6160-43fb-4e74-bca4-6228c501760e","ios":"levelo://app?vid=836e6160-43fb-4e74-bca4-6228c501760e"},"vehicle_type_id":"4","last_reported":1742278482,"current_range_meters":8400,"station_id":"ce4bhh12rcd13ifvqff0","pricing_plan_id":"cebpf4jnsgd1na2vs0mg"},{"bike_id":"f8ff1f0a-d757-4c37-82f8-9f24d4a4ee7d","system_id":"levelo_inurba_marseille","lat":43.23178,"lon":5.39995,"is_reserved":false,"is_disabled":false,"rental_uris":{"android":"levelo://app?vid=f8ff1f0a-d757-4c37-82f8-9f24d4a4ee7d","ios":"levelo://app?vid=f8ff1f0a-d757-4c37-82f8-9f24d4a4ee7d"},"vehicle_type_id":"4","last_reported":1742278482,"current_range_meters":8400,"station_id":"ce4bhn12rcd13ifvqgqg","pricing_plan_id":"cebpf4jnsgd1na2vs0mg"},{"bike_id":"53ab00e4-31d4-4dc9-89ac-04c49d2b883d","system_id":"levelo_inurba_marseille","lat":43.257171,"lon":5.411074,"is_reserved":false,"is_disabled":false,"rental_uris":{"android":"levelo://app?vid=53ab00e4-31d4-4dc9-89ac-04c49d2b883d","ios":"levelo://app?vid=53ab00e4-31d4-4dc9-89ac-04c49d2b883d"},"vehicle_type_id":"4","last_reported":1742278482,"current_range_meters":8800,"station_id":"ce4bhkp2rcd13ifvqgd0","pricing_plan_id":"cebpf4jnsgd1na2vs0mg"},{"bike_id":"621d1759-73a7-43df-8571-31397a28a675","system_id":"levelo_inurba_marseille","lat":43.251057,"lon":5.40336,"is_reserved":false,"is_disabled":false,"rental_uris":{"android":"levelo://app?vid=621d1759-73a7-43df-8571-31397a28a675","ios":"levelo://app?vid=621d1759-73a7-43df-8571-31397a28a675"},"vehicle_type_id":"4","last_reported":1742278482,"current_range_meters":8800,"station_id":"ce4bhlh2rcd13ifvqgig","pricing_plan_id":"cebpf4jnsgd1na2vs0mg"},{"bike_id":"7896949c-a3e6-494e-9d07-6e98e1301a91","system_id":"levelo_inurba_marseille","lat":43.27176,"lon":5.41007,"is_reserved":false,"is_disabled":false,"rental_uris":{"android":"levelo://app?vid=7896949c-a3e6-494e-9d07-6e98e1301a91","ios":"levelo://app?vid=7896949c-a3e6-494e-9d07-6e98e1301a91"},"vehicle_type_id":"4","last_reported":1742278482,"current_range_meters":8800,"station_id":"ce4bhl12rcd13ifvqgf0","pricing_plan_id":"cebpf4jnsgd1na2vs0mg"},{"bike_id":"bf53558a-323c-40e3-9c37-ac64ba388e1c","system_id":"levelo_inurba_marseille","lat":43.23959,"lon":5.36624,"is_reserved":false,"is_disabled":false,"rental_uris":{"android":"levelo://app?vid=bf53558a-323c-40e3-9c37-ac64ba388e1c","ios":"levelo://app?vid=bf53558a-323c-40e3-9c37-ac64ba388e1c"},"vehicle_type_id":"4","last_reported":1742278482,"current_range_meters":8800,"station_id":"ce4bhi12rcd13ifvqfp0","pricing_plan_id":"cebpf4jnsgd1na2vs0mg"},{"bike_id":"7a8a8ccb-b5ee-4bab-9535-af226cc12302","system_id":"levelo_inurba_marseille","lat":43.29066,"lon":5.42377,"is_reserved":false,"is_disabled":false,"rental_uris":{"android":"levelo://app?vid=7a8a8ccb-b5ee-4bab-9535-af226cc12302","ios":"levelo://app?vid=7a8a8ccb-b5ee-4bab-9535-af226cc12302"},"vehicle_type_id":"4","last_reported":1742278482,"current_range_meters":8800,"station_id":"","pricing_plan_id":"cebpf4jnsgd1na2vs0mg"},{"bike_id":"ba17eb78-f062-4f77-b8b0-1a4a31d62a9e","system_id":"levelo_inurba_marseille","lat":43.257165,"lon":5.411079,"is_reserved":false,"is_disabled":true,"rental_uris":{"android":"levelo://app?vid=ba17eb78-f062-4f77-b8b0-1a4a31d62a9e","ios":"levelo://app?vid=ba17eb78-f062-4f77-b8b0-1a4a31d62a9e"},"vehicle_type_id":"4","last_reported":1742278482,"current_range_meters":8800,"station_id":"ce4bhkp2rcd13ifvqgd0","pricing_plan_id":"cebpf4jnsgd1na2vs0mg"},{"bike_id":"0780259e-9216-46eb-bc8e-99d2e229a9ea","system_id":"levelo_inurba_marseille","lat":43.26023,"lon":5.417459,"is_reserved":false,"is_disabled":false,"rental_uris":{"android":"levelo://app?vid=0780259e-9216-46eb-bc8e-99d2e229a9ea","ios":"levelo://app?vid=0780259e-9216-46eb-bc8e-99d2e229a9ea"},"vehicle_type_id":"4","last_reported":1742278482,"current_range_meters":9200,"station_id":"","pricing_plan_id":"cebpf4jnsgd1na2vs0mg"},{"bike_id":"cc127605-97f5-449d-ad23-12b6f80c9639","system_id":"levelo_inurba_marseille","lat":43.29279,"lon":5.37439,"is_reserved":false,"is_disabled":true,"rental_uris":{"android":"levelo://app?vid=cc127605-97f5-449d-ad23-12b6f80c9639","ios":"levelo://app?vid=cc127605-97f5-449d-ad23-12b6f80c9639"},"vehicle_type_id":"4","last_reported":1742278482,"current_range_meters":9200,"station_id":"ce4bgi12rcd13ifvqb70","pricing_plan_id":"cebpf4jnsgd1na2vs0mg"},{"bike_id":"06e6eede-4ecb-4319-9d79-1a567e57af49","system_id":"levelo_inurba_marseille","lat":43.260231,"lon":5.417451,"is_reserved":false,"is_disabled":false,"rental_uris":{"android":"levelo://app?vid=06e6eede-4ecb-4319-9d79-1a567e57af49","ios":"levelo://app?vid=06e6eede-4ecb-4319-9d79-1a567e57af49"},"vehicle_type_id":"4","last_reported":1742278482,"current_range_meters":9200,"station_id":"","pricing_plan_id":"cebpf4jnsgd1na2vs0mg"},{"bike_id":"c6f0a2f3-d142-4b3e-bc0a-4b621d29452c","system_id":"levelo_inurba_marseille","lat":43.251153,"lon":5.403173,"is_reserved":false,"is_disabled":false,"rental_uris":{"android":"levelo://app?vid=c6f0a2f3-d142-4b3e-bc0a-4b621d29452c","ios":"levelo://app?vid=c6f0a2f3-d142-4b3e-bc0a-4b621d29452c"},"vehicle_type_id":"4","last_reported":1742278482,"current_range_meters":9200,"station_id":"ce4bhlh2rcd13ifvqgig","pricing_plan_id":"cebpf4jnsgd1na2vs0mg"},{"bike_id":"dfa54116-4122-4592-a286-1fbb2ac6e9a8","system_id":"levelo_inurba_marseille","lat":43.28343,"lon":5.38113,"is_reserved":false,"is_disabled":false,"rental_uris":{"android":"levelo://app?vid=dfa54116-4122-4592-a286-1fbb2ac6e9a8","ios":"levelo://app?vid=dfa54116-4122-4592-a286-1fbb2ac6e9a8"},"vehicle_type_id":"4","last_reported":1742278482,"current_range_meters":9200,"station_id":"ce4bh412rcd13ifvqdr0","pricing_plan_id":"cebpf4jnsgd1na2vs0mg"},{"bike_id":"b5040432-f6a7-4dbd-93a1-a6c14c284b7b","system_id":"levelo_inurba_marseille","lat":43.258685,"lon":5.399059,"is_reserved":false,"is_disabled":false,"rental_uris":{"android":"levelo://app?vid=b5040432-f6a7-4dbd-93a1-a6c14c284b7b","ios":"levelo://app?vid=b5040432-f6a7-4dbd-93a1-a6c14c284b7b"},"vehicle_type_id":"4","last_reported":1742278482,"current_range_meters":9200,"station_id":"ce4bhl92rcd13ifvqghg","pricing_plan_id":"cebpf4jnsgd1na2vs0mg"},{"bike_id":"42e35520-f310-4cc9-afe0-cc69621e6853","system_id":"levelo_inurba_marseille","lat":43.32367,"lon":5.38888,"is_reserved":false,"is_disabled":false,"rental_uris":{"android":"levelo://app?vid=42e35520-f310-4cc9-afe0-cc69621e6853","ios":"levelo://app?vid=42e35520-f310-4cc9-afe0-cc69621e6853"},"vehicle_type_id":"4","last_reported":1742278482,"current_range_meters":9200,"station_id":"ce4bhqp2rcd13ifvqhog","pricing_plan_id":"cebpf4jnsgd1na2vs0mg"},{"bike_id":"e9b52e70-e9fd-498a-9c89-05314149732a","system_id":"levelo_inurba_marseille","lat":43.26801,"lon":5.40232,"is_reserved":false,"is_disabled":false,"rental_uris":{"android":"levelo://app?vid=e9b52e70-e9fd-498a-9c89-05314149732a","ios":"levelo://app?vid=e9b52e70-e9fd-498a-9c89-05314149732a"},"vehicle_type_id":"4","last_reported":1742278482,"current_range_meters":9200,"station_id":"ce501612rcd8frsf0b60","pricing_plan_id":"cebpf4jnsgd1na2vs0mg"},{"bike_id":"649e7ca6-39bf-43ac-b834-3ea183d0fa70","system_id":"levelo_inurba_marseille","lat":43.30596,"lon":5.37263,"is_reserved":false,"is_disabled":false,"rental_uris":{"android":"levelo://app?vid=649e7ca6-39bf-43ac-b834-3ea183d0fa70","ios":"levelo://app?vid=649e7ca6-39bf-43ac-b834-3ea183d0fa70"},"vehicle_type_id":"4","last_reported":1742278482,"current_range_meters":9600,"station_id":"ce4bgqh2rcd13ifvqc4g","pricing_plan_id":"cebpf4jnsgd1na2vs0mg"},{"bike_id":"09be20b3-ccfa-43d5-8616-036d82fe33a0","system_id":"levelo_inurba_marseille","lat":43.24984,"lon":5.38935,"is_reserved":false,"is_disabled":false,"rental_uris":{"android":"levelo://app?vid=09be20b3-ccfa-43d5-8616-036d82fe33a0","ios":"levelo://app?vid=09be20b3-ccfa-43d5-8616-036d82fe33a0"},"vehicle_type_id":"4","last_reported":1742278482,"current_range_meters":9600,"station_id":"ce4bhgp2rcd13ifvqfd0","pricing_plan_id":"cebpf4jnsgd1na2vs0mg"},{"bike_id":"ac767398-3a37-4b25-a151-49e4b1e3ef78","system_id":"levelo_inurba_marseille","lat":43.2509,"lon":5.39498,"is_reserved":false,"is_disabled":false,"rental_uris":{"android":"levelo://app?vid=ac767398-3a37-4b25-a151-49e4b1e3ef78","ios":"levelo://app?vid=ac767398-3a37-4b25-a151-49e4b1e3ef78"},"vehicle_type_id":"4","last_reported":1742278482,"current_range_meters":9600,"station_id":"ce4bhm12rcd13ifvqgkg","pricing_plan_id":"cebpf4jnsgd1na2vs0mg"},{"bike_id":"93729673-f50f-4d8c-a0cc-919267756e0e","system_id":"levelo_inurba_marseille","lat":43.27826,"lon":5.39213,"is_reserved":false,"is_disabled":false,"rental_uris":{"android":"levelo://app?vid=93729673-f50f-4d8c-a0cc-919267756e0e","ios":"levelo://app?vid=93729673-f50f-4d8c-a0cc-919267756e0e"},"vehicle_type_id":"4","last_reported":1742278482,"current_range_meters":10000,"station_id":"ce4bhjp2rcd13ifvqga0","pricing_plan_id":"cebpf4jnsgd1na2vs0mg"},{"bike_id":"d0ecd06f-b344-485c-8550-9fa5bf448f53","system_id":"levelo_inurba_marseille","lat":43.25818,"lon":5.39466,"is_reserved":false,"is_disabled":false,"rental_uris":{"android":"levelo://app?vid=d0ecd06f-b344-485c-8550-9fa5bf448f53","ios":"levelo://app?vid=d0ecd06f-b344-485c-8550-9fa5bf448f53"},"vehicle_type_id":"4","last_reported":1742278482,"current_range_meters":10000,"station_id":"ce4bhip2rcd13ifvqft0","pricing_plan_id":"cebpf4jnsgd1na2vs0mg"},{"bike_id":"83388855-f72c-48b6-b9e8-bdfa5845ebe6","system_id":"levelo_inurba_marseille","lat":43.330104,"lon":5.390359,"is_reserved":false,"is_disabled":false,"rental_uris":{"android":"levelo://app?vid=83388855-f72c-48b6-b9e8-bdfa5845ebe6","ios":"levelo://app?vid=83388855-f72c-48b6-b9e8-bdfa5845ebe6"},"vehicle_type_id":"4","last_reported":1742278482,"current_range_meters":10000,"station_id":"ce4bhr92rcd13ifvqhrg","pricing_plan_id":"cebpf4jnsgd1na2vs0mg"},{"bike_id":"68efa26f-19bd-4d41-bebe-c8935b4d7da9","system_id":"levelo_inurba_marseille","lat":43.330259,"lon":5.390389,"is_reserved":false,"is_disabled":false,"rental_uris":{"android":"levelo://app?vid=68efa26f-19bd-4d41-bebe-c8935b4d7da9","ios":"levelo://app?vid=68efa26f-19bd-4d41-bebe-c8935b4d7da9"},"vehicle_type_id":"4","last_reported":1742278482,"current_range_meters":10000,"station_id":"ce4bhr92rcd13ifvqhrg","pricing_plan_id":"cebpf4jnsgd1na2vs0mg"},{"bike_id":"738d5a2a-1fe0-49dd-a3a3-3b9ad8ed3acf","system_id":"levelo_inurba_marseille","lat":43.29417,"lon":5.38613,"is_reserved":false,"is_disabled":true,"rental_uris":{"android":"levelo://app?vid=738d5a2a-1fe0-49dd-a3a3-3b9ad8ed3acf","ios":"levelo://app?vid=738d5a2a-1fe0-49dd-a3a3-3b9ad8ed3acf"},"vehicle_type_id":"4","last_reported":1742278482,"current_range_meters":10000,"station_id":"ce4bh2h2rcd13ifvqdh0","pricing_plan_id":"cebpf4jnsgd1na2vs0mg"},{"bike_id":"1cbb2b7c-06e0-4693-b46f-8e81a06eef8b","system_id":"levelo_inurba_marseille","lat":43.288456,"lon":5.358544,"is_reserved":false,"is_disabled":false,"rental_uris":{"android":"levelo://app?vid=1cbb2b7c-06e0-4693-b46f-8e81a06eef8b","ios":"levelo://app?vid=1cbb2b7c-06e0-4693-b46f-8e81a06eef8b"},"vehicle_type_id":"4","last_reported":1742278482,"current_range_meters":10000,"station_id":"ce4bhb12rcd13ifvqem0","pricing_plan_id":"cebpf4jnsgd1na2vs0mg"},{"bike_id":"76e24a7d-b6aa-46a7-b84a-cdc6d90b9b5a","system_id":"levelo_inurba_marseille","lat":43.32356,"lon":5.3888,"is_reserved":false,"is_disabled":false,"rental_uris":{"android":"levelo://app?vid=76e24a7d-b6aa-46a7-b84a-cdc6d90b9b5a","ios":"levelo://app?vid=76e24a7d-b6aa-46a7-b84a-cdc6d90b9b5a"},"vehicle_type_id":"4","last_reported":1742278482,"current_range_meters":10000,"station_id":"ce4bhqp2rcd13ifvqhog","pricing_plan_id":"cebpf4jnsgd1na2vs0mg"},{"bike_id":"14671431-e028-4e32-bec8-d483edad99c9","system_id":"levelo_inurba_marseille","lat":43.29222,"lon":5.36062,"is_reserved":false,"is_disabled":false,"rental_uris":{"android":"levelo://app?vid=14671431-e028-4e32-bec8-d483edad99c9","ios":"levelo://app?vid=14671431-e028-4e32-bec8-d483edad99c9"},"vehicle_type_id":"4","last_reported":1742278482,"current_range_meters":10000,"station_id":"ce4bhbh2rcd13ifvqeqg","pricing_plan_id":"cebpf4jnsgd1na2vs0mg"},{"bike_id":"8ac28d78-5edd-4b74-a78b-469ba0ce1454","system_id":"levelo_inurba_marseille","lat":43.27058,"lon":5.42286,"is_reserved":false,"is_disabled":false,"rental_uris":{"android":"levelo://app?vid=8ac28d78-5edd-4b74-a78b-469ba0ce1454","ios":"levelo://app?vid=8ac28d78-5edd-4b74-a78b-469ba0ce1454"},"vehicle_type_id":"4","last_reported":1742278482,"current_range_meters":10000,"station_id":"ce4bhk92rcd13ifvqgb0","pricing_plan_id":"cebpf4jnsgd1na2vs0mg"},{"bike_id":"4e950670-b096-4049-8c8c-3012830ea5a4","system_id":"levelo_inurba_marseille","lat":43.24392,"lon":5.37045,"is_reserved":false,"is_disabled":false,"rental_uris":{"android":"levelo://app?vid=4e950670-b096-4049-8c8c-3012830ea5a4","ios":"levelo://app?vid=4e950670-b096-4049-8c8c-3012830ea5a4"},"vehicle_type_id":"4","last_reported":1742278482,"current_range_meters":10000,"station_id":"ce4bhhh2rcd13ifvqfk0","pricing_plan_id":"cebpf4jnsgd1na2vs0mg"},{"bike_id":"0b60e72b-d8b1-4266-9b63-b94b87c1ad4b","system_id":"levelo_inurba_marseille","lat":43.231914,"lon":5.399813,"is_reserved":false,"is_disabled":false,"rental_uris":{"android":"levelo://app?vid=0b60e72b-d8b1-4266-9b63-b94b87c1ad4b","ios":"levelo://app?vid=0b60e72b-d8b1-4266-9b63-b94b87c1ad4b"},"vehicle_type_id":"4","last_reported":1742278482,"current_range_meters":10800,"station_id":"ce4bhn12rcd13ifvqgqg","pricing_plan_id":"cebpf4jnsgd1na2vs0mg"},{"bike_id":"39d2df96-c36f-4593-8a68-432fe8c8d072","system_id":"levelo_inurba_marseille","lat":43.29893,"lon":5.43661,"is_reserved":false,"is_disabled":false,"rental_uris":{"android":"levelo://app?vid=39d2df96-c36f-4593-8a68-432fe8c8d072","ios":"levelo://app?vid=39d2df96-c36f-4593-8a68-432fe8c8d072"},"vehicle_type_id":"4","last_reported":1742278482,"current_range_meters":10800,"station_id":"ce4bhpp2rcd13ifvqhfg","pricing_plan_id":"cebpf4jnsgd1na2vs0mg"},{"bike_id":"79475b52-95c4-4d5d-85e0-542cb50dc79c","system_id":"levelo_inurba_marseille","lat":43.28701,"lon":5.39985,"is_reserved":false,"is_disabled":false,"rental_uris":{"android":"levelo://app?vid=79475b52-95c4-4d5d-85e0-542cb50dc79c","ios":"levelo://app?vid=79475b52-95c4-4d5d-85e0-542cb50dc79c"},"vehicle_type_id":"4","last_reported":1742278482,"current_range_meters":10800,"station_id":"ce4bho92rcd13ifvqh3g","pricing_plan_id":"cebpf4jnsgd1na2vs0mg"},{"bike_id":"cb151f2f-c8d4-493c-8040-3bc4d320acac","system_id":"levelo_inurba_marseille","lat":43.30746,"lon":5.38187,"is_reserved":false,"is_disabled":true,"rental_uris":{"android":"levelo://app?vid=cb151f2f-c8d4-493c-8040-3bc4d320acac","ios":"levelo://app?vid=cb151f2f-c8d4-493c-8040-3bc4d320acac"},"vehicle_type_id":"4","last_reported":1742278482,"current_range_meters":10800,"station_id":"ce4bgt12rcd13ifvqce0","pricing_plan_id":"cebpf4jnsgd1na2vs0mg"},{"bike_id":"96e89a39-929a-49fe-8d6c-e47bf8ca7a6f","system_id":"levelo_inurba_marseille","lat":43.23048,"lon":5.35519,"is_reserved":false,"is_disabled":false,"rental_uris":{"android":"levelo://app?vid=96e89a39-929a-49fe-8d6c-e47bf8ca7a6f","ios":"levelo://app?vid=96e89a39-929a-49fe-8d6c-e47bf8ca7a6f"},"vehicle_type_id":"4","last_reported":1742278482,"current_range_meters":10800,"station_id":"cpo3342slgdg3j2ifvpg","pricing_plan_id":"cebpf4jnsgd1na2vs0mg"},{"bike_id":"89a9a07a-5569-426e-baa6-da72a98a25be","system_id":"levelo_inurba_marseille","lat":43.32355,"lon":5.38883,"is_reserved":false,"is_disabled":false,"rental_uris":{"android":"levelo://app?vid=89a9a07a-5569-426e-baa6-da72a98a25be","ios":"levelo://app?vid=89a9a07a-5569-426e-baa6-da72a98a25be"},"vehicle_type_id":"4","last_reported":1742278482,"current_range_meters":10800,"station_id":"ce4bhqp2rcd13ifvqhog","pricing_plan_id":"cebpf4jnsgd1na2vs0mg"},{"bike_id":"d750e5b5-ad8a-4d6d-bc53-55a7985ce36e","system_id":"levelo_inurba_marseille","lat":43.28075,"lon":5.4397,"is_reserved":false,"is_disabled":false,"rental_uris":{"android":"levelo://app?vid=d750e5b5-ad8a-4d6d-bc53-55a7985ce36e","ios":"levelo://app?vid=d750e5b5-ad8a-4d6d-bc53-55a7985ce36e"},"vehicle_type_id":"4","last_reported":1742278482,"current_range_meters":10800,"station_id":"","pricing_plan_id":"cebpf4jnsgd1na2vs0mg"},{"bike_id":"edfff627-4ced-4f9a-802b-56e39f5c1b96","system_id":"levelo_inurba_marseille","lat":43.28647,"lon":5.36383,"is_reserved":false,"is_disabled":false,"rental_uris":{"android":"levelo://app?vid=edfff627-4ced-4f9a-802b-56e39f5c1b96","ios":"levelo://app?vid=edfff627-4ced-4f9a-802b-56e39f5c1b96"},"vehicle_type_id":"4","last_reported":1742278482,"current_range_meters":11200,"station_id":"ce4bhah2rcd13ifvqej0","pricing_plan_id":"cebpf4jnsgd1na2vs0mg"},{"bike_id":"4f13e81e-3cc3-4fb5-9db5-9d18ac099db6","system_id":"levelo_inurba_marseille","lat":43.24387,"lon":5.37069,"is_reserved":false,"is_disabled":false,"rental_uris":{"android":"levelo://app?vid=4f13e81e-3cc3-4fb5-9db5-9d18ac099db6","ios":"levelo://app?vid=4f13e81e-3cc3-4fb5-9db5-9d18ac099db6"},"vehicle_type_id":"4","last_reported":1742278482,"current_range_meters":11200,"station_id":"ce4bhhh2rcd13ifvqfk0","pricing_plan_id":"cebpf4jnsgd1na2vs0mg"},{"bike_id":"503ea444-21df-470f-9afd-8b708f765d15","system_id":"levelo_inurba_marseille","lat":43.31254,"lon":5.40189,"is_reserved":false,"is_disabled":false,"rental_uris":{"android":"levelo://app?vid=503ea444-21df-470f-9afd-8b708f765d15","ios":"levelo://app?vid=503ea444-21df-470f-9afd-8b708f765d15"},"vehicle_type_id":"4","last_reported":1742278482,"current_range_meters":11200,"station_id":"ce4bh092rcd13ifvqd30","pricing_plan_id":"cebpf4jnsgd1na2vs0mg"},{"bike_id":"0dacaf5f-8c0c-4eae-885e-8b1afb941dbb","system_id":"levelo_inurba_marseille","lat":43.30454,"lon":5.37925,"is_reserved":false,"is_disabled":false,"rental_uris":{"android":"levelo://app?vid=0dacaf5f-8c0c-4eae-885e-8b1afb941dbb","ios":"levelo://app?vid=0dacaf5f-8c0c-4eae-885e-8b1afb941dbb"},"vehicle_type_id":"4","last_reported":1742278482,"current_range_meters":11200,"station_id":"ce4bgup2rcd13ifvqcn0","pricing_plan_id":"cebpf4jnsgd1na2vs0mg"},{"bike_id":"ad912979-caff-4639-917f-3d8ad67aa3d6","system_id":"levelo_inurba_marseille","lat":43.30876,"lon":5.39649,"is_reserved":false,"is_disabled":false,"rental_uris":{"android":"levelo://app?vid=ad912979-caff-4639-917f-3d8ad67aa3d6","ios":"levelo://app?vid=ad912979-caff-4639-917f-3d8ad67aa3d6"},"vehicle_type_id":"4","last_reported":1742278482,"current_range_meters":11600,"station_id":"ce4bh012rcd13ifvqcv0","pricing_plan_id":"cebpf4jnsgd1na2vs0mg"},{"bike_id":"69e81812-1e66-46bc-a002-4e728dd66493","system_id":"levelo_inurba_marseille","lat":43.28346,"lon":5.38116,"is_reserved":false,"is_disabled":false,"rental_uris":{"android":"levelo://app?vid=69e81812-1e66-46bc-a002-4e728dd66493","ios":"levelo://app?vid=69e81812-1e66-46bc-a002-4e728dd66493"},"vehicle_type_id":"4","last_reported":1742278482,"current_range_meters":11600,"station_id":"ce4bh412rcd13ifvqdr0","pricing_plan_id":"cebpf4jnsgd1na2vs0mg"},{"bike_id":"519efbbc-7577-4063-8eac-658ef30e98a3","system_id":"levelo_inurba_marseille","lat":43.24994,"lon":5.3894,"is_reserved":false,"is_disabled":false,"rental_uris":{"android":"levelo://app?vid=519efbbc-7577-4063-8eac-658ef30e98a3","ios":"levelo://app?vid=519efbbc-7577-4063-8eac-658ef30e98a3"},"vehicle_type_id":"4","last_reported":1742278482,"current_range_meters":11600,"station_id":"ce4bhgp2rcd13ifvqfd0","pricing_plan_id":"cebpf4jnsgd1na2vs0mg"},{"bike_id":"e73d0753-9aa9-46b1-8170-3b016fdb8f9a","system_id":"levelo_inurba_marseille","lat":43.330241,"lon":5.390455,"is_reserved":false,"is_disabled":false,"rental_uris":{"android":"levelo://app?vid=e73d0753-9aa9-46b1-8170-3b016fdb8f9a","ios":"levelo://app?vid=e73d0753-9aa9-46b1-8170-3b016fdb8f9a"},"vehicle_type_id":"4","last_reported":1742278482,"current_range_meters":11600,"station_id":"ce4bhr92rcd13ifvqhrg","pricing_plan_id":"cebpf4jnsgd1na2vs0mg"},{"bike_id":"b611c071-f0bb-41a2-aa25-420b921bc079","system_id":"levelo_inurba_marseille","lat":43.23065,"lon":5.35501,"is_reserved":false,"is_disabled":false,"rental_uris":{"android":"levelo://app?vid=b611c071-f0bb-41a2-aa25-420b921bc079","ios":"levelo://app?vid=b611c071-f0bb-41a2-aa25-420b921bc079"},"vehicle_type_id":"4","last_reported":1742278482,"current_range_meters":11600,"station_id":"cpo3342slgdg3j2ifvpg","pricing_plan_id":"cebpf4jnsgd1na2vs0mg"},{"bike_id":"5b9abdf1-3bd3-4da9-8cf3-0850e045aa24","system_id":"levelo_inurba_marseille","lat":43.230659,"lon":5.354968,"is_reserved":false,"is_disabled":false,"rental_uris":{"android":"levelo://app?vid=5b9abdf1-3bd3-4da9-8cf3-0850e045aa24","ios":"levelo://app?vid=5b9abdf1-3bd3-4da9-8cf3-0850e045aa24"},"vehicle_type_id":"4","last_reported":1742278482,"current_range_meters":11600,"station_id":"cpo3342slgdg3j2ifvpg","pricing_plan_id":"cebpf4jnsgd1na2vs0mg"},{"bike_id":"bae53788-0465-4ea6-ac11-f5aefb09d19a","system_id":"levelo_inurba_marseille","lat":43.273694,"lon":5.362719,"is_reserved":false,"is_disabled":false,"rental_uris":{"android":"levelo://app?vid=bae53788-0465-4ea6-ac11-f5aefb09d19a","ios":"levelo://app?vid=bae53788-0465-4ea6-ac11-f5aefb09d19a"},"vehicle_type_id":"4","last_reported":1742278482,"current_range_meters":12000,"station_id":"ce4bhbh2rcd13ifvqeo0","pricing_plan_id":"cebpf4jnsgd1na2vs0mg"},{"bike_id":"b2e3d496-c547-48d6-9d79-b7fb6408db4e","system_id":"levelo_inurba_marseille","lat":43.28347,"lon":5.38128,"is_reserved":false,"is_disabled":false,"rental_uris":{"android":"levelo://app?vid=b2e3d496-c547-48d6-9d79-b7fb6408db4e","ios":"levelo://app?vid=b2e3d496-c547-48d6-9d79-b7fb6408db4e"},"vehicle_type_id":"4","last_reported":1742278482,"current_range_meters":12000,"station_id":"ce4bh412rcd13ifvqdr0","pricing_plan_id":"cebpf4jnsgd1na2vs0mg"},{"bike_id":"49ea8e69-55c5-4442-932a-be3093fc34a4","system_id":"levelo_inurba_marseille","lat":43.302443,"lon":5.400615,"is_reserved":false,"is_disabled":false,"rental_uris":{"android":"levelo://app?vid=49ea8e69-55c5-4442-932a-be3093fc34a4","ios":"levelo://app?vid=49ea8e69-55c5-4442-932a-be3093fc34a4"},"vehicle_type_id":"4","last_reported":1742278482,"current_range_meters":12000,"station_id":"ce4bgvh2rcd13ifvqcs0","pricing_plan_id":"cebpf4jnsgd1na2vs0mg"},{"bike_id":"1792d8d9-94e9-4be8-a943-d43bd76d9d82","system_id":"levelo_inurba_marseille","lat":43.29859,"lon":5.38931,"is_reserved":false,"is_disabled":true,"rental_uris":{"android":"levelo://app?vid=1792d8d9-94e9-4be8-a943-d43bd76d9d82","ios":"levelo://app?vid=1792d8d9-94e9-4be8-a943-d43bd76d9d82"},"vehicle_type_id":"4","last_reported":1742278482,"current_range_meters":12000,"station_id":"ce4bh392rcd13ifvqdl0","pricing_plan_id":"cebpf4jnsgd1na2vs0mg"},{"bike_id":"8a4d1e08-22d8-45eb-b2a7-82757eceb24c","system_id":"levelo_inurba_marseille","lat":43.28612,"lon":5.35108,"is_reserved":false,"is_disabled":false,"rental_uris":{"android":"levelo://app?vid=8a4d1e08-22d8-45eb-b2a7-82757eceb24c","ios":"levelo://app?vid=8a4d1e08-22d8-45eb-b2a7-82757eceb24c"},"vehicle_type_id":"4","last_reported":1742278482,"current_range_meters":12000,"station_id":"ce4bhch2rcd13ifvqeug","pricing_plan_id":"cebpf4jnsgd1na2vs0mg"},{"bike_id":"2a996232-3ff7-4452-a56b-d5a9bd19f0f6","system_id":"levelo_inurba_marseille","lat":43.26552,"lon":5.39046,"is_reserved":false,"is_disabled":false,"rental_uris":{"android":"levelo://app?vid=2a996232-3ff7-4452-a56b-d5a9bd19f0f6","ios":"levelo://app?vid=2a996232-3ff7-4452-a56b-d5a9bd19f0f6"},"vehicle_type_id":"4","last_reported":1742278482,"current_range_meters":12000,"station_id":"ce4bhe12rcd13ifvqf30","pricing_plan_id":"cebpf4jnsgd1na2vs0mg"},{"bike_id":"ce774e89-e025-4591-b6af-fbdc1caf5fcf","system_id":"levelo_inurba_marseille","lat":43.31052,"lon":5.38359,"is_reserved":false,"is_disabled":false,"rental_uris":{"android":"levelo://app?vid=ce774e89-e025-4591-b6af-fbdc1caf5fcf","ios":"levelo://app?vid=ce774e89-e025-4591-b6af-fbdc1caf5fcf"},"vehicle_type_id":"4","last_reported":1742278482,"current_range_meters":12000,"station_id":"ce4bgv92rcd13ifvqcr0","pricing_plan_id":"cebpf4jnsgd1na2vs0mg"},{"bike_id":"69c60920-4190-479f-8615-c3f960573ed4","system_id":"levelo_inurba_marseille","lat":43.320269,"lon":5.380775,"is_reserved":false,"is_disabled":false,"rental_uris":{"android":"levelo://app?vid=69c60920-4190-479f-8615-c3f960573ed4","ios":"levelo://app?vid=69c60920-4190-479f-8615-c3f960573ed4"},"vehicle_type_id":"4","last_reported":1742278482,"current_range_meters":12000,"station_id":"","pricing_plan_id":"cebpf4jnsgd1na2vs0mg"},{"bike_id":"7cf1ad78-ae4b-48aa-9186-8774f5fc86aa","system_id":"levelo_inurba_marseille","lat":43.2767,"lon":5.38891,"is_reserved":false,"is_disabled":false,"rental_uris":{"android":"levelo://app?vid=7cf1ad78-ae4b-48aa-9186-8774f5fc86aa","ios":"levelo://app?vid=7cf1ad78-ae4b-48aa-9186-8774f5fc86aa"},"vehicle_type_id":"4","last_reported":1742278482,"current_range_meters":11600,"station_id":"ce4bhi12rcd13ifvqfo0","pricing_plan_id":"cebpf4jnsgd1na2vs0mg"},{"bike_id":"6d985db4-1dee-417e-a887-82d742f29815","system_id":"levelo_inurba_marseille","lat":43.27056,"lon":5.40258,"is_reserved":false,"is_disabled":true,"rental_uris":{"android":"levelo://app?vid=6d985db4-1dee-417e-a887-82d742f29815","ios":"levelo://app?vid=6d985db4-1dee-417e-a887-82d742f29815"},"vehicle_type_id":"4","last_reported":1742278482,"current_range_meters":12400,"station_id":"ce4bhk92rcd13ifvqgc0","pricing_plan_id":"cebpf4jnsgd1na2vs0mg"},{"bike_id":"d00028dc-9b0d-47df-ad9d-778d21fb21b2","system_id":"levelo_inurba_marseille","lat":43.23183,"lon":5.35558,"is_reserved":false,"is_disabled":false,"rental_uris":{"android":"levelo://app?vid=d00028dc-9b0d-47df-ad9d-778d21fb21b2","ios":"levelo://app?vid=d00028dc-9b0d-47df-ad9d-778d21fb21b2"},"vehicle_type_id":"4","last_reported":1742278482,"current_range_meters":12400,"station_id":"ce4bhu92rcd13ifvqi70","pricing_plan_id":"cebpf4jnsgd1na2vs0mg"},{"bike_id":"522f99cb-f105-4bf1-8b05-dccec75ba908","system_id":"levelo_inurba_marseille","lat":43.302756,"lon":5.37683,"is_reserved":false,"is_disabled":true,"rental_uris":{"android":"levelo://app?vid=522f99cb-f105-4bf1-8b05-dccec75ba908","ios":"levelo://app?vid=522f99cb-f105-4bf1-8b05-dccec75ba908"},"vehicle_type_id":"4","last_reported":1742278482,"current_range_meters":12400,"station_id":"","pricing_plan_id":"cebpf4jnsgd1na2vs0mg"},{"bike_id":"1815d1cb-df39-4556-a77f-7dca1f1c06cf","system_id":"levelo_inurba_marseille","lat":43.25576,"lon":5.38244,"is_reserved":false,"is_disabled":false,"rental_uris":{"android":"levelo://app?vid=1815d1cb-df39-4556-a77f-7dca1f1c06cf","ios":"levelo://app?vid=1815d1cb-df39-4556-a77f-7dca1f1c06cf"},"vehicle_type_id":"4","last_reported":1742278482,"current_range_meters":12400,"station_id":"ce4bhih2rcd13ifvqfs0","pricing_plan_id":"cebpf4jnsgd1na2vs0mg"},{"bike_id":"52f71405-f6a3-4dcb-9351-93f3d88614de","system_id":"levelo_inurba_marseille","lat":43.28253,"lon":5.35075,"is_reserved":false,"is_disabled":true,"rental_uris":{"android":"levelo://app?vid=52f71405-f6a3-4dcb-9351-93f3d88614de","ios":"levelo://app?vid=52f71405-f6a3-4dcb-9351-93f3d88614de"},"vehicle_type_id":"4","last_reported":1742278482,"current_range_meters":12400,"station_id":"ce4bhbp2rcd13ifvqerg","pricing_plan_id":"cebpf4jnsgd1na2vs0mg"},{"bike_id":"0115ca1f-4c74-4f2c-87dd-beb67b595748","system_id":"levelo_inurba_marseille","lat":43.257229,"lon":5.411101,"is_reserved":false,"is_disabled":false,"rental_uris":{"android":"levelo://app?vid=0115ca1f-4c74-4f2c-87dd-beb67b595748","ios":"levelo://app?vid=0115ca1f-4c74-4f2c-87dd-beb67b595748"},"vehicle_type_id":"4","last_reported":1742278482,"current_range_meters":12400,"station_id":"ce4bhkp2rcd13ifvqgd0","pricing_plan_id":"cebpf4jnsgd1na2vs0mg"},{"bike_id":"cac5a37e-d96e-40f4-a8ee-8b3f2f9585be","system_id":"levelo_inurba_marseille","lat":43.284,"lon":5.37528,"is_reserved":false,"is_disabled":false,"rental_uris":{"android":"levelo://app?vid=cac5a37e-d96e-40f4-a8ee-8b3f2f9585be","ios":"levelo://app?vid=cac5a37e-d96e-40f4-a8ee-8b3f2f9585be"},"vehicle_type_id":"4","last_reported":1742278482,"current_range_meters":12400,"station_id":"ce4bh412rcd13ifvqds0","pricing_plan_id":"cebpf4jnsgd1na2vs0mg"},{"bike_id":"ceb28801-3637-4268-a6b5-1a1cbbe47f56","system_id":"levelo_inurba_marseille","lat":43.29171,"lon":5.40908,"is_reserved":false,"is_disabled":false,"rental_uris":{"android":"levelo://app?vid=ceb28801-3637-4268-a6b5-1a1cbbe47f56","ios":"levelo://app?vid=ceb28801-3637-4268-a6b5-1a1cbbe47f56"},"vehicle_type_id":"4","last_reported":1742278482,"current_range_meters":12400,"station_id":"","pricing_plan_id":"cebpf4jnsgd1na2vs0mg"},{"bike_id":"c56d01fa-72e7-4c41-b43d-f87e4c0b4774","system_id":"levelo_inurba_marseille","lat":43.26214,"lon":5.40473,"is_reserved":false,"is_disabled":false,"rental_uris":{"android":"levelo://app?vid=c56d01fa-72e7-4c41-b43d-f87e4c0b4774","ios":"levelo://app?vid=c56d01fa-72e7-4c41-b43d-f87e4c0b4774"},"vehicle_type_id":"4","last_reported":1742278482,"current_range_meters":12400,"station_id":"ce4bhmh2rcd13ifvqgmg","pricing_plan_id":"cebpf4jnsgd1na2vs0mg"},{"bike_id":"2e2061a1-5f41-4b16-8432-f15a0f775ae4","system_id":"levelo_inurba_marseille","lat":43.27794,"lon":5.40778,"is_reserved":false,"is_disabled":false,"rental_uris":{"android":"levelo://app?vid=2e2061a1-5f41-4b16-8432-f15a0f775ae4","ios":"levelo://app?vid=2e2061a1-5f41-4b16-8432-f15a0f775ae4"},"vehicle_type_id":"4","last_reported":1742278482,"current_range_meters":12800,"station_id":"","pricing_plan_id":"cebpf4jnsgd1na2vs0mg"},{"bike_id":"90cb5d36-c218-4ec9-b5e8-18030c9fbd25","system_id":"levelo_inurba_marseille","lat":43.28075,"lon":5.37898,"is_reserved":false,"is_disabled":false,"rental_uris":{"android":"levelo://app?vid=90cb5d36-c218-4ec9-b5e8-18030c9fbd25","ios":"levelo://app?vid=90cb5d36-c218-4ec9-b5e8-18030c9fbd25"},"vehicle_type_id":"4","last_reported":1742278482,"current_range_meters":12800,"station_id":"","pricing_plan_id":"cebpf4jnsgd1na2vs0mg"},{"bike_id":"0b23e3a4-76cd-4c4b-a20c-6c16ebff5dc2","system_id":"levelo_inurba_marseille","lat":43.28341,"lon":5.38121,"is_reserved":false,"is_disabled":false,"rental_uris":{"android":"levelo://app?vid=0b23e3a4-76cd-4c4b-a20c-6c16ebff5dc2","ios":"levelo://app?vid=0b23e3a4-76cd-4c4b-a20c-6c16ebff5dc2"},"vehicle_type_id":"4","last_reported":1742278482,"current_range_meters":12800,"station_id":"ce4bh412rcd13ifvqdr0","pricing_plan_id":"cebpf4jnsgd1na2vs0mg"},{"bike_id":"8e5a7bf6-ece1-4255-a012-c2d84a797fb5","system_id":"levelo_inurba_marseille","lat":43.29008,"lon":5.38147,"is_reserved":false,"is_disabled":true,"rental_uris":{"android":"levelo://app?vid=8e5a7bf6-ece1-4255-a012-c2d84a797fb5","ios":"levelo://app?vid=8e5a7bf6-ece1-4255-a012-c2d84a797fb5"},"vehicle_type_id":"4","last_reported":1742278482,"current_range_meters":12800,"station_id":"ce4bh4p2rcd13ifvqe1g","pricing_plan_id":"cebpf4jnsgd1na2vs0mg"},{"bike_id":"d9ba8c89-85c9-431f-80ea-43836b1e7c51","system_id":"levelo_inurba_marseille","lat":43.25564,"lon":5.38258,"is_reserved":false,"is_disabled":false,"rental_uris":{"android":"levelo://app?vid=d9ba8c89-85c9-431f-80ea-43836b1e7c51","ios":"levelo://app?vid=d9ba8c89-85c9-431f-80ea-43836b1e7c51"},"vehicle_type_id":"4","last_reported":1742278482,"current_range_meters":12800,"station_id":"ce4bhih2rcd13ifvqfs0","pricing_plan_id":"cebpf4jnsgd1na2vs0mg"},{"bike_id":"ca1c0a28-8faf-435f-9d8b-370c3a07ff34","system_id":"levelo_inurba_marseille","lat":43.24158,"lon":5.3642,"is_reserved":false,"is_disabled":false,"rental_uris":{"android":"levelo://app?vid=ca1c0a28-8faf-435f-9d8b-370c3a07ff34","ios":"levelo://app?vid=ca1c0a28-8faf-435f-9d8b-370c3a07ff34"},"vehicle_type_id":"4","last_reported":1742278482,"current_range_meters":12800,"station_id":"cpo36qri1sfpv3e86is0","pricing_plan_id":"cebpf4jnsgd1na2vs0mg"},{"bike_id":"ffbd3848-dcdb-4e34-ade3-7a94d9cd2780","system_id":"levelo_inurba_marseille","lat":43.269337,"lon":5.402779,"is_reserved":false,"is_disabled":false,"rental_uris":{"android":"levelo://app?vid=ffbd3848-dcdb-4e34-ade3-7a94d9cd2780","ios":"levelo://app?vid=ffbd3848-dcdb-4e34-ade3-7a94d9cd2780"},"vehicle_type_id":"4","last_reported":1742278482,"current_range_meters":12800,"station_id":"cjm6bp8fraef2m0cb0m0","pricing_plan_id":"cebpf4jnsgd1na2vs0mg"},{"bike_id":"358f5aab-7b63-4826-bc44-0ce9d0afdb17","system_id":"levelo_inurba_marseille","lat":43.2679,"lon":5.40267,"is_reserved":false,"is_disabled":false,"rental_uris":{"android":"levelo://app?vid=358f5aab-7b63-4826-bc44-0ce9d0afdb17","ios":"levelo://app?vid=358f5aab-7b63-4826-bc44-0ce9d0afdb17"},"vehicle_type_id":"4","last_reported":1742278482,"current_range_meters":12800,"station_id":"ce501612rcd8frsf0b60","pricing_plan_id":"cebpf4jnsgd1na2vs0mg"},{"bike_id":"5fad7cfb-4a9e-4083-a305-53e7b2fa77f0","system_id":"levelo_inurba_marseille","lat":43.28083,"lon":5.37878,"is_reserved":false,"is_disabled":false,"rental_uris":{"android":"levelo://app?vid=5fad7cfb-4a9e-4083-a305-53e7b2fa77f0","ios":"levelo://app?vid=5fad7cfb-4a9e-4083-a305-53e7b2fa77f0"},"vehicle_type_id":"4","last_reported":1742278482,"current_range_meters":13600,"station_id":"ce4bha12rcd13ifvqee0","pricing_plan_id":"cebpf4jnsgd1na2vs0mg"},{"bike_id":"416131ac-dc4d-4eb0-916f-73a702a6ff95","system_id":"levelo_inurba_marseille","lat":43.31722,"lon":5.42385,"is_reserved":false,"is_disabled":false,"rental_uris":{"android":"levelo://app?vid=416131ac-dc4d-4eb0-916f-73a702a6ff95","ios":"levelo://app?vid=416131ac-dc4d-4eb0-916f-73a702a6ff95"},"vehicle_type_id":"4","last_reported":1742278482,"current_range_meters":13600,"station_id":"ce4bhp92rcd13ifvqhbg","pricing_plan_id":"cebpf4jnsgd1na2vs0mg"},{"bike_id":"ae5607e8-7e53-43b8-bdfb-f4fb95825493","system_id":"levelo_inurba_marseille","lat":43.26905,"lon":5.38468,"is_reserved":false,"is_disabled":false,"rental_uris":{"android":"levelo://app?vid=ae5607e8-7e53-43b8-bdfb-f4fb95825493","ios":"levelo://app?vid=ae5607e8-7e53-43b8-bdfb-f4fb95825493"},"vehicle_type_id":"4","last_reported":1742278482,"current_range_meters":13600,"station_id":"","pricing_plan_id":"cebpf4jnsgd1na2vs0mg"},{"bike_id":"175919c0-deb0-4e48-9a06-eea90edc3e69","system_id":"levelo_inurba_marseille","lat":43.232,"lon":5.35593,"is_reserved":false,"is_disabled":false,"rental_uris":{"android":"levelo://app?vid=175919c0-deb0-4e48-9a06-eea90edc3e69","ios":"levelo://app?vid=175919c0-deb0-4e48-9a06-eea90edc3e69"},"vehicle_type_id":"4","last_reported":1742278482,"current_range_meters":13600,"station_id":"ce4bhu92rcd13ifvqi70","pricing_plan_id":"cebpf4jnsgd1na2vs0mg"},{"bike_id":"ab11fa9b-759f-447f-a4f1-b143e2360775","system_id":"levelo_inurba_marseille","lat":43.31362,"lon":5.39172,"is_reserved":false,"is_disabled":false,"rental_uris":{"android":"levelo://app?vid=ab11fa9b-759f-447f-a4f1-b143e2360775","ios":"levelo://app?vid=ab11fa9b-759f-447f-a4f1-b143e2360775"},"vehicle_type_id":"4","last_reported":1742278482,"current_range_meters":13600,"station_id":"","pricing_plan_id":"cebpf4jnsgd1na2vs0mg"},{"bike_id":"37a37498-476e-45d8-89f8-11c6020bfc9d","system_id":"levelo_inurba_marseille","lat":43.30876,"lon":5.39629,"is_reserved":false,"is_disabled":false,"rental_uris":{"android":"levelo://app?vid=37a37498-476e-45d8-89f8-11c6020bfc9d","ios":"levelo://app?vid=37a37498-476e-45d8-89f8-11c6020bfc9d"},"vehicle_type_id":"4","last_reported":1742278482,"current_range_meters":13600,"station_id":"ce4bh012rcd13ifvqcv0","pricing_plan_id":"cebpf4jnsgd1na2vs0mg"},{"bike_id":"ca93da27-a12a-4d6c-9a6e-ab39aa486f24","system_id":"levelo_inurba_marseille","lat":43.28409,"lon":5.34989,"is_reserved":false,"is_disabled":false,"rental_uris":{"android":"levelo://app?vid=ca93da27-a12a-4d6c-9a6e-ab39aa486f24","ios":"levelo://app?vid=ca93da27-a12a-4d6c-9a6e-ab39aa486f24"},"vehicle_type_id":"4","last_reported":1742278482,"current_range_meters":13600,"station_id":"ce4bhbh2rcd13ifvqepg","pricing_plan_id":"cebpf4jnsgd1na2vs0mg"},{"bike_id":"b3e77073-222d-4f08-97e1-729a2c44c2e2","system_id":"levelo_inurba_marseille","lat":43.2416,"lon":5.36399,"is_reserved":false,"is_disabled":false,"rental_uris":{"android":"levelo://app?vid=b3e77073-222d-4f08-97e1-729a2c44c2e2","ios":"levelo://app?vid=b3e77073-222d-4f08-97e1-729a2c44c2e2"},"vehicle_type_id":"4","last_reported":1742278482,"current_range_meters":14000,"station_id":"cpo36qri1sfpv3e86is0","pricing_plan_id":"cebpf4jnsgd1na2vs0mg"},{"bike_id":"fbc1d39d-8a74-485c-b223-434b00da1b4d","system_id":"levelo_inurba_marseille","lat":43.28577,"lon":5.38948,"is_reserved":false,"is_disabled":false,"rental_uris":{"android":"levelo://app?vid=fbc1d39d-8a74-485c-b223-434b00da1b4d","ios":"levelo://app?vid=fbc1d39d-8a74-485c-b223-434b00da1b4d"},"vehicle_type_id":"4","last_reported":1742278482,"current_range_meters":14000,"station_id":"","pricing_plan_id":"cebpf4jnsgd1na2vs0mg"},{"bike_id":"89cb3140-d211-4c4d-97ca-7e01c3c4da90","system_id":"levelo_inurba_marseille","lat":43.231939,"lon":5.355561,"is_reserved":false,"is_disabled":false,"rental_uris":{"android":"levelo://app?vid=89cb3140-d211-4c4d-97ca-7e01c3c4da90","ios":"levelo://app?vid=89cb3140-d211-4c4d-97ca-7e01c3c4da90"},"vehicle_type_id":"4","last_reported":1742278482,"current_range_meters":14000,"station_id":"ce4bhu92rcd13ifvqi70","pricing_plan_id":"cebpf4jnsgd1na2vs0mg"},{"bike_id":"efbf13ea-8cdf-4a21-a399-0d1d6ea79b91","system_id":"levelo_inurba_marseille","lat":43.29509,"lon":5.39422,"is_reserved":false,"is_disabled":false,"rental_uris":{"android":"levelo://app?vid=efbf13ea-8cdf-4a21-a399-0d1d6ea79b91","ios":"levelo://app?vid=efbf13ea-8cdf-4a21-a399-0d1d6ea79b91"},"vehicle_type_id":"4","last_reported":1742278482,"current_range_meters":14000,"station_id":"ce4bh292rcd13ifvqdf0","pricing_plan_id":"cebpf4jnsgd1na2vs0mg"},{"bike_id":"07496132-0909-4bb6-b2a5-b7ef5016fccf","system_id":"levelo_inurba_marseille","lat":43.26032,"lon":5.3755,"is_reserved":false,"is_disabled":false,"rental_uris":{"android":"levelo://app?vid=07496132-0909-4bb6-b2a5-b7ef5016fccf","ios":"levelo://app?vid=07496132-0909-4bb6-b2a5-b7ef5016fccf"},"vehicle_type_id":"4","last_reported":1742278482,"current_range_meters":13600,"station_id":"ce4bhgh2rcd13ifvqfa0","pricing_plan_id":"cebpf4jnsgd1na2vs0mg"},{"bike_id":"0e5e2eae-194e-48af-b00d-85746429d2a4","system_id":"levelo_inurba_marseille","lat":43.28458,"lon":5.39201,"is_reserved":false,"is_disabled":false,"rental_uris":{"android":"levelo://app?vid=0e5e2eae-194e-48af-b00d-85746429d2a4","ios":"levelo://app?vid=0e5e2eae-194e-48af-b00d-85746429d2a4"},"vehicle_type_id":"4","last_reported":1742278482,"current_range_meters":14000,"station_id":"ce4bhoh2rcd13ifvqh5g","pricing_plan_id":"cebpf4jnsgd1na2vs0mg"},{"bike_id":"129f0fa3-d9e0-46c6-96c6-dc0ccb0f0821","system_id":"levelo_inurba_marseille","lat":43.29604,"lon":5.3811,"is_reserved":false,"is_disabled":false,"rental_uris":{"android":"levelo://app?vid=129f0fa3-d9e0-46c6-96c6-dc0ccb0f0821","ios":"levelo://app?vid=129f0fa3-d9e0-46c6-96c6-dc0ccb0f0821"},"vehicle_type_id":"4","last_reported":1742278482,"current_range_meters":14400,"station_id":"ce4bgl12rcd13ifvqbo0","pricing_plan_id":"cebpf4jnsgd1na2vs0mg"},{"bike_id":"f756af3a-bb86-47ef-868b-a23db24477df","system_id":"levelo_inurba_marseille","lat":43.23201,"lon":5.39996,"is_reserved":false,"is_disabled":false,"rental_uris":{"android":"levelo://app?vid=f756af3a-bb86-47ef-868b-a23db24477df","ios":"levelo://app?vid=f756af3a-bb86-47ef-868b-a23db24477df"},"vehicle_type_id":"4","last_reported":1742278482,"current_range_meters":14400,"station_id":"ce4bhn12rcd13ifvqgqg","pricing_plan_id":"cebpf4jnsgd1na2vs0mg"},{"bike_id":"01cd1ae6-bf8d-4270-b368-31e9791618b1","system_id":"levelo_inurba_marseille","lat":43.31339,"lon":5.36736,"is_reserved":false,"is_disabled":false,"rental_uris":{"android":"levelo://app?vid=01cd1ae6-bf8d-4270-b368-31e9791618b1","ios":"levelo://app?vid=01cd1ae6-bf8d-4270-b368-31e9791618b1"},"vehicle_type_id":"4","last_reported":1742278482,"current_range_meters":14800,"station_id":"ce4bgr92rcd13ifvqc6g","pricing_plan_id":"cebpf4jnsgd1na2vs0mg"},{"bike_id":"b7105cca-14fa-4c99-84e8-bf3944939eba","system_id":"levelo_inurba_marseille","lat":43.31326,"lon":5.39704,"is_reserved":false,"is_disabled":false,"rental_uris":{"android":"levelo://app?vid=b7105cca-14fa-4c99-84e8-bf3944939eba","ios":"levelo://app?vid=b7105cca-14fa-4c99-84e8-bf3944939eba"},"vehicle_type_id":"4","last_reported":1742278482,"current_range_meters":14800,"station_id":"ce4bgvp2rcd13ifvqcu0","pricing_plan_id":"cebpf4jnsgd1na2vs0mg"},{"bike_id":"a0f40267-bfd4-4569-bc6e-8bd2ccaaa48a","system_id":"levelo_inurba_marseille","lat":43.28465,"lon":5.35885,"is_reserved":false,"is_disabled":false,"rental_uris":{"android":"levelo://app?vid=a0f40267-bfd4-4569-bc6e-8bd2ccaaa48a","ios":"levelo://app?vid=a0f40267-bfd4-4569-bc6e-8bd2ccaaa48a"},"vehicle_type_id":"4","last_reported":1742278482,"current_range_meters":14800,"station_id":"ce4bhah2rcd13ifvqei0","pricing_plan_id":"cebpf4jnsgd1na2vs0mg"},{"bike_id":"50880c33-fb65-4637-84ac-20bb27eda8b5","system_id":"levelo_inurba_marseille","lat":43.23189,"lon":5.35574,"is_reserved":false,"is_disabled":false,"rental_uris":{"android":"levelo://app?vid=50880c33-fb65-4637-84ac-20bb27eda8b5","ios":"levelo://app?vid=50880c33-fb65-4637-84ac-20bb27eda8b5"},"vehicle_type_id":"4","last_reported":1742278482,"current_range_meters":14800,"station_id":"ce4bhu92rcd13ifvqi70","pricing_plan_id":"cebpf4jnsgd1na2vs0mg"},{"bike_id":"46fb0b1b-1955-4ab4-b766-1924deb90ec6","system_id":"levelo_inurba_marseille","lat":43.24074,"lon":5.37748,"is_reserved":false,"is_disabled":false,"rental_uris":{"android":"levelo://app?vid=46fb0b1b-1955-4ab4-b766-1924deb90ec6","ios":"levelo://app?vid=46fb0b1b-1955-4ab4-b766-1924deb90ec6"},"vehicle_type_id":"4","last_reported":1742278482,"current_range_meters":14800,"station_id":"ce4bhnp2rcd13ifvqgvg","pricing_plan_id":"cebpf4jnsgd1na2vs0mg"},{"bike_id":"4d1e08b1-62d4-45bd-99bd-03b376e11758","system_id":"levelo_inurba_marseille","lat":43.33012,"lon":5.39047,"is_reserved":false,"is_disabled":false,"rental_uris":{"android":"levelo://app?vid=4d1e08b1-62d4-45bd-99bd-03b376e11758","ios":"levelo://app?vid=4d1e08b1-62d4-45bd-99bd-03b376e11758"},"vehicle_type_id":"4","last_reported":1742278482,"current_range_meters":15200,"station_id":"ce4bhr92rcd13ifvqhrg","pricing_plan_id":"cebpf4jnsgd1na2vs0mg"},{"bike_id":"89c71be1-4e0c-4e4c-b380-146488b4338b","system_id":"levelo_inurba_marseille","lat":43.230501,"lon":5.354917,"is_reserved":false,"is_disabled":false,"rental_uris":{"android":"levelo://app?vid=89c71be1-4e0c-4e4c-b380-146488b4338b","ios":"levelo://app?vid=89c71be1-4e0c-4e4c-b380-146488b4338b"},"vehicle_type_id":"4","last_reported":1742278482,"current_range_meters":15200,"station_id":"cpo3342slgdg3j2ifvpg","pricing_plan_id":"cebpf4jnsgd1na2vs0mg"},{"bike_id":"d79ae72f-c854-430e-8859-f8cc05c8dcc2","system_id":"levelo_inurba_marseille","lat":43.28265,"lon":5.35068,"is_reserved":false,"is_disabled":false,"rental_uris":{"android":"levelo://app?vid=d79ae72f-c854-430e-8859-f8cc05c8dcc2","ios":"levelo://app?vid=d79ae72f-c854-430e-8859-f8cc05c8dcc2"},"vehicle_type_id":"4","last_reported":1742278482,"current_range_meters":15200,"station_id":"ce4bhbp2rcd13ifvqerg","pricing_plan_id":"cebpf4jnsgd1na2vs0mg"},{"bike_id":"baf89664-afe7-403c-a15d-4f956a39db8b","system_id":"levelo_inurba_marseille","lat":43.24391,"lon":5.37053,"is_reserved":false,"is_disabled":false,"rental_uris":{"android":"levelo://app?vid=baf89664-afe7-403c-a15d-4f956a39db8b","ios":"levelo://app?vid=baf89664-afe7-403c-a15d-4f956a39db8b"},"vehicle_type_id":"4","last_reported":1742278482,"current_range_meters":15200,"station_id":"ce4bhhh2rcd13ifvqfk0","pricing_plan_id":"cebpf4jnsgd1na2vs0mg"},{"bike_id":"612c7dec-768e-40ad-b127-631266c53f85","system_id":"levelo_inurba_marseille","lat":43.25871,"lon":5.3989,"is_reserved":false,"is_disabled":false,"rental_uris":{"android":"levelo://app?vid=612c7dec-768e-40ad-b127-631266c53f85","ios":"levelo://app?vid=612c7dec-768e-40ad-b127-631266c53f85"},"vehicle_type_id":"4","last_reported":1742278482,"current_range_meters":15200,"station_id":"ce4bhl92rcd13ifvqghg","pricing_plan_id":"cebpf4jnsgd1na2vs0mg"},{"bike_id":"7dce552b-b1c6-4b09-8149-cae7ba937df2","system_id":"levelo_inurba_marseille","lat":43.29296,"lon":5.4089,"is_reserved":false,"is_disabled":false,"rental_uris":{"android":"levelo://app?vid=7dce552b-b1c6-4b09-8149-cae7ba937df2","ios":"levelo://app?vid=7dce552b-b1c6-4b09-8149-cae7ba937df2"},"vehicle_type_id":"4","last_reported":1742278482,"current_range_meters":16000,"station_id":"ce4bh192rcd13ifvqdc0","pricing_plan_id":"cebpf4jnsgd1na2vs0mg"},{"bike_id":"df875675-2fbc-4d55-90b5-998924317d2e","system_id":"levelo_inurba_marseille","lat":43.31534,"lon":5.38056,"is_reserved":false,"is_disabled":false,"rental_uris":{"android":"levelo://app?vid=df875675-2fbc-4d55-90b5-998924317d2e","ios":"levelo://app?vid=df875675-2fbc-4d55-90b5-998924317d2e"},"vehicle_type_id":"4","last_reported":1742278482,"current_range_meters":16000,"station_id":"ce4bhsp2rcd13ifvqi50","pricing_plan_id":"cebpf4jnsgd1na2vs0mg"},{"bike_id":"97012ab7-a8e3-4d9a-9947-3f3701707313","system_id":"levelo_inurba_marseille","lat":43.25818,"lon":5.3944,"is_reserved":false,"is_disabled":false,"rental_uris":{"android":"levelo://app?vid=97012ab7-a8e3-4d9a-9947-3f3701707313","ios":"levelo://app?vid=97012ab7-a8e3-4d9a-9947-3f3701707313"},"vehicle_type_id":"4","last_reported":1742278482,"current_range_meters":16000,"station_id":"ce4bhip2rcd13ifvqft0","pricing_plan_id":"cebpf4jnsgd1na2vs0mg"},{"bike_id":"e7f562c7-c446-4a60-8f0d-9634259dd0da","system_id":"levelo_inurba_marseille","lat":43.28394,"lon":5.37519,"is_reserved":false,"is_disabled":false,"rental_uris":{"android":"levelo://app?vid=e7f562c7-c446-4a60-8f0d-9634259dd0da","ios":"levelo://app?vid=e7f562c7-c446-4a60-8f0d-9634259dd0da"},"vehicle_type_id":"4","last_reported":1742278482,"current_range_meters":16000,"station_id":"ce4bh412rcd13ifvqds0","pricing_plan_id":"cebpf4jnsgd1na2vs0mg"},{"bike_id":"5dd3a975-247a-45a4-915d-e010cc053c55","system_id":"levelo_inurba_marseille","lat":43.308856,"lon":5.396532,"is_reserved":false,"is_disabled":false,"rental_uris":{"android":"levelo://app?vid=5dd3a975-247a-45a4-915d-e010cc053c55","ios":"levelo://app?vid=5dd3a975-247a-45a4-915d-e010cc053c55"},"vehicle_type_id":"4","last_reported":1742278482,"current_range_meters":16000,"station_id":"ce4bh092rcd13ifvqd20","pricing_plan_id":"cebpf4jnsgd1na2vs0mg"},{"bike_id":"328c9321-bdee-40c0-b153-ab441d6322d6","system_id":"levelo_inurba_marseille","lat":43.32365,"lon":5.36773,"is_reserved":false,"is_disabled":false,"rental_uris":{"android":"levelo://app?vid=328c9321-bdee-40c0-b153-ab441d6322d6","ios":"levelo://app?vid=328c9321-bdee-40c0-b153-ab441d6322d6"},"vehicle_type_id":"4","last_reported":1742278482,"current_range_meters":16000,"station_id":"ce4bhsh2rcd13ifvqi2g","pricing_plan_id":"cebpf4jnsgd1na2vs0mg"},{"bike_id":"36039125-2a17-48d0-b828-86cfdcb61646","system_id":"levelo_inurba_marseille","lat":43.304159,"lon":5.41287,"is_reserved":false,"is_disabled":true,"rental_uris":{"android":"levelo://app?vid=36039125-2a17-48d0-b828-86cfdcb61646","ios":"levelo://app?vid=36039125-2a17-48d0-b828-86cfdcb61646"},"vehicle_type_id":"4","last_reported":1742278482,"current_range_meters":16000,"station_id":"ce4bhop2rcd13ifvqh8g","pricing_plan_id":"cebpf4jnsgd1na2vs0mg"},{"bike_id":"622d751f-b3ec-4b6e-b993-11196d96c9d9","system_id":"levelo_inurba_marseille","lat":43.28432,"lon":5.39197,"is_reserved":false,"is_disabled":false,"rental_uris":{"android":"levelo://app?vid=622d751f-b3ec-4b6e-b993-11196d96c9d9","ios":"levelo://app?vid=622d751f-b3ec-4b6e-b993-11196d96c9d9"},"vehicle_type_id":"4","last_reported":1742278482,"current_range_meters":16000,"station_id":"ce4bhoh2rcd13ifvqh5g","pricing_plan_id":"cebpf4jnsgd1na2vs0mg"},{"bike_id":"fbe5248a-99c9-47ac-a734-21990a4411d0","system_id":"levelo_inurba_marseille","lat":43.26558,"lon":5.37294,"is_reserved":false,"is_disabled":false,"rental_uris":{"android":"levelo://app?vid=fbe5248a-99c9-47ac-a734-21990a4411d0","ios":"levelo://app?vid=fbe5248a-99c9-47ac-a734-21990a4411d0"},"vehicle_type_id":"4","last_reported":1742278482,"current_range_meters":16000,"station_id":"ce4bhg12rcd13ifvqf70","pricing_plan_id":"cebpf4jnsgd1na2vs0mg"},{"bike_id":"68129516-5314-4265-a986-faf312b9c454","system_id":"levelo_inurba_marseille","lat":43.32346,"lon":5.38893,"is_reserved":false,"is_disabled":false,"rental_uris":{"android":"levelo://app?vid=68129516-5314-4265-a986-faf312b9c454","ios":"levelo://app?vid=68129516-5314-4265-a986-faf312b9c454"},"vehicle_type_id":"4","last_reported":1742278482,"current_range_meters":16000,"station_id":"ce4bhqp2rcd13ifvqhog","pricing_plan_id":"cebpf4jnsgd1na2vs0mg"},{"bike_id":"477920a2-a9ea-4347-897e-bfe7f232379b","system_id":"levelo_inurba_marseille","lat":43.279414,"lon":5.410423,"is_reserved":false,"is_disabled":false,"rental_uris":{"android":"levelo://app?vid=477920a2-a9ea-4347-897e-bfe7f232379b","ios":"levelo://app?vid=477920a2-a9ea-4347-897e-bfe7f232379b"},"vehicle_type_id":"4","last_reported":1742278482,"current_range_meters":16000,"station_id":"ce4bhnp2rcd13ifvqh0g","pricing_plan_id":"cebpf4jnsgd1na2vs0mg"},{"bike_id":"3fe24d98-479f-4b6a-bce5-6bccb789372a","system_id":"levelo_inurba_marseille","lat":43.330157,"lon":5.390536,"is_reserved":false,"is_disabled":false,"rental_uris":{"android":"levelo://app?vid=3fe24d98-479f-4b6a-bce5-6bccb789372a","ios":"levelo://app?vid=3fe24d98-479f-4b6a-bce5-6bccb789372a"},"vehicle_type_id":"4","last_reported":1742278482,"current_range_meters":16000,"station_id":"ce4bhr92rcd13ifvqhrg","pricing_plan_id":"cebpf4jnsgd1na2vs0mg"},{"bike_id":"e60c1153-ceb4-4f72-92cd-2dc1051b5e4c","system_id":"levelo_inurba_marseille","lat":43.26066,"lon":5.39392,"is_reserved":false,"is_disabled":true,"rental_uris":{"android":"levelo://app?vid=e60c1153-ceb4-4f72-92cd-2dc1051b5e4c","ios":"levelo://app?vid=e60c1153-ceb4-4f72-92cd-2dc1051b5e4c"},"vehicle_type_id":"4","last_reported":1742278482,"current_range_meters":16400,"station_id":"ce4bhh92rcd13ifvqfj0","pricing_plan_id":"cebpf4jnsgd1na2vs0mg"},{"bike_id":"d6083815-2ecf-4115-b16d-7d0888079fed","system_id":"levelo_inurba_marseille","lat":43.26061,"lon":5.39396,"is_reserved":false,"is_disabled":false,"rental_uris":{"android":"levelo://app?vid=d6083815-2ecf-4115-b16d-7d0888079fed","ios":"levelo://app?vid=d6083815-2ecf-4115-b16d-7d0888079fed"},"vehicle_type_id":"4","last_reported":1742278482,"current_range_meters":16400,"station_id":"ce4bhh92rcd13ifvqfj0","pricing_plan_id":"cebpf4jnsgd1na2vs0mg"},{"bike_id":"3455258b-4135-46b9-9a26-10bf95160e40","system_id":"levelo_inurba_marseille","lat":43.2319,"lon":5.35565,"is_reserved":false,"is_disabled":false,"rental_uris":{"android":"levelo://app?vid=3455258b-4135-46b9-9a26-10bf95160e40","ios":"levelo://app?vid=3455258b-4135-46b9-9a26-10bf95160e40"},"vehicle_type_id":"4","last_reported":1742278482,"current_range_meters":16400,"station_id":"ce4bhu92rcd13ifvqi70","pricing_plan_id":"cebpf4jnsgd1na2vs0mg"},{"bike_id":"aa1061c0-091c-43b7-97b1-f85e62971e3a","system_id":"levelo_inurba_marseille","lat":43.25085,"lon":5.39523,"is_reserved":false,"is_disabled":false,"rental_uris":{"android":"levelo://app?vid=aa1061c0-091c-43b7-97b1-f85e62971e3a","ios":"levelo://app?vid=aa1061c0-091c-43b7-97b1-f85e62971e3a"},"vehicle_type_id":"4","last_reported":1742278482,"current_range_meters":16400,"station_id":"ce4bhm12rcd13ifvqgkg","pricing_plan_id":"cebpf4jnsgd1na2vs0mg"},{"bike_id":"4107729a-9942-461f-bd10-002c65810cfd","system_id":"levelo_inurba_marseille","lat":43.25106,"lon":5.4032,"is_reserved":false,"is_disabled":false,"rental_uris":{"android":"levelo://app?vid=4107729a-9942-461f-bd10-002c65810cfd","ios":"levelo://app?vid=4107729a-9942-461f-bd10-002c65810cfd"},"vehicle_type_id":"4","last_reported":1742278482,"current_range_meters":16800,"station_id":"ce4bhlh2rcd13ifvqgig","pricing_plan_id":"cebpf4jnsgd1na2vs0mg"},{"bike_id":"eff0508d-5b6d-4b13-8210-cc3e653975cd","system_id":"levelo_inurba_marseille","lat":43.30141,"lon":5.37432,"is_reserved":false,"is_disabled":false,"rental_uris":{"android":"levelo://app?vid=eff0508d-5b6d-4b13-8210-cc3e653975cd","ios":"levelo://app?vid=eff0508d-5b6d-4b13-8210-cc3e653975cd"},"vehicle_type_id":"4","last_reported":1742278482,"current_range_meters":16400,"station_id":"ce4bgs92rcd13ifvqcc0","pricing_plan_id":"cebpf4jnsgd1na2vs0mg"},{"bike_id":"df3ec9d0-0ac1-48f7-8743-4452701c1c08","system_id":"levelo_inurba_marseille","lat":43.25112,"lon":5.40354,"is_reserved":false,"is_disabled":false,"rental_uris":{"android":"levelo://app?vid=df3ec9d0-0ac1-48f7-8743-4452701c1c08","ios":"levelo://app?vid=df3ec9d0-0ac1-48f7-8743-4452701c1c08"},"vehicle_type_id":"4","last_reported":1742278482,"current_range_meters":16800,"station_id":"ce4bhlh2rcd13ifvqgig","pricing_plan_id":"cebpf4jnsgd1na2vs0mg"},{"bike_id":"3fae82ea-ed67-42b2-be5b-5f1c45dbdb69","system_id":"levelo_inurba_marseille","lat":43.25002,"lon":5.38933,"is_reserved":false,"is_disabled":false,"rental_uris":{"android":"levelo://app?vid=3fae82ea-ed67-42b2-be5b-5f1c45dbdb69","ios":"levelo://app?vid=3fae82ea-ed67-42b2-be5b-5f1c45dbdb69"},"vehicle_type_id":"4","last_reported":1742278482,"current_range_meters":16800,"station_id":"ce4bhgp2rcd13ifvqfd0","pricing_plan_id":"cebpf4jnsgd1na2vs0mg"},{"bike_id":"88f25cd0-c2b6-4245-9c37-6218ac95caf4","system_id":"levelo_inurba_marseille","lat":43.246568,"lon":5.389001,"is_reserved":false,"is_disabled":false,"rental_uris":{"android":"levelo://app?vid=88f25cd0-c2b6-4245-9c37-6218ac95caf4","ios":"levelo://app?vid=88f25cd0-c2b6-4245-9c37-6218ac95caf4"},"vehicle_type_id":"4","last_reported":1742278482,"current_range_meters":16800,"station_id":"ce4bhg12rcd13ifvqf60","pricing_plan_id":"cebpf4jnsgd1na2vs0mg"},{"bike_id":"cf423346-2fe0-44ce-aa29-6c0557779107","system_id":"levelo_inurba_marseille","lat":43.29414,"lon":5.38628,"is_reserved":false,"is_disabled":false,"rental_uris":{"android":"levelo://app?vid=cf423346-2fe0-44ce-aa29-6c0557779107","ios":"levelo://app?vid=cf423346-2fe0-44ce-aa29-6c0557779107"},"vehicle_type_id":"4","last_reported":1742278482,"current_range_meters":16400,"station_id":"ce4bh2h2rcd13ifvqdh0","pricing_plan_id":"cebpf4jnsgd1na2vs0mg"},{"bike_id":"cae3c066-0010-4960-b277-680c15425f75","system_id":"levelo_inurba_marseille","lat":43.255813,"lon":5.382328,"is_reserved":false,"is_disabled":false,"rental_uris":{"android":"levelo://app?vid=cae3c066-0010-4960-b277-680c15425f75","ios":"levelo://app?vid=cae3c066-0010-4960-b277-680c15425f75"},"vehicle_type_id":"4","last_reported":1742278482,"current_range_meters":16800,"station_id":"ce4bhih2rcd13ifvqfs0","pricing_plan_id":"cebpf4jnsgd1na2vs0mg"},{"bike_id":"5452ac66-ea0f-41d4-a082-ef979e1462d1","system_id":"levelo_inurba_marseille","lat":43.31537,"lon":5.38033,"is_reserved":false,"is_disabled":false,"rental_uris":{"android":"levelo://app?vid=5452ac66-ea0f-41d4-a082-ef979e1462d1","ios":"levelo://app?vid=5452ac66-ea0f-41d4-a082-ef979e1462d1"},"vehicle_type_id":"4","last_reported":1742278482,"current_range_meters":16800,"station_id":"ce4bhsp2rcd13ifvqi50","pricing_plan_id":"cebpf4jnsgd1na2vs0mg"},{"bike_id":"33cb5edd-c6d6-414d-88b4-bf28ff78a536","system_id":"levelo_inurba_marseille","lat":43.28712,"lon":5.36088,"is_reserved":false,"is_disabled":false,"rental_uris":{"android":"levelo://app?vid=33cb5edd-c6d6-414d-88b4-bf28ff78a536","ios":"levelo://app?vid=33cb5edd-c6d6-414d-88b4-bf28ff78a536"},"vehicle_type_id":"4","last_reported":1742278482,"current_range_meters":16800,"station_id":"cki0cbj6b192h4jlfktg","pricing_plan_id":"cebpf4jnsgd1na2vs0mg"},{"bike_id":"fcd04c01-e8dd-45a4-b34a-9e5b532916af","system_id":"levelo_inurba_marseille","lat":43.3094,"lon":5.39519,"is_reserved":false,"is_disabled":false,"rental_uris":{"android":"levelo://app?vid=fcd04c01-e8dd-45a4-b34a-9e5b532916af","ios":"levelo://app?vid=fcd04c01-e8dd-45a4-b34a-9e5b532916af"},"vehicle_type_id":"4","last_reported":1742278482,"current_range_meters":17200,"station_id":"ce4bh012rcd13ifvqcv0","pricing_plan_id":"cebpf4jnsgd1na2vs0mg"},{"bike_id":"bd0c2d57-a674-44aa-8efc-189e2aab84da","system_id":"levelo_inurba_marseille","lat":43.23961,"lon":5.36625,"is_reserved":false,"is_disabled":false,"rental_uris":{"android":"levelo://app?vid=bd0c2d57-a674-44aa-8efc-189e2aab84da","ios":"levelo://app?vid=bd0c2d57-a674-44aa-8efc-189e2aab84da"},"vehicle_type_id":"4","last_reported":1742278482,"current_range_meters":17200,"station_id":"ce4bhi12rcd13ifvqfp0","pricing_plan_id":"cebpf4jnsgd1na2vs0mg"},{"bike_id":"f52a9808-de99-4214-b6d8-d8a401436e34","system_id":"levelo_inurba_marseille","lat":43.31276,"lon":5.39075,"is_reserved":false,"is_disabled":false,"rental_uris":{"android":"levelo://app?vid=f52a9808-de99-4214-b6d8-d8a401436e34","ios":"levelo://app?vid=f52a9808-de99-4214-b6d8-d8a401436e34"},"vehicle_type_id":"4","last_reported":1742278482,"current_range_meters":17200,"station_id":"","pricing_plan_id":"cebpf4jnsgd1na2vs0mg"},{"bike_id":"0e1fd515-1638-43cc-a9c4-f03ea9694fd4","system_id":"levelo_inurba_marseille","lat":43.27918,"lon":5.39579,"is_reserved":false,"is_disabled":false,"rental_uris":{"android":"levelo://app?vid=0e1fd515-1638-43cc-a9c4-f03ea9694fd4","ios":"levelo://app?vid=0e1fd515-1638-43cc-a9c4-f03ea9694fd4"},"vehicle_type_id":"4","last_reported":1742278482,"current_range_meters":17200,"station_id":"ce4bhf92rcd13ifvqf40","pricing_plan_id":"cebpf4jnsgd1na2vs0mg"},{"bike_id":"88cafc48-638e-455b-80b4-5ffc9dacacea","system_id":"levelo_inurba_marseille","lat":43.2511,"lon":5.40344,"is_reserved":false,"is_disabled":false,"rental_uris":{"android":"levelo://app?vid=88cafc48-638e-455b-80b4-5ffc9dacacea","ios":"levelo://app?vid=88cafc48-638e-455b-80b4-5ffc9dacacea"},"vehicle_type_id":"4","last_reported":1742278482,"current_range_meters":17200,"station_id":"ce4bhlh2rcd13ifvqgig","pricing_plan_id":"cebpf4jnsgd1na2vs0mg"},{"bike_id":"00a6f1e3-c183-48ab-a0ef-063254ab1cea","system_id":"levelo_inurba_marseille","lat":43.28076,"lon":5.3967,"is_reserved":false,"is_disabled":false,"rental_uris":{"android":"levelo://app?vid=00a6f1e3-c183-48ab-a0ef-063254ab1cea","ios":"levelo://app?vid=00a6f1e3-c183-48ab-a0ef-063254ab1cea"},"vehicle_type_id":"4","last_reported":1742278482,"current_range_meters":17200,"station_id":"ce4bho12rcd13ifvqh2g","pricing_plan_id":"cebpf4jnsgd1na2vs0mg"},{"bike_id":"2b679f54-d493-4b03-8ac2-bc94d46bab02","system_id":"levelo_inurba_marseille","lat":43.28426,"lon":5.34989,"is_reserved":false,"is_disabled":true,"rental_uris":{"android":"levelo://app?vid=2b679f54-d493-4b03-8ac2-bc94d46bab02","ios":"levelo://app?vid=2b679f54-d493-4b03-8ac2-bc94d46bab02"},"vehicle_type_id":"4","last_reported":1742278482,"current_range_meters":17200,"station_id":"ce4bhbh2rcd13ifvqepg","pricing_plan_id":"cebpf4jnsgd1na2vs0mg"},{"bike_id":"2e6052f4-7080-42ae-aaa6-a6a80af5b494","system_id":"levelo_inurba_marseille","lat":43.28834,"lon":5.35861,"is_reserved":false,"is_disabled":false,"rental_uris":{"android":"levelo://app?vid=2e6052f4-7080-42ae-aaa6-a6a80af5b494","ios":"levelo://app?vid=2e6052f4-7080-42ae-aaa6-a6a80af5b494"},"vehicle_type_id":"4","last_reported":1742278482,"current_range_meters":17200,"station_id":"ce4bhb12rcd13ifvqem0","pricing_plan_id":"cebpf4jnsgd1na2vs0mg"},{"bike_id":"e66f41b1-904e-4878-8599-f6f20e3426c7","system_id":"levelo_inurba_marseille","lat":43.30467,"lon":5.37892,"is_reserved":false,"is_disabled":false,"rental_uris":{"android":"levelo://app?vid=e66f41b1-904e-4878-8599-f6f20e3426c7","ios":"levelo://app?vid=e66f41b1-904e-4878-8599-f6f20e3426c7"},"vehicle_type_id":"4","last_reported":1742278482,"current_range_meters":17600,"station_id":"ce4bgup2rcd13ifvqcn0","pricing_plan_id":"cebpf4jnsgd1na2vs0mg"},{"bike_id":"6aa2c326-3d28-4b31-b575-42f3dc1b2bf6","system_id":"levelo_inurba_marseille","lat":43.28719,"lon":5.36089,"is_reserved":false,"is_disabled":false,"rental_uris":{"android":"levelo://app?vid=6aa2c326-3d28-4b31-b575-42f3dc1b2bf6","ios":"levelo://app?vid=6aa2c326-3d28-4b31-b575-42f3dc1b2bf6"},"vehicle_type_id":"4","last_reported":1742278482,"current_range_meters":17600,"station_id":"cki0cbj6b192h4jlfktg","pricing_plan_id":"cebpf4jnsgd1na2vs0mg"},{"bike_id":"eaa16f1d-1abb-46a5-88a7-4d9cc8058b7a","system_id":"levelo_inurba_marseille","lat":43.25017,"lon":5.38913,"is_reserved":false,"is_disabled":false,"rental_uris":{"android":"levelo://app?vid=eaa16f1d-1abb-46a5-88a7-4d9cc8058b7a","ios":"levelo://app?vid=eaa16f1d-1abb-46a5-88a7-4d9cc8058b7a"},"vehicle_type_id":"4","last_reported":1742278482,"current_range_meters":17600,"station_id":"ce4bhgp2rcd13ifvqfd0","pricing_plan_id":"cebpf4jnsgd1na2vs0mg"},{"bike_id":"d4a78368-f2cd-4742-b54d-4dbb6b395ac9","system_id":"levelo_inurba_marseille","lat":43.28673,"lon":5.3635,"is_reserved":false,"is_disabled":true,"rental_uris":{"android":"levelo://app?vid=d4a78368-f2cd-4742-b54d-4dbb6b395ac9","ios":"levelo://app?vid=d4a78368-f2cd-4742-b54d-4dbb6b395ac9"},"vehicle_type_id":"4","last_reported":1742278482,"current_range_meters":17600,"station_id":"ce4bhah2rcd13ifvqej0","pricing_plan_id":"cebpf4jnsgd1na2vs0mg"},{"bike_id":"50eb97ac-fa17-4240-a2a0-836098cf2cef","system_id":"levelo_inurba_marseille","lat":43.29188,"lon":5.39339,"is_reserved":false,"is_disabled":false,"rental_uris":{"android":"levelo://app?vid=50eb97ac-fa17-4240-a2a0-836098cf2cef","ios":"levelo://app?vid=50eb97ac-fa17-4240-a2a0-836098cf2cef"},"vehicle_type_id":"4","last_reported":1742278482,"current_range_meters":17600,"station_id":"ce4bh192rcd13ifvqdd0","pricing_plan_id":"cebpf4jnsgd1na2vs0mg"},{"bike_id":"df5f7f67-c2d7-410a-9f70-80ea8d310a03","system_id":"levelo_inurba_marseille","lat":43.278159,"lon":5.407116,"is_reserved":false,"is_disabled":false,"rental_uris":{"android":"levelo://app?vid=df5f7f67-c2d7-410a-9f70-80ea8d310a03","ios":"levelo://app?vid=df5f7f67-c2d7-410a-9f70-80ea8d310a03"},"vehicle_type_id":"4","last_reported":1742278482,"current_range_meters":17600,"station_id":"ce4bhnh2rcd13ifvqgtg","pricing_plan_id":"cebpf4jnsgd1na2vs0mg"},{"bike_id":"eb3a1c32-94c2-441a-b65f-01f87fe23c3d","system_id":"levelo_inurba_marseille","lat":43.27924,"lon":5.39572,"is_reserved":false,"is_disabled":false,"rental_uris":{"android":"levelo://app?vid=eb3a1c32-94c2-441a-b65f-01f87fe23c3d","ios":"levelo://app?vid=eb3a1c32-94c2-441a-b65f-01f87fe23c3d"},"vehicle_type_id":"4","last_reported":1742278482,"current_range_meters":17600,"station_id":"ce4bhf92rcd13ifvqf40","pricing_plan_id":"cebpf4jnsgd1na2vs0mg"},{"bike_id":"d9b2b2e8-36a8-4396-b131-ca23b1f57b68","system_id":"levelo_inurba_marseille","lat":43.24157,"lon":5.39762,"is_reserved":false,"is_disabled":false,"rental_uris":{"android":"levelo://app?vid=d9b2b2e8-36a8-4396-b131-ca23b1f57b68","ios":"levelo://app?vid=d9b2b2e8-36a8-4396-b131-ca23b1f57b68"},"vehicle_type_id":"4","last_reported":1742278482,"current_range_meters":17600,"station_id":"ce4bhn12rcd13ifvqgpg","pricing_plan_id":"cebpf4jnsgd1na2vs0mg"},{"bike_id":"0911eb8a-05c0-4c9d-accf-4590940cb653","system_id":"levelo_inurba_marseille","lat":43.30149,"lon":5.38089,"is_reserved":false,"is_disabled":false,"rental_uris":{"android":"levelo://app?vid=0911eb8a-05c0-4c9d-accf-4590940cb653","ios":"levelo://app?vid=0911eb8a-05c0-4c9d-accf-4590940cb653"},"vehicle_type_id":"4","last_reported":1742278482,"current_range_meters":18000,"station_id":"ce4bgjp2rcd13ifvqbh0","pricing_plan_id":"cebpf4jnsgd1na2vs0mg"},{"bike_id":"e4e09e91-39fd-4dd8-997d-d199b09520f1","system_id":"levelo_inurba_marseille","lat":43.317568,"lon":5.390213,"is_reserved":false,"is_disabled":false,"rental_uris":{"android":"levelo://app?vid=e4e09e91-39fd-4dd8-997d-d199b09520f1","ios":"levelo://app?vid=e4e09e91-39fd-4dd8-997d-d199b09520f1"},