{"last_updated":1743980936,"ttl":60,"version":"2.2","data":{"bikes":[{"bike_id":"5b4cf7a1-93b8-402f-a35a-7d4ab237cc28","system_id":"levelo_inurba_marseille","lat":43.29619,"lon":5.37166,"is_reserved":false,"is_disabled":false,"rental_uris":{"android":"levelo://app?vid=5b4cf7a1-93b8-402f-a35a-7d4ab237cc28","ios":"levelo://app?vid=5b4cf7a1-93b8-402f-a35a-7d4ab237cc28"},"vehicle_type_id":"4","last_reported":1743980936,"current_range_meters":2800,"station_id":"ce4bgnh2rcd13ifvqc0g","pricing_plan_id":"cebpf4jnsgd1na2vs0mg"},{"bike_id":"628d7abb-db04-4f5f-a57c-7a9517f1d367","system_id":"levelo_inurba_marseille","lat":43.281518,"lon":5.426445,"is_reserved":false,"is_disabled":false,"rental_uris":{"android":"levelo://app?vid=628d7abb-db04-4f5f-a57c-7a9517f1d367","ios":"levelo://app?vid=628d7abb-db04-4f5f-a57c-7a9517f1d367"},"vehicle_type_id":"4","last_reported":1743980936,"current_range_meters":3200,"station_id":"ce4bhnh2rcd13ifvqgug","pricing_plan_id":"cebpf4jnsgd1na2vs0mg"},{"bike_id":"8e8105ce-63e2-4441-9ebe-d6a09a08a22e","system_id":"levelo_inurba_marseille","lat":43.29668,"lon":5.36204,"is_reserved":false,"is_disabled":false,"rental_uris":{"android":"levelo://app?vid=8e8105ce-63e2-4441-9ebe-d6a09a08a22e","ios":"levelo://app?vid=8e8105ce-63e2-4441-9ebe-d6a09a08a22e"},"vehicle_type_id":"4","last_reported":1743980936,"current_range_meters":3600,"station_id":"","pricing_plan_id":"cebpf4jnsgd1na2vs0mg"},{"bike_id":"d0f9e713-d1ab-4ae0-8eaf-c9d53ab6e408","system_id":"levelo_inurba_marseille","lat":43.30246,"lon":5.40065,"is_reserved":false,"is_disabled":false,"rental_uris":{"android":"levelo://app?vid=d0f9e713-d1ab-4ae0-8eaf-c9d53ab6e408","ios":"levelo://app?vid=d0f9e713-d1ab-4ae0-8eaf-c9d53ab6e408"},"vehicle_type_id":"4","last_reported":1743980936,"current_range_meters":3600,"station_id":"ce4bgvh2rcd13ifvqcs0","pricing_plan_id":"cebpf4jnsgd1na2vs0mg"},{"bike_id":"de8c7673-f24b-4f83-97a2-f3b597943ac1","system_id":"levelo_inurba_marseille","lat":43.27067,"lon":5.42262,"is_reserved":false,"is_disabled":false,"rental_uris":{"android":"levelo://app?vid=de8c7673-f24b-4f83-97a2-f3b597943ac1","ios":"levelo://app?vid=de8c7673-f24b-4f83-97a2-f3b597943ac1"},"vehicle_type_id":"4","last_reported":1743980936,"current_range_meters":3600,"station_id":"ce4bhk92rcd13ifvqgb0","pricing_plan_id":"cebpf4jnsgd1na2vs0mg"},{"bike_id":"133627c3-b16a-434f-8fd9-9df56255a0b6","system_id":"levelo_inurba_marseille","lat":43.24662,"lon":5.3816,"is_reserved":false,"is_disabled":false,"rental_uris":{"android":"levelo://app?vid=133627c3-b16a-434f-8fd9-9df56255a0b6","ios":"levelo://app?vid=133627c3-b16a-434f-8fd9-9df56255a0b6"},"vehicle_type_id":"4","last_reported":1743980936,"current_range_meters":4000,"station_id":"ce4bhih2rcd13ifvqfr0","pricing_plan_id":"cebpf4jnsgd1na2vs0mg"},{"bike_id":"8b6d146f-8144-4f81-846b-6f9181fa6006","system_id":"levelo_inurba_marseille","lat":43.30601,"lon":5.37225,"is_reserved":false,"is_disabled":false,"rental_uris":{"android":"levelo://app?vid=8b6d146f-8144-4f81-846b-6f9181fa6006","ios":"levelo://app?vid=8b6d146f-8144-4f81-846b-6f9181fa6006"},"vehicle_type_id":"4","last_reported":1743980936,"current_range_meters":4000,"station_id":"ce4bgqh2rcd13ifvqc4g","pricing_plan_id":"cebpf4jnsgd1na2vs0mg"},{"bike_id":"6d70e492-394e-44f3-96aa-c37ef18b968b","system_id":"levelo_inurba_marseille","lat":43.250933,"lon":5.395203,"is_reserved":false,"is_disabled":false,"rental_uris":{"android":"levelo://app?vid=6d70e492-394e-44f3-96aa-c37ef18b968b","ios":"levelo://app?vid=6d70e492-394e-44f3-96aa-c37ef18b968b"},"vehicle_type_id":"4","last_reported":1743980936,"current_range_meters":4000,"station_id":"ce4bhm12rcd13ifvqgkg","pricing_plan_id":"cebpf4jnsgd1na2vs0mg"},{"bike_id":"eb79d1f9-7c91-4ea2-b5f8-796189743e1a","system_id":"levelo_inurba_marseille","lat":43.34249,"lon":5.38114,"is_reserved":false,"is_disabled":false,"rental_uris":{"android":"levelo://app?vid=eb79d1f9-7c91-4ea2-b5f8-796189743e1a","ios":"levelo://app?vid=eb79d1f9-7c91-4ea2-b5f8-796189743e1a"},"vehicle_type_id":"4","last_reported":1743980936,"current_range_meters":4400,"station_id":"","pricing_plan_id":"cebpf4jnsgd1na2vs0mg"},{"bike_id":"d5f50458-f9fb-403e-a7f2-d91d7d7dd8c7","system_id":"levelo_inurba_marseille","lat":43.25121,"lon":5.40327,"is_reserved":false,"is_disabled":false,"rental_uris":{"android":"levelo://app?vid=d5f50458-f9fb-403e-a7f2-d91d7d7dd8c7","ios":"levelo://app?vid=d5f50458-f9fb-403e-a7f2-d91d7d7dd8c7"},"vehicle_type_id":"4","last_reported":1743980936,"current_range_meters":4400,"station_id":"ce4bhlh2rcd13ifvqgig","pricing_plan_id":"cebpf4jnsgd1na2vs0mg"},{"bike_id":"69f8a740-a0ff-4635-87ad-9b7d7d0db53e","system_id":"levelo_inurba_marseille","lat":43.246467,"lon":5.389099,"is_reserved":false,"is_disabled":true,"rental_uris":{"android":"levelo://app?vid=69f8a740-a0ff-4635-87ad-9b7d7d0db53e","ios":"levelo://app?vid=69f8a740-a0ff-4635-87ad-9b7d7d0db53e"},"vehicle_type_id":"4","last_reported":1743980936,"current_range_meters":4400,"station_id":"ce4bhg12rcd13ifvqf60","pricing_plan_id":"cebpf4jnsgd1na2vs0mg"},{"bike_id":"abf828e0-bebc-4654-bc93-1d92f449deee","system_id":"levelo_inurba_marseille","lat":43.32373,"lon":5.36755,"is_reserved":false,"is_disabled":true,"rental_uris":{"android":"levelo://app?vid=abf828e0-bebc-4654-bc93-1d92f449deee","ios":"levelo://app?vid=abf828e0-bebc-4654-bc93-1d92f449deee"},"vehicle_type_id":"4","last_reported":1743980936,"current_range_meters":4400,"station_id":"ce4bhsh2rcd13ifvqi2g","pricing_plan_id":"cebpf4jnsgd1na2vs0mg"},{"bike_id":"0e413919-8111-4681-a208-d8ca519ce3ab","system_id":"levelo_inurba_marseille","lat":43.28864,"lon":5.39312,"is_reserved":false,"is_disabled":false,"rental_uris":{"android":"levelo://app?vid=0e413919-8111-4681-a208-d8ca519ce3ab","ios":"levelo://app?vid=0e413919-8111-4681-a208-d8ca519ce3ab"},"vehicle_type_id":"4","last_reported":1743980936,"current_range_meters":4800,"station_id":"ce4bh2p2rcd13ifvqdi0","pricing_plan_id":"cebpf4jnsgd1na2vs0mg"},{"bike_id":"201f6afc-5298-4290-a1de-7a10d1cee8d1","system_id":"levelo_inurba_marseille","lat":43.30802,"lon":5.38144,"is_reserved":false,"is_disabled":false,"rental_uris":{"android":"levelo://app?vid=201f6afc-5298-4290-a1de-7a10d1cee8d1","ios":"levelo://app?vid=201f6afc-5298-4290-a1de-7a10d1cee8d1"},"vehicle_type_id":"4","last_reported":1743980936,"current_range_meters":4800,"station_id":"ce4bgt12rcd13ifvqce0","pricing_plan_id":"cebpf4jnsgd1na2vs0mg"},{"bike_id":"14372806-dbaf-42a6-80e2-a045e7992d20","system_id":"levelo_inurba_marseille","lat":43.2501,"lon":5.38921,"is_reserved":false,"is_disabled":false,"rental_uris":{"android":"levelo://app?vid=14372806-dbaf-42a6-80e2-a045e7992d20","ios":"levelo://app?vid=14372806-dbaf-42a6-80e2-a045e7992d20"},"vehicle_type_id":"4","last_reported":1743980936,"current_range_meters":4800,"station_id":"ce4bhgp2rcd13ifvqfd0","pricing_plan_id":"cebpf4jnsgd1na2vs0mg"},{"bike_id":"fe5a8fe2-2dca-4c58-ac7b-e61e0bced93c","system_id":"levelo_inurba_marseille","lat":43.28154,"lon":5.42649,"is_reserved":false,"is_disabled":false,"rental_uris":{"android":"levelo://app?vid=fe5a8fe2-2dca-4c58-ac7b-e61e0bced93c","ios":"levelo://app?vid=fe5a8fe2-2dca-4c58-ac7b-e61e0bced93c"},"vehicle_type_id":"4","last_reported":1743980936,"current_range_meters":5600,"station_id":"ce4bhnh2rcd13ifvqgug","pricing_plan_id":"cebpf4jnsgd1na2vs0mg"},{"bike_id":"28da97e0-65a4-47aa-8f0c-03516882906d","system_id":"levelo_inurba_marseille","lat":43.23189,"lon":5.39973,"is_reserved":false,"is_disabled":false,"rental_uris":{"android":"levelo://app?vid=28da97e0-65a4-47aa-8f0c-03516882906d","ios":"levelo://app?vid=28da97e0-65a4-47aa-8f0c-03516882906d"},"vehicle_type_id":"4","last_reported":1743980936,"current_range_meters":5600,"station_id":"ce4bhn12rcd13ifvqgqg","pricing_plan_id":"cebpf4jnsgd1na2vs0mg"},{"bike_id":"1c8f9443-fa95-4995-992b-86c893c09786","system_id":"levelo_inurba_marseille","lat":43.251,"lon":5.39495,"is_reserved":false,"is_disabled":false,"rental_uris":{"android":"levelo://app?vid=1c8f9443-fa95-4995-992b-86c893c09786","ios":"levelo://app?vid=1c8f9443-fa95-4995-992b-86c893c09786"},"vehicle_type_id":"4","last_reported":1743980936,"current_range_meters":6000,"station_id":"ce4bhm12rcd13ifvqgkg","pricing_plan_id":"cebpf4jnsgd1na2vs0mg"},{"bike_id":"69f27ac7-c201-4d7b-a41a-066249700815","system_id":"levelo_inurba_marseille","lat":43.241683,"lon":5.363968,"is_reserved":false,"is_disabled":true,"rental_uris":{"android":"levelo://app?vid=69f27ac7-c201-4d7b-a41a-066249700815","ios":"levelo://app?vid=69f27ac7-c201-4d7b-a41a-066249700815"},"vehicle_type_id":"4","last_reported":1743980936,"current_range_meters":6000,"station_id":"ce4bh412rcd13ifvqdr0","pricing_plan_id":"cebpf4jnsgd1na2vs0mg"},{"bike_id":"9378cab7-1ef7-47d6-af28-c6473192be1a","system_id":"levelo_inurba_marseille","lat":43.311861,"lon":5.407699,"is_reserved":false,"is_disabled":false,"rental_uris":{"android":"levelo://app?vid=9378cab7-1ef7-47d6-af28-c6473192be1a","ios":"levelo://app?vid=9378cab7-1ef7-47d6-af28-c6473192be1a"},"vehicle_type_id":"4","last_reported":1743980936,"current_range_meters":6000,"station_id":"","pricing_plan_id":"cebpf4jnsgd1na2vs0mg"},{"bike_id":"bc8d224d-9d48-4c6e-bddd-1db709d01d2b","system_id":"levelo_inurba_marseille","lat":43.29583,"lon":5.38096,"is_reserved":false,"is_disabled":false,"rental_uris":{"android":"levelo://app?vid=bc8d224d-9d48-4c6e-bddd-1db709d01d2b","ios":"levelo://app?vid=bc8d224d-9d48-4c6e-bddd-1db709d01d2b"},"vehicle_type_id":"4","last_reported":1743980936,"current_range_meters":6000,"station_id":"ce4bgl12rcd13ifvqbo0","pricing_plan_id":"cebpf4jnsgd1na2vs0mg"},{"bike_id":"d8bdc8d0-20f1-47c4-a031-27adc62c6ede","system_id":"levelo_inurba_marseille","lat":43.30935,"lon":5.40141,"is_reserved":false,"is_disabled":false,"rental_uris":{"android":"levelo://app?vid=d8bdc8d0-20f1-47c4-a031-27adc62c6ede","ios":"levelo://app?vid=d8bdc8d0-20f1-47c4-a031-27adc62c6ede"},"vehicle_type_id":"4","last_reported":1743980936,"current_range_meters":6000,"station_id":"ce4bgvp2rcd13ifvqct0","pricing_plan_id":"cebpf4jnsgd1na2vs0mg"},{"bike_id":"e4b309fe-305e-4fa7-8291-fbce8f668a31","system_id":"levelo_inurba_marseille","lat":43.28043,"lon":5.36934,"is_reserved":false,"is_disabled":false,"rental_uris":{"android":"levelo://app?vid=e4b309fe-305e-4fa7-8291-fbce8f668a31","ios":"levelo://app?vid=e4b309fe-305e-4fa7-8291-fbce8f668a31"},"vehicle_type_id":"4","last_reported":1743980936,"current_range_meters":6000,"station_id":"ce4bha12rcd13ifvqef0","pricing_plan_id":"cebpf4jnsgd1na2vs0mg"},{"bike_id":"c8cd7acc-7865-499a-9bf2-a3754c904ebc","system_id":"levelo_inurba_marseille","lat":43.28575,"lon":5.39498,"is_reserved":false,"is_disabled":false,"rental_uris":{"android":"levelo://app?vid=c8cd7acc-7865-499a-9bf2-a3754c904ebc","ios":"levelo://app?vid=c8cd7acc-7865-499a-9bf2-a3754c904ebc"},"vehicle_type_id":"4","last_reported":1743980936,"current_range_meters":6400,"station_id":"ce4bh292rcd13ifvqdg0","pricing_plan_id":"cebpf4jnsgd1na2vs0mg"},{"bike_id":"e76f459b-2ecf-40ba-b9c6-470f869461a8","system_id":"levelo_inurba_marseille","lat":43.30218,"lon":5.3947,"is_reserved":false,"is_disabled":false,"rental_uris":{"android":"levelo://app?vid=e76f459b-2ecf-40ba-b9c6-470f869461a8","ios":"levelo://app?vid=e76f459b-2ecf-40ba-b9c6-470f869461a8"},"vehicle_type_id":"4","last_reported":1743980936,"current_range_meters":6400,"station_id":"ce4bh0p2rcd13ifvqd70","pricing_plan_id":"cebpf4jnsgd1na2vs0mg"},{"bike_id":"1f22c1c5-a872-4fb6-90d4-aa58d3fe3317","system_id":"levelo_inurba_marseille","lat":43.29803,"lon":5.40404,"is_reserved":false,"is_disabled":false,"rental_uris":{"android":"levelo://app?vid=1f22c1c5-a872-4fb6-90d4-aa58d3fe3317","ios":"levelo://app?vid=1f22c1c5-a872-4fb6-90d4-aa58d3fe3317"},"vehicle_type_id":"4","last_reported":1743980936,"current_range_meters":6400,"station_id":"ce4bh112rcd13ifvqd90","pricing_plan_id":"cebpf4jnsgd1na2vs0mg"},{"bike_id":"6023584e-870f-454d-88b0-bf3dc0e21fbe","system_id":"levelo_inurba_marseille","lat":43.24372,"lon":5.3707,"is_reserved":false,"is_disabled":true,"rental_uris":{"android":"levelo://app?vid=6023584e-870f-454d-88b0-bf3dc0e21fbe","ios":"levelo://app?vid=6023584e-870f-454d-88b0-bf3dc0e21fbe"},"vehicle_type_id":"4","last_reported":1743980936,"current_range_meters":6400,"station_id":"ce4bhhh2rcd13ifvqfk0","pricing_plan_id":"cebpf4jnsgd1na2vs0mg"},{"bike_id":"25326efc-25c0-46e6-beee-313d36aaa9dd","system_id":"levelo_inurba_marseille","lat":43.27183,"lon":5.40987,"is_reserved":false,"is_disabled":false,"rental_uris":{"android":"levelo://app?vid=25326efc-25c0-46e6-beee-313d36aaa9dd","ios":"levelo://app?vid=25326efc-25c0-46e6-beee-313d36aaa9dd"},"vehicle_type_id":"4","last_reported":1743980936,"current_range_meters":6400,"station_id":"ce4bhl12rcd13ifvqgf0","pricing_plan_id":"cebpf4jnsgd1na2vs0mg"},{"bike_id":"10e87617-4fdc-405e-9a34-19a9b8be05ea","system_id":"levelo_inurba_marseille","lat":43.303173,"lon":5.404367,"is_reserved":false,"is_disabled":false,"rental_uris":{"android":"levelo://app?vid=10e87617-4fdc-405e-9a34-19a9b8be05ea","ios":"levelo://app?vid=10e87617-4fdc-405e-9a34-19a9b8be05ea"},"vehicle_type_id":"4","last_reported":1743980936,"current_range_meters":6800,"station_id":"ce4bh012rcd13ifvqd10","pricing_plan_id":"cebpf4jnsgd1na2vs0mg"},{"bike_id":"e3c5f122-d61d-4b7a-b30e-709a3dbe5e46","system_id":"levelo_inurba_marseille","lat":43.324,"lon":5.39014,"is_reserved":false,"is_disabled":false,"rental_uris":{"android":"levelo://app?vid=e3c5f122-d61d-4b7a-b30e-709a3dbe5e46","ios":"levelo://app?vid=e3c5f122-d61d-4b7a-b30e-709a3dbe5e46"},"vehicle_type_id":"4","last_reported":1743980936,"current_range_meters":6800,"station_id":"","pricing_plan_id":"cebpf4jnsgd1na2vs0mg"},{"bike_id":"46aaf249-f504-46ae-93ce-7245839b78b5","system_id":"levelo_inurba_marseille","lat":43.257628,"lon":5.386449,"is_reserved":false,"is_disabled":true,"rental_uris":{"android":"levelo://app?vid=46aaf249-f504-46ae-93ce-7245839b78b5","ios":"levelo://app?vid=46aaf249-f504-46ae-93ce-7245839b78b5"},"vehicle_type_id":"4","last_reported":1743980936,"current_range_meters":6800,"station_id":"","pricing_plan_id":"cebpf4jnsgd1na2vs0mg"},{"bike_id":"82b13040-c4c8-4a32-a19a-bb2707ec491d","system_id":"levelo_inurba_marseille","lat":43.28487,"lon":5.38417,"is_reserved":false,"is_disabled":false,"rental_uris":{"android":"levelo://app?vid=82b13040-c4c8-4a32-a19a-bb2707ec491d","ios":"levelo://app?vid=82b13040-c4c8-4a32-a19a-bb2707ec491d"},"vehicle_type_id":"4","last_reported":1743980936,"current_range_meters":7200,"station_id":"ce4bh512rcd13ifvqe3g","pricing_plan_id":"cebpf4jnsgd1na2vs0mg"},{"bike_id":"81c96b84-65ab-4a6b-8613-1331b2def8c9","system_id":"levelo_inurba_marseille","lat":43.29021,"lon":5.38608,"is_reserved":false,"is_disabled":false,"rental_uris":{"android":"levelo://app?vid=81c96b84-65ab-4a6b-8613-1331b2def8c9","ios":"levelo://app?vid=81c96b84-65ab-4a6b-8613-1331b2def8c9"},"vehicle_type_id":"4","last_reported":1743980936,"current_range_meters":7200,"station_id":"ce4bh4p2rcd13ifvqe0g","pricing_plan_id":"cebpf4jnsgd1na2vs0mg"},{"bike_id":"7a3bea5a-b643-4982-90dc-669729da7750","system_id":"levelo_inurba_marseille","lat":43.295349,"lon":5.39998,"is_reserved":false,"is_disabled":false,"rental_uris":{"android":"levelo://app?vid=7a3bea5a-b643-4982-90dc-669729da7750","ios":"levelo://app?vid=7a3bea5a-b643-4982-90dc-669729da7750"},"vehicle_type_id":"4","last_reported":1743980936,"current_range_meters":7200,"station_id":"ce4bgvh2rcd13ifvqcs0","pricing_plan_id":"cebpf4jnsgd1na2vs0mg"},{"bike_id":"1f079019-0e48-41f1-a95e-55d193284b22","system_id":"levelo_inurba_marseille","lat":43.25137,"lon":5.40294,"is_reserved":false,"is_disabled":false,"rental_uris":{"android":"levelo://app?vid=1f079019-0e48-41f1-a95e-55d193284b22","ios":"levelo://app?vid=1f079019-0e48-41f1-a95e-55d193284b22"},"vehicle_type_id":"4","last_reported":1743980936,"current_range_meters":7200,"station_id":"ce4bhlh2rcd13ifvqgig","pricing_plan_id":"cebpf4jnsgd1na2vs0mg"},{"bike_id":"dfb58d92-0764-4b57-89cb-6d1565f14344","system_id":"levelo_inurba_marseille","lat":43.30922,"lon":5.40159,"is_reserved":false,"is_disabled":true,"rental_uris":{"android":"levelo://app?vid=dfb58d92-0764-4b57-89cb-6d1565f14344","ios":"levelo://app?vid=dfb58d92-0764-4b57-89cb-6d1565f14344"},"vehicle_type_id":"4","last_reported":1743980936,"current_range_meters":7200,"station_id":"ce4bgvp2rcd13ifvqct0","pricing_plan_id":"cebpf4jnsgd1na2vs0mg"},{"bike_id":"af939ae6-411e-4bce-8a94-56034b6e5e2e","system_id":"levelo_inurba_marseille","lat":43.25103,"lon":5.40317,"is_reserved":false,"is_disabled":false,"rental_uris":{"android":"levelo://app?vid=af939ae6-411e-4bce-8a94-56034b6e5e2e","ios":"levelo://app?vid=af939ae6-411e-4bce-8a94-56034b6e5e2e"},"vehicle_type_id":"4","last_reported":1743980936,"current_range_meters":7200,"station_id":"ce4bhlh2rcd13ifvqgig","pricing_plan_id":"cebpf4jnsgd1na2vs0mg"},{"bike_id":"9d767d1c-06f2-4390-870c-ab9be12a011f","system_id":"levelo_inurba_marseille","lat":43.30247,"lon":5.40067,"is_reserved":false,"is_disabled":false,"rental_uris":{"android":"levelo://app?vid=9d767d1c-06f2-4390-870c-ab9be12a011f","ios":"levelo://app?vid=9d767d1c-06f2-4390-870c-ab9be12a011f"},"vehicle_type_id":"4","last_reported":1743980936,"current_range_meters":7200,"station_id":"ce4bgvh2rcd13ifvqcs0","pricing_plan_id":"cebpf4jnsgd1na2vs0mg"},{"bike_id":"09764cee-8724-44c1-b501-307abe5b537a","system_id":"levelo_inurba_marseille","lat":43.32097,"lon":5.36784,"is_reserved":false,"is_disabled":false,"rental_uris":{"android":"levelo://app?vid=09764cee-8724-44c1-b501-307abe5b537a","ios":"levelo://app?vid=09764cee-8724-44c1-b501-307abe5b537a"},"vehicle_type_id":"4","last_reported":1743980936,"current_range_meters":8000,"station_id":"ce4bhrh2rcd13ifvqhug","pricing_plan_id":"cebpf4jnsgd1na2vs0mg"},{"bike_id":"17f01dc5-126d-4aa0-a1d5-e1e7697bb6b1","system_id":"levelo_inurba_marseille","lat":43.29569,"lon":5.39971,"is_reserved":false,"is_disabled":false,"rental_uris":{"android":"levelo://app?vid=17f01dc5-126d-4aa0-a1d5-e1e7697bb6b1","ios":"levelo://app?vid=17f01dc5-126d-4aa0-a1d5-e1e7697bb6b1"},"vehicle_type_id":"4","last_reported":1743980936,"current_range_meters":8000,"station_id":"ce4bh312rcd13ifvqdj0","pricing_plan_id":"cebpf4jnsgd1na2vs0mg"},{"bike_id":"823e71e5-488a-42c8-b7df-9256c147647c","system_id":"levelo_inurba_marseille","lat":43.3126,"lon":5.40154,"is_reserved":false,"is_disabled":false,"rental_uris":{"android":"levelo://app?vid=823e71e5-488a-42c8-b7df-9256c147647c","ios":"levelo://app?vid=823e71e5-488a-42c8-b7df-9256c147647c"},"vehicle_type_id":"4","last_reported":1743980936,"current_range_meters":8000,"station_id":"ce4bh092rcd13ifvqd30","pricing_plan_id":"cebpf4jnsgd1na2vs0mg"},{"bike_id":"a682add7-90f6-4f21-a237-5c2e46b6894b","system_id":"levelo_inurba_marseille","lat":43.29746,"lon":5.37672,"is_reserved":false,"is_disabled":false,"rental_uris":{"android":"levelo://app?vid=a682add7-90f6-4f21-a237-5c2e46b6894b","ios":"levelo://app?vid=a682add7-90f6-4f21-a237-5c2e46b6894b"},"vehicle_type_id":"4","last_reported":1743980936,"current_range_meters":8000,"station_id":"ce4bgkh2rcd13ifvqbl0","pricing_plan_id":"cebpf4jnsgd1na2vs0mg"},{"bike_id":"b571988e-06c6-428e-b40b-1a7a62138118","system_id":"levelo_inurba_marseille","lat":43.29515,"lon":5.39399,"is_reserved":false,"is_disabled":false,"rental_uris":{"android":"levelo://app?vid=b571988e-06c6-428e-b40b-1a7a62138118","ios":"levelo://app?vid=b571988e-06c6-428e-b40b-1a7a62138118"},"vehicle_type_id":"4","last_reported":1743980936,"current_range_meters":8000,"station_id":"ce4bh292rcd13ifvqdf0","pricing_plan_id":"cebpf4jnsgd1na2vs0mg"},{"bike_id":"db171f88-7551-431c-b6b6-144e2672c137","system_id":"levelo_inurba_marseille","lat":43.28862,"lon":5.393,"is_reserved":false,"is_disabled":false,"rental_uris":{"android":"levelo://app?vid=db171f88-7551-431c-b6b6-144e2672c137","ios":"levelo://app?vid=db171f88-7551-431c-b6b6-144e2672c137"},"vehicle_type_id":"4","last_reported":1743980936,"current_range_meters":8000,"station_id":"ce4bh2p2rcd13ifvqdi0","pricing_plan_id":"cebpf4jnsgd1na2vs0mg"},{"bike_id":"e2338ca7-448d-47f9-8823-72554d024c69","system_id":"levelo_inurba_marseille","lat":43.28937,"lon":5.36636,"is_reserved":false,"is_disabled":false,"rental_uris":{"android":"levelo://app?vid=e2338ca7-448d-47f9-8823-72554d024c69","ios":"levelo://app?vid=e2338ca7-448d-47f9-8823-72554d024c69"},"vehicle_type_id":"4","last_reported":1743980936,"current_range_meters":8000,"station_id":"ce4bhap2rcd13ifvqek0","pricing_plan_id":"cebpf4jnsgd1na2vs0mg"},{"bike_id":"8a2b7e90-b473-4636-883d-6ecc77c1926c","system_id":"levelo_inurba_marseille","lat":43.30288,"lon":5.3689,"is_reserved":false,"is_disabled":false,"rental_uris":{"android":"levelo://app?vid=8a2b7e90-b473-4636-883d-6ecc77c1926c","ios":"levelo://app?vid=8a2b7e90-b473-4636-883d-6ecc77c1926c"},"vehicle_type_id":"4","last_reported":1743980936,"current_range_meters":8000,"station_id":"ce4bgqh2rcd13ifvqc5g","pricing_plan_id":"cebpf4jnsgd1na2vs0mg"},{"bike_id":"dfe033e5-eb50-4610-85ee-430cd4939587","system_id":"levelo_inurba_marseille","lat":43.27612,"lon":5.36106,"is_reserved":false,"is_disabled":true,"rental_uris":{"android":"levelo://app?vid=dfe033e5-eb50-4610-85ee-430cd4939587","ios":"levelo://app?vid=dfe033e5-eb50-4610-85ee-430cd4939587"},"vehicle_type_id":"4","last_reported":1743980936,"current_range_meters":8000,"station_id":"ce4bgj92rcd13ifvqbe0","pricing_plan_id":"cebpf4jnsgd1na2vs0mg"},{"bike_id":"7827bdcc-1389-4039-82eb-1039c16d9a01","system_id":"levelo_inurba_marseille","lat":43.29521,"lon":5.39408,"is_reserved":false,"is_disabled":false,"rental_uris":{"android":"levelo://app?vid=7827bdcc-1389-4039-82eb-1039c16d9a01","ios":"levelo://app?vid=7827bdcc-1389-4039-82eb-1039c16d9a01"},"vehicle_type_id":"4","last_reported":1743980936,"current_range_meters":8000,"station_id":"ce4bh292rcd13ifvqdf0","pricing_plan_id":"cebpf4jnsgd1na2vs0mg"},{"bike_id":"f4ac5b9d-7f1f-40c7-bf17-6610102f2a2d","system_id":"levelo_inurba_marseille","lat":43.29635,"lon":5.40595,"is_reserved":false,"is_disabled":false,"rental_uris":{"android":"levelo://app?vid=f4ac5b9d-7f1f-40c7-bf17-6610102f2a2d","ios":"levelo://app?vid=f4ac5b9d-7f1f-40c7-bf17-6610102f2a2d"},"vehicle_type_id":"4","last_reported":1743980936,"current_range_meters":8000,"station_id":"ce4bh0h2rcd13ifvqd60","pricing_plan_id":"cebpf4jnsgd1na2vs0mg"},{"bike_id":"ef64b64b-ba45-4f74-b996-87395178230b","system_id":"levelo_inurba_marseille","lat":43.28114,"lon":5.37822,"is_reserved":false,"is_disabled":false,"rental_uris":{"android":"levelo://app?vid=ef64b64b-ba45-4f74-b996-87395178230b","ios":"levelo://app?vid=ef64b64b-ba45-4f74-b996-87395178230b"},"vehicle_type_id":"4","last_reported":1743980936,"current_range_meters":8000,"station_id":"ce4bha12rcd13ifvqee0","pricing_plan_id":"cebpf4jnsgd1na2vs0mg"},{"bike_id":"1d6f3057-f8f7-4009-89c3-a3edbfb45073","system_id":"levelo_inurba_marseille","lat":43.28156,"lon":5.42645,"is_reserved":false,"is_disabled":false,"rental_uris":{"android":"levelo://app?vid=1d6f3057-f8f7-4009-89c3-a3edbfb45073","ios":"levelo://app?vid=1d6f3057-f8f7-4009-89c3-a3edbfb45073"},"vehicle_type_id":"4","last_reported":1743980936,"current_range_meters":8400,"station_id":"ce4bhnh2rcd13ifvqgug","pricing_plan_id":"cebpf4jnsgd1na2vs0mg"},{"bike_id":"16a8d517-fb77-4c95-8f2a-da61b8112af7","system_id":"levelo_inurba_marseille","lat":43.31711,"lon":5.43704,"is_reserved":false,"is_disabled":false,"rental_uris":{"android":"levelo://app?vid=16a8d517-fb77-4c95-8f2a-da61b8112af7","ios":"levelo://app?vid=16a8d517-fb77-4c95-8f2a-da61b8112af7"},"vehicle_type_id":"4","last_reported":1743980936,"current_range_meters":8400,"station_id":"ce4bhp92rcd13ifvqhcg","pricing_plan_id":"cebpf4jnsgd1na2vs0mg"},{"bike_id":"5e96b480-0943-41ff-bc95-79d78b1301a2","system_id":"levelo_inurba_marseille","lat":43.27541,"lon":5.42409,"is_reserved":false,"is_disabled":false,"rental_uris":{"android":"levelo://app?vid=5e96b480-0943-41ff-bc95-79d78b1301a2","ios":"levelo://app?vid=5e96b480-0943-41ff-bc95-79d78b1301a2"},"vehicle_type_id":"4","last_reported":1743980936,"current_range_meters":8400,"station_id":"","pricing_plan_id":"cebpf4jnsgd1na2vs0mg"},{"bike_id":"c603aa72-bdd7-43f2-923e-48dc30824a41","system_id":"levelo_inurba_marseille","lat":43.29253,"lon":5.40896,"is_reserved":false,"is_disabled":false,"rental_uris":{"android":"levelo://app?vid=c603aa72-bdd7-43f2-923e-48dc30824a41","ios":"levelo://app?vid=c603aa72-bdd7-43f2-923e-48dc30824a41"},"vehicle_type_id":"4","last_reported":1743980936,"current_range_meters":8400,"station_id":"ce4bh192rcd13ifvqdc0","pricing_plan_id":"cebpf4jnsgd1na2vs0mg"},{"bike_id":"4071799e-3548-46e6-ae37-92a949eaa4bc","system_id":"levelo_inurba_marseille","lat":43.31753,"lon":5.39015,"is_reserved":false,"is_disabled":false,"rental_uris":{"android":"levelo://app?vid=4071799e-3548-46e6-ae37-92a949eaa4bc","ios":"levelo://app?vid=4071799e-3548-46e6-ae37-92a949eaa4bc"},"vehicle_type_id":"4","last_reported":1743980936,"current_range_meters":8400,"station_id":"ce4bhqp2rcd13ifvqhng","pricing_plan_id":"cebpf4jnsgd1na2vs0mg"},{"bike_id":"607bc019-83aa-4c5f-9a00-7697e5e1f6b5","system_id":"levelo_inurba_marseille","lat":43.31278,"lon":5.40156,"is_reserved":false,"is_disabled":false,"rental_uris":{"android":"levelo://app?vid=607bc019-83aa-4c5f-9a00-7697e5e1f6b5","ios":"levelo://app?vid=607bc019-83aa-4c5f-9a00-7697e5e1f6b5"},"vehicle_type_id":"4","last_reported":1743980936,"current_range_meters":8400,"station_id":"ce4bh092rcd13ifvqd30","pricing_plan_id":"cebpf4jnsgd1na2vs0mg"},{"bike_id":"ccc6c65d-df72-4331-8380-bafe05d702b4","system_id":"levelo_inurba_marseille","lat":43.31327,"lon":5.39692,"is_reserved":false,"is_disabled":false,"rental_uris":{"android":"levelo://app?vid=ccc6c65d-df72-4331-8380-bafe05d702b4","ios":"levelo://app?vid=ccc6c65d-df72-4331-8380-bafe05d702b4"},"vehicle_type_id":"4","last_reported":1743980936,"current_range_meters":8400,"station_id":"ce4bgvp2rcd13ifvqcu0","pricing_plan_id":"cebpf4jnsgd1na2vs0mg"},{"bike_id":"084f6ccc-590d-4452-9786-d8e5edb81906","system_id":"levelo_inurba_marseille","lat":43.29797,"lon":5.40406,"is_reserved":false,"is_disabled":false,"rental_uris":{"android":"levelo://app?vid=084f6ccc-590d-4452-9786-d8e5edb81906","ios":"levelo://app?vid=084f6ccc-590d-4452-9786-d8e5edb81906"},"vehicle_type_id":"4","last_reported":1743980936,"current_range_meters":8400,"station_id":"ce4bh112rcd13ifvqd90","pricing_plan_id":"cebpf4jnsgd1na2vs0mg"},{"bike_id":"879c15b8-249d-4ac3-837b-467979be949e","system_id":"levelo_inurba_marseille","lat":43.2334,"lon":5.36126,"is_reserved":false,"is_disabled":false,"rental_uris":{"android":"levelo://app?vid=879c15b8-249d-4ac3-837b-467979be949e","ios":"levelo://app?vid=879c15b8-249d-4ac3-837b-467979be949e"},"vehicle_type_id":"4","last_reported":1743980936,"current_range_meters":8400,"station_id":"","pricing_plan_id":"cebpf4jnsgd1na2vs0mg"},{"bike_id":"9f29a6c0-c118-47c7-ac7b-18952a20af3f","system_id":"levelo_inurba_marseille","lat":43.306,"lon":5.39347,"is_reserved":false,"is_disabled":false,"rental_uris":{"android":"levelo://app?vid=9f29a6c0-c118-47c7-ac7b-18952a20af3f","ios":"levelo://app?vid=9f29a6c0-c118-47c7-ac7b-18952a20af3f"},"vehicle_type_id":"4","last_reported":1743980936,"current_range_meters":8800,"station_id":"ce4bh0p2rcd13ifvqd80","pricing_plan_id":"cebpf4jnsgd1na2vs0mg"},{"bike_id":"d408c9dd-eb34-4ee2-8457-e973282fef82","system_id":"levelo_inurba_marseille","lat":43.309332,"lon":5.401404,"is_reserved":false,"is_disabled":false,"rental_uris":{"android":"levelo://app?vid=d408c9dd-eb34-4ee2-8457-e973282fef82","ios":"levelo://app?vid=d408c9dd-eb34-4ee2-8457-e973282fef82"},"vehicle_type_id":"4","last_reported":1743980936,"current_range_meters":8800,"station_id":"ce4bgvp2rcd13ifvqct0","pricing_plan_id":"cebpf4jnsgd1na2vs0mg"},{"bike_id":"abde5d83-9b30-4b2f-8a88-f914ca452329","system_id":"levelo_inurba_marseille","lat":43.31207,"lon":5.38697,"is_reserved":false,"is_disabled":false,"rental_uris":{"android":"levelo://app?vid=abde5d83-9b30-4b2f-8a88-f914ca452329","ios":"levelo://app?vid=abde5d83-9b30-4b2f-8a88-f914ca452329"},"vehicle_type_id":"4","last_reported":1743980936,"current_range_meters":8800,"station_id":"ce4bgv12rcd13ifvqcp0","pricing_plan_id":"cebpf4jnsgd1na2vs0mg"},{"bike_id":"a3f88b92-3d02-4fed-8b12-0e7732d8ba6f","system_id":"levelo_inurba_marseille","lat":43.30316,"lon":5.36889,"is_reserved":false,"is_disabled":false,"rental_uris":{"android":"levelo://app?vid=a3f88b92-3d02-4fed-8b12-0e7732d8ba6f","ios":"levelo://app?vid=a3f88b92-3d02-4fed-8b12-0e7732d8ba6f"},"vehicle_type_id":"4","last_reported":1743980936,"current_range_meters":8800,"station_id":"ce4bgqh2rcd13ifvqc5g","pricing_plan_id":"cebpf4jnsgd1na2vs0mg"},{"bike_id":"660d99f1-cadb-413d-82ad-e49e35dc1993","system_id":"levelo_inurba_marseille","lat":43.30943,"lon":5.3902,"is_reserved":false,"is_disabled":false,"rental_uris":{"android":"levelo://app?vid=660d99f1-cadb-413d-82ad-e49e35dc1993","ios":"levelo://app?vid=660d99f1-cadb-413d-82ad-e49e35dc1993"},"vehicle_type_id":"4","last_reported":1743980936,"current_range_meters":8800,"station_id":"ce4bgup2rcd13ifvqco0","pricing_plan_id":"cebpf4jnsgd1na2vs0mg"},{"bike_id":"00393ee2-317d-4e98-a30d-fd25773ef49f","system_id":"levelo_inurba_marseille","lat":43.352315,"lon":5.357971,"is_reserved":false,"is_disabled":false,"rental_uris":{"android":"levelo://app?vid=00393ee2-317d-4e98-a30d-fd25773ef49f","ios":"levelo://app?vid=00393ee2-317d-4e98-a30d-fd25773ef49f"},"vehicle_type_id":"4","last_reported":1743980936,"current_range_meters":8800,"station_id":"","pricing_plan_id":"cebpf4jnsgd1na2vs0mg"},{"bike_id":"7e998a0c-eed3-46de-aa53-8ecfbd4eddbb","system_id":"levelo_inurba_marseille","lat":43.231892,"lon":5.355587,"is_reserved":false,"is_disabled":true,"rental_uris":{"android":"levelo://app?vid=7e998a0c-eed3-46de-aa53-8ecfbd4eddbb","ios":"levelo://app?vid=7e998a0c-eed3-46de-aa53-8ecfbd4eddbb"},"vehicle_type_id":"4","last_reported":1743980936,"current_range_meters":8800,"station_id":"ce4bhu92rcd13ifvqi70","pricing_plan_id":"cebpf4jnsgd1na2vs0mg"},{"bike_id":"aa2c1d8e-94ab-4e7a-825c-945a570d060b","system_id":"levelo_inurba_marseille","lat":43.28654,"lon":5.36351,"is_reserved":false,"is_disabled":false,"rental_uris":{"android":"levelo://app?vid=aa2c1d8e-94ab-4e7a-825c-945a570d060b","ios":"levelo://app?vid=aa2c1d8e-94ab-4e7a-825c-945a570d060b"},"vehicle_type_id":"4","last_reported":1743980936,"current_range_meters":8800,"station_id":"ce4bhah2rcd13ifvqej0","pricing_plan_id":"cebpf4jnsgd1na2vs0mg"},{"bike_id":"d49bb994-e832-4d05-8891-377cbe7ecf37","system_id":"levelo_inurba_marseille","lat":43.30793,"lon":5.37637,"is_reserved":false,"is_disabled":false,"rental_uris":{"android":"levelo://app?vid=d49bb994-e832-4d05-8891-377cbe7ecf37","ios":"levelo://app?vid=d49bb994-e832-4d05-8891-377cbe7ecf37"},"vehicle_type_id":"4","last_reported":1743980936,"current_range_meters":8800,"station_id":"ce4bgv92rcd13ifvqcq0","pricing_plan_id":"cebpf4jnsgd1na2vs0mg"},{"bike_id":"4815b711-7def-4ca4-828f-f82d5b3e3191","system_id":"levelo_inurba_marseille","lat":43.23152,"lon":5.43723,"is_reserved":false,"is_disabled":false,"rental_uris":{"android":"levelo://app?vid=4815b711-7def-4ca4-828f-f82d5b3e3191","ios":"levelo://app?vid=4815b711-7def-4ca4-828f-f82d5b3e3191"},"vehicle_type_id":"4","last_reported":1743980936,"current_range_meters":8800,"station_id":"ce4bhmp2rcd13ifvqgog","pricing_plan_id":"cebpf4jnsgd1na2vs0mg"},{"bike_id":"63e6c75d-bf0d-423b-8ef8-45d8dde23055","system_id":"levelo_inurba_marseille","lat":43.28708,"lon":5.37391,"is_reserved":false,"is_disabled":false,"rental_uris":{"android":"levelo://app?vid=63e6c75d-bf0d-423b-8ef8-45d8dde23055","ios":"levelo://app?vid=63e6c75d-bf0d-423b-8ef8-45d8dde23055"},"vehicle_type_id":"4","last_reported":1743980936,"current_range_meters":8800,"station_id":"ce4bh3p2rcd13ifvqdq0","pricing_plan_id":"cebpf4jnsgd1na2vs0mg"},{"bike_id":"77194db8-16dd-4af8-9355-65d05e9cb6ba","system_id":"levelo_inurba_marseille","lat":43.28727,"lon":5.39977,"is_reserved":false,"is_disabled":false,"rental_uris":{"android":"levelo://app?vid=77194db8-16dd-4af8-9355-65d05e9cb6ba","ios":"levelo://app?vid=77194db8-16dd-4af8-9355-65d05e9cb6ba"},"vehicle_type_id":"4","last_reported":1743980936,"current_range_meters":9200,"station_id":"ce4bho92rcd13ifvqh3g","pricing_plan_id":"cebpf4jnsgd1na2vs0mg"},{"bike_id":"c3221d67-6b6c-4d87-8cdf-7cf09f4c579f","system_id":"levelo_inurba_marseille","lat":43.2636,"lon":5.40444,"is_reserved":false,"is_disabled":false,"rental_uris":{"android":"levelo://app?vid=c3221d67-6b6c-4d87-8cdf-7cf09f4c579f","ios":"levelo://app?vid=c3221d67-6b6c-4d87-8cdf-7cf09f4c579f"},"vehicle_type_id":"4","last_reported":1743980936,"current_range_meters":9600,"station_id":"","pricing_plan_id":"cebpf4jnsgd1na2vs0mg"},{"bike_id":"7e114504-c80e-42c2-8dfc-3f805a80c893","system_id":"levelo_inurba_marseille","lat":43.28959,"lon":5.36382,"is_reserved":false,"is_disabled":false,"rental_uris":{"android":"levelo://app?vid=7e114504-c80e-42c2-8dfc-3f805a80c893","ios":"levelo://app?vid=7e114504-c80e-42c2-8dfc-3f805a80c893"},"vehicle_type_id":"4","last_reported":1743980936,"current_range_meters":9200,"station_id":"ce4bhc92rcd13ifvqetg","pricing_plan_id":"cebpf4jnsgd1na2vs0mg"},{"bike_id":"b9c4efe0-3fe2-4437-81f3-7f0134fcf4a5","system_id":"levelo_inurba_marseille","lat":43.24651,"lon":5.38908,"is_reserved":false,"is_disabled":false,"rental_uris":{"android":"levelo://app?vid=b9c4efe0-3fe2-4437-81f3-7f0134fcf4a5","ios":"levelo://app?vid=b9c4efe0-3fe2-4437-81f3-7f0134fcf4a5"},"vehicle_type_id":"4","last_reported":1743980936,"current_range_meters":9200,"station_id":"ce4bhg12rcd13ifvqf60","pricing_plan_id":"cebpf4jnsgd1na2vs0mg"},{"bike_id":"590bd0e2-9f1d-4e6f-9e37-05bb0e5ae5dc","system_id":"levelo_inurba_marseille","lat":43.29884,"lon":5.36416,"is_reserved":false,"is_disabled":false,"rental_uris":{"android":"levelo://app?vid=590bd0e2-9f1d-4e6f-9e37-05bb0e5ae5dc","ios":"levelo://app?vid=590bd0e2-9f1d-4e6f-9e37-05bb0e5ae5dc"},"vehicle_type_id":"4","last_reported":1743980936,"current_range_meters":9200,"station_id":"","pricing_plan_id":"cebpf4jnsgd1na2vs0mg"},{"bike_id":"511b937d-5911-4748-81b9-88b453f6c8cd","system_id":"levelo_inurba_marseille","lat":43.25681,"lon":5.41111,"is_reserved":false,"is_disabled":false,"rental_uris":{"android":"levelo://app?vid=511b937d-5911-4748-81b9-88b453f6c8cd","ios":"levelo://app?vid=511b937d-5911-4748-81b9-88b453f6c8cd"},"vehicle_type_id":"4","last_reported":1743980936,"current_range_meters":9200,"station_id":"ce4bhkp2rcd13ifvqgd0","pricing_plan_id":"cebpf4jnsgd1na2vs0mg"},{"bike_id":"093019e0-55e5-42b1-9c23-9d41c3c990a6","system_id":"levelo_inurba_marseille","lat":43.31983,"lon":5.38193,"is_reserved":false,"is_disabled":false,"rental_uris":{"android":"levelo://app?vid=093019e0-55e5-42b1-9c23-9d41c3c990a6","ios":"levelo://app?vid=093019e0-55e5-42b1-9c23-9d41c3c990a6"},"vehicle_type_id":"4","last_reported":1743980936,"current_range_meters":9200,"station_id":"ce4bhr12rcd13ifvqhpg","pricing_plan_id":"cebpf4jnsgd1na2vs0mg"},{"bike_id":"f56fa8c2-6991-4db5-9b1b-225fe2c50caf","system_id":"levelo_inurba_marseille","lat":43.28135,"lon":5.42656,"is_reserved":false,"is_disabled":false,"rental_uris":{"android":"levelo://app?vid=f56fa8c2-6991-4db5-9b1b-225fe2c50caf","ios":"levelo://app?vid=f56fa8c2-6991-4db5-9b1b-225fe2c50caf"},"vehicle_type_id":"4","last_reported":1743980936,"current_range_meters":9200,"station_id":"ce4bhnh2rcd13ifvqgug","pricing_plan_id":"cebpf4jnsgd1na2vs0mg"},{"bike_id":"d66890eb-a849-4361-8afb-8574c3836f73","system_id":"levelo_inurba_marseille","lat":43.26079,"lon":5.38708,"is_reserved":false,"is_disabled":false,"rental_uris":{"android":"levelo://app?vid=d66890eb-a849-4361-8afb-8574c3836f73","ios":"levelo://app?vid=d66890eb-a849-4361-8afb-8574c3836f73"},"vehicle_type_id":"4","last_reported":1743980936,"current_range_meters":9200,"station_id":"","pricing_plan_id":"cebpf4jnsgd1na2vs0mg"},{"bike_id":"aa9b59b6-65cb-49e0-b211-3fb1aecd03a8","system_id":"levelo_inurba_marseille","lat":43.292289,"lon":5.360682,"is_reserved":false,"is_disabled":true,"rental_uris":{"android":"levelo://app?vid=aa9b59b6-65cb-49e0-b211-3fb1aecd03a8","ios":"levelo://app?vid=aa9b59b6-65cb-49e0-b211-3fb1aecd03a8"},"vehicle_type_id":"4","last_reported":1743980936,"current_range_meters":9200,"station_id":"ce4bhbh2rcd13ifvqeqg","pricing_plan_id":"cebpf4jnsgd1na2vs0mg"},{"bike_id":"6ec31311-75e1-4828-8a1f-61320d8b8482","system_id":"levelo_inurba_marseille","lat":43.28576,"lon":5.39498,"is_reserved":false,"is_disabled":false,"rental_uris":{"android":"levelo://app?vid=6ec31311-75e1-4828-8a1f-61320d8b8482","ios":"levelo://app?vid=6ec31311-75e1-4828-8a1f-61320d8b8482"},"vehicle_type_id":"4","last_reported":1743980936,"current_range_meters":9200,"station_id":"ce4bh292rcd13ifvqdg0","pricing_plan_id":"cebpf4jnsgd1na2vs0mg"},{"bike_id":"7fd0635d-68ad-4ce6-a52b-daef56987b4b","system_id":"levelo_inurba_marseille","lat":43.30861,"lon":5.38605,"is_reserved":false,"is_disabled":false,"rental_uris":{"android":"levelo://app?vid=7fd0635d-68ad-4ce6-a52b-daef56987b4b","ios":"levelo://app?vid=7fd0635d-68ad-4ce6-a52b-daef56987b4b"},"vehicle_type_id":"4","last_reported":1743980936,"current_range_meters":9200,"station_id":"","pricing_plan_id":"cebpf4jnsgd1na2vs0mg"},{"bike_id":"ed31ce15-69ba-49a6-bcce-373d5d758bb9","system_id":"levelo_inurba_marseille","lat":43.28858,"lon":5.358517,"is_reserved":false,"is_disabled":false,"rental_uris":{"android":"levelo://app?vid=ed31ce15-69ba-49a6-bcce-373d5d758bb9","ios":"levelo://app?vid=ed31ce15-69ba-49a6-bcce-373d5d758bb9"},"vehicle_type_id":"4","last_reported":1743980936,"current_range_meters":8800,"station_id":"ce4bhb12rcd13ifvqem0","pricing_plan_id":"cebpf4jnsgd1na2vs0mg"},{"bike_id":"24d30324-ff56-4dd2-97ae-b491ca16e81b","system_id":"levelo_inurba_marseille","lat":43.28701,"lon":5.3741,"is_reserved":false,"is_disabled":false,"rental_uris":{"android":"levelo://app?vid=24d30324-ff56-4dd2-97ae-b491ca16e81b","ios":"levelo://app?vid=24d30324-ff56-4dd2-97ae-b491ca16e81b"},"vehicle_type_id":"4","last_reported":1743980936,"current_range_meters":9200,"station_id":"ce4bh3p2rcd13ifvqdq0","pricing_plan_id":"cebpf4jnsgd1na2vs0mg"},{"bike_id":"136b6e45-ee21-453e-aa22-e07947db9071","system_id":"levelo_inurba_marseille","lat":43.231739,"lon":5.437009,"is_reserved":false,"is_disabled":true,"rental_uris":{"android":"levelo://app?vid=136b6e45-ee21-453e-aa22-e07947db9071","ios":"levelo://app?vid=136b6e45-ee21-453e-aa22-e07947db9071"},"vehicle_type_id":"4","last_reported":1743980936,"current_range_meters":9200,"station_id":"ce4bhmp2rcd13ifvqgog","pricing_plan_id":"cebpf4jnsgd1na2vs0mg"},{"bike_id":"e1a3b99f-1191-4a8b-a2a6-2090c643760f","system_id":"levelo_inurba_marseille","lat":43.31274,"lon":5.40159,"is_reserved":false,"is_disabled":false,"rental_uris":{"android":"levelo://app?vid=e1a3b99f-1191-4a8b-a2a6-2090c643760f","ios":"levelo://app?vid=e1a3b99f-1191-4a8b-a2a6-2090c643760f"},"vehicle_type_id":"4","last_reported":1743980936,"current_range_meters":9600,"station_id":"ce4bh092rcd13ifvqd30","pricing_plan_id":"cebpf4jnsgd1na2vs0mg"},{"bike_id":"b92a4272-ab89-4a8d-8965-1e0d78a2b47d","system_id":"levelo_inurba_marseille","lat":43.292746,"lon":5.401199,"is_reserved":false,"is_disabled":false,"rental_uris":{"android":"levelo://app?vid=b92a4272-ab89-4a8d-8965-1e0d78a2b47d","ios":"levelo://app?vid=b92a4272-ab89-4a8d-8965-1e0d78a2b47d"},"vehicle_type_id":"4","last_reported":1743980936,"current_range_meters":9600,"station_id":"ce4bh312rcd13ifvqdk0","pricing_plan_id":"cebpf4jnsgd1na2vs0mg"},{"bike_id":"1266949c-9467-4ff8-bfa0-e172d7be7f64","system_id":"levelo_inurba_marseille","lat":43.30994,"lon":5.3662,"is_reserved":false,"is_disabled":true,"rental_uris":{"android":"levelo://app?vid=1266949c-9467-4ff8-bfa0-e172d7be7f64","ios":"levelo://app?vid=1266949c-9467-4ff8-bfa0-e172d7be7f64"},"vehicle_type_id":"4","last_reported":1743980936,"current_range_meters":9600,"station_id":"","pricing_plan_id":"cebpf4jnsgd1na2vs0mg"},{"bike_id":"72543552-8188-4373-8db0-bd2f24c14e7b","system_id":"levelo_inurba_marseille","lat":43.32277,"lon":5.37654,"is_reserved":false,"is_disabled":false,"rental_uris":{"android":"levelo://app?vid=72543552-8188-4373-8db0-bd2f24c14e7b","ios":"levelo://app?vid=72543552-8188-4373-8db0-bd2f24c14e7b"},"vehicle_type_id":"4","last_reported":1743980936,"current_range_meters":9600,"station_id":"","pricing_plan_id":"cebpf4jnsgd1na2vs0mg"},{"bike_id":"aba5e844-f429-4fca-8fbd-34616f5265a2","system_id":"levelo_inurba_marseille","lat":43.28138,"lon":5.42612,"is_reserved":false,"is_disabled":false,"rental_uris":{"android":"levelo://app?vid=aba5e844-f429-4fca-8fbd-34616f5265a2","ios":"levelo://app?vid=aba5e844-f429-4fca-8fbd-34616f5265a2"},"vehicle_type_id":"4","last_reported":1743980936,"current_range_meters":9600,"station_id":"ce4bhnh2rcd13ifvqgug","pricing_plan_id":"cebpf4jnsgd1na2vs0mg"},{"bike_id":"edaccf97-dc5b-4501-9f95-e0fff4b79492","system_id":"levelo_inurba_marseille","lat":43.27936,"lon":5.41701,"is_reserved":false,"is_disabled":false,"rental_uris":{"android":"levelo://app?vid=edaccf97-dc5b-4501-9f95-e0fff4b79492","ios":"levelo://app?vid=edaccf97-dc5b-4501-9f95-e0fff4b79492"},"vehicle_type_id":"4","last_reported":1743980936,"current_range_meters":9600,"station_id":"","pricing_plan_id":"cebpf4jnsgd1na2vs0mg"},{"bike_id":"7cd7124c-f6f9-4747-8e0d-27da608c61f7","system_id":"levelo_inurba_marseille","lat":43.30932,"lon":5.40145,"is_reserved":false,"is_disabled":false,"rental_uris":{"android":"levelo://app?vid=7cd7124c-f6f9-4747-8e0d-27da608c61f7","ios":"levelo://app?vid=7cd7124c-f6f9-4747-8e0d-27da608c61f7"},"vehicle_type_id":"4","last_reported":1743980936,"current_range_meters":9600,"station_id":"ce4bgvp2rcd13ifvqct0","pricing_plan_id":"cebpf4jnsgd1na2vs0mg"},{"bike_id":"baa461e7-b163-4792-90ce-3daa1f7984a7","system_id":"levelo_inurba_marseille","lat":43.302602,"lon":5.400622,"is_reserved":false,"is_disabled":false,"rental_uris":{"android":"levelo://app?vid=baa461e7-b163-4792-90ce-3daa1f7984a7","ios":"levelo://app?vid=baa461e7-b163-4792-90ce-3daa1f7984a7"},"vehicle_type_id":"4","last_reported":1743980936,"current_range_meters":9600,"station_id":"ce4bgvh2rcd13ifvqcs0","pricing_plan_id":"cebpf4jnsgd1na2vs0mg"},{"bike_id":"4e72b6cc-2f74-49e5-88e7-5f974f79cda9","system_id":"levelo_inurba_marseille","lat":43.30313,"lon":5.40443,"is_reserved":false,"is_disabled":false,"rental_uris":{"android":"levelo://app?vid=4e72b6cc-2f74-49e5-88e7-5f974f79cda9","ios":"levelo://app?vid=4e72b6cc-2f74-49e5-88e7-5f974f79cda9"},"vehicle_type_id":"4","last_reported":1743980936,"current_range_meters":9600,"station_id":"ce4bh012rcd13ifvqd10","pricing_plan_id":"cebpf4jnsgd1na2vs0mg"},{"bike_id":"33ae2f7e-864d-446f-8168-41922306756a","system_id":"levelo_inurba_marseille","lat":43.2867,"lon":5.38655,"is_reserved":false,"is_disabled":false,"rental_uris":{"android":"levelo://app?vid=33ae2f7e-864d-446f-8168-41922306756a","ios":"levelo://app?vid=33ae2f7e-864d-446f-8168-41922306756a"},"vehicle_type_id":"4","last_reported":1743980936,"current_range_meters":10000,"station_id":"ce4bh492rcd13ifvqdug","pricing_plan_id":"cebpf4jnsgd1na2vs0mg"},{"bike_id":"b6157195-912e-49c8-9251-05971a804456","system_id":"levelo_inurba_marseille","lat":43.24684,"lon":5.40109,"is_reserved":false,"is_disabled":false,"rental_uris":{"android":"levelo://app?vid=b6157195-912e-49c8-9251-05971a804456","ios":"levelo://app?vid=b6157195-912e-49c8-9251-05971a804456"},"vehicle_type_id":"4","last_reported":1743980936,"current_range_meters":10000,"station_id":"","pricing_plan_id":"cebpf4jnsgd1na2vs0mg"},{"bike_id":"f29aecaa-ade0-467c-986a-b65b06d523f4","system_id":"levelo_inurba_marseille","lat":43.28856,"lon":5.3934,"is_reserved":false,"is_disabled":true,"rental_uris":{"android":"levelo://app?vid=f29aecaa-ade0-467c-986a-b65b06d523f4","ios":"levelo://app?vid=f29aecaa-ade0-467c-986a-b65b06d523f4"},"vehicle_type_id":"4","last_reported":1743980936,"current_range_meters":10000,"station_id":"ce4bh2p2rcd13ifvqdi0","pricing_plan_id":"cebpf4jnsgd1na2vs0mg"},{"bike_id":"c3e6d442-6282-4c88-9f90-93d85aff9e76","system_id":"levelo_inurba_marseille","lat":43.28159,"lon":5.42646,"is_reserved":false,"is_disabled":false,"rental_uris":{"android":"levelo://app?vid=c3e6d442-6282-4c88-9f90-93d85aff9e76","ios":"levelo://app?vid=c3e6d442-6282-4c88-9f90-93d85aff9e76"},"vehicle_type_id":"4","last_reported":1743980936,"current_range_meters":10000,"station_id":"ce4bhnh2rcd13ifvqgug","pricing_plan_id":"cebpf4jnsgd1na2vs0mg"},{"bike_id":"6d16c5dc-8be5-458f-b072-014df5722e0d","system_id":"levelo_inurba_marseille","lat":43.28718,"lon":5.37925,"is_reserved":false,"is_disabled":false,"rental_uris":{"android":"levelo://app?vid=6d16c5dc-8be5-458f-b072-014df5722e0d","ios":"levelo://app?vid=6d16c5dc-8be5-458f-b072-014df5722e0d"},"vehicle_type_id":"4","last_reported":1743980936,"current_range_meters":10000,"station_id":"ce4bh9p2rcd13ifvqec0","pricing_plan_id":"cebpf4jnsgd1na2vs0mg"},{"bike_id":"351b921a-1463-4cf6-859d-ca5bd51a6e76","system_id":"levelo_inurba_marseille","lat":43.31812,"lon":5.36825,"is_reserved":false,"is_disabled":false,"rental_uris":{"android":"levelo://app?vid=351b921a-1463-4cf6-859d-ca5bd51a6e76","ios":"levelo://app?vid=351b921a-1463-4cf6-859d-ca5bd51a6e76"},"vehicle_type_id":"4","last_reported":1743980936,"current_range_meters":10000,"station_id":"","pricing_plan_id":"cebpf4jnsgd1na2vs0mg"},{"bike_id":"9177e49b-fddd-4fc1-97fc-99c9b42d7a19","system_id":"levelo_inurba_marseille","lat":43.30324,"lon":5.40438,"is_reserved":false,"is_disabled":false,"rental_uris":{"android":"levelo://app?vid=9177e49b-fddd-4fc1-97fc-99c9b42d7a19","ios":"levelo://app?vid=9177e49b-fddd-4fc1-97fc-99c9b42d7a19"},"vehicle_type_id":"4","last_reported":1743980936,"current_range_meters":10000,"station_id":"ce4bh012rcd13ifvqd10","pricing_plan_id":"cebpf4jnsgd1na2vs0mg"},{"bike_id":"2934e2cb-a24e-4858-b0c5-41a565edaee7","system_id":"levelo_inurba_marseille","lat":43.27941,"lon":5.40858,"is_reserved":false,"is_disabled":false,"rental_uris":{"android":"levelo://app?vid=2934e2cb-a24e-4858-b0c5-41a565edaee7","ios":"levelo://app?vid=2934e2cb-a24e-4858-b0c5-41a565edaee7"},"vehicle_type_id":"4","last_reported":1743980936,"current_range_meters":10000,"station_id":"","pricing_plan_id":"cebpf4jnsgd1na2vs0mg"},{"bike_id":"043f5ee7-d9a9-4103-a5d6-4b4718c7706b","system_id":"levelo_inurba_marseille","lat":43.28849,"lon":5.39317,"is_reserved":false,"is_disabled":false,"rental_uris":{"android":"levelo://app?vid=043f5ee7-d9a9-4103-a5d6-4b4718c7706b","ios":"levelo://app?vid=043f5ee7-d9a9-4103-a5d6-4b4718c7706b"},"vehicle_type_id":"4","last_reported":1743980936,"current_range_meters":10000,"station_id":"ce4bh2p2rcd13ifvqdi0","pricing_plan_id":"cebpf4jnsgd1na2vs0mg"},{"bike_id":"3e9a35d1-de44-4a45-84e7-a27ce0a23b8b","system_id":"levelo_inurba_marseille","lat":43.279915,"lon":5.416635,"is_reserved":false,"is_disabled":false,"rental_uris":{"android":"levelo://app?vid=3e9a35d1-de44-4a45-84e7-a27ce0a23b8b","ios":"levelo://app?vid=3e9a35d1-de44-4a45-84e7-a27ce0a23b8b"},"vehicle_type_id":"4","last_reported":1743980936,"current_range_meters":10000,"station_id":"ce4bho12rcd13ifvqh1g","pricing_plan_id":"cebpf4jnsgd1na2vs0mg"},{"bike_id":"606675f6-9cae-427a-83c9-8a064752327b","system_id":"levelo_inurba_marseille","lat":43.32365,"lon":5.36767,"is_reserved":false,"is_disabled":false,"rental_uris":{"android":"levelo://app?vid=606675f6-9cae-427a-83c9-8a064752327b","ios":"levelo://app?vid=606675f6-9cae-427a-83c9-8a064752327b"},"vehicle_type_id":"4","last_reported":1743980936,"current_range_meters":10000,"station_id":"ce4bhsh2rcd13ifvqi2g","pricing_plan_id":"cebpf4jnsgd1na2vs0mg"},{"bike_id":"19379d7b-b3b4-46ff-9af1-6370bf06ecc3","system_id":"levelo_inurba_marseille","lat":43.28999,"lon":5.35637,"is_reserved":false,"is_disabled":true,"rental_uris":{"android":"levelo://app?vid=19379d7b-b3b4-46ff-9af1-6370bf06ecc3","ios":"levelo://app?vid=19379d7b-b3b4-46ff-9af1-6370bf06ecc3"},"vehicle_type_id":"4","last_reported":1743980936,"current_range_meters":10000,"station_id":"ce4bhb92rcd13ifvqen0","pricing_plan_id":"cebpf4jnsgd1na2vs0mg"},{"bike_id":"8a38320c-a733-4cf5-8c8e-152497fe8f8f","system_id":"levelo_inurba_marseille","lat":43.28174,"lon":5.4262,"is_reserved":false,"is_disabled":false,"rental_uris":{"android":"levelo://app?vid=8a38320c-a733-4cf5-8c8e-152497fe8f8f","ios":"levelo://app?vid=8a38320c-a733-4cf5-8c8e-152497fe8f8f"},"vehicle_type_id":"4","last_reported":1743980936,"current_range_meters":10800,"station_id":"ce4bhnh2rcd13ifvqgug","pricing_plan_id":"cebpf4jnsgd1na2vs0mg"},{"bike_id":"1caa313b-bb8f-48c3-ad86-14dfa98d6a62","system_id":"levelo_inurba_marseille","lat":43.25588,"lon":5.38242,"is_reserved":false,"is_disabled":true,"rental_uris":{"android":"levelo://app?vid=1caa313b-bb8f-48c3-ad86-14dfa98d6a62","ios":"levelo://app?vid=1caa313b-bb8f-48c3-ad86-14dfa98d6a62"},"vehicle_type_id":"4","last_reported":1743980936,"current_range_meters":10800,"station_id":"ce4bhih2rcd13ifvqfs0","pricing_plan_id":"cebpf4jnsgd1na2vs0mg"},{"bike_id":"6ee85d75-9576-48a6-9ea1-92da0dac2d73","system_id":"levelo_inurba_marseille","lat":43.30803,"lon":5.43506,"is_reserved":false,"is_disabled":false,"rental_uris":{"android":"levelo://app?vid=6ee85d75-9576-48a6-9ea1-92da0dac2d73","ios":"levelo://app?vid=6ee85d75-9576-48a6-9ea1-92da0dac2d73"},"vehicle_type_id":"4","last_reported":1743980936,"current_range_meters":10800,"station_id":"ce4bhph2rcd13ifvqheg","pricing_plan_id":"cebpf4jnsgd1na2vs0mg"},{"bike_id":"705f2a27-b031-4b48-b70f-c56768173e9c","system_id":"levelo_inurba_marseille","lat":43.32296,"lon":5.38273,"is_reserved":false,"is_disabled":false,"rental_uris":{"android":"levelo://app?vid=705f2a27-b031-4b48-b70f-c56768173e9c","ios":"levelo://app?vid=705f2a27-b031-4b48-b70f-c56768173e9c"},"vehicle_type_id":"4","last_reported":1743980936,"current_range_meters":10800,"station_id":"ce4bhr12rcd13ifvqhqg","pricing_plan_id":"cebpf4jnsgd1na2vs0mg"},{"bike_id":"63e1d95c-79be-4b82-a868-e312bf827ceb","system_id":"levelo_inurba_marseille","lat":43.2899,"lon":5.38577,"is_reserved":false,"is_disabled":true,"rental_uris":{"android":"levelo://app?vid=63e1d95c-79be-4b82-a868-e312bf827ceb","ios":"levelo://app?vid=63e1d95c-79be-4b82-a868-e312bf827ceb"},"vehicle_type_id":"4","last_reported":1743980936,"current_range_meters":10800,"station_id":"ce4bh4p2rcd13ifvqe0g","pricing_plan_id":"cebpf4jnsgd1na2vs0mg"},{"bike_id":"f72a0969-fb19-4d3a-90e9-19756f509dbb","system_id":"levelo_inurba_marseille","lat":43.3128,"lon":5.40174,"is_reserved":false,"is_disabled":false,"rental_uris":{"android":"levelo://app?vid=f72a0969-fb19-4d3a-90e9-19756f509dbb","ios":"levelo://app?vid=f72a0969-fb19-4d3a-90e9-19756f509dbb"},"vehicle_type_id":"4","last_reported":1743980936,"current_range_meters":10800,"station_id":"ce4bh092rcd13ifvqd30","pricing_plan_id":"cebpf4jnsgd1na2vs0mg"},{"bike_id":"a1913776-e0d9-47a2-9906-ec745965407d","system_id":"levelo_inurba_marseille","lat":43.31278,"lon":5.40156,"is_reserved":false,"is_disabled":false,"rental_uris":{"android":"levelo://app?vid=a1913776-e0d9-47a2-9906-ec745965407d","ios":"levelo://app?vid=a1913776-e0d9-47a2-9906-ec745965407d"},"vehicle_type_id":"4","last_reported":1743980936,"current_range_meters":10800,"station_id":"ce4bh092rcd13ifvqd30","pricing_plan_id":"cebpf4jnsgd1na2vs0mg"},{"bike_id":"97872a21-1a99-4c02-91d9-bd084f9f2ebd","system_id":"levelo_inurba_marseille","lat":43.28151,"lon":5.42652,"is_reserved":false,"is_disabled":false,"rental_uris":{"android":"levelo://app?vid=97872a21-1a99-4c02-91d9-bd084f9f2ebd","ios":"levelo://app?vid=97872a21-1a99-4c02-91d9-bd084f9f2ebd"},"vehicle_type_id":"4","last_reported":1743980936,"current_range_meters":10800,"station_id":"ce4bhnh2rcd13ifvqgug","pricing_plan_id":"cebpf4jnsgd1na2vs0mg"},{"bike_id":"33448e42-2dee-4e4d-933a-57b94ec14f0c","system_id":"levelo_inurba_marseille","lat":43.29163,"lon":5.35603,"is_reserved":false,"is_disabled":true,"rental_uris":{"android":"levelo://app?vid=33448e42-2dee-4e4d-933a-57b94ec14f0c","ios":"levelo://app?vid=33448e42-2dee-4e4d-933a-57b94ec14f0c"},"vehicle_type_id":"4","last_reported":1743980936,"current_range_meters":10800,"station_id":"","pricing_plan_id":"cebpf4jnsgd1na2vs0mg"},{"bike_id":"0971d1a0-e3a6-4af8-b88d-ece3b09a0692","system_id":"levelo_inurba_marseille","lat":43.258315,"lon":5.39426,"is_reserved":false,"is_disabled":false,"rental_uris":{"android":"levelo://app?vid=0971d1a0-e3a6-4af8-b88d-ece3b09a0692","ios":"levelo://app?vid=0971d1a0-e3a6-4af8-b88d-ece3b09a0692"},"vehicle_type_id":"4","last_reported":1743980936,"current_range_meters":10800,"station_id":"ce4bhip2rcd13ifvqft0","pricing_plan_id":"cebpf4jnsgd1na2vs0mg"},{"bike_id":"8539495d-a8db-48e8-999c-a0eec7f95200","system_id":"levelo_inurba_marseille","lat":43.25509,"lon":5.37645,"is_reserved":false,"is_disabled":true,"rental_uris":{"android":"levelo://app?vid=8539495d-a8db-48e8-999c-a0eec7f95200","ios":"levelo://app?vid=8539495d-a8db-48e8-999c-a0eec7f95200"},"vehicle_type_id":"4","last_reported":1743980936,"current_range_meters":10800,"station_id":"ce4bhh12rcd13ifvqff0","pricing_plan_id":"cebpf4jnsgd1na2vs0mg"},{"bike_id":"90205e48-dc47-484e-9b19-84fe4bcb3fb7","system_id":"levelo_inurba_marseille","lat":43.25819,"lon":5.39431,"is_reserved":false,"is_disabled":false,"rental_uris":{"android":"levelo://app?vid=90205e48-dc47-484e-9b19-84fe4bcb3fb7","ios":"levelo://app?vid=90205e48-dc47-484e-9b19-84fe4bcb3fb7"},"vehicle_type_id":"4","last_reported":1743980936,"current_range_meters":11200,"station_id":"ce4bhip2rcd13ifvqft0","pricing_plan_id":"cebpf4jnsgd1na2vs0mg"},{"bike_id":"a409c3f0-8991-4228-afb5-57b19bb06658","system_id":"levelo_inurba_marseille","lat":43.32401,"lon":5.38997,"is_reserved":false,"is_disabled":false,"rental_uris":{"android":"levelo://app?vid=a409c3f0-8991-4228-afb5-57b19bb06658","ios":"levelo://app?vid=a409c3f0-8991-4228-afb5-57b19bb06658"},"vehicle_type_id":"4","last_reported":1743980936,"current_range_meters":11200,"station_id":"","pricing_plan_id":"cebpf4jnsgd1na2vs0mg"},{"bike_id":"6989f78b-a739-4559-b96c-fc901fb6ba6e","system_id":"levelo_inurba_marseille","lat":43.305985,"lon":5.39351,"is_reserved":false,"is_disabled":false,"rental_uris":{"android":"levelo://app?vid=6989f78b-a739-4559-b96c-fc901fb6ba6e","ios":"levelo://app?vid=6989f78b-a739-4559-b96c-fc901fb6ba6e"},"vehicle_type_id":"4","last_reported":1743980936,"current_range_meters":11200,"station_id":"ce4bh0p2rcd13ifvqd80","pricing_plan_id":"cebpf4jnsgd1na2vs0mg"},{"bike_id":"a5bd5abf-e64b-49fb-9823-db9745ea97e7","system_id":"levelo_inurba_marseille","lat":43.28924,"lon":5.36633,"is_reserved":false,"is_disabled":true,"rental_uris":{"android":"levelo://app?vid=a5bd5abf-e64b-49fb-9823-db9745ea97e7","ios":"levelo://app?vid=a5bd5abf-e64b-49fb-9823-db9745ea97e7"},"vehicle_type_id":"4","last_reported":1743980936,"current_range_meters":11200,"station_id":"ce4bhap2rcd13ifvqek0","pricing_plan_id":"cebpf4jnsgd1na2vs0mg"},{"bike_id":"e4d4dc7a-abcd-4c1d-8017-887f937d011f","system_id":"levelo_inurba_marseille","lat":43.29573,"lon":5.39976,"is_reserved":false,"is_disabled":true,"rental_uris":{"android":"levelo://app?vid=e4d4dc7a-abcd-4c1d-8017-887f937d011f","ios":"levelo://app?vid=e4d4dc7a-abcd-4c1d-8017-887f937d011f"},"vehicle_type_id":"4","last_reported":1743980936,"current_range_meters":11200,"station_id":"ce4bh312rcd13ifvqdj0","pricing_plan_id":"cebpf4jnsgd1na2vs0mg"},{"bike_id":"0a598ec2-4c19-4da9-a8e1-9ebb6e8cb905","system_id":"levelo_inurba_marseille","lat":43.25721,"lon":5.41107,"is_reserved":false,"is_disabled":false,"rental_uris":{"android":"levelo://app?vid=0a598ec2-4c19-4da9-a8e1-9ebb6e8cb905","ios":"levelo://app?vid=0a598ec2-4c19-4da9-a8e1-9ebb6e8cb905"},"vehicle_type_id":"4","last_reported":1743980936,"current_range_meters":11200,"station_id":"ce4bhkp2rcd13ifvqgd0","pricing_plan_id":"cebpf4jnsgd1na2vs0mg"},{"bike_id":"d6c3d7f4-760c-422c-8667-25e15a7934b3","system_id":"levelo_inurba_marseille","lat":43.30789,"lon":5.37403,"is_reserved":false,"is_disabled":false,"rental_uris":{"android":"levelo://app?vid=d6c3d7f4-760c-422c-8667-25e15a7934b3","ios":"levelo://app?vid=d6c3d7f4-760c-422c-8667-25e15a7934b3"},"vehicle_type_id":"4","last_reported":1743980936,"current_range_meters":11600,"station_id":"","pricing_plan_id":"cebpf4jnsgd1na2vs0mg"},{"bike_id":"fa689385-d43f-40d7-b516-aebeb21bd0aa","system_id":"levelo_inurba_marseille","lat":43.29531,"lon":5.393947,"is_reserved":false,"is_disabled":false,"rental_uris":{"android":"levelo://app?vid=fa689385-d43f-40d7-b516-aebeb21bd0aa","ios":"levelo://app?vid=fa689385-d43f-40d7-b516-aebeb21bd0aa"},"vehicle_type_id":"4","last_reported":1743980936,"current_range_meters":11600,"station_id":"ce4bh292rcd13ifvqdf0","pricing_plan_id":"cebpf4jnsgd1na2vs0mg"},{"bike_id":"34f62bea-f2eb-412e-8f55-bf9283ccb2a7","system_id":"levelo_inurba_marseille","lat":43.28285,"lon":5.38122,"is_reserved":false,"is_disabled":false,"rental_uris":{"android":"levelo://app?vid=34f62bea-f2eb-412e-8f55-bf9283ccb2a7","ios":"levelo://app?vid=34f62bea-f2eb-412e-8f55-bf9283ccb2a7"},"vehicle_type_id":"4","last_reported":1743980936,"current_range_meters":11600,"station_id":"","pricing_plan_id":"cebpf4jnsgd1na2vs0mg"},{"bike_id":"3a131c82-d16e-4cb7-8973-9592b60ab886","system_id":"levelo_inurba_marseille","lat":43.25108,"lon":5.39491,"is_reserved":false,"is_disabled":false,"rental_uris":{"android":"levelo://app?vid=3a131c82-d16e-4cb7-8973-9592b60ab886","ios":"levelo://app?vid=3a131c82-d16e-4cb7-8973-9592b60ab886"},"vehicle_type_id":"4","last_reported":1743980936,"current_range_meters":11600,"station_id":"ce4bhm12rcd13ifvqgkg","pricing_plan_id":"cebpf4jnsgd1na2vs0mg"},{"bike_id":"e53b9e9b-ac51-4f70-ad60-ed3149b8c178","system_id":"levelo_inurba_marseille","lat":43.31311,"lon":5.37341,"is_reserved":false,"is_disabled":false,"rental_uris":{"android":"levelo://app?vid=e53b9e9b-ac51-4f70-ad60-ed3149b8c178","ios":"levelo://app?vid=e53b9e9b-ac51-4f70-ad60-ed3149b8c178"},"vehicle_type_id":"4","last_reported":1743980936,"current_range_meters":11600,"station_id":"","pricing_plan_id":"cebpf4jnsgd1na2vs0mg"},{"bike_id":"1e81c4d2-6637-42bf-8d6d-5d37c0fe2360","system_id":"levelo_inurba_marseille","lat":43.32101,"lon":5.36763,"is_reserved":false,"is_disabled":false,"rental_uris":{"android":"levelo://app?vid=1e81c4d2-6637-42bf-8d6d-5d37c0fe2360","ios":"levelo://app?vid=1e81c4d2-6637-42bf-8d6d-5d37c0fe2360"},"vehicle_type_id":"4","last_reported":1743980936,"current_range_meters":11600,"station_id":"ce4bhrh2rcd13ifvqhug","pricing_plan_id":"cebpf4jnsgd1na2vs0mg"},{"bike_id":"49c6b6b9-6c97-4b2b-86f3-572bfd37634c","system_id":"levelo_inurba_marseille","lat":43.2945,"lon":5.39755,"is_reserved":false,"is_disabled":false,"rental_uris":{"android":"levelo://app?vid=49c6b6b9-6c97-4b2b-86f3-572bfd37634c","ios":"levelo://app?vid=49c6b6b9-6c97-4b2b-86f3-572bfd37634c"},"vehicle_type_id":"4","last_reported":1743980936,"current_range_meters":11600,"station_id":"ce4bh3h2rcd13ifvqdo0","pricing_plan_id":"cebpf4jnsgd1na2vs0mg"},{"bike_id":"049c7911-9bfe-4f1f-8356-bdb58f7c590e","system_id":"levelo_inurba_marseille","lat":43.28722,"lon":5.37936,"is_reserved":false,"is_disabled":false,"rental_uris":{"android":"levelo://app?vid=049c7911-9bfe-4f1f-8356-bdb58f7c590e","ios":"levelo://app?vid=049c7911-9bfe-4f1f-8356-bdb58f7c590e"},"vehicle_type_id":"4","last_reported":1743980936,"current_range_meters":11600,"station_id":"ce4bh9p2rcd13ifvqec0","pricing_plan_id":"cebpf4jnsgd1na2vs0mg"},{"bike_id":"01a1c797-c37c-417f-b77f-42306edd9074","system_id":"levelo_inurba_marseille","lat":43.30601,"lon":5.39343,"is_reserved":false,"is_disabled":false,"rental_uris":{"android":"levelo://app?vid=01a1c797-c37c-417f-b77f-42306edd9074","ios":"levelo://app?vid=01a1c797-c37c-417f-b77f-42306edd9074"},"vehicle_type_id":"4","last_reported":1743980936,"current_range_meters":11600,"station_id":"ce4bh0p2rcd13ifvqd80","pricing_plan_id":"cebpf4jnsgd1na2vs0mg"},{"bike_id":"a9a04a88-3dd0-4538-9e7a-6a8fc3b64a05","system_id":"levelo_inurba_marseille","lat":43.30601,"lon":5.39359,"is_reserved":false,"is_disabled":false,"rental_uris":{"android":"levelo://app?vid=a9a04a88-3dd0-4538-9e7a-6a8fc3b64a05","ios":"levelo://app?vid=a9a04a88-3dd0-4538-9e7a-6a8fc3b64a05"},"vehicle_type_id":"4","last_reported":1743980936,"current_range_meters":12000,"station_id":"ce4bh0p2rcd13ifvqd80","pricing_plan_id":"cebpf4jnsgd1na2vs0mg"},{"bike_id":"beb79017-286c-4e11-a539-af1cb953b0ac","system_id":"levelo_inurba_marseille","lat":43.30316,"lon":5.404453,"is_reserved":false,"is_disabled":false,"rental_uris":{"android":"levelo://app?vid=beb79017-286c-4e11-a539-af1cb953b0ac","ios":"levelo://app?vid=beb79017-286c-4e11-a539-af1cb953b0ac"},"vehicle_type_id":"4","last_reported":1743980936,"current_range_meters":12000,"station_id":"ce4bh012rcd13ifvqd10","pricing_plan_id":"cebpf4jnsgd1na2vs0mg"},{"bike_id":"a959694d-18ce-4d80-917f-23c91ed81065","system_id":"levelo_inurba_marseille","lat":43.29898,"lon":5.43644,"is_reserved":false,"is_disabled":false,"rental_uris":{"android":"levelo://app?vid=a959694d-18ce-4d80-917f-23c91ed81065","ios":"levelo://app?vid=a959694d-18ce-4d80-917f-23c91ed81065"},"vehicle_type_id":"4","last_reported":1743980936,"current_range_meters":12000,"station_id":"ce4bhpp2rcd13ifvqhfg","pricing_plan_id":"cebpf4jnsgd1na2vs0mg"},{"bike_id":"041630b9-7133-4082-95c7-ba5cfdfee77a","system_id":"levelo_inurba_marseille","lat":43.30783,"lon":5.37635,"is_reserved":false,"is_disabled":false,"rental_uris":{"android":"levelo://app?vid=041630b9-7133-4082-95c7-ba5cfdfee77a","ios":"levelo://app?vid=041630b9-7133-4082-95c7-ba5cfdfee77a"},"vehicle_type_id":"4","last_reported":1743980936,"current_range_meters":12000,"station_id":"ce4bgv92rcd13ifvqcq0","pricing_plan_id":"cebpf4jnsgd1na2vs0mg"},{"bike_id":"d893a78a-9318-483a-996e-9bec91fd98dc","system_id":"levelo_inurba_marseille","lat":43.31715,"lon":5.43688,"is_reserved":false,"is_disabled":false,"rental_uris":{"android":"levelo://app?vid=d893a78a-9318-483a-996e-9bec91fd98dc","ios":"levelo://app?vid=d893a78a-9318-483a-996e-9bec91fd98dc"},"vehicle_type_id":"4","last_reported":1743980936,"current_range_meters":12000,"station_id":"ce4bhp92rcd13ifvqhcg","pricing_plan_id":"cebpf4jnsgd1na2vs0mg"},{"bike_id":"891f1f09-6759-480b-9d4f-0756d59abf11","system_id":"levelo_inurba_marseille","lat":43.22498,"lon":5.34772,"is_reserved":false,"is_disabled":false,"rental_uris":{"android":"levelo://app?vid=891f1f09-6759-480b-9d4f-0756d59abf11","ios":"levelo://app?vid=891f1f09-6759-480b-9d4f-0756d59abf11"},"vehicle_type_id":"4","last_reported":1743980936,"current_range_meters":12000,"station_id":"ce4bh612rcd13ifvqe6g","pricing_plan_id":"cebpf4jnsgd1na2vs0mg"},{"bike_id":"bfe57f62-0f9e-4cdc-82b0-8d00041fbc63","system_id":"levelo_inurba_marseille","lat":43.24999,"lon":5.3894,"is_reserved":false,"is_disabled":false,"rental_uris":{"android":"levelo://app?vid=bfe57f62-0f9e-4cdc-82b0-8d00041fbc63","ios":"levelo://app?vid=bfe57f62-0f9e-4cdc-82b0-8d00041fbc63"},"vehicle_type_id":"4","last_reported":1743980936,"current_range_meters":12000,"station_id":"ce4bhgp2rcd13ifvqfd0","pricing_plan_id":"cebpf4jnsgd1na2vs0mg"},{"bike_id":"cdf6e462-4f33-442e-b4e5-8123fd21a045","system_id":"levelo_inurba_marseille","lat":43.31066,"lon":5.38347,"is_reserved":false,"is_disabled":false,"rental_uris":{"android":"levelo://app?vid=cdf6e462-4f33-442e-b4e5-8123fd21a045","ios":"levelo://app?vid=cdf6e462-4f33-442e-b4e5-8123fd21a045"},"vehicle_type_id":"4","last_reported":1743980936,"current_range_meters":12400,"station_id":"ce4bgv92rcd13ifvqcr0","pricing_plan_id":"cebpf4jnsgd1na2vs0mg"},{"bike_id":"e47b5a12-2df5-4644-af2f-0c942346947e","system_id":"levelo_inurba_marseille","lat":43.29544,"lon":5.42282,"is_reserved":false,"is_disabled":false,"rental_uris":{"android":"levelo://app?vid=e47b5a12-2df5-4644-af2f-0c942346947e","ios":"levelo://app?vid=e47b5a12-2df5-4644-af2f-0c942346947e"},"vehicle_type_id":"4","last_reported":1743980936,"current_range_meters":12000,"station_id":"ce4bhph2rcd13ifvqhdg","pricing_plan_id":"cebpf4jnsgd1na2vs0mg"},{"bike_id":"03459487-5609-45d6-8672-77ad1a4c94a5","system_id":"levelo_inurba_marseille","lat":43.23148,"lon":5.43716,"is_reserved":false,"is_disabled":false,"rental_uris":{"android":"levelo://app?vid=03459487-5609-45d6-8672-77ad1a4c94a5","ios":"levelo://app?vid=03459487-5609-45d6-8672-77ad1a4c94a5"},"vehicle_type_id":"4","last_reported":1743980936,"current_range_meters":12800,"station_id":"ce4bhmp2rcd13ifvqgog","pricing_plan_id":"cebpf4jnsgd1na2vs0mg"},{"bike_id":"935587bd-e327-433f-b68c-6a9a15057f6f","system_id":"levelo_inurba_marseille","lat":43.31433,"lon":5.40145,"is_reserved":false,"is_disabled":false,"rental_uris":{"android":"levelo://app?vid=935587bd-e327-433f-b68c-6a9a15057f6f","ios":"levelo://app?vid=935587bd-e327-433f-b68c-6a9a15057f6f"},"vehicle_type_id":"4","last_reported":1743980936,"current_range_meters":12800,"station_id":"","pricing_plan_id":"cebpf4jnsgd1na2vs0mg"},{"bike_id":"9856ab6d-0986-4c2b-8fe8-f60a49132fe9","system_id":"levelo_inurba_marseille","lat":43.24548,"lon":5.39527,"is_reserved":false,"is_disabled":false,"rental_uris":{"android":"levelo://app?vid=9856ab6d-0986-4c2b-8fe8-f60a49132fe9","ios":"levelo://app?vid=9856ab6d-0986-4c2b-8fe8-f60a49132fe9"},"vehicle_type_id":"4","last_reported":1743980936,"current_range_meters":12800,"station_id":"ce4bhlp2rcd13ifvqgjg","pricing_plan_id":"cebpf4jnsgd1na2vs0mg"},{"bike_id":"c6fa0727-0435-47be-b1ab-074787508819","system_id":"levelo_inurba_marseille","lat":43.28116,"lon":5.37817,"is_reserved":false,"is_disabled":false,"rental_uris":{"android":"levelo://app?vid=c6fa0727-0435-47be-b1ab-074787508819","ios":"levelo://app?vid=c6fa0727-0435-47be-b1ab-074787508819"},"vehicle_type_id":"4","last_reported":1743980936,"current_range_meters":12800,"station_id":"ce4bha12rcd13ifvqee0","pricing_plan_id":"cebpf4jnsgd1na2vs0mg"},{"bike_id":"470e80a4-55ac-4bb8-b8f3-5c1ac2837550","system_id":"levelo_inurba_marseille","lat":43.2979,"lon":5.39354,"is_reserved":false,"is_disabled":false,"rental_uris":{"android":"levelo://app?vid=470e80a4-55ac-4bb8-b8f3-5c1ac2837550","ios":"levelo://app?vid=470e80a4-55ac-4bb8-b8f3-5c1ac2837550"},"vehicle_type_id":"4","last_reported":1743980936,"current_range_meters":12800,"station_id":"chh1huq6cuj3fo74tm60","pricing_plan_id":"cebpf4jnsgd1na2vs0mg"},{"bike_id":"222e1e00-578b-4512-8bd3-f56c6fa61730","system_id":"levelo_inurba_marseille","lat":43.23959,"lon":5.3663,"is_reserved":false,"is_disabled":true,"rental_uris":{"android":"levelo://app?vid=222e1e00-578b-4512-8bd3-f56c6fa61730","ios":"levelo://app?vid=222e1e00-578b-4512-8bd3-f56c6fa61730"},"vehicle_type_id":"4","last_reported":1743980936,"current_range_meters":12800,"station_id":"ce4bhi12rcd13ifvqfp0","pricing_plan_id":"cebpf4jnsgd1na2vs0mg"},{"bike_id":"854dfe93-1fc0-489a-8cbc-c9294d11fb72","system_id":"levelo_inurba_marseille","lat":43.29923,"lon":5.37476,"is_reserved":false,"is_disabled":false,"rental_uris":{"android":"levelo://app?vid=854dfe93-1fc0-489a-8cbc-c9294d11fb72","ios":"levelo://app?vid=854dfe93-1fc0-489a-8cbc-c9294d11fb72"},"vehicle_type_id":"4","last_reported":1743980936,"current_range_meters":12800,"station_id":"ce4bgjh2rcd13ifvqbg0","pricing_plan_id":"cebpf4jnsgd1na2vs0mg"},{"bike_id":"bc95c693-17f0-42a7-8c4f-5e36b7c48978","system_id":"levelo_inurba_marseille","lat":43.30789,"lon":5.37647,"is_reserved":false,"is_disabled":false,"rental_uris":{"android":"levelo://app?vid=bc95c693-17f0-42a7-8c4f-5e36b7c48978","ios":"levelo://app?vid=bc95c693-17f0-42a7-8c4f-5e36b7c48978"},"vehicle_type_id":"4","last_reported":1743980936,"current_range_meters":13600,"station_id":"ce4bgv92rcd13ifvqcq0","pricing_plan_id":"cebpf4jnsgd1na2vs0mg"},{"bike_id":"3a6cf4dd-4a04-48a6-bbfb-6b1ea18759b5","system_id":"levelo_inurba_marseille","lat":43.32364,"lon":5.36773,"is_reserved":false,"is_disabled":false,"rental_uris":{"android":"levelo://app?vid=3a6cf4dd-4a04-48a6-bbfb-6b1ea18759b5","ios":"levelo://app?vid=3a6cf4dd-4a04-48a6-bbfb-6b1ea18759b5"},"vehicle_type_id":"4","last_reported":1743980936,"current_range_meters":13600,"station_id":"ce4bhsh2rcd13ifvqi2g","pricing_plan_id":"cebpf4jnsgd1na2vs0mg"},{"bike_id":"e9747bb7-e880-415e-9b3f-996a32cf6231","system_id":"levelo_inurba_marseille","lat":43.30602,"lon":5.39356,"is_reserved":false,"is_disabled":false,"rental_uris":{"android":"levelo://app?vid=e9747bb7-e880-415e-9b3f-996a32cf6231","ios":"levelo://app?vid=e9747bb7-e880-415e-9b3f-996a32cf6231"},"vehicle_type_id":"4","last_reported":1743980936,"current_range_meters":13600,"station_id":"ce4bh0p2rcd13ifvqd80","pricing_plan_id":"cebpf4jnsgd1na2vs0mg"},{"bike_id":"c97fab7c-4ae4-47f0-85e8-497cc634a15e","system_id":"levelo_inurba_marseille","lat":43.29442,"lon":5.39759,"is_reserved":false,"is_disabled":false,"rental_uris":{"android":"levelo://app?vid=c97fab7c-4ae4-47f0-85e8-497cc634a15e","ios":"levelo://app?vid=c97fab7c-4ae4-47f0-85e8-497cc634a15e"},"vehicle_type_id":"4","last_reported":1743980936,"current_range_meters":13600,"station_id":"ce4bh3h2rcd13ifvqdo0","pricing_plan_id":"cebpf4jnsgd1na2vs0mg"},{"bike_id":"d19affee-a7e5-482c-b631-ffb68f6b53b9","system_id":"levelo_inurba_marseille","lat":43.23179,"lon":5.39982,"is_reserved":false,"is_disabled":false,"rental_uris":{"android":"levelo://app?vid=d19affee-a7e5-482c-b631-ffb68f6b53b9","ios":"levelo://app?vid=d19affee-a7e5-482c-b631-ffb68f6b53b9"},"vehicle_type_id":"4","last_reported":1743980936,"current_range_meters":13600,"station_id":"ce4bhn12rcd13ifvqgqg","pricing_plan_id":"cebpf4jnsgd1na2vs0mg"},{"bike_id":"8f6f72ad-7fb5-49c2-9330-180a477888ea","system_id":"levelo_inurba_marseille","lat":43.30328,"lon":5.40431,"is_reserved":false,"is_disabled":false,"rental_uris":{"android":"levelo://app?vid=8f6f72ad-7fb5-49c2-9330-180a477888ea","ios":"levelo://app?vid=8f6f72ad-7fb5-49c2-9330-180a477888ea"},"vehicle_type_id":"4","last_reported":1743980936,"current_range_meters":13600,"station_id":"ce4bh012rcd13ifvqd10","pricing_plan_id":"cebpf4jnsgd1na2vs0mg"},{"bike_id":"a7ed2b15-c9ec-4171-9c58-70b036ffc8d4","system_id":"levelo_inurba_marseille","lat":43.28701,"lon":5.37391,"is_reserved":false,"is_disabled":false,"rental_uris":{"android":"levelo://app?vid=a7ed2b15-c9ec-4171-9c58-70b036ffc8d4","ios":"levelo://app?vid=a7ed2b15-c9ec-4171-9c58-70b036ffc8d4"},"vehicle_type_id":"4","last_reported":1743980936,"current_range_meters":13600,"station_id":"ce4bh3p2rcd13ifvqdq0","pricing_plan_id":"cebpf4jnsgd1na2vs0mg"},{"bike_id":"543e8a52-25b8-474c-a2e7-31d0c99c8646","system_id":"levelo_inurba_marseille","lat":43.24194,"lon":5.39721,"is_reserved":false,"is_disabled":false,"rental_uris":{"android":"levelo://app?vid=543e8a52-25b8-474c-a2e7-31d0c99c8646","ios":"levelo://app?vid=543e8a52-25b8-474c-a2e7-31d0c99c8646"},"vehicle_type_id":"4","last_reported":1743980936,"current_range_meters":13600,"station_id":"ce4bhn12rcd13ifvqgpg","pricing_plan_id":"cebpf4jnsgd1na2vs0mg"},{"bike_id":"750bc9c2-8244-4f27-a571-77c62d7d6b92","system_id":"levelo_inurba_marseille","lat":43.31281,"lon":5.377452,"is_reserved":false,"is_disabled":false,"rental_uris":{"android":"levelo://app?vid=750bc9c2-8244-4f27-a571-77c62d7d6b92","ios":"levelo://app?vid=750bc9c2-8244-4f27-a571-77c62d7d6b92"},"vehicle_type_id":"4","last_reported":1743980936,"current_range_meters":14000,"station_id":"","pricing_plan_id":"cebpf4jnsgd1na2vs0mg"},{"bike_id":"41a3e5ae-21d9-45ad-8d0e-6c145bf0865f","system_id":"levelo_inurba_marseille","lat":43.314833,"lon":5.372997,"is_reserved":false,"is_disabled":false,"rental_uris":{"android":"levelo://app?vid=41a3e5ae-21d9-45ad-8d0e-6c145bf0865f","ios":"levelo://app?vid=41a3e5ae-21d9-45ad-8d0e-6c145bf0865f"},"vehicle_type_id":"4","last_reported":1743980936,"current_range_meters":14000,"station_id":"ce4bgt12rcd13ifvqcd0","pricing_plan_id":"cebpf4jnsgd1na2vs0mg"},{"bike_id":"ad6919d4-656a-4054-b38c-a9d9c17fc334","system_id":"levelo_inurba_marseille","lat":43.28407,"lon":5.37531,"is_reserved":false,"is_disabled":false,"rental_uris":{"android":"levelo://app?vid=ad6919d4-656a-4054-b38c-a9d9c17fc334","ios":"levelo://app?vid=ad6919d4-656a-4054-b38c-a9d9c17fc334"},"vehicle_type_id":"4","last_reported":1743980936,"current_range_meters":14000,"station_id":"ce4bh412rcd13ifvqds0","pricing_plan_id":"cebpf4jnsgd1na2vs0mg"},{"bike_id":"46c28730-414e-47a3-a8fc-36235e0b6fdd","system_id":"levelo_inurba_marseille","lat":43.257282,"lon":5.411102,"is_reserved":false,"is_disabled":false,"rental_uris":{"android":"levelo://app?vid=46c28730-414e-47a3-a8fc-36235e0b6fdd","ios":"levelo://app?vid=46c28730-414e-47a3-a8fc-36235e0b6fdd"},"vehicle_type_id":"4","last_reported":1743980936,"current_range_meters":14000,"station_id":"ce4bhkp2rcd13ifvqgd0","pricing_plan_id":"cebpf4jnsgd1na2vs0mg"},{"bike_id":"7956d4b7-f9df-4616-bd52-832d0af74ae0","system_id":"levelo_inurba_marseille","lat":43.25723,"lon":5.41099,"is_reserved":false,"is_disabled":false,"rental_uris":{"android":"levelo://app?vid=7956d4b7-f9df-4616-bd52-832d0af74ae0","ios":"levelo://app?vid=7956d4b7-f9df-4616-bd52-832d0af74ae0"},"vehicle_type_id":"4","last_reported":1743980936,"current_range_meters":14000,"station_id":"ce4bhkp2rcd13ifvqgd0","pricing_plan_id":"cebpf4jnsgd1na2vs0mg"},{"bike_id":"f9a9a0f5-93f3-4938-95ab-a92857385254","system_id":"levelo_inurba_marseille","lat":43.30652,"lon":5.40094,"is_reserved":false,"is_disabled":false,"rental_uris":{"android":"levelo://app?vid=f9a9a0f5-93f3-4938-95ab-a92857385254","ios":"levelo://app?vid=f9a9a0f5-93f3-4938-95ab-a92857385254"},"vehicle_type_id":"4","last_reported":1743980936,"current_range_meters":13600,"station_id":"ce4bh112rcd13ifvqda0","pricing_plan_id":"cebpf4jnsgd1na2vs0mg"},{"bike_id":"e926ae44-9c36-4909-aca0-768b34034fa9","system_id":"levelo_inurba_marseille","lat":43.31997,"lon":5.38145,"is_reserved":false,"is_disabled":true,"rental_uris":{"android":"levelo://app?vid=e926ae44-9c36-4909-aca0-768b34034fa9","ios":"levelo://app?vid=e926ae44-9c36-4909-aca0-768b34034fa9"},"vehicle_type_id":"4","last_reported":1743980936,"current_range_meters":14000,"station_id":"ce4bhr12rcd13ifvqhpg","pricing_plan_id":"cebpf4jnsgd1na2vs0mg"},{"bike_id":"f4832abd-f35c-481e-82f2-2bb40a89ba44","system_id":"levelo_inurba_marseille","lat":43.306,"lon":5.3935,"is_reserved":false,"is_disabled":false,"rental_uris":{"android":"levelo://app?vid=f4832abd-f35c-481e-82f2-2bb40a89ba44","ios":"levelo://app?vid=f4832abd-f35c-481e-82f2-2bb40a89ba44"},"vehicle_type_id":"4","last_reported":1743980936,"current_range_meters":14000,"station_id":"ce4bh0p2rcd13ifvqd80","pricing_plan_id":"cebpf4jnsgd1na2vs0mg"},{"bike_id":"ed8fc941-f91b-4ac4-b638-8ae395bbc5c7","system_id":"levelo_inurba_marseille","lat":43.29235,"lon":5.36044,"is_reserved":false,"is_disabled":true,"rental_uris":{"android":"levelo://app?vid=ed8fc941-f91b-4ac4-b638-8ae395bbc5c7","ios":"levelo://app?vid=ed8fc941-f91b-4ac4-b638-8ae395bbc5c7"},"vehicle_type_id":"4","last_reported":1743980936,"current_range_meters":14000,"station_id":"ce4bhbh2rcd13ifvqeqg","pricing_plan_id":"cebpf4jnsgd1na2vs0mg"},{"bike_id":"d3398a9d-8182-4669-8042-b7dc0d8d1823","system_id":"levelo_inurba_marseille","lat":43.29898,"lon":5.43655,"is_reserved":false,"is_disabled":false,"rental_uris":{"android":"levelo://app?vid=d3398a9d-8182-4669-8042-b7dc0d8d1823","ios":"levelo://app?vid=d3398a9d-8182-4669-8042-b7dc0d8d1823"},"vehicle_type_id":"4","last_reported":1743980936,"current_range_meters":14400,"station_id":"ce4bhpp2rcd13ifvqhfg","pricing_plan_id":"cebpf4jnsgd1na2vs0mg"},{"bike_id":"0fd453bc-2d6e-4482-8ae4-2c4cd0a51bc1","system_id":"levelo_inurba_marseille","lat":43.30786,"lon":5.37967,"is_reserved":false,"is_disabled":false,"rental_uris":{"android":"levelo://app?vid=0fd453bc-2d6e-4482-8ae4-2c4cd0a51bc1","ios":"levelo://app?vid=0fd453bc-2d6e-4482-8ae4-2c4cd0a51bc1"},"vehicle_type_id":"4","last_reported":1743980936,"current_range_meters":14400,"station_id":"","pricing_plan_id":"cebpf4jnsgd1na2vs0mg"},{"bike_id":"73272853-088e-4b39-8e6e-94fe10fc353c","system_id":"levelo_inurba_marseille","lat":43.33767,"lon":5.37485,"is_reserved":false,"is_disabled":false,"rental_uris":{"android":"levelo://app?vid=73272853-088e-4b39-8e6e-94fe10fc353c","ios":"levelo://app?vid=73272853-088e-4b39-8e6e-94fe10fc353c"},"vehicle_type_id":"4","last_reported":1743980936,"current_range_meters":14400,"station_id":"","pricing_plan_id":"cebpf4jnsgd1na2vs0mg"},{"bike_id":"b3955141-b4e4-46ef-9f72-2d6ddb89ac2c","system_id":"levelo_inurba_marseille","lat":43.23143,"lon":5.43709,"is_reserved":false,"is_disabled":false,"rental_uris":{"android":"levelo://app?vid=b3955141-b4e4-46ef-9f72-2d6ddb89ac2c","ios":"levelo://app?vid=b3955141-b4e4-46ef-9f72-2d6ddb89ac2c"},"vehicle_type_id":"4","last_reported":1743980936,"current_range_meters":14400,"station_id":"ce4bhmp2rcd13ifvqgog","pricing_plan_id":"cebpf4jnsgd1na2vs0mg"},{"bike_id":"13bf8c16-c02c-4fba-8f49-42c0f87b2873","system_id":"levelo_inurba_marseille","lat":43.27056,"lon":5.42222,"is_reserved":false,"is_disabled":false,"rental_uris":{"android":"levelo://app?vid=13bf8c16-c02c-4fba-8f49-42c0f87b2873","ios":"levelo://app?vid=13bf8c16-c02c-4fba-8f49-42c0f87b2873"},"vehicle_type_id":"4","last_reported":1743980936,"current_range_meters":14400,"station_id":"ce4bhk92rcd13ifvqgb0","pricing_plan_id":"cebpf4jnsgd1na2vs0mg"},{"bike_id":"d3940f6d-6c26-4ccb-aa36-1b12f0ca6ef4","system_id":"levelo_inurba_marseille","lat":43.32096,"lon":5.38524,"is_reserved":false,"is_disabled":false,"rental_uris":{"android":"levelo://app?vid=d3940f6d-6c26-4ccb-aa36-1b12f0ca6ef4","ios":"levelo://app?vid=d3940f6d-6c26-4ccb-aa36-1b12f0ca6ef4"},"vehicle_type_id":"4","last_reported":1743980936,"current_range_meters":14400,"station_id":"","pricing_plan_id":"cebpf4jnsgd1na2vs0mg"},{"bike_id":"b5f969de-f00c-4527-8db7-b0bfd727b190","system_id":"levelo_inurba_marseille","lat":43.280447,"lon":5.378261,"is_reserved":false,"is_disabled":false,"rental_uris":{"android":"levelo://app?vid=b5f969de-f00c-4527-8db7-b0bfd727b190","ios":"levelo://app?vid=b5f969de-f00c-4527-8db7-b0bfd727b190"},"vehicle_type_id":"4","last_reported":1743980936,"current_range_meters":14400,"station_id":"","pricing_plan_id":"cebpf4jnsgd1na2vs0mg"},{"bike_id":"8c0277e1-e4c4-40a5-98df-41fe842b8a42","system_id":"levelo_inurba_marseille","lat":43.258241,"lon":5.394329,"is_reserved":false,"is_disabled":true,"rental_uris":{"android":"levelo://app?vid=8c0277e1-e4c4-40a5-98df-41fe842b8a42","ios":"levelo://app?vid=8c0277e1-e4c4-40a5-98df-41fe842b8a42"},"vehicle_type_id":"4","last_reported":1743980936,"current_range_meters":14400,"station_id":"ce4bhip2rcd13ifvqft0","pricing_plan_id":"cebpf4jnsgd1na2vs0mg"},{"bike_id":"f5a135ae-6da6-43f5-944c-2fcefb4a89ef","system_id":"levelo_inurba_marseille","lat":43.30928,"lon":5.40148,"is_reserved":false,"is_disabled":false,"rental_uris":{"android":"levelo://app?vid=f5a135ae-6da6-43f5-944c-2fcefb4a89ef","ios":"levelo://app?vid=f5a135ae-6da6-43f5-944c-2fcefb4a89ef"},"vehicle_type_id":"4","last_reported":1743980936,"current_range_meters":14800,"station_id":"ce4bgvp2rcd13ifvqct0","pricing_plan_id":"cebpf4jnsgd1na2vs0mg"},{"bike_id":"7c5f6e38-317a-4191-83ca-5131f56df843","system_id":"levelo_inurba_marseille","lat":43.29255,"lon":5.40899,"is_reserved":false,"is_disabled":false,"rental_uris":{"android":"levelo://app?vid=7c5f6e38-317a-4191-83ca-5131f56df843","ios":"levelo://app?vid=7c5f6e38-317a-4191-83ca-5131f56df843"},"vehicle_type_id":"4","last_reported":1743980936,"current_range_meters":14800,"station_id":"ce4bh192rcd13ifvqdc0","pricing_plan_id":"cebpf4jnsgd1na2vs0mg"},{"bike_id":"4f6cfd82-5307-4684-b9f4-f50956bdd5b1","system_id":"levelo_inurba_marseille","lat":43.3171,"lon":5.43706,"is_reserved":false,"is_disabled":false,"rental_uris":{"android":"levelo://app?vid=4f6cfd82-5307-4684-b9f4-f50956bdd5b1","ios":"levelo://app?vid=4f6cfd82-5307-4684-b9f4-f50956bdd5b1"},"vehicle_type_id":"4","last_reported":1743980936,"current_range_meters":15200,"station_id":"ce4bhp92rcd13ifvqhcg","pricing_plan_id":"cebpf4jnsgd1na2vs0mg"},{"bike_id":"8daa3e29-a6dc-495f-b0f9-540d9e71c557","system_id":"levelo_inurba_marseille","lat":43.25835,"lon":5.37875,"is_reserved":false,"is_disabled":true,"rental_uris":{"android":"levelo://app?vid=8daa3e29-a6dc-495f-b0f9-540d9e71c557","ios":"levelo://app?vid=8daa3e29-a6dc-495f-b0f9-540d9e71c557"},"vehicle_type_id":"4","last_reported":1743980936,"current_range_meters":15200,"station_id":"","pricing_plan_id":"cebpf4jnsgd1na2vs0mg"},{"bike_id":"03888cd5-4741-4687-b539-7d95c10e592b","system_id":"levelo_inurba_marseille","lat":43.251142,"lon":5.403236,"is_reserved":false,"is_disabled":false,"rental_uris":{"android":"levelo://app?vid=03888cd5-4741-4687-b539-7d95c10e592b","ios":"levelo://app?vid=03888cd5-4741-4687-b539-7d95c10e592b"},"vehicle_type_id":"4","last_reported":1743980936,"current_range_meters":15200,"station_id":"ce4bhlh2rcd13ifvqgig","pricing_plan_id":"cebpf4jnsgd1na2vs0mg"},{"bike_id":"adb4ee41-a46b-4f37-a518-a2b370471489","system_id":"levelo_inurba_marseille","lat":43.27319,"lon":5.4113,"is_reserved":false,"is_disabled":false,"rental_uris":{"android":"levelo://app?vid=adb4ee41-a46b-4f37-a518-a2b370471489","ios":"levelo://app?vid=adb4ee41-a46b-4f37-a518-a2b370471489"},"vehicle_type_id":"4","last_reported":1743980936,"current_range_meters":15200,"station_id":"","pricing_plan_id":"cebpf4jnsgd1na2vs0mg"},{"bike_id":"3af5c914-3bce-47f8-a27a-481840a2a6c0","system_id":"levelo_inurba_marseille","lat":43.26224,"lon":5.40448,"is_reserved":false,"is_disabled":false,"rental_uris":{"android":"levelo://app?vid=3af5c914-3bce-47f8-a27a-481840a2a6c0","ios":"levelo://app?vid=3af5c914-3bce-47f8-a27a-481840a2a6c0"},"vehicle_type_id":"4","last_reported":1743980936,"current_range_meters":16000,"station_id":"ce4bhmh2rcd13ifvqgmg","pricing_plan_id":"cebpf4jnsgd1na2vs0mg"},{"bike_id":"5a0662c3-0853-4343-9435-be0c1f0d88b8","system_id":"levelo_inurba_marseille","lat":43.28151,"lon":5.42641,"is_reserved":false,"is_disabled":false,"rental_uris":{"android":"levelo://app?vid=5a0662c3-0853-4343-9435-be0c1f0d88b8","ios":"levelo://app?vid=5a0662c3-0853-4343-9435-be0c1f0d88b8"},"vehicle_type_id":"4","last_reported":1743980936,"current_range_meters":16000,"station_id":"ce4bhnh2rcd13ifvqgug","pricing_plan_id":"cebpf4jnsgd1na2vs0mg"},{"bike_id":"6533610e-22fa-4c7c-839e-d351cf10362b","system_id":"levelo_inurba_marseille","lat":43.28613,"lon":5.35101,"is_reserved":false,"is_disabled":false,"rental_uris":{"android":"levelo://app?vid=6533610e-22fa-4c7c-839e-d351cf10362b","ios":"levelo://app?vid=6533610e-22fa-4c7c-839e-d351cf10362b"},"vehicle_type_id":"4","last_reported":1743980936,"current_range_meters":16000,"station_id":"ce4bhch2rcd13ifvqeug","pricing_plan_id":"cebpf4jnsgd1na2vs0mg"},{"bike_id":"d2c0f1ed-7cb7-410c-aa2f-6defec26c88a","system_id":"levelo_inurba_marseille","lat":43.27989,"lon":5.41654,"is_reserved":false,"is_disabled":false,"rental_uris":{"android":"levelo://app?vid=d2c0f1ed-7cb7-410c-aa2f-6defec26c88a","ios":"levelo://app?vid=d2c0f1ed-7cb7-410c-aa2f-6defec26c88a"},"vehicle_type_id":"4","last_reported":1743980936,"current_range_meters":16000,"station_id":"ce4bho12rcd13ifvqh1g","pricing_plan_id":"cebpf4jnsgd1na2vs0mg"},{"bike_id":"281eecc8-8685-4510-970d-43a802cd4523","system_id":"levelo_inurba_marseille","lat":43.28501,"lon":5.38424,"is_reserved":false,"is_disabled":false,"rental_uris":{"android":"levelo://app?vid=281eecc8-8685-4510-970d-43a802cd4523","ios":"levelo://app?vid=281eecc8-8685-4510-970d-43a802cd4523"},"vehicle_type_id":"4","last_reported":1743980936,"current_range_meters":16000,"station_id":"ce4bh512rcd13ifvqe3g","pricing_plan_id":"cebpf4jnsgd1na2vs0mg"},{"bike_id":"3574d125-d41c-453d-b848-638c8baed259","system_id":"levelo_inurba_marseille","lat":43.33599,"lon":5.41033,"is_reserved":false,"is_disabled":false,"rental_uris":{"android":"levelo://app?vid=3574d125-d41c-453d-b848-638c8baed259","ios":"levelo://app?vid=3574d125-d41c-453d-b848-638c8baed259"},"vehicle_type_id":"4","last_reported":1743980936,"current_range_meters":16000,"station_id":"ce4bhqh2rcd13ifvqhmg","pricing_plan_id":"cebpf4jnsgd1na2vs0mg"},{"bike_id":"f471336e-682b-4088-8a45-f07100e98f3a","system_id":"levelo_inurba_marseille","lat":43.308,"lon":5.38155,"is_reserved":false,"is_disabled":false,"rental_uris":{"android":"levelo://app?vid=f471336e-682b-4088-8a45-f07100e98f3a","ios":"levelo://app?vid=f471336e-682b-4088-8a45-f07100e98f3a"},"vehicle_type_id":"4","last_reported":1743980936,"current_range_meters":16000,"station_id":"ce4bgt12rcd13ifvqce0","pricing_plan_id":"cebpf4jnsgd1na2vs0mg"},{"bike_id":"3038e27a-3c15-4e20-acfa-201ea6a731ec","system_id":"levelo_inurba_marseille","lat":43.25826,"lon":5.39427,"is_reserved":false,"is_disabled":false,"rental_uris":{"android":"levelo://app?vid=3038e27a-3c15-4e20-acfa-201ea6a731ec","ios":"levelo://app?vid=3038e27a-3c15-4e20-acfa-201ea6a731ec"},"vehicle_type_id":"4","last_reported":1743980936,"current_range_meters":16000,"station_id":"ce4bhip2rcd13ifvqft0","pricing_plan_id":"cebpf4jnsgd1na2vs0mg"},{"bike_id":"d59d94e9-9758-4e70-8f6d-f720ca0e403c","system_id":"levelo_inurba_marseille","lat":43.27609,"lon":5.36112,"is_reserved":false,"is_disabled":true,"rental_uris":{"android":"levelo://app?vid=d59d94e9-9758-4e70-8f6d-f720ca0e403c","ios":"levelo://app?vid=d59d94e9-9758-4e70-8f6d-f720ca0e403c"},"vehicle_type_id":"4","last_reported":1743980936,"current_range_meters":16000,"station_id":"ce4bgj92rcd13ifvqbe0","pricing_plan_id":"cebpf4jnsgd1na2vs0mg"},{"bike_id":"8127a379-abcb-448e-b192-b2b588a12b57","system_id":"levelo_inurba_marseille","lat":43.257252,"lon":5.411073,"is_reserved":false,"is_disabled":false,"rental_uris":{"android":"levelo://app?vid=8127a379-abcb-448e-b192-b2b588a12b57","ios":"levelo://app?vid=8127a379-abcb-448e-b192-b2b588a12b57"},"vehicle_type_id":"4","last_reported":1743980936,"current_range_meters":16000,"station_id":"ce4bhkp2rcd13ifvqgd0","pricing_plan_id":"cebpf4jnsgd1na2vs0mg"},{"bike_id":"af69ddaf-3c35-451f-90e1-22db18d9f81c","system_id":"levelo_inurba_marseille","lat":43.30799,"lon":5.43521,"is_reserved":false,"is_disabled":false,"rental_uris":{"android":"levelo://app?vid=af69ddaf-3c35-451f-90e1-22db18d9f81c","ios":"levelo://app?vid=af69ddaf-3c35-451f-90e1-22db18d9f81c"},"vehicle_type_id":"4","last_reported":1743980936,"current_range_meters":16000,"station_id":"ce4bhph2rcd13ifvqheg","pricing_plan_id":"cebpf4jnsgd1na2vs0mg"},{"bike_id":"36bad958-5b66-40dd-af90-e706d63444a6","system_id":"levelo_inurba_marseille","lat":43.32006,"lon":5.38175,"is_reserved":false,"is_disabled":false,"rental_uris":{"android":"levelo://app?vid=36bad958-5b66-40dd-af90-e706d63444a6","ios":"levelo://app?vid=36bad958-5b66-40dd-af90-e706d63444a6"},"vehicle_type_id":"4","last_reported":1743980936,"current_range_meters":16000,"station_id":"ce4bhr12rcd13ifvqhpg","pricing_plan_id":"cebpf4jnsgd1na2vs0mg"},{"bike_id":"8ca8d5be-29df-4312-9381-63fe1db0a38b","system_id":"levelo_inurba_marseille","lat":43.31162,"lon":5.38725,"is_reserved":false,"is_disabled":false,"rental_uris":{"android":"levelo://app?vid=8ca8d5be-29df-4312-9381-63fe1db0a38b","ios":"levelo://app?vid=8ca8d5be-29df-4312-9381-63fe1db0a38b"},"vehicle_type_id":"4","last_reported":1743980936,"current_range_meters":16400,"station_id":"ce4bgv12rcd13ifvqcp0","pricing_plan_id":"cebpf4jnsgd1na2vs0mg"},{"bike_id":"7e68812f-f97b-4e36-9c60-ea450212fc32","system_id":"levelo_inurba_marseille","lat":43.28159,"lon":5.4265,"is_reserved":false,"is_disabled":false,"rental_uris":{"android":"levelo://app?vid=7e68812f-f97b-4e36-9c60-ea450212fc32","ios":"levelo://app?vid=7e68812f-f97b-4e36-9c60-ea450212fc32"},"vehicle_type_id":"4","last_reported":1743980936,"current_range_meters":16400,"station_id":"ce4bhnh2rcd13ifvqgug","pricing_plan_id":"cebpf4jnsgd1na2vs0mg"},{"bike_id":"f99db77b-2291-4d9f-becd-b40e44ef5e82","system_id":"levelo_inurba_marseille","lat":43.27982,"lon":5.41653,"is_reserved":false,"is_disabled":false,"rental_uris":{"android":"levelo://app?vid=f99db77b-2291-4d9f-becd-b40e44ef5e82","ios":"levelo://app?vid=f99db77b-2291-4d9f-becd-b40e44ef5e82"},"vehicle_type_id":"4","last_reported":1743980936,"current_range_meters":16400,"station_id":"ce4bho12rcd13ifvqh1g","pricing_plan_id":"cebpf4jnsgd1na2vs0mg"},{"bike_id":"075ca56b-9a5c-48a0-96d5-23b9a120f29b","system_id":"levelo_inurba_marseille","lat":43.29793,"lon":5.39344,"is_reserved":false,"is_disabled":false,"rental_uris":{"android":"levelo://app?vid=075ca56b-9a5c-48a0-96d5-23b9a120f29b","ios":"levelo://app?vid=075ca56b-9a5c-48a0-96d5-23b9a120f29b"},"vehicle_type_id":"4","last_reported":1743980936,"current_range_meters":16400,"station_id":"chh1huq6cuj3fo74tm60","pricing_plan_id":"cebpf4jnsgd1na2vs0mg"},{"bike_id":"940d416a-3d1a-45ff-8a21-cd1a7ca66435","system_id":"levelo_inurba_marseille","lat":43.24391,"lon":5.3706,"is_reserved":false,"is_disabled":true,"rental_uris":{"android":"levelo://app?vid=940d416a-3d1a-45ff-8a21-cd1a7ca66435","ios":"levelo://app?vid=940d416a-3d1a-45ff-8a21-cd1a7ca66435"},"vehicle_type_id":"4","last_reported":1743980936,"current_range_meters":16400,"station_id":"ce4bhhh2rcd13ifvqfk0","pricing_plan_id":"cebpf4jnsgd1na2vs0mg"},{"bike_id":"21eeb2c4-e5a7-4d72-8f52-5fe6c613b2c8","system_id":"levelo_inurba_marseille","lat":43.30431,"lon":5.38894,"is_reserved":false,"is_disabled":false,"rental_uris":{"android":"levelo://app?vid=21eeb2c4-e5a7-4d72-8f52-5fe6c613b2c8","ios":"levelo://app?vid=21eeb2c4-e5a7-4d72-8f52-5fe6c613b2c8"},"vehicle_type_id":"4","last_reported":1743980936,"current_range_meters":16400,"station_id":"ce4bgk12rcd13ifvqbi0","pricing_plan_id":"cebpf4jnsgd1na2vs0mg"},{"bike_id":"37823676-6983-4c6b-857c-cf94b572aa24","system_id":"levelo_inurba_marseille","lat":43.274978,"lon":5.424573,"is_reserved":false,"is_disabled":false,"rental_uris":{"android":"levelo://app?vid=37823676-6983-4c6b-857c-cf94b572aa24","ios":"levelo://app?vid=37823676-6983-4c6b-857c-cf94b572aa24"},"vehicle_type_id":"4","last_reported":1743980936,"current_range_meters":16400,"station_id":"ce4bhn92rcd13ifvqgrg","pricing_plan_id":"cebpf4jnsgd1na2vs0mg"},{"bike_id":"4749626e-93ed-4ff6-b79f-fb4a384afa4e","system_id":"levelo_inurba_marseille","lat":43.28414,"lon":5.34981,"is_reserved":false,"is_disabled":false,"rental_uris":{"android":"levelo://app?vid=4749626e-93ed-4ff6-b79f-fb4a384afa4e","ios":"levelo://app?vid=4749626e-93ed-4ff6-b79f-fb4a384afa4e"},"vehicle_type_id":"4","last_reported":1743980936,"current_range_meters":16400,"station_id":"ce4bhbh2rcd13ifvqepg","pricing_plan_id":"cebpf4jnsgd1na2vs0mg"},{"bike_id":"c8e5ddb0-8b1b-4cb5-a295-c15f8e89323a","system_id":"levelo_inurba_marseille","lat":43.3081,"lon":5.38152,"is_reserved":false,"is_disabled":false,"rental_uris":{"android":"levelo://app?vid=c8e5ddb0-8b1b-4cb5-a295-c15f8e89323a","ios":"levelo://app?vid=c8e5ddb0-8b1b-4cb5-a295-c15f8e89323a"},"vehicle_type_id":"4","last_reported":1743980936,"current_range_meters":16400,"station_id":"ce4bgt12rcd13ifvqce0","pricing_plan_id":"cebpf4jnsgd1na2vs0mg"},{"bike_id":"d51ac8f6-9a9a-4e22-bd81-fdfbebe96c8e","system_id":"levelo_inurba_marseille","lat":43.286175,"lon":5.351038,"is_reserved":false,"is_disabled":false,"rental_uris":{"android":"levelo://app?vid=d51ac8f6-9a9a-4e22-bd81-fdfbebe96c8e","ios":"levelo://app?vid=d51ac8f6-9a9a-4e22-bd81-fdfbebe96c8e"},"vehicle_type_id":"4","last_reported":1743980936,"current_range_meters":16400,"station_id":"ce4bhch2rcd13ifvqeug","pricing_plan_id":"cebpf4jnsgd1na2vs0mg"},{"bike_id":"79a19832-bd5e-4b52-958a-9cc99d5f789b","system_id":"levelo_inurba_marseille","lat":43.28417,"lon":5.37513,"is_reserved":false,"is_disabled":false,"rental_uris":{"android":"levelo://app?vid=79a19832-bd5e-4b52-958a-9cc99d5f789b","ios":"levelo://app?vid=79a19832-bd5e-4b52-958a-9cc99d5f789b"},"vehicle_type_id":"4","last_reported":1743980936,"current_range_meters":16800,"station_id":"ce4bh412rcd13ifvqds0","pricing_plan_id":"cebpf4jnsgd1na2vs0mg"},{"bike_id":"82f28cf6-556c-431d-a12b-bd3ce5fc2f28","system_id":"levelo_inurba_marseille","lat":43.27523,"lon":5.37768,"is_reserved":false,"is_disabled":false,"rental_uris":{"android":"levelo://app?vid=82f28cf6-556c-431d-a12b-bd3ce5fc2f28","ios":"levelo://app?vid=82f28cf6-556c-431d-a12b-bd3ce5fc2f28"},"vehicle_type_id":"4","last_reported":1743980936,"current_range_meters":16800,"station_id":"","pricing_plan_id":"cebpf4jnsgd1na2vs0mg"},{"bike_id":"d08d492d-c862-4196-9547-6bb7b782dcc9","system_id":"levelo_inurba_marseille","lat":43.31269,"lon":5.40157,"is_reserved":false,"is_disabled":false,"rental_uris":{"android":"levelo://app?vid=d08d492d-c862-4196-9547-6bb7b782dcc9","ios":"levelo://app?vid=d08d492d-c862-4196-9547-6bb7b782dcc9"},"vehicle_type_id":"4","last_reported":1743980936,"current_range_meters":16800,"station_id":"ce4bh092rcd13ifvqd30","pricing_plan_id":"cebpf4jnsgd1na2vs0mg"},{"bike_id":"4f93d616-274a-49b1-9e6e-e5e1b8328f3a","system_id":"levelo_inurba_marseille","lat":43.30326,"lon":5.4043,"is_reserved":false,"is_disabled":false,"rental_uris":{"android":"levelo://app?vid=4f93d616-274a-49b1-9e6e-e5e1b8328f3a","ios":"levelo://app?vid=4f93d616-274a-49b1-9e6e-e5e1b8328f3a"},"vehicle_type_id":"4","last_reported":1743980936,"current_range_meters":16800,"station_id":"ce4bh012rcd13ifvqd10","pricing_plan_id":"cebpf4jnsgd1na2vs0mg"},{"bike_id":"3576b946-70b3-456f-a60a-d98e227f015c","system_id":"levelo_inurba_marseille","lat":43.30362,"lon":5.38133,"is_reserved":false,"is_disabled":false,"rental_uris":{"android":"levelo://app?vid=3576b946-70b3-456f-a60a-d98e227f015c","ios":"levelo://app?vid=3576b946-70b3-456f-a60a-d98e227f015c"},"vehicle_type_id":"4","last_reported":1743980936,"current_range_meters":16800,"station_id":"ce4bgup2rcd13ifvqcn0","pricing_plan_id":"cebpf4jnsgd1na2vs0mg"},{"bike_id":"88728674-8bd3-4307-aaaa-234ba2ac57a2","system_id":"levelo_inurba_marseille","lat":43.25107,"lon":5.40323,"is_reserved":false,"is_disabled":false,"rental_uris":{"android":"levelo://app?vid=88728674-8bd3-4307-aaaa-234ba2ac57a2","ios":"levelo://app?vid=88728674-8bd3-4307-aaaa-234ba2ac57a2"},"vehicle_type_id":"4","last_reported":1743980936,"current_range_meters":16800,"station_id":"ce4bhlh2rcd13ifvqgig","pricing_plan_id":"cebpf4jnsgd1na2vs0mg"},{"bike_id":"d6a21fce-f5cc-4d1d-bb03-60d74f851a63","system_id":"levelo_inurba_marseille","lat":43.2926,"lon":5.40895,"is_reserved":false,"is_disabled":false,"rental_uris":{"android":"levelo://app?vid=d6a21fce-f5cc-4d1d-bb03-60d74f851a63","ios":"levelo://app?vid=d6a21fce-f5cc-4d1d-bb03-60d74f851a63"},"vehicle_type_id":"4","last_reported":1743980936,"current_range_meters":16800,"station_id":"ce4bh192rcd13ifvqdc0","pricing_plan_id":"cebpf4jnsgd1na2vs0mg"},{"bike_id":"4b9dfe05-0e60-423c-af4b-3ef6e8cad4ce","system_id":"levelo_inurba_marseille","lat":43.25109,"lon":5.40345,"is_reserved":false,"is_disabled":true,"rental_uris":{"android":"levelo://app?vid=4b9dfe05-0e60-423c-af4b-3ef6e8cad4ce","ios":"levelo://app?vid=4b9dfe05-0e60-423c-af4b-3ef6e8cad4ce"},"vehicle_type_id":"4","last_reported":1743980936,"current_range_meters":16800,"station_id":"ce4bhlh2rcd13ifvqgig","pricing_plan_id":"cebpf4jnsgd1na2vs0mg"},{"bike_id":"66e3c87b-665f-4453-bb43-5df54ef1ab5e","system_id":"levelo_inurba_marseille","lat":43.271993,"lon":5.392027,"is_reserved":false,"is_disabled":true,"rental_uris":{"android":"levelo://app?vid=66e3c87b-665f-4453-bb43-5df54ef1ab5e","ios":"levelo://app?vid=66e3c87b-665f-4453-bb43-5df54ef1ab5e"},"vehicle_type_id":"4","last_reported":1743980936,"current_range_meters":16800,"station_id":"ce4bhhp2rcd13ifvqfm0","pricing_plan_id":"cebpf4jnsgd1na2vs0mg"},{"bike_id":"6d294c26-8eb2-44df-a5d9-6681ca9b49d4","system_id":"levelo_inurba_marseille","lat":43.29027,"lon":5.38635,"is_reserved":false,"is_disabled":false,"rental_uris":{"android":"levelo://app?vid=6d294c26-8eb2-44df-a5d9-6681ca9b49d4","ios":"levelo://app?vid=6d294c26-8eb2-44df-a5d9-6681ca9b49d4"},"vehicle_type_id":"4","last_reported":1743980936,"current_range_meters":16800,"station_id":"ce4bh4p2rcd13ifvqe0g","pricing_plan_id":"cebpf4jnsgd1na2vs0mg"},{"bike_id":"56abf2ee-fdd6-4f7c-a928-733bbb6ef480","system_id":"levelo_inurba_marseille","lat":43.292755,"lon":5.401211,"is_reserved":false,"is_disabled":false,"rental_uris":{"android":"levelo://app?vid=56abf2ee-fdd6-4f7c-a928-733bbb6ef480","ios":"levelo://app?vid=56abf2ee-fdd6-4f7c-a928-733bbb6ef480"},"vehicle_type_id":"4","last_reported":1743980936,"current_range_meters":17200,"station_id":"ce4bh392rcd13ifvqdm0","pricing_plan_id":"cebpf4jnsgd1na2vs0mg"},{"bike_id":"f22fba10-bbe7-45de-8b42-c89060d37f8c","system_id":"levelo_inurba_marseille","lat":43.29895,"lon":5.397399,"is_reserved":false,"is_disabled":false,"rental_uris":{"android":"levelo://app?vid=f22fba10-bbe7-45de-8b42-c89060d37f8c","ios":"levelo://app?vid=f22fba10-bbe7-45de-8b42-c89060d37f8c"},"vehicle_type_id":"4","last_reported":1743980936,"current_range_meters":17200,"station_id":"ce4bh012rcd13ifvqcv0","pricing_plan_id":"cebpf4jnsgd1na2vs0mg"},{"bike_id":"d6dbfe9e-9903-4413-9e50-72b4480926a4","system_id":"levelo_inurba_marseille","lat":43.31276,"lon":5.40162,"is_reserved":false,"is_disabled":false,"rental_uris":{"android":"levelo://app?vid=d6dbfe9e-9903-4413-9e50-72b4480926a4","ios":"levelo://app?vid=d6dbfe9e-9903-4413-9e50-72b4480926a4"},"vehicle_type_id":"4","last_reported":1743980936,"current_range_meters":17200,"station_id":"ce4bh092rcd13ifvqd30","pricing_plan_id":"cebpf4jnsgd1na2vs0mg"},{"bike_id":"ada200bb-1d64-4e3e-bdfc-cb2a45493209","system_id":"levelo_inurba_marseille","lat":43.29194,"lon":5.39329,"is_reserved":false,"is_disabled":false,"rental_uris":{"android":"levelo://app?vid=ada200bb-1d64-4e3e-bdfc-cb2a45493209","ios":"levelo://app?vid=ada200bb-1d64-4e3e-bdfc-cb2a45493209"},"vehicle_type_id":"4","last_reported":1743980936,"current_range_meters":17200,"station_id":"ce4bh192rcd13ifvqdd0","pricing_plan_id":"cebpf4jnsgd1na2vs0mg"},{"bike_id":"90d75e86-7609-4a85-a7fe-315f49e5a61c","system_id":"levelo_inurba_marseille","lat":43.27173,"lon":5.40993,"is_reserved":false,"is_disabled":false,"rental_uris":{"android":"levelo://app?vid=90d75e86-7609-4a85-a7fe-315f49e5a61c","ios":"levelo://app?vid=90d75e86-7609-4a85-a7fe-315f49e5a61c"},"vehicle_type_id":"4","last_reported":1743980936,"current_range_meters":17200,"station_id":"ce4bhl12rcd13ifvqgf0","pricing_plan_id":"cebpf4jnsgd1na2vs0mg"},{"bike_id":"aa407b8d-a6af-4ca4-895d-e6f9044d54a5","system_id":"levelo_inurba_marseille","lat":43.309107,"lon":5.36871,"is_reserved":false,"is_disabled":true,"rental_uris":{"android":"levelo://app?vid=aa407b8d-a6af-4ca4-895d-e6f9044d54a5","ios":"levelo://app?vid=aa407b8d-a6af-4ca4-895d-e6f9044d54a5"},"vehicle_type_id":"4","last_reported":1743980936,"current_range_meters":17200,"station_id":"ce4bgn92rcd13ifvqbvg","pricing_plan_id":"cebpf4jnsgd1na2vs0mg"},{"bike_id":"71189761-ec20-4671-b1de-65d92b9e1e6a","system_id":"levelo_inurba_marseille","lat":43.27175,"lon":5.40995,"is_reserved":false,"is_disabled":false,"rental_uris":{"android":"levelo://app?vid=71189761-ec20-4671-b1de-65d92b9e1e6a","ios":"levelo://app?vid=71189761-ec20-4671-b1de-65d92b9e1e6a"},"vehicle_type_id":"4","last_reported":1743980936,"current_range_meters":17200,"station_id":"ce4bhl12rcd13ifvqgf0","pricing_plan_id":"cebpf4jnsgd1na2vs0mg"},{"bike_id":"db6e6f09-ab19-45bd-a1b9-8553d0074295","system_id":"levelo_inurba_marseille","lat":43.27199,"lon":5.39204,"is_reserved":false,"is_disabled":true,"rental_uris":{"android":"levelo://app?vid=db6e6f09-ab19-45bd-a1b9-8553d0074295","ios":"levelo://app?vid=db6e6f09-ab19-45bd-a1b9-8553d0074295"},"vehicle_type_id":"4","last_reported":1743980936,"current_range_meters":17200,"station_id":"ce4bhhp2rcd13ifvqfm0","pricing_plan_id":"cebpf4jnsgd1na2vs0mg"},{"bike_id":"7a5d92fd-dde5-484c-8575-b3661f78a202","system_id":"levelo_inurba_marseille","lat":43.31264,"lon":5.40152,"is_reserved":false,"is_disabled":false,"rental_uris":{"android":"levelo://app?vid=7a5d92fd-dde5-484c-8575-b3661f78a202","ios":"levelo://app?vid=7a5d92fd-dde5-484c-8575-b3661f78a202"},"vehicle_type_id":"4","last_reported":1743980936,"current_range_meters":17200,"station_id":"ce4bh092rcd13ifvqd30","pricing_plan_id":"cebpf4jnsgd1na2vs0mg"},