{"last_updated":1762585740,"ttl":60,"version":"2.2","data":{"bikes":[{"bike_id":"db78cdec-3b60-49db-85d3-f0f6c7f49cad","system_id":"levelo_inurba_marseille","lat":43.290687,"lon":5.371655,"is_reserved":false,"is_disabled":false,"rental_uris":{"android":"levelo://app?vid=db78cdec-3b60-49db-85d3-f0f6c7f49cad","ios":"levelo://app?vid=db78cdec-3b60-49db-85d3-f0f6c7f49cad"},"vehicle_type_id":"4","last_reported":1762585740,"current_range_meters":2800,"station_id":"ce4bh5p2rcd13ifvqe4g","pricing_plan_id":"cebpf4jnsgd1na2vs0mg"},{"bike_id":"65d27e87-65e0-4921-907d-34f9c6153c89","system_id":"levelo_inurba_marseille","lat":43.30149,"lon":5.38093,"is_reserved":false,"is_disabled":false,"rental_uris":{"android":"levelo://app?vid=65d27e87-65e0-4921-907d-34f9c6153c89","ios":"levelo://app?vid=65d27e87-65e0-4921-907d-34f9c6153c89"},"vehicle_type_id":"4","last_reported":1762585740,"current_range_meters":2800,"station_id":"ce4bgjp2rcd13ifvqbh0","pricing_plan_id":"cebpf4jnsgd1na2vs0mg"},{"bike_id":"81dcc136-dea2-46c0-98af-42dbdee92b54","system_id":"levelo_inurba_marseille","lat":43.284788,"lon":5.483961,"is_reserved":false,"is_disabled":false,"rental_uris":{"android":"levelo://app?vid=81dcc136-dea2-46c0-98af-42dbdee92b54","ios":"levelo://app?vid=81dcc136-dea2-46c0-98af-42dbdee92b54"},"vehicle_type_id":"4","last_reported":1762585740,"current_range_meters":2800,"station_id":"","pricing_plan_id":"cebpf4jnsgd1na2vs0mg"},{"bike_id":"210c20b5-e3d7-4847-af4a-ea66faf4cdd3","system_id":"levelo_inurba_marseille","lat":43.30786,"lon":5.37647,"is_reserved":false,"is_disabled":false,"rental_uris":{"android":"levelo://app?vid=210c20b5-e3d7-4847-af4a-ea66faf4cdd3","ios":"levelo://app?vid=210c20b5-e3d7-4847-af4a-ea66faf4cdd3"},"vehicle_type_id":"4","last_reported":1762585740,"current_range_meters":3200,"station_id":"ce4bgv92rcd13ifvqcq0","pricing_plan_id":"cebpf4jnsgd1na2vs0mg"},{"bike_id":"34d6a655-67c7-4eec-afdd-9860f67f99f4","system_id":"levelo_inurba_marseille","lat":43.2968,"lon":5.37722,"is_reserved":false,"is_disabled":false,"rental_uris":{"android":"levelo://app?vid=34d6a655-67c7-4eec-afdd-9860f67f99f4","ios":"levelo://app?vid=34d6a655-67c7-4eec-afdd-9860f67f99f4"},"vehicle_type_id":"4","last_reported":1762585740,"current_range_meters":3200,"station_id":"ce4bgkh2rcd13ifvqbl0","pricing_plan_id":"cebpf4jnsgd1na2vs0mg"},{"bike_id":"874b186c-6ec7-4094-a4dd-a249e7cc9b62","system_id":"levelo_inurba_marseille","lat":43.277359,"lon":5.426843,"is_reserved":false,"is_disabled":false,"rental_uris":{"android":"levelo://app?vid=874b186c-6ec7-4094-a4dd-a249e7cc9b62","ios":"levelo://app?vid=874b186c-6ec7-4094-a4dd-a249e7cc9b62"},"vehicle_type_id":"4","last_reported":1762585740,"current_range_meters":3200,"station_id":"","pricing_plan_id":"cebpf4jnsgd1na2vs0mg"},{"bike_id":"aa19d439-27bd-4c3e-8bea-3649bfae4721","system_id":"levelo_inurba_marseille","lat":43.30325,"lon":5.40452,"is_reserved":false,"is_disabled":false,"rental_uris":{"android":"levelo://app?vid=aa19d439-27bd-4c3e-8bea-3649bfae4721","ios":"levelo://app?vid=aa19d439-27bd-4c3e-8bea-3649bfae4721"},"vehicle_type_id":"4","last_reported":1762585740,"current_range_meters":3200,"station_id":"ce4bh012rcd13ifvqd10","pricing_plan_id":"cebpf4jnsgd1na2vs0mg"},{"bike_id":"9ba0509c-e480-435a-a9dd-b4dc36ec7f62","system_id":"levelo_inurba_marseille","lat":43.29307,"lon":5.39424,"is_reserved":false,"is_disabled":false,"rental_uris":{"android":"levelo://app?vid=9ba0509c-e480-435a-a9dd-b4dc36ec7f62","ios":"levelo://app?vid=9ba0509c-e480-435a-a9dd-b4dc36ec7f62"},"vehicle_type_id":"4","last_reported":1762585740,"current_range_meters":3200,"station_id":"","pricing_plan_id":"cebpf4jnsgd1na2vs0mg"},{"bike_id":"71967476-752a-4f5e-b222-99c0eea95f39","system_id":"levelo_inurba_marseille","lat":43.32322,"lon":5.38447,"is_reserved":false,"is_disabled":false,"rental_uris":{"android":"levelo://app?vid=71967476-752a-4f5e-b222-99c0eea95f39","ios":"levelo://app?vid=71967476-752a-4f5e-b222-99c0eea95f39"},"vehicle_type_id":"4","last_reported":1762585740,"current_range_meters":3600,"station_id":"st_d45171o9ee8s73djdqug","pricing_plan_id":"cebpf4jnsgd1na2vs0mg"},{"bike_id":"8ef5af13-dad0-4d7d-86cb-6a2190d6b172","system_id":"levelo_inurba_marseille","lat":43.30786,"lon":5.37645,"is_reserved":false,"is_disabled":false,"rental_uris":{"android":"levelo://app?vid=8ef5af13-dad0-4d7d-86cb-6a2190d6b172","ios":"levelo://app?vid=8ef5af13-dad0-4d7d-86cb-6a2190d6b172"},"vehicle_type_id":"4","last_reported":1762585740,"current_range_meters":4000,"station_id":"ce4bgv92rcd13ifvqcq0","pricing_plan_id":"cebpf4jnsgd1na2vs0mg"},{"bike_id":"00d28c32-2b6d-4277-97c6-23e6fe30be4c","system_id":"levelo_inurba_marseille","lat":43.317693,"lon":5.398662,"is_reserved":false,"is_disabled":false,"rental_uris":{"android":"levelo://app?vid=00d28c32-2b6d-4277-97c6-23e6fe30be4c","ios":"levelo://app?vid=00d28c32-2b6d-4277-97c6-23e6fe30be4c"},"vehicle_type_id":"4","last_reported":1762585740,"current_range_meters":4000,"station_id":"","pricing_plan_id":"cebpf4jnsgd1na2vs0mg"},{"bike_id":"a9209167-81d7-40c2-9e2e-d551de1eeaf3","system_id":"levelo_inurba_marseille","lat":43.306617,"lon":5.373587,"is_reserved":false,"is_disabled":false,"rental_uris":{"android":"levelo://app?vid=a9209167-81d7-40c2-9e2e-d551de1eeaf3","ios":"levelo://app?vid=a9209167-81d7-40c2-9e2e-d551de1eeaf3"},"vehicle_type_id":"4","last_reported":1762585740,"current_range_meters":4400,"station_id":"","pricing_plan_id":"cebpf4jnsgd1na2vs0mg"},{"bike_id":"ca2276de-f771-4407-ac82-d553a3158fd3","system_id":"levelo_inurba_marseille","lat":43.28855,"lon":5.39301,"is_reserved":false,"is_disabled":false,"rental_uris":{"android":"levelo://app?vid=ca2276de-f771-4407-ac82-d553a3158fd3","ios":"levelo://app?vid=ca2276de-f771-4407-ac82-d553a3158fd3"},"vehicle_type_id":"4","last_reported":1762585740,"current_range_meters":4800,"station_id":"ce4bh2p2rcd13ifvqdi0","pricing_plan_id":"cebpf4jnsgd1na2vs0mg"},{"bike_id":"acad4a45-e169-4ac6-8f82-32f040552ec8","system_id":"levelo_inurba_marseille","lat":43.311711,"lon":5.387101,"is_reserved":false,"is_disabled":false,"rental_uris":{"android":"levelo://app?vid=acad4a45-e169-4ac6-8f82-32f040552ec8","ios":"levelo://app?vid=acad4a45-e169-4ac6-8f82-32f040552ec8"},"vehicle_type_id":"4","last_reported":1762585740,"current_range_meters":4800,"station_id":"ce4bgv12rcd13ifvqcp0","pricing_plan_id":"cebpf4jnsgd1na2vs0mg"},{"bike_id":"aa073d3c-91f3-4920-9d1e-90bf82850b1e","system_id":"levelo_inurba_marseille","lat":43.337828,"lon":5.374246,"is_reserved":false,"is_disabled":false,"rental_uris":{"android":"levelo://app?vid=aa073d3c-91f3-4920-9d1e-90bf82850b1e","ios":"levelo://app?vid=aa073d3c-91f3-4920-9d1e-90bf82850b1e"},"vehicle_type_id":"4","last_reported":1762585740,"current_range_meters":4800,"station_id":"","pricing_plan_id":"cebpf4jnsgd1na2vs0mg"},{"bike_id":"9f7831f6-d20b-41d9-9965-fff730161583","system_id":"levelo_inurba_marseille","lat":43.23185,"lon":5.39989,"is_reserved":false,"is_disabled":false,"rental_uris":{"android":"levelo://app?vid=9f7831f6-d20b-41d9-9965-fff730161583","ios":"levelo://app?vid=9f7831f6-d20b-41d9-9965-fff730161583"},"vehicle_type_id":"4","last_reported":1762585740,"current_range_meters":4800,"station_id":"ce4bhn12rcd13ifvqgqg","pricing_plan_id":"cebpf4jnsgd1na2vs0mg"},{"bike_id":"bc9a55eb-c20b-454d-9da8-0f1718438310","system_id":"levelo_inurba_marseille","lat":43.30813,"lon":5.43538,"is_reserved":false,"is_disabled":true,"rental_uris":{"android":"levelo://app?vid=bc9a55eb-c20b-454d-9da8-0f1718438310","ios":"levelo://app?vid=bc9a55eb-c20b-454d-9da8-0f1718438310"},"vehicle_type_id":"4","last_reported":1762585740,"current_range_meters":5600,"station_id":"","pricing_plan_id":"cebpf4jnsgd1na2vs0mg"},{"bike_id":"ead09b1c-8570-40ed-9185-cd6ada9bd63e","system_id":"levelo_inurba_marseille","lat":43.28275,"lon":5.35092,"is_reserved":false,"is_disabled":false,"rental_uris":{"android":"levelo://app?vid=ead09b1c-8570-40ed-9185-cd6ada9bd63e","ios":"levelo://app?vid=ead09b1c-8570-40ed-9185-cd6ada9bd63e"},"vehicle_type_id":"4","last_reported":1762585740,"current_range_meters":5600,"station_id":"ce4bhbp2rcd13ifvqerg","pricing_plan_id":"cebpf4jnsgd1na2vs0mg"},{"bike_id":"42070473-e39e-4e55-a438-1d3af932bf73","system_id":"levelo_inurba_marseille","lat":43.30598,"lon":5.37202,"is_reserved":false,"is_disabled":false,"rental_uris":{"android":"levelo://app?vid=42070473-e39e-4e55-a438-1d3af932bf73","ios":"levelo://app?vid=42070473-e39e-4e55-a438-1d3af932bf73"},"vehicle_type_id":"4","last_reported":1762585740,"current_range_meters":5600,"station_id":"ce4bgqh2rcd13ifvqc4g","pricing_plan_id":"cebpf4jnsgd1na2vs0mg"},{"bike_id":"32c4054d-c111-4f1c-b188-9138aed42210","system_id":"levelo_inurba_marseille","lat":43.319887,"lon":5.415836,"is_reserved":false,"is_disabled":false,"rental_uris":{"android":"levelo://app?vid=32c4054d-c111-4f1c-b188-9138aed42210","ios":"levelo://app?vid=32c4054d-c111-4f1c-b188-9138aed42210"},"vehicle_type_id":"4","last_reported":1762585740,"current_range_meters":6000,"station_id":"","pricing_plan_id":"cebpf4jnsgd1na2vs0mg"},{"bike_id":"59b31ef2-3fe3-46e5-b5a5-685f264695ce","system_id":"levelo_inurba_marseille","lat":43.284779,"lon":5.483932,"is_reserved":false,"is_disabled":false,"rental_uris":{"android":"levelo://app?vid=59b31ef2-3fe3-46e5-b5a5-685f264695ce","ios":"levelo://app?vid=59b31ef2-3fe3-46e5-b5a5-685f264695ce"},"vehicle_type_id":"4","last_reported":1762585740,"current_range_meters":6000,"station_id":"","pricing_plan_id":"cebpf4jnsgd1na2vs0mg"},{"bike_id":"ab3a4d6b-b442-44b9-8f02-c1c222f445ba","system_id":"levelo_inurba_marseille","lat":43.27477,"lon":5.39268,"is_reserved":false,"is_disabled":false,"rental_uris":{"android":"levelo://app?vid=ab3a4d6b-b442-44b9-8f02-c1c222f445ba","ios":"levelo://app?vid=ab3a4d6b-b442-44b9-8f02-c1c222f445ba"},"vehicle_type_id":"4","last_reported":1762585740,"current_range_meters":6400,"station_id":"","pricing_plan_id":"cebpf4jnsgd1na2vs0mg"},{"bike_id":"2b83d9d4-e05f-43a1-9871-986302b06b0f","system_id":"levelo_inurba_marseille","lat":43.28727,"lon":5.37952,"is_reserved":false,"is_disabled":false,"rental_uris":{"android":"levelo://app?vid=2b83d9d4-e05f-43a1-9871-986302b06b0f","ios":"levelo://app?vid=2b83d9d4-e05f-43a1-9871-986302b06b0f"},"vehicle_type_id":"4","last_reported":1762585740,"current_range_meters":6400,"station_id":"ce4bh9p2rcd13ifvqec0","pricing_plan_id":"cebpf4jnsgd1na2vs0mg"},{"bike_id":"c83327aa-7d1f-4f7b-9ccb-c6cdf43b2653","system_id":"levelo_inurba_marseille","lat":43.28666,"lon":5.35165,"is_reserved":false,"is_disabled":false,"rental_uris":{"android":"levelo://app?vid=c83327aa-7d1f-4f7b-9ccb-c6cdf43b2653","ios":"levelo://app?vid=c83327aa-7d1f-4f7b-9ccb-c6cdf43b2653"},"vehicle_type_id":"4","last_reported":1762585740,"current_range_meters":6400,"station_id":"","pricing_plan_id":"cebpf4jnsgd1na2vs0mg"},{"bike_id":"11b968ee-44e4-4807-8754-3db01b1bc5ae","system_id":"levelo_inurba_marseille","lat":43.22945,"lon":5.35391,"is_reserved":false,"is_disabled":false,"rental_uris":{"android":"levelo://app?vid=11b968ee-44e4-4807-8754-3db01b1bc5ae","ios":"levelo://app?vid=11b968ee-44e4-4807-8754-3db01b1bc5ae"},"vehicle_type_id":"4","last_reported":1762585740,"current_range_meters":6400,"station_id":"cpo3532slgdg3j2ikp40","pricing_plan_id":"cebpf4jnsgd1na2vs0mg"},{"bike_id":"ee561c79-2396-4660-8538-551005a5e09e","system_id":"levelo_inurba_marseille","lat":43.24638,"lon":5.38162,"is_reserved":false,"is_disabled":false,"rental_uris":{"android":"levelo://app?vid=ee561c79-2396-4660-8538-551005a5e09e","ios":"levelo://app?vid=ee561c79-2396-4660-8538-551005a5e09e"},"vehicle_type_id":"4","last_reported":1762585740,"current_range_meters":6400,"station_id":"ce4bhih2rcd13ifvqfr0","pricing_plan_id":"cebpf4jnsgd1na2vs0mg"},{"bike_id":"c8bad69d-ef99-4aad-b7db-6ceda12fe1b7","system_id":"levelo_inurba_marseille","lat":43.229393,"lon":5.353785,"is_reserved":false,"is_disabled":false,"rental_uris":{"android":"levelo://app?vid=c8bad69d-ef99-4aad-b7db-6ceda12fe1b7","ios":"levelo://app?vid=c8bad69d-ef99-4aad-b7db-6ceda12fe1b7"},"vehicle_type_id":"4","last_reported":1762585740,"current_range_meters":6800,"station_id":"cpo3532slgdg3j2ikp40","pricing_plan_id":"cebpf4jnsgd1na2vs0mg"},{"bike_id":"62b597ad-0183-45ab-83ea-6b1f25540269","system_id":"levelo_inurba_marseille","lat":43.32748,"lon":5.452123,"is_reserved":false,"is_disabled":true,"rental_uris":{"android":"levelo://app?vid=62b597ad-0183-45ab-83ea-6b1f25540269","ios":"levelo://app?vid=62b597ad-0183-45ab-83ea-6b1f25540269"},"vehicle_type_id":"4","last_reported":1762585740,"current_range_meters":6800,"station_id":"","pricing_plan_id":"cebpf4jnsgd1na2vs0mg"},{"bike_id":"29286810-4e00-47d2-931c-f00791dac858","system_id":"levelo_inurba_marseille","lat":43.287548,"lon":5.384309,"is_reserved":false,"is_disabled":false,"rental_uris":{"android":"levelo://app?vid=29286810-4e00-47d2-931c-f00791dac858","ios":"levelo://app?vid=29286810-4e00-47d2-931c-f00791dac858"},"vehicle_type_id":"4","last_reported":1762585740,"current_range_meters":6800,"station_id":"","pricing_plan_id":"cebpf4jnsgd1na2vs0mg"},{"bike_id":"03ee7be6-df6c-4bab-96b9-7bf654274d6d","system_id":"levelo_inurba_marseille","lat":43.31029,"lon":5.40076,"is_reserved":false,"is_disabled":false,"rental_uris":{"android":"levelo://app?vid=03ee7be6-df6c-4bab-96b9-7bf654274d6d","ios":"levelo://app?vid=03ee7be6-df6c-4bab-96b9-7bf654274d6d"},"vehicle_type_id":"4","last_reported":1762585740,"current_range_meters":7200,"station_id":"","pricing_plan_id":"cebpf4jnsgd1na2vs0mg"},{"bike_id":"170b2450-1329-4e36-81d0-979414155fe8","system_id":"levelo_inurba_marseille","lat":43.28456,"lon":5.35895,"is_reserved":false,"is_disabled":false,"rental_uris":{"android":"levelo://app?vid=170b2450-1329-4e36-81d0-979414155fe8","ios":"levelo://app?vid=170b2450-1329-4e36-81d0-979414155fe8"},"vehicle_type_id":"4","last_reported":1762585740,"current_range_meters":7200,"station_id":"ce4bhah2rcd13ifvqei0","pricing_plan_id":"cebpf4jnsgd1na2vs0mg"},{"bike_id":"4b43b88a-19ba-493c-8f6d-495cdc9d5f37","system_id":"levelo_inurba_marseille","lat":43.29208,"lon":5.35804,"is_reserved":false,"is_disabled":false,"rental_uris":{"android":"levelo://app?vid=4b43b88a-19ba-493c-8f6d-495cdc9d5f37","ios":"levelo://app?vid=4b43b88a-19ba-493c-8f6d-495cdc9d5f37"},"vehicle_type_id":"4","last_reported":1762585740,"current_range_meters":7200,"station_id":"ce4bhb12rcd13ifvqel0","pricing_plan_id":"cebpf4jnsgd1na2vs0mg"},{"bike_id":"ef2fe57e-ecba-4765-96d3-8349654ec56e","system_id":"levelo_inurba_marseille","lat":43.32927,"lon":5.36416,"is_reserved":false,"is_disabled":false,"rental_uris":{"android":"levelo://app?vid=ef2fe57e-ecba-4765-96d3-8349654ec56e","ios":"levelo://app?vid=ef2fe57e-ecba-4765-96d3-8349654ec56e"},"vehicle_type_id":"4","last_reported":1762585740,"current_range_meters":7200,"station_id":"","pricing_plan_id":"cebpf4jnsgd1na2vs0mg"},{"bike_id":"0e20a5d9-0ab3-4e71-a3ef-c9be28fc5551","system_id":"levelo_inurba_marseille","lat":43.28547,"lon":5.44138,"is_reserved":false,"is_disabled":false,"rental_uris":{"android":"levelo://app?vid=0e20a5d9-0ab3-4e71-a3ef-c9be28fc5551","ios":"levelo://app?vid=0e20a5d9-0ab3-4e71-a3ef-c9be28fc5551"},"vehicle_type_id":"4","last_reported":1762585740,"current_range_meters":7200,"station_id":"st_d3j3df2ikq2c7380ej80","pricing_plan_id":"cebpf4jnsgd1na2vs0mg"},{"bike_id":"43cfab9e-f547-4304-9999-4a8329474751","system_id":"levelo_inurba_marseille","lat":43.212001,"lon":5.350653,"is_reserved":false,"is_disabled":false,"rental_uris":{"android":"levelo://app?vid=43cfab9e-f547-4304-9999-4a8329474751","ios":"levelo://app?vid=43cfab9e-f547-4304-9999-4a8329474751"},"vehicle_type_id":"4","last_reported":1762585740,"current_range_meters":7200,"station_id":"st_cvj6sg6p6f1abm77japg","pricing_plan_id":"cebpf4jnsgd1na2vs0mg"},{"bike_id":"52ed934a-2ff5-41fa-a2bb-15c06e5e6824","system_id":"levelo_inurba_marseille","lat":43.30209,"lon":5.39473,"is_reserved":false,"is_disabled":false,"rental_uris":{"android":"levelo://app?vid=52ed934a-2ff5-41fa-a2bb-15c06e5e6824","ios":"levelo://app?vid=52ed934a-2ff5-41fa-a2bb-15c06e5e6824"},"vehicle_type_id":"4","last_reported":1762585740,"current_range_meters":8000,"station_id":"ce4bh0p2rcd13ifvqd70","pricing_plan_id":"cebpf4jnsgd1na2vs0mg"},{"bike_id":"711b5184-06a1-46c6-b1ad-270408b914a4","system_id":"levelo_inurba_marseille","lat":43.3001,"lon":5.40971,"is_reserved":false,"is_disabled":false,"rental_uris":{"android":"levelo://app?vid=711b5184-06a1-46c6-b1ad-270408b914a4","ios":"levelo://app?vid=711b5184-06a1-46c6-b1ad-270408b914a4"},"vehicle_type_id":"4","last_reported":1762585740,"current_range_meters":8000,"station_id":"","pricing_plan_id":"cebpf4jnsgd1na2vs0mg"},{"bike_id":"70c2a076-2d80-4849-8902-80b36fb4d0c9","system_id":"levelo_inurba_marseille","lat":43.24809,"lon":5.37467,"is_reserved":false,"is_disabled":false,"rental_uris":{"android":"levelo://app?vid=70c2a076-2d80-4849-8902-80b36fb4d0c9","ios":"levelo://app?vid=70c2a076-2d80-4849-8902-80b36fb4d0c9"},"vehicle_type_id":"4","last_reported":1762585740,"current_range_meters":8000,"station_id":"ce4bhgh2rcd13ifvqfb0","pricing_plan_id":"cebpf4jnsgd1na2vs0mg"},{"bike_id":"c687f5b8-73fc-4bba-bdba-8dae557f7ae6","system_id":"levelo_inurba_marseille","lat":43.27381,"lon":5.36256,"is_reserved":false,"is_disabled":true,"rental_uris":{"android":"levelo://app?vid=c687f5b8-73fc-4bba-bdba-8dae557f7ae6","ios":"levelo://app?vid=c687f5b8-73fc-4bba-bdba-8dae557f7ae6"},"vehicle_type_id":"4","last_reported":1762585740,"current_range_meters":8400,"station_id":"ce4bhbh2rcd13ifvqeo0","pricing_plan_id":"cebpf4jnsgd1na2vs0mg"},{"bike_id":"05c639a2-6660-40ed-a12f-85b485fe188e","system_id":"levelo_inurba_marseille","lat":43.292164,"lon":5.357676,"is_reserved":false,"is_disabled":false,"rental_uris":{"android":"levelo://app?vid=05c639a2-6660-40ed-a12f-85b485fe188e","ios":"levelo://app?vid=05c639a2-6660-40ed-a12f-85b485fe188e"},"vehicle_type_id":"4","last_reported":1762585740,"current_range_meters":8400,"station_id":"ce4bhb12rcd13ifvqel0","pricing_plan_id":"cebpf4jnsgd1na2vs0mg"},{"bike_id":"86fda3f2-5bc1-4967-82e4-3c6b047edee9","system_id":"levelo_inurba_marseille","lat":43.28939,"lon":5.39626,"is_reserved":false,"is_disabled":false,"rental_uris":{"android":"levelo://app?vid=86fda3f2-5bc1-4967-82e4-3c6b047edee9","ios":"levelo://app?vid=86fda3f2-5bc1-4967-82e4-3c6b047edee9"},"vehicle_type_id":"4","last_reported":1762585740,"current_range_meters":8400,"station_id":"ce4bh3h2rcd13ifvqdn0","pricing_plan_id":"cebpf4jnsgd1na2vs0mg"},{"bike_id":"7cc80a12-edb5-4225-be23-edc8fea2e832","system_id":"levelo_inurba_marseille","lat":43.30212,"lon":5.3946,"is_reserved":false,"is_disabled":false,"rental_uris":{"android":"levelo://app?vid=7cc80a12-edb5-4225-be23-edc8fea2e832","ios":"levelo://app?vid=7cc80a12-edb5-4225-be23-edc8fea2e832"},"vehicle_type_id":"4","last_reported":1762585740,"current_range_meters":8400,"station_id":"ce4bh0p2rcd13ifvqd70","pricing_plan_id":"cebpf4jnsgd1na2vs0mg"},{"bike_id":"34c14480-831b-41a9-b30b-a1e8f994a110","system_id":"levelo_inurba_marseille","lat":43.30828,"lon":5.37152,"is_reserved":false,"is_disabled":false,"rental_uris":{"android":"levelo://app?vid=34c14480-831b-41a9-b30b-a1e8f994a110","ios":"levelo://app?vid=34c14480-831b-41a9-b30b-a1e8f994a110"},"vehicle_type_id":"4","last_reported":1762585740,"current_range_meters":8400,"station_id":"","pricing_plan_id":"cebpf4jnsgd1na2vs0mg"},{"bike_id":"f3b9728a-d5dd-4800-a470-496c509b5639","system_id":"levelo_inurba_marseille","lat":43.262208,"lon":5.404483,"is_reserved":false,"is_disabled":true,"rental_uris":{"android":"levelo://app?vid=f3b9728a-d5dd-4800-a470-496c509b5639","ios":"levelo://app?vid=f3b9728a-d5dd-4800-a470-496c509b5639"},"vehicle_type_id":"4","last_reported":1762585740,"current_range_meters":8400,"station_id":"ce4bhmh2rcd13ifvqgmg","pricing_plan_id":"cebpf4jnsgd1na2vs0mg"},{"bike_id":"ff52e6d2-0126-428b-8241-f19a2cd5a014","system_id":"levelo_inurba_marseille","lat":43.269677,"lon":5.386133,"is_reserved":false,"is_disabled":false,"rental_uris":{"android":"levelo://app?vid=ff52e6d2-0126-428b-8241-f19a2cd5a014","ios":"levelo://app?vid=ff52e6d2-0126-428b-8241-f19a2cd5a014"},"vehicle_type_id":"4","last_reported":1762585740,"current_range_meters":8400,"station_id":"ce4bhh92rcd13ifvqfh0","pricing_plan_id":"cebpf4jnsgd1na2vs0mg"},{"bike_id":"c541d6c6-d855-480d-9416-ad1e26b18f93","system_id":"levelo_inurba_marseille","lat":43.295167,"lon":5.393957,"is_reserved":false,"is_disabled":true,"rental_uris":{"android":"levelo://app?vid=c541d6c6-d855-480d-9416-ad1e26b18f93","ios":"levelo://app?vid=c541d6c6-d855-480d-9416-ad1e26b18f93"},"vehicle_type_id":"4","last_reported":1762585740,"current_range_meters":8400,"station_id":"ce4bh292rcd13ifvqdf0","pricing_plan_id":"cebpf4jnsgd1na2vs0mg"},{"bike_id":"f30a7889-2840-4358-8e04-3d64796b2aa5","system_id":"levelo_inurba_marseille","lat":43.284618,"lon":5.358869,"is_reserved":false,"is_disabled":false,"rental_uris":{"android":"levelo://app?vid=f30a7889-2840-4358-8e04-3d64796b2aa5","ios":"levelo://app?vid=f30a7889-2840-4358-8e04-3d64796b2aa5"},"vehicle_type_id":"4","last_reported":1762585740,"current_range_meters":8800,"station_id":"ce4bhah2rcd13ifvqei0","pricing_plan_id":"cebpf4jnsgd1na2vs0mg"},{"bike_id":"0d793615-7842-408d-a2e8-f35d0193e402","system_id":"levelo_inurba_marseille","lat":43.29306,"lon":5.37159,"is_reserved":false,"is_disabled":false,"rental_uris":{"android":"levelo://app?vid=0d793615-7842-408d-a2e8-f35d0193e402","ios":"levelo://app?vid=0d793615-7842-408d-a2e8-f35d0193e402"},"vehicle_type_id":"4","last_reported":1762585740,"current_range_meters":8800,"station_id":"","pricing_plan_id":"cebpf4jnsgd1na2vs0mg"},{"bike_id":"470fbe84-4292-424a-81a1-ddc5d0fc9959","system_id":"levelo_inurba_marseille","lat":43.3114,"lon":5.39609,"is_reserved":false,"is_disabled":false,"rental_uris":{"android":"levelo://app?vid=470fbe84-4292-424a-81a1-ddc5d0fc9959","ios":"levelo://app?vid=470fbe84-4292-424a-81a1-ddc5d0fc9959"},"vehicle_type_id":"4","last_reported":1762585740,"current_range_meters":8800,"station_id":"","pricing_plan_id":"cebpf4jnsgd1na2vs0mg"},{"bike_id":"5bee8f0f-57fe-4257-a72a-04a4967570b5","system_id":"levelo_inurba_marseille","lat":43.30048,"lon":5.37714,"is_reserved":false,"is_disabled":false,"rental_uris":{"android":"levelo://app?vid=5bee8f0f-57fe-4257-a72a-04a4967570b5","ios":"levelo://app?vid=5bee8f0f-57fe-4257-a72a-04a4967570b5"},"vehicle_type_id":"4","last_reported":1762585740,"current_range_meters":8800,"station_id":"","pricing_plan_id":"cebpf4jnsgd1na2vs0mg"},{"bike_id":"5c17ed12-8897-4f84-bbfc-85419a7f8038","system_id":"levelo_inurba_marseille","lat":43.270831,"lon":5.394907,"is_reserved":false,"is_disabled":false,"rental_uris":{"android":"levelo://app?vid=5c17ed12-8897-4f84-bbfc-85419a7f8038","ios":"levelo://app?vid=5c17ed12-8897-4f84-bbfc-85419a7f8038"},"vehicle_type_id":"4","last_reported":1762585740,"current_range_meters":9200,"station_id":"","pricing_plan_id":"cebpf4jnsgd1na2vs0mg"},{"bike_id":"7c392732-2900-41fd-8c6d-e5b49cdf67b5","system_id":"levelo_inurba_marseille","lat":43.29722,"lon":5.38261,"is_reserved":false,"is_disabled":false,"rental_uris":{"android":"levelo://app?vid=7c392732-2900-41fd-8c6d-e5b49cdf67b5","ios":"levelo://app?vid=7c392732-2900-41fd-8c6d-e5b49cdf67b5"},"vehicle_type_id":"4","last_reported":1762585740,"current_range_meters":9200,"station_id":"","pricing_plan_id":"cebpf4jnsgd1na2vs0mg"},{"bike_id":"571dd34e-b2d1-44a6-b1b8-25010748ddec","system_id":"levelo_inurba_marseille","lat":43.2706,"lon":5.40259,"is_reserved":false,"is_disabled":false,"rental_uris":{"android":"levelo://app?vid=571dd34e-b2d1-44a6-b1b8-25010748ddec","ios":"levelo://app?vid=571dd34e-b2d1-44a6-b1b8-25010748ddec"},"vehicle_type_id":"4","last_reported":1762585740,"current_range_meters":9200,"station_id":"ce4bhk92rcd13ifvqgc0","pricing_plan_id":"cebpf4jnsgd1na2vs0mg"},{"bike_id":"a7ab2b2e-00fd-426b-a177-825c9d989067","system_id":"levelo_inurba_marseille","lat":43.26571,"lon":5.38991,"is_reserved":false,"is_disabled":false,"rental_uris":{"android":"levelo://app?vid=a7ab2b2e-00fd-426b-a177-825c9d989067","ios":"levelo://app?vid=a7ab2b2e-00fd-426b-a177-825c9d989067"},"vehicle_type_id":"4","last_reported":1762585740,"current_range_meters":9200,"station_id":"ce4bhe12rcd13ifvqf30","pricing_plan_id":"cebpf4jnsgd1na2vs0mg"},{"bike_id":"c751c0b1-622c-4b13-bb23-8819ff281f7d","system_id":"levelo_inurba_marseille","lat":43.26565,"lon":5.40319,"is_reserved":false,"is_disabled":false,"rental_uris":{"android":"levelo://app?vid=c751c0b1-622c-4b13-bb23-8819ff281f7d","ios":"levelo://app?vid=c751c0b1-622c-4b13-bb23-8819ff281f7d"},"vehicle_type_id":"4","last_reported":1762585740,"current_range_meters":9200,"station_id":"ce4bhmp2rcd13ifvqgng","pricing_plan_id":"cebpf4jnsgd1na2vs0mg"},{"bike_id":"2e0f5b64-65ed-42b3-9deb-fc4f03eedfcc","system_id":"levelo_inurba_marseille","lat":43.285305,"lon":5.441053,"is_reserved":false,"is_disabled":false,"rental_uris":{"android":"levelo://app?vid=2e0f5b64-65ed-42b3-9deb-fc4f03eedfcc","ios":"levelo://app?vid=2e0f5b64-65ed-42b3-9deb-fc4f03eedfcc"},"vehicle_type_id":"4","last_reported":1762585740,"current_range_meters":9200,"station_id":"st_d3j3df2ikq2c7380ej80","pricing_plan_id":"cebpf4jnsgd1na2vs0mg"},{"bike_id":"aa1f24b6-8789-4cae-8496-b026c4e38b7f","system_id":"levelo_inurba_marseille","lat":43.311184,"lon":5.37766,"is_reserved":false,"is_disabled":false,"rental_uris":{"android":"levelo://app?vid=aa1f24b6-8789-4cae-8496-b026c4e38b7f","ios":"levelo://app?vid=aa1f24b6-8789-4cae-8496-b026c4e38b7f"},"vehicle_type_id":"4","last_reported":1762585740,"current_range_meters":9600,"station_id":"ce4bgt92rcd13ifvqcg0","pricing_plan_id":"cebpf4jnsgd1na2vs0mg"},{"bike_id":"29116f2b-a4f6-4524-90b1-320b10865e08","system_id":"levelo_inurba_marseille","lat":43.2535,"lon":5.42199,"is_reserved":false,"is_disabled":false,"rental_uris":{"android":"levelo://app?vid=29116f2b-a4f6-4524-90b1-320b10865e08","ios":"levelo://app?vid=29116f2b-a4f6-4524-90b1-320b10865e08"},"vehicle_type_id":"4","last_reported":1762585740,"current_range_meters":9600,"station_id":"st_d2m65c5bi1j21697t3ng","pricing_plan_id":"cebpf4jnsgd1na2vs0mg"},{"bike_id":"676f9b84-4eb4-49d4-bb45-1c4cb446cd66","system_id":"levelo_inurba_marseille","lat":43.33027,"lon":5.39032,"is_reserved":false,"is_disabled":false,"rental_uris":{"android":"levelo://app?vid=676f9b84-4eb4-49d4-bb45-1c4cb446cd66","ios":"levelo://app?vid=676f9b84-4eb4-49d4-bb45-1c4cb446cd66"},"vehicle_type_id":"4","last_reported":1762585740,"current_range_meters":9600,"station_id":"ce4bhr92rcd13ifvqhrg","pricing_plan_id":"cebpf4jnsgd1na2vs0mg"},{"bike_id":"78bd5f74-b07f-4aac-b566-26ecec6fd5df","system_id":"levelo_inurba_marseille","lat":43.30662,"lon":5.38038,"is_reserved":false,"is_disabled":false,"rental_uris":{"android":"levelo://app?vid=78bd5f74-b07f-4aac-b566-26ecec6fd5df","ios":"levelo://app?vid=78bd5f74-b07f-4aac-b566-26ecec6fd5df"},"vehicle_type_id":"4","last_reported":1762585740,"current_range_meters":9600,"station_id":"","pricing_plan_id":"cebpf4jnsgd1na2vs0mg"},{"bike_id":"e29dcacd-c5cb-4908-af39-1ab6b3c10bce","system_id":"levelo_inurba_marseille","lat":43.28092,"lon":5.37871,"is_reserved":false,"is_disabled":false,"rental_uris":{"android":"levelo://app?vid=e29dcacd-c5cb-4908-af39-1ab6b3c10bce","ios":"levelo://app?vid=e29dcacd-c5cb-4908-af39-1ab6b3c10bce"},"vehicle_type_id":"4","last_reported":1762585740,"current_range_meters":9600,"station_id":"ce4bha12rcd13ifvqee0","pricing_plan_id":"cebpf4jnsgd1na2vs0mg"},{"bike_id":"a2ec949e-c37a-495b-8442-97f4baf2297c","system_id":"levelo_inurba_marseille","lat":43.23783,"lon":5.36634,"is_reserved":false,"is_disabled":false,"rental_uris":{"android":"levelo://app?vid=a2ec949e-c37a-495b-8442-97f4baf2297c","ios":"levelo://app?vid=a2ec949e-c37a-495b-8442-97f4baf2297c"},"vehicle_type_id":"4","last_reported":1762585740,"current_range_meters":9600,"station_id":"st_d3nk18o9ro0c73en2l3g","pricing_plan_id":"cebpf4jnsgd1na2vs0mg"},{"bike_id":"3a6b939b-8483-4a00-8652-d825cdd856d7","system_id":"levelo_inurba_marseille","lat":43.225566,"lon":5.416355,"is_reserved":false,"is_disabled":false,"rental_uris":{"android":"levelo://app?vid=3a6b939b-8483-4a00-8652-d825cdd856d7","ios":"levelo://app?vid=3a6b939b-8483-4a00-8652-d825cdd856d7"},"vehicle_type_id":"4","last_reported":1762585740,"current_range_meters":9600,"station_id":"st_d2o4gvlbi1j2169b742g","pricing_plan_id":"cebpf4jnsgd1na2vs0mg"},{"bike_id":"23d4b732-c785-4a74-a220-93191f06591d","system_id":"levelo_inurba_marseille","lat":43.21202,"lon":5.35059,"is_reserved":false,"is_disabled":false,"rental_uris":{"android":"levelo://app?vid=23d4b732-c785-4a74-a220-93191f06591d","ios":"levelo://app?vid=23d4b732-c785-4a74-a220-93191f06591d"},"vehicle_type_id":"4","last_reported":1762585740,"current_range_meters":9600,"station_id":"st_cvj6sg6p6f1abm77japg","pricing_plan_id":"cebpf4jnsgd1na2vs0mg"},{"bike_id":"8e6ed807-f053-47d1-b4b3-1f37f36e767e","system_id":"levelo_inurba_marseille","lat":43.26806,"lon":5.40261,"is_reserved":false,"is_disabled":false,"rental_uris":{"android":"levelo://app?vid=8e6ed807-f053-47d1-b4b3-1f37f36e767e","ios":"levelo://app?vid=8e6ed807-f053-47d1-b4b3-1f37f36e767e"},"vehicle_type_id":"4","last_reported":1762585740,"current_range_meters":10000,"station_id":"ce501612rcd8frsf0b60","pricing_plan_id":"cebpf4jnsgd1na2vs0mg"},{"bike_id":"64e92a6a-2f45-455b-ba80-b4124ff82d6a","system_id":"levelo_inurba_marseille","lat":43.30774,"lon":5.37644,"is_reserved":false,"is_disabled":false,"rental_uris":{"android":"levelo://app?vid=64e92a6a-2f45-455b-ba80-b4124ff82d6a","ios":"levelo://app?vid=64e92a6a-2f45-455b-ba80-b4124ff82d6a"},"vehicle_type_id":"4","last_reported":1762585740,"current_range_meters":10000,"station_id":"ce4bgv92rcd13ifvqcq0","pricing_plan_id":"cebpf4jnsgd1na2vs0mg"},{"bike_id":"8173a514-ee0e-4d13-a5c7-5b8de0dd9a8d","system_id":"levelo_inurba_marseille","lat":43.265655,"lon":5.403262,"is_reserved":false,"is_disabled":false,"rental_uris":{"android":"levelo://app?vid=8173a514-ee0e-4d13-a5c7-5b8de0dd9a8d","ios":"levelo://app?vid=8173a514-ee0e-4d13-a5c7-5b8de0dd9a8d"},"vehicle_type_id":"4","last_reported":1762585740,"current_range_meters":10000,"station_id":"ce4bhmp2rcd13ifvqgng","pricing_plan_id":"cebpf4jnsgd1na2vs0mg"},{"bike_id":"d068a1f6-0ce9-4d94-8ac2-f615b8bc2741","system_id":"levelo_inurba_marseille","lat":43.25925,"lon":5.40922,"is_reserved":false,"is_disabled":false,"rental_uris":{"android":"levelo://app?vid=d068a1f6-0ce9-4d94-8ac2-f615b8bc2741","ios":"levelo://app?vid=d068a1f6-0ce9-4d94-8ac2-f615b8bc2741"},"vehicle_type_id":"4","last_reported":1762585740,"current_range_meters":10000,"station_id":"ce4bhm92rcd13ifvqglg","pricing_plan_id":"cebpf4jnsgd1na2vs0mg"},{"bike_id":"20b70735-1140-4388-9251-8a1b26695a7d","system_id":"levelo_inurba_marseille","lat":43.278943,"lon":5.380153,"is_reserved":false,"is_disabled":false,"rental_uris":{"android":"levelo://app?vid=20b70735-1140-4388-9251-8a1b26695a7d","ios":"levelo://app?vid=20b70735-1140-4388-9251-8a1b26695a7d"},"vehicle_type_id":"4","last_reported":1762585740,"current_range_meters":10000,"station_id":"ce4bhf92rcd13ifvqf50","pricing_plan_id":"cebpf4jnsgd1na2vs0mg"},{"bike_id":"a0ea519d-554f-42a0-93a3-d4c181552c78","system_id":"levelo_inurba_marseille","lat":43.31271,"lon":5.37761,"is_reserved":false,"is_disabled":false,"rental_uris":{"android":"levelo://app?vid=a0ea519d-554f-42a0-93a3-d4c181552c78","ios":"levelo://app?vid=a0ea519d-554f-42a0-93a3-d4c181552c78"},"vehicle_type_id":"4","last_reported":1762585740,"current_range_meters":10000,"station_id":"","pricing_plan_id":"cebpf4jnsgd1na2vs0mg"},{"bike_id":"310115a0-7bf2-4a4a-9d53-56bf6918e4d0","system_id":"levelo_inurba_marseille","lat":43.284794,"lon":5.483987,"is_reserved":false,"is_disabled":false,"rental_uris":{"android":"levelo://app?vid=310115a0-7bf2-4a4a-9d53-56bf6918e4d0","ios":"levelo://app?vid=310115a0-7bf2-4a4a-9d53-56bf6918e4d0"},"vehicle_type_id":"4","last_reported":1762585740,"current_range_meters":10800,"station_id":"st_d3svhcjqgbts73a3dn0g","pricing_plan_id":"cebpf4jnsgd1na2vs0mg"},{"bike_id":"28731ee2-3f6c-441a-810e-5b7ef268b4a3","system_id":"levelo_inurba_marseille","lat":43.299385,"lon":5.365478,"is_reserved":false,"is_disabled":false,"rental_uris":{"android":"levelo://app?vid=28731ee2-3f6c-441a-810e-5b7ef268b4a3","ios":"levelo://app?vid=28731ee2-3f6c-441a-810e-5b7ef268b4a3"},"vehicle_type_id":"4","last_reported":1762585740,"current_range_meters":10800,"station_id":"ce4bgm92rcd13ifvqbr0","pricing_plan_id":"cebpf4jnsgd1na2vs0mg"},{"bike_id":"4548bfb3-06f4-4b10-aaa4-465cca5b7e05","system_id":"levelo_inurba_marseille","lat":43.285397,"lon":5.441034,"is_reserved":false,"is_disabled":false,"rental_uris":{"android":"levelo://app?vid=4548bfb3-06f4-4b10-aaa4-465cca5b7e05","ios":"levelo://app?vid=4548bfb3-06f4-4b10-aaa4-465cca5b7e05"},"vehicle_type_id":"4","last_reported":1762585740,"current_range_meters":10800,"station_id":"st_d3j3df2ikq2c7380ej80","pricing_plan_id":"cebpf4jnsgd1na2vs0mg"},{"bike_id":"22918fb7-a391-4f35-8c21-8eb60e2ab03f","system_id":"levelo_inurba_marseille","lat":43.22552,"lon":5.41627,"is_reserved":false,"is_disabled":false,"rental_uris":{"android":"levelo://app?vid=22918fb7-a391-4f35-8c21-8eb60e2ab03f","ios":"levelo://app?vid=22918fb7-a391-4f35-8c21-8eb60e2ab03f"},"vehicle_type_id":"4","last_reported":1762585740,"current_range_meters":10800,"station_id":"st_d2o4gvlbi1j2169b742g","pricing_plan_id":"cebpf4jnsgd1na2vs0mg"},{"bike_id":"a88522c2-7f31-460d-8b59-1c10109fed19","system_id":"levelo_inurba_marseille","lat":43.31424,"lon":5.37589,"is_reserved":false,"is_disabled":false,"rental_uris":{"android":"levelo://app?vid=a88522c2-7f31-460d-8b59-1c10109fed19","ios":"levelo://app?vid=a88522c2-7f31-460d-8b59-1c10109fed19"},"vehicle_type_id":"4","last_reported":1762585740,"current_range_meters":10800,"station_id":"","pricing_plan_id":"cebpf4jnsgd1na2vs0mg"},{"bike_id":"755efed8-d4cd-4607-b2ac-87dbb7cf66a0","system_id":"levelo_inurba_marseille","lat":43.31718,"lon":5.37763,"is_reserved":false,"is_disabled":false,"rental_uris":{"android":"levelo://app?vid=755efed8-d4cd-4607-b2ac-87dbb7cf66a0","ios":"levelo://app?vid=755efed8-d4cd-4607-b2ac-87dbb7cf66a0"},"vehicle_type_id":"4","last_reported":1762585740,"current_range_meters":10800,"station_id":"ce4bgth2rcd13ifvqch0","pricing_plan_id":"cebpf4jnsgd1na2vs0mg"},{"bike_id":"3771f242-ebc1-4678-84d4-230be10e9f54","system_id":"levelo_inurba_marseille","lat":43.253397,"lon":5.42151,"is_reserved":false,"is_disabled":false,"rental_uris":{"android":"levelo://app?vid=3771f242-ebc1-4678-84d4-230be10e9f54","ios":"levelo://app?vid=3771f242-ebc1-4678-84d4-230be10e9f54"},"vehicle_type_id":"4","last_reported":1762585740,"current_range_meters":10800,"station_id":"st_d2m65c5bi1j21697t3ng","pricing_plan_id":"cebpf4jnsgd1na2vs0mg"},{"bike_id":"d1e75683-f47c-4a5c-a95e-f4edfa3ed255","system_id":"levelo_inurba_marseille","lat":43.290331,"lon":5.386484,"is_reserved":false,"is_disabled":false,"rental_uris":{"android":"levelo://app?vid=d1e75683-f47c-4a5c-a95e-f4edfa3ed255","ios":"levelo://app?vid=d1e75683-f47c-4a5c-a95e-f4edfa3ed255"},"vehicle_type_id":"4","last_reported":1762585740,"current_range_meters":10800,"station_id":"ce4bh4p2rcd13ifvqe0g","pricing_plan_id":"cebpf4jnsgd1na2vs0mg"},{"bike_id":"dff6b6ac-b7da-4e65-b854-fe9dc1ccc19c","system_id":"levelo_inurba_marseille","lat":43.320427,"lon":5.415838,"is_reserved":false,"is_disabled":true,"rental_uris":{"android":"levelo://app?vid=dff6b6ac-b7da-4e65-b854-fe9dc1ccc19c","ios":"levelo://app?vid=dff6b6ac-b7da-4e65-b854-fe9dc1ccc19c"},"vehicle_type_id":"4","last_reported":1762585740,"current_range_meters":10800,"station_id":"ce4bhq92rcd13ifvqhkg","pricing_plan_id":"cebpf4jnsgd1na2vs0mg"},{"bike_id":"fd658234-bc11-47f9-aa2d-b6e9ecd08417","system_id":"levelo_inurba_marseille","lat":43.32497,"lon":5.36673,"is_reserved":false,"is_disabled":false,"rental_uris":{"android":"levelo://app?vid=fd658234-bc11-47f9-aa2d-b6e9ecd08417","ios":"levelo://app?vid=fd658234-bc11-47f9-aa2d-b6e9ecd08417"},"vehicle_type_id":"4","last_reported":1762585740,"current_range_meters":10800,"station_id":"","pricing_plan_id":"cebpf4jnsgd1na2vs0mg"},{"bike_id":"9af0687b-3e79-4e11-b844-dd239618aeba","system_id":"levelo_inurba_marseille","lat":43.28869,"lon":5.42518,"is_reserved":false,"is_disabled":false,"rental_uris":{"android":"levelo://app?vid=9af0687b-3e79-4e11-b844-dd239618aeba","ios":"levelo://app?vid=9af0687b-3e79-4e11-b844-dd239618aeba"},"vehicle_type_id":"4","last_reported":1762585740,"current_range_meters":11200,"station_id":"st_d3b462108ojc7389ooeg","pricing_plan_id":"cebpf4jnsgd1na2vs0mg"},{"bike_id":"5375c47b-1ab7-42f0-a9a6-810d3d006dc3","system_id":"levelo_inurba_marseille","lat":43.30799,"lon":5.38153,"is_reserved":false,"is_disabled":false,"rental_uris":{"android":"levelo://app?vid=5375c47b-1ab7-42f0-a9a6-810d3d006dc3","ios":"levelo://app?vid=5375c47b-1ab7-42f0-a9a6-810d3d006dc3"},"vehicle_type_id":"4","last_reported":1762585740,"current_range_meters":11200,"station_id":"ce4bgt12rcd13ifvqce0","pricing_plan_id":"cebpf4jnsgd1na2vs0mg"},{"bike_id":"5597e945-289a-4c33-a31b-9f7b4f4082bc","system_id":"levelo_inurba_marseille","lat":43.27944,"lon":5.38703,"is_reserved":false,"is_disabled":false,"rental_uris":{"android":"levelo://app?vid=5597e945-289a-4c33-a31b-9f7b4f4082bc","ios":"levelo://app?vid=5597e945-289a-4c33-a31b-9f7b4f4082bc"},"vehicle_type_id":"4","last_reported":1762585740,"current_range_meters":11200,"station_id":"ce4bhg12rcd13ifvqf80","pricing_plan_id":"cebpf4jnsgd1na2vs0mg"},{"bike_id":"114f66d4-1403-4604-9263-f916be0a11ba","system_id":"levelo_inurba_marseille","lat":43.27499,"lon":5.42445,"is_reserved":false,"is_disabled":false,"rental_uris":{"android":"levelo://app?vid=114f66d4-1403-4604-9263-f916be0a11ba","ios":"levelo://app?vid=114f66d4-1403-4604-9263-f916be0a11ba"},"vehicle_type_id":"4","last_reported":1762585740,"current_range_meters":11200,"station_id":"ce4bhn92rcd13ifvqgrg","pricing_plan_id":"cebpf4jnsgd1na2vs0mg"},{"bike_id":"401209f9-1098-407a-9275-182f209531f6","system_id":"levelo_inurba_marseille","lat":43.29555,"lon":5.42278,"is_reserved":false,"is_disabled":false,"rental_uris":{"android":"levelo://app?vid=401209f9-1098-407a-9275-182f209531f6","ios":"levelo://app?vid=401209f9-1098-407a-9275-182f209531f6"},"vehicle_type_id":"4","last_reported":1762585740,"current_range_meters":11200,"station_id":"ce4bhph2rcd13ifvqhdg","pricing_plan_id":"cebpf4jnsgd1na2vs0mg"},{"bike_id":"18d35639-bf39-45b5-b9c5-8a4844417178","system_id":"levelo_inurba_marseille","lat":43.2906,"lon":5.35884,"is_reserved":false,"is_disabled":false,"rental_uris":{"android":"levelo://app?vid=18d35639-bf39-45b5-b9c5-8a4844417178","ios":"levelo://app?vid=18d35639-bf39-45b5-b9c5-8a4844417178"},"vehicle_type_id":"4","last_reported":1762585740,"current_range_meters":11200,"station_id":"ce4bha92rcd13ifvqeg0","pricing_plan_id":"cebpf4jnsgd1na2vs0mg"},{"bike_id":"3779d62a-4188-4fa8-9d65-b44a91d51290","system_id":"levelo_inurba_marseille","lat":43.30648,"lon":5.4008,"is_reserved":false,"is_disabled":false,"rental_uris":{"android":"levelo://app?vid=3779d62a-4188-4fa8-9d65-b44a91d51290","ios":"levelo://app?vid=3779d62a-4188-4fa8-9d65-b44a91d51290"},"vehicle_type_id":"4","last_reported":1762585740,"current_range_meters":11200,"station_id":"ce4bh112rcd13ifvqda0","pricing_plan_id":"cebpf4jnsgd1na2vs0mg"},{"bike_id":"ce9aaa36-d58f-45ea-bd7b-726e3e03e763","system_id":"levelo_inurba_marseille","lat":43.253354,"lon":5.421693,"is_reserved":false,"is_disabled":false,"rental_uris":{"android":"levelo://app?vid=ce9aaa36-d58f-45ea-bd7b-726e3e03e763","ios":"levelo://app?vid=ce9aaa36-d58f-45ea-bd7b-726e3e03e763"},"vehicle_type_id":"4","last_reported":1762585740,"current_range_meters":11600,"station_id":"st_d2m65c5bi1j21697t3ng","pricing_plan_id":"cebpf4jnsgd1na2vs0mg"},{"bike_id":"3b8f2182-a2c3-4036-9d57-40d40ffba16a","system_id":"levelo_inurba_marseille","lat":43.31187,"lon":5.38683,"is_reserved":false,"is_disabled":false,"rental_uris":{"android":"levelo://app?vid=3b8f2182-a2c3-4036-9d57-40d40ffba16a","ios":"levelo://app?vid=3b8f2182-a2c3-4036-9d57-40d40ffba16a"},"vehicle_type_id":"4","last_reported":1762585740,"current_range_meters":11600,"station_id":"ce4bgv12rcd13ifvqcp0","pricing_plan_id":"cebpf4jnsgd1na2vs0mg"},{"bike_id":"cbaf6e70-be37-4c92-8bb7-677f9be0a37d","system_id":"levelo_inurba_marseille","lat":43.3013,"lon":5.43107,"is_reserved":false,"is_disabled":false,"rental_uris":{"android":"levelo://app?vid=cbaf6e70-be37-4c92-8bb7-677f9be0a37d","ios":"levelo://app?vid=cbaf6e70-be37-4c92-8bb7-677f9be0a37d"},"vehicle_type_id":"4","last_reported":1762585740,"current_range_meters":11600,"station_id":"st_d3js3co5814s73ftftug","pricing_plan_id":"cebpf4jnsgd1na2vs0mg"},{"bike_id":"1acba816-a7a2-4f64-ba87-7ea7e3c7ae3c","system_id":"levelo_inurba_marseille","lat":43.28667,"lon":5.36359,"is_reserved":false,"is_disabled":false,"rental_uris":{"android":"levelo://app?vid=1acba816-a7a2-4f64-ba87-7ea7e3c7ae3c","ios":"levelo://app?vid=1acba816-a7a2-4f64-ba87-7ea7e3c7ae3c"},"vehicle_type_id":"4","last_reported":1762585740,"current_range_meters":11600,"station_id":"ce4bhah2rcd13ifvqej0","pricing_plan_id":"cebpf4jnsgd1na2vs0mg"},{"bike_id":"cb7f5392-ae0a-4ba8-b998-2f6fbc338fe1","system_id":"levelo_inurba_marseille","lat":43.22554,"lon":5.41634,"is_reserved":false,"is_disabled":false,"rental_uris":{"android":"levelo://app?vid=cb7f5392-ae0a-4ba8-b998-2f6fbc338fe1","ios":"levelo://app?vid=cb7f5392-ae0a-4ba8-b998-2f6fbc338fe1"},"vehicle_type_id":"4","last_reported":1762585740,"current_range_meters":12000,"station_id":"st_d2o4gvlbi1j2169b742g","pricing_plan_id":"cebpf4jnsgd1na2vs0mg"},{"bike_id":"60c2843d-f2d7-4dfd-9606-aeac5cb1d069","system_id":"levelo_inurba_marseille","lat":43.307367,"lon":5.424379,"is_reserved":false,"is_disabled":false,"rental_uris":{"android":"levelo://app?vid=60c2843d-f2d7-4dfd-9606-aeac5cb1d069","ios":"levelo://app?vid=60c2843d-f2d7-4dfd-9606-aeac5cb1d069"},"vehicle_type_id":"4","last_reported":1762585740,"current_range_meters":12000,"station_id":"st_cvj6ca6bvosntc0bfgr0","pricing_plan_id":"cebpf4jnsgd1na2vs0mg"},{"bike_id":"d4735b17-e3bc-447e-9807-98c0cecbf08d","system_id":"levelo_inurba_marseille","lat":43.31159,"lon":5.39586,"is_reserved":false,"is_disabled":false,"rental_uris":{"android":"levelo://app?vid=d4735b17-e3bc-447e-9807-98c0cecbf08d","ios":"levelo://app?vid=d4735b17-e3bc-447e-9807-98c0cecbf08d"},"vehicle_type_id":"4","last_reported":1762585740,"current_range_meters":12000,"station_id":"","pricing_plan_id":"cebpf4jnsgd1na2vs0mg"},{"bike_id":"25b5592b-971d-495a-b72c-d7d4eaabefb2","system_id":"levelo_inurba_marseille","lat":43.27374,"lon":5.3626,"is_reserved":false,"is_disabled":false,"rental_uris":{"android":"levelo://app?vid=25b5592b-971d-495a-b72c-d7d4eaabefb2","ios":"levelo://app?vid=25b5592b-971d-495a-b72c-d7d4eaabefb2"},"vehicle_type_id":"4","last_reported":1762585740,"current_range_meters":12000,"station_id":"ce4bhbh2rcd13ifvqeo0","pricing_plan_id":"cebpf4jnsgd1na2vs0mg"},{"bike_id":"ccccae5d-f0e8-4090-9069-7db18ab3a1dc","system_id":"levelo_inurba_marseille","lat":43.25115,"lon":5.40329,"is_reserved":false,"is_disabled":false,"rental_uris":{"android":"levelo://app?vid=ccccae5d-f0e8-4090-9069-7db18ab3a1dc","ios":"levelo://app?vid=ccccae5d-f0e8-4090-9069-7db18ab3a1dc"},"vehicle_type_id":"4","last_reported":1762585740,"current_range_meters":12000,"station_id":"ce4bhlh2rcd13ifvqgig","pricing_plan_id":"cebpf4jnsgd1na2vs0mg"},{"bike_id":"1bf477b3-55e6-4f59-a7a7-7034928d8403","system_id":"levelo_inurba_marseille","lat":43.253364,"lon":5.421695,"is_reserved":false,"is_disabled":false,"rental_uris":{"android":"levelo://app?vid=1bf477b3-55e6-4f59-a7a7-7034928d8403","ios":"levelo://app?vid=1bf477b3-55e6-4f59-a7a7-7034928d8403"},"vehicle_type_id":"4","last_reported":1762585740,"current_range_meters":12000,"station_id":"st_d2m65c5bi1j21697t3ng","pricing_plan_id":"cebpf4jnsgd1na2vs0mg"},{"bike_id":"c363dd9b-0c75-4898-b8c2-045a76b3b093","system_id":"levelo_inurba_marseille","lat":43.30884,"lon":5.39158,"is_reserved":false,"is_disabled":false,"rental_uris":{"android":"levelo://app?vid=c363dd9b-0c75-4898-b8c2-045a76b3b093","ios":"levelo://app?vid=c363dd9b-0c75-4898-b8c2-045a76b3b093"},"vehicle_type_id":"4","last_reported":1762585740,"current_range_meters":12000,"station_id":"","pricing_plan_id":"cebpf4jnsgd1na2vs0mg"},{"bike_id":"a941176e-12dc-4cd9-843f-f746cead8e15","system_id":"levelo_inurba_marseille","lat":43.28262,"lon":5.35069,"is_reserved":false,"is_disabled":false,"rental_uris":{"android":"levelo://app?vid=a941176e-12dc-4cd9-843f-f746cead8e15","ios":"levelo://app?vid=a941176e-12dc-4cd9-843f-f746cead8e15"},"vehicle_type_id":"4","last_reported":1762585740,"current_range_meters":12000,"station_id":"ce4bhbp2rcd13ifvqerg","pricing_plan_id":"cebpf4jnsgd1na2vs0mg"},{"bike_id":"b1dda954-619e-457a-801e-2fa6638771b3","system_id":"levelo_inurba_marseille","lat":43.28103,"lon":5.37849,"is_reserved":false,"is_disabled":false,"rental_uris":{"android":"levelo://app?vid=b1dda954-619e-457a-801e-2fa6638771b3","ios":"levelo://app?vid=b1dda954-619e-457a-801e-2fa6638771b3"},"vehicle_type_id":"4","last_reported":1762585740,"current_range_meters":12400,"station_id":"ce4bha12rcd13ifvqee0","pricing_plan_id":"cebpf4jnsgd1na2vs0mg"},{"bike_id":"2f373a5f-e6e9-4abe-805d-f20b12d39ee9","system_id":"levelo_inurba_marseille","lat":43.24961,"lon":5.404749,"is_reserved":false,"is_disabled":false,"rental_uris":{"android":"levelo://app?vid=2f373a5f-e6e9-4abe-805d-f20b12d39ee9","ios":"levelo://app?vid=2f373a5f-e6e9-4abe-805d-f20b12d39ee9"},"vehicle_type_id":"4","last_reported":1762585740,"current_range_meters":12400,"station_id":"st_d2ngiaodas8pm72gd1h0","pricing_plan_id":"cebpf4jnsgd1na2vs0mg"},{"bike_id":"a4b610ef-5dc5-47fb-9228-87e17fe490d3","system_id":"levelo_inurba_marseille","lat":43.27075,"lon":5.42275,"is_reserved":false,"is_disabled":true,"rental_uris":{"android":"levelo://app?vid=a4b610ef-5dc5-47fb-9228-87e17fe490d3","ios":"levelo://app?vid=a4b610ef-5dc5-47fb-9228-87e17fe490d3"},"vehicle_type_id":"4","last_reported":1762585740,"current_range_meters":12400,"station_id":"ce4bhk92rcd13ifvqgb0","pricing_plan_id":"cebpf4jnsgd1na2vs0mg"},{"bike_id":"3b294fa9-3f9f-4381-a2a8-e3592d375a68","system_id":"levelo_inurba_marseille","lat":43.26695,"lon":5.3967,"is_reserved":false,"is_disabled":false,"rental_uris":{"android":"levelo://app?vid=3b294fa9-3f9f-4381-a2a8-e3592d375a68","ios":"levelo://app?vid=3b294fa9-3f9f-4381-a2a8-e3592d375a68"},"vehicle_type_id":"4","last_reported":1762585740,"current_range_meters":12400,"station_id":"","pricing_plan_id":"cebpf4jnsgd1na2vs0mg"},{"bike_id":"7a399f82-0892-45c9-a828-80f939bd334e","system_id":"levelo_inurba_marseille","lat":43.27369,"lon":5.36261,"is_reserved":false,"is_disabled":false,"rental_uris":{"android":"levelo://app?vid=7a399f82-0892-45c9-a828-80f939bd334e","ios":"levelo://app?vid=7a399f82-0892-45c9-a828-80f939bd334e"},"vehicle_type_id":"4","last_reported":1762585740,"current_range_meters":12800,"station_id":"ce4bhbh2rcd13ifvqeo0","pricing_plan_id":"cebpf4jnsgd1na2vs0mg"},{"bike_id":"29cf3847-f099-42d5-9c47-7deb0213c3ad","system_id":"levelo_inurba_marseille","lat":43.28055,"lon":5.40847,"is_reserved":false,"is_disabled":false,"rental_uris":{"android":"levelo://app?vid=29cf3847-f099-42d5-9c47-7deb0213c3ad","ios":"levelo://app?vid=29cf3847-f099-42d5-9c47-7deb0213c3ad"},"vehicle_type_id":"4","last_reported":1762585740,"current_range_meters":12800,"station_id":"","pricing_plan_id":"cebpf4jnsgd1na2vs0mg"},{"bike_id":"62b55b82-15af-4adc-9d18-f37b9bef99c4","system_id":"levelo_inurba_marseille","lat":43.28564,"lon":5.39486,"is_reserved":false,"is_disabled":false,"rental_uris":{"android":"levelo://app?vid=62b55b82-15af-4adc-9d18-f37b9bef99c4","ios":"levelo://app?vid=62b55b82-15af-4adc-9d18-f37b9bef99c4"},"vehicle_type_id":"4","last_reported":1762585740,"current_range_meters":12800,"station_id":"ce4bh292rcd13ifvqdg0","pricing_plan_id":"cebpf4jnsgd1na2vs0mg"},{"bike_id":"e12b069e-6626-4ec5-9dbe-18cc71084546","system_id":"levelo_inurba_marseille","lat":43.29257,"lon":5.36057,"is_reserved":false,"is_disabled":false,"rental_uris":{"android":"levelo://app?vid=e12b069e-6626-4ec5-9dbe-18cc71084546","ios":"levelo://app?vid=e12b069e-6626-4ec5-9dbe-18cc71084546"},"vehicle_type_id":"4","last_reported":1762585740,"current_range_meters":12800,"station_id":"ce4bhbh2rcd13ifvqeqg","pricing_plan_id":"cebpf4jnsgd1na2vs0mg"},{"bike_id":"08800a7f-3058-4ed0-a60f-c12bee9e25dd","system_id":"levelo_inurba_marseille","lat":43.246282,"lon":5.431476,"is_reserved":false,"is_disabled":false,"rental_uris":{"android":"levelo://app?vid=08800a7f-3058-4ed0-a60f-c12bee9e25dd","ios":"levelo://app?vid=08800a7f-3058-4ed0-a60f-c12bee9e25dd"},"vehicle_type_id":"4","last_reported":1762585740,"current_range_meters":13600,"station_id":"st_d2m6c4gdas8pm72e190g","pricing_plan_id":"cebpf4jnsgd1na2vs0mg"},{"bike_id":"c448769d-72a1-4a2a-80b2-791ccf525608","system_id":"levelo_inurba_marseille","lat":43.257211,"lon":5.411144,"is_reserved":false,"is_disabled":false,"rental_uris":{"android":"levelo://app?vid=c448769d-72a1-4a2a-80b2-791ccf525608","ios":"levelo://app?vid=c448769d-72a1-4a2a-80b2-791ccf525608"},"vehicle_type_id":"4","last_reported":1762585740,"current_range_meters":13600,"station_id":"ce4bhkp2rcd13ifvqgd0","pricing_plan_id":"cebpf4jnsgd1na2vs0mg"},{"bike_id":"58df984d-f6ad-47ef-818a-7818e887c7c9","system_id":"levelo_inurba_marseille","lat":43.30135,"lon":5.43106,"is_reserved":false,"is_disabled":false,"rental_uris":{"android":"levelo://app?vid=58df984d-f6ad-47ef-818a-7818e887c7c9","ios":"levelo://app?vid=58df984d-f6ad-47ef-818a-7818e887c7c9"},"vehicle_type_id":"4","last_reported":1762585740,"current_range_meters":13600,"station_id":"st_d3js3co5814s73ftftug","pricing_plan_id":"cebpf4jnsgd1na2vs0mg"},{"bike_id":"d510b29d-06c6-4a67-8cee-2182097a14e2","system_id":"levelo_inurba_marseille","lat":43.29258,"lon":5.37633,"is_reserved":false,"is_disabled":true,"rental_uris":{"android":"levelo://app?vid=d510b29d-06c6-4a67-8cee-2182097a14e2","ios":"levelo://app?vid=d510b29d-06c6-4a67-8cee-2182097a14e2"},"vehicle_type_id":"4","last_reported":1762585740,"current_range_meters":13600,"station_id":"ce4bgi12rcd13ifvqb80","pricing_plan_id":"cebpf4jnsgd1na2vs0mg"},{"bike_id":"792ea4ad-b57f-4bab-858b-851ccaff5e2d","system_id":"levelo_inurba_marseille","lat":43.31121,"lon":5.37769,"is_reserved":false,"is_disabled":false,"rental_uris":{"android":"levelo://app?vid=792ea4ad-b57f-4bab-858b-851ccaff5e2d","ios":"levelo://app?vid=792ea4ad-b57f-4bab-858b-851ccaff5e2d"},"vehicle_type_id":"4","last_reported":1762585740,"current_range_meters":13600,"station_id":"ce4bgt92rcd13ifvqcg0","pricing_plan_id":"cebpf4jnsgd1na2vs0mg"},{"bike_id":"4aadc1d9-ba43-4b92-a5cd-e66ee29250dd","system_id":"levelo_inurba_marseille","lat":43.272043,"lon":5.391959,"is_reserved":false,"is_disabled":true,"rental_uris":{"android":"levelo://app?vid=4aadc1d9-ba43-4b92-a5cd-e66ee29250dd","ios":"levelo://app?vid=4aadc1d9-ba43-4b92-a5cd-e66ee29250dd"},"vehicle_type_id":"4","last_reported":1762585740,"current_range_meters":14000,"station_id":"ce4bhhp2rcd13ifvqfm0","pricing_plan_id":"cebpf4jnsgd1na2vs0mg"},{"bike_id":"a017fb3d-c7a3-44ae-bd02-ad36bd38d340","system_id":"levelo_inurba_marseille","lat":43.285738,"lon":5.380262,"is_reserved":false,"is_disabled":true,"rental_uris":{"android":"levelo://app?vid=a017fb3d-c7a3-44ae-bd02-ad36bd38d340","ios":"levelo://app?vid=a017fb3d-c7a3-44ae-bd02-ad36bd38d340"},"vehicle_type_id":"4","last_reported":1762585740,"current_range_meters":14000,"station_id":"ce4bh512rcd13ifvqe3g","pricing_plan_id":"cebpf4jnsgd1na2vs0mg"},{"bike_id":"c1710aad-e663-42d2-8c6a-f4a60c124aad","system_id":"levelo_inurba_marseille","lat":43.31708,"lon":5.40442,"is_reserved":false,"is_disabled":false,"rental_uris":{"android":"levelo://app?vid=c1710aad-e663-42d2-8c6a-f4a60c124aad","ios":"levelo://app?vid=c1710aad-e663-42d2-8c6a-f4a60c124aad"},"vehicle_type_id":"4","last_reported":1762585740,"current_range_meters":14000,"station_id":"ce4bh012rcd13ifvqd00","pricing_plan_id":"cebpf4jnsgd1na2vs0mg"},{"bike_id":"65c6be5e-7566-45a1-99cf-c105e6b5b495","system_id":"levelo_inurba_marseille","lat":43.30182,"lon":5.3806,"is_reserved":false,"is_disabled":false,"rental_uris":{"android":"levelo://app?vid=65c6be5e-7566-45a1-99cf-c105e6b5b495","ios":"levelo://app?vid=65c6be5e-7566-45a1-99cf-c105e6b5b495"},"vehicle_type_id":"4","last_reported":1762585740,"current_range_meters":14000,"station_id":"ce4bgjp2rcd13ifvqbh0","pricing_plan_id":"cebpf4jnsgd1na2vs0mg"},{"bike_id":"e77852c2-33bc-47ad-b7ea-d6c83bc7fe1a","system_id":"levelo_inurba_marseille","lat":43.29275,"lon":5.40144,"is_reserved":false,"is_disabled":false,"rental_uris":{"android":"levelo://app?vid=e77852c2-33bc-47ad-b7ea-d6c83bc7fe1a","ios":"levelo://app?vid=e77852c2-33bc-47ad-b7ea-d6c83bc7fe1a"},"vehicle_type_id":"4","last_reported":1762585740,"current_range_meters":14400,"station_id":"ce4bh312rcd13ifvqdk0","pricing_plan_id":"cebpf4jnsgd1na2vs0mg"},{"bike_id":"c5fe3f0c-f524-41ce-bd6a-84e30cc002d4","system_id":"levelo_inurba_marseille","lat":43.262226,"lon":5.40448,"is_reserved":false,"is_disabled":false,"rental_uris":{"android":"levelo://app?vid=c5fe3f0c-f524-41ce-bd6a-84e30cc002d4","ios":"levelo://app?vid=c5fe3f0c-f524-41ce-bd6a-84e30cc002d4"},"vehicle_type_id":"4","last_reported":1762585740,"current_range_meters":14400,"station_id":"ce4bhmh2rcd13ifvqgmg","pricing_plan_id":"cebpf4jnsgd1na2vs0mg"},{"bike_id":"0c5c19f2-426c-43e3-b284-708f087fa98a","system_id":"levelo_inurba_marseille","lat":43.299448,"lon":5.365375,"is_reserved":false,"is_disabled":false,"rental_uris":{"android":"levelo://app?vid=0c5c19f2-426c-43e3-b284-708f087fa98a","ios":"levelo://app?vid=0c5c19f2-426c-43e3-b284-708f087fa98a"},"vehicle_type_id":"4","last_reported":1762585740,"current_range_meters":14400,"station_id":"ce4bgm92rcd13ifvqbr0","pricing_plan_id":"cebpf4jnsgd1na2vs0mg"},{"bike_id":"a718cc29-6f54-49e3-862a-351d7a32001f","system_id":"levelo_inurba_marseille","lat":43.284821,"lon":5.484006,"is_reserved":false,"is_disabled":false,"rental_uris":{"android":"levelo://app?vid=a718cc29-6f54-49e3-862a-351d7a32001f","ios":"levelo://app?vid=a718cc29-6f54-49e3-862a-351d7a32001f"},"vehicle_type_id":"4","last_reported":1762585740,"current_range_meters":14400,"station_id":"","pricing_plan_id":"cebpf4jnsgd1na2vs0mg"},{"bike_id":"05304b88-08bd-4258-888f-ad77e8550455","system_id":"levelo_inurba_marseille","lat":43.28045,"lon":5.36948,"is_reserved":false,"is_disabled":false,"rental_uris":{"android":"levelo://app?vid=05304b88-08bd-4258-888f-ad77e8550455","ios":"levelo://app?vid=05304b88-08bd-4258-888f-ad77e8550455"},"vehicle_type_id":"4","last_reported":1762585740,"current_range_meters":14400,"station_id":"ce4bha12rcd13ifvqef0","pricing_plan_id":"cebpf4jnsgd1na2vs0mg"},{"bike_id":"50d48ec7-97f2-4a12-8ae9-bc04777192d6","system_id":"levelo_inurba_marseille","lat":43.29924,"lon":5.38143,"is_reserved":false,"is_disabled":false,"rental_uris":{"android":"levelo://app?vid=50d48ec7-97f2-4a12-8ae9-bc04777192d6","ios":"levelo://app?vid=50d48ec7-97f2-4a12-8ae9-bc04777192d6"},"vehicle_type_id":"4","last_reported":1762585740,"current_range_meters":14400,"station_id":"ce4bgj12rcd13ifvqbc0","pricing_plan_id":"cebpf4jnsgd1na2vs0mg"},{"bike_id":"045d9afd-334b-4d41-bf2d-262cda9fc4da","system_id":"levelo_inurba_marseille","lat":43.31225,"lon":5.368677,"is_reserved":false,"is_disabled":false,"rental_uris":{"android":"levelo://app?vid=045d9afd-334b-4d41-bf2d-262cda9fc4da","ios":"levelo://app?vid=045d9afd-334b-4d41-bf2d-262cda9fc4da"},"vehicle_type_id":"4","last_reported":1762585740,"current_range_meters":14400,"station_id":"ce4bgl92rcd13ifvqbq0","pricing_plan_id":"cebpf4jnsgd1na2vs0mg"},{"bike_id":"74bb8ce2-1ec5-4414-94bf-bc4889d1e14c","system_id":"levelo_inurba_marseille","lat":43.324762,"lon":5.395429,"is_reserved":false,"is_disabled":false,"rental_uris":{"android":"levelo://app?vid=74bb8ce2-1ec5-4414-94bf-bc4889d1e14c","ios":"levelo://app?vid=74bb8ce2-1ec5-4414-94bf-bc4889d1e14c"},"vehicle_type_id":"4","last_reported":1762585740,"current_range_meters":14400,"station_id":"","pricing_plan_id":"cebpf4jnsgd1na2vs0mg"},{"bike_id":"c006eebd-22d1-492e-aeb9-34fd1a08d045","system_id":"levelo_inurba_marseille","lat":43.28938,"lon":5.366413,"is_reserved":false,"is_disabled":false,"rental_uris":{"android":"levelo://app?vid=c006eebd-22d1-492e-aeb9-34fd1a08d045","ios":"levelo://app?vid=c006eebd-22d1-492e-aeb9-34fd1a08d045"},"vehicle_type_id":"4","last_reported":1762585740,"current_range_meters":14800,"station_id":"ce4bhap2rcd13ifvqek0","pricing_plan_id":"cebpf4jnsgd1na2vs0mg"},{"bike_id":"64a7e14c-46d0-4d8c-91f0-19fb7c8ad288","system_id":"levelo_inurba_marseille","lat":43.305605,"lon":5.36711,"is_reserved":false,"is_disabled":true,"rental_uris":{"android":"levelo://app?vid=64a7e14c-46d0-4d8c-91f0-19fb7c8ad288","ios":"levelo://app?vid=64a7e14c-46d0-4d8c-91f0-19fb7c8ad288"},"vehicle_type_id":"4","last_reported":1762585740,"current_range_meters":14800,"station_id":"ce4bgrp2rcd13ifvqc9g","pricing_plan_id":"cebpf4jnsgd1na2vs0mg"},{"bike_id":"6ba0f1d1-5706-4a14-b89f-505a4c6aa756","system_id":"levelo_inurba_marseille","lat":43.294926,"lon":5.433051,"is_reserved":false,"is_disabled":false,"rental_uris":{"android":"levelo://app?vid=6ba0f1d1-5706-4a14-b89f-505a4c6aa756","ios":"levelo://app?vid=6ba0f1d1-5706-4a14-b89f-505a4c6aa756"},"vehicle_type_id":"4","last_reported":1762585740,"current_range_meters":14800,"station_id":"st_d3j5ugp08ojc73fj9d10","pricing_plan_id":"cebpf4jnsgd1na2vs0mg"},{"bike_id":"46748178-17b8-4dc8-80b3-39159ff743e0","system_id":"levelo_inurba_marseille","lat":43.30046,"lon":5.38316,"is_reserved":false,"is_disabled":false,"rental_uris":{"android":"levelo://app?vid=46748178-17b8-4dc8-80b3-39159ff743e0","ios":"levelo://app?vid=46748178-17b8-4dc8-80b3-39159ff743e0"},"vehicle_type_id":"4","last_reported":1762585740,"current_range_meters":14800,"station_id":"","pricing_plan_id":"cebpf4jnsgd1na2vs0mg"},{"bike_id":"097e7adf-805d-4f2c-917c-08494c0abb97","system_id":"levelo_inurba_marseille","lat":43.31235,"lon":5.3682,"is_reserved":false,"is_disabled":true,"rental_uris":{"android":"levelo://app?vid=097e7adf-805d-4f2c-917c-08494c0abb97","ios":"levelo://app?vid=097e7adf-805d-4f2c-917c-08494c0abb97"},"vehicle_type_id":"4","last_reported":1762585740,"current_range_meters":15200,"station_id":"ce4bgl92rcd13ifvqbq0","pricing_plan_id":"cebpf4jnsgd1na2vs0mg"},{"bike_id":"d0486e4c-83e2-47ea-b815-83949b2897b4","system_id":"levelo_inurba_marseille","lat":43.253378,"lon":5.421711,"is_reserved":false,"is_disabled":false,"rental_uris":{"android":"levelo://app?vid=d0486e4c-83e2-47ea-b815-83949b2897b4","ios":"levelo://app?vid=d0486e4c-83e2-47ea-b815-83949b2897b4"},"vehicle_type_id":"4","last_reported":1762585740,"current_range_meters":15200,"station_id":"st_d2m65c5bi1j21697t3ng","pricing_plan_id":"cebpf4jnsgd1na2vs0mg"},{"bike_id":"ca06630c-cd58-47fd-a4f0-6635c015d1a3","system_id":"levelo_inurba_marseille","lat":43.30155,"lon":5.38086,"is_reserved":false,"is_disabled":false,"rental_uris":{"android":"levelo://app?vid=ca06630c-cd58-47fd-a4f0-6635c015d1a3","ios":"levelo://app?vid=ca06630c-cd58-47fd-a4f0-6635c015d1a3"},"vehicle_type_id":"4","last_reported":1762585740,"current_range_meters":15200,"station_id":"ce4bgjp2rcd13ifvqbh0","pricing_plan_id":"cebpf4jnsgd1na2vs0mg"},{"bike_id":"e06aa656-202c-4f17-9192-701f3525e4ab","system_id":"levelo_inurba_marseille","lat":43.3373,"lon":5.3748,"is_reserved":false,"is_disabled":false,"rental_uris":{"android":"levelo://app?vid=e06aa656-202c-4f17-9192-701f3525e4ab","ios":"levelo://app?vid=e06aa656-202c-4f17-9192-701f3525e4ab"},"vehicle_type_id":"4","last_reported":1762585740,"current_range_meters":15200,"station_id":"","pricing_plan_id":"cebpf4jnsgd1na2vs0mg"},{"bike_id":"4bce02cb-bdba-488a-a39f-eae80d4c7da8","system_id":"levelo_inurba_marseille","lat":43.282038,"lon":5.390495,"is_reserved":false,"is_disabled":true,"rental_uris":{"android":"levelo://app?vid=4bce02cb-bdba-488a-a39f-eae80d4c7da8","ios":"levelo://app?vid=4bce02cb-bdba-488a-a39f-eae80d4c7da8"},"vehicle_type_id":"4","last_reported":1762585740,"current_range_meters":15200,"station_id":"ce4bhn92rcd13ifvqgsg","pricing_plan_id":"cebpf4jnsgd1na2vs0mg"},{"bike_id":"85fabebf-c8f7-4dd9-8f81-b835f48d4f82","system_id":"levelo_inurba_marseille","lat":43.286212,"lon":5.351032,"is_reserved":false,"is_disabled":false,"rental_uris":{"android":"levelo://app?vid=85fabebf-c8f7-4dd9-8f81-b835f48d4f82","ios":"levelo://app?vid=85fabebf-c8f7-4dd9-8f81-b835f48d4f82"},"vehicle_type_id":"4","last_reported":1762585740,"current_range_meters":16000,"station_id":"ce4bhch2rcd13ifvqeug","pricing_plan_id":"cebpf4jnsgd1na2vs0mg"},{"bike_id":"45e045e5-999a-4911-bbb0-287bbc4503ad","system_id":"levelo_inurba_marseille","lat":43.31152,"lon":5.39592,"is_reserved":false,"is_disabled":false,"rental_uris":{"android":"levelo://app?vid=45e045e5-999a-4911-bbb0-287bbc4503ad","ios":"levelo://app?vid=45e045e5-999a-4911-bbb0-287bbc4503ad"},"vehicle_type_id":"4","last_reported":1762585740,"current_range_meters":16000,"station_id":"","pricing_plan_id":"cebpf4jnsgd1na2vs0mg"},{"bike_id":"d2991a60-dcfa-4252-8f9d-bfff4b1dc433","system_id":"levelo_inurba_marseille","lat":43.31067,"lon":5.37196,"is_reserved":false,"is_disabled":false,"rental_uris":{"android":"levelo://app?vid=d2991a60-dcfa-4252-8f9d-bfff4b1dc433","ios":"levelo://app?vid=d2991a60-dcfa-4252-8f9d-bfff4b1dc433"},"vehicle_type_id":"4","last_reported":1762585740,"current_range_meters":16000,"station_id":"","pricing_plan_id":"cebpf4jnsgd1na2vs0mg"},{"bike_id":"61c32982-e1bd-47b3-8753-63f402e2b159","system_id":"levelo_inurba_marseille","lat":43.29781,"lon":5.39362,"is_reserved":false,"is_disabled":false,"rental_uris":{"android":"levelo://app?vid=61c32982-e1bd-47b3-8753-63f402e2b159","ios":"levelo://app?vid=61c32982-e1bd-47b3-8753-63f402e2b159"},"vehicle_type_id":"4","last_reported":1762585740,"current_range_meters":16000,"station_id":"chh1huq6cuj3fo74tm60","pricing_plan_id":"cebpf4jnsgd1na2vs0mg"},{"bike_id":"d22c978e-86a3-4f06-bcd6-f159fce6e95c","system_id":"levelo_inurba_marseille","lat":43.30822,"lon":5.38141,"is_reserved":false,"is_disabled":false,"rental_uris":{"android":"levelo://app?vid=d22c978e-86a3-4f06-bcd6-f159fce6e95c","ios":"levelo://app?vid=d22c978e-86a3-4f06-bcd6-f159fce6e95c"},"vehicle_type_id":"4","last_reported":1762585740,"current_range_meters":16400,"station_id":"ce4bgt12rcd13ifvqce0","pricing_plan_id":"cebpf4jnsgd1na2vs0mg"},{"bike_id":"7487743c-8c19-4f83-bcef-45a7d228d3a7","system_id":"levelo_inurba_marseille","lat":43.322593,"lon":5.389446,"is_reserved":false,"is_disabled":false,"rental_uris":{"android":"levelo://app?vid=7487743c-8c19-4f83-bcef-45a7d228d3a7","ios":"levelo://app?vid=7487743c-8c19-4f83-bcef-45a7d228d3a7"},"vehicle_type_id":"4","last_reported":1762585740,"current_range_meters":16400,"station_id":"ce4bhqp2rcd13ifvqhog","pricing_plan_id":"cebpf4jnsgd1na2vs0mg"},{"bike_id":"3439a8cb-8214-4321-b614-d69fa7098072","system_id":"levelo_inurba_marseille","lat":43.31288,"lon":5.38923,"is_reserved":false,"is_disabled":false,"rental_uris":{"android":"levelo://app?vid=3439a8cb-8214-4321-b614-d69fa7098072","ios":"levelo://app?vid=3439a8cb-8214-4321-b614-d69fa7098072"},"vehicle_type_id":"4","last_reported":1762585740,"current_range_meters":16400,"station_id":"","pricing_plan_id":"cebpf4jnsgd1na2vs0mg"},{"bike_id":"73c8cd51-7748-4fa0-b56a-3d836eef810e","system_id":"levelo_inurba_marseille","lat":43.3089,"lon":5.39661,"is_reserved":false,"is_disabled":false,"rental_uris":{"android":"levelo://app?vid=73c8cd51-7748-4fa0-b56a-3d836eef810e","ios":"levelo://app?vid=73c8cd51-7748-4fa0-b56a-3d836eef810e"},"vehicle_type_id":"4","last_reported":1762585740,"current_range_meters":16400,"station_id":"ce4bh012rcd13ifvqcv0","pricing_plan_id":"cebpf4jnsgd1na2vs0mg"},{"bike_id":"dc517ec9-a4a6-4557-a3b8-cc7afad6566e","system_id":"levelo_inurba_marseille","lat":43.29604,"lon":5.3774,"is_reserved":false,"is_disabled":false,"rental_uris":{"android":"levelo://app?vid=dc517ec9-a4a6-4557-a3b8-cc7afad6566e","ios":"levelo://app?vid=dc517ec9-a4a6-4557-a3b8-cc7afad6566e"},"vehicle_type_id":"4","last_reported":1762585740,"current_range_meters":16400,"station_id":"ce4bgi92rcd13ifvqb90","pricing_plan_id":"cebpf4jnsgd1na2vs0mg"},{"bike_id":"01b612c9-e2ea-4120-a543-ea80b7d0582c","system_id":"levelo_inurba_marseille","lat":43.326907,"lon":5.391942,"is_reserved":false,"is_disabled":false,"rental_uris":{"android":"levelo://app?vid=01b612c9-e2ea-4120-a543-ea80b7d0582c","ios":"levelo://app?vid=01b612c9-e2ea-4120-a543-ea80b7d0582c"},"vehicle_type_id":"4","last_reported":1762585740,"current_range_meters":16400,"station_id":"","pricing_plan_id":"cebpf4jnsgd1na2vs0mg"},{"bike_id":"2922600f-d584-4950-aefa-70c5fe9180b6","system_id":"levelo_inurba_marseille","lat":43.292466,"lon":5.361402,"is_reserved":false,"is_disabled":false,"rental_uris":{"android":"levelo://app?vid=2922600f-d584-4950-aefa-70c5fe9180b6","ios":"levelo://app?vid=2922600f-d584-4950-aefa-70c5fe9180b6"},"vehicle_type_id":"4","last_reported":1762585740,"current_range_meters":16400,"station_id":"","pricing_plan_id":"cebpf4jnsgd1na2vs0mg"},{"bike_id":"bbf70108-510c-4f86-9f4b-23e9766d9b05","system_id":"levelo_inurba_marseille","lat":43.30156,"lon":5.38093,"is_reserved":false,"is_disabled":false,"rental_uris":{"android":"levelo://app?vid=bbf70108-510c-4f86-9f4b-23e9766d9b05","ios":"levelo://app?vid=bbf70108-510c-4f86-9f4b-23e9766d9b05"},"vehicle_type_id":"4","last_reported":1762585740,"current_range_meters":16400,"station_id":"ce4bgjp2rcd13ifvqbh0","pricing_plan_id":"cebpf4jnsgd1na2vs0mg"},{"bike_id":"391f5b5c-f6a9-4915-b072-bce9679c730f","system_id":"levelo_inurba_marseille","lat":43.31112,"lon":5.37763,"is_reserved":false,"is_disabled":false,"rental_uris":{"android":"levelo://app?vid=391f5b5c-f6a9-4915-b072-bce9679c730f","ios":"levelo://app?vid=391f5b5c-f6a9-4915-b072-bce9679c730f"},"vehicle_type_id":"4","last_reported":1762585740,"current_range_meters":16400,"station_id":"ce4bgt92rcd13ifvqcg0","pricing_plan_id":"cebpf4jnsgd1na2vs0mg"},{"bike_id":"983dfb64-9c72-4a1c-a3a8-71c6de7d4885","system_id":"levelo_inurba_marseille","lat":43.30321,"lon":5.3691,"is_reserved":false,"is_disabled":true,"rental_uris":{"android":"levelo://app?vid=983dfb64-9c72-4a1c-a3a8-71c6de7d4885","ios":"levelo://app?vid=983dfb64-9c72-4a1c-a3a8-71c6de7d4885"},"vehicle_type_id":"4","last_reported":1762585740,"current_range_meters":16800,"station_id":"ce4bgqh2rcd13ifvqc5g","pricing_plan_id":"cebpf4jnsgd1na2vs0mg"},{"bike_id":"cfe6041c-eeb8-4331-88ac-3d89c3a5f24a","system_id":"levelo_inurba_marseille","lat":43.298513,"lon":5.362762,"is_reserved":false,"is_disabled":false,"rental_uris":{"android":"levelo://app?vid=cfe6041c-eeb8-4331-88ac-3d89c3a5f24a","ios":"levelo://app?vid=cfe6041c-eeb8-4331-88ac-3d89c3a5f24a"},"vehicle_type_id":"4","last_reported":1762585740,"current_range_meters":16800,"station_id":"ce4bgpp2rcd13ifvqc3g","pricing_plan_id":"cebpf4jnsgd1na2vs0mg"},{"bike_id":"aa1eec89-7f75-4e60-8caf-7b88980efd4a","system_id":"levelo_inurba_marseille","lat":43.273813,"lon":5.362617,"is_reserved":false,"is_disabled":false,"rental_uris":{"android":"levelo://app?vid=aa1eec89-7f75-4e60-8caf-7b88980efd4a","ios":"levelo://app?vid=aa1eec89-7f75-4e60-8caf-7b88980efd4a"},"vehicle_type_id":"4","last_reported":1762585740,"current_range_meters":16800,"station_id":"ce4bhbh2rcd13ifvqeo0","pricing_plan_id":"cebpf4jnsgd1na2vs0mg"},{"bike_id":"be9dbc5e-3613-4c65-8d26-e2868783517d","system_id":"levelo_inurba_marseille","lat":43.30602,"lon":5.39334,"is_reserved":false,"is_disabled":false,"rental_uris":{"android":"levelo://app?vid=be9dbc5e-3613-4c65-8d26-e2868783517d","ios":"levelo://app?vid=be9dbc5e-3613-4c65-8d26-e2868783517d"},"vehicle_type_id":"4","last_reported":1762585740,"current_range_meters":16800,"station_id":"ce4bh0p2rcd13ifvqd80","pricing_plan_id":"cebpf4jnsgd1na2vs0mg"},{"bike_id":"10568cd1-05e9-4739-8302-1ce28a1f5b94","system_id":"levelo_inurba_marseille","lat":43.2998,"lon":5.38488,"is_reserved":false,"is_disabled":false,"rental_uris":{"android":"levelo://app?vid=10568cd1-05e9-4739-8302-1ce28a1f5b94","ios":"levelo://app?vid=10568cd1-05e9-4739-8302-1ce28a1f5b94"},"vehicle_type_id":"4","last_reported":1762585740,"current_range_meters":16800,"station_id":"ce4bgj92rcd13ifvqbd0","pricing_plan_id":"cebpf4jnsgd1na2vs0mg"},{"bike_id":"0fe28076-79a4-4c58-8cb9-d4750cea7c8d","system_id":"levelo_inurba_marseille","lat":43.253342,"lon":5.421671,"is_reserved":false,"is_disabled":false,"rental_uris":{"android":"levelo://app?vid=0fe28076-79a4-4c58-8cb9-d4750cea7c8d","ios":"levelo://app?vid=0fe28076-79a4-4c58-8cb9-d4750cea7c8d"},"vehicle_type_id":"4","last_reported":1762585740,"current_range_meters":16800,"station_id":"st_d2m65c5bi1j21697t3ng","pricing_plan_id":"cebpf4jnsgd1na2vs0mg"},{"bike_id":"50b934ea-2e5e-4bfd-9f59-7765d8fb6050","system_id":"levelo_inurba_marseille","lat":43.26066,"lon":5.39382,"is_reserved":false,"is_disabled":false,"rental_uris":{"android":"levelo://app?vid=50b934ea-2e5e-4bfd-9f59-7765d8fb6050","ios":"levelo://app?vid=50b934ea-2e5e-4bfd-9f59-7765d8fb6050"},"vehicle_type_id":"4","last_reported":1762585740,"current_range_meters":16800,"station_id":"ce4bhh92rcd13ifvqfj0","pricing_plan_id":"cebpf4jnsgd1na2vs0mg"},{"bike_id":"309a1e5e-51c8-4860-8bb7-12924ece393e","system_id":"levelo_inurba_marseille","lat":43.31021,"lon":5.3753,"is_reserved":false,"is_disabled":false,"rental_uris":{"android":"levelo://app?vid=309a1e5e-51c8-4860-8bb7-12924ece393e","ios":"levelo://app?vid=309a1e5e-51c8-4860-8bb7-12924ece393e"},"vehicle_type_id":"4","last_reported":1762585740,"current_range_meters":16800,"station_id":"","pricing_plan_id":"cebpf4jnsgd1na2vs0mg"},{"bike_id":"7ad82d07-8130-407b-a9c3-c079fd9c9363","system_id":"levelo_inurba_marseille","lat":43.316067,"lon":5.38485,"is_reserved":false,"is_disabled":false,"rental_uris":{"android":"levelo://app?vid=7ad82d07-8130-407b-a9c3-c079fd9c9363","ios":"levelo://app?vid=7ad82d07-8130-407b-a9c3-c079fd9c9363"},"vehicle_type_id":"4","last_reported":1762585740,"current_range_meters":16800,"station_id":"","pricing_plan_id":"cebpf4jnsgd1na2vs0mg"},{"bike_id":"c105907b-ebcd-4aa6-95d8-99f82d1135af","system_id":"levelo_inurba_marseille","lat":43.28273,"lon":5.35054,"is_reserved":false,"is_disabled":false,"rental_uris":{"android":"levelo://app?vid=c105907b-ebcd-4aa6-95d8-99f82d1135af","ios":"levelo://app?vid=c105907b-ebcd-4aa6-95d8-99f82d1135af"},"vehicle_type_id":"4","last_reported":1762585740,"current_range_meters":16800,"station_id":"ce4bhbp2rcd13ifvqerg","pricing_plan_id":"cebpf4jnsgd1na2vs0mg"},{"bike_id":"14777a66-b2b9-4778-89e9-e9b6b9e53e3a","system_id":"levelo_inurba_marseille","lat":43.286609,"lon":5.36349,"is_reserved":false,"is_disabled":false,"rental_uris":{"android":"levelo://app?vid=14777a66-b2b9-4778-89e9-e9b6b9e53e3a","ios":"levelo://app?vid=14777a66-b2b9-4778-89e9-e9b6b9e53e3a"},"vehicle_type_id":"4","last_reported":1762585740,"current_range_meters":17200,"station_id":"ce4bhah2rcd13ifvqej0","pricing_plan_id":"cebpf4jnsgd1na2vs0mg"},{"bike_id":"33a5b7bf-6d64-4ae6-bdcb-20730f349367","system_id":"levelo_inurba_marseille","lat":43.30927,"lon":5.40146,"is_reserved":false,"is_disabled":false,"rental_uris":{"android":"levelo://app?vid=33a5b7bf-6d64-4ae6-bdcb-20730f349367","ios":"levelo://app?vid=33a5b7bf-6d64-4ae6-bdcb-20730f349367"},"vehicle_type_id":"4","last_reported":1762585740,"current_range_meters":17200,"station_id":"ce4bgvp2rcd13ifvqct0","pricing_plan_id":"cebpf4jnsgd1na2vs0mg"},{"bike_id":"9fe00aa7-18ac-44c5-b8b8-fe8e8219132e","system_id":"levelo_inurba_marseille","lat":43.26563,"lon":5.39007,"is_reserved":false,"is_disabled":true,"rental_uris":{"android":"levelo://app?vid=9fe00aa7-18ac-44c5-b8b8-fe8e8219132e","ios":"levelo://app?vid=9fe00aa7-18ac-44c5-b8b8-fe8e8219132e"},"vehicle_type_id":"4","last_reported":1762585740,"current_range_meters":17200,"station_id":"ce4bhe12rcd13ifvqf30","pricing_plan_id":"cebpf4jnsgd1na2vs0mg"},{"bike_id":"9e1b0508-9718-4838-ba3f-5fbec5c9ff14","system_id":"levelo_inurba_marseille","lat":43.28418,"lon":5.34998,"is_reserved":false,"is_disabled":false,"rental_uris":{"android":"levelo://app?vid=9e1b0508-9718-4838-ba3f-5fbec5c9ff14","ios":"levelo://app?vid=9e1b0508-9718-4838-ba3f-5fbec5c9ff14"},"vehicle_type_id":"4","last_reported":1762585740,"current_range_meters":17200,"station_id":"ce4bhbh2rcd13ifvqepg","pricing_plan_id":"cebpf4jnsgd1na2vs0mg"},{"bike_id":"53529ee7-fa79-4bfe-8ac3-2ffb63a46b11","system_id":"levelo_inurba_marseille","lat":43.31794,"lon":5.38858,"is_reserved":false,"is_disabled":false,"rental_uris":{"android":"levelo://app?vid=53529ee7-fa79-4bfe-8ac3-2ffb63a46b11","ios":"levelo://app?vid=53529ee7-fa79-4bfe-8ac3-2ffb63a46b11"},"vehicle_type_id":"4","last_reported":1762585740,"current_range_meters":17200,"station_id":"","pricing_plan_id":"cebpf4jnsgd1na2vs0mg"},{"bike_id":"9e01da5c-26f6-4c61-91d8-0531e787f6d5","system_id":"levelo_inurba_marseille","lat":43.268067,"lon":5.402645,"is_reserved":false,"is_disabled":false,"rental_uris":{"android":"levelo://app?vid=9e01da5c-26f6-4c61-91d8-0531e787f6d5","ios":"levelo://app?vid=9e01da5c-26f6-4c61-91d8-0531e787f6d5"},"vehicle_type_id":"4","last_reported":1762585740,"current_range_meters":17200,"station_id":"ce501612rcd8frsf0b60","pricing_plan_id":"cebpf4jnsgd1na2vs0mg"},{"bike_id":"9012bcf8-bb63-442b-8823-1b956a32ae9e","system_id":"levelo_inurba_marseille","lat":43.3012,"lon":5.431164,"is_reserved":false,"is_disabled":false,"rental_uris":{"android":"levelo://app?vid=9012bcf8-bb63-442b-8823-1b956a32ae9e","ios":"levelo://app?vid=9012bcf8-bb63-442b-8823-1b956a32ae9e"},"vehicle_type_id":"4","last_reported":1762585740,"current_range_meters":17200,"station_id":"st_d3js3co5814s73ftftug","pricing_plan_id":"cebpf4jnsgd1na2vs0mg"},{"bike_id":"d9406ae0-a7d7-4070-8130-6f1d39eec4aa","system_id":"levelo_inurba_marseille","lat":43.286141,"lon":5.370671,"is_reserved":false,"is_disabled":false,"rental_uris":{"android":"levelo://app?vid=d9406ae0-a7d7-4070-8130-6f1d39eec4aa","ios":"levelo://app?vid=d9406ae0-a7d7-4070-8130-6f1d39eec4aa"},"vehicle_type_id":"4","last_reported":1762585740,"current_range_meters":17200,"station_id":"ce4bht12rcd13ifvqi60","pricing_plan_id":"cebpf4jnsgd1na2vs0mg"},{"bike_id":"06b572d6-d95a-4f1a-9a9a-b316897ad6d5","system_id":"levelo_inurba_marseille","lat":43.29545,"lon":5.3752,"is_reserved":false,"is_disabled":false,"rental_uris":{"android":"levelo://app?vid=06b572d6-d95a-4f1a-9a9a-b316897ad6d5","ios":"levelo://app?vid=06b572d6-d95a-4f1a-9a9a-b316897ad6d5"},"vehicle_type_id":"4","last_reported":1762585740,"current_range_meters":17200,"station_id":"ce4bgkp2rcd13ifvqbmg","pricing_plan_id":"cebpf4jnsgd1na2vs0mg"},{"bike_id":"c0ea2105-bbd5-4cae-8d14-e43ad179cb9a","system_id":"levelo_inurba_marseille","lat":43.28268,"lon":5.35059,"is_reserved":false,"is_disabled":false,"rental_uris":{"android":"levelo://app?vid=c0ea2105-bbd5-4cae-8d14-e43ad179cb9a","ios":"levelo://app?vid=c0ea2105-bbd5-4cae-8d14-e43ad179cb9a"},"vehicle_type_id":"4","last_reported":1762585740,"current_range_meters":17200,"station_id":"ce4bhbp2rcd13ifvqerg","pricing_plan_id":"cebpf4jnsgd1na2vs0mg"},{"bike_id":"1a45f863-91ee-405d-8ab5-0e5299819332","system_id":"levelo_inurba_marseille","lat":43.30148,"lon":5.38084,"is_reserved":false,"is_disabled":false,"rental_uris":{"android":"levelo://app?vid=1a45f863-91ee-405d-8ab5-0e5299819332","ios":"levelo://app?vid=1a45f863-91ee-405d-8ab5-0e5299819332"},"vehicle_type_id":"4","last_reported":1762585740,"current_range_meters":17200,"station_id":"ce4bgjp2rcd13ifvqbh0","pricing_plan_id":"cebpf4jnsgd1na2vs0mg"},{"bike_id":"970f93eb-00f5-48b1-87f0-2243b4976fc8","system_id":"levelo_inurba_marseille","lat":43.284489,"lon":5.358869,"is_reserved":false,"is_disabled":false,"rental_uris":{"android":"levelo://app?vid=970f93eb-00f5-48b1-87f0-2243b4976fc8","ios":"levelo://app?vid=970f93eb-00f5-48b1-87f0-2243b4976fc8"},"vehicle_type_id":"4","last_reported":1762585740,"current_range_meters":17200,"station_id":"ce4bhah2rcd13ifvqei0","pricing_plan_id":"cebpf4jnsgd1na2vs0mg"},{"bike_id":"4261fd81-35c4-4223-a398-10d4458c7a57","system_id":"levelo_inurba_marseille","lat":43.32069,"lon":5.36807,"is_reserved":false,"is_disabled":false,"rental_uris":{"android":"levelo://app?vid=4261fd81-35c4-4223-a398-10d4458c7a57","ios":"levelo://app?vid=4261fd81-35c4-4223-a398-10d4458c7a57"},"vehicle_type_id":"4","last_reported":1762585740,"current_range_meters":17600,"station_id":"ce4bhrh2rcd13ifvqhug","pricing_plan_id":"cebpf4jnsgd1na2vs0mg"},{"bike_id":"b483d4bc-fac6-4969-a87f-0af1af99ae86","system_id":"levelo_inurba_marseille","lat":43.29801,"lon":5.38115,"is_reserved":false,"is_disabled":false,"rental_uris":{"android":"levelo://app?vid=b483d4bc-fac6-4969-a87f-0af1af99ae86","ios":"levelo://app?vid=b483d4bc-fac6-4969-a87f-0af1af99ae86"},"vehicle_type_id":"4","last_reported":1762585740,"current_range_meters":17600,"station_id":"ce4bgip2rcd13ifvqbb0","pricing_plan_id":"cebpf4jnsgd1na2vs0mg"},{"bike_id":"65d83eaf-428a-43cd-a356-ecaed95948ff","system_id":"levelo_inurba_marseille","lat":43.24841,"lon":5.39797,"is_reserved":false,"is_disabled":false,"rental_uris":{"android":"levelo://app?vid=65d83eaf-428a-43cd-a356-ecaed95948ff","ios":"levelo://app?vid=65d83eaf-428a-43cd-a356-ecaed95948ff"},"vehicle_type_id":"4","last_reported":1762585740,"current_range_meters":17600,"station_id":"","pricing_plan_id":"cebpf4jnsgd1na2vs0mg"},{"bike_id":"cafff188-4f7a-41c0-816b-a9c4fd683249","system_id":"levelo_inurba_marseille","lat":43.27914,"lon":5.37996,"is_reserved":false,"is_disabled":false,"rental_uris":{"android":"levelo://app?vid=cafff188-4f7a-41c0-816b-a9c4fd683249","ios":"levelo://app?vid=cafff188-4f7a-41c0-816b-a9c4fd683249"},"vehicle_type_id":"4","last_reported":1762585740,"current_range_meters":17600,"station_id":"ce4bhf92rcd13ifvqf50","pricing_plan_id":"cebpf4jnsgd1na2vs0mg"},{"bike_id":"1dab11fe-d3a8-4461-a18f-033332a815be","system_id":"levelo_inurba_marseille","lat":43.25354,"lon":5.42182,"is_reserved":false,"is_disabled":false,"rental_uris":{"android":"levelo://app?vid=1dab11fe-d3a8-4461-a18f-033332a815be","ios":"levelo://app?vid=1dab11fe-d3a8-4461-a18f-033332a815be"},"vehicle_type_id":"4","last_reported":1762585740,"current_range_meters":17600,"station_id":"st_d2m65c5bi1j21697t3ng","pricing_plan_id":"cebpf4jnsgd1na2vs0mg"},{"bike_id":"c73c5513-728d-4700-9395-e31e4399cd51","system_id":"levelo_inurba_marseille","lat":43.29189,"lon":5.402922,"is_reserved":false,"is_disabled":false,"rental_uris":{"android":"levelo://app?vid=c73c5513-728d-4700-9395-e31e4399cd51","ios":"levelo://app?vid=c73c5513-728d-4700-9395-e31e4399cd51"},"vehicle_type_id":"4","last_reported":1762585740,"current_range_meters":17600,"station_id":"","pricing_plan_id":"cebpf4jnsgd1na2vs0mg"},{"bike_id":"f61d5205-9f56-4c50-901f-9e6ecb95d223","system_id":"levelo_inurba_marseille","lat":43.24073,"lon":5.3776,"is_reserved":false,"is_disabled":false,"rental_uris":{"android":"levelo://app?vid=f61d5205-9f56-4c50-901f-9e6ecb95d223","ios":"levelo://app?vid=f61d5205-9f56-4c50-901f-9e6ecb95d223"},"vehicle_type_id":"4","last_reported":1762585740,"current_range_meters":17600,"station_id":"ce4bhnp2rcd13ifvqgvg","pricing_plan_id":"cebpf4jnsgd1na2vs0mg"},{"bike_id":"15db09df-59b0-446a-87c5-e354a3319258","system_id":"levelo_inurba_marseille","lat":43.28469,"lon":5.48384,"is_reserved":false,"is_disabled":false,"rental_uris":{"android":"levelo://app?vid=15db09df-59b0-446a-87c5-e354a3319258","ios":"levelo://app?vid=15db09df-59b0-446a-87c5-e354a3319258"},"vehicle_type_id":"4","last_reported":1762585740,"current_range_meters":17600,"station_id":"","pricing_plan_id":"cebpf4jnsgd1na2vs0mg"},{"bike_id":"95c2a582-1eba-4ebc-bdda-a353604dc20d","system_id":"levelo_inurba_marseille","lat":43.314835,"lon":5.37294,"is_reserved":false,"is_disabled":false,"rental_uris":{"android":"levelo://app?vid=95c2a582-1eba-4ebc-bdda-a353604dc20d","ios":"levelo://app?vid=95c2a582-1eba-4ebc-bdda-a353604dc20d"},"vehicle_type_id":"4","last_reported":1762585740,"current_range_meters":17600,"station_id":"ce4bgt12rcd13ifvqcd0","pricing_plan_id":"cebpf4jnsgd1na2vs0mg"},{"bike_id":"cf78c577-f784-4054-9298-4eadfd68926b","system_id":"levelo_inurba_marseille","lat":43.31175,"lon":5.39346,"is_reserved":false,"is_disabled":false,"rental_uris":{"android":"levelo://app?vid=cf78c577-f784-4054-9298-4eadfd68926b","ios":"levelo://app?vid=cf78c577-f784-4054-9298-4eadfd68926b"},"vehicle_type_id":"4","last_reported":1762585740,"current_range_meters":17600,"station_id":"","pricing_plan_id":"cebpf4jnsgd1na2vs0mg"},{"bike_id":"de2a53a0-705e-4def-ad09-eb1696fdc2e2","system_id":"levelo_inurba_marseille","lat":43.30595,"lon":5.39356,"is_reserved":false,"is_disabled":false,"rental_uris":{"android":"levelo://app?vid=de2a53a0-705e-4def-ad09-eb1696fdc2e2","ios":"levelo://app?vid=de2a53a0-705e-4def-ad09-eb1696fdc2e2"},"vehicle_type_id":"4","last_reported":1762585740,"current_range_meters":17600,"station_id":"ce4bh0p2rcd13ifvqd80","pricing_plan_id":"cebpf4jnsgd1na2vs0mg"},{"bike_id":"8fff5da5-ed39-4c76-9827-d55f2762417f","system_id":"levelo_inurba_marseille","lat":43.309361,"lon":5.401386,"is_reserved":false,"is_disabled":false,"rental_uris":{"android":"levelo://app?vid=8fff5da5-ed39-4c76-9827-d55f2762417f","ios":"levelo://app?vid=8fff5da5-ed39-4c76-9827-d55f2762417f"},"vehicle_type_id":"4","last_reported":1762585740,"current_range_meters":17600,"station_id":"ce4bh692rcd13ifvqea0","pricing_plan_id":"cebpf4jnsgd1na2vs0mg"},{"bike_id":"8582a586-3912-4818-9249-459b3c95239d","system_id":"levelo_inurba_marseille","lat":43.23153,"lon":5.43722,"is_reserved":false,"is_disabled":false,"rental_uris":{"android":"levelo://app?vid=8582a586-3912-4818-9249-459b3c95239d","ios":"levelo://app?vid=8582a586-3912-4818-9249-459b3c95239d"},"vehicle_type_id":"4","last_reported":1762585740,"current_range_meters":18000,"station_id":"ce4bhmp2rcd13ifvqgog","pricing_plan_id":"cebpf4jnsgd1na2vs0mg"},{"bike_id":"2fb7e599-67d9-4248-a320-dd2be3039c5f","system_id":"levelo_inurba_marseille","lat":43.297652,"lon":5.390153,"is_reserved":false,"is_disabled":false,"rental_uris":{"android":"levelo://app?vid=2fb7e599-67d9-4248-a320-dd2be3039c5f","ios":"levelo://app?vid=2fb7e599-67d9-4248-a320-dd2be3039c5f"},"vehicle_type_id":"4","last_reported":1762585740,"current_range_meters":18000,"station_id":"","pricing_plan_id":"cebpf4jnsgd1na2vs0mg"},{"bike_id":"378ef682-dcd4-4c48-ac4f-b07600e5cc4d","system_id":"levelo_inurba_marseille","lat":43.28711,"lon":5.37948,"is_reserved":false,"is_disabled":false,"rental_uris":{"android":"levelo://app?vid=378ef682-dcd4-4c48-ac4f-b07600e5cc4d","ios":"levelo://app?vid=378ef682-dcd4-4c48-ac4f-b07600e5cc4d"},"vehicle_type_id":"4","last_reported":1762585740,"current_range_meters":18000,"station_id":"ce4bh9p2rcd13ifvqec0","pricing_plan_id":"cebpf4jnsgd1na2vs0mg"},{"bike_id":"ef211cbe-5076-4a3b-a1ed-dede330bcf9e","system_id":"levelo_inurba_marseille","lat":43.31345,"lon":5.39702,"is_reserved":false,"is_disabled":true,"rental_uris":{"android":"levelo://app?vid=ef211cbe-5076-4a3b-a1ed-dede330bcf9e","ios":"levelo://app?vid=ef211cbe-5076-4a3b-a1ed-dede330bcf9e"},"vehicle_type_id":"4","last_reported":1762585740,"current_range_meters":18000,"station_id":"ce4bgvp2rcd13ifvqcu0","pricing_plan_id":"cebpf4jnsgd1na2vs0mg"},{"bike_id":"0e40b977-8772-43e1-98d4-439c6ff7226d","system_id":"levelo_inurba_marseille","lat":43.273698,"lon":5.362585,"is_reserved":false,"is_disabled":false,"rental_uris":{"android":"levelo://app?vid=0e40b977-8772-43e1-98d4-439c6ff7226d","ios":"levelo://app?vid=0e40b977-8772-43e1-98d4-439c6ff7226d"},"vehicle_type_id":"4","last_reported":1762585740,"current_range_meters":18000,"station_id":"ce4bhbh2rcd13ifvqeo0","pricing_plan_id":"cebpf4jnsgd1na2vs0mg"},{"bike_id":"3858c905-f8b4-4dfc-acb0-b8aa4a1dbb82","system_id":"levelo_inurba_marseille","lat":43.30781,"lon":5.37649,"is_reserved":false,"is_disabled":false,"rental_uris":{"android":"levelo://app?vid=3858c905-f8b4-4dfc-acb0-b8aa4a1dbb82","ios":"levelo://app?vid=3858c905-f8b4-4dfc-acb0-b8aa4a1dbb82"},"vehicle_type_id":"4","last_reported":1762585740,"current_range_meters":18000,"station_id":"ce4bgv92rcd13ifvqcq0","pricing_plan_id":"cebpf4jnsgd1na2vs0mg"},{"bike_id":"885245f0-5cc9-40e7-8339-ed618a1d562b","system_id":"levelo_inurba_marseille","lat":43.305637,"lon":5.365274,"is_reserved":false,"is_disabled":false,"rental_uris":{"android":"levelo://app?vid=885245f0-5cc9-40e7-8339-ed618a1d562b","ios":"levelo://app?vid=885245f0-5cc9-40e7-8339-ed618a1d562b"},"vehicle_type_id":"4","last_reported":1762585740,"current_range_meters":18000,"station_id":"","pricing_plan_id":"cebpf4jnsgd1na2vs0mg"},{"bike_id":"ec3ac19f-2708-4c17-8ab9-77983f6aee60","system_id":"levelo_inurba_marseille","lat":43.232015,"lon":5.355508,"is_reserved":false,"is_disabled":false,"rental_uris":{"android":"levelo://app?vid=ec3ac19f-2708-4c17-8ab9-77983f6aee60","ios":"levelo://app?vid=ec3ac19f-2708-4c17-8ab9-77983f6aee60"},"vehicle_type_id":"4","last_reported":1762585740,"current_range_meters":18000,"station_id":"ce4bhu92rcd13ifvqi70","pricing_plan_id":"cebpf4jnsgd1na2vs0mg"},{"bike_id":"639e2119-feb2-41ef-a04a-8097682df0bb","system_id":"levelo_inurba_marseille","lat":43.315032,"lon":5.372785,"is_reserved":false,"is_disabled":false,"rental_uris":{"android":"levelo://app?vid=639e2119-feb2-41ef-a04a-8097682df0bb","ios":"levelo://app?vid=639e2119-feb2-41ef-a04a-8097682df0bb"},"vehicle_type_id":"4","last_reported":1762585740,"current_range_meters":18000,"station_id":"ce4bgt12rcd13ifvqcd0","pricing_plan_id":"cebpf4jnsgd1na2vs0mg"},{"bike_id":"ac24010a-73bb-4401-9cf0-9c7ec240d08f","system_id":"levelo_inurba_marseille","lat":43.28861,"lon":5.39313,"is_reserved":false,"is_disabled":false,"rental_uris":{"android":"levelo://app?vid=ac24010a-73bb-4401-9cf0-9c7ec240d08f","ios":"levelo://app?vid=ac24010a-73bb-4401-9cf0-9c7ec240d08f"},"vehicle_type_id":"4","last_reported":1762585740,"current_range_meters":18000,"station_id":"ce4bh2p2rcd13ifvqdi0","pricing_plan_id":"cebpf4jnsgd1na2vs0mg"},{"bike_id":"f313b24e-8be5-4517-86cf-c866ad798da1","system_id":"levelo_inurba_marseille","lat":43.28669,"lon":5.36355,"is_reserved":false,"is_disabled":false,"rental_uris":{"android":"levelo://app?vid=f313b24e-8be5-4517-86cf-c866ad798da1","ios":"levelo://app?vid=f313b24e-8be5-4517-86cf-c866ad798da1"},"vehicle_type_id":"4","last_reported":1762585740,"current_range_meters":18000,"station_id":"ce4bhah2rcd13ifvqej0","pricing_plan_id":"cebpf4jnsgd1na2vs0mg"},{"bike_id":"f51d1ccd-a1ec-48b3-b995-f08e0103ff96","system_id":"levelo_inurba_marseille","lat":43.276636,"lon":5.389064,"is_reserved":false,"is_disabled":false,"rental_uris":{"android":"levelo://app?vid=f51d1ccd-a1ec-48b3-b995-f08e0103ff96","ios":"levelo://app?vid=f51d1ccd-a1ec-48b3-b995-f08e0103ff96"},"vehicle_type_id":"4","last_reported":1762585740,"current_range_meters":18000,"station_id":"ce4bhi12rcd13ifvqfo0","pricing_plan_id":"cebpf4jnsgd1na2vs0mg"},{"bike_id":"70a70ee0-31a1-45c3-8751-6a974413bc65","system_id":"levelo_inurba_marseille","lat":43.25349,"lon":5.4217,"is_reserved":false,"is_disabled":false,"rental_uris":{"android":"levelo://app?vid=70a70ee0-31a1-45c3-8751-6a974413bc65","ios":"levelo://app?vid=70a70ee0-31a1-45c3-8751-6a974413bc65"},"vehicle_type_id":"4","last_reported":1762585740,"current_range_meters":18000,"station_id":"st_d2m65c5bi1j21697t3ng","pricing_plan_id":"cebpf4jnsgd1na2vs0mg"},{"bike_id":"597317a0-19be-4a33-b972-73cfd4ba6eb0","system_id":"levelo_inurba_marseille","lat":43.32683,"lon":5.39199,"is_reserved":false,"is_disabled":false,"rental_uris":{"android":"levelo://app?vid=597317a0-19be-4a33-b972-73cfd4ba6eb0","ios":"levelo://app?vid=597317a0-19be-4a33-b972-73cfd4ba6eb0"},"vehicle_type_id":"4","last_reported":1762585740,"current_range_meters":18000,"station_id":"","pricing_plan_id":"cebpf4jnsgd1na2vs0mg"},{"bike_id":"1d86d1b5-b1b6-4e80-8d79-71fad08c1221","system_id":"levelo_inurba_marseille","lat":43.30599,"lon":5.39357,"is_reserved":false,"is_disabled":false,"rental_uris":{"android":"levelo://app?vid=1d86d1b5-b1b6-4e80-8d79-71fad08c1221","ios":"levelo://app?vid=1d86d1b5-b1b6-4e80-8d79-71fad08c1221"},"vehicle_type_id":"4","last_reported":1762585740,"current_range_meters":18000,"station_id":"ce4bh0p2rcd13ifvqd80","pricing_plan_id":"cebpf4jnsgd1na2vs0mg"},{"bike_id":"a3fc670e-6246-44cc-be04-017cbc4c499a","system_id":"levelo_inurba_marseille","lat":43.264923,"lon":5.395449,"is_reserved":false,"is_disabled":false,"rental_uris":{"android":"levelo://app?vid=a3fc670e-6246-44cc-be04-017cbc4c499a","ios":"levelo://app?vid=a3fc670e-6246-44cc-be04-017cbc4c499a"},"vehicle_type_id":"4","last_reported":1762585740,"current_range_meters":18800,"station_id":"ce4bhi12rcd13ifvqfq0","pricing_plan_id":"cebpf4jnsgd1na2vs0mg"},{"bike_id":"0fede806-d626-4f01-bee2-c6a4111b7f32","system_id":"levelo_inurba_marseille","lat":43.29967,"lon":5.38493,"is_reserved":false,"is_disabled":false,"rental_uris":{"android":"levelo://app?vid=0fede806-d626-4f01-bee2-c6a4111b7f32","ios":"levelo://app?vid=0fede806-d626-4f01-bee2-c6a4111b7f32"},"vehicle_type_id":"4","last_reported":1762585740,"current_range_meters":18800,"station_id":"ce4bgj92rcd13ifvqbd0","pricing_plan_id":"cebpf4jnsgd1na2vs0mg"},{"bike_id":"1b729129-9342-4894-9908-13a243ba50c3","system_id":"levelo_inurba_marseille","lat":43.27488,"lon":5.42463,"is_reserved":false,"is_disabled":true,"rental_uris":{"android":"levelo://app?vid=1b729129-9342-4894-9908-13a243ba50c3","ios":"levelo://app?vid=1b729129-9342-4894-9908-13a243ba50c3"},"vehicle_type_id":"4","last_reported":1762585740,"current_range_meters":18800,"station_id":"ce4bhn92rcd13ifvqgrg","pricing_plan_id":"cebpf4jnsgd1na2vs0mg"},{"bike_id":"28a71d57-b7a5-4879-9084-0c83588ea2f6","system_id":"levelo_inurba_marseille","lat":43.29593,"lon":5.3811,"is_reserved":false,"is_disabled":false,"rental_uris":{"android":"levelo://app?vid=28a71d57-b7a5-4879-9084-0c83588ea2f6","ios":"levelo://app?vid=28a71d57-b7a5-4879-9084-0c83588ea2f6"},"vehicle_type_id":"4","last_reported":1762585740,"current_range_meters":18800,"station_id":"ce4bgl12rcd13ifvqbo0","pricing_plan_id":"cebpf4jnsgd1na2vs0mg"},{"bike_id":"a57abbe0-8d49-4824-9d02-fb72100c688a","system_id":"levelo_inurba_marseille","lat":43.284587,"lon":5.358915,"is_reserved":false,"is_disabled":false,"rental_uris":{"android":"levelo://app?vid=a57abbe0-8d49-4824-9d02-fb72100c688a","ios":"levelo://app?vid=a57abbe0-8d49-4824-9d02-fb72100c688a"},"vehicle_type_id":"4","last_reported":1762585740,"current_range_meters":18800,"station_id":"ce4bhah2rcd13ifvqei0","pricing_plan_id":"cebpf4jnsgd1na2vs0mg"},{"bike_id":"20419e9b-f15b-48a7-8991-ce0ca6ef3309","system_id":"levelo_inurba_marseille","lat":43.314829,"lon":5.372926,"is_reserved":false,"is_disabled":false,"rental_uris":{"android":"levelo://app?vid=20419e9b-f15b-48a7-8991-ce0ca6ef3309","ios":"levelo://app?vid=20419e9b-f15b-48a7-8991-ce0ca6ef3309"},"vehicle_type_id":"4","last_reported":1762585740,"current_range_meters":19200,"station_id":"ce4bgt12rcd13ifvqcd0","pricing_plan_id":"cebpf4jnsgd1na2vs0mg"},{"bike_id":"5ca7e156-456f-4551-95d1-e6d848f54d66","system_id":"levelo_inurba_marseille","lat":43.303863,"lon":5.42498,"is_reserved":false,"is_disabled":true,"rental_uris":{"android":"levelo://app?vid=5ca7e156-456f-4551-95d1-e6d848f54d66","ios":"levelo://app?vid=5ca7e156-456f-4551-95d1-e6d848f54d66"},"vehicle_type_id":"4","last_reported":1762585740,"current_range_meters":19200,"station_id":"ce4bhoh2rcd13ifvqh6g","pricing_plan_id":"cebpf4jnsgd1na2vs0mg"},{"bike_id":"6e40ebcb-97cf-4e7d-83c4-17b6c04e849d","system_id":"levelo_inurba_marseille","lat":43.288638,"lon":5.425275,"is_reserved":false,"is_disabled":false,"rental_uris":{"android":"levelo://app?vid=6e40ebcb-97cf-4e7d-83c4-17b6c04e849d","ios":"levelo://app?vid=6e40ebcb-97cf-4e7d-83c4-17b6c04e849d"},"vehicle_type_id":"4","last_reported":1762585740,"current_range_meters":19200,"station_id":"st_d3b462108ojc7389ooeg","pricing_plan_id":"cebpf4jnsgd1na2vs0mg"},{"bike_id":"07925b9c-02f4-4f2c-91df-3e2d937b2d54","system_id":"levelo_inurba_marseille","lat":43.279947,"lon":5.416624,"is_reserved":false,"is_disabled":false,"rental_uris":{"android":"levelo://app?vid=07925b9c-02f4-4f2c-91df-3e2d937b2d54","ios":"levelo://app?vid=07925b9c-02f4-4f2c-91df-3e2d937b2d54"},"vehicle_type_id":"4","last_reported":1762585740,"current_range_meters":19200,"station_id":"ce4bho12rcd13ifvqh1g","pricing_plan_id":"cebpf4jnsgd1na2vs0mg"},{"bike_id":"b4b2bcc2-6c67-4ec9-a2e5-3073ceb9f70f","system_id":"levelo_inurba_marseille","lat":43.286172,"lon":5.351112,"is_reserved":false,"is_disabled":false,"rental_uris":{"android":"levelo://app?vid=b4b2bcc2-6c67-4ec9-a2e5-3073ceb9f70f","ios":"levelo://app?vid=b4b2bcc2-6c67-4ec9-a2e5-3073ceb9f70f"},"vehicle_type_id":"4","last_reported":1762585740,"current_range_meters":19200,"station_id":"ce4bhch2rcd13ifvqeug","pricing_plan_id":"cebpf4jnsgd1na2vs0mg"},{"bike_id":"2a98206d-ae1c-4849-805c-a6471bf2e6ca","system_id":"levelo_inurba_marseille","lat":43.29935,"lon":5.365419,"is_reserved":false,"is_disabled":false,"rental_uris":{"android":"levelo://app?vid=2a98206d-ae1c-4849-805c-a6471bf2e6ca","ios":"levelo://app?vid=2a98206d-ae1c-4849-805c-a6471bf2e6ca"},"vehicle_type_id":"4","last_reported":1762585740,"current_range_meters":19200,"station_id":"ce4bgm92rcd13ifvqbr0","pricing_plan_id":"cebpf4jnsgd1na2vs0mg"},{"bike_id":"d8a2355e-a776-4b85-8a3e-22368796688d","system_id":"levelo_inurba_marseille","lat":43.30785,"lon":5.36882,"is_reserved":false,"is_disabled":false,"rental_uris":{"android":"levelo://app?vid=d8a2355e-a776-4b85-8a3e-22368796688d","ios":"levelo://app?vid=d8a2355e-a776-4b85-8a3e-22368796688d"},"vehicle_type_id":"4","last_reported":1762585740,"current_range_meters":19200,"station_id":"","pricing_plan_id":"cebpf4jnsgd1na2vs0mg"},{"bike_id":"3585dd0d-06ba-43cf-a48a-a08f0c0af516","system_id":"levelo_inurba_marseille","lat":43.2737,"lon":5.36257,"is_reserved":false,"is_disabled":false,"rental_uris":{"android":"levelo://app?vid=3585dd0d-06ba-43cf-a48a-a08f0c0af516","ios":"levelo://app?vid=3585dd0d-06ba-43cf-a48a-a08f0c0af516"},"vehicle_type_id":"4","last_reported":1762585740,"current_range_meters":19600,"station_id":"ce4bhbh2rcd13ifvqeo0","pricing_plan_id":"cebpf4jnsgd1na2vs0mg"},{"bike_id":"f4b3610c-ddfd-461d-9ea3-633c91510343","system_id":"levelo_inurba_marseille","lat":43.24635,"lon":5.43144,"is_reserved":false,"is_disabled":false,"rental_uris":{"android":"levelo://app?vid=f4b3610c-ddfd-461d-9ea3-633c91510343","ios":"levelo://app?vid=f4b3610c-ddfd-461d-9ea3-633c91510343"},"vehicle_type_id":"4","last_reported":1762585740,"current_range_meters":19600,"station_id":"st_d2m6c4gdas8pm72e190g","pricing_plan_id":"cebpf4jnsgd1na2vs0mg"},{"bike_id":"4674d9f4-3d44-468c-a3d6-5f45963b3858","system_id":"levelo_inurba_marseille","lat":43.21192,"lon":5.35064,"is_reserved":false,"is_disabled":false,"rental_uris":{"android":"levelo://app?vid=4674d9f4-3d44-468c-a3d6-5f45963b3858","ios":"levelo://app?vid=4674d9f4-3d44-468c-a3d6-5f45963b3858"},"vehicle_type_id":"4","last_reported":1762585740,"current_range_meters":19600,"station_id":"st_cvj6sg6p6f1abm77japg","pricing_plan_id":"cebpf4jnsgd1na2vs0mg"},{"bike_id":"3c388a92-1a69-415c-a578-622fa4657fa2","system_id":"levelo_inurba_marseille","lat":43.30158,"lon":5.38082,"is_reserved":false,"is_disabled":false,"rental_uris":{"android":"levelo://app?vid=3c388a92-1a69-415c-a578-622fa4657fa2","ios":"levelo://app?vid=3c388a92-1a69-415c-a578-622fa4657fa2"},"vehicle_type_id":"4","last_reported":1762585740,"current_range_meters":19600,"station_id":"ce4bgjp2rcd13ifvqbh0","pricing_plan_id":"cebpf4jnsgd1na2vs0mg"},{"bike_id":"8a27e9df-cbc4-4ef9-8a02-6687ed307810","system_id":"levelo_inurba_marseille","lat":43.30937,"lon":5.40154,"is_reserved":false,"is_disabled":true,"rental_uris":{"android":"levelo://app?vid=8a27e9df-cbc4-4ef9-8a02-6687ed307810","ios":"levelo://app?vid=8a27e9df-cbc4-4ef9-8a02-6687ed307810"},"vehicle_type_id":"4","last_reported":1762585740,"current_range_meters":19600,"station_id":"ce4bgvp2rcd13ifvqct0","pricing_plan_id":"cebpf4jnsgd1na2vs0mg"},{"bike_id":"84a9fc8c-ad23-4893-90bf-a0276160bf36","system_id":"levelo_inurba_marseille","lat":43.28674,"lon":5.36345,"is_reserved":false,"is_disabled":false,"rental_uris":{"android":"levelo://app?vid=84a9fc8c-ad23-4893-90bf-a0276160bf36","ios":"levelo://app?vid=84a9fc8c-ad23-4893-90bf-a0276160bf36"},"vehicle_type_id":"4","last_reported":1762585740,"current_range_meters":19600,"station_id":"ce4bhah2rcd13ifvqej0","pricing_plan_id":"cebpf4jnsgd1na2vs0mg"},{"bike_id":"3e40fdd4-f36e-45b0-b5ca-8ad20edf31e7","system_id":"levelo_inurba_marseille","lat":43.29203,"lon":5.35808,"is_reserved":false,"is_disabled":false,"rental_uris":{"android":"levelo://app?vid=3e40fdd4-f36e-45b0-b5ca-8ad20edf31e7","ios":"levelo://app?vid=3e40fdd4-f36e-45b0-b5ca-8ad20edf31e7"},"vehicle_type_id":"4","last_reported":1762585740,"current_range_meters":19600,"station_id":"ce4bhb12rcd13ifvqel0","pricing_plan_id":"cebpf4jnsgd1na2vs0mg"},{"bike_id":"2c3ba105-6c99-49d5-a3df-3764ba28fa7a","system_id":"levelo_inurba_marseille","lat":43.324527,"lon":5.416584,"is_reserved":false,"is_disabled":false,"rental_uris":{"android":"levelo://app?vid=2c3ba105-6c99-49d5-a3df-3764ba28fa7a","ios":"levelo://app?vid=2c3ba105-6c99-49d5-a3df-3764ba28fa7a"},"vehicle_type_id":"4","last_reported":1762585740,"current_range_meters":19600,"station_id":"","pricing_plan_id":"cebpf4jnsgd1na2vs0mg"},{"bike_id":"f4631bc2-f6ef-4dfb-bc8e-46a4d590fb08","system_id":"levelo_inurba_marseille","lat":43.240743,"lon":5.37752,"is_reserved":false,"is_disabled":false,"rental_uris":{"android":"levelo://app?vid=f4631bc2-f6ef-4dfb-bc8e-46a4d590fb08","ios":"levelo://app?vid=f4631bc2-f6ef-4dfb-bc8e-46a4d590fb08"},"vehicle_type_id":"4","last_reported":1762585740,"current_range_meters":19600,"station_id":"ce4bhnp2rcd13ifvqgvg","pricing_plan_id":"cebpf4jnsgd1na2vs0mg"},{"bike_id":"07a45692-c485-40fe-a2fa-8a4aea90b388","system_id":"levelo_inurba_marseille","lat":43.30191,"lon":5.38036,"is_reserved":false,"is_disabled":false,"rental_uris":{"android":"levelo://app?vid=07a45692-c485-40fe-a2fa-8a4aea90b388","ios":"levelo://app?vid=07a45692-c485-40fe-a2fa-8a4aea90b388"},"vehicle_type_id":"4","last_reported":1762585740,"current_range_meters":19600,"station_id":"ce4bgjp2rcd13ifvqbh0","pricing_plan_id":"cebpf4jnsgd1na2vs0mg"},{"bike_id":"d54bba90-4e32-4b86-b7cb-3d55d39adb68","system_id":"levelo_inurba_marseille","lat":43.24669,"lon":5.38159,"is_reserved":false,"is_disabled":false,"rental_uris":{"android":"levelo://app?vid=d54bba90-4e32-4b86-b7cb-3d55d39adb68","ios":"levelo://app?vid=d54bba90-4e32-4b86-b7cb-3d55d39adb68"},"vehicle_type_id":"4","last_reported":1762585740,"current_range_meters":20000,"station_id":"ce4bhih2rcd13ifvqfr0","pricing_plan_id":"cebpf4jnsgd1na2vs0mg"},{"bike_id":"3e46d7d6-5986-4a58-b8da-702fc9c0a645","system_id":"levelo_inurba_marseille","lat":43.30168,"lon":5.36635,"is_reserved":false,"is_disabled":false,"rental_uris":{"android":"levelo://app?vid=3e46d7d6-5986-4a58-b8da-702fc9c0a645","ios":"levelo://app?vid=3e46d7d6-5986-4a58-b8da-702fc9c0a645"},"vehicle_type_id":"4","last_reported":1762585740,"current_range_meters":20000,"station_id":"ce4bgrh2rcd13ifvqc8g","pricing_plan_id":"cebpf4jnsgd1na2vs0mg"},{"bike_id":"34be9f10-8057-4a4b-8d73-530cbc7660df","system_id":"levelo_inurba_marseille","lat":43.30647,"lon":5.36564,"is_reserved":false,"is_disabled":true,"rental_uris":{"android":"levelo://app?vid=34be9f10-8057-4a4b-8d73-530cbc7660df","ios":"levelo://app?vid=34be9f10-8057-4a4b-8d73-530cbc7660df"},"vehicle_type_id":"4","last_reported":1762585740,"current_range_meters":20000,"station_id":"","pricing_plan_id":"cebpf4jnsgd1na2vs0mg"},{"bike_id":"adc728c4-7d88-468c-be89-220c19218372","system_id":"levelo_inurba_marseille","lat":43.30967,"lon":5.38369,"is_reserved":false,"is_disabled":false,"rental_uris":{"android":"levelo://app?vid=adc728c4-7d88-468c-be89-220c19218372","ios":"levelo://app?vid=adc728c4-7d88-468c-be89-220c19218372"},