{"last_updated":1705698393,"ttl":30,"version":"2.2","data":{"bikes":[{"bike_id":"97f08bf8-1ec8-41a0-9009-c1b03f85bd6a","system_id":"levelo_inurba_marseille","lat":43.313548,"lon":5.367047,"is_reserved":false,"is_disabled":false,"rental_uris":{"android":"levelo://app?vid=97f08bf8-1ec8-41a0-9009-c1b03f85bd6a","ios":"levelo://app?vid=97f08bf8-1ec8-41a0-9009-c1b03f85bd6a"},"vehicle_type_id":"4","last_reported":1705698393,"current_range_meters":24800,"station_id":"ce4bgr92rcd13ifvqc6g","pricing_plan_id":"free"},{"bike_id":"68ce9576-2dba-47f5-a97d-7c3897ff0890","system_id":"levelo_inurba_marseille","lat":43.312239,"lon":5.368562,"is_reserved":false,"is_disabled":false,"rental_uris":{"android":"levelo://app?vid=68ce9576-2dba-47f5-a97d-7c3897ff0890","ios":"levelo://app?vid=68ce9576-2dba-47f5-a97d-7c3897ff0890"},"vehicle_type_id":"4","last_reported":1705698393,"current_range_meters":31200,"station_id":"ce4bgl92rcd13ifvqbq0","pricing_plan_id":"free"},{"bike_id":"6ba15a29-d86f-4270-afd5-8926b51235c3","system_id":"levelo_inurba_marseille","lat":43.312239,"lon":5.368562,"is_reserved":false,"is_disabled":false,"rental_uris":{"android":"levelo://app?vid=6ba15a29-d86f-4270-afd5-8926b51235c3","ios":"levelo://app?vid=6ba15a29-d86f-4270-afd5-8926b51235c3"},"vehicle_type_id":"4","last_reported":1705698393,"current_range_meters":20800,"station_id":"ce4bgl92rcd13ifvqbq0","pricing_plan_id":"free"},{"bike_id":"173c07e5-8508-415e-8f5f-ed33807c7621","system_id":"levelo_inurba_marseille","lat":43.312239,"lon":5.368562,"is_reserved":false,"is_disabled":false,"rental_uris":{"android":"levelo://app?vid=173c07e5-8508-415e-8f5f-ed33807c7621","ios":"levelo://app?vid=173c07e5-8508-415e-8f5f-ed33807c7621"},"vehicle_type_id":"4","last_reported":1705698393,"current_range_meters":28800,"station_id":"ce4bgl92rcd13ifvqbq0","pricing_plan_id":"free"},{"bike_id":"8af93833-18b6-490a-8fc5-9cfa82edad07","system_id":"levelo_inurba_marseille","lat":43.312239,"lon":5.368562,"is_reserved":false,"is_disabled":false,"rental_uris":{"android":"levelo://app?vid=8af93833-18b6-490a-8fc5-9cfa82edad07","ios":"levelo://app?vid=8af93833-18b6-490a-8fc5-9cfa82edad07"},"vehicle_type_id":"4","last_reported":1705698393,"current_range_meters":2800,"station_id":"ce4bgl92rcd13ifvqbq0","pricing_plan_id":"free"},{"bike_id":"c29a3c1a-2bc1-48d4-8c54-54ccfbc2af99","system_id":"levelo_inurba_marseille","lat":43.312239,"lon":5.368562,"is_reserved":false,"is_disabled":false,"rental_uris":{"android":"levelo://app?vid=c29a3c1a-2bc1-48d4-8c54-54ccfbc2af99","ios":"levelo://app?vid=c29a3c1a-2bc1-48d4-8c54-54ccfbc2af99"},"vehicle_type_id":"4","last_reported":1705698393,"current_range_meters":27600,"station_id":"ce4bgl92rcd13ifvqbq0","pricing_plan_id":"free"},{"bike_id":"f9b82c1c-7c82-4344-bd05-c27963a7b1e2","system_id":"levelo_inurba_marseille","lat":43.312239,"lon":5.368562,"is_reserved":false,"is_disabled":false,"rental_uris":{"android":"levelo://app?vid=f9b82c1c-7c82-4344-bd05-c27963a7b1e2","ios":"levelo://app?vid=f9b82c1c-7c82-4344-bd05-c27963a7b1e2"},"vehicle_type_id":"4","last_reported":1705698393,"current_range_meters":13200,"station_id":"ce4bgl92rcd13ifvqbq0","pricing_plan_id":"free"},{"bike_id":"f9437048-cd1e-4983-b751-7b53f60e1982","system_id":"levelo_inurba_marseille","lat":43.312239,"lon":5.368562,"is_reserved":false,"is_disabled":false,"rental_uris":{"android":"levelo://app?vid=f9437048-cd1e-4983-b751-7b53f60e1982","ios":"levelo://app?vid=f9437048-cd1e-4983-b751-7b53f60e1982"},"vehicle_type_id":"4","last_reported":1705698393,"current_range_meters":25200,"station_id":"ce4bgl92rcd13ifvqbq0","pricing_plan_id":"free"},{"bike_id":"1281d799-9d76-4a04-b28f-c7585f08f157","system_id":"levelo_inurba_marseille","lat":43.312239,"lon":5.368562,"is_reserved":false,"is_disabled":false,"rental_uris":{"android":"levelo://app?vid=1281d799-9d76-4a04-b28f-c7585f08f157","ios":"levelo://app?vid=1281d799-9d76-4a04-b28f-c7585f08f157"},"vehicle_type_id":"4","last_reported":1705698393,"current_range_meters":20400,"station_id":"ce4bgl92rcd13ifvqbq0","pricing_plan_id":"free"},{"bike_id":"7f57cc82-d70c-4c1a-ba34-96ebd763daa3","system_id":"levelo_inurba_marseille","lat":43.310521,"lon":5.371386,"is_reserved":false,"is_disabled":false,"rental_uris":{"android":"levelo://app?vid=7f57cc82-d70c-4c1a-ba34-96ebd763daa3","ios":"levelo://app?vid=7f57cc82-d70c-4c1a-ba34-96ebd763daa3"},"vehicle_type_id":"4","last_reported":1705698393,"current_range_meters":0,"station_id":"","pricing_plan_id":"free"},{"bike_id":"665481bc-ce02-4ad3-bc2d-37b3ccf524a7","system_id":"levelo_inurba_marseille","lat":43.314811,"lon":5.373103,"is_reserved":false,"is_disabled":false,"rental_uris":{"android":"levelo://app?vid=665481bc-ce02-4ad3-bc2d-37b3ccf524a7","ios":"levelo://app?vid=665481bc-ce02-4ad3-bc2d-37b3ccf524a7"},"vehicle_type_id":"4","last_reported":1705698393,"current_range_meters":12400,"station_id":"ce4bgt12rcd13ifvqcd0","pricing_plan_id":"free"},{"bike_id":"25205c82-9642-4578-8c50-8d01b937e62b","system_id":"levelo_inurba_marseille","lat":43.314811,"lon":5.373103,"is_reserved":false,"is_disabled":false,"rental_uris":{"android":"levelo://app?vid=25205c82-9642-4578-8c50-8d01b937e62b","ios":"levelo://app?vid=25205c82-9642-4578-8c50-8d01b937e62b"},"vehicle_type_id":"4","last_reported":1705698393,"current_range_meters":16800,"station_id":"ce4bgt12rcd13ifvqcd0","pricing_plan_id":"free"},{"bike_id":"9b0b9bd1-7e72-4750-9146-32a565166dd3","system_id":"levelo_inurba_marseille","lat":43.314811,"lon":5.373103,"is_reserved":false,"is_disabled":false,"rental_uris":{"android":"levelo://app?vid=9b0b9bd1-7e72-4750-9146-32a565166dd3","ios":"levelo://app?vid=9b0b9bd1-7e72-4750-9146-32a565166dd3"},"vehicle_type_id":"4","last_reported":1705698393,"current_range_meters":12400,"station_id":"ce4bgt12rcd13ifvqcd0","pricing_plan_id":"free"},{"bike_id":"8555a8f9-c924-4204-af6e-a0e48d1e277b","system_id":"levelo_inurba_marseille","lat":43.309039,"lon":5.371797,"is_reserved":false,"is_disabled":false,"rental_uris":{"android":"levelo://app?vid=8555a8f9-c924-4204-af6e-a0e48d1e277b","ios":"levelo://app?vid=8555a8f9-c924-4204-af6e-a0e48d1e277b"},"vehicle_type_id":"4","last_reported":1705698393,"current_range_meters":27600,"station_id":"ce4bguh2rcd13ifvqckg","pricing_plan_id":"free"},{"bike_id":"3c2532e6-a0bc-4d42-8432-50b65b7fab48","system_id":"levelo_inurba_marseille","lat":43.305712,"lon":5.365641,"is_reserved":false,"is_disabled":false,"rental_uris":{"android":"levelo://app?vid=3c2532e6-a0bc-4d42-8432-50b65b7fab48","ios":"levelo://app?vid=3c2532e6-a0bc-4d42-8432-50b65b7fab48"},"vehicle_type_id":"4","last_reported":1705698393,"current_range_meters":8400,"station_id":"ce4bgs12rcd13ifvqcag","pricing_plan_id":"free"},{"bike_id":"397b5218-8b37-4109-aadb-b19b3edc2d04","system_id":"levelo_inurba_marseille","lat":43.305943,"lon":5.372224,"is_reserved":false,"is_disabled":false,"rental_uris":{"android":"levelo://app?vid=397b5218-8b37-4109-aadb-b19b3edc2d04","ios":"levelo://app?vid=397b5218-8b37-4109-aadb-b19b3edc2d04"},"vehicle_type_id":"4","last_reported":1705698393,"current_range_meters":6800,"station_id":"ce4bgqh2rcd13ifvqc4g","pricing_plan_id":"free"},{"bike_id":"c6e020b0-4e20-4559-9642-dfbf943d0408","system_id":"levelo_inurba_marseille","lat":43.311125,"lon":5.377624,"is_reserved":false,"is_disabled":false,"rental_uris":{"android":"levelo://app?vid=c6e020b0-4e20-4559-9642-dfbf943d0408","ios":"levelo://app?vid=c6e020b0-4e20-4559-9642-dfbf943d0408"},"vehicle_type_id":"4","last_reported":1705698393,"current_range_meters":3600,"station_id":"ce4bgt92rcd13ifvqcg0","pricing_plan_id":"free"},{"bike_id":"99bccf18-c5f9-48ad-a620-0438c95b1df3","system_id":"levelo_inurba_marseille","lat":43.311125,"lon":5.377624,"is_reserved":false,"is_disabled":false,"rental_uris":{"android":"levelo://app?vid=99bccf18-c5f9-48ad-a620-0438c95b1df3","ios":"levelo://app?vid=99bccf18-c5f9-48ad-a620-0438c95b1df3"},"vehicle_type_id":"4","last_reported":1705698393,"current_range_meters":0,"station_id":"ce4bgt92rcd13ifvqcg0","pricing_plan_id":"free"},{"bike_id":"3cdde73b-44c4-46bb-98d6-306383332914","system_id":"levelo_inurba_marseille","lat":43.311125,"lon":5.377624,"is_reserved":false,"is_disabled":false,"rental_uris":{"android":"levelo://app?vid=3cdde73b-44c4-46bb-98d6-306383332914","ios":"levelo://app?vid=3cdde73b-44c4-46bb-98d6-306383332914"},"vehicle_type_id":"4","last_reported":1705698393,"current_range_meters":28000,"station_id":"ce4bgt92rcd13ifvqcg0","pricing_plan_id":"free"},{"bike_id":"7ada99ed-5c09-4fc3-9b74-5482197e749b","system_id":"levelo_inurba_marseille","lat":43.311125,"lon":5.377624,"is_reserved":false,"is_disabled":false,"rental_uris":{"android":"levelo://app?vid=7ada99ed-5c09-4fc3-9b74-5482197e749b","ios":"levelo://app?vid=7ada99ed-5c09-4fc3-9b74-5482197e749b"},"vehicle_type_id":"4","last_reported":1705698393,"current_range_meters":23600,"station_id":"ce4bgt92rcd13ifvqcg0","pricing_plan_id":"free"},{"bike_id":"fdaeaed9-9851-4017-9f79-0bcba5790810","system_id":"levelo_inurba_marseille","lat":43.311125,"lon":5.377624,"is_reserved":false,"is_disabled":false,"rental_uris":{"android":"levelo://app?vid=fdaeaed9-9851-4017-9f79-0bcba5790810","ios":"levelo://app?vid=fdaeaed9-9851-4017-9f79-0bcba5790810"},"vehicle_type_id":"4","last_reported":1705698393,"current_range_meters":10800,"station_id":"ce4bgt92rcd13ifvqcg0","pricing_plan_id":"free"},{"bike_id":"1e598083-a05f-45ba-b573-c0fbb591b4db","system_id":"levelo_inurba_marseille","lat":43.311125,"lon":5.377624,"is_reserved":false,"is_disabled":false,"rental_uris":{"android":"levelo://app?vid=1e598083-a05f-45ba-b573-c0fbb591b4db","ios":"levelo://app?vid=1e598083-a05f-45ba-b573-c0fbb591b4db"},"vehicle_type_id":"4","last_reported":1705698393,"current_range_meters":20000,"station_id":"ce4bgt92rcd13ifvqcg0","pricing_plan_id":"free"},{"bike_id":"14b10b2d-06b9-41d4-9a5a-c7f7e0f99f44","system_id":"levelo_inurba_marseille","lat":43.311125,"lon":5.377624,"is_reserved":false,"is_disabled":false,"rental_uris":{"android":"levelo://app?vid=14b10b2d-06b9-41d4-9a5a-c7f7e0f99f44","ios":"levelo://app?vid=14b10b2d-06b9-41d4-9a5a-c7f7e0f99f44"},"vehicle_type_id":"4","last_reported":1705698393,"current_range_meters":15200,"station_id":"ce4bgt92rcd13ifvqcg0","pricing_plan_id":"free"},{"bike_id":"3e85d805-3a43-4bd4-a88d-f96eb92104b3","system_id":"levelo_inurba_marseille","lat":43.311131,"lon":5.377651,"is_reserved":false,"is_disabled":false,"rental_uris":{"android":"levelo://app?vid=3e85d805-3a43-4bd4-a88d-f96eb92104b3","ios":"levelo://app?vid=3e85d805-3a43-4bd4-a88d-f96eb92104b3"},"vehicle_type_id":"4","last_reported":1705698393,"current_range_meters":21600,"station_id":"ce4bgt92rcd13ifvqcg0","pricing_plan_id":"free"},{"bike_id":"3a8ccd77-0861-4a9f-bde3-d86ed2504a3d","system_id":"levelo_inurba_marseille","lat":43.317075,"lon":5.377367,"is_reserved":false,"is_disabled":false,"rental_uris":{"android":"levelo://app?vid=3a8ccd77-0861-4a9f-bde3-d86ed2504a3d","ios":"levelo://app?vid=3a8ccd77-0861-4a9f-bde3-d86ed2504a3d"},"vehicle_type_id":"4","last_reported":1705698393,"current_range_meters":28000,"station_id":"ce4bgth2rcd13ifvqch0","pricing_plan_id":"free"},{"bike_id":"2706b3f5-7558-4f68-960f-ce11ec89d9da","system_id":"levelo_inurba_marseille","lat":43.31525,"lon":5.38034,"is_reserved":false,"is_disabled":false,"rental_uris":{"android":"levelo://app?vid=2706b3f5-7558-4f68-960f-ce11ec89d9da","ios":"levelo://app?vid=2706b3f5-7558-4f68-960f-ce11ec89d9da"},"vehicle_type_id":"4","last_reported":1705698393,"current_range_meters":11200,"station_id":"ce4bhsp2rcd13ifvqi50","pricing_plan_id":"free"},{"bike_id":"f4e6351a-619c-4902-9c12-877eccceb1f2","system_id":"levelo_inurba_marseille","lat":43.31524,"lon":5.38035,"is_reserved":false,"is_disabled":false,"rental_uris":{"android":"levelo://app?vid=f4e6351a-619c-4902-9c12-877eccceb1f2","ios":"levelo://app?vid=f4e6351a-619c-4902-9c12-877eccceb1f2"},"vehicle_type_id":"4","last_reported":1705698393,"current_range_meters":29200,"station_id":"ce4bhsp2rcd13ifvqi50","pricing_plan_id":"free"},{"bike_id":"6165fac9-27db-4089-bf20-ea1a626dd817","system_id":"levelo_inurba_marseille","lat":43.301939,"lon":5.366286,"is_reserved":false,"is_disabled":false,"rental_uris":{"android":"levelo://app?vid=6165fac9-27db-4089-bf20-ea1a626dd817","ios":"levelo://app?vid=6165fac9-27db-4089-bf20-ea1a626dd817"},"vehicle_type_id":"4","last_reported":1705698393,"current_range_meters":21200,"station_id":"ce4bgrh2rcd13ifvqc8g","pricing_plan_id":"free"},{"bike_id":"d17e86e7-25c8-4be4-9736-aa9e10100373","system_id":"levelo_inurba_marseille","lat":43.30803,"lon":5.381407,"is_reserved":false,"is_disabled":false,"rental_uris":{"android":"levelo://app?vid=d17e86e7-25c8-4be4-9736-aa9e10100373","ios":"levelo://app?vid=d17e86e7-25c8-4be4-9736-aa9e10100373"},"vehicle_type_id":"4","last_reported":1705698393,"current_range_meters":16400,"station_id":"ce4bgt12rcd13ifvqce0","pricing_plan_id":"free"},{"bike_id":"b341a6f0-d00d-4d31-a77c-e985cad5ca02","system_id":"levelo_inurba_marseille","lat":43.308012,"lon":5.381511,"is_reserved":false,"is_disabled":false,"rental_uris":{"android":"levelo://app?vid=b341a6f0-d00d-4d31-a77c-e985cad5ca02","ios":"levelo://app?vid=b341a6f0-d00d-4d31-a77c-e985cad5ca02"},"vehicle_type_id":"4","last_reported":1705698393,"current_range_meters":22000,"station_id":"ce4bgt12rcd13ifvqce0","pricing_plan_id":"free"},{"bike_id":"005ea7c6-0d96-4979-9e9f-b4f56a2ed4d9","system_id":"levelo_inurba_marseille","lat":43.308012,"lon":5.381511,"is_reserved":false,"is_disabled":false,"rental_uris":{"android":"levelo://app?vid=005ea7c6-0d96-4979-9e9f-b4f56a2ed4d9","ios":"levelo://app?vid=005ea7c6-0d96-4979-9e9f-b4f56a2ed4d9"},"vehicle_type_id":"4","last_reported":1705698393,"current_range_meters":27200,"station_id":"ce4bgt12rcd13ifvqce0","pricing_plan_id":"free"},{"bike_id":"7a238d46-59f2-46f1-a16c-d2acea31d059","system_id":"levelo_inurba_marseille","lat":43.308012,"lon":5.381511,"is_reserved":false,"is_disabled":false,"rental_uris":{"android":"levelo://app?vid=7a238d46-59f2-46f1-a16c-d2acea31d059","ios":"levelo://app?vid=7a238d46-59f2-46f1-a16c-d2acea31d059"},"vehicle_type_id":"4","last_reported":1705698393,"current_range_meters":17600,"station_id":"ce4bgt12rcd13ifvqce0","pricing_plan_id":"free"},{"bike_id":"15845578-34ed-4917-9818-aa232233a8de","system_id":"levelo_inurba_marseille","lat":43.308012,"lon":5.381511,"is_reserved":false,"is_disabled":false,"rental_uris":{"android":"levelo://app?vid=15845578-34ed-4917-9818-aa232233a8de","ios":"levelo://app?vid=15845578-34ed-4917-9818-aa232233a8de"},"vehicle_type_id":"4","last_reported":1705698393,"current_range_meters":5200,"station_id":"ce4bgt12rcd13ifvqce0","pricing_plan_id":"free"},{"bike_id":"fdeafe69-84b2-4afa-a6fb-531519ca5d1a","system_id":"levelo_inurba_marseille","lat":43.308012,"lon":5.381511,"is_reserved":false,"is_disabled":false,"rental_uris":{"android":"levelo://app?vid=fdeafe69-84b2-4afa-a6fb-531519ca5d1a","ios":"levelo://app?vid=fdeafe69-84b2-4afa-a6fb-531519ca5d1a"},"vehicle_type_id":"4","last_reported":1705698393,"current_range_meters":6000,"station_id":"ce4bgt12rcd13ifvqce0","pricing_plan_id":"free"},{"bike_id":"ff76b524-6ddf-4650-8abf-14329f5f44d6","system_id":"levelo_inurba_marseille","lat":43.304606,"lon":5.379026,"is_reserved":false,"is_disabled":false,"rental_uris":{"android":"levelo://app?vid=ff76b524-6ddf-4650-8abf-14329f5f44d6","ios":"levelo://app?vid=ff76b524-6ddf-4650-8abf-14329f5f44d6"},"vehicle_type_id":"4","last_reported":1705698393,"current_range_meters":13600,"station_id":"ce4bgup2rcd13ifvqcn0","pricing_plan_id":"free"},{"bike_id":"652261b3-248c-4d4e-9716-23b770cf1aad","system_id":"levelo_inurba_marseille","lat":43.304606,"lon":5.379026,"is_reserved":false,"is_disabled":false,"rental_uris":{"android":"levelo://app?vid=652261b3-248c-4d4e-9716-23b770cf1aad","ios":"levelo://app?vid=652261b3-248c-4d4e-9716-23b770cf1aad"},"vehicle_type_id":"4","last_reported":1705698393,"current_range_meters":20400,"station_id":"ce4bgup2rcd13ifvqcn0","pricing_plan_id":"free"},{"bike_id":"cc2e5545-3f94-4ac6-8a1e-938ded5da297","system_id":"levelo_inurba_marseille","lat":43.304606,"lon":5.379026,"is_reserved":false,"is_disabled":false,"rental_uris":{"android":"levelo://app?vid=cc2e5545-3f94-4ac6-8a1e-938ded5da297","ios":"levelo://app?vid=cc2e5545-3f94-4ac6-8a1e-938ded5da297"},"vehicle_type_id":"4","last_reported":1705698393,"current_range_meters":19600,"station_id":"ce4bgup2rcd13ifvqcn0","pricing_plan_id":"free"},{"bike_id":"6490c85a-8aa5-4704-937e-2885dc5e02d7","system_id":"levelo_inurba_marseille","lat":43.304606,"lon":5.379026,"is_reserved":false,"is_disabled":false,"rental_uris":{"android":"levelo://app?vid=6490c85a-8aa5-4704-937e-2885dc5e02d7","ios":"levelo://app?vid=6490c85a-8aa5-4704-937e-2885dc5e02d7"},"vehicle_type_id":"4","last_reported":1705698393,"current_range_meters":30400,"station_id":"ce4bgup2rcd13ifvqcn0","pricing_plan_id":"free"},{"bike_id":"d7e1c6c3-b7d1-4aa5-b840-9967f219a1ca","system_id":"levelo_inurba_marseille","lat":43.304606,"lon":5.379026,"is_reserved":false,"is_disabled":false,"rental_uris":{"android":"levelo://app?vid=d7e1c6c3-b7d1-4aa5-b840-9967f219a1ca","ios":"levelo://app?vid=d7e1c6c3-b7d1-4aa5-b840-9967f219a1ca"},"vehicle_type_id":"4","last_reported":1705698393,"current_range_meters":23600,"station_id":"ce4bgup2rcd13ifvqcn0","pricing_plan_id":"free"},{"bike_id":"562e1cf6-595d-49e5-bca8-82de5cbd5879","system_id":"levelo_inurba_marseille","lat":43.304606,"lon":5.379026,"is_reserved":false,"is_disabled":false,"rental_uris":{"android":"levelo://app?vid=562e1cf6-595d-49e5-bca8-82de5cbd5879","ios":"levelo://app?vid=562e1cf6-595d-49e5-bca8-82de5cbd5879"},"vehicle_type_id":"4","last_reported":1705698393,"current_range_meters":31200,"station_id":"ce4bgup2rcd13ifvqcn0","pricing_plan_id":"free"},{"bike_id":"cc17b430-845b-41de-b516-7a24f4a42037","system_id":"levelo_inurba_marseille","lat":43.304606,"lon":5.379026,"is_reserved":false,"is_disabled":false,"rental_uris":{"android":"levelo://app?vid=cc17b430-845b-41de-b516-7a24f4a42037","ios":"levelo://app?vid=cc17b430-845b-41de-b516-7a24f4a42037"},"vehicle_type_id":"4","last_reported":1705698393,"current_range_meters":21600,"station_id":"ce4bgup2rcd13ifvqcn0","pricing_plan_id":"free"},{"bike_id":"2b008552-d573-409a-94a7-78766daa76b0","system_id":"levelo_inurba_marseille","lat":43.304606,"lon":5.379026,"is_reserved":false,"is_disabled":false,"rental_uris":{"android":"levelo://app?vid=2b008552-d573-409a-94a7-78766daa76b0","ios":"levelo://app?vid=2b008552-d573-409a-94a7-78766daa76b0"},"vehicle_type_id":"4","last_reported":1705698393,"current_range_meters":25600,"station_id":"ce4bgup2rcd13ifvqcn0","pricing_plan_id":"free"},{"bike_id":"01ec010d-76ab-4bc9-a115-cfcc28e343a6","system_id":"levelo_inurba_marseille","lat":43.304606,"lon":5.379026,"is_reserved":false,"is_disabled":false,"rental_uris":{"android":"levelo://app?vid=01ec010d-76ab-4bc9-a115-cfcc28e343a6","ios":"levelo://app?vid=01ec010d-76ab-4bc9-a115-cfcc28e343a6"},"vehicle_type_id":"4","last_reported":1705698393,"current_range_meters":30400,"station_id":"ce4bgup2rcd13ifvqcn0","pricing_plan_id":"free"},{"bike_id":"15a2646c-bcd2-4074-9c29-7717ac5f865e","system_id":"levelo_inurba_marseille","lat":43.304606,"lon":5.379026,"is_reserved":false,"is_disabled":false,"rental_uris":{"android":"levelo://app?vid=15a2646c-bcd2-4074-9c29-7717ac5f865e","ios":"levelo://app?vid=15a2646c-bcd2-4074-9c29-7717ac5f865e"},"vehicle_type_id":"4","last_reported":1705698393,"current_range_meters":26400,"station_id":"ce4bgup2rcd13ifvqcn0","pricing_plan_id":"free"},{"bike_id":"b2429dd1-182d-4408-becf-62cae7f25115","system_id":"levelo_inurba_marseille","lat":43.304606,"lon":5.379026,"is_reserved":false,"is_disabled":false,"rental_uris":{"android":"levelo://app?vid=b2429dd1-182d-4408-becf-62cae7f25115","ios":"levelo://app?vid=b2429dd1-182d-4408-becf-62cae7f25115"},"vehicle_type_id":"4","last_reported":1705698393,"current_range_meters":28400,"station_id":"ce4bgup2rcd13ifvqcn0","pricing_plan_id":"free"},{"bike_id":"137a084d-66f4-42b1-a8ad-8a2dd930b5e0","system_id":"levelo_inurba_marseille","lat":43.304606,"lon":5.379026,"is_reserved":false,"is_disabled":false,"rental_uris":{"android":"levelo://app?vid=137a084d-66f4-42b1-a8ad-8a2dd930b5e0","ios":"levelo://app?vid=137a084d-66f4-42b1-a8ad-8a2dd930b5e0"},"vehicle_type_id":"4","last_reported":1705698393,"current_range_meters":28800,"station_id":"ce4bgup2rcd13ifvqcn0","pricing_plan_id":"free"},{"bike_id":"473641ac-6aae-4372-b0d6-cad5571f515f","system_id":"levelo_inurba_marseille","lat":43.324771,"lon":5.36557,"is_reserved":false,"is_disabled":false,"rental_uris":{"android":"levelo://app?vid=473641ac-6aae-4372-b0d6-cad5571f515f","ios":"levelo://app?vid=473641ac-6aae-4372-b0d6-cad5571f515f"},"vehicle_type_id":"4","last_reported":1705698393,"current_range_meters":6000,"station_id":"ce4bhs12rcd13ifvqhvg","pricing_plan_id":"free"},{"bike_id":"71a126c7-b719-426c-b069-4af1d4a5ba47","system_id":"levelo_inurba_marseille","lat":43.324771,"lon":5.36557,"is_reserved":false,"is_disabled":false,"rental_uris":{"android":"levelo://app?vid=71a126c7-b719-426c-b069-4af1d4a5ba47","ios":"levelo://app?vid=71a126c7-b719-426c-b069-4af1d4a5ba47"},"vehicle_type_id":"4","last_reported":1705698393,"current_range_meters":800,"station_id":"ce4bhs12rcd13ifvqhvg","pricing_plan_id":"free"},{"bike_id":"3cb5ad2b-e743-4194-9d67-007686b421e8","system_id":"levelo_inurba_marseille","lat":43.324771,"lon":5.36557,"is_reserved":false,"is_disabled":false,"rental_uris":{"android":"levelo://app?vid=3cb5ad2b-e743-4194-9d67-007686b421e8","ios":"levelo://app?vid=3cb5ad2b-e743-4194-9d67-007686b421e8"},"vehicle_type_id":"4","last_reported":1705698393,"current_range_meters":17600,"station_id":"ce4bhs12rcd13ifvqhvg","pricing_plan_id":"free"},{"bike_id":"2179bf7d-2ef3-478f-ab07-0d1474ed1fd2","system_id":"levelo_inurba_marseille","lat":43.324771,"lon":5.36557,"is_reserved":false,"is_disabled":false,"rental_uris":{"android":"levelo://app?vid=2179bf7d-2ef3-478f-ab07-0d1474ed1fd2","ios":"levelo://app?vid=2179bf7d-2ef3-478f-ab07-0d1474ed1fd2"},"vehicle_type_id":"4","last_reported":1705698393,"current_range_meters":4800,"station_id":"ce4bhs12rcd13ifvqhvg","pricing_plan_id":"free"},{"bike_id":"303265ce-08f1-4bc2-afd3-0425b4b00f8f","system_id":"levelo_inurba_marseille","lat":43.324771,"lon":5.36557,"is_reserved":false,"is_disabled":false,"rental_uris":{"android":"levelo://app?vid=303265ce-08f1-4bc2-afd3-0425b4b00f8f","ios":"levelo://app?vid=303265ce-08f1-4bc2-afd3-0425b4b00f8f"},"vehicle_type_id":"4","last_reported":1705698393,"current_range_meters":19600,"station_id":"ce4bhs12rcd13ifvqhvg","pricing_plan_id":"free"},{"bike_id":"2c7b11b2-aeb0-46dd-88cd-cd944730dc70","system_id":"levelo_inurba_marseille","lat":43.324771,"lon":5.36557,"is_reserved":false,"is_disabled":false,"rental_uris":{"android":"levelo://app?vid=2c7b11b2-aeb0-46dd-88cd-cd944730dc70","ios":"levelo://app?vid=2c7b11b2-aeb0-46dd-88cd-cd944730dc70"},"vehicle_type_id":"4","last_reported":1705698393,"current_range_meters":12400,"station_id":"ce4bhs12rcd13ifvqhvg","pricing_plan_id":"free"},{"bike_id":"d3c12c07-9adf-4ee9-a278-dd4a66fbaa07","system_id":"levelo_inurba_marseille","lat":43.324771,"lon":5.36557,"is_reserved":false,"is_disabled":false,"rental_uris":{"android":"levelo://app?vid=d3c12c07-9adf-4ee9-a278-dd4a66fbaa07","ios":"levelo://app?vid=d3c12c07-9adf-4ee9-a278-dd4a66fbaa07"},"vehicle_type_id":"4","last_reported":1705698393,"current_range_meters":16800,"station_id":"ce4bhs12rcd13ifvqhvg","pricing_plan_id":"free"},{"bike_id":"d655f5bb-ed30-48d1-8fea-b10c22e797ad","system_id":"levelo_inurba_marseille","lat":43.324771,"lon":5.36557,"is_reserved":false,"is_disabled":false,"rental_uris":{"android":"levelo://app?vid=d655f5bb-ed30-48d1-8fea-b10c22e797ad","ios":"levelo://app?vid=d655f5bb-ed30-48d1-8fea-b10c22e797ad"},"vehicle_type_id":"4","last_reported":1705698393,"current_range_meters":18800,"station_id":"ce4bhs12rcd13ifvqhvg","pricing_plan_id":"free"},{"bike_id":"c7d678ca-5190-4aab-9b8d-cdb0cac2118f","system_id":"levelo_inurba_marseille","lat":43.324771,"lon":5.36557,"is_reserved":false,"is_disabled":false,"rental_uris":{"android":"levelo://app?vid=c7d678ca-5190-4aab-9b8d-cdb0cac2118f","ios":"levelo://app?vid=c7d678ca-5190-4aab-9b8d-cdb0cac2118f"},"vehicle_type_id":"4","last_reported":1705698393,"current_range_meters":17200,"station_id":"ce4bhs12rcd13ifvqhvg","pricing_plan_id":"free"},{"bike_id":"d5e2e4f1-31f9-49f6-b4e4-0249418ab610","system_id":"levelo_inurba_marseille","lat":43.30143,"lon":5.37413,"is_reserved":false,"is_disabled":false,"rental_uris":{"android":"levelo://app?vid=d5e2e4f1-31f9-49f6-b4e4-0249418ab610","ios":"levelo://app?vid=d5e2e4f1-31f9-49f6-b4e4-0249418ab610"},"vehicle_type_id":"4","last_reported":1705698393,"current_range_meters":0,"station_id":"ce4bgs92rcd13ifvqcc0","pricing_plan_id":"free"},{"bike_id":"66f21602-ca63-45eb-bdfd-12a71693adee","system_id":"levelo_inurba_marseille","lat":43.30266,"lon":5.37725,"is_reserved":false,"is_disabled":false,"rental_uris":{"android":"levelo://app?vid=66f21602-ca63-45eb-bdfd-12a71693adee","ios":"levelo://app?vid=66f21602-ca63-45eb-bdfd-12a71693adee"},"vehicle_type_id":"4","last_reported":1705698393,"current_range_meters":9600,"station_id":"","pricing_plan_id":"free"},{"bike_id":"f0e6f343-5d11-4ccd-b521-fba2ec1496b9","system_id":"levelo_inurba_marseille","lat":43.319935,"lon":5.381699,"is_reserved":false,"is_disabled":false,"rental_uris":{"android":"levelo://app?vid=f0e6f343-5d11-4ccd-b521-fba2ec1496b9","ios":"levelo://app?vid=f0e6f343-5d11-4ccd-b521-fba2ec1496b9"},"vehicle_type_id":"4","last_reported":1705698393,"current_range_meters":13600,"station_id":"ce4bhr12rcd13ifvqhpg","pricing_plan_id":"free"},{"bike_id":"6df7c0f0-505f-4045-ab8c-b1bd417f7584","system_id":"levelo_inurba_marseille","lat":43.313571,"lon":5.384829,"is_reserved":false,"is_disabled":false,"rental_uris":{"android":"levelo://app?vid=6df7c0f0-505f-4045-ab8c-b1bd417f7584","ios":"levelo://app?vid=6df7c0f0-505f-4045-ab8c-b1bd417f7584"},"vehicle_type_id":"4","last_reported":1705698393,"current_range_meters":11200,"station_id":"ce4bgt92rcd13ifvqcf0","pricing_plan_id":"free"},{"bike_id":"0eb10803-bf21-42fd-bb19-dbde9c199eff","system_id":"levelo_inurba_marseille","lat":43.31359,"lon":5.38501,"is_reserved":false,"is_disabled":false,"rental_uris":{"android":"levelo://app?vid=0eb10803-bf21-42fd-bb19-dbde9c199eff","ios":"levelo://app?vid=0eb10803-bf21-42fd-bb19-dbde9c199eff"},"vehicle_type_id":"4","last_reported":1705698393,"current_range_meters":5200,"station_id":"ce4bgt92rcd13ifvqcf0","pricing_plan_id":"free"},{"bike_id":"d147d423-772a-4491-8bb5-57fb8261fc74","system_id":"levelo_inurba_marseille","lat":43.313571,"lon":5.384829,"is_reserved":false,"is_disabled":false,"rental_uris":{"android":"levelo://app?vid=d147d423-772a-4491-8bb5-57fb8261fc74","ios":"levelo://app?vid=d147d423-772a-4491-8bb5-57fb8261fc74"},"vehicle_type_id":"4","last_reported":1705698393,"current_range_meters":20000,"station_id":"ce4bgt92rcd13ifvqcf0","pricing_plan_id":"free"},{"bike_id":"8fd58c88-278f-4faa-8021-aee4e5aea65f","system_id":"levelo_inurba_marseille","lat":43.299724,"lon":5.371829,"is_reserved":false,"is_disabled":false,"rental_uris":{"android":"levelo://app?vid=8fd58c88-278f-4faa-8021-aee4e5aea65f","ios":"levelo://app?vid=8fd58c88-278f-4faa-8021-aee4e5aea65f"},"vehicle_type_id":"4","last_reported":1705698393,"current_range_meters":11200,"station_id":"ce4bgr92rcd13ifvqc7g","pricing_plan_id":"free"},{"bike_id":"eaafd1ae-f848-429c-aaff-be3105b1405d","system_id":"levelo_inurba_marseille","lat":43.299724,"lon":5.371829,"is_reserved":false,"is_disabled":false,"rental_uris":{"android":"levelo://app?vid=eaafd1ae-f848-429c-aaff-be3105b1405d","ios":"levelo://app?vid=eaafd1ae-f848-429c-aaff-be3105b1405d"},"vehicle_type_id":"4","last_reported":1705698393,"current_range_meters":5200,"station_id":"ce4bgr92rcd13ifvqc7g","pricing_plan_id":"free"},{"bike_id":"26900a2c-b319-4e64-a072-a24ed2ad9a7d","system_id":"levelo_inurba_marseille","lat":43.305364,"lon":5.384119,"is_reserved":false,"is_disabled":false,"rental_uris":{"android":"levelo://app?vid=26900a2c-b319-4e64-a072-a24ed2ad9a7d","ios":"levelo://app?vid=26900a2c-b319-4e64-a072-a24ed2ad9a7d"},"vehicle_type_id":"4","last_reported":1705698393,"current_range_meters":8800,"station_id":"ce4bgg92rcd13ifvqb30","pricing_plan_id":"free"},{"bike_id":"1f510f44-fc88-4ed0-af9f-a53df5a481aa","system_id":"levelo_inurba_marseille","lat":43.305433,"lon":5.384173,"is_reserved":false,"is_disabled":false,"rental_uris":{"android":"levelo://app?vid=1f510f44-fc88-4ed0-af9f-a53df5a481aa","ios":"levelo://app?vid=1f510f44-fc88-4ed0-af9f-a53df5a481aa"},"vehicle_type_id":"4","last_reported":1705698393,"current_range_meters":25200,"station_id":"ce4bgg92rcd13ifvqb30","pricing_plan_id":"free"},{"bike_id":"8cf6dd42-a5bb-4422-9e09-249b54d5f1b5","system_id":"levelo_inurba_marseille","lat":43.298433,"lon":5.362774,"is_reserved":false,"is_disabled":false,"rental_uris":{"android":"levelo://app?vid=8cf6dd42-a5bb-4422-9e09-249b54d5f1b5","ios":"levelo://app?vid=8cf6dd42-a5bb-4422-9e09-249b54d5f1b5"},"vehicle_type_id":"4","last_reported":1705698393,"current_range_meters":11600,"station_id":"ce4bgpp2rcd13ifvqc3g","pricing_plan_id":"free"},{"bike_id":"ca4f79e5-948c-4fbc-a13b-b220767a8253","system_id":"levelo_inurba_marseille","lat":43.311722,"lon":5.387247,"is_reserved":false,"is_disabled":false,"rental_uris":{"android":"levelo://app?vid=ca4f79e5-948c-4fbc-a13b-b220767a8253","ios":"levelo://app?vid=ca4f79e5-948c-4fbc-a13b-b220767a8253"},"vehicle_type_id":"4","last_reported":1705698393,"current_range_meters":8800,"station_id":"ce4bgv12rcd13ifvqcp0","pricing_plan_id":"free"},{"bike_id":"ab423cd5-90a8-4119-8b0c-f572ccbee471","system_id":"levelo_inurba_marseille","lat":43.299243,"lon":5.37481,"is_reserved":false,"is_disabled":false,"rental_uris":{"android":"levelo://app?vid=ab423cd5-90a8-4119-8b0c-f572ccbee471","ios":"levelo://app?vid=ab423cd5-90a8-4119-8b0c-f572ccbee471"},"vehicle_type_id":"4","last_reported":1705698393,"current_range_meters":7600,"station_id":"ce4bgjh2rcd13ifvqbg0","pricing_plan_id":"free"},{"bike_id":"6d159b6c-65e9-49d0-b478-2914e3707d1b","system_id":"levelo_inurba_marseille","lat":43.299057,"lon":5.374527,"is_reserved":false,"is_disabled":false,"rental_uris":{"android":"levelo://app?vid=6d159b6c-65e9-49d0-b478-2914e3707d1b","ios":"levelo://app?vid=6d159b6c-65e9-49d0-b478-2914e3707d1b"},"vehicle_type_id":"4","last_reported":1705698393,"current_range_meters":28800,"station_id":"ce4bgjh2rcd13ifvqbg0","pricing_plan_id":"free"},{"bike_id":"1c511f6c-f06f-4621-a2e1-2907c7277247","system_id":"levelo_inurba_marseille","lat":43.311615,"lon":5.387155,"is_reserved":false,"is_disabled":false,"rental_uris":{"android":"levelo://app?vid=1c511f6c-f06f-4621-a2e1-2907c7277247","ios":"levelo://app?vid=1c511f6c-f06f-4621-a2e1-2907c7277247"},"vehicle_type_id":"4","last_reported":1705698393,"current_range_meters":22000,"station_id":"ce4bgv12rcd13ifvqcp0","pricing_plan_id":"free"},{"bike_id":"82bbeece-7d5a-462c-b8cd-6f62b3afe8aa","system_id":"levelo_inurba_marseille","lat":43.311722,"lon":5.387247,"is_reserved":false,"is_disabled":false,"rental_uris":{"android":"levelo://app?vid=82bbeece-7d5a-462c-b8cd-6f62b3afe8aa","ios":"levelo://app?vid=82bbeece-7d5a-462c-b8cd-6f62b3afe8aa"},"vehicle_type_id":"4","last_reported":1705698393,"current_range_meters":20800,"station_id":"ce4bgv12rcd13ifvqcp0","pricing_plan_id":"free"},{"bike_id":"c617c3a8-9e02-45ed-a475-4b9041cd9336","system_id":"levelo_inurba_marseille","lat":43.297794,"lon":5.370888,"is_reserved":false,"is_disabled":false,"rental_uris":{"android":"levelo://app?vid=c617c3a8-9e02-45ed-a475-4b9041cd9336","ios":"levelo://app?vid=c617c3a8-9e02-45ed-a475-4b9041cd9336"},"vehicle_type_id":"4","last_reported":1705698393,"current_range_meters":31600,"station_id":"ce4bgop2rcd13ifvqc1g","pricing_plan_id":"free"},{"bike_id":"a0c03816-c6cb-418b-ba63-1c21215104db","system_id":"levelo_inurba_marseille","lat":43.297794,"lon":5.370888,"is_reserved":false,"is_disabled":false,"rental_uris":{"android":"levelo://app?vid=a0c03816-c6cb-418b-ba63-1c21215104db","ios":"levelo://app?vid=a0c03816-c6cb-418b-ba63-1c21215104db"},"vehicle_type_id":"4","last_reported":1705698393,"current_range_meters":24400,"station_id":"ce4bgop2rcd13ifvqc1g","pricing_plan_id":"free"},{"bike_id":"b297575b-a7b6-4e6d-ba46-7ced5dd9abee","system_id":"levelo_inurba_marseille","lat":43.322872,"lon":5.382756,"is_reserved":false,"is_disabled":false,"rental_uris":{"android":"levelo://app?vid=b297575b-a7b6-4e6d-ba46-7ced5dd9abee","ios":"levelo://app?vid=b297575b-a7b6-4e6d-ba46-7ced5dd9abee"},"vehicle_type_id":"4","last_reported":1705698393,"current_range_meters":14400,"station_id":"ce4bhr12rcd13ifvqhqg","pricing_plan_id":"free"},{"bike_id":"34c8b400-5074-46e3-aa02-f5d274dfaa4f","system_id":"levelo_inurba_marseille","lat":43.322872,"lon":5.382756,"is_reserved":false,"is_disabled":false,"rental_uris":{"android":"levelo://app?vid=34c8b400-5074-46e3-aa02-f5d274dfaa4f","ios":"levelo://app?vid=34c8b400-5074-46e3-aa02-f5d274dfaa4f"},"vehicle_type_id":"4","last_reported":1705698393,"current_range_meters":28000,"station_id":"ce4bhr12rcd13ifvqhqg","pricing_plan_id":"free"},{"bike_id":"c3ab95e9-b05f-4b19-b4ee-7abea1f52c27","system_id":"levelo_inurba_marseille","lat":43.322872,"lon":5.382756,"is_reserved":false,"is_disabled":false,"rental_uris":{"android":"levelo://app?vid=c3ab95e9-b05f-4b19-b4ee-7abea1f52c27","ios":"levelo://app?vid=c3ab95e9-b05f-4b19-b4ee-7abea1f52c27"},"vehicle_type_id":"4","last_reported":1705698393,"current_range_meters":31200,"station_id":"ce4bhr12rcd13ifvqhqg","pricing_plan_id":"free"},{"bike_id":"c1b67890-f7d9-4d1f-b03b-fc166c7b9129","system_id":"levelo_inurba_marseille","lat":43.322872,"lon":5.382756,"is_reserved":false,"is_disabled":false,"rental_uris":{"android":"levelo://app?vid=c1b67890-f7d9-4d1f-b03b-fc166c7b9129","ios":"levelo://app?vid=c1b67890-f7d9-4d1f-b03b-fc166c7b9129"},"vehicle_type_id":"4","last_reported":1705698393,"current_range_meters":0,"station_id":"ce4bhr12rcd13ifvqhqg","pricing_plan_id":"free"},{"bike_id":"c59e915a-05cb-49b2-8b19-dcae4465ebcc","system_id":"levelo_inurba_marseille","lat":43.322872,"lon":5.382756,"is_reserved":false,"is_disabled":false,"rental_uris":{"android":"levelo://app?vid=c59e915a-05cb-49b2-8b19-dcae4465ebcc","ios":"levelo://app?vid=c59e915a-05cb-49b2-8b19-dcae4465ebcc"},"vehicle_type_id":"4","last_reported":1705698393,"current_range_meters":25200,"station_id":"ce4bhr12rcd13ifvqhqg","pricing_plan_id":"free"},{"bike_id":"53415e30-ee10-4e9b-b42f-ee5aae281783","system_id":"levelo_inurba_marseille","lat":43.322872,"lon":5.382756,"is_reserved":false,"is_disabled":false,"rental_uris":{"android":"levelo://app?vid=53415e30-ee10-4e9b-b42f-ee5aae281783","ios":"levelo://app?vid=53415e30-ee10-4e9b-b42f-ee5aae281783"},"vehicle_type_id":"4","last_reported":1705698393,"current_range_meters":20400,"station_id":"ce4bhr12rcd13ifvqhqg","pricing_plan_id":"free"},{"bike_id":"217b56ce-f663-414b-bd80-2c68d6f3e28b","system_id":"levelo_inurba_marseille","lat":43.322872,"lon":5.382756,"is_reserved":false,"is_disabled":false,"rental_uris":{"android":"levelo://app?vid=217b56ce-f663-414b-bd80-2c68d6f3e28b","ios":"levelo://app?vid=217b56ce-f663-414b-bd80-2c68d6f3e28b"},"vehicle_type_id":"4","last_reported":1705698393,"current_range_meters":23600,"station_id":"ce4bhr12rcd13ifvqhqg","pricing_plan_id":"free"},{"bike_id":"510e4003-ad50-4182-a4bb-6da1b111fff5","system_id":"levelo_inurba_marseille","lat":43.322872,"lon":5.382756,"is_reserved":false,"is_disabled":false,"rental_uris":{"android":"levelo://app?vid=510e4003-ad50-4182-a4bb-6da1b111fff5","ios":"levelo://app?vid=510e4003-ad50-4182-a4bb-6da1b111fff5"},"vehicle_type_id":"4","last_reported":1705698393,"current_range_meters":18000,"station_id":"ce4bhr12rcd13ifvqhqg","pricing_plan_id":"free"},{"bike_id":"afe2d6ba-ebda-4981-9104-c77037901f05","system_id":"levelo_inurba_marseille","lat":43.322872,"lon":5.382756,"is_reserved":false,"is_disabled":false,"rental_uris":{"android":"levelo://app?vid=afe2d6ba-ebda-4981-9104-c77037901f05","ios":"levelo://app?vid=afe2d6ba-ebda-4981-9104-c77037901f05"},"vehicle_type_id":"4","last_reported":1705698393,"current_range_meters":28000,"station_id":"ce4bhr12rcd13ifvqhqg","pricing_plan_id":"free"},{"bike_id":"6da9db5a-42ba-4fa8-afc9-4fdbb45498c1","system_id":"levelo_inurba_marseille","lat":43.328233,"lon":5.366799,"is_reserved":false,"is_disabled":false,"rental_uris":{"android":"levelo://app?vid=6da9db5a-42ba-4fa8-afc9-4fdbb45498c1","ios":"levelo://app?vid=6da9db5a-42ba-4fa8-afc9-4fdbb45498c1"},"vehicle_type_id":"4","last_reported":1705698393,"current_range_meters":2400,"station_id":"ce4bhs92rcd13ifvqi0g","pricing_plan_id":"free"},{"bike_id":"02f97db8-1e1e-4f38-89f3-11868234f7c3","system_id":"levelo_inurba_marseille","lat":43.32826,"lon":5.36668,"is_reserved":false,"is_disabled":false,"rental_uris":{"android":"levelo://app?vid=02f97db8-1e1e-4f38-89f3-11868234f7c3","ios":"levelo://app?vid=02f97db8-1e1e-4f38-89f3-11868234f7c3"},"vehicle_type_id":"4","last_reported":1705698393,"current_range_meters":7600,"station_id":"ce4bhs92rcd13ifvqi0g","pricing_plan_id":"free"},{"bike_id":"2849c95b-f1a6-402d-aac7-80ea81f2feb2","system_id":"levelo_inurba_marseille","lat":43.32827,"lon":5.366846,"is_reserved":false,"is_disabled":false,"rental_uris":{"android":"levelo://app?vid=2849c95b-f1a6-402d-aac7-80ea81f2feb2","ios":"levelo://app?vid=2849c95b-f1a6-402d-aac7-80ea81f2feb2"},"vehicle_type_id":"4","last_reported":1705698393,"current_range_meters":24400,"station_id":"ce4bhs92rcd13ifvqi0g","pricing_plan_id":"free"},{"bike_id":"ea0178f3-2c6b-4af6-b062-91b0b8dde1df","system_id":"levelo_inurba_marseille","lat":43.32827,"lon":5.36684,"is_reserved":false,"is_disabled":false,"rental_uris":{"android":"levelo://app?vid=ea0178f3-2c6b-4af6-b062-91b0b8dde1df","ios":"levelo://app?vid=ea0178f3-2c6b-4af6-b062-91b0b8dde1df"},"vehicle_type_id":"4","last_reported":1705698393,"current_range_meters":26400,"station_id":"ce4bhs92rcd13ifvqi0g","pricing_plan_id":"free"},{"bike_id":"1782ad4d-7cbc-4ac0-af82-b65688e9d34c","system_id":"levelo_inurba_marseille","lat":43.328371,"lon":5.366909,"is_reserved":false,"is_disabled":false,"rental_uris":{"android":"levelo://app?vid=1782ad4d-7cbc-4ac0-af82-b65688e9d34c","ios":"levelo://app?vid=1782ad4d-7cbc-4ac0-af82-b65688e9d34c"},"vehicle_type_id":"4","last_reported":1705698393,"current_range_meters":18000,"station_id":"ce4bhs92rcd13ifvqi0g","pricing_plan_id":"free"},{"bike_id":"85cedcff-9e9a-415d-8415-195178ea3cb7","system_id":"levelo_inurba_marseille","lat":43.328278,"lon":5.366763,"is_reserved":false,"is_disabled":false,"rental_uris":{"android":"levelo://app?vid=85cedcff-9e9a-415d-8415-195178ea3cb7","ios":"levelo://app?vid=85cedcff-9e9a-415d-8415-195178ea3cb7"},"vehicle_type_id":"4","last_reported":1705698393,"current_range_meters":10000,"station_id":"ce4bhs92rcd13ifvqi0g","pricing_plan_id":"free"},{"bike_id":"59148974-5dd5-4b80-aebd-ec12c23b58c1","system_id":"levelo_inurba_marseille","lat":43.32828,"lon":5.366839,"is_reserved":false,"is_disabled":false,"rental_uris":{"android":"levelo://app?vid=59148974-5dd5-4b80-aebd-ec12c23b58c1","ios":"levelo://app?vid=59148974-5dd5-4b80-aebd-ec12c23b58c1"},"vehicle_type_id":"4","last_reported":1705698393,"current_range_meters":8000,"station_id":"ce4bhs92rcd13ifvqi0g","pricing_plan_id":"free"},{"bike_id":"130b18c2-11ce-4fc1-9052-79c75f9cbffa","system_id":"levelo_inurba_marseille","lat":43.328291,"lon":5.366943,"is_reserved":false,"is_disabled":false,"rental_uris":{"android":"levelo://app?vid=130b18c2-11ce-4fc1-9052-79c75f9cbffa","ios":"levelo://app?vid=130b18c2-11ce-4fc1-9052-79c75f9cbffa"},"vehicle_type_id":"4","last_reported":1705698393,"current_range_meters":16800,"station_id":"ce4bhs92rcd13ifvqi0g","pricing_plan_id":"free"},{"bike_id":"33a5b9b9-aec4-4925-974d-72730cfc5f44","system_id":"levelo_inurba_marseille","lat":43.328294,"lon":5.366812,"is_reserved":false,"is_disabled":false,"rental_uris":{"android":"levelo://app?vid=33a5b9b9-aec4-4925-974d-72730cfc5f44","ios":"levelo://app?vid=33a5b9b9-aec4-4925-974d-72730cfc5f44"},"vehicle_type_id":"4","last_reported":1705698393,"current_range_meters":17600,"station_id":"ce4bhs92rcd13ifvqi0g","pricing_plan_id":"free"},{"bike_id":"6b4ea496-3016-42db-af64-ba8beb6e73fc","system_id":"levelo_inurba_marseille","lat":43.328371,"lon":5.366909,"is_reserved":false,"is_disabled":false,"rental_uris":{"android":"levelo://app?vid=6b4ea496-3016-42db-af64-ba8beb6e73fc","ios":"levelo://app?vid=6b4ea496-3016-42db-af64-ba8beb6e73fc"},"vehicle_type_id":"4","last_reported":1705698393,"current_range_meters":13200,"station_id":"ce4bhs92rcd13ifvqi0g","pricing_plan_id":"free"},{"bike_id":"641739e6-19de-47df-9491-35da26c3c9da","system_id":"levelo_inurba_marseille","lat":43.328371,"lon":5.366909,"is_reserved":false,"is_disabled":false,"rental_uris":{"android":"levelo://app?vid=641739e6-19de-47df-9491-35da26c3c9da","ios":"levelo://app?vid=641739e6-19de-47df-9491-35da26c3c9da"},"vehicle_type_id":"4","last_reported":1705698393,"current_range_meters":18000,"station_id":"ce4bhs92rcd13ifvqi0g","pricing_plan_id":"free"},{"bike_id":"a53b6dde-9c97-4a96-897c-ee7f9265222d","system_id":"levelo_inurba_marseille","lat":43.328371,"lon":5.366909,"is_reserved":false,"is_disabled":false,"rental_uris":{"android":"levelo://app?vid=a53b6dde-9c97-4a96-897c-ee7f9265222d","ios":"levelo://app?vid=a53b6dde-9c97-4a96-897c-ee7f9265222d"},"vehicle_type_id":"4","last_reported":1705698393,"current_range_meters":11200,"station_id":"ce4bhs92rcd13ifvqi0g","pricing_plan_id":"free"},{"bike_id":"88638e12-da12-4596-b7e2-600ab2f62219","system_id":"levelo_inurba_marseille","lat":43.328371,"lon":5.366909,"is_reserved":false,"is_disabled":false,"rental_uris":{"android":"levelo://app?vid=88638e12-da12-4596-b7e2-600ab2f62219","ios":"levelo://app?vid=88638e12-da12-4596-b7e2-600ab2f62219"},"vehicle_type_id":"4","last_reported":1705698393,"current_range_meters":0,"station_id":"ce4bhs92rcd13ifvqi0g","pricing_plan_id":"free"},{"bike_id":"c526365d-7ce2-49b7-9dc2-12ddc241fddb","system_id":"levelo_inurba_marseille","lat":43.29715,"lon":5.36619,"is_reserved":false,"is_disabled":false,"rental_uris":{"android":"levelo://app?vid=c526365d-7ce2-49b7-9dc2-12ddc241fddb","ios":"levelo://app?vid=c526365d-7ce2-49b7-9dc2-12ddc241fddb"},"vehicle_type_id":"4","last_reported":1705698393,"current_range_meters":5200,"station_id":"ce4bgn12rcd13ifvqbt0","pricing_plan_id":"free"},{"bike_id":"b776583e-2282-4c40-a208-c993df6ca9f2","system_id":"levelo_inurba_marseille","lat":43.29715,"lon":5.36614,"is_reserved":false,"is_disabled":false,"rental_uris":{"android":"levelo://app?vid=b776583e-2282-4c40-a208-c993df6ca9f2","ios":"levelo://app?vid=b776583e-2282-4c40-a208-c993df6ca9f2"},"vehicle_type_id":"4","last_reported":1705698393,"current_range_meters":1200,"station_id":"ce4bgn12rcd13ifvqbt0","pricing_plan_id":"free"},{"bike_id":"38082c03-fac1-44d3-a79f-5142b4a113a9","system_id":"levelo_inurba_marseille","lat":43.328373,"lon":5.366902,"is_reserved":false,"is_disabled":false,"rental_uris":{"android":"levelo://app?vid=38082c03-fac1-44d3-a79f-5142b4a113a9","ios":"levelo://app?vid=38082c03-fac1-44d3-a79f-5142b4a113a9"},"vehicle_type_id":"4","last_reported":1705698393,"current_range_meters":13200,"station_id":"ce4bhs92rcd13ifvqi0g","pricing_plan_id":"free"},{"bike_id":"4eb7ea05-acce-4da5-9602-5b5aea700d7b","system_id":"levelo_inurba_marseille","lat":43.2968,"lon":5.37291,"is_reserved":false,"is_disabled":false,"rental_uris":{"android":"levelo://app?vid=4eb7ea05-acce-4da5-9602-5b5aea700d7b","ios":"levelo://app?vid=4eb7ea05-acce-4da5-9602-5b5aea700d7b"},"vehicle_type_id":"4","last_reported":1705698393,"current_range_meters":18800,"station_id":"ce4bgk12rcd13ifvqbj0","pricing_plan_id":"free"},{"bike_id":"6202bcff-301d-482e-afdf-a47684fe9e09","system_id":"levelo_inurba_marseille","lat":43.2968,"lon":5.37291,"is_reserved":false,"is_disabled":false,"rental_uris":{"android":"levelo://app?vid=6202bcff-301d-482e-afdf-a47684fe9e09","ios":"levelo://app?vid=6202bcff-301d-482e-afdf-a47684fe9e09"},"vehicle_type_id":"4","last_reported":1705698393,"current_range_meters":19200,"station_id":"ce4bgk12rcd13ifvqbj0","pricing_plan_id":"free"},{"bike_id":"47b7c023-01cc-44a0-91c8-30b39794f64c","system_id":"levelo_inurba_marseille","lat":43.29608,"lon":5.36778,"is_reserved":false,"is_disabled":false,"rental_uris":{"android":"levelo://app?vid=47b7c023-01cc-44a0-91c8-30b39794f64c","ios":"levelo://app?vid=47b7c023-01cc-44a0-91c8-30b39794f64c"},"vehicle_type_id":"4","last_reported":1705698393,"current_range_meters":18000,"station_id":"","pricing_plan_id":"free"},{"bike_id":"885a224e-f1e4-43d2-b865-1181a7ea9d01","system_id":"levelo_inurba_marseille","lat":43.296131,"lon":5.370791,"is_reserved":false,"is_disabled":false,"rental_uris":{"android":"levelo://app?vid=885a224e-f1e4-43d2-b865-1181a7ea9d01","ios":"levelo://app?vid=885a224e-f1e4-43d2-b865-1181a7ea9d01"},"vehicle_type_id":"4","last_reported":1705698393,"current_range_meters":27200,"station_id":"ce4bgnh2rcd13ifvqc0g","pricing_plan_id":"free"},{"bike_id":"71ef2680-e2fc-4ad7-aca0-abe919859457","system_id":"levelo_inurba_marseille","lat":43.296131,"lon":5.370773,"is_reserved":false,"is_disabled":false,"rental_uris":{"android":"levelo://app?vid=71ef2680-e2fc-4ad7-aca0-abe919859457","ios":"levelo://app?vid=71ef2680-e2fc-4ad7-aca0-abe919859457"},"vehicle_type_id":"4","last_reported":1705698393,"current_range_meters":26400,"station_id":"ce4bgnh2rcd13ifvqc0g","pricing_plan_id":"free"},{"bike_id":"76e672fc-e3bd-494c-a9ec-da8d526ce7b1","system_id":"levelo_inurba_marseille","lat":43.29581,"lon":5.36751,"is_reserved":false,"is_disabled":false,"rental_uris":{"android":"levelo://app?vid=76e672fc-e3bd-494c-a9ec-da8d526ce7b1","ios":"levelo://app?vid=76e672fc-e3bd-494c-a9ec-da8d526ce7b1"},"vehicle_type_id":"4","last_reported":1705698393,"current_range_meters":0,"station_id":"ce4bgph2rcd13ifvqc2g","pricing_plan_id":"free"},{"bike_id":"c06be379-d92a-4e0a-9688-43b0c49e7cde","system_id":"levelo_inurba_marseille","lat":43.299028,"lon":5.381509,"is_reserved":false,"is_disabled":false,"rental_uris":{"android":"levelo://app?vid=c06be379-d92a-4e0a-9688-43b0c49e7cde","ios":"levelo://app?vid=c06be379-d92a-4e0a-9688-43b0c49e7cde"},"vehicle_type_id":"4","last_reported":1705698393,"current_range_meters":25200,"station_id":"ce4bgj12rcd13ifvqbc0","pricing_plan_id":"free"},{"bike_id":"b240799b-2468-495d-845c-a3d446acabb2","system_id":"levelo_inurba_marseille","lat":43.299028,"lon":5.381509,"is_reserved":false,"is_disabled":false,"rental_uris":{"android":"levelo://app?vid=b240799b-2468-495d-845c-a3d446acabb2","ios":"levelo://app?vid=b240799b-2468-495d-845c-a3d446acabb2"},"vehicle_type_id":"4","last_reported":1705698393,"current_range_meters":24400,"station_id":"ce4bgj12rcd13ifvqbc0","pricing_plan_id":"free"},{"bike_id":"51197b77-e6a9-41bd-8796-caef22c27dd3","system_id":"levelo_inurba_marseille","lat":43.299028,"lon":5.381509,"is_reserved":false,"is_disabled":false,"rental_uris":{"android":"levelo://app?vid=51197b77-e6a9-41bd-8796-caef22c27dd3","ios":"levelo://app?vid=51197b77-e6a9-41bd-8796-caef22c27dd3"},"vehicle_type_id":"4","last_reported":1705698393,"current_range_meters":10800,"station_id":"ce4bgj12rcd13ifvqbc0","pricing_plan_id":"free"},{"bike_id":"7147d5a9-8503-4ba3-869f-d225857fa107","system_id":"levelo_inurba_marseille","lat":43.317557,"lon":5.390173,"is_reserved":false,"is_disabled":false,"rental_uris":{"android":"levelo://app?vid=7147d5a9-8503-4ba3-869f-d225857fa107","ios":"levelo://app?vid=7147d5a9-8503-4ba3-869f-d225857fa107"},"vehicle_type_id":"4","last_reported":1705698393,"current_range_meters":20800,"station_id":"ce4bhqp2rcd13ifvqhng","pricing_plan_id":"free"},{"bike_id":"1747a2df-9fdd-4485-8c0a-008d957b61d7","system_id":"levelo_inurba_marseille","lat":43.317557,"lon":5.390173,"is_reserved":false,"is_disabled":false,"rental_uris":{"android":"levelo://app?vid=1747a2df-9fdd-4485-8c0a-008d957b61d7","ios":"levelo://app?vid=1747a2df-9fdd-4485-8c0a-008d957b61d7"},"vehicle_type_id":"4","last_reported":1705698393,"current_range_meters":28000,"station_id":"ce4bhqp2rcd13ifvqhng","pricing_plan_id":"free"},{"bike_id":"02d5a801-57da-4c6d-ab76-213ea72ccede","system_id":"levelo_inurba_marseille","lat":43.317557,"lon":5.390173,"is_reserved":false,"is_disabled":false,"rental_uris":{"android":"levelo://app?vid=02d5a801-57da-4c6d-ab76-213ea72ccede","ios":"levelo://app?vid=02d5a801-57da-4c6d-ab76-213ea72ccede"},"vehicle_type_id":"4","last_reported":1705698393,"current_range_meters":12800,"station_id":"ce4bhqp2rcd13ifvqhng","pricing_plan_id":"free"},{"bike_id":"14e0d56e-cde5-4799-a904-73db61fcc0f7","system_id":"levelo_inurba_marseille","lat":43.317557,"lon":5.390173,"is_reserved":false,"is_disabled":false,"rental_uris":{"android":"levelo://app?vid=14e0d56e-cde5-4799-a904-73db61fcc0f7","ios":"levelo://app?vid=14e0d56e-cde5-4799-a904-73db61fcc0f7"},"vehicle_type_id":"4","last_reported":1705698393,"current_range_meters":23200,"station_id":"ce4bhqp2rcd13ifvqhng","pricing_plan_id":"free"},{"bike_id":"7a1d93d7-4767-4a9b-aa98-0f1070949ce6","system_id":"levelo_inurba_marseille","lat":43.317557,"lon":5.390173,"is_reserved":false,"is_disabled":false,"rental_uris":{"android":"levelo://app?vid=7a1d93d7-4767-4a9b-aa98-0f1070949ce6","ios":"levelo://app?vid=7a1d93d7-4767-4a9b-aa98-0f1070949ce6"},"vehicle_type_id":"4","last_reported":1705698393,"current_range_meters":12400,"station_id":"ce4bhqp2rcd13ifvqhng","pricing_plan_id":"free"},{"bike_id":"5d506fbb-776e-46fa-8774-1d271de01957","system_id":"levelo_inurba_marseille","lat":43.29808,"lon":5.38083,"is_reserved":false,"is_disabled":false,"rental_uris":{"android":"levelo://app?vid=5d506fbb-776e-46fa-8774-1d271de01957","ios":"levelo://app?vid=5d506fbb-776e-46fa-8774-1d271de01957"},"vehicle_type_id":"4","last_reported":1705698393,"current_range_meters":0,"station_id":"ce4bgip2rcd13ifvqbb0","pricing_plan_id":"free"},{"bike_id":"08aa7b1a-7d62-4b69-b36e-6b3548d31fde","system_id":"levelo_inurba_marseille","lat":43.304274,"lon":5.388873,"is_reserved":false,"is_disabled":false,"rental_uris":{"android":"levelo://app?vid=08aa7b1a-7d62-4b69-b36e-6b3548d31fde","ios":"levelo://app?vid=08aa7b1a-7d62-4b69-b36e-6b3548d31fde"},"vehicle_type_id":"4","last_reported":1705698393,"current_range_meters":18000,"station_id":"ce4bgk12rcd13ifvqbi0","pricing_plan_id":"free"},{"bike_id":"4c867b3d-7364-4e72-93d5-8426da7504f1","system_id":"levelo_inurba_marseille","lat":43.304278,"lon":5.388868,"is_reserved":false,"is_disabled":false,"rental_uris":{"android":"levelo://app?vid=4c867b3d-7364-4e72-93d5-8426da7504f1","ios":"levelo://app?vid=4c867b3d-7364-4e72-93d5-8426da7504f1"},"vehicle_type_id":"4","last_reported":1705698393,"current_range_meters":27200,"station_id":"ce4bgk12rcd13ifvqbi0","pricing_plan_id":"free"},{"bike_id":"60b8c46c-9082-445c-b638-9730e2bd1bec","system_id":"levelo_inurba_marseille","lat":43.304274,"lon":5.388873,"is_reserved":false,"is_disabled":false,"rental_uris":{"android":"levelo://app?vid=60b8c46c-9082-445c-b638-9730e2bd1bec","ios":"levelo://app?vid=60b8c46c-9082-445c-b638-9730e2bd1bec"},"vehicle_type_id":"4","last_reported":1705698393,"current_range_meters":25600,"station_id":"ce4bgk12rcd13ifvqbi0","pricing_plan_id":"free"},{"bike_id":"d6e4b919-6258-4d37-934e-af246bd935be","system_id":"levelo_inurba_marseille","lat":43.30421,"lon":5.38879,"is_reserved":false,"is_disabled":false,"rental_uris":{"android":"levelo://app?vid=d6e4b919-6258-4d37-934e-af246bd935be","ios":"levelo://app?vid=d6e4b919-6258-4d37-934e-af246bd935be"},"vehicle_type_id":"4","last_reported":1705698393,"current_range_meters":16800,"station_id":"ce4bgk12rcd13ifvqbi0","pricing_plan_id":"free"},{"bike_id":"b7521284-fe0a-4760-be96-2fd0061c5858","system_id":"levelo_inurba_marseille","lat":43.304274,"lon":5.388873,"is_reserved":false,"is_disabled":false,"rental_uris":{"android":"levelo://app?vid=b7521284-fe0a-4760-be96-2fd0061c5858","ios":"levelo://app?vid=b7521284-fe0a-4760-be96-2fd0061c5858"},"vehicle_type_id":"4","last_reported":1705698393,"current_range_meters":7600,"station_id":"ce4bgk12rcd13ifvqbi0","pricing_plan_id":"free"},{"bike_id":"af84cc74-9b17-4d18-b43c-58b00b5e261b","system_id":"levelo_inurba_marseille","lat":43.29623,"lon":5.37731,"is_reserved":false,"is_disabled":false,"rental_uris":{"android":"levelo://app?vid=af84cc74-9b17-4d18-b43c-58b00b5e261b","ios":"levelo://app?vid=af84cc74-9b17-4d18-b43c-58b00b5e261b"},"vehicle_type_id":"4","last_reported":1705698393,"current_range_meters":0,"station_id":"ce4bgi92rcd13ifvqb90","pricing_plan_id":"free"},{"bike_id":"7ce0e917-7c07-4bb2-b38c-b07c03326c76","system_id":"levelo_inurba_marseille","lat":43.29612,"lon":5.377188,"is_reserved":false,"is_disabled":false,"rental_uris":{"android":"levelo://app?vid=7ce0e917-7c07-4bb2-b38c-b07c03326c76","ios":"levelo://app?vid=7ce0e917-7c07-4bb2-b38c-b07c03326c76"},"vehicle_type_id":"4","last_reported":1705698393,"current_range_meters":0,"station_id":"ce4bgi92rcd13ifvqb90","pricing_plan_id":"free"},{"bike_id":"ba07c671-127f-4e51-b480-5d16881e8f95","system_id":"levelo_inurba_marseille","lat":43.29541,"lon":5.37496,"is_reserved":false,"is_disabled":false,"rental_uris":{"android":"levelo://app?vid=ba07c671-127f-4e51-b480-5d16881e8f95","ios":"levelo://app?vid=ba07c671-127f-4e51-b480-5d16881e8f95"},"vehicle_type_id":"4","last_reported":1705698393,"current_range_meters":24400,"station_id":"ce4bgkp2rcd13ifvqbmg","pricing_plan_id":"free"},{"bike_id":"46779168-7fb3-4f89-9abb-7b8a324652d8","system_id":"levelo_inurba_marseille","lat":43.299809,"lon":5.384936,"is_reserved":false,"is_disabled":false,"rental_uris":{"android":"levelo://app?vid=46779168-7fb3-4f89-9abb-7b8a324652d8","ios":"levelo://app?vid=46779168-7fb3-4f89-9abb-7b8a324652d8"},"vehicle_type_id":"4","last_reported":1705698393,"current_range_meters":0,"station_id":"ce4bgj92rcd13ifvqbd0","pricing_plan_id":"free"},{"bike_id":"966f317d-b5de-46ef-8e9a-0b96913d4288","system_id":"levelo_inurba_marseille","lat":43.299717,"lon":5.384845,"is_reserved":false,"is_disabled":false,"rental_uris":{"android":"levelo://app?vid=966f317d-b5de-46ef-8e9a-0b96913d4288","ios":"levelo://app?vid=966f317d-b5de-46ef-8e9a-0b96913d4288"},"vehicle_type_id":"4","last_reported":1705698393,"current_range_meters":16400,"station_id":"ce4bgj92rcd13ifvqbd0","pricing_plan_id":"free"},{"bike_id":"59ca957c-dfee-4642-95ac-ff6534c5ef22","system_id":"levelo_inurba_marseille","lat":43.29972,"lon":5.385,"is_reserved":false,"is_disabled":false,"rental_uris":{"android":"levelo://app?vid=59ca957c-dfee-4642-95ac-ff6534c5ef22","ios":"levelo://app?vid=59ca957c-dfee-4642-95ac-ff6534c5ef22"},"vehicle_type_id":"4","last_reported":1705698393,"current_range_meters":15600,"station_id":"ce4bgj92rcd13ifvqbd0","pricing_plan_id":"free"},{"bike_id":"879e42e5-b0fb-4da7-a541-0559cc8dd8aa","system_id":"levelo_inurba_marseille","lat":43.299717,"lon":5.384845,"is_reserved":false,"is_disabled":false,"rental_uris":{"android":"levelo://app?vid=879e42e5-b0fb-4da7-a541-0559cc8dd8aa","ios":"levelo://app?vid=879e42e5-b0fb-4da7-a541-0559cc8dd8aa"},"vehicle_type_id":"4","last_reported":1705698393,"current_range_meters":5200,"station_id":"ce4bgj92rcd13ifvqbd0","pricing_plan_id":"free"},{"bike_id":"fac99dd4-dc40-4298-b945-81e7984be728","system_id":"levelo_inurba_marseille","lat":43.299717,"lon":5.384845,"is_reserved":false,"is_disabled":false,"rental_uris":{"android":"levelo://app?vid=fac99dd4-dc40-4298-b945-81e7984be728","ios":"levelo://app?vid=fac99dd4-dc40-4298-b945-81e7984be728"},"vehicle_type_id":"4","last_reported":1705698393,"current_range_meters":25200,"station_id":"ce4bgj92rcd13ifvqbd0","pricing_plan_id":"free"},{"bike_id":"0b8338cd-49dc-47c4-b571-5eb51ed5b30e","system_id":"levelo_inurba_marseille","lat":43.299717,"lon":5.384845,"is_reserved":false,"is_disabled":false,"rental_uris":{"android":"levelo://app?vid=0b8338cd-49dc-47c4-b571-5eb51ed5b30e","ios":"levelo://app?vid=0b8338cd-49dc-47c4-b571-5eb51ed5b30e"},"vehicle_type_id":"4","last_reported":1705698393,"current_range_meters":0,"station_id":"ce4bgj92rcd13ifvqbd0","pricing_plan_id":"free"},{"bike_id":"5abb7150-9947-4598-bc96-e3a4d6ff5d01","system_id":"levelo_inurba_marseille","lat":43.299717,"lon":5.384845,"is_reserved":false,"is_disabled":false,"rental_uris":{"android":"levelo://app?vid=5abb7150-9947-4598-bc96-e3a4d6ff5d01","ios":"levelo://app?vid=5abb7150-9947-4598-bc96-e3a4d6ff5d01"},"vehicle_type_id":"4","last_reported":1705698393,"current_range_meters":8000,"station_id":"ce4bgj92rcd13ifvqbd0","pricing_plan_id":"free"},{"bike_id":"7dd7f412-6ba0-4c6a-9117-aaa490a30ce1","system_id":"levelo_inurba_marseille","lat":43.29962,"lon":5.38498,"is_reserved":false,"is_disabled":false,"rental_uris":{"android":"levelo://app?vid=7dd7f412-6ba0-4c6a-9117-aaa490a30ce1","ios":"levelo://app?vid=7dd7f412-6ba0-4c6a-9117-aaa490a30ce1"},"vehicle_type_id":"4","last_reported":1705698393,"current_range_meters":0,"station_id":"ce4bgj92rcd13ifvqbd0","pricing_plan_id":"free"},{"bike_id":"a7bbfa2f-a35c-4841-959e-61c23782fe8c","system_id":"levelo_inurba_marseille","lat":43.29963,"lon":5.38502,"is_reserved":false,"is_disabled":false,"rental_uris":{"android":"levelo://app?vid=a7bbfa2f-a35c-4841-959e-61c23782fe8c","ios":"levelo://app?vid=a7bbfa2f-a35c-4841-959e-61c23782fe8c"},"vehicle_type_id":"4","last_reported":1705698393,"current_range_meters":23600,"station_id":"ce4bgj92rcd13ifvqbd0","pricing_plan_id":"free"},{"bike_id":"469a01d4-3728-45ec-b04b-4f678c180b89","system_id":"levelo_inurba_marseille","lat":43.2996,"lon":5.38498,"is_reserved":false,"is_disabled":false,"rental_uris":{"android":"levelo://app?vid=469a01d4-3728-45ec-b04b-4f678c180b89","ios":"levelo://app?vid=469a01d4-3728-45ec-b04b-4f678c180b89"},"vehicle_type_id":"4","last_reported":1705698393,"current_range_meters":25200,"station_id":"ce4bgj92rcd13ifvqbd0","pricing_plan_id":"free"},{"bike_id":"bb882814-cb73-4bc8-96a2-93693624a860","system_id":"levelo_inurba_marseille","lat":43.298037,"lon":5.381066,"is_reserved":false,"is_disabled":false,"rental_uris":{"android":"levelo://app?vid=bb882814-cb73-4bc8-96a2-93693624a860","ios":"levelo://app?vid=bb882814-cb73-4bc8-96a2-93693624a860"},"vehicle_type_id":"4","last_reported":1705698393,"current_range_meters":7200,"station_id":"ce4bgip2rcd13ifvqbb0","pricing_plan_id":"free"},{"bike_id":"5d90feba-2a85-4bcd-b5b1-c5191d26352c","system_id":"levelo_inurba_marseille","lat":43.32367,"lon":5.388836,"is_reserved":false,"is_disabled":false,"rental_uris":{"android":"levelo://app?vid=5d90feba-2a85-4bcd-b5b1-c5191d26352c","ios":"levelo://app?vid=5d90feba-2a85-4bcd-b5b1-c5191d26352c"},"vehicle_type_id":"4","last_reported":1705698393,"current_range_meters":4800,"station_id":"ce4bhqp2rcd13ifvqhog","pricing_plan_id":"free"},{"bike_id":"b97f084f-e70f-4ca2-a87d-ee12c07f24a3","system_id":"levelo_inurba_marseille","lat":43.32367,"lon":5.388836,"is_reserved":false,"is_disabled":false,"rental_uris":{"android":"levelo://app?vid=b97f084f-e70f-4ca2-a87d-ee12c07f24a3","ios":"levelo://app?vid=b97f084f-e70f-4ca2-a87d-ee12c07f24a3"},"vehicle_type_id":"4","last_reported":1705698393,"current_range_meters":6400,"station_id":"ce4bhqp2rcd13ifvqhog","pricing_plan_id":"free"},{"bike_id":"59749826-7bca-4f0e-ba0d-6be12868bdc4","system_id":"levelo_inurba_marseille","lat":43.32367,"lon":5.388836,"is_reserved":false,"is_disabled":false,"rental_uris":{"android":"levelo://app?vid=59749826-7bca-4f0e-ba0d-6be12868bdc4","ios":"levelo://app?vid=59749826-7bca-4f0e-ba0d-6be12868bdc4"},"vehicle_type_id":"4","last_reported":1705698393,"current_range_meters":29200,"station_id":"ce4bhqp2rcd13ifvqhog","pricing_plan_id":"free"},{"bike_id":"0488a15c-5dec-4ef3-a79c-803c01b074d3","system_id":"levelo_inurba_marseille","lat":43.32367,"lon":5.388836,"is_reserved":false,"is_disabled":false,"rental_uris":{"android":"levelo://app?vid=0488a15c-5dec-4ef3-a79c-803c01b074d3","ios":"levelo://app?vid=0488a15c-5dec-4ef3-a79c-803c01b074d3"},"vehicle_type_id":"4","last_reported":1705698393,"current_range_meters":12400,"station_id":"ce4bhqp2rcd13ifvqhog","pricing_plan_id":"free"},{"bike_id":"7a77d777-cbf4-4854-b02f-5892bd6fc69d","system_id":"levelo_inurba_marseille","lat":43.3237,"lon":5.388837,"is_reserved":false,"is_disabled":false,"rental_uris":{"android":"levelo://app?vid=7a77d777-cbf4-4854-b02f-5892bd6fc69d","ios":"levelo://app?vid=7a77d777-cbf4-4854-b02f-5892bd6fc69d"},"vehicle_type_id":"4","last_reported":1705698393,"current_range_meters":20800,"station_id":"","pricing_plan_id":"free"},{"bike_id":"f380ca6f-7a3a-4d56-9fcc-106969c567da","system_id":"levelo_inurba_marseille","lat":43.32367,"lon":5.388836,"is_reserved":false,"is_disabled":false,"rental_uris":{"android":"levelo://app?vid=f380ca6f-7a3a-4d56-9fcc-106969c567da","ios":"levelo://app?vid=f380ca6f-7a3a-4d56-9fcc-106969c567da"},"vehicle_type_id":"4","last_reported":1705698393,"current_range_meters":20400,"station_id":"ce4bhqp2rcd13ifvqhog","pricing_plan_id":"free"},{"bike_id":"e488bc27-b4bd-4ecb-9994-ebd8743b5676","system_id":"levelo_inurba_marseille","lat":43.32367,"lon":5.388836,"is_reserved":false,"is_disabled":false,"rental_uris":{"android":"levelo://app?vid=e488bc27-b4bd-4ecb-9994-ebd8743b5676","ios":"levelo://app?vid=e488bc27-b4bd-4ecb-9994-ebd8743b5676"},"vehicle_type_id":"4","last_reported":1705698393,"current_range_meters":6400,"station_id":"ce4bhqp2rcd13ifvqhog","pricing_plan_id":"free"},{"bike_id":"c68b6822-d442-4675-b9d4-8c9cc910fa25","system_id":"levelo_inurba_marseille","lat":43.32367,"lon":5.388836,"is_reserved":false,"is_disabled":false,"rental_uris":{"android":"levelo://app?vid=c68b6822-d442-4675-b9d4-8c9cc910fa25","ios":"levelo://app?vid=c68b6822-d442-4675-b9d4-8c9cc910fa25"},"vehicle_type_id":"4","last_reported":1705698393,"current_range_meters":29200,"station_id":"ce4bhqp2rcd13ifvqhog","pricing_plan_id":"free"},{"bike_id":"8955df26-69c2-436d-81c8-a838e2a58aa9","system_id":"levelo_inurba_marseille","lat":43.29601,"lon":5.381084,"is_reserved":false,"is_disabled":false,"rental_uris":{"android":"levelo://app?vid=8955df26-69c2-436d-81c8-a838e2a58aa9","ios":"levelo://app?vid=8955df26-69c2-436d-81c8-a838e2a58aa9"},"vehicle_type_id":"4","last_reported":1705698393,"current_range_meters":0,"station_id":"ce4bgl12rcd13ifvqbo0","pricing_plan_id":"free"},{"bike_id":"e1283bec-dd91-4ead-a047-f9dd4ef7f4d0","system_id":"levelo_inurba_marseille","lat":43.29601,"lon":5.381084,"is_reserved":false,"is_disabled":false,"rental_uris":{"android":"levelo://app?vid=e1283bec-dd91-4ead-a047-f9dd4ef7f4d0","ios":"levelo://app?vid=e1283bec-dd91-4ead-a047-f9dd4ef7f4d0"},"vehicle_type_id":"4","last_reported":1705698393,"current_range_meters":24000,"station_id":"ce4bgl12rcd13ifvqbo0","pricing_plan_id":"free"},{"bike_id":"d1bca459-69c4-415b-a120-30e39681ec16","system_id":"levelo_inurba_marseille","lat":43.29602,"lon":5.381084,"is_reserved":false,"is_disabled":false,"rental_uris":{"android":"levelo://app?vid=d1bca459-69c4-415b-a120-30e39681ec16","ios":"levelo://app?vid=d1bca459-69c4-415b-a120-30e39681ec16"},"vehicle_type_id":"4","last_reported":1705698393,"current_range_meters":26400,"station_id":"ce4bgl12rcd13ifvqbo0","pricing_plan_id":"free"},{"bike_id":"9ef3b602-d877-4892-bb9b-d511956e05f9","system_id":"levelo_inurba_marseille","lat":43.29602,"lon":5.381084,"is_reserved":false,"is_disabled":false,"rental_uris":{"android":"levelo://app?vid=9ef3b602-d877-4892-bb9b-d511956e05f9","ios":"levelo://app?vid=9ef3b602-d877-4892-bb9b-d511956e05f9"},"vehicle_type_id":"4","last_reported":1705698393,"current_range_meters":23600,"station_id":"ce4bgl12rcd13ifvqbo0","pricing_plan_id":"free"},{"bike_id":"9fabc203-cc14-4b8b-9ba3-2b3e4f7f3986","system_id":"levelo_inurba_marseille","lat":43.29602,"lon":5.381084,"is_reserved":false,"is_disabled":false,"rental_uris":{"android":"levelo://app?vid=9fabc203-cc14-4b8b-9ba3-2b3e4f7f3986","ios":"levelo://app?vid=9fabc203-cc14-4b8b-9ba3-2b3e4f7f3986"},"vehicle_type_id":"4","last_reported":1705698393,"current_range_meters":15200,"station_id":"ce4bgl12rcd13ifvqbo0","pricing_plan_id":"free"},{"bike_id":"b58b0ab3-d792-4d77-88a8-5330be49a762","system_id":"levelo_inurba_marseille","lat":43.29601,"lon":5.381084,"is_reserved":false,"is_disabled":false,"rental_uris":{"android":"levelo://app?vid=b58b0ab3-d792-4d77-88a8-5330be49a762","ios":"levelo://app?vid=b58b0ab3-d792-4d77-88a8-5330be49a762"},"vehicle_type_id":"4","last_reported":1705698393,"current_range_meters":24400,"station_id":"ce4bgl12rcd13ifvqbo0","pricing_plan_id":"free"},{"bike_id":"2b8bfc8e-a6c4-4ec6-892d-8597434495fe","system_id":"levelo_inurba_marseille","lat":43.29601,"lon":5.381084,"is_reserved":false,"is_disabled":false,"rental_uris":{"android":"levelo://app?vid=2b8bfc8e-a6c4-4ec6-892d-8597434495fe","ios":"levelo://app?vid=2b8bfc8e-a6c4-4ec6-892d-8597434495fe"},"vehicle_type_id":"4","last_reported":1705698393,"current_range_meters":18400,"station_id":"ce4bgl12rcd13ifvqbo0","pricing_plan_id":"free"},{"bike_id":"60f1ca35-fa9b-4b3f-9aeb-f7622fa701bc","system_id":"levelo_inurba_marseille","lat":43.293249,"lon":5.371578,"is_reserved":false,"is_disabled":false,"rental_uris":{"android":"levelo://app?vid=60f1ca35-fa9b-4b3f-9aeb-f7622fa701bc","ios":"levelo://app?vid=60f1ca35-fa9b-4b3f-9aeb-f7622fa701bc"},"vehicle_type_id":"4","last_reported":1705698393,"current_range_meters":12400,"station_id":"ce4bgh92rcd13ifvqb40","pricing_plan_id":"free"},{"bike_id":"310cc76f-1e02-4109-b33c-84afe3814094","system_id":"levelo_inurba_marseille","lat":43.29601,"lon":5.381084,"is_reserved":false,"is_disabled":false,"rental_uris":{"android":"levelo://app?vid=310cc76f-1e02-4109-b33c-84afe3814094","ios":"levelo://app?vid=310cc76f-1e02-4109-b33c-84afe3814094"},"vehicle_type_id":"4","last_reported":1705698393,"current_range_meters":31600,"station_id":"ce4bgl12rcd13ifvqbo0","pricing_plan_id":"free"},{"bike_id":"a0bde91d-0866-4ce3-9ce0-d1e61f399921","system_id":"levelo_inurba_marseille","lat":43.29602,"lon":5.381084,"is_reserved":false,"is_disabled":false,"rental_uris":{"android":"levelo://app?vid=a0bde91d-0866-4ce3-9ce0-d1e61f399921","ios":"levelo://app?vid=a0bde91d-0866-4ce3-9ce0-d1e61f399921"},"vehicle_type_id":"4","last_reported":1705698393,"current_range_meters":16800,"station_id":"ce4bgl12rcd13ifvqbo0","pricing_plan_id":"free"},{"bike_id":"b4529418-a18c-42ac-847a-4ce1f5cba305","system_id":"levelo_inurba_marseille","lat":43.29602,"lon":5.381084,"is_reserved":false,"is_disabled":false,"rental_uris":{"android":"levelo://app?vid=b4529418-a18c-42ac-847a-4ce1f5cba305","ios":"levelo://app?vid=b4529418-a18c-42ac-847a-4ce1f5cba305"},"vehicle_type_id":"4","last_reported":1705698393,"current_range_meters":6800,"station_id":"ce4bgl12rcd13ifvqbo0","pricing_plan_id":"free"},{"bike_id":"a6e6c832-fa95-421e-aa86-555dea19367c","system_id":"levelo_inurba_marseille","lat":43.29602,"lon":5.381084,"is_reserved":false,"is_disabled":false,"rental_uris":{"android":"levelo://app?vid=a6e6c832-fa95-421e-aa86-555dea19367c","ios":"levelo://app?vid=a6e6c832-fa95-421e-aa86-555dea19367c"},"vehicle_type_id":"4","last_reported":1705698393,"current_range_meters":10800,"station_id":"ce4bgl12rcd13ifvqbo0","pricing_plan_id":"free"},{"bike_id":"77a2f97b-a642-40e6-8ebf-fbcc1b2047da","system_id":"levelo_inurba_marseille","lat":43.293249,"lon":5.371578,"is_reserved":false,"is_disabled":false,"rental_uris":{"android":"levelo://app?vid=77a2f97b-a642-40e6-8ebf-fbcc1b2047da","ios":"levelo://app?vid=77a2f97b-a642-40e6-8ebf-fbcc1b2047da"},"vehicle_type_id":"4","last_reported":1705698393,"current_range_meters":6400,"station_id":"ce4bgh92rcd13ifvqb40","pricing_plan_id":"free"},{"bike_id":"b04642f3-3001-4754-9383-7b974889de24","system_id":"levelo_inurba_marseille","lat":43.293259,"lon":5.371586,"is_reserved":false,"is_disabled":false,"rental_uris":{"android":"levelo://app?vid=b04642f3-3001-4754-9383-7b974889de24","ios":"levelo://app?vid=b04642f3-3001-4754-9383-7b974889de24"},"vehicle_type_id":"4","last_reported":1705698393,"current_range_meters":0,"station_id":"ce4bgh92rcd13ifvqb40","pricing_plan_id":"free"},{"bike_id":"931a568d-b1dd-4d12-a1bb-e6b8e91de523","system_id":"levelo_inurba_marseille","lat":43.29307,"lon":5.37169,"is_reserved":false,"is_disabled":false,"rental_uris":{"android":"levelo://app?vid=931a568d-b1dd-4d12-a1bb-e6b8e91de523","ios":"levelo://app?vid=931a568d-b1dd-4d12-a1bb-e6b8e91de523"},"vehicle_type_id":"4","last_reported":1705698393,"current_range_meters":14800,"station_id":"ce4bgh92rcd13ifvqb40","pricing_plan_id":"free"},{"bike_id":"95fde7ed-2d37-4e02-98af-a0cdd0087941","system_id":"levelo_inurba_marseille","lat":43.293249,"lon":5.371578,"is_reserved":false,"is_disabled":false,"rental_uris":{"android":"levelo://app?vid=95fde7ed-2d37-4e02-98af-a0cdd0087941","ios":"levelo://app?vid=95fde7ed-2d37-4e02-98af-a0cdd0087941"},"vehicle_type_id":"4","last_reported":1705698393,"current_range_meters":0,"station_id":"ce4bgh92rcd13ifvqb40","pricing_plan_id":"free"},{"bike_id":"60210b39-1a89-4341-9a19-a61b1ab43e9b","system_id":"levelo_inurba_marseille","lat":43.293249,"lon":5.371578,"is_reserved":false,"is_disabled":false,"rental_uris":{"android":"levelo://app?vid=60210b39-1a89-4341-9a19-a61b1ab43e9b","ios":"levelo://app?vid=60210b39-1a89-4341-9a19-a61b1ab43e9b"},"vehicle_type_id":"4","last_reported":1705698393,"current_range_meters":11200,"station_id":"ce4bgh92rcd13ifvqb40","pricing_plan_id":"free"},{"bike_id":"99b3f693-2319-4df5-81ed-c8086fce25d0","system_id":"levelo_inurba_marseille","lat":43.293249,"lon":5.371578,"is_reserved":false,"is_disabled":false,"rental_uris":{"android":"levelo://app?vid=99b3f693-2319-4df5-81ed-c8086fce25d0","ios":"levelo://app?vid=99b3f693-2319-4df5-81ed-c8086fce25d0"},"vehicle_type_id":"4","last_reported":1705698393,"current_range_meters":17200,"station_id":"ce4bgh92rcd13ifvqb40","pricing_plan_id":"free"},{"bike_id":"1534b06d-dba7-4763-bcda-4ceece2a5fad","system_id":"levelo_inurba_marseille","lat":43.293249,"lon":5.371578,"is_reserved":false,"is_disabled":false,"rental_uris":{"android":"levelo://app?vid=1534b06d-dba7-4763-bcda-4ceece2a5fad","ios":"levelo://app?vid=1534b06d-dba7-4763-bcda-4ceece2a5fad"},"vehicle_type_id":"4","last_reported":1705698393,"current_range_meters":22800,"station_id":"ce4bgh92rcd13ifvqb40","pricing_plan_id":"free"},{"bike_id":"a61bc1c7-3eb9-4741-ab82-25266d47ad25","system_id":"levelo_inurba_marseille","lat":43.293249,"lon":5.371578,"is_reserved":false,"is_disabled":false,"rental_uris":{"android":"levelo://app?vid=a61bc1c7-3eb9-4741-ab82-25266d47ad25","ios":"levelo://app?vid=a61bc1c7-3eb9-4741-ab82-25266d47ad25"},"vehicle_type_id":"4","last_reported":1705698393,"current_range_meters":10400,"station_id":"ce4bgh92rcd13ifvqb40","pricing_plan_id":"free"},{"bike_id":"9507bdf4-743b-45b2-b00f-5cddf058bacc","system_id":"levelo_inurba_marseille","lat":43.293009,"lon":5.374584,"is_reserved":false,"is_disabled":false,"rental_uris":{"android":"levelo://app?vid=9507bdf4-743b-45b2-b00f-5cddf058bacc","ios":"levelo://app?vid=9507bdf4-743b-45b2-b00f-5cddf058bacc"},"vehicle_type_id":"4","last_reported":1705698393,"current_range_meters":12000,"station_id":"ce4bgi12rcd13ifvqb70","pricing_plan_id":"free"},{"bike_id":"a6285dc2-0988-48ca-b2d2-d769b3ca1e5b","system_id":"levelo_inurba_marseille","lat":43.293009,"lon":5.374584,"is_reserved":false,"is_disabled":false,"rental_uris":{"android":"levelo://app?vid=a6285dc2-0988-48ca-b2d2-d769b3ca1e5b","ios":"levelo://app?vid=a6285dc2-0988-48ca-b2d2-d769b3ca1e5b"},"vehicle_type_id":"4","last_reported":1705698393,"current_range_meters":29600,"station_id":"ce4bgi12rcd13ifvqb70","pricing_plan_id":"free"},{"bike_id":"c642efe7-6d64-496b-82db-fc37dbdd9525","system_id":"levelo_inurba_marseille","lat":43.305994,"lon":5.393687,"is_reserved":false,"is_disabled":false,"rental_uris":{"android":"levelo://app?vid=c642efe7-6d64-496b-82db-fc37dbdd9525","ios":"levelo://app?vid=c642efe7-6d64-496b-82db-fc37dbdd9525"},"vehicle_type_id":"4","last_reported":1705698393,"current_range_meters":4000,"station_id":"ce4bh0p2rcd13ifvqd80","pricing_plan_id":"free"},{"bike_id":"56de425c-3642-4a58-99b6-b7768d66c93b","system_id":"levelo_inurba_marseille","lat":43.293009,"lon":5.374584,"is_reserved":false,"is_disabled":false,"rental_uris":{"android":"levelo://app?vid=56de425c-3642-4a58-99b6-b7768d66c93b","ios":"levelo://app?vid=56de425c-3642-4a58-99b6-b7768d66c93b"},"vehicle_type_id":"4","last_reported":1705698393,"current_range_meters":16000,"station_id":"ce4bgi12rcd13ifvqb70","pricing_plan_id":"free"},{"bike_id":"5e5e1920-fc8b-4fe0-9620-eb4ecbaf0bf9","system_id":"levelo_inurba_marseille","lat":43.2936,"lon":5.37835,"is_reserved":false,"is_disabled":false,"rental_uris":{"android":"levelo://app?vid=5e5e1920-fc8b-4fe0-9620-eb4ecbaf0bf9","ios":"levelo://app?vid=5e5e1920-fc8b-4fe0-9620-eb4ecbaf0bf9"},"vehicle_type_id":"4","last_reported":1705698393,"current_range_meters":0,"station_id":"ce4bgjh2rcd13ifvqbf0","pricing_plan_id":"free"},{"bike_id":"8b43fe6e-0b6c-4fff-a9b0-0a0dd93a9183","system_id":"levelo_inurba_marseille","lat":43.292311,"lon":5.360731,"is_reserved":false,"is_disabled":false,"rental_uris":{"android":"levelo://app?vid=8b43fe6e-0b6c-4fff-a9b0-0a0dd93a9183","ios":"levelo://app?vid=8b43fe6e-0b6c-4fff-a9b0-0a0dd93a9183"},"vehicle_type_id":"4","last_reported":1705698393,"current_range_meters":20000,"station_id":"ce4bhbh2rcd13ifvqeqg","pricing_plan_id":"free"},{"bike_id":"f1d5d859-4e90-4cc5-ad78-c75ab5b981e2","system_id":"levelo_inurba_marseille","lat":43.292311,"lon":5.360731,"is_reserved":false,"is_disabled":false,"rental_uris":{"android":"levelo://app?vid=f1d5d859-4e90-4cc5-ad78-c75ab5b981e2","ios":"levelo://app?vid=f1d5d859-4e90-4cc5-ad78-c75ab5b981e2"},"vehicle_type_id":"4","last_reported":1705698393,"current_range_meters":26800,"station_id":"ce4bhbh2rcd13ifvqeqg","pricing_plan_id":"free"},{"bike_id":"9bb045c6-33ae-4ecf-b911-5b875450fc26","system_id":"levelo_inurba_marseille","lat":43.300913,"lon":5.390794,"is_reserved":false,"is_disabled":false,"rental_uris":{"android":"levelo://app?vid=9bb045c6-33ae-4ecf-b911-5b875450fc26","ios":"levelo://app?vid=9bb045c6-33ae-4ecf-b911-5b875450fc26"},"vehicle_type_id":"4","last_reported":1705698393,"current_range_meters":0,"station_id":"ce4bh192rcd13ifvqdb0","pricing_plan_id":"free"},{"bike_id":"09b7848f-d395-4489-be48-b881093ac6b4","system_id":"levelo_inurba_marseille","lat":43.298764,"lon":5.388973,"is_reserved":false,"is_disabled":false,"rental_uris":{"android":"levelo://app?vid=09b7848f-d395-4489-be48-b881093ac6b4","ios":"levelo://app?vid=09b7848f-d395-4489-be48-b881093ac6b4"},"vehicle_type_id":"4","last_reported":1705698393,"current_range_meters":8000,"station_id":"ce4bh392rcd13ifvqdl0","pricing_plan_id":"free"},{"bike_id":"ff34da89-5add-493a-9009-a06fa3a43437","system_id":"levelo_inurba_marseille","lat":43.291675,"lon":5.371583,"is_reserved":false,"is_disabled":false,"rental_uris":{"android":"levelo://app?vid=ff34da89-5add-493a-9009-a06fa3a43437","ios":"levelo://app?vid=ff34da89-5add-493a-9009-a06fa3a43437"},"vehicle_type_id":"4","last_reported":1705698393,"current_range_meters":22400,"station_id":"ce4bha92rcd13ifvqeh0","pricing_plan_id":"free"},{"bike_id":"2ec2e615-7c01-4b11-b78d-eeed5f07c1d7","system_id":"levelo_inurba_marseille","lat":43.291675,"lon":5.371583,"is_reserved":false,"is_disabled":false,"rental_uris":{"android":"levelo://app?vid=2ec2e615-7c01-4b11-b78d-eeed5f07c1d7","ios":"levelo://app?vid=2ec2e615-7c01-4b11-b78d-eeed5f07c1d7"},"vehicle_type_id":"4","last_reported":1705698393,"current_range_meters":13600,"station_id":"ce4bha92rcd13ifvqeh0","pricing_plan_id":"free"},{"bike_id":"a38a527b-2bdc-4de9-b43d-7c8144f2c3ac","system_id":"levelo_inurba_marseille","lat":43.298764,"lon":5.388973,"is_reserved":false,"is_disabled":false,"rental_uris":{"android":"levelo://app?vid=a38a527b-2bdc-4de9-b43d-7c8144f2c3ac","ios":"levelo://app?vid=a38a527b-2bdc-4de9-b43d-7c8144f2c3ac"},"vehicle_type_id":"4","last_reported":1705698393,"current_range_meters":0,"station_id":"ce4bh392rcd13ifvqdl0","pricing_plan_id":"free"},{"bike_id":"5a2e80ec-0b6d-4d31-aacc-d13af60d984e","system_id":"levelo_inurba_marseille","lat":43.291675,"lon":5.371583,"is_reserved":false,"is_disabled":false,"rental_uris":{"android":"levelo://app?vid=5a2e80ec-0b6d-4d31-aacc-d13af60d984e","ios":"levelo://app?vid=5a2e80ec-0b6d-4d31-aacc-d13af60d984e"},"vehicle_type_id":"4","last_reported":1705698393,"current_range_meters":14800,"station_id":"ce4bha92rcd13ifvqeh0","pricing_plan_id":"free"},{"bike_id":"9d32c371-b55b-4420-9f5a-b8aa35bcb5fc","system_id":"levelo_inurba_marseille","lat":43.291994,"lon":5.357886,"is_reserved":false,"is_disabled":false,"rental_uris":{"android":"levelo://app?vid=9d32c371-b55b-4420-9f5a-b8aa35bcb5fc","ios":"levelo://app?vid=9d32c371-b55b-4420-9f5a-b8aa35bcb5fc"},"vehicle_type_id":"4","last_reported":1705698393,"current_range_meters":14800,"station_id":"ce4bhb12rcd13ifvqel0","pricing_plan_id":"free"},{"bike_id":"df9b79f9-7124-4711-bd9e-33ce04f48cc8","system_id":"levelo_inurba_marseille","lat":43.291693,"lon":5.374915,"is_reserved":false,"is_disabled":false,"rental_uris":{"android":"levelo://app?vid=df9b79f9-7124-4711-bd9e-33ce04f48cc8","ios":"levelo://app?vid=df9b79f9-7124-4711-bd9e-33ce04f48cc8"},"vehicle_type_id":"4","last_reported":1705698393,"current_range_meters":0,"station_id":"","pricing_plan_id":"free"},{"bike_id":"69b37f0c-148d-4e4f-983a-26ce8fbc953c","system_id":"levelo_inurba_marseille","lat":43.309038,"lon":5.396546,"is_reserved":false,"is_disabled":false,"rental_uris":{"android":"levelo://app?vid=69b37f0c-148d-4e4f-983a-26ce8fbc953c","ios":"levelo://app?vid=69b37f0c-148d-4e4f-983a-26ce8fbc953c"},"vehicle_type_id":"4","last_reported":1705698393,"current_range_meters":16800,"station_id":"ce4bh012rcd13ifvqcv0","pricing_plan_id":"free"},{"bike_id":"75989960-f010-4f04-b19a-1eaf96087c31","system_id":"levelo_inurba_marseille","lat":43.309047,"lon":5.396551,"is_reserved":false,"is_disabled":false,"rental_uris":{"android":"levelo://app?vid=75989960-f010-4f04-b19a-1eaf96087c31","ios":"levelo://app?vid=75989960-f010-4f04-b19a-1eaf96087c31"},"vehicle_type_id":"4","last_reported":1705698393,"current_range_meters":17600,"station_id":"ce4bh012rcd13ifvqcv0","pricing_plan_id":"free"},{"bike_id":"2d93a5ad-44ce-4939-9aae-351856610fec","system_id":"levelo_inurba_marseille","lat":43.29529,"lon":5.385581,"is_reserved":false,"is_disabled":false,"rental_uris":{"android":"levelo://app?vid=2d93a5ad-44ce-4939-9aae-351856610fec","ios":"levelo://app?vid=2d93a5ad-44ce-4939-9aae-351856610fec"},"vehicle_type_id":"4","last_reported":1705698393,"current_range_meters":12400,"station_id":"ce4bgih2rcd13ifvqba0","pricing_plan_id":"free"},{"bike_id":"7a34eab2-bb22-44b1-ac0a-96ea9e938d73","system_id":"levelo_inurba_marseille","lat":43.292644,"lon":5.384257,"is_reserved":false,"is_disabled":false,"rental_uris":{"android":"levelo://app?vid=7a34eab2-bb22-44b1-ac0a-96ea9e938d73","ios":"levelo://app?vid=7a34eab2-bb22-44b1-ac0a-96ea9e938d73"},"vehicle_type_id":"4","last_reported":1705698393,"current_range_meters":14400,"station_id":"ce4bh692rcd13ifvqea0","pricing_plan_id":"free"},{"bike_id":"a4b89825-20e6-462c-9bb1-70c1ebc53284","system_id":"levelo_inurba_marseille","lat":43.29529,"lon":5.385581,"is_reserved":false,"is_disabled":false,"rental_uris":{"android":"levelo://app?vid=a4b89825-20e6-462c-9bb1-70c1ebc53284","ios":"levelo://app?vid=a4b89825-20e6-462c-9bb1-70c1ebc53284"},"vehicle_type_id":"4","last_reported":1705698393,"current_range_meters":24800,"station_id":"ce4bgih2rcd13ifvqba0","pricing_plan_id":"free"},{"bike_id":"70bfdd8e-2e1d-4b3e-9466-f8b55a9852de","system_id":"levelo_inurba_marseille","lat":43.29529,"lon":5.385581,"is_reserved":false,"is_disabled":false,"rental_uris":{"android":"levelo://app?vid=70bfdd8e-2e1d-4b3e-9466-f8b55a9852de","ios":"levelo://app?vid=70bfdd8e-2e1d-4b3e-9466-f8b55a9852de"},"vehicle_type_id":"4","last_reported":1705698393,"current_range_meters":17200,"station_id":"ce4bgih2rcd13ifvqba0","pricing_plan_id":"free"},{"bike_id":"e7c67776-b764-4e4b-82ee-350830a0e80f","system_id":"levelo_inurba_marseille","lat":43.29529,"lon":5.385581,"is_reserved":false,"is_disabled":false,"rental_uris":{"android":"levelo://app?vid=e7c67776-b764-4e4b-82ee-350830a0e80f","ios":"levelo://app?vid=e7c67776-b764-4e4b-82ee-350830a0e80f"},"vehicle_type_id":"4","last_reported":1705698393,"current_range_meters":23200,"station_id":"ce4bgih2rcd13ifvqba0","pricing_plan_id":"free"},{"bike_id":"e4a0d960-a91f-4921-b6a7-7bc1685acbc3","system_id":"levelo_inurba_marseille","lat":43.29529,"lon":5.385581,"is_reserved":false,"is_disabled":false,"rental_uris":{"android":"levelo://app?vid=e4a0d960-a91f-4921-b6a7-7bc1685acbc3","ios":"levelo://app?vid=e4a0d960-a91f-4921-b6a7-7bc1685acbc3"},"vehicle_type_id":"4","last_reported":1705698393,"current_range_meters":26400,"station_id":"ce4bgih2rcd13ifvqba0","pricing_plan_id":"free"},{"bike_id":"38926550-2c60-4e04-86bc-b1bbd28e62b6","system_id":"levelo_inurba_marseille","lat":43.302008,"lon":5.394694,"is_reserved":false,"is_disabled":false,"rental_uris":{"android":"levelo://app?vid=38926550-2c60-4e04-86bc-b1bbd28e62b6","ios":"levelo://app?vid=38926550-2c60-4e04-86bc-b1bbd28e62b6"},"vehicle_type_id":"4","last_reported":1705698393,"current_range_meters":22800,"station_id":"ce4bh0p2rcd13ifvqd70","pricing_plan_id":"free"},{"bike_id":"92fb8769-c089-41c3-bbf8-25e0da518343","system_id":"levelo_inurba_marseille","lat":43.289184,"lon":5.366408,"is_reserved":false,"is_disabled":false,"rental_uris":{"android":"levelo://app?vid=92fb8769-c089-41c3-bbf8-25e0da518343","ios":"levelo://app?vid=92fb8769-c089-41c3-bbf8-25e0da518343"},"vehicle_type_id":"4","last_reported":1705698393,"current_range_meters":15600,"station_id":"ce4bhap2rcd13ifvqek0","pricing_plan_id":"free"},{"bike_id":"43024024-eedd-410b-b74d-e675fafd8277","system_id":"levelo_inurba_marseille","lat":43.290624,"lon":5.359245,"is_reserved":false,"is_disabled":false,"rental_uris":{"android":"levelo://app?vid=43024024-eedd-410b-b74d-e675fafd8277","ios":"levelo://app?vid=43024024-eedd-410b-b74d-e675fafd8277"},"vehicle_type_id":"4","last_reported":1705698393,"current_range_meters":30400,"station_id":"ce4bha92rcd13ifvqeg0","pricing_plan_id":"free"},{"bike_id":"53be3581-bec4-4689-95e5-a6ae960d368a","system_id":"levelo_inurba_marseille","lat":43.290631,"lon":5.359244,"is_reserved":false,"is_disabled":false,"rental_uris":{"android":"levelo://app?vid=53be3581-bec4-4689-95e5-a6ae960d368a","ios":"levelo://app?vid=53be3581-bec4-4689-95e5-a6ae960d368a"},"vehicle_type_id":"4","last_reported":1705698393,"current_range_meters":24800,"station_id":"ce4bha92rcd13ifvqeg0","pricing_plan_id":"free"},{"bike_id":"2a02fd67-35f8-41cf-9a4c-324fe24389a8","system_id":"levelo_inurba_marseille","lat":43.290631,"lon":5.359244,"is_reserved":false,"is_disabled":false,"rental_uris":{"android":"levelo://app?vid=2a02fd67-35f8-41cf-9a4c-324fe24389a8","ios":"levelo://app?vid=2a02fd67-35f8-41cf-9a4c-324fe24389a8"},"vehicle_type_id":"4","last_reported":1705698393,"current_range_meters":26400,"station_id":"ce4bha92rcd13ifvqeg0","pricing_plan_id":"free"},{"bike_id":"4526715b-6bb5-4110-9272-574f45699833","system_id":"levelo_inurba_marseille","lat":43.29424,"lon":5.38618,"is_reserved":false,"is_disabled":false,"rental_uris":{"android":"levelo://app?vid=4526715b-6bb5-4110-9272-574f45699833","ios":"levelo://app?vid=4526715b-6bb5-4110-9272-574f45699833"},"vehicle_type_id":"4","last_reported":1705698393,"current_range_meters":1600,"station_id":"ce4bh2h2rcd13ifvqdh0","pricing_plan_id":"free"},{"bike_id":"710ca7a3-019b-42bc-b3f9-819874c22aee","system_id":"levelo_inurba_marseille","lat":43.29418,"lon":5.38619,"is_reserved":false,"is_disabled":false,"rental_uris":{"android":"levelo://app?vid=710ca7a3-019b-42bc-b3f9-819874c22aee","ios":"levelo://app?vid=710ca7a3-019b-42bc-b3f9-819874c22aee"},"vehicle_type_id":"4","last_reported":1705698393,"current_range_meters":1200,"station_id":"ce4bh2h2rcd13ifvqdh0","pricing_plan_id":"free"},{"bike_id":"a4c9a0a5-8a12-4129-a2c3-e7a38f2206d5","system_id":"levelo_inurba_marseille","lat":43.29417,"lon":5.38621,"is_reserved":false,"is_disabled":false,"rental_uris":{"android":"levelo://app?vid=a4c9a0a5-8a12-4129-a2c3-e7a38f2206d5","ios":"levelo://app?vid=a4c9a0a5-8a12-4129-a2c3-e7a38f2206d5"},"vehicle_type_id":"4","last_reported":1705698393,"current_range_meters":19600,"station_id":"ce4bh2h2rcd13ifvqdh0","pricing_plan_id":"free"},{"bike_id":"4d50a6e6-0e29-483b-9f69-6ae870b184ee","system_id":"levelo_inurba_marseille","lat":43.294143,"lon":5.386174,"is_reserved":false,"is_disabled":false,"rental_uris":{"android":"levelo://app?vid=4d50a6e6-0e29-483b-9f69-6ae870b184ee","ios":"levelo://app?vid=4d50a6e6-0e29-483b-9f69-6ae870b184ee"},"vehicle_type_id":"4","last_reported":1705698393,"current_range_meters":22000,"station_id":"ce4bh2h2rcd13ifvqdh0","pricing_plan_id":"free"},{"bike_id":"89d7faa4-4638-4e2c-aa2d-0cacf4e8b62f","system_id":"levelo_inurba_marseille","lat":43.294153,"lon":5.386305,"is_reserved":false,"is_disabled":false,"rental_uris":{"android":"levelo://app?vid=89d7faa4-4638-4e2c-aa2d-0cacf4e8b62f","ios":"levelo://app?vid=89d7faa4-4638-4e2c-aa2d-0cacf4e8b62f"},"vehicle_type_id":"4","last_reported":1705698393,"current_range_meters":29600,"station_id":"ce4bh2h2rcd13ifvqdh0","pricing_plan_id":"free"},{"bike_id":"500a161f-276d-43c9-8b7c-edc23f143e43","system_id":"levelo_inurba_marseille","lat":43.29419,"lon":5.38627,"is_reserved":false,"is_disabled":false,"rental_uris":{"android":"levelo://app?vid=500a161f-276d-43c9-8b7c-edc23f143e43","ios":"levelo://app?vid=500a161f-276d-43c9-8b7c-edc23f143e43"},"vehicle_type_id":"4","last_reported":1705698393,"current_range_meters":20000,"station_id":"ce4bh2h2rcd13ifvqdh0","pricing_plan_id":"free"},{"bike_id":"14c051c4-df98-400e-bdbe-8e111de46c05","system_id":"levelo_inurba_marseille","lat":43.29419,"lon":5.38627,"is_reserved":false,"is_disabled":false,"rental_uris":{"android":"levelo://app?vid=14c051c4-df98-400e-bdbe-8e111de46c05","ios":"levelo://app?vid=14c051c4-df98-400e-bdbe-8e111de46c05"},"vehicle_type_id":"4","last_reported":1705698393,"current_range_meters":3600,"station_id":"ce4bh2h2rcd13ifvqdh0","pricing_plan_id":"free"},{"bike_id":"3e3ccd0f-9012-4df3-847a-fbeb97fa64af","system_id":"levelo_inurba_marseille","lat":43.29417,"lon":5.38624,"is_reserved":false,"is_disabled":false,"rental_uris":{"android":"levelo://app?vid=3e3ccd0f-9012-4df3-847a-fbeb97fa64af","ios":"levelo://app?vid=3e3ccd0f-9012-4df3-847a-fbeb97fa64af"},"vehicle_type_id":"4","last_reported":1705698393,"current_range_meters":400,"station_id":"ce4bh2h2rcd13ifvqdh0","pricing_plan_id":"free"},{"bike_id":"018547e3-b775-4b22-9256-9be4a42a197e","system_id":"levelo_inurba_marseille","lat":43.29417,"lon":5.38627,"is_reserved":false,"is_disabled":false,"rental_uris":{"android":"levelo://app?vid=018547e3-b775-4b22-9256-9be4a42a197e","ios":"levelo://app?vid=018547e3-b775-4b22-9256-9be4a42a197e"},"vehicle_type_id":"4","last_reported":1705698393,"current_range_meters":0,"station_id":"ce4bh2h2rcd13ifvqdh0","pricing_plan_id":"free"},{"bike_id":"cc0f447e-9d99-4a6c-96fb-278ad3418c97","system_id":"levelo_inurba_marseille","lat":43.29413,"lon":5.38623,"is_reserved":false,"is_disabled":false,"rental_uris":{"android":"levelo://app?vid=cc0f447e-9d99-4a6c-96fb-278ad3418c97","ios":"levelo://app?vid=cc0f447e-9d99-4a6c-96fb-278ad3418c97"},"vehicle_type_id":"4","last_reported":1705698393,"current_range_meters":9200,"station_id":"ce4bh2h2rcd13ifvqdh0","pricing_plan_id":"free"},{"bike_id":"79fd3d55-3073-418b-a455-8597d6e46b40","system_id":"levelo_inurba_marseille","lat":43.29028,"lon":5.37554,"is_reserved":false,"is_disabled":false,"rental_uris":{"android":"levelo://app?vid=79fd3d55-3073-418b-a455-8597d6e46b40","ios":"levelo://app?vid=79fd3d55-3073-418b-a455-8597d6e46b40"},"vehicle_type_id":"4","last_reported":1705698393,"current_range_meters":22000,"station_id":"ce4bh692rcd13ifvqe90","pricing_plan_id":"free"},{"bike_id":"1d140a00-9969-4aeb-bc82-35e460710804","system_id":"levelo_inurba_marseille","lat":43.289468,"lon":5.363719,"is_reserved":false,"is_disabled":false,"rental_uris":{"android":"levelo://app?vid=1d140a00-9969-4aeb-bc82-35e460710804","ios":"levelo://app?vid=1d140a00-9969-4aeb-bc82-35e460710804"},"vehicle_type_id":"4","last_reported":1705698393,"current_range_meters":15600,"station_id":"ce4bhc92rcd13ifvqetg","pricing_plan_id":"free"},{"bike_id":"1ec09d17-f02e-4639-a068-bdb42f3bfab4","system_id":"levelo_inurba_marseille","lat":43.290327,"lon":5.375711,"is_reserved":false,"is_disabled":false,"rental_uris":{"android":"levelo://app?vid=1ec09d17-f02e-4639-a068-bdb42f3bfab4","ios":"levelo://app?vid=1ec09d17-f02e-4639-a068-bdb42f3bfab4"},"vehicle_type_id":"4","last_reported":1705698393,"current_range_meters":19600,"station_id":"ce4bh692rcd13ifvqe90","pricing_plan_id":"free"},{"bike_id":"0aed766e-9bf2-4da5-8f6e-e74c77f6af62","system_id":"levelo_inurba_marseille","lat":43.29415,"lon":5.38631,"is_reserved":false,"is_disabled":false,"rental_uris":{"android":"levelo://app?vid=0aed766e-9bf2-4da5-8f6e-e74c77f6af62","ios":"levelo://app?vid=0aed766e-9bf2-4da5-8f6e-e74c77f6af62"},"vehicle_type_id":"4","last_reported":1705698393,"current_range_meters":27600,"station_id":"ce4bh2h2rcd13ifvqdh0","pricing_plan_id":"free"},{"bike_id":"4c583eba-5060-435d-99a3-c503d3a4346b","system_id":"levelo_inurba_marseille","lat":43.289184,"lon":5.366408,"is_reserved":false,"is_disabled":false,"rental_uris":{"android":"levelo://app?vid=4c583eba-5060-435d-99a3-c503d3a4346b","ios":"levelo://app?vid=4c583eba-5060-435d-99a3-c503d3a4346b"},"vehicle_type_id":"4","last_reported":1705698393,"current_range_meters":28000,"station_id":"ce4bhap2rcd13ifvqek0","pricing_plan_id":"free"},{"bike_id":"4552d659-cbff-47c3-992c-d17546760803","system_id":"levelo_inurba_marseille","lat":43.29413,"lon":5.38628,"is_reserved":false,"is_disabled":false,"rental_uris":{"android":"levelo://app?vid=4552d659-cbff-47c3-992c-d17546760803","ios":"levelo://app?vid=4552d659-cbff-47c3-992c-d17546760803"},"vehicle_type_id":"4","last_reported":1705698393,"current_range_meters":6000,"station_id":"ce4bh2h2rcd13ifvqdh0","pricing_plan_id":"free"},{"bike_id":"e13a3e95-0933-43cb-b731-bdd4d86fb7b3","system_id":"levelo_inurba_marseille","lat":43.289184,"lon":5.366408,"is_reserved":false,"is_disabled":false,"rental_uris":{"android":"levelo://app?vid=e13a3e95-0933-43cb-b731-bdd4d86fb7b3","ios":"levelo://app?vid=e13a3e95-0933-43cb-b731-bdd4d86fb7b3"},"vehicle_type_id":"4","last_reported":1705698393,"current_range_meters":16800,"station_id":"ce4bhap2rcd13ifvqek0","pricing_plan_id":"free"},{"bike_id":"3cf570b8-056a-41c1-9206-6313eac8b81d","system_id":"levelo_inurba_marseille","lat":43.289184,"lon":5.366408,"is_reserved":false,"is_disabled":false,"rental_uris":{"android":"levelo://app?vid=3cf570b8-056a-41c1-9206-6313eac8b81d","ios":"levelo://app?vid=3cf570b8-056a-41c1-9206-6313eac8b81d"},"vehicle_type_id":"4","last_reported":1705698393,"current_range_meters":29200,"station_id":"ce4bhap2rcd13ifvqek0","pricing_plan_id":"free"},{"bike_id":"b7abe054-c469-4510-bcce-611b9b475055","system_id":"levelo_inurba_marseille","lat":43.29023,"lon":5.37555,"is_reserved":false,"is_disabled":false,"rental_uris":{"android":"levelo://app?vid=b7abe054-c469-4510-bcce-611b9b475055","ios":"levelo://app?vid=b7abe054-c469-4510-bcce-611b9b475055"},"vehicle_type_id":"4","last_reported":1705698393,"current_range_meters":400,"station_id":"ce4bh692rcd13ifvqe90","pricing_plan_id":"free"},{"bike_id":"409129a2-cfb2-4557-9006-4c0e849fb40b","system_id":"levelo_inurba_marseille","lat":43.28935,"lon":5.36646,"is_reserved":false,"is_disabled":false,"rental_uris":{"android":"levelo://app?vid=409129a2-cfb2-4557-9006-4c0e849fb40b","ios":"levelo://app?vid=409129a2-cfb2-4557-9006-4c0e849fb40b"},"vehicle_type_id":"4","last_reported":1705698393,"current_range_meters":17200,"station_id":"ce4bhap2rcd13ifvqek0","pricing_plan_id":"free"},{"bike_id":"68a086d1-8054-43e9-adb5-de267dbe4d53","system_id":"levelo_inurba_marseille","lat":43.289184,"lon":5.366408,"is_reserved":false,"is_disabled":false,"rental_uris":{"android":"levelo://app?vid=68a086d1-8054-43e9-adb5-de267dbe4d53","ios":"levelo://app?vid=68a086d1-8054-43e9-adb5-de267dbe4d53"},"vehicle_type_id":"4","last_reported":1705698393,"current_range_meters":25200,"station_id":"ce4bhap2rcd13ifvqek0","pricing_plan_id":"free"},{"bike_id":"f4f6aba7-6a6c-48e5-a324-c6e2d930fc2c","system_id":"levelo_inurba_marseille","lat":43.289468,"lon":5.363719,"is_reserved":false,"is_disabled":false,"rental_uris":{"android":"levelo://app?vid=f4f6aba7-6a6c-48e5-a324-c6e2d930fc2c","ios":"levelo://app?vid=f4f6aba7-6a6c-48e5-a324-c6e2d930fc2c"},"vehicle_type_id":"4","last_reported":1705698393,"current_range_meters":7600,"station_id":"ce4bhc92rcd13ifvqetg","pricing_plan_id":"free"},{"bike_id":"6ee75e1d-da51-4a0f-9727-f4c737488a0a","system_id":"levelo_inurba_marseille","lat":43.289468,"lon":5.363719,"is_reserved":false,"is_disabled":false,"rental_uris":{"android":"levelo://app?vid=6ee75e1d-da51-4a0f-9727-f4c737488a0a","ios":"levelo://app?vid=6ee75e1d-da51-4a0f-9727-f4c737488a0a"},"vehicle_type_id":"4","last_reported":1705698393,"current_range_meters":10800,"station_id":"ce4bhc92rcd13ifvqetg","pricing_plan_id":"free"},{"bike_id":"45c42d16-3f9b-41b2-8bd4-9f556f2aaca7","system_id":"levelo_inurba_marseille","lat":43.292695,"lon":5.384339,"is_reserved":false,"is_disabled":false,"rental_uris":{"android":"levelo://app?vid=45c42d16-3f9b-41b2-8bd4-9f556f2aaca7","ios":"levelo://app?vid=45c42d16-3f9b-41b2-8bd4-9f556f2aaca7"},"vehicle_type_id":"4","last_reported":1705698393,"current_range_meters":13600,"station_id":"ce4bh692rcd13ifvqea0","pricing_plan_id":"free"},{"bike_id":"e33dd944-4dab-49c1-98bc-4f73c479f68e","system_id":"levelo_inurba_marseille","lat":43.292644,"lon":5.384257,"is_reserved":false,"is_disabled":false,"rental_uris":{"android":"levelo://app?vid=e33dd944-4dab-49c1-98bc-4f73c479f68e","ios":"levelo://app?vid=e33dd944-4dab-49c1-98bc-4f73c479f68e"},"vehicle_type_id":"4","last_reported":1705698393,"current_range_meters":22400,"station_id":"ce4bh692rcd13ifvqea0","pricing_plan_id":"free"},{"bike_id":"05f810f0-1cb8-4374-9347-c78d6898bb5e","system_id":"levelo_inurba_marseille","lat":43.292644,"lon":5.384257,"is_reserved":false,"is_disabled":false,"rental_uris":{"android":"levelo://app?vid=05f810f0-1cb8-4374-9347-c78d6898bb5e","ios":"levelo://app?vid=05f810f0-1cb8-4374-9347-c78d6898bb5e"},"vehicle_type_id":"4","last_reported":1705698393,"current_range_meters":18400,"station_id":"ce4bh692rcd13ifvqea0","pricing_plan_id":"free"},{"bike_id":"0cbc9ebd-680e-4d62-8928-819b410ed45c","system_id":"levelo_inurba_marseille","lat":43.292644,"lon":5.384257,"is_reserved":false,"is_disabled":false,"rental_uris":{"android":"levelo://app?vid=0cbc9ebd-680e-4d62-8928-819b410ed45c","ios":"levelo://app?vid=0cbc9ebd-680e-4d62-8928-819b410ed45c"},"vehicle_type_id":"4","last_reported":1705698393,"current_range_meters":15600,"station_id":"ce4bh692rcd13ifvqea0","pricing_plan_id":"free"},{"bike_id":"7bbfef98-eaa4-4e51-8a16-30051434f7cd","system_id":"levelo_inurba_marseille","lat":43.29269,"lon":5.38444,"is_reserved":false,"is_disabled":false,"rental_uris":{"android":"levelo://app?vid=7bbfef98-eaa4-4e51-8a16-30051434f7cd","ios":"levelo://app?vid=7bbfef98-eaa4-4e51-8a16-30051434f7cd"},"vehicle_type_id":"4","last_reported":1705698393,"current_range_meters":18400,"station_id":"ce4bh692rcd13ifvqea0","pricing_plan_id":"free"},{"bike_id":"286f481f-e0bb-483f-bcb0-747f21f4a980","system_id":"levelo_inurba_marseille","lat":43.292644,"lon":5.384257,"is_reserved":false,"is_disabled":false,"rental_uris":{"android":"levelo://app?vid=286f481f-e0bb-483f-bcb0-747f21f4a980","ios":"levelo://app?vid=286f481f-e0bb-483f-bcb0-747f21f4a980"},"vehicle_type_id":"4","last_reported":1705698393,"current_range_meters":29600,"station_id":"ce4bh692rcd13ifvqea0","pricing_plan_id":"free"},{"bike_id":"a1d1e1ce-e6d2-431a-8f2a-4ac4c332b009","system_id":"levelo_inurba_marseille","lat":43.292644,"lon":5.384257,"is_reserved":false,"is_disabled":false,"rental_uris":{"android":"levelo://app?vid=a1d1e1ce-e6d2-431a-8f2a-4ac4c332b009","ios":"levelo://app?vid=a1d1e1ce-e6d2-431a-8f2a-4ac4c332b009"},"vehicle_type_id":"4","last_reported":1705698393,"current_range_meters":18800,"station_id":"ce4bh692rcd13ifvqea0","pricing_plan_id":"free"},{"bike_id":"6b1327ac-2a1f-49e5-ae58-3155e79a4d27","system_id":"levelo_inurba_marseille","lat":43.292644,"lon":5.384257,"is_reserved":false,"is_disabled":false,"rental_uris":{"android":"levelo://app?vid=6b1327ac-2a1f-49e5-ae58-3155e79a4d27","ios":"levelo://app?vid=6b1327ac-2a1f-49e5-ae58-3155e79a4d27"},"vehicle_type_id":"4","last_reported":1705698393,"current_range_meters":13200,"station_id":"ce4bh692rcd13ifvqea0","pricing_plan_id":"free"},{"bike_id":"43afcc09-fee0-4c71-8044-b6206f7c6bf6","system_id":"levelo_inurba_marseille","lat":43.292644,"lon":5.384257,"is_reserved":false,"is_disabled":false,"rental_uris":{"android":"levelo://app?vid=43afcc09-fee0-4c71-8044-b6206f7c6bf6","ios":"levelo://app?vid=43afcc09-fee0-4c71-8044-b6206f7c6bf6"},"vehicle_type_id":"4","last_reported":1705698393,"current_range_meters":12800,"station_id":"ce4bh692rcd13ifvqea0","pricing_plan_id":"free"},{"bike_id":"0c9f6953-b207-4c64-ba1c-2359280ac972","system_id":"levelo_inurba_marseille","lat":43.292644,"lon":5.384257,"is_reserved":false,"is_disabled":false,"rental_uris":{"android":"levelo://app?vid=0c9f6953-b207-4c64-ba1c-2359280ac972","ios":"levelo://app?vid=0c9f6953-b207-4c64-ba1c-2359280ac972"},"vehicle_type_id":"4","last_reported":1705698393,"current_range_meters":31200,"station_id":"ce4bh692rcd13ifvqea0","pricing_plan_id":"free"},{"bike_id":"77c111d9-ab9e-4e79-ab1b-3d3c8a998d99","system_id":"levelo_inurba_marseille","lat":43.29265,"lon":5.38444,"is_reserved":false,"is_disabled":false,"rental_uris":{"android":"levelo://app?vid=77c111d9-ab9e-4e79-ab1b-3d3c8a998d99","ios":"levelo://app?vid=77c111d9-ab9e-4e79-ab1b-3d3c8a998d99"},"vehicle_type_id":"4","last_reported":1705698393,"current_range_meters":19600,"station_id":"ce4bh692rcd13ifvqea0","pricing_plan_id":"free"},{"bike_id":"2df5750b-7ba1-4372-bfef-cc26d9a93baf","system_id":"levelo_inurba_marseille","lat":43.292644,"lon":5.384257,"is_reserved":false,"is_disabled":false,"rental_uris":{"android":"levelo://app?vid=2df5750b-7ba1-4372-bfef-cc26d9a93baf","ios":"levelo://app?vid=2df5750b-7ba1-4372-bfef-cc26d9a93baf"},"vehicle_type_id":"4","last_reported":1705698393,"current_range_meters":11600,"station_id":"ce4bh692rcd13ifvqea0","pricing_plan_id":"free"},{"bike_id":"791216e0-04bc-4324-9150-a647c246cb3b","system_id":"levelo_inurba_marseille","lat":43.292617,"lon":5.384377,"is_reserved":false,"is_disabled":false,"rental_uris":{"android":"levelo://app?vid=791216e0-04bc-4324-9150-a647c246cb3b","ios":"levelo://app?vid=791216e0-04bc-4324-9150-a647c246cb3b"},"vehicle_type_id":"4","last_reported":1705698393,"current_range_meters":20000,"station_id":"ce4bh692rcd13ifvqea0","pricing_plan_id":"free"},{"bike_id":"9bef4c48-1a63-464f-9cf6-292b824c7dcf","system_id":"levelo_inurba_marseille","lat":43.292644,"lon":5.384257,"is_reserved":false,"is_disabled":false,"rental_uris":{"android":"levelo://app?vid=9bef4c48-1a63-464f-9cf6-292b824c7dcf","ios":"levelo://app?vid=9bef4c48-1a63-464f-9cf6-292b824c7dcf"},"vehicle_type_id":"4","last_reported":1705698393,"current_range_meters":13600,"station_id":"ce4bh692rcd13ifvqea0","pricing_plan_id":"free"},{"bike_id":"0836186d-a64a-4988-8d0f-50c9e542a302","system_id":"levelo_inurba_marseille","lat":43.292589,"lon":5.38434,"is_reserved":false,"is_disabled":false,"rental_uris":{"android":"levelo://app?vid=0836186d-a64a-4988-8d0f-50c9e542a302","ios":"levelo://app?vid=0836186d-a64a-4988-8d0f-50c9e542a302"},"vehicle_type_id":"4","last_reported":1705698393,"current_range_meters":26800,"station_id":"ce4bh692rcd13ifvqea0","pricing_plan_id":"free"},