{"last_updated":1713985556,"ttl":30,"version":"2.2","data":{"bikes":[{"bike_id":"30ed73f1-6a28-489c-b336-5455fa546a9e","system_id":"levelo_inurba_marseille","lat":43.313391,"lon":5.36706,"is_reserved":false,"is_disabled":false,"rental_uris":{"android":"levelo://app?vid=30ed73f1-6a28-489c-b336-5455fa546a9e","ios":"levelo://app?vid=30ed73f1-6a28-489c-b336-5455fa546a9e"},"vehicle_type_id":"4","last_reported":1713985556,"current_range_meters":18000,"station_id":"ce4bgr92rcd13ifvqc6g","pricing_plan_id":"cebpf4jnsgd1na2vs0mg"},{"bike_id":"2beaf1dd-3397-435c-9bb2-32c15fa0363b","system_id":"levelo_inurba_marseille","lat":43.312239,"lon":5.368562,"is_reserved":false,"is_disabled":false,"rental_uris":{"android":"levelo://app?vid=2beaf1dd-3397-435c-9bb2-32c15fa0363b","ios":"levelo://app?vid=2beaf1dd-3397-435c-9bb2-32c15fa0363b"},"vehicle_type_id":"4","last_reported":1713985556,"current_range_meters":25200,"station_id":"ce4bgl92rcd13ifvqbq0","pricing_plan_id":"cebpf4jnsgd1na2vs0mg"},{"bike_id":"9c7ec006-4921-4def-8ea9-1b293d97850a","system_id":"levelo_inurba_marseille","lat":43.312239,"lon":5.368562,"is_reserved":false,"is_disabled":false,"rental_uris":{"android":"levelo://app?vid=9c7ec006-4921-4def-8ea9-1b293d97850a","ios":"levelo://app?vid=9c7ec006-4921-4def-8ea9-1b293d97850a"},"vehicle_type_id":"4","last_reported":1713985556,"current_range_meters":22800,"station_id":"ce4bgl92rcd13ifvqbq0","pricing_plan_id":"cebpf4jnsgd1na2vs0mg"},{"bike_id":"5419c4b2-bbe5-485c-959f-0b865ab3fd83","system_id":"levelo_inurba_marseille","lat":43.31494,"lon":5.37302,"is_reserved":false,"is_disabled":false,"rental_uris":{"android":"levelo://app?vid=5419c4b2-bbe5-485c-959f-0b865ab3fd83","ios":"levelo://app?vid=5419c4b2-bbe5-485c-959f-0b865ab3fd83"},"vehicle_type_id":"4","last_reported":1713985556,"current_range_meters":6800,"station_id":"ce4bgt12rcd13ifvqcd0","pricing_plan_id":"cebpf4jnsgd1na2vs0mg"},{"bike_id":"b9b337f6-be67-4a5a-a12c-d0ab17adb992","system_id":"levelo_inurba_marseille","lat":43.314811,"lon":5.373103,"is_reserved":false,"is_disabled":false,"rental_uris":{"android":"levelo://app?vid=b9b337f6-be67-4a5a-a12c-d0ab17adb992","ios":"levelo://app?vid=b9b337f6-be67-4a5a-a12c-d0ab17adb992"},"vehicle_type_id":"4","last_reported":1713985556,"current_range_meters":12000,"station_id":"ce4bgt12rcd13ifvqcd0","pricing_plan_id":"cebpf4jnsgd1na2vs0mg"},{"bike_id":"b0c1f2f3-1c49-4e9c-bef5-9e3c5cccfa2a","system_id":"levelo_inurba_marseille","lat":43.314811,"lon":5.373103,"is_reserved":false,"is_disabled":false,"rental_uris":{"android":"levelo://app?vid=b0c1f2f3-1c49-4e9c-bef5-9e3c5cccfa2a","ios":"levelo://app?vid=b0c1f2f3-1c49-4e9c-bef5-9e3c5cccfa2a"},"vehicle_type_id":"4","last_reported":1713985556,"current_range_meters":16000,"station_id":"ce4bgt12rcd13ifvqcd0","pricing_plan_id":"cebpf4jnsgd1na2vs0mg"},{"bike_id":"ae2c728d-eb34-4f40-85fe-65912ee35997","system_id":"levelo_inurba_marseille","lat":43.314811,"lon":5.373103,"is_reserved":false,"is_disabled":false,"rental_uris":{"android":"levelo://app?vid=ae2c728d-eb34-4f40-85fe-65912ee35997","ios":"levelo://app?vid=ae2c728d-eb34-4f40-85fe-65912ee35997"},"vehicle_type_id":"4","last_reported":1713985556,"current_range_meters":28000,"station_id":"ce4bgt12rcd13ifvqcd0","pricing_plan_id":"cebpf4jnsgd1na2vs0mg"},{"bike_id":"a113567c-45b1-4474-b745-21e3e9f60288","system_id":"levelo_inurba_marseille","lat":43.314811,"lon":5.373104,"is_reserved":false,"is_disabled":false,"rental_uris":{"android":"levelo://app?vid=a113567c-45b1-4474-b745-21e3e9f60288","ios":"levelo://app?vid=a113567c-45b1-4474-b745-21e3e9f60288"},"vehicle_type_id":"4","last_reported":1713985556,"current_range_meters":22800,"station_id":"ce4bgt12rcd13ifvqcd0","pricing_plan_id":"cebpf4jnsgd1na2vs0mg"},{"bike_id":"c95f7271-0cfe-4112-a861-a783e421de61","system_id":"levelo_inurba_marseille","lat":43.314811,"lon":5.373103,"is_reserved":false,"is_disabled":false,"rental_uris":{"android":"levelo://app?vid=c95f7271-0cfe-4112-a861-a783e421de61","ios":"levelo://app?vid=c95f7271-0cfe-4112-a861-a783e421de61"},"vehicle_type_id":"4","last_reported":1713985556,"current_range_meters":17600,"station_id":"ce4bgt12rcd13ifvqcd0","pricing_plan_id":"cebpf4jnsgd1na2vs0mg"},{"bike_id":"9fa4a98c-93de-4607-bc35-a4884f3146a7","system_id":"levelo_inurba_marseille","lat":43.314811,"lon":5.373103,"is_reserved":false,"is_disabled":false,"rental_uris":{"android":"levelo://app?vid=9fa4a98c-93de-4607-bc35-a4884f3146a7","ios":"levelo://app?vid=9fa4a98c-93de-4607-bc35-a4884f3146a7"},"vehicle_type_id":"4","last_reported":1713985556,"current_range_meters":15600,"station_id":"ce4bgt12rcd13ifvqcd0","pricing_plan_id":"cebpf4jnsgd1na2vs0mg"},{"bike_id":"3525d61b-e048-4e0e-8462-00fc7a8df936","system_id":"levelo_inurba_marseille","lat":43.314811,"lon":5.373103,"is_reserved":false,"is_disabled":false,"rental_uris":{"android":"levelo://app?vid=3525d61b-e048-4e0e-8462-00fc7a8df936","ios":"levelo://app?vid=3525d61b-e048-4e0e-8462-00fc7a8df936"},"vehicle_type_id":"4","last_reported":1713985556,"current_range_meters":4000,"station_id":"ce4bgt12rcd13ifvqcd0","pricing_plan_id":"cebpf4jnsgd1na2vs0mg"},{"bike_id":"d75b811d-53f3-40ad-92e4-18b6b97bca13","system_id":"levelo_inurba_marseille","lat":43.312239,"lon":5.368562,"is_reserved":false,"is_disabled":false,"rental_uris":{"android":"levelo://app?vid=d75b811d-53f3-40ad-92e4-18b6b97bca13","ios":"levelo://app?vid=d75b811d-53f3-40ad-92e4-18b6b97bca13"},"vehicle_type_id":"4","last_reported":1713985556,"current_range_meters":5600,"station_id":"ce4bgl92rcd13ifvqbq0","pricing_plan_id":"cebpf4jnsgd1na2vs0mg"},{"bike_id":"4d2281fd-168d-40f7-912a-98adfce3da6b","system_id":"levelo_inurba_marseille","lat":43.309039,"lon":5.371797,"is_reserved":false,"is_disabled":false,"rental_uris":{"android":"levelo://app?vid=4d2281fd-168d-40f7-912a-98adfce3da6b","ios":"levelo://app?vid=4d2281fd-168d-40f7-912a-98adfce3da6b"},"vehicle_type_id":"4","last_reported":1713985556,"current_range_meters":22800,"station_id":"ce4bguh2rcd13ifvqckg","pricing_plan_id":"cebpf4jnsgd1na2vs0mg"},{"bike_id":"a6133679-4ddb-442e-befe-8067cc19096c","system_id":"levelo_inurba_marseille","lat":43.309039,"lon":5.371797,"is_reserved":false,"is_disabled":false,"rental_uris":{"android":"levelo://app?vid=a6133679-4ddb-442e-befe-8067cc19096c","ios":"levelo://app?vid=a6133679-4ddb-442e-befe-8067cc19096c"},"vehicle_type_id":"4","last_reported":1713985556,"current_range_meters":24800,"station_id":"ce4bguh2rcd13ifvqckg","pricing_plan_id":"cebpf4jnsgd1na2vs0mg"},{"bike_id":"235663ae-95ce-4db7-ba5b-b0e938efd3a0","system_id":"levelo_inurba_marseille","lat":43.305368,"lon":5.367343,"is_reserved":false,"is_disabled":false,"rental_uris":{"android":"levelo://app?vid=235663ae-95ce-4db7-ba5b-b0e938efd3a0","ios":"levelo://app?vid=235663ae-95ce-4db7-ba5b-b0e938efd3a0"},"vehicle_type_id":"4","last_reported":1713985556,"current_range_meters":11600,"station_id":"ce4bgrp2rcd13ifvqc9g","pricing_plan_id":"cebpf4jnsgd1na2vs0mg"},{"bike_id":"b50cdd47-cfd5-4f75-9dc7-9e1e5698e6d7","system_id":"levelo_inurba_marseille","lat":43.314811,"lon":5.373103,"is_reserved":false,"is_disabled":false,"rental_uris":{"android":"levelo://app?vid=b50cdd47-cfd5-4f75-9dc7-9e1e5698e6d7","ios":"levelo://app?vid=b50cdd47-cfd5-4f75-9dc7-9e1e5698e6d7"},"vehicle_type_id":"4","last_reported":1713985556,"current_range_meters":10400,"station_id":"ce4bgt12rcd13ifvqcd0","pricing_plan_id":"cebpf4jnsgd1na2vs0mg"},{"bike_id":"9f66c3de-590c-46f7-9b42-a3661ed06c2f","system_id":"levelo_inurba_marseille","lat":43.31123,"lon":5.3777,"is_reserved":false,"is_disabled":false,"rental_uris":{"android":"levelo://app?vid=9f66c3de-590c-46f7-9b42-a3661ed06c2f","ios":"levelo://app?vid=9f66c3de-590c-46f7-9b42-a3661ed06c2f"},"vehicle_type_id":"4","last_reported":1713985556,"current_range_meters":26400,"station_id":"ce4bgt92rcd13ifvqcg0","pricing_plan_id":"cebpf4jnsgd1na2vs0mg"},{"bike_id":"bcf8f624-cbff-4d6b-bea5-1afdcf732905","system_id":"levelo_inurba_marseille","lat":43.311125,"lon":5.377624,"is_reserved":false,"is_disabled":false,"rental_uris":{"android":"levelo://app?vid=bcf8f624-cbff-4d6b-bea5-1afdcf732905","ios":"levelo://app?vid=bcf8f624-cbff-4d6b-bea5-1afdcf732905"},"vehicle_type_id":"4","last_reported":1713985556,"current_range_meters":26800,"station_id":"ce4bgt92rcd13ifvqcg0","pricing_plan_id":"cebpf4jnsgd1na2vs0mg"},{"bike_id":"fdfe4cd2-6c4e-4f95-ac26-cab983ae5020","system_id":"levelo_inurba_marseille","lat":43.31119,"lon":5.37776,"is_reserved":false,"is_disabled":false,"rental_uris":{"android":"levelo://app?vid=fdfe4cd2-6c4e-4f95-ac26-cab983ae5020","ios":"levelo://app?vid=fdfe4cd2-6c4e-4f95-ac26-cab983ae5020"},"vehicle_type_id":"4","last_reported":1713985556,"current_range_meters":27200,"station_id":"ce4bgt92rcd13ifvqcg0","pricing_plan_id":"cebpf4jnsgd1na2vs0mg"},{"bike_id":"6e0029d6-dd8d-4687-98e2-7232279a09cd","system_id":"levelo_inurba_marseille","lat":43.31117,"lon":5.377772,"is_reserved":false,"is_disabled":false,"rental_uris":{"android":"levelo://app?vid=6e0029d6-dd8d-4687-98e2-7232279a09cd","ios":"levelo://app?vid=6e0029d6-dd8d-4687-98e2-7232279a09cd"},"vehicle_type_id":"4","last_reported":1713985556,"current_range_meters":8400,"station_id":"","pricing_plan_id":"cebpf4jnsgd1na2vs0mg"},{"bike_id":"54661c49-e295-4d1a-824d-21f14b13e906","system_id":"levelo_inurba_marseille","lat":43.311131,"lon":5.377651,"is_reserved":false,"is_disabled":false,"rental_uris":{"android":"levelo://app?vid=54661c49-e295-4d1a-824d-21f14b13e906","ios":"levelo://app?vid=54661c49-e295-4d1a-824d-21f14b13e906"},"vehicle_type_id":"4","last_reported":1713985556,"current_range_meters":25200,"station_id":"ce4bgt92rcd13ifvqcg0","pricing_plan_id":"cebpf4jnsgd1na2vs0mg"},{"bike_id":"c0f6efc7-9010-4fc7-b148-2fbe5ea2ec1f","system_id":"levelo_inurba_marseille","lat":43.317075,"lon":5.377367,"is_reserved":false,"is_disabled":false,"rental_uris":{"android":"levelo://app?vid=c0f6efc7-9010-4fc7-b148-2fbe5ea2ec1f","ios":"levelo://app?vid=c0f6efc7-9010-4fc7-b148-2fbe5ea2ec1f"},"vehicle_type_id":"4","last_reported":1713985556,"current_range_meters":31200,"station_id":"ce4bgth2rcd13ifvqch0","pricing_plan_id":"cebpf4jnsgd1na2vs0mg"},{"bike_id":"ce219032-dfb3-433b-9eca-5ef9e7da99e7","system_id":"levelo_inurba_marseille","lat":43.303046,"lon":5.368981,"is_reserved":false,"is_disabled":false,"rental_uris":{"android":"levelo://app?vid=ce219032-dfb3-433b-9eca-5ef9e7da99e7","ios":"levelo://app?vid=ce219032-dfb3-433b-9eca-5ef9e7da99e7"},"vehicle_type_id":"4","last_reported":1713985556,"current_range_meters":12400,"station_id":"ce4bgqh2rcd13ifvqc5g","pricing_plan_id":"cebpf4jnsgd1na2vs0mg"},{"bike_id":"d34f0ed8-5f7d-4862-b15e-cfc9df7ca58b","system_id":"levelo_inurba_marseille","lat":43.303046,"lon":5.368981,"is_reserved":false,"is_disabled":false,"rental_uris":{"android":"levelo://app?vid=d34f0ed8-5f7d-4862-b15e-cfc9df7ca58b","ios":"levelo://app?vid=d34f0ed8-5f7d-4862-b15e-cfc9df7ca58b"},"vehicle_type_id":"4","last_reported":1713985556,"current_range_meters":10800,"station_id":"ce4bgqh2rcd13ifvqc5g","pricing_plan_id":"cebpf4jnsgd1na2vs0mg"},{"bike_id":"7b03d8e1-209b-4d33-8ac1-fdd3a6daf3c2","system_id":"levelo_inurba_marseille","lat":43.317075,"lon":5.377367,"is_reserved":false,"is_disabled":false,"rental_uris":{"android":"levelo://app?vid=7b03d8e1-209b-4d33-8ac1-fdd3a6daf3c2","ios":"levelo://app?vid=7b03d8e1-209b-4d33-8ac1-fdd3a6daf3c2"},"vehicle_type_id":"4","last_reported":1713985556,"current_range_meters":5200,"station_id":"ce4bgth2rcd13ifvqch0","pricing_plan_id":"cebpf4jnsgd1na2vs0mg"},{"bike_id":"c2e1bbf5-063b-48f4-81da-0c1d8e4b6928","system_id":"levelo_inurba_marseille","lat":43.315289,"lon":5.380349,"is_reserved":false,"is_disabled":false,"rental_uris":{"android":"levelo://app?vid=c2e1bbf5-063b-48f4-81da-0c1d8e4b6928","ios":"levelo://app?vid=c2e1bbf5-063b-48f4-81da-0c1d8e4b6928"},"vehicle_type_id":"4","last_reported":1713985556,"current_range_meters":16800,"station_id":"ce4bhsp2rcd13ifvqi50","pricing_plan_id":"cebpf4jnsgd1na2vs0mg"},{"bike_id":"f82abc93-8401-4d4c-b760-b35ce10d19a1","system_id":"levelo_inurba_marseille","lat":43.315293,"lon":5.380349,"is_reserved":false,"is_disabled":false,"rental_uris":{"android":"levelo://app?vid=f82abc93-8401-4d4c-b760-b35ce10d19a1","ios":"levelo://app?vid=f82abc93-8401-4d4c-b760-b35ce10d19a1"},"vehicle_type_id":"4","last_reported":1713985556,"current_range_meters":31600,"station_id":"ce4bhsp2rcd13ifvqi50","pricing_plan_id":"cebpf4jnsgd1na2vs0mg"},{"bike_id":"58e5227c-484f-4224-89c3-1f1e996fdf52","system_id":"levelo_inurba_marseille","lat":43.315289,"lon":5.380349,"is_reserved":false,"is_disabled":false,"rental_uris":{"android":"levelo://app?vid=58e5227c-484f-4224-89c3-1f1e996fdf52","ios":"levelo://app?vid=58e5227c-484f-4224-89c3-1f1e996fdf52"},"vehicle_type_id":"4","last_reported":1713985556,"current_range_meters":12800,"station_id":"ce4bhsp2rcd13ifvqi50","pricing_plan_id":"cebpf4jnsgd1na2vs0mg"},{"bike_id":"98bf3e86-aa0a-447a-91be-940394f7a5fe","system_id":"levelo_inurba_marseille","lat":43.315293,"lon":5.380349,"is_reserved":false,"is_disabled":false,"rental_uris":{"android":"levelo://app?vid=98bf3e86-aa0a-447a-91be-940394f7a5fe","ios":"levelo://app?vid=98bf3e86-aa0a-447a-91be-940394f7a5fe"},"vehicle_type_id":"4","last_reported":1713985556,"current_range_meters":20800,"station_id":"ce4bhsp2rcd13ifvqi50","pricing_plan_id":"cebpf4jnsgd1na2vs0mg"},{"bike_id":"517f0b86-ada3-417d-bb74-c02a8a6ac9d7","system_id":"levelo_inurba_marseille","lat":43.315293,"lon":5.380349,"is_reserved":false,"is_disabled":false,"rental_uris":{"android":"levelo://app?vid=517f0b86-ada3-417d-bb74-c02a8a6ac9d7","ios":"levelo://app?vid=517f0b86-ada3-417d-bb74-c02a8a6ac9d7"},"vehicle_type_id":"4","last_reported":1713985556,"current_range_meters":10800,"station_id":"ce4bhsp2rcd13ifvqi50","pricing_plan_id":"cebpf4jnsgd1na2vs0mg"},{"bike_id":"f453999c-be3c-4322-aa13-3c05171c03d3","system_id":"levelo_inurba_marseille","lat":43.303046,"lon":5.368981,"is_reserved":false,"is_disabled":false,"rental_uris":{"android":"levelo://app?vid=f453999c-be3c-4322-aa13-3c05171c03d3","ios":"levelo://app?vid=f453999c-be3c-4322-aa13-3c05171c03d3"},"vehicle_type_id":"4","last_reported":1713985556,"current_range_meters":10800,"station_id":"ce4bgqh2rcd13ifvqc5g","pricing_plan_id":"cebpf4jnsgd1na2vs0mg"},{"bike_id":"c2c2708c-1911-4977-a64f-b0fc556c58f9","system_id":"levelo_inurba_marseille","lat":43.30207,"lon":5.36624,"is_reserved":false,"is_disabled":false,"rental_uris":{"android":"levelo://app?vid=c2c2708c-1911-4977-a64f-b0fc556c58f9","ios":"levelo://app?vid=c2c2708c-1911-4977-a64f-b0fc556c58f9"},"vehicle_type_id":"4","last_reported":1713985556,"current_range_meters":23200,"station_id":"","pricing_plan_id":"cebpf4jnsgd1na2vs0mg"},{"bike_id":"2589f61c-2b7f-4ed9-8fdd-b8f7b27cc0b3","system_id":"levelo_inurba_marseille","lat":43.301939,"lon":5.366286,"is_reserved":false,"is_disabled":false,"rental_uris":{"android":"levelo://app?vid=2589f61c-2b7f-4ed9-8fdd-b8f7b27cc0b3","ios":"levelo://app?vid=2589f61c-2b7f-4ed9-8fdd-b8f7b27cc0b3"},"vehicle_type_id":"4","last_reported":1713985556,"current_range_meters":3600,"station_id":"ce4bgrh2rcd13ifvqc8g","pricing_plan_id":"cebpf4jnsgd1na2vs0mg"},{"bike_id":"5778d5e9-4243-412d-bd6b-380143f972a3","system_id":"levelo_inurba_marseille","lat":43.301939,"lon":5.366286,"is_reserved":false,"is_disabled":false,"rental_uris":{"android":"levelo://app?vid=5778d5e9-4243-412d-bd6b-380143f972a3","ios":"levelo://app?vid=5778d5e9-4243-412d-bd6b-380143f972a3"},"vehicle_type_id":"4","last_reported":1713985556,"current_range_meters":26000,"station_id":"ce4bgrh2rcd13ifvqc8g","pricing_plan_id":"cebpf4jnsgd1na2vs0mg"},{"bike_id":"4e361820-13f4-49d6-b8ed-2e2c4b4e5acc","system_id":"levelo_inurba_marseille","lat":43.304606,"lon":5.379026,"is_reserved":false,"is_disabled":false,"rental_uris":{"android":"levelo://app?vid=4e361820-13f4-49d6-b8ed-2e2c4b4e5acc","ios":"levelo://app?vid=4e361820-13f4-49d6-b8ed-2e2c4b4e5acc"},"vehicle_type_id":"4","last_reported":1713985556,"current_range_meters":0,"station_id":"ce4bgup2rcd13ifvqcn0","pricing_plan_id":"cebpf4jnsgd1na2vs0mg"},{"bike_id":"57123f3b-0f3e-4e36-8d01-f70e6d005086","system_id":"levelo_inurba_marseille","lat":43.324771,"lon":5.36557,"is_reserved":false,"is_disabled":false,"rental_uris":{"android":"levelo://app?vid=57123f3b-0f3e-4e36-8d01-f70e6d005086","ios":"levelo://app?vid=57123f3b-0f3e-4e36-8d01-f70e6d005086"},"vehicle_type_id":"4","last_reported":1713985556,"current_range_meters":0,"station_id":"ce4bhs12rcd13ifvqhvg","pricing_plan_id":"cebpf4jnsgd1na2vs0mg"},{"bike_id":"dea28083-d92d-4f3b-9f85-66961a9dcc09","system_id":"levelo_inurba_marseille","lat":43.31071,"lon":5.383553,"is_reserved":false,"is_disabled":false,"rental_uris":{"android":"levelo://app?vid=dea28083-d92d-4f3b-9f85-66961a9dcc09","ios":"levelo://app?vid=dea28083-d92d-4f3b-9f85-66961a9dcc09"},"vehicle_type_id":"4","last_reported":1713985556,"current_range_meters":0,"station_id":"ce4bgv92rcd13ifvqcr0","pricing_plan_id":"cebpf4jnsgd1na2vs0mg"},{"bike_id":"da38b3fe-7d0a-4add-ad95-8723215f86ff","system_id":"levelo_inurba_marseille","lat":43.302877,"lon":5.376963,"is_reserved":false,"is_disabled":false,"rental_uris":{"android":"levelo://app?vid=da38b3fe-7d0a-4add-ad95-8723215f86ff","ios":"levelo://app?vid=da38b3fe-7d0a-4add-ad95-8723215f86ff"},"vehicle_type_id":"4","last_reported":1713985556,"current_range_meters":0,"station_id":"ce4bguh2rcd13ifvqcj0","pricing_plan_id":"cebpf4jnsgd1na2vs0mg"},{"bike_id":"7e7b43fa-ef64-41d4-9099-f692ed08eae2","system_id":"levelo_inurba_marseille","lat":43.310804,"lon":5.38359,"is_reserved":false,"is_disabled":false,"rental_uris":{"android":"levelo://app?vid=7e7b43fa-ef64-41d4-9099-f692ed08eae2","ios":"levelo://app?vid=7e7b43fa-ef64-41d4-9099-f692ed08eae2"},"vehicle_type_id":"4","last_reported":1713985556,"current_range_meters":2800,"station_id":"ce4bgv92rcd13ifvqcr0","pricing_plan_id":"cebpf4jnsgd1na2vs0mg"},{"bike_id":"22378714-76c2-46f0-9619-bdbeae4cd8df","system_id":"levelo_inurba_marseille","lat":43.319935,"lon":5.381699,"is_reserved":false,"is_disabled":false,"rental_uris":{"android":"levelo://app?vid=22378714-76c2-46f0-9619-bdbeae4cd8df","ios":"levelo://app?vid=22378714-76c2-46f0-9619-bdbeae4cd8df"},"vehicle_type_id":"4","last_reported":1713985556,"current_range_meters":24000,"station_id":"ce4bhr12rcd13ifvqhpg","pricing_plan_id":"cebpf4jnsgd1na2vs0mg"},{"bike_id":"c3c18bfc-863c-4c66-bd26-5a57e43f85c0","system_id":"levelo_inurba_marseille","lat":43.313571,"lon":5.384829,"is_reserved":false,"is_disabled":false,"rental_uris":{"android":"levelo://app?vid=c3c18bfc-863c-4c66-bd26-5a57e43f85c0","ios":"levelo://app?vid=c3c18bfc-863c-4c66-bd26-5a57e43f85c0"},"vehicle_type_id":"4","last_reported":1713985556,"current_range_meters":24400,"station_id":"ce4bgt92rcd13ifvqcf0","pricing_plan_id":"cebpf4jnsgd1na2vs0mg"},{"bike_id":"8a66d70a-e170-441f-8c3b-9ac1adc63293","system_id":"levelo_inurba_marseille","lat":43.319935,"lon":5.381699,"is_reserved":false,"is_disabled":false,"rental_uris":{"android":"levelo://app?vid=8a66d70a-e170-441f-8c3b-9ac1adc63293","ios":"levelo://app?vid=8a66d70a-e170-441f-8c3b-9ac1adc63293"},"vehicle_type_id":"4","last_reported":1713985556,"current_range_meters":25200,"station_id":"ce4bhr12rcd13ifvqhpg","pricing_plan_id":"cebpf4jnsgd1na2vs0mg"},{"bike_id":"0d298d88-138b-469f-b4e2-ca91f165c25e","system_id":"levelo_inurba_marseille","lat":43.313571,"lon":5.384829,"is_reserved":false,"is_disabled":false,"rental_uris":{"android":"levelo://app?vid=0d298d88-138b-469f-b4e2-ca91f165c25e","ios":"levelo://app?vid=0d298d88-138b-469f-b4e2-ca91f165c25e"},"vehicle_type_id":"4","last_reported":1713985556,"current_range_meters":18400,"station_id":"ce4bgt92rcd13ifvqcf0","pricing_plan_id":"cebpf4jnsgd1na2vs0mg"},{"bike_id":"efa9854a-3874-4cf6-9847-96bf1e02c252","system_id":"levelo_inurba_marseille","lat":43.313571,"lon":5.384829,"is_reserved":false,"is_disabled":false,"rental_uris":{"android":"levelo://app?vid=efa9854a-3874-4cf6-9847-96bf1e02c252","ios":"levelo://app?vid=efa9854a-3874-4cf6-9847-96bf1e02c252"},"vehicle_type_id":"4","last_reported":1713985556,"current_range_meters":23200,"station_id":"ce4bgt92rcd13ifvqcf0","pricing_plan_id":"cebpf4jnsgd1na2vs0mg"},{"bike_id":"89b915e5-ce70-45dd-8029-6df341643d9d","system_id":"levelo_inurba_marseille","lat":43.313571,"lon":5.384829,"is_reserved":false,"is_disabled":false,"rental_uris":{"android":"levelo://app?vid=89b915e5-ce70-45dd-8029-6df341643d9d","ios":"levelo://app?vid=89b915e5-ce70-45dd-8029-6df341643d9d"},"vehicle_type_id":"4","last_reported":1713985556,"current_range_meters":22400,"station_id":"ce4bgt92rcd13ifvqcf0","pricing_plan_id":"cebpf4jnsgd1na2vs0mg"},{"bike_id":"606681a5-bd11-44b5-a83b-1bcb3f0351d9","system_id":"levelo_inurba_marseille","lat":43.313571,"lon":5.384829,"is_reserved":false,"is_disabled":false,"rental_uris":{"android":"levelo://app?vid=606681a5-bd11-44b5-a83b-1bcb3f0351d9","ios":"levelo://app?vid=606681a5-bd11-44b5-a83b-1bcb3f0351d9"},"vehicle_type_id":"4","last_reported":1713985556,"current_range_meters":13600,"station_id":"ce4bgt92rcd13ifvqcf0","pricing_plan_id":"cebpf4jnsgd1na2vs0mg"},{"bike_id":"f5364423-52f0-47a2-85f3-f869ed8b50ea","system_id":"levelo_inurba_marseille","lat":43.313571,"lon":5.384829,"is_reserved":false,"is_disabled":false,"rental_uris":{"android":"levelo://app?vid=f5364423-52f0-47a2-85f3-f869ed8b50ea","ios":"levelo://app?vid=f5364423-52f0-47a2-85f3-f869ed8b50ea"},"vehicle_type_id":"4","last_reported":1713985556,"current_range_meters":31200,"station_id":"ce4bgt92rcd13ifvqcf0","pricing_plan_id":"cebpf4jnsgd1na2vs0mg"},{"bike_id":"7e3c069e-e00c-4d5a-89ca-8a63fbc8e2bd","system_id":"levelo_inurba_marseille","lat":43.313571,"lon":5.384829,"is_reserved":false,"is_disabled":false,"rental_uris":{"android":"levelo://app?vid=7e3c069e-e00c-4d5a-89ca-8a63fbc8e2bd","ios":"levelo://app?vid=7e3c069e-e00c-4d5a-89ca-8a63fbc8e2bd"},"vehicle_type_id":"4","last_reported":1713985556,"current_range_meters":12000,"station_id":"ce4bgt92rcd13ifvqcf0","pricing_plan_id":"cebpf4jnsgd1na2vs0mg"},{"bike_id":"39ba2e1c-a45d-457a-a570-79f8bece37d3","system_id":"levelo_inurba_marseille","lat":43.29938,"lon":5.36539,"is_reserved":false,"is_disabled":false,"rental_uris":{"android":"levelo://app?vid=39ba2e1c-a45d-457a-a570-79f8bece37d3","ios":"levelo://app?vid=39ba2e1c-a45d-457a-a570-79f8bece37d3"},"vehicle_type_id":"4","last_reported":1713985556,"current_range_meters":0,"station_id":"ce4bgm92rcd13ifvqbr0","pricing_plan_id":"cebpf4jnsgd1na2vs0mg"},{"bike_id":"d89845bc-ed50-4e49-9c05-161a71078821","system_id":"levelo_inurba_marseille","lat":43.299222,"lon":5.365554,"is_reserved":false,"is_disabled":false,"rental_uris":{"android":"levelo://app?vid=d89845bc-ed50-4e49-9c05-161a71078821","ios":"levelo://app?vid=d89845bc-ed50-4e49-9c05-161a71078821"},"vehicle_type_id":"4","last_reported":1713985556,"current_range_meters":14800,"station_id":"ce4bgm92rcd13ifvqbr0","pricing_plan_id":"cebpf4jnsgd1na2vs0mg"},{"bike_id":"611b25c5-36d8-45f8-86e7-2cfbfef14812","system_id":"levelo_inurba_marseille","lat":43.299885,"lon":5.374327,"is_reserved":false,"is_disabled":false,"rental_uris":{"android":"levelo://app?vid=611b25c5-36d8-45f8-86e7-2cfbfef14812","ios":"levelo://app?vid=611b25c5-36d8-45f8-86e7-2cfbfef14812"},"vehicle_type_id":"4","last_reported":1713985556,"current_range_meters":24400,"station_id":"","pricing_plan_id":"cebpf4jnsgd1na2vs0mg"},{"bike_id":"d5604663-bcaa-49e7-9731-72195026b858","system_id":"levelo_inurba_marseille","lat":43.298433,"lon":5.362774,"is_reserved":false,"is_disabled":false,"rental_uris":{"android":"levelo://app?vid=d5604663-bcaa-49e7-9731-72195026b858","ios":"levelo://app?vid=d5604663-bcaa-49e7-9731-72195026b858"},"vehicle_type_id":"4","last_reported":1713985556,"current_range_meters":26400,"station_id":"ce4bgpp2rcd13ifvqc3g","pricing_plan_id":"cebpf4jnsgd1na2vs0mg"},{"bike_id":"ad0b7891-0970-4ca5-b4b2-808fad6764e5","system_id":"levelo_inurba_marseille","lat":43.298433,"lon":5.362774,"is_reserved":false,"is_disabled":false,"rental_uris":{"android":"levelo://app?vid=ad0b7891-0970-4ca5-b4b2-808fad6764e5","ios":"levelo://app?vid=ad0b7891-0970-4ca5-b4b2-808fad6764e5"},"vehicle_type_id":"4","last_reported":1713985556,"current_range_meters":26000,"station_id":"ce4bgpp2rcd13ifvqc3g","pricing_plan_id":"cebpf4jnsgd1na2vs0mg"},{"bike_id":"57e4318d-3e67-486c-a8fb-219e417975f3","system_id":"levelo_inurba_marseille","lat":43.298433,"lon":5.362774,"is_reserved":false,"is_disabled":false,"rental_uris":{"android":"levelo://app?vid=57e4318d-3e67-486c-a8fb-219e417975f3","ios":"levelo://app?vid=57e4318d-3e67-486c-a8fb-219e417975f3"},"vehicle_type_id":"4","last_reported":1713985556,"current_range_meters":24400,"station_id":"ce4bgpp2rcd13ifvqc3g","pricing_plan_id":"cebpf4jnsgd1na2vs0mg"},{"bike_id":"2e3f64fb-38dc-4738-b903-11ca321cb90c","system_id":"levelo_inurba_marseille","lat":43.299243,"lon":5.374807,"is_reserved":false,"is_disabled":false,"rental_uris":{"android":"levelo://app?vid=2e3f64fb-38dc-4738-b903-11ca321cb90c","ios":"levelo://app?vid=2e3f64fb-38dc-4738-b903-11ca321cb90c"},"vehicle_type_id":"4","last_reported":1713985556,"current_range_meters":14000,"station_id":"ce4bgjh2rcd13ifvqbg0","pricing_plan_id":"cebpf4jnsgd1na2vs0mg"},{"bike_id":"08643549-4a43-40cf-85a9-ffc5caf65ca7","system_id":"levelo_inurba_marseille","lat":43.311722,"lon":5.387247,"is_reserved":false,"is_disabled":false,"rental_uris":{"android":"levelo://app?vid=08643549-4a43-40cf-85a9-ffc5caf65ca7","ios":"levelo://app?vid=08643549-4a43-40cf-85a9-ffc5caf65ca7"},"vehicle_type_id":"4","last_reported":1713985556,"current_range_meters":25200,"station_id":"ce4bgv12rcd13ifvqcp0","pricing_plan_id":"cebpf4jnsgd1na2vs0mg"},{"bike_id":"1154c9ce-9427-4b30-8a01-55a4771e362c","system_id":"levelo_inurba_marseille","lat":43.312114,"lon":5.387404,"is_reserved":false,"is_disabled":false,"rental_uris":{"android":"levelo://app?vid=1154c9ce-9427-4b30-8a01-55a4771e362c","ios":"levelo://app?vid=1154c9ce-9427-4b30-8a01-55a4771e362c"},"vehicle_type_id":"4","last_reported":1713985556,"current_range_meters":4800,"station_id":"","pricing_plan_id":"cebpf4jnsgd1na2vs0mg"},{"bike_id":"27447e5c-a7fe-4992-a01a-b73d22d80516","system_id":"levelo_inurba_marseille","lat":43.298795,"lon":5.375677,"is_reserved":false,"is_disabled":false,"rental_uris":{"android":"levelo://app?vid=27447e5c-a7fe-4992-a01a-b73d22d80516","ios":"levelo://app?vid=27447e5c-a7fe-4992-a01a-b73d22d80516"},"vehicle_type_id":"4","last_reported":1713985556,"current_range_meters":13600,"station_id":"ce4bgjh2rcd13ifvqbg0","pricing_plan_id":"cebpf4jnsgd1na2vs0mg"},{"bike_id":"501882ab-f3f1-4055-a5f0-2af0d2546ab9","system_id":"levelo_inurba_marseille","lat":43.32292,"lon":5.38281,"is_reserved":false,"is_disabled":false,"rental_uris":{"android":"levelo://app?vid=501882ab-f3f1-4055-a5f0-2af0d2546ab9","ios":"levelo://app?vid=501882ab-f3f1-4055-a5f0-2af0d2546ab9"},"vehicle_type_id":"4","last_reported":1713985556,"current_range_meters":12800,"station_id":"ce4bhr12rcd13ifvqhqg","pricing_plan_id":"cebpf4jnsgd1na2vs0mg"},{"bike_id":"97162b9b-ad98-4f36-a9a9-89f73ee2c0c3","system_id":"levelo_inurba_marseille","lat":43.297163,"lon":5.365866,"is_reserved":false,"is_disabled":false,"rental_uris":{"android":"levelo://app?vid=97162b9b-ad98-4f36-a9a9-89f73ee2c0c3","ios":"levelo://app?vid=97162b9b-ad98-4f36-a9a9-89f73ee2c0c3"},"vehicle_type_id":"4","last_reported":1713985556,"current_range_meters":20400,"station_id":"ce4bgn12rcd13ifvqbt0","pricing_plan_id":"cebpf4jnsgd1na2vs0mg"},{"bike_id":"9b9365e5-7e7c-4d39-9089-fab60774a284","system_id":"levelo_inurba_marseille","lat":43.297163,"lon":5.365866,"is_reserved":false,"is_disabled":false,"rental_uris":{"android":"levelo://app?vid=9b9365e5-7e7c-4d39-9089-fab60774a284","ios":"levelo://app?vid=9b9365e5-7e7c-4d39-9089-fab60774a284"},"vehicle_type_id":"4","last_reported":1713985556,"current_range_meters":8800,"station_id":"ce4bgn12rcd13ifvqbt0","pricing_plan_id":"cebpf4jnsgd1na2vs0mg"},{"bike_id":"55dae2f5-606b-4baa-b8a8-64b720d0ce15","system_id":"levelo_inurba_marseille","lat":43.297163,"lon":5.365866,"is_reserved":false,"is_disabled":false,"rental_uris":{"android":"levelo://app?vid=55dae2f5-606b-4baa-b8a8-64b720d0ce15","ios":"levelo://app?vid=55dae2f5-606b-4baa-b8a8-64b720d0ce15"},"vehicle_type_id":"4","last_reported":1713985556,"current_range_meters":24000,"station_id":"ce4bgn12rcd13ifvqbt0","pricing_plan_id":"cebpf4jnsgd1na2vs0mg"},{"bike_id":"90b1af75-1d73-4e18-b5a1-db44d5244b95","system_id":"levelo_inurba_marseille","lat":43.297163,"lon":5.365866,"is_reserved":false,"is_disabled":false,"rental_uris":{"android":"levelo://app?vid=90b1af75-1d73-4e18-b5a1-db44d5244b95","ios":"levelo://app?vid=90b1af75-1d73-4e18-b5a1-db44d5244b95"},"vehicle_type_id":"4","last_reported":1713985556,"current_range_meters":19600,"station_id":"ce4bgn12rcd13ifvqbt0","pricing_plan_id":"cebpf4jnsgd1na2vs0mg"},{"bike_id":"c6258ab0-69ba-48db-a03a-3c2437a768eb","system_id":"levelo_inurba_marseille","lat":43.297163,"lon":5.365866,"is_reserved":false,"is_disabled":false,"rental_uris":{"android":"levelo://app?vid=c6258ab0-69ba-48db-a03a-3c2437a768eb","ios":"levelo://app?vid=c6258ab0-69ba-48db-a03a-3c2437a768eb"},"vehicle_type_id":"4","last_reported":1713985556,"current_range_meters":13600,"station_id":"ce4bgn12rcd13ifvqbt0","pricing_plan_id":"cebpf4jnsgd1na2vs0mg"},{"bike_id":"b47a02ef-7d9b-48a5-98d5-2d706e2abfd0","system_id":"levelo_inurba_marseille","lat":43.2968,"lon":5.37291,"is_reserved":false,"is_disabled":false,"rental_uris":{"android":"levelo://app?vid=b47a02ef-7d9b-48a5-98d5-2d706e2abfd0","ios":"levelo://app?vid=b47a02ef-7d9b-48a5-98d5-2d706e2abfd0"},"vehicle_type_id":"4","last_reported":1713985556,"current_range_meters":12000,"station_id":"ce4bgk12rcd13ifvqbj0","pricing_plan_id":"cebpf4jnsgd1na2vs0mg"},{"bike_id":"653edb9d-ce9a-433d-9403-f9eff8398017","system_id":"levelo_inurba_marseille","lat":43.295859,"lon":5.367548,"is_reserved":false,"is_disabled":false,"rental_uris":{"android":"levelo://app?vid=653edb9d-ce9a-433d-9403-f9eff8398017","ios":"levelo://app?vid=653edb9d-ce9a-433d-9403-f9eff8398017"},"vehicle_type_id":"4","last_reported":1713985556,"current_range_meters":7200,"station_id":"ce4bgph2rcd13ifvqc2g","pricing_plan_id":"cebpf4jnsgd1na2vs0mg"},{"bike_id":"5105483f-6dd9-4141-846b-ab65ee2a9d5c","system_id":"levelo_inurba_marseille","lat":43.296131,"lon":5.370791,"is_reserved":false,"is_disabled":false,"rental_uris":{"android":"levelo://app?vid=5105483f-6dd9-4141-846b-ab65ee2a9d5c","ios":"levelo://app?vid=5105483f-6dd9-4141-846b-ab65ee2a9d5c"},"vehicle_type_id":"4","last_reported":1713985556,"current_range_meters":26800,"station_id":"ce4bgnh2rcd13ifvqc0g","pricing_plan_id":"cebpf4jnsgd1na2vs0mg"},{"bike_id":"66e8f54f-4320-43a7-8a92-0070bc3d0b54","system_id":"levelo_inurba_marseille","lat":43.29573,"lon":5.367355,"is_reserved":false,"is_disabled":false,"rental_uris":{"android":"levelo://app?vid=66e8f54f-4320-43a7-8a92-0070bc3d0b54","ios":"levelo://app?vid=66e8f54f-4320-43a7-8a92-0070bc3d0b54"},"vehicle_type_id":"4","last_reported":1713985556,"current_range_meters":22800,"station_id":"ce4bgph2rcd13ifvqc2g","pricing_plan_id":"cebpf4jnsgd1na2vs0mg"},{"bike_id":"213f5603-4c4a-4287-abee-33ee1525ecb2","system_id":"levelo_inurba_marseille","lat":43.29573,"lon":5.367355,"is_reserved":false,"is_disabled":false,"rental_uris":{"android":"levelo://app?vid=213f5603-4c4a-4287-abee-33ee1525ecb2","ios":"levelo://app?vid=213f5603-4c4a-4287-abee-33ee1525ecb2"},"vehicle_type_id":"4","last_reported":1713985556,"current_range_meters":14400,"station_id":"ce4bgph2rcd13ifvqc2g","pricing_plan_id":"cebpf4jnsgd1na2vs0mg"},{"bike_id":"22ee16ca-a245-4dc1-ad8a-db06da73955c","system_id":"levelo_inurba_marseille","lat":43.29585,"lon":5.36878,"is_reserved":false,"is_disabled":false,"rental_uris":{"android":"levelo://app?vid=22ee16ca-a245-4dc1-ad8a-db06da73955c","ios":"levelo://app?vid=22ee16ca-a245-4dc1-ad8a-db06da73955c"},"vehicle_type_id":"4","last_reported":1713985556,"current_range_meters":7200,"station_id":"","pricing_plan_id":"cebpf4jnsgd1na2vs0mg"},{"bike_id":"81f263a6-0032-478e-967d-66e4a02afb7a","system_id":"levelo_inurba_marseille","lat":43.29573,"lon":5.367355,"is_reserved":false,"is_disabled":false,"rental_uris":{"android":"levelo://app?vid=81f263a6-0032-478e-967d-66e4a02afb7a","ios":"levelo://app?vid=81f263a6-0032-478e-967d-66e4a02afb7a"},"vehicle_type_id":"4","last_reported":1713985556,"current_range_meters":12800,"station_id":"ce4bgph2rcd13ifvqc2g","pricing_plan_id":"cebpf4jnsgd1na2vs0mg"},{"bike_id":"bfc58f6f-a1a5-405f-a595-1b952d5e3994","system_id":"levelo_inurba_marseille","lat":43.296921,"lon":5.376579,"is_reserved":false,"is_disabled":false,"rental_uris":{"android":"levelo://app?vid=bfc58f6f-a1a5-405f-a595-1b952d5e3994","ios":"levelo://app?vid=bfc58f6f-a1a5-405f-a595-1b952d5e3994"},"vehicle_type_id":"4","last_reported":1713985556,"current_range_meters":9600,"station_id":"ce4bgkh2rcd13ifvqbl0","pricing_plan_id":"cebpf4jnsgd1na2vs0mg"},{"bike_id":"b1e8102c-52dd-48b0-9be6-58aefa645a8f","system_id":"levelo_inurba_marseille","lat":43.309589,"lon":5.390258,"is_reserved":false,"is_disabled":false,"rental_uris":{"android":"levelo://app?vid=b1e8102c-52dd-48b0-9be6-58aefa645a8f","ios":"levelo://app?vid=b1e8102c-52dd-48b0-9be6-58aefa645a8f"},"vehicle_type_id":"4","last_reported":1713985556,"current_range_meters":9200,"station_id":"ce4bgup2rcd13ifvqco0","pricing_plan_id":"cebpf4jnsgd1na2vs0mg"},{"bike_id":"f4030e92-54cc-49f9-bdb7-7eda4dde2442","system_id":"levelo_inurba_marseille","lat":43.299028,"lon":5.381509,"is_reserved":false,"is_disabled":false,"rental_uris":{"android":"levelo://app?vid=f4030e92-54cc-49f9-bdb7-7eda4dde2442","ios":"levelo://app?vid=f4030e92-54cc-49f9-bdb7-7eda4dde2442"},"vehicle_type_id":"4","last_reported":1713985556,"current_range_meters":19200,"station_id":"ce4bgj12rcd13ifvqbc0","pricing_plan_id":"cebpf4jnsgd1na2vs0mg"},{"bike_id":"721616d2-0c6c-4172-b5f7-0492e0cff152","system_id":"levelo_inurba_marseille","lat":43.309589,"lon":5.390258,"is_reserved":false,"is_disabled":false,"rental_uris":{"android":"levelo://app?vid=721616d2-0c6c-4172-b5f7-0492e0cff152","ios":"levelo://app?vid=721616d2-0c6c-4172-b5f7-0492e0cff152"},"vehicle_type_id":"4","last_reported":1713985556,"current_range_meters":1600,"station_id":"ce4bgup2rcd13ifvqco0","pricing_plan_id":"cebpf4jnsgd1na2vs0mg"},{"bike_id":"f52eb590-7c9d-4ee9-afda-aeb836bdd3dc","system_id":"levelo_inurba_marseille","lat":43.317557,"lon":5.390173,"is_reserved":false,"is_disabled":false,"rental_uris":{"android":"levelo://app?vid=f52eb590-7c9d-4ee9-afda-aeb836bdd3dc","ios":"levelo://app?vid=f52eb590-7c9d-4ee9-afda-aeb836bdd3dc"},"vehicle_type_id":"4","last_reported":1713985556,"current_range_meters":28400,"station_id":"ce4bhqp2rcd13ifvqhng","pricing_plan_id":"cebpf4jnsgd1na2vs0mg"},{"bike_id":"9348e3ae-e3ba-474a-b6d0-68288a404d1d","system_id":"levelo_inurba_marseille","lat":43.317606,"lon":5.390104,"is_reserved":false,"is_disabled":false,"rental_uris":{"android":"levelo://app?vid=9348e3ae-e3ba-474a-b6d0-68288a404d1d","ios":"levelo://app?vid=9348e3ae-e3ba-474a-b6d0-68288a404d1d"},"vehicle_type_id":"4","last_reported":1713985556,"current_range_meters":12800,"station_id":"","pricing_plan_id":"cebpf4jnsgd1na2vs0mg"},{"bike_id":"d6213df5-f7f0-489b-9697-46e5867896cc","system_id":"levelo_inurba_marseille","lat":43.317557,"lon":5.390173,"is_reserved":false,"is_disabled":false,"rental_uris":{"android":"levelo://app?vid=d6213df5-f7f0-489b-9697-46e5867896cc","ios":"levelo://app?vid=d6213df5-f7f0-489b-9697-46e5867896cc"},"vehicle_type_id":"4","last_reported":1713985556,"current_range_meters":7600,"station_id":"ce4bhqp2rcd13ifvqhng","pricing_plan_id":"cebpf4jnsgd1na2vs0mg"},{"bike_id":"c007bef9-8802-41bb-8338-c0ddc6a2a353","system_id":"levelo_inurba_marseille","lat":43.317557,"lon":5.390173,"is_reserved":false,"is_disabled":false,"rental_uris":{"android":"levelo://app?vid=c007bef9-8802-41bb-8338-c0ddc6a2a353","ios":"levelo://app?vid=c007bef9-8802-41bb-8338-c0ddc6a2a353"},"vehicle_type_id":"4","last_reported":1713985556,"current_range_meters":14000,"station_id":"ce4bhqp2rcd13ifvqhng","pricing_plan_id":"cebpf4jnsgd1na2vs0mg"},{"bike_id":"009b6dbe-f06a-410e-9507-c1ecba6e1674","system_id":"levelo_inurba_marseille","lat":43.317557,"lon":5.390173,"is_reserved":false,"is_disabled":false,"rental_uris":{"android":"levelo://app?vid=009b6dbe-f06a-410e-9507-c1ecba6e1674","ios":"levelo://app?vid=009b6dbe-f06a-410e-9507-c1ecba6e1674"},"vehicle_type_id":"4","last_reported":1713985556,"current_range_meters":22800,"station_id":"ce4bhqp2rcd13ifvqhng","pricing_plan_id":"cebpf4jnsgd1na2vs0mg"},{"bike_id":"772c79fe-9b42-4ad0-a07a-0a75c4991fd2","system_id":"levelo_inurba_marseille","lat":43.317557,"lon":5.390173,"is_reserved":false,"is_disabled":false,"rental_uris":{"android":"levelo://app?vid=772c79fe-9b42-4ad0-a07a-0a75c4991fd2","ios":"levelo://app?vid=772c79fe-9b42-4ad0-a07a-0a75c4991fd2"},"vehicle_type_id":"4","last_reported":1713985556,"current_range_meters":18800,"station_id":"ce4bhqp2rcd13ifvqhng","pricing_plan_id":"cebpf4jnsgd1na2vs0mg"},{"bike_id":"3ddd29e4-7600-43e5-b6d0-b2af8c40141a","system_id":"levelo_inurba_marseille","lat":43.317557,"lon":5.390173,"is_reserved":false,"is_disabled":false,"rental_uris":{"android":"levelo://app?vid=3ddd29e4-7600-43e5-b6d0-b2af8c40141a","ios":"levelo://app?vid=3ddd29e4-7600-43e5-b6d0-b2af8c40141a"},"vehicle_type_id":"4","last_reported":1713985556,"current_range_meters":24000,"station_id":"ce4bhqp2rcd13ifvqhng","pricing_plan_id":"cebpf4jnsgd1na2vs0mg"},{"bike_id":"a75fb000-0694-44c5-affd-0dc93610d2c9","system_id":"levelo_inurba_marseille","lat":43.317557,"lon":5.390173,"is_reserved":false,"is_disabled":false,"rental_uris":{"android":"levelo://app?vid=a75fb000-0694-44c5-affd-0dc93610d2c9","ios":"levelo://app?vid=a75fb000-0694-44c5-affd-0dc93610d2c9"},"vehicle_type_id":"4","last_reported":1713985556,"current_range_meters":21200,"station_id":"ce4bhqp2rcd13ifvqhng","pricing_plan_id":"cebpf4jnsgd1na2vs0mg"},{"bike_id":"c210510a-5bce-4404-bc62-dece7f87043b","system_id":"levelo_inurba_marseille","lat":43.317557,"lon":5.390173,"is_reserved":false,"is_disabled":false,"rental_uris":{"android":"levelo://app?vid=c210510a-5bce-4404-bc62-dece7f87043b","ios":"levelo://app?vid=c210510a-5bce-4404-bc62-dece7f87043b"},"vehicle_type_id":"4","last_reported":1713985556,"current_range_meters":13200,"station_id":"ce4bhqp2rcd13ifvqhng","pricing_plan_id":"cebpf4jnsgd1na2vs0mg"},{"bike_id":"f78a1298-3a6b-4708-ab18-6acdeb5fa4e1","system_id":"levelo_inurba_marseille","lat":43.317557,"lon":5.390173,"is_reserved":false,"is_disabled":false,"rental_uris":{"android":"levelo://app?vid=f78a1298-3a6b-4708-ab18-6acdeb5fa4e1","ios":"levelo://app?vid=f78a1298-3a6b-4708-ab18-6acdeb5fa4e1"},"vehicle_type_id":"4","last_reported":1713985556,"current_range_meters":15600,"station_id":"ce4bhqp2rcd13ifvqhng","pricing_plan_id":"cebpf4jnsgd1na2vs0mg"},{"bike_id":"8e8cccfd-3e5f-4762-a870-90b549a32291","system_id":"levelo_inurba_marseille","lat":43.317557,"lon":5.390173,"is_reserved":false,"is_disabled":false,"rental_uris":{"android":"levelo://app?vid=8e8cccfd-3e5f-4762-a870-90b549a32291","ios":"levelo://app?vid=8e8cccfd-3e5f-4762-a870-90b549a32291"},"vehicle_type_id":"4","last_reported":1713985556,"current_range_meters":6800,"station_id":"ce4bhqp2rcd13ifvqhng","pricing_plan_id":"cebpf4jnsgd1na2vs0mg"},{"bike_id":"7cc61156-595f-4e4e-a33e-89f91602f767","system_id":"levelo_inurba_marseille","lat":43.31754,"lon":5.39031,"is_reserved":false,"is_disabled":false,"rental_uris":{"android":"levelo://app?vid=7cc61156-595f-4e4e-a33e-89f91602f767","ios":"levelo://app?vid=7cc61156-595f-4e4e-a33e-89f91602f767"},"vehicle_type_id":"4","last_reported":1713985556,"current_range_meters":12400,"station_id":"ce4bhqp2rcd13ifvqhng","pricing_plan_id":"cebpf4jnsgd1na2vs0mg"},{"bike_id":"dd464ad1-5508-44ab-ba07-bb8a67869a59","system_id":"levelo_inurba_marseille","lat":43.298082,"lon":5.380571,"is_reserved":false,"is_disabled":false,"rental_uris":{"android":"levelo://app?vid=dd464ad1-5508-44ab-ba07-bb8a67869a59","ios":"levelo://app?vid=dd464ad1-5508-44ab-ba07-bb8a67869a59"},"vehicle_type_id":"4","last_reported":1713985556,"current_range_meters":22000,"station_id":"ce4bgip2rcd13ifvqbb0","pricing_plan_id":"cebpf4jnsgd1na2vs0mg"},{"bike_id":"e176d8d7-b260-4094-bfab-2f20185a29ca","system_id":"levelo_inurba_marseille","lat":43.298092,"lon":5.38091,"is_reserved":false,"is_disabled":false,"rental_uris":{"android":"levelo://app?vid=e176d8d7-b260-4094-bfab-2f20185a29ca","ios":"levelo://app?vid=e176d8d7-b260-4094-bfab-2f20185a29ca"},"vehicle_type_id":"4","last_reported":1713985556,"current_range_meters":13600,"station_id":"ce4bgip2rcd13ifvqbb0","pricing_plan_id":"cebpf4jnsgd1na2vs0mg"},{"bike_id":"df624751-d20a-4451-a20e-c9b092750205","system_id":"levelo_inurba_marseille","lat":43.298037,"lon":5.381066,"is_reserved":false,"is_disabled":false,"rental_uris":{"android":"levelo://app?vid=df624751-d20a-4451-a20e-c9b092750205","ios":"levelo://app?vid=df624751-d20a-4451-a20e-c9b092750205"},"vehicle_type_id":"4","last_reported":1713985556,"current_range_meters":29200,"station_id":"ce4bgip2rcd13ifvqbb0","pricing_plan_id":"cebpf4jnsgd1na2vs0mg"},{"bike_id":"cea2d151-933a-40cb-94a1-a0333fb32694","system_id":"levelo_inurba_marseille","lat":43.2981,"lon":5.38102,"is_reserved":false,"is_disabled":false,"rental_uris":{"android":"levelo://app?vid=cea2d151-933a-40cb-94a1-a0333fb32694","ios":"levelo://app?vid=cea2d151-933a-40cb-94a1-a0333fb32694"},"vehicle_type_id":"4","last_reported":1713985556,"current_range_meters":31200,"station_id":"ce4bgip2rcd13ifvqbb0","pricing_plan_id":"cebpf4jnsgd1na2vs0mg"},{"bike_id":"7e9b56ed-f538-4bd6-bc56-e11df2c46234","system_id":"levelo_inurba_marseille","lat":43.298037,"lon":5.381066,"is_reserved":false,"is_disabled":false,"rental_uris":{"android":"levelo://app?vid=7e9b56ed-f538-4bd6-bc56-e11df2c46234","ios":"levelo://app?vid=7e9b56ed-f538-4bd6-bc56-e11df2c46234"},"vehicle_type_id":"4","last_reported":1713985556,"current_range_meters":20400,"station_id":"ce4bgip2rcd13ifvqbb0","pricing_plan_id":"cebpf4jnsgd1na2vs0mg"},{"bike_id":"00909e30-6070-4a1b-a5e4-7ff5b1e00f6f","system_id":"levelo_inurba_marseille","lat":43.298037,"lon":5.381066,"is_reserved":false,"is_disabled":false,"rental_uris":{"android":"levelo://app?vid=00909e30-6070-4a1b-a5e4-7ff5b1e00f6f","ios":"levelo://app?vid=00909e30-6070-4a1b-a5e4-7ff5b1e00f6f"},"vehicle_type_id":"4","last_reported":1713985556,"current_range_meters":31600,"station_id":"ce4bgip2rcd13ifvqbb0","pricing_plan_id":"cebpf4jnsgd1na2vs0mg"},{"bike_id":"81558fda-cabb-4712-a0b4-77d75968d840","system_id":"levelo_inurba_marseille","lat":43.298037,"lon":5.381066,"is_reserved":false,"is_disabled":false,"rental_uris":{"android":"levelo://app?vid=81558fda-cabb-4712-a0b4-77d75968d840","ios":"levelo://app?vid=81558fda-cabb-4712-a0b4-77d75968d840"},"vehicle_type_id":"4","last_reported":1713985556,"current_range_meters":15200,"station_id":"ce4bgip2rcd13ifvqbb0","pricing_plan_id":"cebpf4jnsgd1na2vs0mg"},{"bike_id":"2af10267-1b97-4a3e-a2d9-bc98fa62de79","system_id":"levelo_inurba_marseille","lat":43.29795,"lon":5.38089,"is_reserved":false,"is_disabled":false,"rental_uris":{"android":"levelo://app?vid=2af10267-1b97-4a3e-a2d9-bc98fa62de79","ios":"levelo://app?vid=2af10267-1b97-4a3e-a2d9-bc98fa62de79"},"vehicle_type_id":"4","last_reported":1713985556,"current_range_meters":26400,"station_id":"ce4bgip2rcd13ifvqbb0","pricing_plan_id":"cebpf4jnsgd1na2vs0mg"},{"bike_id":"b9ea30e1-2ca8-404b-a9b7-e21fb67e22ff","system_id":"levelo_inurba_marseille","lat":43.297995,"lon":5.380984,"is_reserved":false,"is_disabled":false,"rental_uris":{"android":"levelo://app?vid=b9ea30e1-2ca8-404b-a9b7-e21fb67e22ff","ios":"levelo://app?vid=b9ea30e1-2ca8-404b-a9b7-e21fb67e22ff"},"vehicle_type_id":"4","last_reported":1713985556,"current_range_meters":30000,"station_id":"ce4bgip2rcd13ifvqbb0","pricing_plan_id":"cebpf4jnsgd1na2vs0mg"},{"bike_id":"3fe14f1c-b70c-4a66-8704-6e3e7444f610","system_id":"levelo_inurba_marseille","lat":43.298,"lon":5.381005,"is_reserved":false,"is_disabled":false,"rental_uris":{"android":"levelo://app?vid=3fe14f1c-b70c-4a66-8704-6e3e7444f610","ios":"levelo://app?vid=3fe14f1c-b70c-4a66-8704-6e3e7444f610"},"vehicle_type_id":"4","last_reported":1713985556,"current_range_meters":19600,"station_id":"ce4bgip2rcd13ifvqbb0","pricing_plan_id":"cebpf4jnsgd1na2vs0mg"},{"bike_id":"c3a56c2b-bd49-48cd-876a-68c47efea700","system_id":"levelo_inurba_marseille","lat":43.29796,"lon":5.38103,"is_reserved":false,"is_disabled":false,"rental_uris":{"android":"levelo://app?vid=c3a56c2b-bd49-48cd-876a-68c47efea700","ios":"levelo://app?vid=c3a56c2b-bd49-48cd-876a-68c47efea700"},"vehicle_type_id":"4","last_reported":1713985556,"current_range_meters":9200,"station_id":"ce4bgip2rcd13ifvqbb0","pricing_plan_id":"cebpf4jnsgd1na2vs0mg"},{"bike_id":"8454ad8f-f198-4e17-8632-35596701224a","system_id":"levelo_inurba_marseille","lat":43.30442,"lon":5.38887,"is_reserved":false,"is_disabled":false,"rental_uris":{"android":"levelo://app?vid=8454ad8f-f198-4e17-8632-35596701224a","ios":"levelo://app?vid=8454ad8f-f198-4e17-8632-35596701224a"},"vehicle_type_id":"4","last_reported":1713985556,"current_range_meters":16800,"station_id":"ce4bgk12rcd13ifvqbi0","pricing_plan_id":"cebpf4jnsgd1na2vs0mg"},{"bike_id":"7c2a91fc-05f5-4b35-a38b-f694233c531f","system_id":"levelo_inurba_marseille","lat":43.304274,"lon":5.388873,"is_reserved":false,"is_disabled":false,"rental_uris":{"android":"levelo://app?vid=7c2a91fc-05f5-4b35-a38b-f694233c531f","ios":"levelo://app?vid=7c2a91fc-05f5-4b35-a38b-f694233c531f"},"vehicle_type_id":"4","last_reported":1713985556,"current_range_meters":28000,"station_id":"ce4bgk12rcd13ifvqbi0","pricing_plan_id":"cebpf4jnsgd1na2vs0mg"},{"bike_id":"a9ce1464-dbcc-4f6b-b0ab-470d2811ef8d","system_id":"levelo_inurba_marseille","lat":43.304274,"lon":5.388873,"is_reserved":false,"is_disabled":false,"rental_uris":{"android":"levelo://app?vid=a9ce1464-dbcc-4f6b-b0ab-470d2811ef8d","ios":"levelo://app?vid=a9ce1464-dbcc-4f6b-b0ab-470d2811ef8d"},"vehicle_type_id":"4","last_reported":1713985556,"current_range_meters":28800,"station_id":"ce4bgk12rcd13ifvqbi0","pricing_plan_id":"cebpf4jnsgd1na2vs0mg"},{"bike_id":"349ac97a-a881-44cb-91bb-3afe60047d8c","system_id":"levelo_inurba_marseille","lat":43.304274,"lon":5.388873,"is_reserved":false,"is_disabled":false,"rental_uris":{"android":"levelo://app?vid=349ac97a-a881-44cb-91bb-3afe60047d8c","ios":"levelo://app?vid=349ac97a-a881-44cb-91bb-3afe60047d8c"},"vehicle_type_id":"4","last_reported":1713985556,"current_range_meters":4400,"station_id":"ce4bgk12rcd13ifvqbi0","pricing_plan_id":"cebpf4jnsgd1na2vs0mg"},{"bike_id":"2c8bfcb1-5f5d-40c4-8360-fe9969099080","system_id":"levelo_inurba_marseille","lat":43.297514,"lon":5.380332,"is_reserved":false,"is_disabled":false,"rental_uris":{"android":"levelo://app?vid=2c8bfcb1-5f5d-40c4-8360-fe9969099080","ios":"levelo://app?vid=2c8bfcb1-5f5d-40c4-8360-fe9969099080"},"vehicle_type_id":"4","last_reported":1713985556,"current_range_meters":0,"station_id":"ce4bgip2rcd13ifvqbb0","pricing_plan_id":"cebpf4jnsgd1na2vs0mg"},{"bike_id":"9b03e9d4-fe1a-464e-b2a1-5c464d431f82","system_id":"levelo_inurba_marseille","lat":43.297816,"lon":5.381079,"is_reserved":false,"is_disabled":false,"rental_uris":{"android":"levelo://app?vid=9b03e9d4-fe1a-464e-b2a1-5c464d431f82","ios":"levelo://app?vid=9b03e9d4-fe1a-464e-b2a1-5c464d431f82"},"vehicle_type_id":"4","last_reported":1713985556,"current_range_meters":10400,"station_id":"ce4bgip2rcd13ifvqbb0","pricing_plan_id":"cebpf4jnsgd1na2vs0mg"},{"bike_id":"54e458f7-03e7-4d49-b14b-245bee55a6b4","system_id":"levelo_inurba_marseille","lat":43.304274,"lon":5.388873,"is_reserved":false,"is_disabled":false,"rental_uris":{"android":"levelo://app?vid=54e458f7-03e7-4d49-b14b-245bee55a6b4","ios":"levelo://app?vid=54e458f7-03e7-4d49-b14b-245bee55a6b4"},"vehicle_type_id":"4","last_reported":1713985556,"current_range_meters":26800,"station_id":"ce4bgk12rcd13ifvqbi0","pricing_plan_id":"cebpf4jnsgd1na2vs0mg"},{"bike_id":"f676db58-0dcf-4c6e-a9e2-464b9f59c2a4","system_id":"levelo_inurba_marseille","lat":43.29786,"lon":5.38119,"is_reserved":false,"is_disabled":false,"rental_uris":{"android":"levelo://app?vid=f676db58-0dcf-4c6e-a9e2-464b9f59c2a4","ios":"levelo://app?vid=f676db58-0dcf-4c6e-a9e2-464b9f59c2a4"},"vehicle_type_id":"4","last_reported":1713985556,"current_range_meters":26800,"station_id":"ce4bgip2rcd13ifvqbb0","pricing_plan_id":"cebpf4jnsgd1na2vs0mg"},{"bike_id":"f058a92b-77fd-4794-ad89-f7d9c5f0f737","system_id":"levelo_inurba_marseille","lat":43.298037,"lon":5.381066,"is_reserved":false,"is_disabled":false,"rental_uris":{"android":"levelo://app?vid=f058a92b-77fd-4794-ad89-f7d9c5f0f737","ios":"levelo://app?vid=f058a92b-77fd-4794-ad89-f7d9c5f0f737"},"vehicle_type_id":"4","last_reported":1713985556,"current_range_meters":22400,"station_id":"ce4bgip2rcd13ifvqbb0","pricing_plan_id":"cebpf4jnsgd1na2vs0mg"},{"bike_id":"8cdc2e51-6108-48f1-9ee8-2e89450171b3","system_id":"levelo_inurba_marseille","lat":43.296263,"lon":5.377094,"is_reserved":false,"is_disabled":false,"rental_uris":{"android":"levelo://app?vid=8cdc2e51-6108-48f1-9ee8-2e89450171b3","ios":"levelo://app?vid=8cdc2e51-6108-48f1-9ee8-2e89450171b3"},"vehicle_type_id":"4","last_reported":1713985556,"current_range_meters":21600,"station_id":"ce4bgi92rcd13ifvqb90","pricing_plan_id":"cebpf4jnsgd1na2vs0mg"},{"bike_id":"49b7d4c3-b05b-4ed7-93f2-82d069ce4ad8","system_id":"levelo_inurba_marseille","lat":43.300852,"lon":5.390859,"is_reserved":false,"is_disabled":false,"rental_uris":{"android":"levelo://app?vid=49b7d4c3-b05b-4ed7-93f2-82d069ce4ad8","ios":"levelo://app?vid=49b7d4c3-b05b-4ed7-93f2-82d069ce4ad8"},"vehicle_type_id":"4","last_reported":1713985556,"current_range_meters":28400,"station_id":"ce4bh192rcd13ifvqdb0","pricing_plan_id":"cebpf4jnsgd1na2vs0mg"},{"bike_id":"b96ea672-886f-4fdf-8220-5cf411a275a3","system_id":"levelo_inurba_marseille","lat":43.283494,"lon":5.380945,"is_reserved":false,"is_disabled":false,"rental_uris":{"android":"levelo://app?vid=b96ea672-886f-4fdf-8220-5cf411a275a3","ios":"levelo://app?vid=b96ea672-886f-4fdf-8220-5cf411a275a3"},"vehicle_type_id":"4","last_reported":1713985556,"current_range_meters":17600,"station_id":"ce4bh412rcd13ifvqdr0","pricing_plan_id":"cebpf4jnsgd1na2vs0mg"},{"bike_id":"74919367-9d1e-4ff7-b891-3f24448fe8c6","system_id":"levelo_inurba_marseille","lat":43.304274,"lon":5.388873,"is_reserved":false,"is_disabled":false,"rental_uris":{"android":"levelo://app?vid=74919367-9d1e-4ff7-b891-3f24448fe8c6","ios":"levelo://app?vid=74919367-9d1e-4ff7-b891-3f24448fe8c6"},"vehicle_type_id":"4","last_reported":1713985556,"current_range_meters":11600,"station_id":"ce4bgk12rcd13ifvqbi0","pricing_plan_id":"cebpf4jnsgd1na2vs0mg"},{"bike_id":"19e66640-89f6-439d-93d0-d48228eac6cb","system_id":"levelo_inurba_marseille","lat":43.295196,"lon":5.39397,"is_reserved":false,"is_disabled":false,"rental_uris":{"android":"levelo://app?vid=19e66640-89f6-439d-93d0-d48228eac6cb","ios":"levelo://app?vid=19e66640-89f6-439d-93d0-d48228eac6cb"},"vehicle_type_id":"4","last_reported":1713985556,"current_range_meters":26000,"station_id":"ce4bh292rcd13ifvqdf0","pricing_plan_id":"cebpf4jnsgd1na2vs0mg"},{"bike_id":"0d0f809a-6c2e-4b64-9650-87b2f0dd9334","system_id":"levelo_inurba_marseille","lat":43.2963,"lon":5.380253,"is_reserved":false,"is_disabled":false,"rental_uris":{"android":"levelo://app?vid=0d0f809a-6c2e-4b64-9650-87b2f0dd9334","ios":"levelo://app?vid=0d0f809a-6c2e-4b64-9650-87b2f0dd9334"},"vehicle_type_id":"4","last_reported":1713985556,"current_range_meters":16800,"station_id":"ce4bgl12rcd13ifvqbo0","pricing_plan_id":"cebpf4jnsgd1na2vs0mg"},{"bike_id":"2e8cfebd-46e7-495b-9715-f35bdd0e280e","system_id":"levelo_inurba_marseille","lat":43.32367,"lon":5.388836,"is_reserved":false,"is_disabled":false,"rental_uris":{"android":"levelo://app?vid=2e8cfebd-46e7-495b-9715-f35bdd0e280e","ios":"levelo://app?vid=2e8cfebd-46e7-495b-9715-f35bdd0e280e"},"vehicle_type_id":"4","last_reported":1713985556,"current_range_meters":12000,"station_id":"ce4bhqp2rcd13ifvqhog","pricing_plan_id":"cebpf4jnsgd1na2vs0mg"},{"bike_id":"6eee273b-f2f7-42a7-b189-a5b0926a269f","system_id":"levelo_inurba_marseille","lat":43.32367,"lon":5.388836,"is_reserved":false,"is_disabled":false,"rental_uris":{"android":"levelo://app?vid=6eee273b-f2f7-42a7-b189-a5b0926a269f","ios":"levelo://app?vid=6eee273b-f2f7-42a7-b189-a5b0926a269f"},"vehicle_type_id":"4","last_reported":1713985556,"current_range_meters":400,"station_id":"ce4bhqp2rcd13ifvqhog","pricing_plan_id":"cebpf4jnsgd1na2vs0mg"},{"bike_id":"8dc43b4d-e2a2-4dad-aee5-90d3609e8eee","system_id":"levelo_inurba_marseille","lat":43.293259,"lon":5.371586,"is_reserved":false,"is_disabled":false,"rental_uris":{"android":"levelo://app?vid=8dc43b4d-e2a2-4dad-aee5-90d3609e8eee","ios":"levelo://app?vid=8dc43b4d-e2a2-4dad-aee5-90d3609e8eee"},"vehicle_type_id":"4","last_reported":1713985556,"current_range_meters":7600,"station_id":"ce4bgh92rcd13ifvqb40","pricing_plan_id":"cebpf4jnsgd1na2vs0mg"},{"bike_id":"48bf9c11-45d1-422f-a632-57bb9dd08d7d","system_id":"levelo_inurba_marseille","lat":43.29602,"lon":5.381084,"is_reserved":false,"is_disabled":false,"rental_uris":{"android":"levelo://app?vid=48bf9c11-45d1-422f-a632-57bb9dd08d7d","ios":"levelo://app?vid=48bf9c11-45d1-422f-a632-57bb9dd08d7d"},"vehicle_type_id":"4","last_reported":1713985556,"current_range_meters":4800,"station_id":"ce4bgl12rcd13ifvqbo0","pricing_plan_id":"cebpf4jnsgd1na2vs0mg"},{"bike_id":"0cf97176-74cc-47cd-af27-2ed2fa6bfa63","system_id":"levelo_inurba_marseille","lat":43.293009,"lon":5.374584,"is_reserved":false,"is_disabled":false,"rental_uris":{"android":"levelo://app?vid=0cf97176-74cc-47cd-af27-2ed2fa6bfa63","ios":"levelo://app?vid=0cf97176-74cc-47cd-af27-2ed2fa6bfa63"},"vehicle_type_id":"4","last_reported":1713985556,"current_range_meters":6400,"station_id":"ce4bgi12rcd13ifvqb70","pricing_plan_id":"cebpf4jnsgd1na2vs0mg"},{"bike_id":"5838daf9-9dae-4ba8-a216-b7cbf867bc4c","system_id":"levelo_inurba_marseille","lat":43.29602,"lon":5.381084,"is_reserved":false,"is_disabled":false,"rental_uris":{"android":"levelo://app?vid=5838daf9-9dae-4ba8-a216-b7cbf867bc4c","ios":"levelo://app?vid=5838daf9-9dae-4ba8-a216-b7cbf867bc4c"},"vehicle_type_id":"4","last_reported":1713985556,"current_range_meters":8000,"station_id":"ce4bgl12rcd13ifvqbo0","pricing_plan_id":"cebpf4jnsgd1na2vs0mg"},{"bike_id":"6f4dec09-1266-4b30-ae72-7bf90f8934ab","system_id":"levelo_inurba_marseille","lat":43.29605,"lon":5.38111,"is_reserved":false,"is_disabled":false,"rental_uris":{"android":"levelo://app?vid=6f4dec09-1266-4b30-ae72-7bf90f8934ab","ios":"levelo://app?vid=6f4dec09-1266-4b30-ae72-7bf90f8934ab"},"vehicle_type_id":"4","last_reported":1713985556,"current_range_meters":6400,"station_id":"ce4bgl12rcd13ifvqbo0","pricing_plan_id":"cebpf4jnsgd1na2vs0mg"},{"bike_id":"fd240842-03da-4857-a5c3-29391a393615","system_id":"levelo_inurba_marseille","lat":43.309589,"lon":5.390258,"is_reserved":false,"is_disabled":false,"rental_uris":{"android":"levelo://app?vid=fd240842-03da-4857-a5c3-29391a393615","ios":"levelo://app?vid=fd240842-03da-4857-a5c3-29391a393615"},"vehicle_type_id":"4","last_reported":1713985556,"current_range_meters":2400,"station_id":"ce4bgup2rcd13ifvqco0","pricing_plan_id":"cebpf4jnsgd1na2vs0mg"},{"bike_id":"d63c03b9-edc0-43bd-843d-91f0556eed6a","system_id":"levelo_inurba_marseille","lat":43.293259,"lon":5.371586,"is_reserved":false,"is_disabled":false,"rental_uris":{"android":"levelo://app?vid=d63c03b9-edc0-43bd-843d-91f0556eed6a","ios":"levelo://app?vid=d63c03b9-edc0-43bd-843d-91f0556eed6a"},"vehicle_type_id":"4","last_reported":1713985556,"current_range_meters":31600,"station_id":"ce4bgh92rcd13ifvqb40","pricing_plan_id":"cebpf4jnsgd1na2vs0mg"},{"bike_id":"be9a743d-3937-4ff1-b5ba-dab3f8c78263","system_id":"levelo_inurba_marseille","lat":43.293249,"lon":5.371578,"is_reserved":false,"is_disabled":false,"rental_uris":{"android":"levelo://app?vid=be9a743d-3937-4ff1-b5ba-dab3f8c78263","ios":"levelo://app?vid=be9a743d-3937-4ff1-b5ba-dab3f8c78263"},"vehicle_type_id":"4","last_reported":1713985556,"current_range_meters":13600,"station_id":"ce4bgh92rcd13ifvqb40","pricing_plan_id":"cebpf4jnsgd1na2vs0mg"},{"bike_id":"9876ba6a-f557-49c6-afe9-d3a2a8215ef8","system_id":"levelo_inurba_marseille","lat":43.293249,"lon":5.371578,"is_reserved":false,"is_disabled":false,"rental_uris":{"android":"levelo://app?vid=9876ba6a-f557-49c6-afe9-d3a2a8215ef8","ios":"levelo://app?vid=9876ba6a-f557-49c6-afe9-d3a2a8215ef8"},"vehicle_type_id":"4","last_reported":1713985556,"current_range_meters":14400,"station_id":"ce4bgh92rcd13ifvqb40","pricing_plan_id":"cebpf4jnsgd1na2vs0mg"},{"bike_id":"79b7ae42-2469-41cc-b049-d2e41181d368","system_id":"levelo_inurba_marseille","lat":43.293259,"lon":5.371586,"is_reserved":false,"is_disabled":false,"rental_uris":{"android":"levelo://app?vid=79b7ae42-2469-41cc-b049-d2e41181d368","ios":"levelo://app?vid=79b7ae42-2469-41cc-b049-d2e41181d368"},"vehicle_type_id":"4","last_reported":1713985556,"current_range_meters":8000,"station_id":"ce4bgh92rcd13ifvqb40","pricing_plan_id":"cebpf4jnsgd1na2vs0mg"},{"bike_id":"02993b33-9962-4813-9c40-46d0337c08d8","system_id":"levelo_inurba_marseille","lat":43.312239,"lon":5.368562,"is_reserved":false,"is_disabled":false,"rental_uris":{"android":"levelo://app?vid=02993b33-9962-4813-9c40-46d0337c08d8","ios":"levelo://app?vid=02993b33-9962-4813-9c40-46d0337c08d8"},"vehicle_type_id":"4","last_reported":1713985556,"current_range_meters":5600,"station_id":"ce4bgl92rcd13ifvqbq0","pricing_plan_id":"cebpf4jnsgd1na2vs0mg"},{"bike_id":"002a3e1a-e5da-4dca-8c7b-345f689b81ab","system_id":"levelo_inurba_marseille","lat":43.293259,"lon":5.371586,"is_reserved":false,"is_disabled":false,"rental_uris":{"android":"levelo://app?vid=002a3e1a-e5da-4dca-8c7b-345f689b81ab","ios":"levelo://app?vid=002a3e1a-e5da-4dca-8c7b-345f689b81ab"},"vehicle_type_id":"4","last_reported":1713985556,"current_range_meters":14800,"station_id":"ce4bgh92rcd13ifvqb40","pricing_plan_id":"cebpf4jnsgd1na2vs0mg"},{"bike_id":"0788c0c2-e9a1-42dd-a24f-205c3ed4c793","system_id":"levelo_inurba_marseille","lat":43.293259,"lon":5.371586,"is_reserved":false,"is_disabled":false,"rental_uris":{"android":"levelo://app?vid=0788c0c2-e9a1-42dd-a24f-205c3ed4c793","ios":"levelo://app?vid=0788c0c2-e9a1-42dd-a24f-205c3ed4c793"},"vehicle_type_id":"4","last_reported":1713985556,"current_range_meters":30000,"station_id":"ce4bgh92rcd13ifvqb40","pricing_plan_id":"cebpf4jnsgd1na2vs0mg"},{"bike_id":"3294f086-7799-44ae-a276-3c0dd5e216ea","system_id":"levelo_inurba_marseille","lat":43.293249,"lon":5.371578,"is_reserved":false,"is_disabled":false,"rental_uris":{"android":"levelo://app?vid=3294f086-7799-44ae-a276-3c0dd5e216ea","ios":"levelo://app?vid=3294f086-7799-44ae-a276-3c0dd5e216ea"},"vehicle_type_id":"4","last_reported":1713985556,"current_range_meters":15200,"station_id":"ce4bgh92rcd13ifvqb40","pricing_plan_id":"cebpf4jnsgd1na2vs0mg"},{"bike_id":"b9e62fbc-16f4-4dac-b029-d035e23b06c8","system_id":"levelo_inurba_marseille","lat":43.29275,"lon":5.36835,"is_reserved":false,"is_disabled":false,"rental_uris":{"android":"levelo://app?vid=b9e62fbc-16f4-4dac-b029-d035e23b06c8","ios":"levelo://app?vid=b9e62fbc-16f4-4dac-b029-d035e23b06c8"},"vehicle_type_id":"4","last_reported":1713985556,"current_range_meters":4000,"station_id":"ce4bhbp2rcd13ifvqesg","pricing_plan_id":"cebpf4jnsgd1na2vs0mg"},{"bike_id":"2311a26d-3f80-46bc-937e-0767c7fbba8c","system_id":"levelo_inurba_marseille","lat":43.292749,"lon":5.368402,"is_reserved":false,"is_disabled":false,"rental_uris":{"android":"levelo://app?vid=2311a26d-3f80-46bc-937e-0767c7fbba8c","ios":"levelo://app?vid=2311a26d-3f80-46bc-937e-0767c7fbba8c"},"vehicle_type_id":"4","last_reported":1713985556,"current_range_meters":28800,"station_id":"ce4bhbp2rcd13ifvqesg","pricing_plan_id":"cebpf4jnsgd1na2vs0mg"},{"bike_id":"3190e011-9d54-48c3-8df4-24c375041388","system_id":"levelo_inurba_marseille","lat":43.292749,"lon":5.368402,"is_reserved":false,"is_disabled":false,"rental_uris":{"android":"levelo://app?vid=3190e011-9d54-48c3-8df4-24c375041388","ios":"levelo://app?vid=3190e011-9d54-48c3-8df4-24c375041388"},"vehicle_type_id":"4","last_reported":1713985556,"current_range_meters":22800,"station_id":"ce4bhbp2rcd13ifvqesg","pricing_plan_id":"cebpf4jnsgd1na2vs0mg"},{"bike_id":"9c1ef004-ccc1-46c4-b9e4-ab78a6f226b3","system_id":"levelo_inurba_marseille","lat":43.29314,"lon":5.37454,"is_reserved":false,"is_disabled":false,"rental_uris":{"android":"levelo://app?vid=9c1ef004-ccc1-46c4-b9e4-ab78a6f226b3","ios":"levelo://app?vid=9c1ef004-ccc1-46c4-b9e4-ab78a6f226b3"},"vehicle_type_id":"4","last_reported":1713985556,"current_range_meters":20800,"station_id":"ce4bgi12rcd13ifvqb70","pricing_plan_id":"cebpf4jnsgd1na2vs0mg"},{"bike_id":"b9b71557-7b08-4786-a3e1-d89a0e9568dc","system_id":"levelo_inurba_marseille","lat":43.293009,"lon":5.374584,"is_reserved":false,"is_disabled":false,"rental_uris":{"android":"levelo://app?vid=b9b71557-7b08-4786-a3e1-d89a0e9568dc","ios":"levelo://app?vid=b9b71557-7b08-4786-a3e1-d89a0e9568dc"},"vehicle_type_id":"4","last_reported":1713985556,"current_range_meters":6400,"station_id":"ce4bgi12rcd13ifvqb70","pricing_plan_id":"cebpf4jnsgd1na2vs0mg"},{"bike_id":"848fdfa9-848e-437d-88e0-1fe7c2b1f5b8","system_id":"levelo_inurba_marseille","lat":43.295169,"lon":5.390426,"is_reserved":false,"is_disabled":false,"rental_uris":{"android":"levelo://app?vid=848fdfa9-848e-437d-88e0-1fe7c2b1f5b8","ios":"levelo://app?vid=848fdfa9-848e-437d-88e0-1fe7c2b1f5b8"},"vehicle_type_id":"4","last_reported":1713985556,"current_range_meters":12800,"station_id":"ce4bh3p2rcd13ifvqdp0","pricing_plan_id":"cebpf4jnsgd1na2vs0mg"},{"bike_id":"b3449f6d-8c5d-4a40-bb0e-23684d661d63","system_id":"levelo_inurba_marseille","lat":43.293009,"lon":5.374584,"is_reserved":false,"is_disabled":false,"rental_uris":{"android":"levelo://app?vid=b3449f6d-8c5d-4a40-bb0e-23684d661d63","ios":"levelo://app?vid=b3449f6d-8c5d-4a40-bb0e-23684d661d63"},"vehicle_type_id":"4","last_reported":1713985556,"current_range_meters":1200,"station_id":"ce4bgi12rcd13ifvqb70","pricing_plan_id":"cebpf4jnsgd1na2vs0mg"},{"bike_id":"97380465-54c2-4775-895e-9a4c7fd8c38d","system_id":"levelo_inurba_marseille","lat":43.303002,"lon":5.392142,"is_reserved":false,"is_disabled":false,"rental_uris":{"android":"levelo://app?vid=97380465-54c2-4775-895e-9a4c7fd8c38d","ios":"levelo://app?vid=97380465-54c2-4775-895e-9a4c7fd8c38d"},"vehicle_type_id":"4","last_reported":1713985556,"current_range_meters":25600,"station_id":"ce4bgkh2rcd13ifvqbk0","pricing_plan_id":"cebpf4jnsgd1na2vs0mg"},{"bike_id":"35b82586-d1a0-42a5-b2a4-969a16f8532e","system_id":"levelo_inurba_marseille","lat":43.293009,"lon":5.374584,"is_reserved":false,"is_disabled":false,"rental_uris":{"android":"levelo://app?vid=35b82586-d1a0-42a5-b2a4-969a16f8532e","ios":"levelo://app?vid=35b82586-d1a0-42a5-b2a4-969a16f8532e"},"vehicle_type_id":"4","last_reported":1713985556,"current_range_meters":9200,"station_id":"ce4bgi12rcd13ifvqb70","pricing_plan_id":"cebpf4jnsgd1na2vs0mg"},{"bike_id":"5d82be2e-3f17-43b9-9c92-8ac343601543","system_id":"levelo_inurba_marseille","lat":43.29302,"lon":5.37459,"is_reserved":false,"is_disabled":false,"rental_uris":{"android":"levelo://app?vid=5d82be2e-3f17-43b9-9c92-8ac343601543","ios":"levelo://app?vid=5d82be2e-3f17-43b9-9c92-8ac343601543"},"vehicle_type_id":"4","last_reported":1713985556,"current_range_meters":0,"station_id":"ce4bgi12rcd13ifvqb70","pricing_plan_id":"cebpf4jnsgd1na2vs0mg"},{"bike_id":"70b504c3-e226-4779-85d4-2aa63aa3ec79","system_id":"levelo_inurba_marseille","lat":43.293009,"lon":5.374584,"is_reserved":false,"is_disabled":false,"rental_uris":{"android":"levelo://app?vid=70b504c3-e226-4779-85d4-2aa63aa3ec79","ios":"levelo://app?vid=70b504c3-e226-4779-85d4-2aa63aa3ec79"},"vehicle_type_id":"4","last_reported":1713985556,"current_range_meters":0,"station_id":"ce4bgi12rcd13ifvqb70","pricing_plan_id":"cebpf4jnsgd1na2vs0mg"},{"bike_id":"97a06a4c-831d-4401-8d2b-e793ec21c4f8","system_id":"levelo_inurba_marseille","lat":43.293009,"lon":5.374584,"is_reserved":false,"is_disabled":false,"rental_uris":{"android":"levelo://app?vid=97a06a4c-831d-4401-8d2b-e793ec21c4f8","ios":"levelo://app?vid=97a06a4c-831d-4401-8d2b-e793ec21c4f8"},"vehicle_type_id":"4","last_reported":1713985556,"current_range_meters":6800,"station_id":"ce4bgi12rcd13ifvqb70","pricing_plan_id":"cebpf4jnsgd1na2vs0mg"},{"bike_id":"4e80bd65-489a-4fb3-800d-9fcae8d400fb","system_id":"levelo_inurba_marseille","lat":43.294162,"lon":5.386292,"is_reserved":false,"is_disabled":false,"rental_uris":{"android":"levelo://app?vid=4e80bd65-489a-4fb3-800d-9fcae8d400fb","ios":"levelo://app?vid=4e80bd65-489a-4fb3-800d-9fcae8d400fb"},"vehicle_type_id":"4","last_reported":1713985556,"current_range_meters":23200,"station_id":"ce4bh2h2rcd13ifvqdh0","pricing_plan_id":"cebpf4jnsgd1na2vs0mg"},{"bike_id":"adcfac25-0054-490b-8fba-619add2b7fc3","system_id":"levelo_inurba_marseille","lat":43.293009,"lon":5.374584,"is_reserved":false,"is_disabled":false,"rental_uris":{"android":"levelo://app?vid=adcfac25-0054-490b-8fba-619add2b7fc3","ios":"levelo://app?vid=adcfac25-0054-490b-8fba-619add2b7fc3"},"vehicle_type_id":"4","last_reported":1713985556,"current_range_meters":15600,"station_id":"ce4bgi12rcd13ifvqb70","pricing_plan_id":"cebpf4jnsgd1na2vs0mg"},{"bike_id":"7ae1b425-869a-40c4-8c2c-efbc96073b61","system_id":"levelo_inurba_marseille","lat":43.293009,"lon":5.374584,"is_reserved":false,"is_disabled":false,"rental_uris":{"android":"levelo://app?vid=7ae1b425-869a-40c4-8c2c-efbc96073b61","ios":"levelo://app?vid=7ae1b425-869a-40c4-8c2c-efbc96073b61"},"vehicle_type_id":"4","last_reported":1713985556,"current_range_meters":0,"station_id":"ce4bgi12rcd13ifvqb70","pricing_plan_id":"cebpf4jnsgd1na2vs0mg"},{"bike_id":"5c457147-c07a-47c1-884b-8ec0c22b4931","system_id":"levelo_inurba_marseille","lat":43.305994,"lon":5.393687,"is_reserved":false,"is_disabled":false,"rental_uris":{"android":"levelo://app?vid=5c457147-c07a-47c1-884b-8ec0c22b4931","ios":"levelo://app?vid=5c457147-c07a-47c1-884b-8ec0c22b4931"},"vehicle_type_id":"4","last_reported":1713985556,"current_range_meters":10800,"station_id":"ce4bh0p2rcd13ifvqd80","pricing_plan_id":"cebpf4jnsgd1na2vs0mg"},{"bike_id":"3833a1d2-b81b-4241-bda5-1df7efe9c843","system_id":"levelo_inurba_marseille","lat":43.303002,"lon":5.392142,"is_reserved":false,"is_disabled":false,"rental_uris":{"android":"levelo://app?vid=3833a1d2-b81b-4241-bda5-1df7efe9c843","ios":"levelo://app?vid=3833a1d2-b81b-4241-bda5-1df7efe9c843"},"vehicle_type_id":"4","last_reported":1713985556,"current_range_meters":10000,"station_id":"ce4bgkh2rcd13ifvqbk0","pricing_plan_id":"cebpf4jnsgd1na2vs0mg"},{"bike_id":"f62a1bfa-b3cd-476f-9b07-3b3519e73ad6","system_id":"levelo_inurba_marseille","lat":43.303002,"lon":5.392142,"is_reserved":false,"is_disabled":false,"rental_uris":{"android":"levelo://app?vid=f62a1bfa-b3cd-476f-9b07-3b3519e73ad6","ios":"levelo://app?vid=f62a1bfa-b3cd-476f-9b07-3b3519e73ad6"},"vehicle_type_id":"4","last_reported":1713985556,"current_range_meters":19600,"station_id":"ce4bgkh2rcd13ifvqbk0","pricing_plan_id":"cebpf4jnsgd1na2vs0mg"},{"bike_id":"3c4f4ca8-eabd-4e0e-b079-def381be631c","system_id":"levelo_inurba_marseille","lat":43.2936,"lon":5.37835,"is_reserved":false,"is_disabled":false,"rental_uris":{"android":"levelo://app?vid=3c4f4ca8-eabd-4e0e-b079-def381be631c","ios":"levelo://app?vid=3c4f4ca8-eabd-4e0e-b079-def381be631c"},"vehicle_type_id":"4","last_reported":1713985556,"current_range_meters":1600,"station_id":"ce4bgjh2rcd13ifvqbf0","pricing_plan_id":"cebpf4jnsgd1na2vs0mg"},{"bike_id":"92c71ca3-4a7e-4967-b495-119e80b8e855","system_id":"levelo_inurba_marseille","lat":43.300852,"lon":5.390859,"is_reserved":false,"is_disabled":false,"rental_uris":{"android":"levelo://app?vid=92c71ca3-4a7e-4967-b495-119e80b8e855","ios":"levelo://app?vid=92c71ca3-4a7e-4967-b495-119e80b8e855"},"vehicle_type_id":"4","last_reported":1713985556,"current_range_meters":9600,"station_id":"ce4bh192rcd13ifvqdb0","pricing_plan_id":"cebpf4jnsgd1na2vs0mg"},{"bike_id":"532053a7-24da-41de-b65a-18ef29162fd0","system_id":"levelo_inurba_marseille","lat":43.298939,"lon":5.388547,"is_reserved":false,"is_disabled":false,"rental_uris":{"android":"levelo://app?vid=532053a7-24da-41de-b65a-18ef29162fd0","ios":"levelo://app?vid=532053a7-24da-41de-b65a-18ef29162fd0"},"vehicle_type_id":"4","last_reported":1713985556,"current_range_meters":23200,"station_id":"ce4bh392rcd13ifvqdl0","pricing_plan_id":"cebpf4jnsgd1na2vs0mg"},{"bike_id":"bd2de9f1-76eb-4954-9f42-81edbb9d81df","system_id":"levelo_inurba_marseille","lat":43.30085,"lon":5.390856,"is_reserved":false,"is_disabled":false,"rental_uris":{"android":"levelo://app?vid=bd2de9f1-76eb-4954-9f42-81edbb9d81df","ios":"levelo://app?vid=bd2de9f1-76eb-4954-9f42-81edbb9d81df"},"vehicle_type_id":"4","last_reported":1713985556,"current_range_meters":31200,"station_id":"ce4bh192rcd13ifvqdb0","pricing_plan_id":"cebpf4jnsgd1na2vs0mg"},{"bike_id":"de10e35e-f56f-4965-ab8c-6f9cf770751b","system_id":"levelo_inurba_marseille","lat":43.29227,"lon":5.36077,"is_reserved":false,"is_disabled":false,"rental_uris":{"android":"levelo://app?vid=de10e35e-f56f-4965-ab8c-6f9cf770751b","ios":"levelo://app?vid=de10e35e-f56f-4965-ab8c-6f9cf770751b"},"vehicle_type_id":"4","last_reported":1713985556,"current_range_meters":0,"station_id":"ce4bhbh2rcd13ifvqeqg","pricing_plan_id":"cebpf4jnsgd1na2vs0mg"},{"bike_id":"5019467a-44df-4ec4-8e67-d31b973d1ac4","system_id":"levelo_inurba_marseille","lat":43.292311,"lon":5.360731,"is_reserved":false,"is_disabled":false,"rental_uris":{"android":"levelo://app?vid=5019467a-44df-4ec4-8e67-d31b973d1ac4","ios":"levelo://app?vid=5019467a-44df-4ec4-8e67-d31b973d1ac4"},"vehicle_type_id":"4","last_reported":1713985556,"current_range_meters":29200,"station_id":"ce4bhbh2rcd13ifvqeqg","pricing_plan_id":"cebpf4jnsgd1na2vs0mg"},{"bike_id":"58d296bc-e6b9-4901-8667-28ec8a432a0c","system_id":"levelo_inurba_marseille","lat":43.292311,"lon":5.360731,"is_reserved":false,"is_disabled":false,"rental_uris":{"android":"levelo://app?vid=58d296bc-e6b9-4901-8667-28ec8a432a0c","ios":"levelo://app?vid=58d296bc-e6b9-4901-8667-28ec8a432a0c"},"vehicle_type_id":"4","last_reported":1713985556,"current_range_meters":28800,"station_id":"ce4bhbh2rcd13ifvqeqg","pricing_plan_id":"cebpf4jnsgd1na2vs0mg"},{"bike_id":"6af279aa-07df-40ea-beef-f245f90ff211","system_id":"levelo_inurba_marseille","lat":43.292311,"lon":5.360731,"is_reserved":false,"is_disabled":false,"rental_uris":{"android":"levelo://app?vid=6af279aa-07df-40ea-beef-f245f90ff211","ios":"levelo://app?vid=6af279aa-07df-40ea-beef-f245f90ff211"},"vehicle_type_id":"4","last_reported":1713985556,"current_range_meters":15600,"station_id":"ce4bhbh2rcd13ifvqeqg","pricing_plan_id":"cebpf4jnsgd1na2vs0mg"},{"bike_id":"e3fd4506-124a-46a6-9912-f93421c3efeb","system_id":"levelo_inurba_marseille","lat":43.28039,"lon":5.369297,"is_reserved":false,"is_disabled":false,"rental_uris":{"android":"levelo://app?vid=e3fd4506-124a-46a6-9912-f93421c3efeb","ios":"levelo://app?vid=e3fd4506-124a-46a6-9912-f93421c3efeb"},"vehicle_type_id":"4","last_reported":1713985556,"current_range_meters":11600,"station_id":"ce4bha12rcd13ifvqef0","pricing_plan_id":"cebpf4jnsgd1na2vs0mg"},{"bike_id":"c39ff52f-5e90-49ae-99b5-6c39b50712b8","system_id":"levelo_inurba_marseille","lat":43.300883,"lon":5.390737,"is_reserved":false,"is_disabled":false,"rental_uris":{"android":"levelo://app?vid=c39ff52f-5e90-49ae-99b5-6c39b50712b8","ios":"levelo://app?vid=c39ff52f-5e90-49ae-99b5-6c39b50712b8"},"vehicle_type_id":"4","last_reported":1713985556,"current_range_meters":8000,"station_id":"ce4bh192rcd13ifvqdb0","pricing_plan_id":"cebpf4jnsgd1na2vs0mg"},{"bike_id":"7f69524c-cadc-43f5-b6d1-9060ec4517a2","system_id":"levelo_inurba_marseille","lat":43.273125,"lon":5.390731,"is_reserved":false,"is_disabled":false,"rental_uris":{"android":"levelo://app?vid=7f69524c-cadc-43f5-b6d1-9060ec4517a2","ios":"levelo://app?vid=7f69524c-cadc-43f5-b6d1-9060ec4517a2"},"vehicle_type_id":"4","last_reported":1713985556,"current_range_meters":8800,"station_id":"ce4bhgp2rcd13ifvqfe0","pricing_plan_id":"cebpf4jnsgd1na2vs0mg"},{"bike_id":"69c7607e-3a38-4db3-9017-af22f724ab79","system_id":"levelo_inurba_marseille","lat":43.292311,"lon":5.360731,"is_reserved":false,"is_disabled":false,"rental_uris":{"android":"levelo://app?vid=69c7607e-3a38-4db3-9017-af22f724ab79","ios":"levelo://app?vid=69c7607e-3a38-4db3-9017-af22f724ab79"},"vehicle_type_id":"4","last_reported":1713985556,"current_range_meters":30400,"station_id":"ce4bhbh2rcd13ifvqeqg","pricing_plan_id":"cebpf4jnsgd1na2vs0mg"},{"bike_id":"18960c1d-17e8-4370-b372-bff26433da12","system_id":"levelo_inurba_marseille","lat":43.292311,"lon":5.360731,"is_reserved":false,"is_disabled":false,"rental_uris":{"android":"levelo://app?vid=18960c1d-17e8-4370-b372-bff26433da12","ios":"levelo://app?vid=18960c1d-17e8-4370-b372-bff26433da12"},"vehicle_type_id":"4","last_reported":1713985556,"current_range_meters":12000,"station_id":"ce4bhbh2rcd13ifvqeqg","pricing_plan_id":"cebpf4jnsgd1na2vs0mg"},{"bike_id":"e366f7e4-72c0-4aaa-a140-4bef82b9c6ce","system_id":"levelo_inurba_marseille","lat":43.298764,"lon":5.388973,"is_reserved":false,"is_disabled":false,"rental_uris":{"android":"levelo://app?vid=e366f7e4-72c0-4aaa-a140-4bef82b9c6ce","ios":"levelo://app?vid=e366f7e4-72c0-4aaa-a140-4bef82b9c6ce"},"vehicle_type_id":"4","last_reported":1713985556,"current_range_meters":4800,"station_id":"ce4bh392rcd13ifvqdl0","pricing_plan_id":"cebpf4jnsgd1na2vs0mg"},{"bike_id":"1c9b5e4a-3f8f-47fd-a3d2-49ced7fcc7ae","system_id":"levelo_inurba_marseille","lat":43.298905,"lon":5.388966,"is_reserved":false,"is_disabled":false,"rental_uris":{"android":"levelo://app?vid=1c9b5e4a-3f8f-47fd-a3d2-49ced7fcc7ae","ios":"levelo://app?vid=1c9b5e4a-3f8f-47fd-a3d2-49ced7fcc7ae"},"vehicle_type_id":"4","last_reported":1713985556,"current_range_meters":12400,"station_id":"ce4bh392rcd13ifvqdl0","pricing_plan_id":"cebpf4jnsgd1na2vs0mg"},{"bike_id":"4ae2cbb1-e979-4392-81a4-643ee5325b69","system_id":"levelo_inurba_marseille","lat":43.29885,"lon":5.38901,"is_reserved":false,"is_disabled":false,"rental_uris":{"android":"levelo://app?vid=4ae2cbb1-e979-4392-81a4-643ee5325b69","ios":"levelo://app?vid=4ae2cbb1-e979-4392-81a4-643ee5325b69"},"vehicle_type_id":"4","last_reported":1713985556,"current_range_meters":28000,"station_id":"ce4bh392rcd13ifvqdl0","pricing_plan_id":"cebpf4jnsgd1na2vs0mg"},{"bike_id":"8152205b-23ed-4696-9afc-09923b9062c0","system_id":"levelo_inurba_marseille","lat":43.298764,"lon":5.388973,"is_reserved":false,"is_disabled":false,"rental_uris":{"android":"levelo://app?vid=8152205b-23ed-4696-9afc-09923b9062c0","ios":"levelo://app?vid=8152205b-23ed-4696-9afc-09923b9062c0"},"vehicle_type_id":"4","last_reported":1713985556,"current_range_meters":26000,"station_id":"ce4bh392rcd13ifvqdl0","pricing_plan_id":"cebpf4jnsgd1na2vs0mg"},{"bike_id":"98a43146-e9fe-4468-a3df-2f39f959fae5","system_id":"levelo_inurba_marseille","lat":43.298764,"lon":5.388973,"is_reserved":false,"is_disabled":false,"rental_uris":{"android":"levelo://app?vid=98a43146-e9fe-4468-a3df-2f39f959fae5","ios":"levelo://app?vid=98a43146-e9fe-4468-a3df-2f39f959fae5"},"vehicle_type_id":"4","last_reported":1713985556,"current_range_meters":23200,"station_id":"ce4bh392rcd13ifvqdl0","pricing_plan_id":"cebpf4jnsgd1na2vs0mg"},{"bike_id":"e4a2f833-d1b7-49a7-94e9-386f8d2235ee","system_id":"levelo_inurba_marseille","lat":43.29885,"lon":5.38907,"is_reserved":false,"is_disabled":false,"rental_uris":{"android":"levelo://app?vid=e4a2f833-d1b7-49a7-94e9-386f8d2235ee","ios":"levelo://app?vid=e4a2f833-d1b7-49a7-94e9-386f8d2235ee"},"vehicle_type_id":"4","last_reported":1713985556,"current_range_meters":20800,"station_id":"ce4bh392rcd13ifvqdl0","pricing_plan_id":"cebpf4jnsgd1na2vs0mg"},{"bike_id":"3abefe89-f5a0-4803-a466-95ddc2cf9b0a","system_id":"levelo_inurba_marseille","lat":43.29883,"lon":5.38906,"is_reserved":false,"is_disabled":false,"rental_uris":{"android":"levelo://app?vid=3abefe89-f5a0-4803-a466-95ddc2cf9b0a","ios":"levelo://app?vid=3abefe89-f5a0-4803-a466-95ddc2cf9b0a"},"vehicle_type_id":"4","last_reported":1713985556,"current_range_meters":10400,"station_id":"ce4bh392rcd13ifvqdl0","pricing_plan_id":"cebpf4jnsgd1na2vs0mg"},{"bike_id":"3c956c24-d10a-4f5b-9ffd-3bf9297db600","system_id":"levelo_inurba_marseille","lat":43.29883,"lon":5.38908,"is_reserved":false,"is_disabled":false,"rental_uris":{"android":"levelo://app?vid=3c956c24-d10a-4f5b-9ffd-3bf9297db600","ios":"levelo://app?vid=3c956c24-d10a-4f5b-9ffd-3bf9297db600"},"vehicle_type_id":"4","last_reported":1713985556,"current_range_meters":14800,"station_id":"ce4bh392rcd13ifvqdl0","pricing_plan_id":"cebpf4jnsgd1na2vs0mg"},{"bike_id":"e7453f34-e1d5-4fe4-9df6-47281bee97c6","system_id":"levelo_inurba_marseille","lat":43.298764,"lon":5.388973,"is_reserved":false,"is_disabled":false,"rental_uris":{"android":"levelo://app?vid=e7453f34-e1d5-4fe4-9df6-47281bee97c6","ios":"levelo://app?vid=e7453f34-e1d5-4fe4-9df6-47281bee97c6"},"vehicle_type_id":"4","last_reported":1713985556,"current_range_meters":27200,"station_id":"ce4bh392rcd13ifvqdl0","pricing_plan_id":"cebpf4jnsgd1na2vs0mg"},{"bike_id":"1973dc6f-56fb-4611-aa12-cf038f812190","system_id":"levelo_inurba_marseille","lat":43.291671,"lon":5.371575,"is_reserved":false,"is_disabled":false,"rental_uris":{"android":"levelo://app?vid=1973dc6f-56fb-4611-aa12-cf038f812190","ios":"levelo://app?vid=1973dc6f-56fb-4611-aa12-cf038f812190"},"vehicle_type_id":"4","last_reported":1713985556,"current_range_meters":17200,"station_id":"ce4bha92rcd13ifvqeh0","pricing_plan_id":"cebpf4jnsgd1na2vs0mg"},{"bike_id":"c7021719-7316-4037-908e-62d6cfd26306","system_id":"levelo_inurba_marseille","lat":43.29876,"lon":5.38904,"is_reserved":false,"is_disabled":false,"rental_uris":{"android":"levelo://app?vid=c7021719-7316-4037-908e-62d6cfd26306","ios":"levelo://app?vid=c7021719-7316-4037-908e-62d6cfd26306"},"vehicle_type_id":"4","last_reported":1713985556,"current_range_meters":8000,"station_id":"ce4bh392rcd13ifvqdl0","pricing_plan_id":"cebpf4jnsgd1na2vs0mg"},{"bike_id":"812ae96e-d1a3-4433-acaa-4118defcc53f","system_id":"levelo_inurba_marseille","lat":43.298764,"lon":5.388973,"is_reserved":false,"is_disabled":false,"rental_uris":{"android":"levelo://app?vid=812ae96e-d1a3-4433-acaa-4118defcc53f","ios":"levelo://app?vid=812ae96e-d1a3-4433-acaa-4118defcc53f"},"vehicle_type_id":"4","last_reported":1713985556,"current_range_meters":25200,"station_id":"ce4bh392rcd13ifvqdl0","pricing_plan_id":"cebpf4jnsgd1na2vs0mg"},{"bike_id":"f748ddbc-3406-4ab7-b3a5-814f112a2aa2","system_id":"levelo_inurba_marseille","lat":43.298764,"lon":5.388973,"is_reserved":false,"is_disabled":false,"rental_uris":{"android":"levelo://app?vid=f748ddbc-3406-4ab7-b3a5-814f112a2aa2","ios":"levelo://app?vid=f748ddbc-3406-4ab7-b3a5-814f112a2aa2"},"vehicle_type_id":"4","last_reported":1713985556,"current_range_meters":11200,"station_id":"ce4bh392rcd13ifvqdl0","pricing_plan_id":"cebpf4jnsgd1na2vs0mg"},{"bike_id":"10fd70d2-1717-4691-bacc-36c4f983d35a","system_id":"levelo_inurba_marseille","lat":43.291671,"lon":5.371575,"is_reserved":false,"is_disabled":false,"rental_uris":{"android":"levelo://app?vid=10fd70d2-1717-4691-bacc-36c4f983d35a","ios":"levelo://app?vid=10fd70d2-1717-4691-bacc-36c4f983d35a"},"vehicle_type_id":"4","last_reported":1713985556,"current_range_meters":18000,"station_id":"ce4bha92rcd13ifvqeh0","pricing_plan_id":"cebpf4jnsgd1na2vs0mg"},{"bike_id":"90d2b066-ee38-4ccf-ae5f-492350112101","system_id":"levelo_inurba_marseille","lat":43.291671,"lon":5.371575,"is_reserved":false,"is_disabled":false,"rental_uris":{"android":"levelo://app?vid=90d2b066-ee38-4ccf-ae5f-492350112101","ios":"levelo://app?vid=90d2b066-ee38-4ccf-ae5f-492350112101"},"vehicle_type_id":"4","last_reported":1713985556,"current_range_meters":7600,"station_id":"ce4bha92rcd13ifvqeh0","pricing_plan_id":"cebpf4jnsgd1na2vs0mg"},{"bike_id":"caab63ac-79cd-4959-b674-090a7ca7ec98","system_id":"levelo_inurba_marseille","lat":43.291671,"lon":5.371575,"is_reserved":false,"is_disabled":false,"rental_uris":{"android":"levelo://app?vid=caab63ac-79cd-4959-b674-090a7ca7ec98","ios":"levelo://app?vid=caab63ac-79cd-4959-b674-090a7ca7ec98"},"vehicle_type_id":"4","last_reported":1713985556,"current_range_meters":18800,"station_id":"ce4bha92rcd13ifvqeh0","pricing_plan_id":"cebpf4jnsgd1na2vs0mg"},{"bike_id":"b16389dc-5033-4df4-b7c8-e88b83722a58","system_id":"levelo_inurba_marseille","lat":43.29203,"lon":5.35886,"is_reserved":false,"is_disabled":false,"rental_uris":{"android":"levelo://app?vid=b16389dc-5033-4df4-b7c8-e88b83722a58","ios":"levelo://app?vid=b16389dc-5033-4df4-b7c8-e88b83722a58"},"vehicle_type_id":"4","last_reported":1713985556,"current_range_meters":17200,"station_id":"","pricing_plan_id":"cebpf4jnsgd1na2vs0mg"},{"bike_id":"ce67a636-89a2-4436-bd37-4adc0ebc7649","system_id":"levelo_inurba_marseille","lat":43.292005,"lon":5.357875,"is_reserved":false,"is_disabled":false,"rental_uris":{"android":"levelo://app?vid=ce67a636-89a2-4436-bd37-4adc0ebc7649","ios":"levelo://app?vid=ce67a636-89a2-4436-bd37-4adc0ebc7649"},"vehicle_type_id":"4","last_reported":1713985556,"current_range_meters":22800,"station_id":"ce4bhb12rcd13ifvqel0","pricing_plan_id":"cebpf4jnsgd1na2vs0mg"},{"bike_id":"2e19ed1e-7268-4784-bd28-0785f1b8f74f","system_id":"levelo_inurba_marseille","lat":43.292,"lon":5.35814,"is_reserved":false,"is_disabled":false,"rental_uris":{"android":"levelo://app?vid=2e19ed1e-7268-4784-bd28-0785f1b8f74f","ios":"levelo://app?vid=2e19ed1e-7268-4784-bd28-0785f1b8f74f"},"vehicle_type_id":"4","last_reported":1713985556,"current_range_meters":0,"station_id":"ce4bhb12rcd13ifvqel0","pricing_plan_id":"cebpf4jnsgd1na2vs0mg"},{"bike_id":"81899fb2-da2a-41ce-a98d-408591b6cbd9","system_id":"levelo_inurba_marseille","lat":43.313291,"lon":5.396838,"is_reserved":false,"is_disabled":false,"rental_uris":{"android":"levelo://app?vid=81899fb2-da2a-41ce-a98d-408591b6cbd9","ios":"levelo://app?vid=81899fb2-da2a-41ce-a98d-408591b6cbd9"},"vehicle_type_id":"4","last_reported":1713985556,"current_range_meters":28400,"station_id":"ce4bgvp2rcd13ifvqcu0","pricing_plan_id":"cebpf4jnsgd1na2vs0mg"},{"bike_id":"6c3cc577-56a8-4445-af14-f5653040b27b","system_id":"levelo_inurba_marseille","lat":43.289743,"lon":5.378304,"is_reserved":false,"is_disabled":false,"rental_uris":{"android":"levelo://app?vid=6c3cc577-56a8-4445-af14-f5653040b27b","ios":"levelo://app?vid=6c3cc577-56a8-4445-af14-f5653040b27b"},"vehicle_type_id":"4","last_reported":1713985556,"current_range_meters":15600,"station_id":"ce4bh9p2rcd13ifvqed0","pricing_plan_id":"cebpf4jnsgd1na2vs0mg"},{"bike_id":"1004d042-9599-432a-8492-c22f5d9a763c","system_id":"levelo_inurba_marseille","lat":43.29194,"lon":5.358141,"is_reserved":false,"is_disabled":false,"rental_uris":{"android":"levelo://app?vid=1004d042-9599-432a-8492-c22f5d9a763c","ios":"levelo://app?vid=1004d042-9599-432a-8492-c22f5d9a763c"},"vehicle_type_id":"4","last_reported":1713985556,"current_range_meters":22000,"station_id":"ce4bhb12rcd13ifvqel0","pricing_plan_id":"cebpf4jnsgd1na2vs0mg"},{"bike_id":"e541da65-93a5-4d81-969d-3aa8cef842d1","system_id":"levelo_inurba_marseille","lat":43.291994,"lon":5.357886,"is_reserved":false,"is_disabled":false,"rental_uris":{"android":"levelo://app?vid=e541da65-93a5-4d81-969d-3aa8cef842d1","ios":"levelo://app?vid=e541da65-93a5-4d81-969d-3aa8cef842d1"},"vehicle_type_id":"4","last_reported":1713985556,"current_range_meters":14400,"station_id":"ce4bhb12rcd13ifvqel0","pricing_plan_id":"cebpf4jnsgd1na2vs0mg"},{"bike_id":"13672082-55f1-473d-857f-09fc7e860415","system_id":"levelo_inurba_marseille","lat":43.313291,"lon":5.396838,"is_reserved":false,"is_disabled":false,"rental_uris":{"android":"levelo://app?vid=13672082-55f1-473d-857f-09fc7e860415","ios":"levelo://app?vid=13672082-55f1-473d-857f-09fc7e860415"},"vehicle_type_id":"4","last_reported":1713985556,"current_range_meters":21200,"station_id":"ce4bgvp2rcd13ifvqcu0","pricing_plan_id":"cebpf4jnsgd1na2vs0mg"},{"bike_id":"43bfee70-948c-429a-901f-137129ba2907","system_id":"levelo_inurba_marseille","lat":43.291994,"lon":5.357886,"is_reserved":false,"is_disabled":false,"rental_uris":{"android":"levelo://app?vid=43bfee70-948c-429a-901f-137129ba2907","ios":"levelo://app?vid=43bfee70-948c-429a-901f-137129ba2907"},"vehicle_type_id":"4","last_reported":1713985556,"current_range_meters":31200,"station_id":"ce4bhb12rcd13ifvqel0","pricing_plan_id":"cebpf4jnsgd1na2vs0mg"},{"bike_id":"38308eda-6034-428c-bf7e-d4b9bfd5842a","system_id":"levelo_inurba_marseille","lat":43.292005,"lon":5.357875,"is_reserved":false,"is_disabled":false,"rental_uris":{"android":"levelo://app?vid=38308eda-6034-428c-bf7e-d4b9bfd5842a","ios":"levelo://app?vid=38308eda-6034-428c-bf7e-d4b9bfd5842a"},"vehicle_type_id":"4","last_reported":1713985556,"current_range_meters":29600,"station_id":"ce4bhb12rcd13ifvqel0","pricing_plan_id":"cebpf4jnsgd1na2vs0mg"},{"bike_id":"6a3e5ee4-3098-4985-9da5-c681d03fc84d","system_id":"levelo_inurba_marseille","lat":43.291994,"lon":5.357886,"is_reserved":false,"is_disabled":false,"rental_uris":{"android":"levelo://app?vid=6a3e5ee4-3098-4985-9da5-c681d03fc84d","ios":"levelo://app?vid=6a3e5ee4-3098-4985-9da5-c681d03fc84d"},"vehicle_type_id":"4","last_reported":1713985556,"current_range_meters":0,"station_id":"ce4bhb12rcd13ifvqel0","pricing_plan_id":"cebpf4jnsgd1na2vs0mg"},{"bike_id":"2105827c-3251-43cd-9bf3-e202c97fe6a1","system_id":"levelo_inurba_marseille","lat":43.291994,"lon":5.357886,"is_reserved":false,"is_disabled":false,"rental_uris":{"android":"levelo://app?vid=2105827c-3251-43cd-9bf3-e202c97fe6a1","ios":"levelo://app?vid=2105827c-3251-43cd-9bf3-e202c97fe6a1"},"vehicle_type_id":"4","last_reported":1713985556,"current_range_meters":12000,"station_id":"ce4bhb12rcd13ifvqel0","pricing_plan_id":"cebpf4jnsgd1na2vs0mg"},{"bike_id":"b8a8d3ba-dfc5-4a35-b28d-aa75f897e30b","system_id":"levelo_inurba_marseille","lat":43.292005,"lon":5.357875,"is_reserved":false,"is_disabled":false,"rental_uris":{"android":"levelo://app?vid=b8a8d3ba-dfc5-4a35-b28d-aa75f897e30b","ios":"levelo://app?vid=b8a8d3ba-dfc5-4a35-b28d-aa75f897e30b"},"vehicle_type_id":"4","last_reported":1713985556,"current_range_meters":13200,"station_id":"ce4bhb12rcd13ifvqel0","pricing_plan_id":"cebpf4jnsgd1na2vs0mg"},{"bike_id":"e86d1b7e-c627-43a2-8848-a2a2d87d6769","system_id":"levelo_inurba_marseille","lat":43.291944,"lon":5.357996,"is_reserved":false,"is_disabled":false,"rental_uris":{"android":"levelo://app?vid=e86d1b7e-c627-43a2-8848-a2a2d87d6769","ios":"levelo://app?vid=e86d1b7e-c627-43a2-8848-a2a2d87d6769"},"vehicle_type_id":"4","last_reported":1713985556,"current_range_meters":12800,"station_id":"","pricing_plan_id":"cebpf4jnsgd1na2vs0mg"},{"bike_id":"153e4fd2-46b8-4abf-9ea6-5db61c4071ed","system_id":"levelo_inurba_marseille","lat":43.291994,"lon":5.357886,"is_reserved":false,"is_disabled":false,"rental_uris":{"android":"levelo://app?vid=153e4fd2-46b8-4abf-9ea6-5db61c4071ed","ios":"levelo://app?vid=153e4fd2-46b8-4abf-9ea6-5db61c4071ed"},"vehicle_type_id":"4","last_reported":1713985556,"current_range_meters":19600,"station_id":"ce4bhb12rcd13ifvqel0","pricing_plan_id":"cebpf4jnsgd1na2vs0mg"},{"bike_id":"44dc9a9a-00ba-4994-a3ab-9ca5bf79f211","system_id":"levelo_inurba_marseille","lat":43.31325,"lon":5.39688,"is_reserved":false,"is_disabled":false,"rental_uris":{"android":"levelo://app?vid=44dc9a9a-00ba-4994-a3ab-9ca5bf79f211","ios":"levelo://app?vid=44dc9a9a-00ba-4994-a3ab-9ca5bf79f211"},"vehicle_type_id":"4","last_reported":1713985556,"current_range_meters":26400,"station_id":"ce4bgvp2rcd13ifvqcu0","pricing_plan_id":"cebpf4jnsgd1na2vs0mg"},{"bike_id":"1a7b78bf-907e-4212-a7ba-acabfc8308b2","system_id":"levelo_inurba_marseille","lat":43.292005,"lon":5.357875,"is_reserved":false,"is_disabled":false,"rental_uris":{"android":"levelo://app?vid=1a7b78bf-907e-4212-a7ba-acabfc8308b2","ios":"levelo://app?vid=1a7b78bf-907e-4212-a7ba-acabfc8308b2"},"vehicle_type_id":"4","last_reported":1713985556,"current_range_meters":31200,"station_id":"ce4bhb12rcd13ifvqel0","pricing_plan_id":"cebpf4jnsgd1na2vs0mg"},{"bike_id":"90e5d243-b7ec-4a4f-8974-6d6cabc9a5b0","system_id":"levelo_inurba_marseille","lat":43.313291,"lon":5.396838,"is_reserved":false,"is_disabled":false,"rental_uris":{"android":"levelo://app?vid=90e5d243-b7ec-4a4f-8974-6d6cabc9a5b0","ios":"levelo://app?vid=90e5d243-b7ec-4a4f-8974-6d6cabc9a5b0"},"vehicle_type_id":"4","last_reported":1713985556,"current_range_meters":11200,"station_id":"ce4bgvp2rcd13ifvqcu0","pricing_plan_id":"cebpf4jnsgd1na2vs0mg"},{"bike_id":"d95dd86d-d929-4073-9da9-4a84a772ec79","system_id":"levelo_inurba_marseille","lat":43.291994,"lon":5.357886,"is_reserved":false,"is_disabled":false,"rental_uris":{"android":"levelo://app?vid=d95dd86d-d929-4073-9da9-4a84a772ec79","ios":"levelo://app?vid=d95dd86d-d929-4073-9da9-4a84a772ec79"},"vehicle_type_id":"4","last_reported":1713985556,"current_range_meters":0,"station_id":"ce4bhb12rcd13ifvqel0","pricing_plan_id":"cebpf4jnsgd1na2vs0mg"},{"bike_id":"13d1dc38-9ae8-4ba0-b724-614d59ab163c","system_id":"levelo_inurba_marseille","lat":43.291994,"lon":5.357886,"is_reserved":false,"is_disabled":false,"rental_uris":{"android":"levelo://app?vid=13d1dc38-9ae8-4ba0-b724-614d59ab163c","ios":"levelo://app?vid=13d1dc38-9ae8-4ba0-b724-614d59ab163c"},"vehicle_type_id":"4","last_reported":1713985556,"current_range_meters":12800,"station_id":"ce4bhb12rcd13ifvqel0","pricing_plan_id":"cebpf4jnsgd1na2vs0mg"},{"bike_id":"18f78cc9-d89f-4333-959b-fcc813106748","system_id":"levelo_inurba_marseille","lat":43.29529,"lon":5.385581,"is_reserved":false,"is_disabled":false,"rental_uris":{"android":"levelo://app?vid=18f78cc9-d89f-4333-959b-fcc813106748","ios":"levelo://app?vid=18f78cc9-d89f-4333-959b-fcc813106748"},"vehicle_type_id":"4","last_reported":1713985556,"current_range_meters":7200,"station_id":"ce4bgih2rcd13ifvqba0","pricing_plan_id":"cebpf4jnsgd1na2vs0mg"},{"bike_id":"d05ed630-7ac0-4b32-8b54-38ef271503bd","system_id":"levelo_inurba_marseille","lat":43.313291,"lon":5.396838,"is_reserved":false,"is_disabled":false,"rental_uris":{"android":"levelo://app?vid=d05ed630-7ac0-4b32-8b54-38ef271503bd","ios":"levelo://app?vid=d05ed630-7ac0-4b32-8b54-38ef271503bd"},"vehicle_type_id":"4","last_reported":1713985556,"current_range_meters":5600,"station_id":"ce4bgvp2rcd13ifvqcu0","pricing_plan_id":"cebpf4jnsgd1na2vs0mg"},{"bike_id":"7ceb74a2-b9a5-4274-9f83-2eec8625af90","system_id":"levelo_inurba_marseille","lat":43.313291,"lon":5.396838,"is_reserved":false,"is_disabled":false,"rental_uris":{"android":"levelo://app?vid=7ceb74a2-b9a5-4274-9f83-2eec8625af90","ios":"levelo://app?vid=7ceb74a2-b9a5-4274-9f83-2eec8625af90"},"vehicle_type_id":"4","last_reported":1713985556,"current_range_meters":18800,"station_id":"ce4bgvp2rcd13ifvqcu0","pricing_plan_id":"cebpf4jnsgd1na2vs0mg"},{"bike_id":"5dddb448-8924-4227-bae3-3324f2eac20a","system_id":"levelo_inurba_marseille","lat":43.291994,"lon":5.357886,"is_reserved":false,"is_disabled":false,"rental_uris":{"android":"levelo://app?vid=5dddb448-8924-4227-bae3-3324f2eac20a","ios":"levelo://app?vid=5dddb448-8924-4227-bae3-3324f2eac20a"},"vehicle_type_id":"4","last_reported":1713985556,"current_range_meters":31600,"station_id":"ce4bhb12rcd13ifvqel0","pricing_plan_id":"cebpf4jnsgd1na2vs0mg"},{"bike_id":"fc035eb0-8813-4723-b6cc-7412c2cb72f6","system_id":"levelo_inurba_marseille","lat":43.29529,"lon":5.385581,"is_reserved":false,"is_disabled":false,"rental_uris":{"android":"levelo://app?vid=fc035eb0-8813-4723-b6cc-7412c2cb72f6","ios":"levelo://app?vid=fc035eb0-8813-4723-b6cc-7412c2cb72f6"},"vehicle_type_id":"4","last_reported":1713985556,"current_range_meters":5600,"station_id":"ce4bgih2rcd13ifvqba0","pricing_plan_id":"cebpf4jnsgd1na2vs0mg"},{"bike_id":"173d1821-0afb-411a-9f3f-8fa507ae178e","system_id":"levelo_inurba_marseille","lat":43.31331,"lon":5.39695,"is_reserved":false,"is_disabled":false,"rental_uris":{"android":"levelo://app?vid=173d1821-0afb-411a-9f3f-8fa507ae178e","ios":"levelo://app?vid=173d1821-0afb-411a-9f3f-8fa507ae178e"},"vehicle_type_id":"4","last_reported":1713985556,"current_range_meters":8400,"station_id":"ce4bgvp2rcd13ifvqcu0","pricing_plan_id":"cebpf4jnsgd1na2vs0mg"},{"bike_id":"6815b8fa-8a86-4195-8059-9b2c3635a2cd","system_id":"levelo_inurba_marseille","lat":43.30885,"lon":5.39649,"is_reserved":false,"is_disabled":false,"rental_uris":{"android":"levelo://app?vid=6815b8fa-8a86-4195-8059-9b2c3635a2cd","ios":"levelo://app?vid=6815b8fa-8a86-4195-8059-9b2c3635a2cd"},"vehicle_type_id":"4","last_reported":1713985556,"current_range_meters":3600,"station_id":"ce4bh012rcd13ifvqcv0","pricing_plan_id":"cebpf4jnsgd1na2vs0mg"},{"bike_id":"199c3715-d5a4-4f84-b56f-772be581a284","system_id":"levelo_inurba_marseille","lat":43.313291,"lon":5.396838,"is_reserved":false,"is_disabled":false,"rental_uris":{"android":"levelo://app?vid=199c3715-d5a4-4f84-b56f-772be581a284","ios":"levelo://app?vid=199c3715-d5a4-4f84-b56f-772be581a284"},"vehicle_type_id":"4","last_reported":1713985556,"current_range_meters":31600,"station_id":"ce4bgvp2rcd13ifvqcu0","pricing_plan_id":"cebpf4jnsgd1na2vs0mg"},{"bike_id":"a6543812-72f8-4259-8e2d-e0dfc60af540","system_id":"levelo_inurba_marseille","lat":43.313291,"lon":5.396838,"is_reserved":false,"is_disabled":false,"rental_uris":{"android":"levelo://app?vid=a6543812-72f8-4259-8e2d-e0dfc60af540","ios":"levelo://app?vid=a6543812-72f8-4259-8e2d-e0dfc60af540"},"vehicle_type_id":"4","last_reported":1713985556,"current_range_meters":7600,"station_id":"ce4bgvp2rcd13ifvqcu0","pricing_plan_id":"cebpf4jnsgd1na2vs0mg"},{"bike_id":"2cbd2ea9-7736-4940-a3a7-061d8134a3ad","system_id":"levelo_inurba_marseille","lat":43.308905,"lon":5.396543,"is_reserved":false,"is_disabled":false,"rental_uris":{"android":"levelo://app?vid=2cbd2ea9-7736-4940-a3a7-061d8134a3ad","ios":"levelo://app?vid=2cbd2ea9-7736-4940-a3a7-061d8134a3ad"},"vehicle_type_id":"4","last_reported":1713985556,"current_range_meters":18400,"station_id":"ce4bh012rcd13ifvqcv0","pricing_plan_id":"cebpf4jnsgd1na2vs0mg"},{"bike_id":"e42d19ce-4649-4d3c-b783-975b2f77d338","system_id":"levelo_inurba_marseille","lat":43.313291,"lon":5.396838,"is_reserved":false,"is_disabled":false,"rental_uris":{"android":"levelo://app?vid=e42d19ce-4649-4d3c-b783-975b2f77d338","ios":"levelo://app?vid=e42d19ce-4649-4d3c-b783-975b2f77d338"},"vehicle_type_id":"4","last_reported":1713985556,"current_range_meters":23600,"station_id":"ce4bgvp2rcd13ifvqcu0","pricing_plan_id":"cebpf4jnsgd1na2vs0mg"},{"bike_id":"e5ec7b2a-26ae-47f1-9d1f-a7684b27b80f","system_id":"levelo_inurba_marseille","lat":43.309047,"lon":5.396551,"is_reserved":false,"is_disabled":false,"rental_uris":{"android":"levelo://app?vid=e5ec7b2a-26ae-47f1-9d1f-a7684b27b80f","ios":"levelo://app?vid=e5ec7b2a-26ae-47f1-9d1f-a7684b27b80f"},"vehicle_type_id":"4","last_reported":1713985556,"current_range_meters":11200,"station_id":"ce4bh012rcd13ifvqcv0","pricing_plan_id":"cebpf4jnsgd1na2vs0mg"},{"bike_id":"9ec8273d-2f27-41b6-96c6-a634c36e910b","system_id":"levelo_inurba_marseille","lat":43.298233,"lon":5.389464,"is_reserved":false,"is_disabled":false,"rental_uris":{"android":"levelo://app?vid=9ec8273d-2f27-41b6-96c6-a634c36e910b","ios":"levelo://app?vid=9ec8273d-2f27-41b6-96c6-a634c36e910b"},"vehicle_type_id":"4","last_reported":1713985556,"current_range_meters":21600,"station_id":"ce4bh292rcd13ifvqdf0","pricing_plan_id":"cebpf4jnsgd1na2vs0mg"},{"bike_id":"23b26e60-7ebb-4242-8d92-a3453960a2d6","system_id":"levelo_inurba_marseille","lat":43.313291,"lon":5.396838,"is_reserved":false,"is_disabled":false,"rental_uris":{"android":"levelo://app?vid=23b26e60-7ebb-4242-8d92-a3453960a2d6","ios":"levelo://app?vid=23b26e60-7ebb-4242-8d92-a3453960a2d6"},"vehicle_type_id":"4","last_reported":1713985556,"current_range_meters":26800,"station_id":"ce4bgvp2rcd13ifvqcu0","pricing_plan_id":"cebpf4jnsgd1na2vs0mg"},{"bike_id":"06359c55-ff1a-434c-8cc6-482a3bd98406","system_id":"levelo_inurba_marseille","lat":43.313291,"lon":5.396838,"is_reserved":false,"is_disabled":false,"rental_uris":{"android":"levelo://app?vid=06359c55-ff1a-434c-8cc6-482a3bd98406","ios":"levelo://app?vid=06359c55-ff1a-434c-8cc6-482a3bd98406"},"vehicle_type_id":"4","last_reported":1713985556,"current_range_meters":7200,"station_id":"ce4bgvp2rcd13ifvqcu0","pricing_plan_id":"cebpf4jnsgd1na2vs0mg"},{"bike_id":"463e0fb3-3a70-45bf-8b13-7e80637b1529","system_id":"levelo_inurba_marseille","lat":43.31325,"lon":5.39704,"is_reserved":false,"is_disabled":false,"rental_uris":{"android":"levelo://app?vid=463e0fb3-3a70-45bf-8b13-7e80637b1529","ios":"levelo://app?vid=463e0fb3-3a70-45bf-8b13-7e80637b1529"},"vehicle_type_id":"4","last_reported":1713985556,"current_range_meters":6800,"station_id":"ce4bgvp2rcd13ifvqcu0","pricing_plan_id":"cebpf4jnsgd1na2vs0mg"},{"bike_id":"1630be11-b08f-4750-aeaf-f7e2d89205f8","system_id":"levelo_inurba_marseille","lat":43.29529,"lon":5.385581,"is_reserved":false,"is_disabled":false,"rental_uris":{"android":"levelo://app?vid=1630be11-b08f-4750-aeaf-f7e2d89205f8","ios":"levelo://app?vid=1630be11-b08f-4750-aeaf-f7e2d89205f8"},"vehicle_type_id":"4","last_reported":1713985556,"current_range_meters":16800,"station_id":"ce4bgih2rcd13ifvqba0","pricing_plan_id":"cebpf4jnsgd1na2vs0mg"},{"bike_id":"b0a9a739-9cca-42a3-bbea-dc6c591b5483","system_id":"levelo_inurba_marseille","lat":43.29529,"lon":5.385581,"is_reserved":false,"is_disabled":false,"rental_uris":{"android":"levelo://app?vid=b0a9a739-9cca-42a3-bbea-dc6c591b5483","ios":"levelo://app?vid=b0a9a739-9cca-42a3-bbea-dc6c591b5483"},"vehicle_type_id":"4","last_reported":1713985556,"current_range_meters":12800,"station_id":"ce4bgih2rcd13ifvqba0","pricing_plan_id":"cebpf4jnsgd1na2vs0mg"},{"bike_id":"fafb698c-951c-4b81-8704-35129282d6a7","system_id":"levelo_inurba_marseille","lat":43.29529,"lon":5.385581,"is_reserved":false,"is_disabled":false,"rental_uris":{"android":"levelo://app?vid=fafb698c-951c-4b81-8704-35129282d6a7","ios":"levelo://app?vid=fafb698c-951c-4b81-8704-35129282d6a7"},"vehicle_type_id":"4","last_reported":1713985556,"current_range_meters":4400,"station_id":"ce4bgih2rcd13ifvqba0","pricing_plan_id":"cebpf4jnsgd1na2vs0mg"},{"bike_id":"a377a648-65ea-4939-8a15-0f15541269ad","system_id":"levelo_inurba_marseille","lat":43.29529,"lon":5.385581,"is_reserved":false,"is_disabled":false,"rental_uris":{"android":"levelo://app?vid=a377a648-65ea-4939-8a15-0f15541269ad","ios":"levelo://app?vid=a377a648-65ea-4939-8a15-0f15541269ad"},"vehicle_type_id":"4","last_reported":1713985556,"current_range_meters":30800,"station_id":"ce4bgih2rcd13ifvqba0","pricing_plan_id":"cebpf4jnsgd1na2vs0mg"},{"bike_id":"64f33f53-b45e-4793-8b4b-db06f8986938","system_id":"levelo_inurba_marseille","lat":43.29529,"lon":5.385581,"is_reserved":false,"is_disabled":false,"rental_uris":{"android":"levelo://app?vid=64f33f53-b45e-4793-8b4b-db06f8986938","ios":"levelo://app?vid=64f33f53-b45e-4793-8b4b-db06f8986938"},"vehicle_type_id":"4","last_reported":1713985556,"current_range_meters":17600,"station_id":"ce4bgih2rcd13ifvqba0","pricing_plan_id":"cebpf4jnsgd1na2vs0mg"},{"bike_id":"c3978124-6ee7-4d67-9753-55f8d4c38c3a","system_id":"levelo_inurba_marseille","lat":43.29529,"lon":5.385581,"is_reserved":false,"is_disabled":false,"rental_uris":{"android":"levelo://app?vid=c3978124-6ee7-4d67-9753-55f8d4c38c3a","ios":"levelo://app?vid=c3978124-6ee7-4d67-9753-55f8d4c38c3a"},"vehicle_type_id":"4","last_reported":1713985556,"current_range_meters":26400,"station_id":"ce4bgih2rcd13ifvqba0","pricing_plan_id":"cebpf4jnsgd1na2vs0mg"},