{"last_updated":1726999741,"ttl":30,"version":"2.2","data":{"bikes":[{"bike_id":"fd84f170-c075-4570-a556-c5e617e29406","system_id":"levelo_inurba_marseille","lat":43.28321,"lon":5.40894,"is_reserved":false,"is_disabled":false,"rental_uris":{"android":"levelo://app?vid=fd84f170-c075-4570-a556-c5e617e29406","ios":"levelo://app?vid=fd84f170-c075-4570-a556-c5e617e29406"},"vehicle_type_id":"4","last_reported":1726999741,"current_range_meters":19200,"station_id":"","pricing_plan_id":"cebpf4jnsgd1na2vs0mg"},{"bike_id":"a83317cf-35fe-4f1d-ada7-d6e73433d4c4","system_id":"levelo_inurba_marseille","lat":43.27914,"lon":5.39575,"is_reserved":false,"is_disabled":false,"rental_uris":{"android":"levelo://app?vid=a83317cf-35fe-4f1d-ada7-d6e73433d4c4","ios":"levelo://app?vid=a83317cf-35fe-4f1d-ada7-d6e73433d4c4"},"vehicle_type_id":"4","last_reported":1726999741,"current_range_meters":37600,"station_id":"ce4bhf92rcd13ifvqf40","pricing_plan_id":"cebpf4jnsgd1na2vs0mg"},{"bike_id":"09ef34b6-482f-4988-9331-10658115e1c1","system_id":"levelo_inurba_marseille","lat":43.3153,"lon":5.38038,"is_reserved":false,"is_disabled":false,"rental_uris":{"android":"levelo://app?vid=09ef34b6-482f-4988-9331-10658115e1c1","ios":"levelo://app?vid=09ef34b6-482f-4988-9331-10658115e1c1"},"vehicle_type_id":"4","last_reported":1726999741,"current_range_meters":18800,"station_id":"ce4bhsp2rcd13ifvqi50","pricing_plan_id":"cebpf4jnsgd1na2vs0mg"},{"bike_id":"0dbf4876-3461-47a6-a0fd-c918710d26cd","system_id":"levelo_inurba_marseille","lat":43.29197,"lon":5.35807,"is_reserved":false,"is_disabled":false,"rental_uris":{"android":"levelo://app?vid=0dbf4876-3461-47a6-a0fd-c918710d26cd","ios":"levelo://app?vid=0dbf4876-3461-47a6-a0fd-c918710d26cd"},"vehicle_type_id":"4","last_reported":1726999741,"current_range_meters":28800,"station_id":"ce4bhb12rcd13ifvqel0","pricing_plan_id":"cebpf4jnsgd1na2vs0mg"},{"bike_id":"7d3fbb10-bfad-4657-a514-ea0d8f7473fe","system_id":"levelo_inurba_marseille","lat":43.30465,"lon":5.37902,"is_reserved":false,"is_disabled":false,"rental_uris":{"android":"levelo://app?vid=7d3fbb10-bfad-4657-a514-ea0d8f7473fe","ios":"levelo://app?vid=7d3fbb10-bfad-4657-a514-ea0d8f7473fe"},"vehicle_type_id":"4","last_reported":1726999741,"current_range_meters":19600,"station_id":"ce4bgup2rcd13ifvqcn0","pricing_plan_id":"cebpf4jnsgd1na2vs0mg"},{"bike_id":"c4008c44-23d0-4592-b667-e21fc5691ab3","system_id":"levelo_inurba_marseille","lat":43.25582,"lon":5.38233,"is_reserved":false,"is_disabled":false,"rental_uris":{"android":"levelo://app?vid=c4008c44-23d0-4592-b667-e21fc5691ab3","ios":"levelo://app?vid=c4008c44-23d0-4592-b667-e21fc5691ab3"},"vehicle_type_id":"4","last_reported":1726999741,"current_range_meters":6800,"station_id":"ce4bhih2rcd13ifvqfs0","pricing_plan_id":"cebpf4jnsgd1na2vs0mg"},{"bike_id":"0f4bd5ad-8a1a-4214-94a9-f7a00a32a067","system_id":"levelo_inurba_marseille","lat":43.32046,"lon":5.41566,"is_reserved":false,"is_disabled":false,"rental_uris":{"android":"levelo://app?vid=0f4bd5ad-8a1a-4214-94a9-f7a00a32a067","ios":"levelo://app?vid=0f4bd5ad-8a1a-4214-94a9-f7a00a32a067"},"vehicle_type_id":"4","last_reported":1726999741,"current_range_meters":28000,"station_id":"ce4bhq92rcd13ifvqhkg","pricing_plan_id":"cebpf4jnsgd1na2vs0mg"},{"bike_id":"355d6b5d-07ae-4cfc-8fcc-aa7b04aed6f9","system_id":"levelo_inurba_marseille","lat":43.27316,"lon":5.39074,"is_reserved":false,"is_disabled":false,"rental_uris":{"android":"levelo://app?vid=355d6b5d-07ae-4cfc-8fcc-aa7b04aed6f9","ios":"levelo://app?vid=355d6b5d-07ae-4cfc-8fcc-aa7b04aed6f9"},"vehicle_type_id":"4","last_reported":1726999741,"current_range_meters":22800,"station_id":"ce4bhgp2rcd13ifvqfe0","pricing_plan_id":"cebpf4jnsgd1na2vs0mg"},{"bike_id":"b3cc763c-a4a2-4478-9d08-588c5725f5d4","system_id":"levelo_inurba_marseille","lat":43.28669,"lon":5.3866,"is_reserved":false,"is_disabled":false,"rental_uris":{"android":"levelo://app?vid=b3cc763c-a4a2-4478-9d08-588c5725f5d4","ios":"levelo://app?vid=b3cc763c-a4a2-4478-9d08-588c5725f5d4"},"vehicle_type_id":"4","last_reported":1726999741,"current_range_meters":38000,"station_id":"ce4bh492rcd13ifvqdug","pricing_plan_id":"cebpf4jnsgd1na2vs0mg"},{"bike_id":"add3a9bb-89c0-4474-99ed-e918f5013f73","system_id":"levelo_inurba_marseille","lat":43.23967,"lon":5.36633,"is_reserved":false,"is_disabled":false,"rental_uris":{"android":"levelo://app?vid=add3a9bb-89c0-4474-99ed-e918f5013f73","ios":"levelo://app?vid=add3a9bb-89c0-4474-99ed-e918f5013f73"},"vehicle_type_id":"4","last_reported":1726999741,"current_range_meters":40000,"station_id":"ce4bhi12rcd13ifvqfp0","pricing_plan_id":"cebpf4jnsgd1na2vs0mg"},{"bike_id":"8888949b-eb95-4e71-beba-2f46c5b5a5d0","system_id":"levelo_inurba_marseille","lat":43.248047,"lon":5.374589,"is_reserved":false,"is_disabled":false,"rental_uris":{"android":"levelo://app?vid=8888949b-eb95-4e71-beba-2f46c5b5a5d0","ios":"levelo://app?vid=8888949b-eb95-4e71-beba-2f46c5b5a5d0"},"vehicle_type_id":"4","last_reported":1726999741,"current_range_meters":8400,"station_id":"ce4bhgh2rcd13ifvqfb0","pricing_plan_id":"cebpf4jnsgd1na2vs0mg"},{"bike_id":"89cdcc83-7aab-4c78-8e76-aa0ccb30eb08","system_id":"levelo_inurba_marseille","lat":43.31711,"lon":5.43705,"is_reserved":false,"is_disabled":false,"rental_uris":{"android":"levelo://app?vid=89cdcc83-7aab-4c78-8e76-aa0ccb30eb08","ios":"levelo://app?vid=89cdcc83-7aab-4c78-8e76-aa0ccb30eb08"},"vehicle_type_id":"4","last_reported":1726999741,"current_range_meters":21600,"station_id":"ce4bhp92rcd13ifvqhcg","pricing_plan_id":"cebpf4jnsgd1na2vs0mg"},{"bike_id":"887a27b6-f8c6-48ce-aadb-d443f3969e1d","system_id":"levelo_inurba_marseille","lat":43.279175,"lon":5.395853,"is_reserved":false,"is_disabled":false,"rental_uris":{"android":"levelo://app?vid=887a27b6-f8c6-48ce-aadb-d443f3969e1d","ios":"levelo://app?vid=887a27b6-f8c6-48ce-aadb-d443f3969e1d"},"vehicle_type_id":"4","last_reported":1726999741,"current_range_meters":30800,"station_id":"ce4bhf92rcd13ifvqf40","pricing_plan_id":"cebpf4jnsgd1na2vs0mg"},{"bike_id":"28e8de70-da58-4fdf-b85c-dfa5afa1255e","system_id":"levelo_inurba_marseille","lat":43.30791,"lon":5.37647,"is_reserved":false,"is_disabled":false,"rental_uris":{"android":"levelo://app?vid=28e8de70-da58-4fdf-b85c-dfa5afa1255e","ios":"levelo://app?vid=28e8de70-da58-4fdf-b85c-dfa5afa1255e"},"vehicle_type_id":"4","last_reported":1726999741,"current_range_meters":39200,"station_id":"ce4bgv92rcd13ifvqcq0","pricing_plan_id":"cebpf4jnsgd1na2vs0mg"},{"bike_id":"302d58e7-4013-4381-b44b-15c6b6f9eb98","system_id":"levelo_inurba_marseille","lat":43.29781,"lon":5.37102,"is_reserved":false,"is_disabled":false,"rental_uris":{"android":"levelo://app?vid=302d58e7-4013-4381-b44b-15c6b6f9eb98","ios":"levelo://app?vid=302d58e7-4013-4381-b44b-15c6b6f9eb98"},"vehicle_type_id":"4","last_reported":1726999741,"current_range_meters":19200,"station_id":"ce4bgop2rcd13ifvqc1g","pricing_plan_id":"cebpf4jnsgd1na2vs0mg"},{"bike_id":"ab2355fc-f308-428a-8e61-9585d99cb3da","system_id":"levelo_inurba_marseille","lat":43.30272,"lon":5.37718,"is_reserved":false,"is_disabled":false,"rental_uris":{"android":"levelo://app?vid=ab2355fc-f308-428a-8e61-9585d99cb3da","ios":"levelo://app?vid=ab2355fc-f308-428a-8e61-9585d99cb3da"},"vehicle_type_id":"4","last_reported":1726999741,"current_range_meters":34800,"station_id":"ce4bguh2rcd13ifvqcj0","pricing_plan_id":"cebpf4jnsgd1na2vs0mg"},{"bike_id":"9fad6916-fb07-4adf-8dcf-0df96c90bf20","system_id":"levelo_inurba_marseille","lat":43.292,"lon":5.35789,"is_reserved":false,"is_disabled":false,"rental_uris":{"android":"levelo://app?vid=9fad6916-fb07-4adf-8dcf-0df96c90bf20","ios":"levelo://app?vid=9fad6916-fb07-4adf-8dcf-0df96c90bf20"},"vehicle_type_id":"4","last_reported":1726999741,"current_range_meters":38800,"station_id":"ce4bhb12rcd13ifvqel0","pricing_plan_id":"cebpf4jnsgd1na2vs0mg"},{"bike_id":"29c3801a-7b4c-47aa-a6ad-d81b447de9a5","system_id":"levelo_inurba_marseille","lat":43.30407,"lon":5.41283,"is_reserved":false,"is_disabled":false,"rental_uris":{"android":"levelo://app?vid=29c3801a-7b4c-47aa-a6ad-d81b447de9a5","ios":"levelo://app?vid=29c3801a-7b4c-47aa-a6ad-d81b447de9a5"},"vehicle_type_id":"4","last_reported":1726999741,"current_range_meters":25600,"station_id":"ce4bhop2rcd13ifvqh8g","pricing_plan_id":"cebpf4jnsgd1na2vs0mg"},{"bike_id":"a4a90910-90ba-4eff-a35a-9ccec3bf7e2c","system_id":"levelo_inurba_marseille","lat":43.24646,"lon":5.38888,"is_reserved":false,"is_disabled":false,"rental_uris":{"android":"levelo://app?vid=a4a90910-90ba-4eff-a35a-9ccec3bf7e2c","ios":"levelo://app?vid=a4a90910-90ba-4eff-a35a-9ccec3bf7e2c"},"vehicle_type_id":"4","last_reported":1726999741,"current_range_meters":20000,"station_id":"ce4bhg12rcd13ifvqf60","pricing_plan_id":"cebpf4jnsgd1na2vs0mg"},{"bike_id":"b9043ee7-1b51-4205-a7f8-061a93eb7c50","system_id":"levelo_inurba_marseille","lat":43.31889,"lon":5.40736,"is_reserved":false,"is_disabled":false,"rental_uris":{"android":"levelo://app?vid=b9043ee7-1b51-4205-a7f8-061a93eb7c50","ios":"levelo://app?vid=b9043ee7-1b51-4205-a7f8-061a93eb7c50"},"vehicle_type_id":"4","last_reported":1726999741,"current_range_meters":40000,"station_id":"ce4bhq12rcd13ifvqhig","pricing_plan_id":"cebpf4jnsgd1na2vs0mg"},{"bike_id":"20a042f1-81aa-4cde-8548-4f002e395336","system_id":"levelo_inurba_marseille","lat":43.30175,"lon":5.39845,"is_reserved":false,"is_disabled":false,"rental_uris":{"android":"levelo://app?vid=20a042f1-81aa-4cde-8548-4f002e395336","ios":"levelo://app?vid=20a042f1-81aa-4cde-8548-4f002e395336"},"vehicle_type_id":"4","last_reported":1726999741,"current_range_meters":37600,"station_id":"ce4bgvp2rcd13ifvqct0","pricing_plan_id":"cebpf4jnsgd1na2vs0mg"},{"bike_id":"3f3a1968-161c-4281-9dac-b1f6f3f79cd0","system_id":"levelo_inurba_marseille","lat":43.27492,"lon":5.42456,"is_reserved":false,"is_disabled":false,"rental_uris":{"android":"levelo://app?vid=3f3a1968-161c-4281-9dac-b1f6f3f79cd0","ios":"levelo://app?vid=3f3a1968-161c-4281-9dac-b1f6f3f79cd0"},"vehicle_type_id":"4","last_reported":1726999741,"current_range_meters":16800,"station_id":"ce4bhn92rcd13ifvqgrg","pricing_plan_id":"cebpf4jnsgd1na2vs0mg"},{"bike_id":"ea76e2d8-2a52-4e93-b8ee-165e894e3fd3","system_id":"levelo_inurba_marseille","lat":43.29225,"lon":5.36062,"is_reserved":false,"is_disabled":false,"rental_uris":{"android":"levelo://app?vid=ea76e2d8-2a52-4e93-b8ee-165e894e3fd3","ios":"levelo://app?vid=ea76e2d8-2a52-4e93-b8ee-165e894e3fd3"},"vehicle_type_id":"4","last_reported":1726999741,"current_range_meters":22400,"station_id":"ce4bhbh2rcd13ifvqeqg","pricing_plan_id":"cebpf4jnsgd1na2vs0mg"},{"bike_id":"a4ae4f79-4648-4b4c-bac6-c78ecf3d57bc","system_id":"levelo_inurba_marseille","lat":43.31083,"lon":5.42429,"is_reserved":false,"is_disabled":false,"rental_uris":{"android":"levelo://app?vid=a4ae4f79-4648-4b4c-bac6-c78ecf3d57bc","ios":"levelo://app?vid=a4ae4f79-4648-4b4c-bac6-c78ecf3d57bc"},"vehicle_type_id":"4","last_reported":1726999741,"current_range_meters":10000,"station_id":"ce4bhp92rcd13ifvqhag","pricing_plan_id":"cebpf4jnsgd1na2vs0mg"},{"bike_id":"c75fe3d3-e6c8-4a25-95e1-f837f95917ff","system_id":"levelo_inurba_marseille","lat":43.2582,"lon":5.39433,"is_reserved":false,"is_disabled":false,"rental_uris":{"android":"levelo://app?vid=c75fe3d3-e6c8-4a25-95e1-f837f95917ff","ios":"levelo://app?vid=c75fe3d3-e6c8-4a25-95e1-f837f95917ff"},"vehicle_type_id":"4","last_reported":1726999741,"current_range_meters":36400,"station_id":"ce4bhip2rcd13ifvqft0","pricing_plan_id":"cebpf4jnsgd1na2vs0mg"},{"bike_id":"df45cc15-9d9a-46ff-ba1b-cf267800bae1","system_id":"levelo_inurba_marseille","lat":43.30354,"lon":5.41874,"is_reserved":false,"is_disabled":false,"rental_uris":{"android":"levelo://app?vid=df45cc15-9d9a-46ff-ba1b-cf267800bae1","ios":"levelo://app?vid=df45cc15-9d9a-46ff-ba1b-cf267800bae1"},"vehicle_type_id":"4","last_reported":1726999741,"current_range_meters":37600,"station_id":"ce4bhop2rcd13ifvqh7g","pricing_plan_id":"cebpf4jnsgd1na2vs0mg"},{"bike_id":"d4c3c260-b3a8-4fe5-aec9-07f42c5f5835","system_id":"levelo_inurba_marseille","lat":43.29034,"lon":5.35916,"is_reserved":false,"is_disabled":false,"rental_uris":{"android":"levelo://app?vid=d4c3c260-b3a8-4fe5-aec9-07f42c5f5835","ios":"levelo://app?vid=d4c3c260-b3a8-4fe5-aec9-07f42c5f5835"},"vehicle_type_id":"4","last_reported":1726999741,"current_range_meters":38400,"station_id":"ce4bha92rcd13ifvqeg0","pricing_plan_id":"cebpf4jnsgd1na2vs0mg"},{"bike_id":"ceabb9ee-047b-4019-858f-b1ed6debedeb","system_id":"levelo_inurba_marseille","lat":43.30457,"lon":5.37903,"is_reserved":false,"is_disabled":false,"rental_uris":{"android":"levelo://app?vid=ceabb9ee-047b-4019-858f-b1ed6debedeb","ios":"levelo://app?vid=ceabb9ee-047b-4019-858f-b1ed6debedeb"},"vehicle_type_id":"4","last_reported":1726999741,"current_range_meters":8800,"station_id":"ce4bgup2rcd13ifvqcn0","pricing_plan_id":"cebpf4jnsgd1na2vs0mg"},{"bike_id":"6eb7f0eb-b1d6-49fe-bba6-beac0362eedd","system_id":"levelo_inurba_marseille","lat":43.27167,"lon":5.40982,"is_reserved":false,"is_disabled":false,"rental_uris":{"android":"levelo://app?vid=6eb7f0eb-b1d6-49fe-bba6-beac0362eedd","ios":"levelo://app?vid=6eb7f0eb-b1d6-49fe-bba6-beac0362eedd"},"vehicle_type_id":"4","last_reported":1726999741,"current_range_meters":39200,"station_id":"ce4bhl12rcd13ifvqgf0","pricing_plan_id":"cebpf4jnsgd1na2vs0mg"},{"bike_id":"e1181a64-e0c5-44b6-a184-90a821734232","system_id":"levelo_inurba_marseille","lat":43.26492,"lon":5.39541,"is_reserved":false,"is_disabled":false,"rental_uris":{"android":"levelo://app?vid=e1181a64-e0c5-44b6-a184-90a821734232","ios":"levelo://app?vid=e1181a64-e0c5-44b6-a184-90a821734232"},"vehicle_type_id":"4","last_reported":1726999741,"current_range_meters":29600,"station_id":"ce4bhi12rcd13ifvqfq0","pricing_plan_id":"cebpf4jnsgd1na2vs0mg"},{"bike_id":"96247566-d518-4409-a232-ee6adf73b250","system_id":"levelo_inurba_marseille","lat":43.28612,"lon":5.35099,"is_reserved":false,"is_disabled":false,"rental_uris":{"android":"levelo://app?vid=96247566-d518-4409-a232-ee6adf73b250","ios":"levelo://app?vid=96247566-d518-4409-a232-ee6adf73b250"},"vehicle_type_id":"4","last_reported":1726999741,"current_range_meters":38800,"station_id":"ce4bhch2rcd13ifvqeug","pricing_plan_id":"cebpf4jnsgd1na2vs0mg"},{"bike_id":"ddef2735-203a-4460-8fe2-32d0d088e5d5","system_id":"levelo_inurba_marseille","lat":43.31237,"lon":5.37996,"is_reserved":false,"is_disabled":false,"rental_uris":{"android":"levelo://app?vid=ddef2735-203a-4460-8fe2-32d0d088e5d5","ios":"levelo://app?vid=ddef2735-203a-4460-8fe2-32d0d088e5d5"},"vehicle_type_id":"4","last_reported":1726999741,"current_range_meters":6800,"station_id":"","pricing_plan_id":"cebpf4jnsgd1na2vs0mg"},{"bike_id":"6827b231-1d6c-4880-9e24-d675a65cf584","system_id":"levelo_inurba_marseille","lat":43.32343,"lon":5.40614,"is_reserved":false,"is_disabled":false,"rental_uris":{"android":"levelo://app?vid=6827b231-1d6c-4880-9e24-d675a65cf584","ios":"levelo://app?vid=6827b231-1d6c-4880-9e24-d675a65cf584"},"vehicle_type_id":"4","last_reported":1726999741,"current_range_meters":8400,"station_id":"ce4bhq92rcd13ifvqhjg","pricing_plan_id":"cebpf4jnsgd1na2vs0mg"},{"bike_id":"0306de8e-8a38-4268-bad8-568b2c2495b5","system_id":"levelo_inurba_marseille","lat":43.26794,"lon":5.39411,"is_reserved":false,"is_disabled":false,"rental_uris":{"android":"levelo://app?vid=0306de8e-8a38-4268-bad8-568b2c2495b5","ios":"levelo://app?vid=0306de8e-8a38-4268-bad8-568b2c2495b5"},"vehicle_type_id":"4","last_reported":1726999741,"current_range_meters":40000,"station_id":"ce4bhh12rcd13ifvqfg0","pricing_plan_id":"cebpf4jnsgd1na2vs0mg"},{"bike_id":"80ef0bbe-2694-4d57-aa26-0ee82b5cdca4","system_id":"levelo_inurba_marseille","lat":43.32657,"lon":5.40992,"is_reserved":false,"is_disabled":false,"rental_uris":{"android":"levelo://app?vid=80ef0bbe-2694-4d57-aa26-0ee82b5cdca4","ios":"levelo://app?vid=80ef0bbe-2694-4d57-aa26-0ee82b5cdca4"},"vehicle_type_id":"4","last_reported":1726999741,"current_range_meters":39200,"station_id":"ce4bhpp2rcd13ifvqhgg","pricing_plan_id":"cebpf4jnsgd1na2vs0mg"},{"bike_id":"d05d1d57-bf71-47e3-a273-ec32bcd88457","system_id":"levelo_inurba_marseille","lat":43.29068,"lon":5.37157,"is_reserved":false,"is_disabled":false,"rental_uris":{"android":"levelo://app?vid=d05d1d57-bf71-47e3-a273-ec32bcd88457","ios":"levelo://app?vid=d05d1d57-bf71-47e3-a273-ec32bcd88457"},"vehicle_type_id":"4","last_reported":1726999741,"current_range_meters":30000,"station_id":"ce4bh5p2rcd13ifvqe4g","pricing_plan_id":"cebpf4jnsgd1na2vs0mg"},{"bike_id":"6419325f-76c1-4392-9dbc-8446db0b27c5","system_id":"levelo_inurba_marseille","lat":43.30273,"lon":5.38382,"is_reserved":false,"is_disabled":false,"rental_uris":{"android":"levelo://app?vid=6419325f-76c1-4392-9dbc-8446db0b27c5","ios":"levelo://app?vid=6419325f-76c1-4392-9dbc-8446db0b27c5"},"vehicle_type_id":"4","last_reported":1726999741,"current_range_meters":16000,"station_id":"","pricing_plan_id":"cebpf4jnsgd1na2vs0mg"},{"bike_id":"ebb40a11-6589-43d4-8f53-49300efef4ee","system_id":"levelo_inurba_marseille","lat":43.29575,"lon":5.36734,"is_reserved":false,"is_disabled":false,"rental_uris":{"android":"levelo://app?vid=ebb40a11-6589-43d4-8f53-49300efef4ee","ios":"levelo://app?vid=ebb40a11-6589-43d4-8f53-49300efef4ee"},"vehicle_type_id":"4","last_reported":1726999741,"current_range_meters":40000,"station_id":"ce4bgph2rcd13ifvqc2g","pricing_plan_id":"cebpf4jnsgd1na2vs0mg"},{"bike_id":"8a9a4c24-174b-4c76-93b4-9f565b367d92","system_id":"levelo_inurba_marseille","lat":43.302612,"lon":5.377142,"is_reserved":false,"is_disabled":false,"rental_uris":{"android":"levelo://app?vid=8a9a4c24-174b-4c76-93b4-9f565b367d92","ios":"levelo://app?vid=8a9a4c24-174b-4c76-93b4-9f565b367d92"},"vehicle_type_id":"4","last_reported":1726999741,"current_range_meters":28000,"station_id":"ce4bguh2rcd13ifvqcj0","pricing_plan_id":"cebpf4jnsgd1na2vs0mg"},{"bike_id":"bda83ca7-9798-4a91-9454-79010960b865","system_id":"levelo_inurba_marseille","lat":43.25711,"lon":5.41124,"is_reserved":false,"is_disabled":false,"rental_uris":{"android":"levelo://app?vid=bda83ca7-9798-4a91-9454-79010960b865","ios":"levelo://app?vid=bda83ca7-9798-4a91-9454-79010960b865"},"vehicle_type_id":"4","last_reported":1726999741,"current_range_meters":30800,"station_id":"ce4bhkp2rcd13ifvqgd0","pricing_plan_id":"cebpf4jnsgd1na2vs0mg"},{"bike_id":"2abfd0da-52ff-49fd-a5cb-a8f4dd818089","system_id":"levelo_inurba_marseille","lat":43.28151,"lon":5.42641,"is_reserved":false,"is_disabled":false,"rental_uris":{"android":"levelo://app?vid=2abfd0da-52ff-49fd-a5cb-a8f4dd818089","ios":"levelo://app?vid=2abfd0da-52ff-49fd-a5cb-a8f4dd818089"},"vehicle_type_id":"4","last_reported":1726999741,"current_range_meters":37600,"station_id":"ce4bhnh2rcd13ifvqgug","pricing_plan_id":"cebpf4jnsgd1na2vs0mg"},{"bike_id":"edfb1ff5-b81b-4225-8da9-100a9115b1e3","system_id":"levelo_inurba_marseille","lat":43.29735,"lon":5.36561,"is_reserved":false,"is_disabled":false,"rental_uris":{"android":"levelo://app?vid=edfb1ff5-b81b-4225-8da9-100a9115b1e3","ios":"levelo://app?vid=edfb1ff5-b81b-4225-8da9-100a9115b1e3"},"vehicle_type_id":"4","last_reported":1726999741,"current_range_meters":4400,"station_id":"","pricing_plan_id":"cebpf4jnsgd1na2vs0mg"},{"bike_id":"06445ffb-cb06-4095-a376-2ec13e5c436c","system_id":"levelo_inurba_marseille","lat":43.29884,"lon":5.38897,"is_reserved":false,"is_disabled":false,"rental_uris":{"android":"levelo://app?vid=06445ffb-cb06-4095-a376-2ec13e5c436c","ios":"levelo://app?vid=06445ffb-cb06-4095-a376-2ec13e5c436c"},"vehicle_type_id":"4","last_reported":1726999741,"current_range_meters":24800,"station_id":"ce4bh392rcd13ifvqdl0","pricing_plan_id":"cebpf4jnsgd1na2vs0mg"},{"bike_id":"c914526b-bc34-4a4c-8d27-ef89019aa801","system_id":"levelo_inurba_marseille","lat":43.29564,"lon":5.42286,"is_reserved":false,"is_disabled":false,"rental_uris":{"android":"levelo://app?vid=c914526b-bc34-4a4c-8d27-ef89019aa801","ios":"levelo://app?vid=c914526b-bc34-4a4c-8d27-ef89019aa801"},"vehicle_type_id":"4","last_reported":1726999741,"current_range_meters":16000,"station_id":"ce4bhph2rcd13ifvqhdg","pricing_plan_id":"cebpf4jnsgd1na2vs0mg"},{"bike_id":"659a1cf3-94fe-4b3a-b8ae-406f3f0446d9","system_id":"levelo_inurba_marseille","lat":43.2318,"lon":5.39982,"is_reserved":false,"is_disabled":false,"rental_uris":{"android":"levelo://app?vid=659a1cf3-94fe-4b3a-b8ae-406f3f0446d9","ios":"levelo://app?vid=659a1cf3-94fe-4b3a-b8ae-406f3f0446d9"},"vehicle_type_id":"4","last_reported":1726999741,"current_range_meters":9600,"station_id":"ce4bhn12rcd13ifvqgqg","pricing_plan_id":"cebpf4jnsgd1na2vs0mg"},{"bike_id":"26bddfec-0748-47a2-9395-97b7afaf6400","system_id":"levelo_inurba_marseille","lat":43.25867,"lon":5.39899,"is_reserved":false,"is_disabled":false,"rental_uris":{"android":"levelo://app?vid=26bddfec-0748-47a2-9395-97b7afaf6400","ios":"levelo://app?vid=26bddfec-0748-47a2-9395-97b7afaf6400"},"vehicle_type_id":"4","last_reported":1726999741,"current_range_meters":8400,"station_id":"ce4bhl92rcd13ifvqghg","pricing_plan_id":"cebpf4jnsgd1na2vs0mg"},{"bike_id":"3ab91b7c-c147-41e4-bbfa-5091b026f024","system_id":"levelo_inurba_marseille","lat":43.28269,"lon":5.35072,"is_reserved":false,"is_disabled":false,"rental_uris":{"android":"levelo://app?vid=3ab91b7c-c147-41e4-bbfa-5091b026f024","ios":"levelo://app?vid=3ab91b7c-c147-41e4-bbfa-5091b026f024"},"vehicle_type_id":"4","last_reported":1726999741,"current_range_meters":38800,"station_id":"ce4bhbp2rcd13ifvqerg","pricing_plan_id":"cebpf4jnsgd1na2vs0mg"},{"bike_id":"9b270c0b-276d-47a0-b1ea-db76f7a1e4e2","system_id":"levelo_inurba_marseille","lat":43.27374,"lon":5.36255,"is_reserved":false,"is_disabled":false,"rental_uris":{"android":"levelo://app?vid=9b270c0b-276d-47a0-b1ea-db76f7a1e4e2","ios":"levelo://app?vid=9b270c0b-276d-47a0-b1ea-db76f7a1e4e2"},"vehicle_type_id":"4","last_reported":1726999741,"current_range_meters":38400,"station_id":"ce4bhbh2rcd13ifvqeo0","pricing_plan_id":"cebpf4jnsgd1na2vs0mg"},{"bike_id":"03bad859-4358-4bb4-9b18-007f8463f1b5","system_id":"levelo_inurba_marseille","lat":43.2319,"lon":5.39982,"is_reserved":false,"is_disabled":false,"rental_uris":{"android":"levelo://app?vid=03bad859-4358-4bb4-9b18-007f8463f1b5","ios":"levelo://app?vid=03bad859-4358-4bb4-9b18-007f8463f1b5"},"vehicle_type_id":"4","last_reported":1726999741,"current_range_meters":38800,"station_id":"ce4bhn12rcd13ifvqgqg","pricing_plan_id":"cebpf4jnsgd1na2vs0mg"},{"bike_id":"ea219450-0551-484e-bdfc-3c198bec9523","system_id":"levelo_inurba_marseille","lat":43.25866,"lon":5.39901,"is_reserved":false,"is_disabled":false,"rental_uris":{"android":"levelo://app?vid=ea219450-0551-484e-bdfc-3c198bec9523","ios":"levelo://app?vid=ea219450-0551-484e-bdfc-3c198bec9523"},"vehicle_type_id":"4","last_reported":1726999741,"current_range_meters":22000,"station_id":"ce4bhl92rcd13ifvqghg","pricing_plan_id":"cebpf4jnsgd1na2vs0mg"},{"bike_id":"be4e3a6b-ebd3-49c9-9eb8-d3f1c777207e","system_id":"levelo_inurba_marseille","lat":43.25114,"lon":5.4033,"is_reserved":false,"is_disabled":false,"rental_uris":{"android":"levelo://app?vid=be4e3a6b-ebd3-49c9-9eb8-d3f1c777207e","ios":"levelo://app?vid=be4e3a6b-ebd3-49c9-9eb8-d3f1c777207e"},"vehicle_type_id":"4","last_reported":1726999741,"current_range_meters":8400,"station_id":"ce4bhlh2rcd13ifvqgig","pricing_plan_id":"cebpf4jnsgd1na2vs0mg"},{"bike_id":"850b08d8-ed42-4ad0-b0d6-020b1b8ae309","system_id":"levelo_inurba_marseille","lat":43.29552,"lon":5.4228,"is_reserved":false,"is_disabled":false,"rental_uris":{"android":"levelo://app?vid=850b08d8-ed42-4ad0-b0d6-020b1b8ae309","ios":"levelo://app?vid=850b08d8-ed42-4ad0-b0d6-020b1b8ae309"},"vehicle_type_id":"4","last_reported":1726999741,"current_range_meters":12800,"station_id":"ce4bhph2rcd13ifvqhdg","pricing_plan_id":"cebpf4jnsgd1na2vs0mg"},{"bike_id":"0e80655c-5b3d-43d7-a3a0-9c317c246d02","system_id":"levelo_inurba_marseille","lat":43.25111,"lon":5.40324,"is_reserved":false,"is_disabled":false,"rental_uris":{"android":"levelo://app?vid=0e80655c-5b3d-43d7-a3a0-9c317c246d02","ios":"levelo://app?vid=0e80655c-5b3d-43d7-a3a0-9c317c246d02"},"vehicle_type_id":"4","last_reported":1726999741,"current_range_meters":40000,"station_id":"ce4bhlh2rcd13ifvqgig","pricing_plan_id":"cebpf4jnsgd1na2vs0mg"},{"bike_id":"ac07e634-0126-4104-b29d-3b5556892c0b","system_id":"levelo_inurba_marseille","lat":43.25498,"lon":5.37651,"is_reserved":false,"is_disabled":false,"rental_uris":{"android":"levelo://app?vid=ac07e634-0126-4104-b29d-3b5556892c0b","ios":"levelo://app?vid=ac07e634-0126-4104-b29d-3b5556892c0b"},"vehicle_type_id":"4","last_reported":1726999741,"current_range_meters":36400,"station_id":"ce4bhh12rcd13ifvqff0","pricing_plan_id":"cebpf4jnsgd1na2vs0mg"},{"bike_id":"54b7f973-33ed-4b77-bfc3-7847058bc7a6","system_id":"levelo_inurba_marseille","lat":43.31725,"lon":5.42406,"is_reserved":false,"is_disabled":false,"rental_uris":{"android":"levelo://app?vid=54b7f973-33ed-4b77-bfc3-7847058bc7a6","ios":"levelo://app?vid=54b7f973-33ed-4b77-bfc3-7847058bc7a6"},"vehicle_type_id":"4","last_reported":1726999741,"current_range_meters":39200,"station_id":"ce4bhp92rcd13ifvqhbg","pricing_plan_id":"cebpf4jnsgd1na2vs0mg"},{"bike_id":"443f06a2-50b5-4a82-ae56-7f11fc6983b5","system_id":"levelo_inurba_marseille","lat":43.24653,"lon":5.38895,"is_reserved":false,"is_disabled":false,"rental_uris":{"android":"levelo://app?vid=443f06a2-50b5-4a82-ae56-7f11fc6983b5","ios":"levelo://app?vid=443f06a2-50b5-4a82-ae56-7f11fc6983b5"},"vehicle_type_id":"4","last_reported":1726999741,"current_range_meters":6000,"station_id":"ce4bhg12rcd13ifvqf60","pricing_plan_id":"cebpf4jnsgd1na2vs0mg"},{"bike_id":"bbc3fc05-f237-4e68-a4c0-34e49962295d","system_id":"levelo_inurba_marseille","lat":43.22924,"lon":5.35372,"is_reserved":false,"is_disabled":false,"rental_uris":{"android":"levelo://app?vid=bbc3fc05-f237-4e68-a4c0-34e49962295d","ios":"levelo://app?vid=bbc3fc05-f237-4e68-a4c0-34e49962295d"},"vehicle_type_id":"4","last_reported":1726999741,"current_range_meters":9600,"station_id":"cpo3532slgdg3j2ikp40","pricing_plan_id":"cebpf4jnsgd1na2vs0mg"},{"bike_id":"eeee92bd-6394-4d04-8487-072f4cc3e948","system_id":"levelo_inurba_marseille","lat":43.23964,"lon":5.36646,"is_reserved":false,"is_disabled":false,"rental_uris":{"android":"levelo://app?vid=eeee92bd-6394-4d04-8487-072f4cc3e948","ios":"levelo://app?vid=eeee92bd-6394-4d04-8487-072f4cc3e948"},"vehicle_type_id":"4","last_reported":1726999741,"current_range_meters":39200,"station_id":"ce4bhi12rcd13ifvqfp0","pricing_plan_id":"cebpf4jnsgd1na2vs0mg"},{"bike_id":"5419b1bf-d37c-4076-a34c-52ede101758e","system_id":"levelo_inurba_marseille","lat":43.337444,"lon":5.374475,"is_reserved":false,"is_disabled":false,"rental_uris":{"android":"levelo://app?vid=5419b1bf-d37c-4076-a34c-52ede101758e","ios":"levelo://app?vid=5419b1bf-d37c-4076-a34c-52ede101758e"},"vehicle_type_id":"4","last_reported":1726999741,"current_range_meters":28400,"station_id":"","pricing_plan_id":"cebpf4jnsgd1na2vs0mg"},{"bike_id":"013a1a54-8c71-4d7d-ad66-178705a1f09a","system_id":"levelo_inurba_marseille","lat":43.25865,"lon":5.39896,"is_reserved":false,"is_disabled":false,"rental_uris":{"android":"levelo://app?vid=013a1a54-8c71-4d7d-ad66-178705a1f09a","ios":"levelo://app?vid=013a1a54-8c71-4d7d-ad66-178705a1f09a"},"vehicle_type_id":"4","last_reported":1726999741,"current_range_meters":40000,"station_id":"ce4bhl92rcd13ifvqghg","pricing_plan_id":"cebpf4jnsgd1na2vs0mg"},{"bike_id":"3d11801b-4666-46ed-99aa-aabfb05b911e","system_id":"levelo_inurba_marseille","lat":43.31997,"lon":5.38146,"is_reserved":false,"is_disabled":false,"rental_uris":{"android":"levelo://app?vid=3d11801b-4666-46ed-99aa-aabfb05b911e","ios":"levelo://app?vid=3d11801b-4666-46ed-99aa-aabfb05b911e"},"vehicle_type_id":"4","last_reported":1726999741,"current_range_meters":40000,"station_id":"ce4bhr12rcd13ifvqhpg","pricing_plan_id":"cebpf4jnsgd1na2vs0mg"},{"bike_id":"aaff5b52-9b1d-412f-b7ab-90af37bda423","system_id":"levelo_inurba_marseille","lat":43.26211,"lon":5.37438,"is_reserved":false,"is_disabled":false,"rental_uris":{"android":"levelo://app?vid=aaff5b52-9b1d-412f-b7ab-90af37bda423","ios":"levelo://app?vid=aaff5b52-9b1d-412f-b7ab-90af37bda423"},"vehicle_type_id":"4","last_reported":1726999741,"current_range_meters":35600,"station_id":"ce4bhgp2rcd13ifvqfc0","pricing_plan_id":"cebpf4jnsgd1na2vs0mg"},{"bike_id":"870a1f8b-9acd-4417-ad40-456726425e82","system_id":"levelo_inurba_marseille","lat":43.28148,"lon":5.42644,"is_reserved":false,"is_disabled":false,"rental_uris":{"android":"levelo://app?vid=870a1f8b-9acd-4417-ad40-456726425e82","ios":"levelo://app?vid=870a1f8b-9acd-4417-ad40-456726425e82"},"vehicle_type_id":"4","last_reported":1726999741,"current_range_meters":14400,"station_id":"ce4bhnh2rcd13ifvqgug","pricing_plan_id":"cebpf4jnsgd1na2vs0mg"},{"bike_id":"ca6c59c2-12d9-4d86-9905-84f293ceb66b","system_id":"levelo_inurba_marseille","lat":43.29039,"lon":5.3996,"is_reserved":false,"is_disabled":false,"rental_uris":{"android":"levelo://app?vid=ca6c59c2-12d9-4d86-9905-84f293ceb66b","ios":"levelo://app?vid=ca6c59c2-12d9-4d86-9905-84f293ceb66b"},"vehicle_type_id":"4","last_reported":1726999741,"current_range_meters":10800,"station_id":"ce4bh392rcd13ifvqdm0","pricing_plan_id":"cebpf4jnsgd1na2vs0mg"},{"bike_id":"408b3d46-3a11-4b51-be77-1e7d8127455b","system_id":"levelo_inurba_marseille","lat":43.28567,"lon":5.39488,"is_reserved":false,"is_disabled":false,"rental_uris":{"android":"levelo://app?vid=408b3d46-3a11-4b51-be77-1e7d8127455b","ios":"levelo://app?vid=408b3d46-3a11-4b51-be77-1e7d8127455b"},"vehicle_type_id":"4","last_reported":1726999741,"current_range_meters":29600,"station_id":"ce4bh292rcd13ifvqdg0","pricing_plan_id":"cebpf4jnsgd1na2vs0mg"},{"bike_id":"5f970973-f4f4-4937-9fbe-7af0359838f0","system_id":"levelo_inurba_marseille","lat":43.3235,"lon":5.40623,"is_reserved":false,"is_disabled":false,"rental_uris":{"android":"levelo://app?vid=5f970973-f4f4-4937-9fbe-7af0359838f0","ios":"levelo://app?vid=5f970973-f4f4-4937-9fbe-7af0359838f0"},"vehicle_type_id":"4","last_reported":1726999741,"current_range_meters":26800,"station_id":"ce4bhq92rcd13ifvqhjg","pricing_plan_id":"cebpf4jnsgd1na2vs0mg"},{"bike_id":"a381d564-3ff5-4eb7-be58-2b40d7b40ba3","system_id":"levelo_inurba_marseille","lat":43.25814,"lon":5.39431,"is_reserved":false,"is_disabled":false,"rental_uris":{"android":"levelo://app?vid=a381d564-3ff5-4eb7-be58-2b40d7b40ba3","ios":"levelo://app?vid=a381d564-3ff5-4eb7-be58-2b40d7b40ba3"},"vehicle_type_id":"4","last_reported":1726999741,"current_range_meters":39200,"station_id":"ce4bhip2rcd13ifvqft0","pricing_plan_id":"cebpf4jnsgd1na2vs0mg"},{"bike_id":"f59f9f07-2020-454d-8f62-ca65292624a4","system_id":"levelo_inurba_marseille","lat":43.31321,"lon":5.397,"is_reserved":false,"is_disabled":false,"rental_uris":{"android":"levelo://app?vid=f59f9f07-2020-454d-8f62-ca65292624a4","ios":"levelo://app?vid=f59f9f07-2020-454d-8f62-ca65292624a4"},"vehicle_type_id":"4","last_reported":1726999741,"current_range_meters":36800,"station_id":"ce4bgvp2rcd13ifvqcu0","pricing_plan_id":"cebpf4jnsgd1na2vs0mg"},{"bike_id":"4d6f1b65-a95d-4510-bfbf-2bbf8ac25c86","system_id":"levelo_inurba_marseille","lat":43.31531,"lon":5.38031,"is_reserved":false,"is_disabled":false,"rental_uris":{"android":"levelo://app?vid=4d6f1b65-a95d-4510-bfbf-2bbf8ac25c86","ios":"levelo://app?vid=4d6f1b65-a95d-4510-bfbf-2bbf8ac25c86"},"vehicle_type_id":"4","last_reported":1726999741,"current_range_meters":30000,"station_id":"ce4bhsp2rcd13ifvqi50","pricing_plan_id":"cebpf4jnsgd1na2vs0mg"},{"bike_id":"a5f652fd-0580-4c08-9b4b-b97b537c5ed9","system_id":"levelo_inurba_marseille","lat":43.30928,"lon":5.40151,"is_reserved":false,"is_disabled":false,"rental_uris":{"android":"levelo://app?vid=a5f652fd-0580-4c08-9b4b-b97b537c5ed9","ios":"levelo://app?vid=a5f652fd-0580-4c08-9b4b-b97b537c5ed9"},"vehicle_type_id":"4","last_reported":1726999741,"current_range_meters":39200,"station_id":"ce4bgvp2rcd13ifvqct0","pricing_plan_id":"cebpf4jnsgd1na2vs0mg"},{"bike_id":"c4750ba1-adf0-4309-bd46-dcf0eb74a7b9","system_id":"levelo_inurba_marseille","lat":43.25818,"lon":5.39444,"is_reserved":false,"is_disabled":false,"rental_uris":{"android":"levelo://app?vid=c4750ba1-adf0-4309-bd46-dcf0eb74a7b9","ios":"levelo://app?vid=c4750ba1-adf0-4309-bd46-dcf0eb74a7b9"},"vehicle_type_id":"4","last_reported":1726999741,"current_range_meters":39200,"station_id":"ce4bhip2rcd13ifvqft0","pricing_plan_id":"cebpf4jnsgd1na2vs0mg"},{"bike_id":"149779fc-bc45-458a-857f-33707eedaf6a","system_id":"levelo_inurba_marseille","lat":43.23189,"lon":5.35557,"is_reserved":false,"is_disabled":false,"rental_uris":{"android":"levelo://app?vid=149779fc-bc45-458a-857f-33707eedaf6a","ios":"levelo://app?vid=149779fc-bc45-458a-857f-33707eedaf6a"},"vehicle_type_id":"4","last_reported":1726999741,"current_range_meters":16000,"station_id":"ce4bhu92rcd13ifvqi70","pricing_plan_id":"cebpf4jnsgd1na2vs0mg"},{"bike_id":"22264bb0-564c-4287-973c-99856a7153f3","system_id":"levelo_inurba_marseille","lat":43.25861,"lon":5.399,"is_reserved":false,"is_disabled":false,"rental_uris":{"android":"levelo://app?vid=22264bb0-564c-4287-973c-99856a7153f3","ios":"levelo://app?vid=22264bb0-564c-4287-973c-99856a7153f3"},"vehicle_type_id":"4","last_reported":1726999741,"current_range_meters":22400,"station_id":"ce4bhl92rcd13ifvqghg","pricing_plan_id":"cebpf4jnsgd1na2vs0mg"},{"bike_id":"1ff72969-a04c-4830-9bc0-7fb2894320ab","system_id":"levelo_inurba_marseille","lat":43.24081,"lon":5.37749,"is_reserved":false,"is_disabled":false,"rental_uris":{"android":"levelo://app?vid=1ff72969-a04c-4830-9bc0-7fb2894320ab","ios":"levelo://app?vid=1ff72969-a04c-4830-9bc0-7fb2894320ab"},"vehicle_type_id":"4","last_reported":1726999741,"current_range_meters":4400,"station_id":"ce4bhnp2rcd13ifvqgvg","pricing_plan_id":"cebpf4jnsgd1na2vs0mg"},{"bike_id":"7d903340-b844-4bfb-bb1e-f140d594d2c5","system_id":"levelo_inurba_marseille","lat":43.30352,"lon":5.41874,"is_reserved":false,"is_disabled":false,"rental_uris":{"android":"levelo://app?vid=7d903340-b844-4bfb-bb1e-f140d594d2c5","ios":"levelo://app?vid=7d903340-b844-4bfb-bb1e-f140d594d2c5"},"vehicle_type_id":"4","last_reported":1726999741,"current_range_meters":35200,"station_id":"ce4bhop2rcd13ifvqh7g","pricing_plan_id":"cebpf4jnsgd1na2vs0mg"},{"bike_id":"3029a821-4f09-426b-9136-c97c9c0dcd3a","system_id":"levelo_inurba_marseille","lat":43.26485,"lon":5.3954,"is_reserved":false,"is_disabled":false,"rental_uris":{"android":"levelo://app?vid=3029a821-4f09-426b-9136-c97c9c0dcd3a","ios":"levelo://app?vid=3029a821-4f09-426b-9136-c97c9c0dcd3a"},"vehicle_type_id":"4","last_reported":1726999741,"current_range_meters":38000,"station_id":"ce4bhi12rcd13ifvqfq0","pricing_plan_id":"cebpf4jnsgd1na2vs0mg"},{"bike_id":"61437227-be5e-4999-bb29-38fdb6c6fcc9","system_id":"levelo_inurba_marseille","lat":43.30457,"lon":5.37908,"is_reserved":false,"is_disabled":false,"rental_uris":{"android":"levelo://app?vid=61437227-be5e-4999-bb29-38fdb6c6fcc9","ios":"levelo://app?vid=61437227-be5e-4999-bb29-38fdb6c6fcc9"},"vehicle_type_id":"4","last_reported":1726999741,"current_range_meters":40000,"station_id":"ce4bgup2rcd13ifvqcn0","pricing_plan_id":"cebpf4jnsgd1na2vs0mg"},{"bike_id":"604c9531-be4f-4974-bfe2-bd7828d7386f","system_id":"levelo_inurba_marseille","lat":43.29899,"lon":5.43667,"is_reserved":false,"is_disabled":false,"rental_uris":{"android":"levelo://app?vid=604c9531-be4f-4974-bfe2-bd7828d7386f","ios":"levelo://app?vid=604c9531-be4f-4974-bfe2-bd7828d7386f"},"vehicle_type_id":"4","last_reported":1726999741,"current_range_meters":18000,"station_id":"ce4bhpp2rcd13ifvqhfg","pricing_plan_id":"cebpf4jnsgd1na2vs0mg"},{"bike_id":"8aa9229f-7f52-4bd0-9408-b9dcc7a5187a","system_id":"levelo_inurba_marseille","lat":43.27069,"lon":5.42281,"is_reserved":false,"is_disabled":false,"rental_uris":{"android":"levelo://app?vid=8aa9229f-7f52-4bd0-9408-b9dcc7a5187a","ios":"levelo://app?vid=8aa9229f-7f52-4bd0-9408-b9dcc7a5187a"},"vehicle_type_id":"4","last_reported":1726999741,"current_range_meters":14000,"station_id":"ce4bhk92rcd13ifvqgb0","pricing_plan_id":"cebpf4jnsgd1na2vs0mg"},{"bike_id":"dffd4f54-b346-4788-86ea-8f518e84719a","system_id":"levelo_inurba_marseille","lat":43.31886,"lon":5.4074,"is_reserved":false,"is_disabled":false,"rental_uris":{"android":"levelo://app?vid=dffd4f54-b346-4788-86ea-8f518e84719a","ios":"levelo://app?vid=dffd4f54-b346-4788-86ea-8f518e84719a"},"vehicle_type_id":"4","last_reported":1726999741,"current_range_meters":20000,"station_id":"ce4bhq12rcd13ifvqhig","pricing_plan_id":"cebpf4jnsgd1na2vs0mg"},{"bike_id":"46121cc0-436d-4cf1-9853-45960b7d4d1b","system_id":"levelo_inurba_marseille","lat":43.23967,"lon":5.36632,"is_reserved":false,"is_disabled":false,"rental_uris":{"android":"levelo://app?vid=46121cc0-436d-4cf1-9853-45960b7d4d1b","ios":"levelo://app?vid=46121cc0-436d-4cf1-9853-45960b7d4d1b"},"vehicle_type_id":"4","last_reported":1726999741,"current_range_meters":36800,"station_id":"ce4bhi12rcd13ifvqfp0","pricing_plan_id":"cebpf4jnsgd1na2vs0mg"},{"bike_id":"226a0941-0c72-4b00-be32-622ea037304a","system_id":"levelo_inurba_marseille","lat":43.28614,"lon":5.351,"is_reserved":false,"is_disabled":false,"rental_uris":{"android":"levelo://app?vid=226a0941-0c72-4b00-be32-622ea037304a","ios":"levelo://app?vid=226a0941-0c72-4b00-be32-622ea037304a"},"vehicle_type_id":"4","last_reported":1726999741,"current_range_meters":38800,"station_id":"ce4bhch2rcd13ifvqeug","pricing_plan_id":"cebpf4jnsgd1na2vs0mg"},{"bike_id":"f3c30fae-3d07-4ba6-a05a-bc60bb44d441","system_id":"levelo_inurba_marseille","lat":43.24987,"lon":5.38944,"is_reserved":false,"is_disabled":false,"rental_uris":{"android":"levelo://app?vid=f3c30fae-3d07-4ba6-a05a-bc60bb44d441","ios":"levelo://app?vid=f3c30fae-3d07-4ba6-a05a-bc60bb44d441"},"vehicle_type_id":"4","last_reported":1726999741,"current_range_meters":2000,"station_id":"ce4bhgp2rcd13ifvqfd0","pricing_plan_id":"cebpf4jnsgd1na2vs0mg"},{"bike_id":"977ad24c-2005-446b-b21e-2e9257aa7686","system_id":"levelo_inurba_marseille","lat":43.29843,"lon":5.36277,"is_reserved":false,"is_disabled":false,"rental_uris":{"android":"levelo://app?vid=977ad24c-2005-446b-b21e-2e9257aa7686","ios":"levelo://app?vid=977ad24c-2005-446b-b21e-2e9257aa7686"},"vehicle_type_id":"4","last_reported":1726999741,"current_range_meters":35200,"station_id":"ce4bgpp2rcd13ifvqc3g","pricing_plan_id":"cebpf4jnsgd1na2vs0mg"},{"bike_id":"c750c22f-57e5-44e7-ab11-ab84ef9a0b5e","system_id":"levelo_inurba_marseille","lat":43.23184,"lon":5.39992,"is_reserved":false,"is_disabled":false,"rental_uris":{"android":"levelo://app?vid=c750c22f-57e5-44e7-ab11-ab84ef9a0b5e","ios":"levelo://app?vid=c750c22f-57e5-44e7-ab11-ab84ef9a0b5e"},"vehicle_type_id":"4","last_reported":1726999741,"current_range_meters":14000,"station_id":"ce4bhn12rcd13ifvqgqg","pricing_plan_id":"cebpf4jnsgd1na2vs0mg"},{"bike_id":"d4cd02a2-8196-45a0-ade7-083f2b1cddee","system_id":"levelo_inurba_marseille","lat":43.24175,"lon":5.39715,"is_reserved":false,"is_disabled":false,"rental_uris":{"android":"levelo://app?vid=d4cd02a2-8196-45a0-ade7-083f2b1cddee","ios":"levelo://app?vid=d4cd02a2-8196-45a0-ade7-083f2b1cddee"},"vehicle_type_id":"4","last_reported":1726999741,"current_range_meters":38400,"station_id":"ce4bhn12rcd13ifvqgpg","pricing_plan_id":"cebpf4jnsgd1na2vs0mg"},{"bike_id":"a8d42cf3-65fd-4e73-93d7-47142c435399","system_id":"levelo_inurba_marseille","lat":43.3439,"lon":5.40852,"is_reserved":false,"is_disabled":false,"rental_uris":{"android":"levelo://app?vid=a8d42cf3-65fd-4e73-93d7-47142c435399","ios":"levelo://app?vid=a8d42cf3-65fd-4e73-93d7-47142c435399"},"vehicle_type_id":"4","last_reported":1726999741,"current_range_meters":22800,"station_id":"","pricing_plan_id":"cebpf4jnsgd1na2vs0mg"},{"bike_id":"affeab95-004c-4559-a39d-9d9c7e294ed6","system_id":"levelo_inurba_marseille","lat":43.24179,"lon":5.39735,"is_reserved":false,"is_disabled":false,"rental_uris":{"android":"levelo://app?vid=affeab95-004c-4559-a39d-9d9c7e294ed6","ios":"levelo://app?vid=affeab95-004c-4559-a39d-9d9c7e294ed6"},"vehicle_type_id":"4","last_reported":1726999741,"current_range_meters":31200,"station_id":"ce4bhn12rcd13ifvqgpg","pricing_plan_id":"cebpf4jnsgd1na2vs0mg"},{"bike_id":"488eab58-702a-49ef-b05e-83a9813536ca","system_id":"levelo_inurba_marseille","lat":43.2815,"lon":5.42638,"is_reserved":false,"is_disabled":false,"rental_uris":{"android":"levelo://app?vid=488eab58-702a-49ef-b05e-83a9813536ca","ios":"levelo://app?vid=488eab58-702a-49ef-b05e-83a9813536ca"},"vehicle_type_id":"4","last_reported":1726999741,"current_range_meters":36400,"station_id":"ce4bhnh2rcd13ifvqgug","pricing_plan_id":"cebpf4jnsgd1na2vs0mg"},{"bike_id":"eb0e566e-7d71-4cc0-bc76-de33a9fd73a8","system_id":"levelo_inurba_marseille","lat":43.2319,"lon":5.35546,"is_reserved":false,"is_disabled":false,"rental_uris":{"android":"levelo://app?vid=eb0e566e-7d71-4cc0-bc76-de33a9fd73a8","ios":"levelo://app?vid=eb0e566e-7d71-4cc0-bc76-de33a9fd73a8"},"vehicle_type_id":"4","last_reported":1726999741,"current_range_meters":38000,"station_id":"ce4bhu92rcd13ifvqi70","pricing_plan_id":"cebpf4jnsgd1na2vs0mg"},{"bike_id":"7f1d4caf-fa09-496f-9db6-140aee4b481e","system_id":"levelo_inurba_marseille","lat":43.28612,"lon":5.35101,"is_reserved":false,"is_disabled":false,"rental_uris":{"android":"levelo://app?vid=7f1d4caf-fa09-496f-9db6-140aee4b481e","ios":"levelo://app?vid=7f1d4caf-fa09-496f-9db6-140aee4b481e"},"vehicle_type_id":"4","last_reported":1726999741,"current_range_meters":25200,"station_id":"ce4bhch2rcd13ifvqeug","pricing_plan_id":"cebpf4jnsgd1na2vs0mg"},{"bike_id":"8cae7bb4-16a8-4d5e-b442-49b4fccef3c9","system_id":"levelo_inurba_marseille","lat":43.28926,"lon":5.38417,"is_reserved":false,"is_disabled":false,"rental_uris":{"android":"levelo://app?vid=8cae7bb4-16a8-4d5e-b442-49b4fccef3c9","ios":"levelo://app?vid=8cae7bb4-16a8-4d5e-b442-49b4fccef3c9"},"vehicle_type_id":"4","last_reported":1726999741,"current_range_meters":33200,"station_id":"ce4bh612rcd13ifvqe6g","pricing_plan_id":"cebpf4jnsgd1na2vs0mg"},{"bike_id":"04999a37-2436-4404-8c16-cd85cf9b7a10","system_id":"levelo_inurba_marseille","lat":43.33021,"lon":5.39043,"is_reserved":false,"is_disabled":false,"rental_uris":{"android":"levelo://app?vid=04999a37-2436-4404-8c16-cd85cf9b7a10","ios":"levelo://app?vid=04999a37-2436-4404-8c16-cd85cf9b7a10"},"vehicle_type_id":"4","last_reported":1726999741,"current_range_meters":38000,"station_id":"ce4bhr92rcd13ifvqhrg","pricing_plan_id":"cebpf4jnsgd1na2vs0mg"},{"bike_id":"6030b138-4d5e-4345-aedc-73924c99e1f7","system_id":"levelo_inurba_marseille","lat":43.26217,"lon":5.37448,"is_reserved":false,"is_disabled":false,"rental_uris":{"android":"levelo://app?vid=6030b138-4d5e-4345-aedc-73924c99e1f7","ios":"levelo://app?vid=6030b138-4d5e-4345-aedc-73924c99e1f7"},"vehicle_type_id":"4","last_reported":1726999741,"current_range_meters":28400,"station_id":"","pricing_plan_id":"cebpf4jnsgd1na2vs0mg"},{"bike_id":"e791a503-5545-41a6-9f9c-3f26430f3a35","system_id":"levelo_inurba_marseille","lat":43.30884,"lon":5.39658,"is_reserved":false,"is_disabled":false,"rental_uris":{"android":"levelo://app?vid=e791a503-5545-41a6-9f9c-3f26430f3a35","ios":"levelo://app?vid=e791a503-5545-41a6-9f9c-3f26430f3a35"},"vehicle_type_id":"4","last_reported":1726999741,"current_range_meters":28000,"station_id":"ce4bh012rcd13ifvqcv0","pricing_plan_id":"cebpf4jnsgd1na2vs0mg"},{"bike_id":"a7a2630d-54d4-495a-8506-d0472b9b9a1a","system_id":"levelo_inurba_marseille","lat":43.29548,"lon":5.42279,"is_reserved":false,"is_disabled":false,"rental_uris":{"android":"levelo://app?vid=a7a2630d-54d4-495a-8506-d0472b9b9a1a","ios":"levelo://app?vid=a7a2630d-54d4-495a-8506-d0472b9b9a1a"},"vehicle_type_id":"4","last_reported":1726999741,"current_range_meters":38800,"station_id":"ce4bhph2rcd13ifvqhdg","pricing_plan_id":"cebpf4jnsgd1na2vs0mg"},{"bike_id":"10a45a83-6a02-46f7-9db3-35edfba1d9bf","system_id":"levelo_inurba_marseille","lat":43.243774,"lon":5.370808,"is_reserved":false,"is_disabled":false,"rental_uris":{"android":"levelo://app?vid=10a45a83-6a02-46f7-9db3-35edfba1d9bf","ios":"levelo://app?vid=10a45a83-6a02-46f7-9db3-35edfba1d9bf"},"vehicle_type_id":"4","last_reported":1726999741,"current_range_meters":23200,"station_id":"ce4bhhh2rcd13ifvqfk0","pricing_plan_id":"cebpf4jnsgd1na2vs0mg"},{"bike_id":"357f61db-d8a0-463e-89c7-e069150b7758","system_id":"levelo_inurba_marseille","lat":43.297779,"lon":5.370703,"is_reserved":false,"is_disabled":false,"rental_uris":{"android":"levelo://app?vid=357f61db-d8a0-463e-89c7-e069150b7758","ios":"levelo://app?vid=357f61db-d8a0-463e-89c7-e069150b7758"},"vehicle_type_id":"4","last_reported":1726999741,"current_range_meters":33200,"station_id":"ce4bgop2rcd13ifvqc1g","pricing_plan_id":"cebpf4jnsgd1na2vs0mg"},{"bike_id":"7b9dd459-340b-4978-bfb0-6c163a5263e8","system_id":"levelo_inurba_marseille","lat":43.2319,"lon":5.35548,"is_reserved":false,"is_disabled":false,"rental_uris":{"android":"levelo://app?vid=7b9dd459-340b-4978-bfb0-6c163a5263e8","ios":"levelo://app?vid=7b9dd459-340b-4978-bfb0-6c163a5263e8"},"vehicle_type_id":"4","last_reported":1726999741,"current_range_meters":40000,"station_id":"ce4bhu92rcd13ifvqi70","pricing_plan_id":"cebpf4jnsgd1na2vs0mg"},{"bike_id":"b236b435-9efe-4ab6-8a6c-80489e0db01b","system_id":"levelo_inurba_marseille","lat":43.27373,"lon":5.3626,"is_reserved":false,"is_disabled":false,"rental_uris":{"android":"levelo://app?vid=b236b435-9efe-4ab6-8a6c-80489e0db01b","ios":"levelo://app?vid=b236b435-9efe-4ab6-8a6c-80489e0db01b"},"vehicle_type_id":"4","last_reported":1726999741,"current_range_meters":11200,"station_id":"ce4bhbh2rcd13ifvqeo0","pricing_plan_id":"cebpf4jnsgd1na2vs0mg"},{"bike_id":"9eb342ac-6683-4b0e-9068-9b33551dfa85","system_id":"levelo_inurba_marseille","lat":43.27376,"lon":5.36251,"is_reserved":false,"is_disabled":false,"rental_uris":{"android":"levelo://app?vid=9eb342ac-6683-4b0e-9068-9b33551dfa85","ios":"levelo://app?vid=9eb342ac-6683-4b0e-9068-9b33551dfa85"},"vehicle_type_id":"4","last_reported":1726999741,"current_range_meters":38400,"station_id":"ce4bhbh2rcd13ifvqeo0","pricing_plan_id":"cebpf4jnsgd1na2vs0mg"},{"bike_id":"0b47ab1b-4b26-4da4-8066-ca0061887cbd","system_id":"levelo_inurba_marseille","lat":43.3078,"lon":5.37647,"is_reserved":false,"is_disabled":false,"rental_uris":{"android":"levelo://app?vid=0b47ab1b-4b26-4da4-8066-ca0061887cbd","ios":"levelo://app?vid=0b47ab1b-4b26-4da4-8066-ca0061887cbd"},"vehicle_type_id":"4","last_reported":1726999741,"current_range_meters":17600,"station_id":"ce4bgv92rcd13ifvqcq0","pricing_plan_id":"cebpf4jnsgd1na2vs0mg"},{"bike_id":"c0269929-b89f-4bd7-a676-a9dc104a53cd","system_id":"levelo_inurba_marseille","lat":43.25821,"lon":5.39433,"is_reserved":false,"is_disabled":false,"rental_uris":{"android":"levelo://app?vid=c0269929-b89f-4bd7-a676-a9dc104a53cd","ios":"levelo://app?vid=c0269929-b89f-4bd7-a676-a9dc104a53cd"},"vehicle_type_id":"4","last_reported":1726999741,"current_range_meters":26800,"station_id":"ce4bhip2rcd13ifvqft0","pricing_plan_id":"cebpf4jnsgd1na2vs0mg"},{"bike_id":"b6bf1d84-66d6-4d49-ad52-84ebd253cada","system_id":"levelo_inurba_marseille","lat":43.28079,"lon":5.39663,"is_reserved":false,"is_disabled":false,"rental_uris":{"android":"levelo://app?vid=b6bf1d84-66d6-4d49-ad52-84ebd253cada","ios":"levelo://app?vid=b6bf1d84-66d6-4d49-ad52-84ebd253cada"},"vehicle_type_id":"4","last_reported":1726999741,"current_range_meters":38800,"station_id":"ce4bho12rcd13ifvqh2g","pricing_plan_id":"cebpf4jnsgd1na2vs0mg"},{"bike_id":"9434cac9-7553-4f16-91d0-8d2bd101174d","system_id":"levelo_inurba_marseille","lat":43.284462,"lon":5.392074,"is_reserved":false,"is_disabled":false,"rental_uris":{"android":"levelo://app?vid=9434cac9-7553-4f16-91d0-8d2bd101174d","ios":"levelo://app?vid=9434cac9-7553-4f16-91d0-8d2bd101174d"},"vehicle_type_id":"4","last_reported":1726999741,"current_range_meters":30400,"station_id":"ce4bhoh2rcd13ifvqh5g","pricing_plan_id":"cebpf4jnsgd1na2vs0mg"},{"bike_id":"71aa8592-ddf7-4343-aed4-c00d3433340f","system_id":"levelo_inurba_marseille","lat":43.337444,"lon":5.374475,"is_reserved":false,"is_disabled":false,"rental_uris":{"android":"levelo://app?vid=71aa8592-ddf7-4343-aed4-c00d3433340f","ios":"levelo://app?vid=71aa8592-ddf7-4343-aed4-c00d3433340f"},"vehicle_type_id":"4","last_reported":1726999741,"current_range_meters":32000,"station_id":"","pricing_plan_id":"cebpf4jnsgd1na2vs0mg"},{"bike_id":"3740c6df-06cd-419b-9ae6-b8d9e5eff548","system_id":"levelo_inurba_marseille","lat":43.2753,"lon":5.40935,"is_reserved":false,"is_disabled":false,"rental_uris":{"android":"levelo://app?vid=3740c6df-06cd-419b-9ae6-b8d9e5eff548","ios":"levelo://app?vid=3740c6df-06cd-419b-9ae6-b8d9e5eff548"},"vehicle_type_id":"4","last_reported":1726999741,"current_range_meters":14000,"station_id":"","pricing_plan_id":"cebpf4jnsgd1na2vs0mg"},{"bike_id":"8e56c686-c49a-4a98-a921-18b1bba0c58c","system_id":"levelo_inurba_marseille","lat":43.30904,"lon":5.36852,"is_reserved":false,"is_disabled":false,"rental_uris":{"android":"levelo://app?vid=8e56c686-c49a-4a98-a921-18b1bba0c58c","ios":"levelo://app?vid=8e56c686-c49a-4a98-a921-18b1bba0c58c"},"vehicle_type_id":"4","last_reported":1726999741,"current_range_meters":25600,"station_id":"ce4bgn92rcd13ifvqbvg","pricing_plan_id":"cebpf4jnsgd1na2vs0mg"},{"bike_id":"63cb3e8e-e6da-4a66-83e4-12a4ec922468","system_id":"levelo_inurba_marseille","lat":43.262,"lon":5.37933,"is_reserved":false,"is_disabled":false,"rental_uris":{"android":"levelo://app?vid=63cb3e8e-e6da-4a66-83e4-12a4ec922468","ios":"levelo://app?vid=63cb3e8e-e6da-4a66-83e4-12a4ec922468"},"vehicle_type_id":"4","last_reported":1726999741,"current_range_meters":27200,"station_id":"ce4bhjp2rcd13ifvqg90","pricing_plan_id":"cebpf4jnsgd1na2vs0mg"},{"bike_id":"33ef26f8-933d-4a23-a2fb-f3a05d501574","system_id":"levelo_inurba_marseille","lat":43.25082,"lon":5.39514,"is_reserved":false,"is_disabled":false,"rental_uris":{"android":"levelo://app?vid=33ef26f8-933d-4a23-a2fb-f3a05d501574","ios":"levelo://app?vid=33ef26f8-933d-4a23-a2fb-f3a05d501574"},"vehicle_type_id":"4","last_reported":1726999741,"current_range_meters":40000,"station_id":"ce4bhm12rcd13ifvqgkg","pricing_plan_id":"cebpf4jnsgd1na2vs0mg"},{"bike_id":"8054b5e1-9a90-4615-8230-d8d35fae035a","system_id":"levelo_inurba_marseille","lat":43.2737,"lon":5.36258,"is_reserved":false,"is_disabled":false,"rental_uris":{"android":"levelo://app?vid=8054b5e1-9a90-4615-8230-d8d35fae035a","ios":"levelo://app?vid=8054b5e1-9a90-4615-8230-d8d35fae035a"},"vehicle_type_id":"4","last_reported":1726999741,"current_range_meters":35200,"station_id":"ce4bhbh2rcd13ifvqeo0","pricing_plan_id":"cebpf4jnsgd1na2vs0mg"},{"bike_id":"28899bbf-43c6-44fe-bc87-11c1926b2ab8","system_id":"levelo_inurba_marseille","lat":43.26207,"lon":5.37924,"is_reserved":false,"is_disabled":false,"rental_uris":{"android":"levelo://app?vid=28899bbf-43c6-44fe-bc87-11c1926b2ab8","ios":"levelo://app?vid=28899bbf-43c6-44fe-bc87-11c1926b2ab8"},"vehicle_type_id":"4","last_reported":1726999741,"current_range_meters":38000,"station_id":"ce4bhjp2rcd13ifvqg90","pricing_plan_id":"cebpf4jnsgd1na2vs0mg"},{"bike_id":"90404548-0e6b-478d-bac7-b119dc9952ec","system_id":"levelo_inurba_marseille","lat":43.27199,"lon":5.39192,"is_reserved":false,"is_disabled":false,"rental_uris":{"android":"levelo://app?vid=90404548-0e6b-478d-bac7-b119dc9952ec","ios":"levelo://app?vid=90404548-0e6b-478d-bac7-b119dc9952ec"},"vehicle_type_id":"4","last_reported":1726999741,"current_range_meters":8400,"station_id":"ce4bhhp2rcd13ifvqfm0","pricing_plan_id":"cebpf4jnsgd1na2vs0mg"},{"bike_id":"5f6d4f6c-87ee-4b5f-9ce7-8e05e7043096","system_id":"levelo_inurba_marseille","lat":43.2885,"lon":5.39297,"is_reserved":false,"is_disabled":false,"rental_uris":{"android":"levelo://app?vid=5f6d4f6c-87ee-4b5f-9ce7-8e05e7043096","ios":"levelo://app?vid=5f6d4f6c-87ee-4b5f-9ce7-8e05e7043096"},"vehicle_type_id":"4","last_reported":1726999741,"current_range_meters":32000,"station_id":"ce4bh2p2rcd13ifvqdi0","pricing_plan_id":"cebpf4jnsgd1na2vs0mg"},{"bike_id":"48cc16ec-4cea-4a8c-b13e-3ac95a0df700","system_id":"levelo_inurba_marseille","lat":43.3046,"lon":5.37902,"is_reserved":false,"is_disabled":false,"rental_uris":{"android":"levelo://app?vid=48cc16ec-4cea-4a8c-b13e-3ac95a0df700","ios":"levelo://app?vid=48cc16ec-4cea-4a8c-b13e-3ac95a0df700"},"vehicle_type_id":"4","last_reported":1726999741,"current_range_meters":39200,"station_id":"ce4bgup2rcd13ifvqcn0","pricing_plan_id":"cebpf4jnsgd1na2vs0mg"},{"bike_id":"587b7091-1fcd-4c6f-a820-801ebabc18cc","system_id":"levelo_inurba_marseille","lat":43.29837,"lon":5.36264,"is_reserved":false,"is_disabled":false,"rental_uris":{"android":"levelo://app?vid=587b7091-1fcd-4c6f-a820-801ebabc18cc","ios":"levelo://app?vid=587b7091-1fcd-4c6f-a820-801ebabc18cc"},"vehicle_type_id":"4","last_reported":1726999741,"current_range_meters":31200,"station_id":"ce4bgpp2rcd13ifvqc3g","pricing_plan_id":"cebpf4jnsgd1na2vs0mg"},{"bike_id":"02415616-385e-4f14-93d0-2ad915d17a0f","system_id":"levelo_inurba_marseille","lat":43.31324,"lon":5.39687,"is_reserved":false,"is_disabled":false,"rental_uris":{"android":"levelo://app?vid=02415616-385e-4f14-93d0-2ad915d17a0f","ios":"levelo://app?vid=02415616-385e-4f14-93d0-2ad915d17a0f"},"vehicle_type_id":"4","last_reported":1726999741,"current_range_meters":37600,"station_id":"ce4bgvp2rcd13ifvqcu0","pricing_plan_id":"cebpf4jnsgd1na2vs0mg"},{"bike_id":"1a27a312-7cc2-4ff9-a55e-3a99ac9d943e","system_id":"levelo_inurba_marseille","lat":43.31266,"lon":5.40175,"is_reserved":false,"is_disabled":false,"rental_uris":{"android":"levelo://app?vid=1a27a312-7cc2-4ff9-a55e-3a99ac9d943e","ios":"levelo://app?vid=1a27a312-7cc2-4ff9-a55e-3a99ac9d943e"},"vehicle_type_id":"4","last_reported":1726999741,"current_range_meters":38800,"station_id":"ce4bh092rcd13ifvqd30","pricing_plan_id":"cebpf4jnsgd1na2vs0mg"},{"bike_id":"4246ebeb-839d-4ab5-886b-e4b45f0b2a05","system_id":"levelo_inurba_marseille","lat":43.29778,"lon":5.37101,"is_reserved":false,"is_disabled":false,"rental_uris":{"android":"levelo://app?vid=4246ebeb-839d-4ab5-886b-e4b45f0b2a05","ios":"levelo://app?vid=4246ebeb-839d-4ab5-886b-e4b45f0b2a05"},"vehicle_type_id":"4","last_reported":1726999741,"current_range_meters":37600,"station_id":"ce4bgop2rcd13ifvqc1g","pricing_plan_id":"cebpf4jnsgd1na2vs0mg"},{"bike_id":"34bac9de-afcc-485f-a901-124a385dd441","system_id":"levelo_inurba_marseille","lat":43.24541,"lon":5.39527,"is_reserved":false,"is_disabled":false,"rental_uris":{"android":"levelo://app?vid=34bac9de-afcc-485f-a901-124a385dd441","ios":"levelo://app?vid=34bac9de-afcc-485f-a901-124a385dd441"},"vehicle_type_id":"4","last_reported":1726999741,"current_range_meters":38800,"station_id":"ce4bhlp2rcd13ifvqgjg","pricing_plan_id":"cebpf4jnsgd1na2vs0mg"},{"bike_id":"d76cbb43-a41c-4eb4-a896-5242672c52fa","system_id":"levelo_inurba_marseille","lat":43.28618,"lon":5.35098,"is_reserved":false,"is_disabled":false,"rental_uris":{"android":"levelo://app?vid=d76cbb43-a41c-4eb4-a896-5242672c52fa","ios":"levelo://app?vid=d76cbb43-a41c-4eb4-a896-5242672c52fa"},"vehicle_type_id":"4","last_reported":1726999741,"current_range_meters":19200,"station_id":"ce4bhch2rcd13ifvqeug","pricing_plan_id":"cebpf4jnsgd1na2vs0mg"},{"bike_id":"9196dbc7-b746-4bab-8242-ddaff7392a9a","system_id":"levelo_inurba_marseille","lat":43.29838,"lon":5.36267,"is_reserved":false,"is_disabled":false,"rental_uris":{"android":"levelo://app?vid=9196dbc7-b746-4bab-8242-ddaff7392a9a","ios":"levelo://app?vid=9196dbc7-b746-4bab-8242-ddaff7392a9a"},"vehicle_type_id":"4","last_reported":1726999741,"current_range_meters":35600,"station_id":"ce4bgpp2rcd13ifvqc3g","pricing_plan_id":"cebpf4jnsgd1na2vs0mg"},{"bike_id":"bca0aa49-c7d2-4c11-88f5-f1e59b0dafbc","system_id":"levelo_inurba_marseille","lat":43.27609,"lon":5.36105,"is_reserved":false,"is_disabled":false,"rental_uris":{"android":"levelo://app?vid=bca0aa49-c7d2-4c11-88f5-f1e59b0dafbc","ios":"levelo://app?vid=bca0aa49-c7d2-4c11-88f5-f1e59b0dafbc"},"vehicle_type_id":"4","last_reported":1726999741,"current_range_meters":17600,"station_id":"ce4bgj92rcd13ifvqbe0","pricing_plan_id":"cebpf4jnsgd1na2vs0mg"},{"bike_id":"d24bf50b-1ace-4529-8106-4c2cd9c3a4af","system_id":"levelo_inurba_marseille","lat":43.26551,"lon":5.37282,"is_reserved":false,"is_disabled":false,"rental_uris":{"android":"levelo://app?vid=d24bf50b-1ace-4529-8106-4c2cd9c3a4af","ios":"levelo://app?vid=d24bf50b-1ace-4529-8106-4c2cd9c3a4af"},"vehicle_type_id":"4","last_reported":1726999741,"current_range_meters":38800,"station_id":"ce4bhg12rcd13ifvqf70","pricing_plan_id":"cebpf4jnsgd1na2vs0mg"},{"bike_id":"1575e777-51f8-479e-bd95-714cef91a125","system_id":"levelo_inurba_marseille","lat":43.24173,"lon":5.39713,"is_reserved":false,"is_disabled":false,"rental_uris":{"android":"levelo://app?vid=1575e777-51f8-479e-bd95-714cef91a125","ios":"levelo://app?vid=1575e777-51f8-479e-bd95-714cef91a125"},"vehicle_type_id":"4","last_reported":1726999741,"current_range_meters":27600,"station_id":"ce4bhn12rcd13ifvqgpg","pricing_plan_id":"cebpf4jnsgd1na2vs0mg"},{"bike_id":"4c8f6cb4-3b36-4018-8511-c0a9045a103c","system_id":"levelo_inurba_marseille","lat":43.25,"lon":5.3892,"is_reserved":false,"is_disabled":false,"rental_uris":{"android":"levelo://app?vid=4c8f6cb4-3b36-4018-8511-c0a9045a103c","ios":"levelo://app?vid=4c8f6cb4-3b36-4018-8511-c0a9045a103c"},"vehicle_type_id":"4","last_reported":1726999741,"current_range_meters":38400,"station_id":"ce4bhgp2rcd13ifvqfd0","pricing_plan_id":"cebpf4jnsgd1na2vs0mg"},{"bike_id":"4f6cd953-65f5-4d4f-a052-70118d864e1d","system_id":"levelo_inurba_marseille","lat":43.29898,"lon":5.43669,"is_reserved":false,"is_disabled":false,"rental_uris":{"android":"levelo://app?vid=4f6cd953-65f5-4d4f-a052-70118d864e1d","ios":"levelo://app?vid=4f6cd953-65f5-4d4f-a052-70118d864e1d"},"vehicle_type_id":"4","last_reported":1726999741,"current_range_meters":3200,"station_id":"ce4bhpp2rcd13ifvqhfg","pricing_plan_id":"cebpf4jnsgd1na2vs0mg"},{"bike_id":"ab03fbd4-771e-4097-be15-28a0898ddabb","system_id":"levelo_inurba_marseille","lat":43.31888,"lon":5.40737,"is_reserved":false,"is_disabled":false,"rental_uris":{"android":"levelo://app?vid=ab03fbd4-771e-4097-be15-28a0898ddabb","ios":"levelo://app?vid=ab03fbd4-771e-4097-be15-28a0898ddabb"},"vehicle_type_id":"4","last_reported":1726999741,"current_range_meters":34000,"station_id":"ce4bhq12rcd13ifvqhig","pricing_plan_id":"cebpf4jnsgd1na2vs0mg"},{"bike_id":"8c980e46-7a71-43b5-8eb5-1fc923601a11","system_id":"levelo_inurba_marseille","lat":43.23059,"lon":5.35487,"is_reserved":false,"is_disabled":false,"rental_uris":{"android":"levelo://app?vid=8c980e46-7a71-43b5-8eb5-1fc923601a11","ios":"levelo://app?vid=8c980e46-7a71-43b5-8eb5-1fc923601a11"},"vehicle_type_id":"4","last_reported":1726999741,"current_range_meters":26800,"station_id":"cpo3342slgdg3j2ifvpg","pricing_plan_id":"cebpf4jnsgd1na2vs0mg"},{"bike_id":"d9e213ca-e541-459d-93e9-f901cb508c67","system_id":"levelo_inurba_marseille","lat":43.31703,"lon":5.37754,"is_reserved":false,"is_disabled":false,"rental_uris":{"android":"levelo://app?vid=d9e213ca-e541-459d-93e9-f901cb508c67","ios":"levelo://app?vid=d9e213ca-e541-459d-93e9-f901cb508c67"},"vehicle_type_id":"4","last_reported":1726999741,"current_range_meters":39200,"station_id":"ce4bgth2rcd13ifvqch0","pricing_plan_id":"cebpf4jnsgd1na2vs0mg"},{"bike_id":"742fe014-1f5e-499c-bbc5-66a0cbb87904","system_id":"levelo_inurba_marseille","lat":43.23189,"lon":5.35561,"is_reserved":false,"is_disabled":false,"rental_uris":{"android":"levelo://app?vid=742fe014-1f5e-499c-bbc5-66a0cbb87904","ios":"levelo://app?vid=742fe014-1f5e-499c-bbc5-66a0cbb87904"},"vehicle_type_id":"4","last_reported":1726999741,"current_range_meters":34000,"station_id":"ce4bhu92rcd13ifvqi70","pricing_plan_id":"cebpf4jnsgd1na2vs0mg"},{"bike_id":"eaba8a86-b9c2-4d10-801f-fe492232c8c7","system_id":"levelo_inurba_marseille","lat":43.33019,"lon":5.39031,"is_reserved":false,"is_disabled":false,"rental_uris":{"android":"levelo://app?vid=eaba8a86-b9c2-4d10-801f-fe492232c8c7","ios":"levelo://app?vid=eaba8a86-b9c2-4d10-801f-fe492232c8c7"},"vehicle_type_id":"4","last_reported":1726999741,"current_range_meters":29600,"station_id":"ce4bhr92rcd13ifvqhrg","pricing_plan_id":"cebpf4jnsgd1na2vs0mg"},{"bike_id":"885eb9fd-e64e-4dcf-b796-e74b9bc20997","system_id":"levelo_inurba_marseille","lat":43.27927,"lon":5.39575,"is_reserved":false,"is_disabled":false,"rental_uris":{"android":"levelo://app?vid=885eb9fd-e64e-4dcf-b796-e74b9bc20997","ios":"levelo://app?vid=885eb9fd-e64e-4dcf-b796-e74b9bc20997"},"vehicle_type_id":"4","last_reported":1726999741,"current_range_meters":36800,"station_id":"ce4bhf92rcd13ifvqf40","pricing_plan_id":"cebpf4jnsgd1na2vs0mg"},{"bike_id":"bd8e09e3-dd04-4889-8cf6-90b26ccee3bc","system_id":"levelo_inurba_marseille","lat":43.29703,"lon":5.366,"is_reserved":false,"is_disabled":false,"rental_uris":{"android":"levelo://app?vid=bd8e09e3-dd04-4889-8cf6-90b26ccee3bc","ios":"levelo://app?vid=bd8e09e3-dd04-4889-8cf6-90b26ccee3bc"},"vehicle_type_id":"4","last_reported":1726999741,"current_range_meters":30800,"station_id":"ce4bgn12rcd13ifvqbt0","pricing_plan_id":"cebpf4jnsgd1na2vs0mg"},{"bike_id":"1fcdf865-7c34-404d-a50f-06b5cbee8930","system_id":"levelo_inurba_marseille","lat":43.25854,"lon":5.39901,"is_reserved":false,"is_disabled":false,"rental_uris":{"android":"levelo://app?vid=1fcdf865-7c34-404d-a50f-06b5cbee8930","ios":"levelo://app?vid=1fcdf865-7c34-404d-a50f-06b5cbee8930"},"vehicle_type_id":"4","last_reported":1726999741,"current_range_meters":2800,"station_id":"ce4bhl92rcd13ifvqghg","pricing_plan_id":"cebpf4jnsgd1na2vs0mg"},{"bike_id":"feb42740-c719-4916-9efa-d99f861e0e6d","system_id":"levelo_inurba_marseille","lat":43.32478,"lon":5.36571,"is_reserved":false,"is_disabled":false,"rental_uris":{"android":"levelo://app?vid=feb42740-c719-4916-9efa-d99f861e0e6d","ios":"levelo://app?vid=feb42740-c719-4916-9efa-d99f861e0e6d"},"vehicle_type_id":"4","last_reported":1726999741,"current_range_meters":36400,"station_id":"ce4bhs12rcd13ifvqhvg","pricing_plan_id":"cebpf4jnsgd1na2vs0mg"},{"bike_id":"beb3335f-a034-46b7-9457-3756cdde1123","system_id":"levelo_inurba_marseille","lat":43.30461,"lon":5.37893,"is_reserved":false,"is_disabled":false,"rental_uris":{"android":"levelo://app?vid=beb3335f-a034-46b7-9457-3756cdde1123","ios":"levelo://app?vid=beb3335f-a034-46b7-9457-3756cdde1123"},"vehicle_type_id":"4","last_reported":1726999741,"current_range_meters":36800,"station_id":"ce4bgup2rcd13ifvqcn0","pricing_plan_id":"cebpf4jnsgd1na2vs0mg"},{"bike_id":"fceb5afb-6f4c-4308-aac4-3d8de88878ef","system_id":"levelo_inurba_marseille","lat":43.24076,"lon":5.37759,"is_reserved":false,"is_disabled":false,"rental_uris":{"android":"levelo://app?vid=fceb5afb-6f4c-4308-aac4-3d8de88878ef","ios":"levelo://app?vid=fceb5afb-6f4c-4308-aac4-3d8de88878ef"},"vehicle_type_id":"4","last_reported":1726999741,"current_range_meters":30000,"station_id":"ce4bhnp2rcd13ifvqgvg","pricing_plan_id":"cebpf4jnsgd1na2vs0mg"},{"bike_id":"f33483c1-3b2c-4303-843b-6554d88a9a5f","system_id":"levelo_inurba_marseille","lat":43.24076,"lon":5.3776,"is_reserved":false,"is_disabled":false,"rental_uris":{"android":"levelo://app?vid=f33483c1-3b2c-4303-843b-6554d88a9a5f","ios":"levelo://app?vid=f33483c1-3b2c-4303-843b-6554d88a9a5f"},"vehicle_type_id":"4","last_reported":1726999741,"current_range_meters":38000,"station_id":"ce4bhnp2rcd13ifvqgvg","pricing_plan_id":"cebpf4jnsgd1na2vs0mg"},{"bike_id":"5ce6ca70-38c1-446a-8e79-d58050d35527","system_id":"levelo_inurba_marseille","lat":43.26564,"lon":5.3902,"is_reserved":false,"is_disabled":false,"rental_uris":{"android":"levelo://app?vid=5ce6ca70-38c1-446a-8e79-d58050d35527","ios":"levelo://app?vid=5ce6ca70-38c1-446a-8e79-d58050d35527"},"vehicle_type_id":"4","last_reported":1726999741,"current_range_meters":26000,"station_id":"ce4bhe12rcd13ifvqf30","pricing_plan_id":"cebpf4jnsgd1na2vs0mg"},{"bike_id":"f823d7b8-f9dd-42f2-be9f-028dea601fa7","system_id":"levelo_inurba_marseille","lat":43.26023,"lon":5.37547,"is_reserved":false,"is_disabled":false,"rental_uris":{"android":"levelo://app?vid=f823d7b8-f9dd-42f2-be9f-028dea601fa7","ios":"levelo://app?vid=f823d7b8-f9dd-42f2-be9f-028dea601fa7"},"vehicle_type_id":"4","last_reported":1726999741,"current_range_meters":24800,"station_id":"ce4bhgh2rcd13ifvqfa0","pricing_plan_id":"cebpf4jnsgd1na2vs0mg"},{"bike_id":"fce734b4-6c36-4cb6-983c-c95238702258","system_id":"levelo_inurba_marseille","lat":43.31078,"lon":5.38113,"is_reserved":false,"is_disabled":false,"rental_uris":{"android":"levelo://app?vid=fce734b4-6c36-4cb6-983c-c95238702258","ios":"levelo://app?vid=fce734b4-6c36-4cb6-983c-c95238702258"},"vehicle_type_id":"4","last_reported":1726999741,"current_range_meters":13600,"station_id":"","pricing_plan_id":"cebpf4jnsgd1na2vs0mg"},{"bike_id":"ab164393-cd31-4221-b165-f26296d40d00","system_id":"levelo_inurba_marseille","lat":43.31081,"lon":5.42427,"is_reserved":false,"is_disabled":false,"rental_uris":{"android":"levelo://app?vid=ab164393-cd31-4221-b165-f26296d40d00","ios":"levelo://app?vid=ab164393-cd31-4221-b165-f26296d40d00"},"vehicle_type_id":"4","last_reported":1726999741,"current_range_meters":10800,"station_id":"ce4bhp92rcd13ifvqhag","pricing_plan_id":"cebpf4jnsgd1na2vs0mg"},{"bike_id":"c909386f-44fd-4517-b7a5-c26d3c758aba","system_id":"levelo_inurba_marseille","lat":43.23973,"lon":5.36623,"is_reserved":false,"is_disabled":false,"rental_uris":{"android":"levelo://app?vid=c909386f-44fd-4517-b7a5-c26d3c758aba","ios":"levelo://app?vid=c909386f-44fd-4517-b7a5-c26d3c758aba"},"vehicle_type_id":"4","last_reported":1726999741,"current_range_meters":30400,"station_id":"ce4bhi12rcd13ifvqfp0","pricing_plan_id":"cebpf4jnsgd1na2vs0mg"},{"bike_id":"cf96c4a6-21ac-49c8-a898-842a1e567586","system_id":"levelo_inurba_marseille","lat":43.28433,"lon":5.39198,"is_reserved":false,"is_disabled":false,"rental_uris":{"android":"levelo://app?vid=cf96c4a6-21ac-49c8-a898-842a1e567586","ios":"levelo://app?vid=cf96c4a6-21ac-49c8-a898-842a1e567586"},"vehicle_type_id":"4","last_reported":1726999741,"current_range_meters":38800,"station_id":"ce4bhoh2rcd13ifvqh5g","pricing_plan_id":"cebpf4jnsgd1na2vs0mg"},{"bike_id":"fb9b7130-4807-47c2-8e6d-4200574e5933","system_id":"levelo_inurba_marseille","lat":43.28416,"lon":5.34977,"is_reserved":false,"is_disabled":false,"rental_uris":{"android":"levelo://app?vid=fb9b7130-4807-47c2-8e6d-4200574e5933","ios":"levelo://app?vid=fb9b7130-4807-47c2-8e6d-4200574e5933"},"vehicle_type_id":"4","last_reported":1726999741,"current_range_meters":30800,"station_id":"ce4bhbh2rcd13ifvqepg","pricing_plan_id":"cebpf4jnsgd1na2vs0mg"},{"bike_id":"a27dbfcf-fdb2-45f8-985f-42b146435a71","system_id":"levelo_inurba_marseille","lat":43.32338,"lon":5.40624,"is_reserved":false,"is_disabled":false,"rental_uris":{"android":"levelo://app?vid=a27dbfcf-fdb2-45f8-985f-42b146435a71","ios":"levelo://app?vid=a27dbfcf-fdb2-45f8-985f-42b146435a71"},"vehicle_type_id":"4","last_reported":1726999741,"current_range_meters":37600,"station_id":"ce4bhq92rcd13ifvqhjg","pricing_plan_id":"cebpf4jnsgd1na2vs0mg"},{"bike_id":"f74941be-f473-4ce7-9230-0799526567ae","system_id":"levelo_inurba_marseille","lat":43.23193,"lon":5.35547,"is_reserved":false,"is_disabled":false,"rental_uris":{"android":"levelo://app?vid=f74941be-f473-4ce7-9230-0799526567ae","ios":"levelo://app?vid=f74941be-f473-4ce7-9230-0799526567ae"},"vehicle_type_id":"4","last_reported":1726999741,"current_range_meters":38800,"station_id":"ce4bhu92rcd13ifvqi70","pricing_plan_id":"cebpf4jnsgd1na2vs0mg"},{"bike_id":"584751df-08a9-4e7a-8b10-9ab3f476be95","system_id":"levelo_inurba_marseille","lat":43.29935,"lon":5.36555,"is_reserved":false,"is_disabled":false,"rental_uris":{"android":"levelo://app?vid=584751df-08a9-4e7a-8b10-9ab3f476be95","ios":"levelo://app?vid=584751df-08a9-4e7a-8b10-9ab3f476be95"},"vehicle_type_id":"4","last_reported":1726999741,"current_range_meters":32000,"station_id":"ce4bgm92rcd13ifvqbr0","pricing_plan_id":"cebpf4jnsgd1na2vs0mg"},{"bike_id":"1d843a13-7297-42bd-88e3-7bc313e4a30a","system_id":"levelo_inurba_marseille","lat":43.30931,"lon":5.40144,"is_reserved":false,"is_disabled":false,"rental_uris":{"android":"levelo://app?vid=1d843a13-7297-42bd-88e3-7bc313e4a30a","ios":"levelo://app?vid=1d843a13-7297-42bd-88e3-7bc313e4a30a"},"vehicle_type_id":"4","last_reported":1726999741,"current_range_meters":10800,"station_id":"ce4bgvp2rcd13ifvqct0","pricing_plan_id":"cebpf4jnsgd1na2vs0mg"},{"bike_id":"b652c763-09e2-4f37-a6de-277df3aeac28","system_id":"levelo_inurba_marseille","lat":43.30535,"lon":5.3654,"is_reserved":false,"is_disabled":false,"rental_uris":{"android":"levelo://app?vid=b652c763-09e2-4f37-a6de-277df3aeac28","ios":"levelo://app?vid=b652c763-09e2-4f37-a6de-277df3aeac28"},"vehicle_type_id":"4","last_reported":1726999741,"current_range_meters":39200,"station_id":"ce4bgs12rcd13ifvqcag","pricing_plan_id":"cebpf4jnsgd1na2vs0mg"},{"bike_id":"bc2224ad-a18e-479e-9927-fa7d79220cd4","system_id":"levelo_inurba_marseille","lat":43.32339,"lon":5.40625,"is_reserved":false,"is_disabled":false,"rental_uris":{"android":"levelo://app?vid=bc2224ad-a18e-479e-9927-fa7d79220cd4","ios":"levelo://app?vid=bc2224ad-a18e-479e-9927-fa7d79220cd4"},"vehicle_type_id":"4","last_reported":1726999741,"current_range_meters":37600,"station_id":"ce4bhq92rcd13ifvqhjg","pricing_plan_id":"cebpf4jnsgd1na2vs0mg"},{"bike_id":"3a9a0268-2eaa-4a35-a88b-28738c6e6160","system_id":"levelo_inurba_marseille","lat":43.260813,"lon":5.393757,"is_reserved":false,"is_disabled":false,"rental_uris":{"android":"levelo://app?vid=3a9a0268-2eaa-4a35-a88b-28738c6e6160","ios":"levelo://app?vid=3a9a0268-2eaa-4a35-a88b-28738c6e6160"},"vehicle_type_id":"4","last_reported":1726999741,"current_range_meters":24400,"station_id":"ce4bhh92rcd13ifvqfj0","pricing_plan_id":"cebpf4jnsgd1na2vs0mg"},{"bike_id":"8b874f22-bc01-43bd-bad5-c86d4f112208","system_id":"levelo_inurba_marseille","lat":43.29001,"lon":5.35611,"is_reserved":false,"is_disabled":false,"rental_uris":{"android":"levelo://app?vid=8b874f22-bc01-43bd-bad5-c86d4f112208","ios":"levelo://app?vid=8b874f22-bc01-43bd-bad5-c86d4f112208"},"vehicle_type_id":"4","last_reported":1726999741,"current_range_meters":38800,"station_id":"ce4bhb92rcd13ifvqen0","pricing_plan_id":"cebpf4jnsgd1na2vs0mg"},{"bike_id":"6a27e725-2d8c-4144-8185-44daee5ca0de","system_id":"levelo_inurba_marseille","lat":43.31748,"lon":5.39024,"is_reserved":false,"is_disabled":false,"rental_uris":{"android":"levelo://app?vid=6a27e725-2d8c-4144-8185-44daee5ca0de","ios":"levelo://app?vid=6a27e725-2d8c-4144-8185-44daee5ca0de"},"vehicle_type_id":"4","last_reported":1726999741,"current_range_meters":22400,"station_id":"ce4bhqp2rcd13ifvqhng","pricing_plan_id":"cebpf4jnsgd1na2vs0mg"},{"bike_id":"27be6f2f-1bc2-4192-a569-44eba2fb71ae","system_id":"levelo_inurba_marseille","lat":43.25942,"lon":5.409,"is_reserved":false,"is_disabled":false,"rental_uris":{"android":"levelo://app?vid=27be6f2f-1bc2-4192-a569-44eba2fb71ae","ios":"levelo://app?vid=27be6f2f-1bc2-4192-a569-44eba2fb71ae"},"vehicle_type_id":"4","last_reported":1726999741,"current_range_meters":12800,"station_id":"ce4bhm92rcd13ifvqglg","pricing_plan_id":"cebpf4jnsgd1na2vs0mg"},{"bike_id":"165b741a-2404-4624-b268-999183c6a48e","system_id":"levelo_inurba_marseille","lat":43.27488,"lon":5.42461,"is_reserved":false,"is_disabled":false,"rental_uris":{"android":"levelo://app?vid=165b741a-2404-4624-b268-999183c6a48e","ios":"levelo://app?vid=165b741a-2404-4624-b268-999183c6a48e"},"vehicle_type_id":"4","last_reported":1726999741,"current_range_meters":36800,"station_id":"ce4bhn92rcd13ifvqgrg","pricing_plan_id":"cebpf4jnsgd1na2vs0mg"},{"bike_id":"75c0d00a-ef1a-4798-9315-cb4e57bf83d0","system_id":"levelo_inurba_marseille","lat":43.28265,"lon":5.35061,"is_reserved":false,"is_disabled":false,"rental_uris":{"android":"levelo://app?vid=75c0d00a-ef1a-4798-9315-cb4e57bf83d0","ios":"levelo://app?vid=75c0d00a-ef1a-4798-9315-cb4e57bf83d0"},"vehicle_type_id":"4","last_reported":1726999741,"current_range_meters":16800,"station_id":"ce4bhbp2rcd13ifvqerg","pricing_plan_id":"cebpf4jnsgd1na2vs0mg"},{"bike_id":"523dbe2c-4770-45c9-bbf3-0c8e932b3386","system_id":"levelo_inurba_marseille","lat":43.26489,"lon":5.39538,"is_reserved":false,"is_disabled":false,"rental_uris":{"android":"levelo://app?vid=523dbe2c-4770-45c9-bbf3-0c8e932b3386","ios":"levelo://app?vid=523dbe2c-4770-45c9-bbf3-0c8e932b3386"},"vehicle_type_id":"4","last_reported":1726999741,"current_range_meters":8800,"station_id":"ce4bhi12rcd13ifvqfq0","pricing_plan_id":"cebpf4jnsgd1na2vs0mg"},{"bike_id":"a283e3db-58c0-45ca-837f-963ed26cbe7d","system_id":"levelo_inurba_marseille","lat":43.25579,"lon":5.3823,"is_reserved":false,"is_disabled":false,"rental_uris":{"android":"levelo://app?vid=a283e3db-58c0-45ca-837f-963ed26cbe7d","ios":"levelo://app?vid=a283e3db-58c0-45ca-837f-963ed26cbe7d"},"vehicle_type_id":"4","last_reported":1726999741,"current_range_meters":35200,"station_id":"ce4bhih2rcd13ifvqfs0","pricing_plan_id":"cebpf4jnsgd1na2vs0mg"},{"bike_id":"73eed61d-33cb-4233-a74d-3b9427271030","system_id":"levelo_inurba_marseille","lat":43.25861,"lon":5.39902,"is_reserved":false,"is_disabled":false,"rental_uris":{"android":"levelo://app?vid=73eed61d-33cb-4233-a74d-3b9427271030","ios":"levelo://app?vid=73eed61d-33cb-4233-a74d-3b9427271030"},"vehicle_type_id":"4","last_reported":1726999741,"current_range_meters":8400,"station_id":"ce4bhl92rcd13ifvqghg","pricing_plan_id":"cebpf4jnsgd1na2vs0mg"},{"bike_id":"e8d9fcc7-4a1f-4d96-8ebf-5d7fd0b8bb85","system_id":"levelo_inurba_marseille","lat":43.23184,"lon":5.39983,"is_reserved":false,"is_disabled":false,"rental_uris":{"android":"levelo://app?vid=e8d9fcc7-4a1f-4d96-8ebf-5d7fd0b8bb85","ios":"levelo://app?vid=e8d9fcc7-4a1f-4d96-8ebf-5d7fd0b8bb85"},"vehicle_type_id":"4","last_reported":1726999741,"current_range_meters":24000,"station_id":"ce4bhn12rcd13ifvqgqg","pricing_plan_id":"cebpf4jnsgd1na2vs0mg"},{"bike_id":"ef8c4665-5ed2-4c55-a204-5049067fb8cf","system_id":"levelo_inurba_marseille","lat":43.31327,"lon":5.3969,"is_reserved":false,"is_disabled":false,"rental_uris":{"android":"levelo://app?vid=ef8c4665-5ed2-4c55-a204-5049067fb8cf","ios":"levelo://app?vid=ef8c4665-5ed2-4c55-a204-5049067fb8cf"},"vehicle_type_id":"4","last_reported":1726999741,"current_range_meters":39200,"station_id":"ce4bgvp2rcd13ifvqcu0","pricing_plan_id":"cebpf4jnsgd1na2vs0mg"},{"bike_id":"1f7053f3-e6c4-461c-93fd-5c8be201e566","system_id":"levelo_inurba_marseille","lat":43.288518,"lon":5.393192,"is_reserved":false,"is_disabled":false,"rental_uris":{"android":"levelo://app?vid=1f7053f3-e6c4-461c-93fd-5c8be201e566","ios":"levelo://app?vid=1f7053f3-e6c4-461c-93fd-5c8be201e566"},"vehicle_type_id":"4","last_reported":1726999741,"current_range_meters":36000,"station_id":"ce4bh2p2rcd13ifvqdi0","pricing_plan_id":"cebpf4jnsgd1na2vs0mg"},{"bike_id":"30328048-d670-4bac-af3f-3c775e987223","system_id":"levelo_inurba_marseille","lat":43.3108,"lon":5.42429,"is_reserved":false,"is_disabled":false,"rental_uris":{"android":"levelo://app?vid=30328048-d670-4bac-af3f-3c775e987223","ios":"levelo://app?vid=30328048-d670-4bac-af3f-3c775e987223"},"vehicle_type_id":"4","last_reported":1726999741,"current_range_meters":16800,"station_id":"ce4bhp92rcd13ifvqhag","pricing_plan_id":"cebpf4jnsgd1na2vs0mg"},{"bike_id":"9db086ca-e7d0-4cbd-a8a0-00e1ea9007af","system_id":"levelo_inurba_marseille","lat":43.26204,"lon":5.37926,"is_reserved":false,"is_disabled":false,"rental_uris":{"android":"levelo://app?vid=9db086ca-e7d0-4cbd-a8a0-00e1ea9007af","ios":"levelo://app?vid=9db086ca-e7d0-4cbd-a8a0-00e1ea9007af"},"vehicle_type_id":"4","last_reported":1726999741,"current_range_meters":6400,"station_id":"ce4bhjp2rcd13ifvqg90","pricing_plan_id":"cebpf4jnsgd1na2vs0mg"},{"bike_id":"fa690805-233a-4a70-a9f3-33f1b67cdb1f","system_id":"levelo_inurba_marseille","lat":43.32292,"lon":5.38262,"is_reserved":false,"is_disabled":false,"rental_uris":{"android":"levelo://app?vid=fa690805-233a-4a70-a9f3-33f1b67cdb1f","ios":"levelo://app?vid=fa690805-233a-4a70-a9f3-33f1b67cdb1f"},"vehicle_type_id":"4","last_reported":1726999741,"current_range_meters":8400,"station_id":"ce4bhr12rcd13ifvqhqg","pricing_plan_id":"cebpf4jnsgd1na2vs0mg"},{"bike_id":"80f4f899-f702-483a-9759-d18d5e010f01","system_id":"levelo_inurba_marseille","lat":43.28613,"lon":5.35101,"is_reserved":false,"is_disabled":false,"rental_uris":{"android":"levelo://app?vid=80f4f899-f702-483a-9759-d18d5e010f01","ios":"levelo://app?vid=80f4f899-f702-483a-9759-d18d5e010f01"},"vehicle_type_id":"4","last_reported":1726999741,"current_range_meters":36400,"station_id":"ce4bhch2rcd13ifvqeug","pricing_plan_id":"cebpf4jnsgd1na2vs0mg"},{"bike_id":"af15abb0-a76a-4ed5-9128-0545721de8e2","system_id":"levelo_inurba_marseille","lat":43.29522,"lon":5.37508,"is_reserved":false,"is_disabled":false,"rental_uris":{"android":"levelo://app?vid=af15abb0-a76a-4ed5-9128-0545721de8e2","ios":"levelo://app?vid=af15abb0-a76a-4ed5-9128-0545721de8e2"},"vehicle_type_id":"4","last_reported":1726999741,"current_range_meters":9600,"station_id":"ce4bgkp2rcd13ifvqbmg","pricing_plan_id":"cebpf4jnsgd1na2vs0mg"},{"bike_id":"80e63dfc-a645-4d2f-a0b5-3f87a2df0aaa","system_id":"levelo_inurba_marseille","lat":43.24661,"lon":5.38158,"is_reserved":false,"is_disabled":false,"rental_uris":{"android":"levelo://app?vid=80e63dfc-a645-4d2f-a0b5-3f87a2df0aaa","ios":"levelo://app?vid=80e63dfc-a645-4d2f-a0b5-3f87a2df0aaa"},"vehicle_type_id":"4","last_reported":1726999741,"current_range_meters":28000,"station_id":"ce4bhih2rcd13ifvqfr0","pricing_plan_id":"cebpf4jnsgd1na2vs0mg"},{"bike_id":"e8126802-2acb-4ed2-87db-2389929f881f","system_id":"levelo_inurba_marseille","lat":43.28036,"lon":5.36935,"is_reserved":false,"is_disabled":false,"rental_uris":{"android":"levelo://app?vid=e8126802-2acb-4ed2-87db-2389929f881f","ios":"levelo://app?vid=e8126802-2acb-4ed2-87db-2389929f881f"},"vehicle_type_id":"4","last_reported":1726999741,"current_range_meters":4800,"station_id":"ce4bha12rcd13ifvqef0","pricing_plan_id":"cebpf4jnsgd1na2vs0mg"},{"bike_id":"a66b487e-4e8a-47ed-9044-58c653f3f80f","system_id":"levelo_inurba_marseille","lat":43.292976,"lon":5.374576,"is_reserved":false,"is_disabled":false,"rental_uris":{"android":"levelo://app?vid=a66b487e-4e8a-47ed-9044-58c653f3f80f","ios":"levelo://app?vid=a66b487e-4e8a-47ed-9044-58c653f3f80f"},"vehicle_type_id":"4","last_reported":1726999741,"current_range_meters":28000,"station_id":"ce4bgi12rcd13ifvqb70","pricing_plan_id":"cebpf4jnsgd1na2vs0mg"},{"bike_id":"fecfa792-a07c-4ec0-81d5-2fe7a6beed2d","system_id":"levelo_inurba_marseille","lat":43.27069,"lon":5.42277,"is_reserved":false,"is_disabled":false,"rental_uris":{"android":"levelo://app?vid=fecfa792-a07c-4ec0-81d5-2fe7a6beed2d","ios":"levelo://app?vid=fecfa792-a07c-4ec0-81d5-2fe7a6beed2d"},"vehicle_type_id":"4","last_reported":1726999741,"current_range_meters":40000,"station_id":"ce4bhk92rcd13ifvqgb0","pricing_plan_id":"cebpf4jnsgd1na2vs0mg"},{"bike_id":"b2763354-ec6c-4733-8de6-6c4493759ae9","system_id":"levelo_inurba_marseille","lat":43.29037,"lon":5.40139,"is_reserved":false,"is_disabled":false,"rental_uris":{"android":"levelo://app?vid=b2763354-ec6c-4733-8de6-6c4493759ae9","ios":"levelo://app?vid=b2763354-ec6c-4733-8de6-6c4493759ae9"},"vehicle_type_id":"4","last_reported":1726999741,"current_range_meters":9200,"station_id":"","pricing_plan_id":"cebpf4jnsgd1na2vs0mg"},{"bike_id":"2a02db94-e9e5-4250-bb8b-fd12e5afc898","system_id":"levelo_inurba_marseille","lat":43.26563,"lon":5.39011,"is_reserved":false,"is_disabled":false,"rental_uris":{"android":"levelo://app?vid=2a02db94-e9e5-4250-bb8b-fd12e5afc898","ios":"levelo://app?vid=2a02db94-e9e5-4250-bb8b-fd12e5afc898"},"vehicle_type_id":"4","last_reported":1726999741,"current_range_meters":21600,"station_id":"ce4bhe12rcd13ifvqf30","pricing_plan_id":"cebpf4jnsgd1na2vs0mg"},{"bike_id":"68868192-32a8-4574-9ba9-8b891c1bd3a2","system_id":"levelo_inurba_marseille","lat":43.289317,"lon":5.366545,"is_reserved":false,"is_disabled":false,"rental_uris":{"android":"levelo://app?vid=68868192-32a8-4574-9ba9-8b891c1bd3a2","ios":"levelo://app?vid=68868192-32a8-4574-9ba9-8b891c1bd3a2"},"vehicle_type_id":"4","last_reported":1726999741,"current_range_meters":22000,"station_id":"ce4bhap2rcd13ifvqek0","pricing_plan_id":"cebpf4jnsgd1na2vs0mg"},{"bike_id":"dad7cbfb-c131-4505-8ca6-522e0464f841","system_id":"levelo_inurba_marseille","lat":43.26202,"lon":5.37926,"is_reserved":false,"is_disabled":false,"rental_uris":{"android":"levelo://app?vid=dad7cbfb-c131-4505-8ca6-522e0464f841","ios":"levelo://app?vid=dad7cbfb-c131-4505-8ca6-522e0464f841"},"vehicle_type_id":"4","last_reported":1726999741,"current_range_meters":3600,"station_id":"ce4bhjp2rcd13ifvqg90","pricing_plan_id":"cebpf4jnsgd1na2vs0mg"},{"bike_id":"70ca700e-4c35-4c7d-85a4-2cc17571cb4f","system_id":"levelo_inurba_marseille","lat":43.25107,"lon":5.40327,"is_reserved":false,"is_disabled":false,"rental_uris":{"android":"levelo://app?vid=70ca700e-4c35-4c7d-85a4-2cc17571cb4f","ios":"levelo://app?vid=70ca700e-4c35-4c7d-85a4-2cc17571cb4f"},"vehicle_type_id":"4","last_reported":1726999741,"current_range_meters":40000,"station_id":"ce4bhlh2rcd13ifvqgig","pricing_plan_id":"cebpf4jnsgd1na2vs0mg"},{"bike_id":"b5312d09-7495-4a11-9270-8b8509805415","system_id":"levelo_inurba_marseille","lat":43.26543,"lon":5.37293,"is_reserved":false,"is_disabled":false,"rental_uris":{"android":"levelo://app?vid=b5312d09-7495-4a11-9270-8b8509805415","ios":"levelo://app?vid=b5312d09-7495-4a11-9270-8b8509805415"},"vehicle_type_id":"4","last_reported":1726999741,"current_range_meters":38000,"station_id":"ce4bhg12rcd13ifvqf70","pricing_plan_id":"cebpf4jnsgd1na2vs0mg"},{"bike_id":"46fbb630-09e8-4170-9be5-4fdb9fc3d75f","system_id":"levelo_inurba_marseille","lat":43.32483,"lon":5.36557,"is_reserved":false,"is_disabled":false,"rental_uris":{"android":"levelo://app?vid=46fbb630-09e8-4170-9be5-4fdb9fc3d75f","ios":"levelo://app?vid=46fbb630-09e8-4170-9be5-4fdb9fc3d75f"},"vehicle_type_id":"4","last_reported":1726999741,"current_range_meters":37600,"station_id":"ce4bhs12rcd13ifvqhvg","pricing_plan_id":"cebpf4jnsgd1na2vs0mg"},{"bike_id":"81d26118-4ded-4052-a14a-0f1e6bf04ac1","system_id":"levelo_inurba_marseille","lat":43.23054,"lon":5.35488,"is_reserved":false,"is_disabled":false,"rental_uris":{"android":"levelo://app?vid=81d26118-4ded-4052-a14a-0f1e6bf04ac1","ios":"levelo://app?vid=81d26118-4ded-4052-a14a-0f1e6bf04ac1"},"vehicle_type_id":"4","last_reported":1726999741,"current_range_meters":26800,"station_id":"cpo3342slgdg3j2ifvpg","pricing_plan_id":"cebpf4jnsgd1na2vs0mg"},{"bike_id":"6e866676-6958-47a0-bba1-aad239c4e52e","system_id":"levelo_inurba_marseille","lat":43.30357,"lon":5.41874,"is_reserved":false,"is_disabled":false,"rental_uris":{"android":"levelo://app?vid=6e866676-6958-47a0-bba1-aad239c4e52e","ios":"levelo://app?vid=6e866676-6958-47a0-bba1-aad239c4e52e"},"vehicle_type_id":"4","last_reported":1726999741,"current_range_meters":22000,"station_id":"ce4bhop2rcd13ifvqh7g","pricing_plan_id":"cebpf4jnsgd1na2vs0mg"},{"bike_id":"d28ffa41-9d7e-41f1-8b70-1aa04f034503","system_id":"levelo_inurba_marseille","lat":43.29553,"lon":5.42283,"is_reserved":false,"is_disabled":false,"rental_uris":{"android":"levelo://app?vid=d28ffa41-9d7e-41f1-8b70-1aa04f034503","ios":"levelo://app?vid=d28ffa41-9d7e-41f1-8b70-1aa04f034503"},"vehicle_type_id":"4","last_reported":1726999741,"current_range_meters":4800,"station_id":"ce4bhph2rcd13ifvqhdg","pricing_plan_id":"cebpf4jnsgd1na2vs0mg"},{"bike_id":"397349b3-2c2d-44e5-a149-6f78c0100682","system_id":"levelo_inurba_marseille","lat":43.23192,"lon":5.35552,"is_reserved":false,"is_disabled":false,"rental_uris":{"android":"levelo://app?vid=397349b3-2c2d-44e5-a149-6f78c0100682","ios":"levelo://app?vid=397349b3-2c2d-44e5-a149-6f78c0100682"},"vehicle_type_id":"4","last_reported":1726999741,"current_range_meters":16000,"station_id":"ce4bhu92rcd13ifvqi70","pricing_plan_id":"cebpf4jnsgd1na2vs0mg"},{"bike_id":"f1c65647-c1b0-4c23-bf04-752b6fa29535","system_id":"levelo_inurba_marseille","lat":43.31696,"lon":5.3776,"is_reserved":false,"is_disabled":false,"rental_uris":{"android":"levelo://app?vid=f1c65647-c1b0-4c23-bf04-752b6fa29535","ios":"levelo://app?vid=f1c65647-c1b0-4c23-bf04-752b6fa29535"},"vehicle_type_id":"4","last_reported":1726999741,"current_range_meters":39200,"station_id":"ce4bgth2rcd13ifvqch0","pricing_plan_id":"cebpf4jnsgd1na2vs0mg"},{"bike_id":"062b65cf-97dd-4099-8436-21727e5cb638","system_id":"levelo_inurba_marseille","lat":43.29187,"lon":5.358035,"is_reserved":false,"is_disabled":false,"rental_uris":{"android":"levelo://app?vid=062b65cf-97dd-4099-8436-21727e5cb638","ios":"levelo://app?vid=062b65cf-97dd-4099-8436-21727e5cb638"},"vehicle_type_id":"4","last_reported":1726999741,"current_range_meters":30800,"station_id":"ce4bhb12rcd13ifvqel0","pricing_plan_id":"cebpf4jnsgd1na2vs0mg"},{"bike_id":"ebbcdbc9-56e5-44d8-bf61-1220ee9aa0b6","system_id":"levelo_inurba_marseille","lat":43.28971,"lon":5.37843,"is_reserved":false,"is_disabled":false,"rental_uris":{"android":"levelo://app?vid=ebbcdbc9-56e5-44d8-bf61-1220ee9aa0b6","ios":"levelo://app?vid=ebbcdbc9-56e5-44d8-bf61-1220ee9aa0b6"},"vehicle_type_id":"4","last_reported":1726999741,"current_range_meters":37600,"station_id":"ce4bh9p2rcd13ifvqed0","pricing_plan_id":"cebpf4jnsgd1na2vs0mg"},{"bike_id":"9f125b04-9b15-4419-bd68-031fb7013f27","system_id":"levelo_inurba_marseille","lat":43.32369,"lon":5.38884,"is_reserved":false,"is_disabled":false,"rental_uris":{"android":"levelo://app?vid=9f125b04-9b15-4419-bd68-031fb7013f27","ios":"levelo://app?vid=9f125b04-9b15-4419-bd68-031fb7013f27"},"vehicle_type_id":"4","last_reported":1726999741,"current_range_meters":18800,"station_id":"ce4bhqp2rcd13ifvqhog","pricing_plan_id":"cebpf4jnsgd1na2vs0mg"},{"bike_id":"01db037a-7e9f-40f7-b141-157d91a19d30","system_id":"levelo_inurba_marseille","lat":43.30464,"lon":5.37905,"is_reserved":false,"is_disabled":false,"rental_uris":{"android":"levelo://app?vid=01db037a-7e9f-40f7-b141-157d91a19d30","ios":"levelo://app?vid=01db037a-7e9f-40f7-b141-157d91a19d30"},"vehicle_type_id":"4","last_reported":1726999741,"current_range_meters":33200,"station_id":"ce4bgup2rcd13ifvqcn0","pricing_plan_id":"cebpf4jnsgd1na2vs0mg"},{"bike_id":"9012af4f-2140-4c7c-96c2-3a034ae48bb4","system_id":"levelo_inurba_marseille","lat":43.32488,"lon":5.36557,"is_reserved":false,"is_disabled":false,"rental_uris":{"android":"levelo://app?vid=9012af4f-2140-4c7c-96c2-3a034ae48bb4","ios":"levelo://app?vid=9012af4f-2140-4c7c-96c2-3a034ae48bb4"},"vehicle_type_id":"4","last_reported":1726999741,"current_range_meters":38000,"station_id":"ce4bhs12rcd13ifvqhvg","pricing_plan_id":"cebpf4jnsgd1na2vs0mg"},{"bike_id":"3e215b87-0eb3-49a0-9491-ec7c07e98203","system_id":"levelo_inurba_marseille","lat":43.31892,"lon":5.40723,"is_reserved":false,"is_disabled":false,"rental_uris":{"android":"levelo://app?vid=3e215b87-0eb3-49a0-9491-ec7c07e98203","ios":"levelo://app?vid=3e215b87-0eb3-49a0-9491-ec7c07e98203"},"vehicle_type_id":"4","last_reported":1726999741,"current_range_meters":38000,"station_id":"ce4bhq12rcd13ifvqhig","pricing_plan_id":"cebpf4jnsgd1na2vs0mg"},{"bike_id":"b393dbc1-cff6-4152-819c-1cec182ef709","system_id":"levelo_inurba_marseille","lat":43.30182,"lon":5.36639,"is_reserved":false,"is_disabled":false,"rental_uris":{"android":"levelo://app?vid=b393dbc1-cff6-4152-819c-1cec182ef709","ios":"levelo://app?vid=b393dbc1-cff6-4152-819c-1cec182ef709"},"vehicle_type_id":"4","last_reported":1726999741,"current_range_meters":9200,"station_id":"ce4bgrh2rcd13ifvqc8g","pricing_plan_id":"cebpf4jnsgd1na2vs0mg"},{"bike_id":"adc5f563-9709-4241-b9cf-16f66ca1147f","system_id":"levelo_inurba_marseille","lat":43.31891,"lon":5.40729,"is_reserved":false,"is_disabled":false,"rental_uris":{"android":"levelo://app?vid=adc5f563-9709-4241-b9cf-16f66ca1147f","ios":"levelo://app?vid=adc5f563-9709-4241-b9cf-16f66ca1147f"},"vehicle_type_id":"4","last_reported":1726999741,"current_range_meters":28400,"station_id":"ce4bhq12rcd13ifvqhig","pricing_plan_id":"cebpf4jnsgd1na2vs0mg"},{"bike_id":"1118dc95-4848-44bd-81aa-ee049544818f","system_id":"levelo_inurba_marseille","lat":43.31324,"lon":5.39688,"is_reserved":false,"is_disabled":false,"rental_uris":{"android":"levelo://app?vid=1118dc95-4848-44bd-81aa-ee049544818f","ios":"levelo://app?vid=1118dc95-4848-44bd-81aa-ee049544818f"},"vehicle_type_id":"4","last_reported":1726999741,"current_range_meters":32000,"station_id":"ce4bgvp2rcd13ifvqcu0","pricing_plan_id":"cebpf4jnsgd1na2vs0mg"},{"bike_id":"08075f93-9006-4cfb-9137-247ac71e933f","system_id":"levelo_inurba_marseille","lat":43.27606,"lon":5.36108,"is_reserved":false,"is_disabled":false,"rental_uris":{"android":"levelo://app?vid=08075f93-9006-4cfb-9137-247ac71e933f","ios":"levelo://app?vid=08075f93-9006-4cfb-9137-247ac71e933f"},"vehicle_type_id":"4","last_reported":1726999741,"current_range_meters":38800,"station_id":"ce4bgj92rcd13ifvqbe0","pricing_plan_id":"cebpf4jnsgd1na2vs0mg"},{"bike_id":"3f8b2c19-8096-4338-bb50-be4b0e965806","system_id":"levelo_inurba_marseille","lat":43.30352,"lon":5.41868,"is_reserved":false,"is_disabled":false,"rental_uris":{"android":"levelo://app?vid=3f8b2c19-8096-4338-bb50-be4b0e965806","ios":"levelo://app?vid=3f8b2c19-8096-4338-bb50-be4b0e965806"},"vehicle_type_id":"4","last_reported":1726999741,"current_range_meters":40000,"station_id":"ce4bhop2rcd13ifvqh7g","pricing_plan_id":"cebpf4jnsgd1na2vs0mg"},{"bike_id":"99f53e23-5377-48a5-a528-1be46e0a6efd","system_id":"levelo_inurba_marseille","lat":43.29501,"lon":5.36163,"is_reserved":false,"is_disabled":false,"rental_uris":{"android":"levelo://app?vid=99f53e23-5377-48a5-a528-1be46e0a6efd","ios":"levelo://app?vid=99f53e23-5377-48a5-a528-1be46e0a6efd"},"vehicle_type_id":"4","last_reported":1726999741,"current_range_meters":35200,"station_id":"","pricing_plan_id":"cebpf4jnsgd1na2vs0mg"},{"bike_id":"fe76f532-15f0-4020-aeb2-1f0678a7103c","system_id":"levelo_inurba_marseille","lat":43.29036,"lon":5.37553,"is_reserved":false,"is_disabled":false,"rental_uris":{"android":"levelo://app?vid=fe76f532-15f0-4020-aeb2-1f0678a7103c","ios":"levelo://app?vid=fe76f532-15f0-4020-aeb2-1f0678a7103c"},"vehicle_type_id":"4","last_reported":1726999741,"current_range_meters":38800,"station_id":"ce4bh692rcd13ifvqe90","pricing_plan_id":"cebpf4jnsgd1na2vs0mg"},{"bike_id":"6a08fb94-58ce-4e71-b2e9-255d4a6b03ee","system_id":"levelo_inurba_marseille","lat":43.32044,"lon":5.41573,"is_reserved":false,"is_disabled":false,"rental_uris":{"android":"levelo://app?vid=6a08fb94-58ce-4e71-b2e9-255d4a6b03ee","ios":"levelo://app?vid=6a08fb94-58ce-4e71-b2e9-255d4a6b03ee"},"vehicle_type_id":"4","last_reported":1726999741,"current_range_meters":38400,"station_id":"ce4bhq92rcd13ifvqhkg","pricing_plan_id":"cebpf4jnsgd1na2vs0mg"},{"bike_id":"b6309120-084b-4d13-8337-02329fee26f1","system_id":"levelo_inurba_marseille","lat":43.28152,"lon":5.42647,"is_reserved":false,"is_disabled":false,"rental_uris":{"android":"levelo://app?vid=b6309120-084b-4d13-8337-02329fee26f1","ios":"levelo://app?vid=b6309120-084b-4d13-8337-02329fee26f1"},"vehicle_type_id":"4","last_reported":1726999741,"current_range_meters":16800,"station_id":"ce4bhnh2rcd13ifvqgug","pricing_plan_id":"cebpf4jnsgd1na2vs0mg"},{"bike_id":"8bba3f2b-df54-4de7-b1d8-db7101e04e1e","system_id":"levelo_inurba_marseille","lat":43.30442,"lon":5.3792,"is_reserved":false,"is_disabled":false,"rental_uris":{"android":"levelo://app?vid=8bba3f2b-df54-4de7-b1d8-db7101e04e1e","ios":"levelo://app?vid=8bba3f2b-df54-4de7-b1d8-db7101e04e1e"},"vehicle_type_id":"4","last_reported":1726999741,"current_range_meters":28000,"station_id":"ce4bgup2rcd13ifvqcn0","pricing_plan_id":"cebpf4jnsgd1na2vs0mg"},{"bike_id":"31444d97-ada7-4c14-9ccc-e8d8f546def7","system_id":"levelo_inurba_marseille","lat":43.26944,"lon":5.36643,"is_reserved":false,"is_disabled":false,"rental_uris":{"android":"levelo://app?vid=31444d97-ada7-4c14-9ccc-e8d8f546def7","ios":"levelo://app?vid=31444d97-ada7-4c14-9ccc-e8d8f546def7"},"vehicle_type_id":"4","last_reported":1726999741,"current_range_meters":4400,"station_id":"","pricing_plan_id":"cebpf4jnsgd1na2vs0mg"},{"bike_id":"4ee96c7b-3913-4d87-aa10-c04da1f3977e","system_id":"levelo_inurba_marseille","lat":43.29838,"lon":5.36268,"is_reserved":false,"is_disabled":false,"rental_uris":{"android":"levelo://app?vid=4ee96c7b-3913-4d87-aa10-c04da1f3977e","ios":"levelo://app?vid=4ee96c7b-3913-4d87-aa10-c04da1f3977e"},"vehicle_type_id":"4","last_reported":1726999741,"current_range_meters":32000,"station_id":"ce4bgpp2rcd13ifvqc3g","pricing_plan_id":"cebpf4jnsgd1na2vs0mg"},{"bike_id":"ad86b178-5449-450b-9959-0de3671a6029","system_id":"levelo_inurba_marseille","lat":43.31174,"lon":5.38722,"is_reserved":false,"is_disabled":false,"rental_uris":{"android":"levelo://app?vid=ad86b178-5449-450b-9959-0de3671a6029","ios":"levelo://app?vid=ad86b178-5449-450b-9959-0de3671a6029"},"vehicle_type_id":"4","last_reported":1726999741,"current_range_meters":39200,"station_id":"ce4bgv12rcd13ifvqcp0","pricing_plan_id":"cebpf4jnsgd1na2vs0mg"},{"bike_id":"a9c824d3-0b71-497d-93e4-b8684acc6f44","system_id":"levelo_inurba_marseille","lat":43.231964,"lon":5.355496,"is_reserved":false,"is_disabled":false,"rental_uris":{"android":"levelo://app?vid=a9c824d3-0b71-497d-93e4-b8684acc6f44","ios":"levelo://app?vid=a9c824d3-0b71-497d-93e4-b8684acc6f44"},"vehicle_type_id":"4","last_reported":1726999741,"current_range_meters":22000,"station_id":"ce4bhu92rcd13ifvqi70","pricing_plan_id":"cebpf4jnsgd1na2vs0mg"},{"bike_id":"7f02c607-826a-4a2a-b6aa-fd3e33f706a0","system_id":"levelo_inurba_marseille","lat":43.25863,"lon":5.39903,"is_reserved":false,"is_disabled":false,"rental_uris":{"android":"levelo://app?vid=7f02c607-826a-4a2a-b6aa-fd3e33f706a0","ios":"levelo://app?vid=7f02c607-826a-4a2a-b6aa-fd3e33f706a0"},"vehicle_type_id":"4","last_reported":1726999741,"current_range_meters":27600,"station_id":"ce4bhl92rcd13ifvqghg","pricing_plan_id":"cebpf4jnsgd1na2vs0mg"},{"bike_id":"a94bcfc4-fb99-4e59-88f0-6e34ce892fbe","system_id":"levelo_inurba_marseille","lat":43.24173,"lon":5.3973,"is_reserved":false,"is_disabled":false,"rental_uris":{"android":"levelo://app?vid=a94bcfc4-fb99-4e59-88f0-6e34ce892fbe","ios":"levelo://app?vid=a94bcfc4-fb99-4e59-88f0-6e34ce892fbe"},"vehicle_type_id":"4","last_reported":1726999741,"current_range_meters":38400,"station_id":"ce4bhn12rcd13ifvqgpg","pricing_plan_id":"cebpf4jnsgd1na2vs0mg"},{"bike_id":"26e4630f-86de-46b0-99ae-238d33afc551","system_id":"levelo_inurba_marseille","lat":43.26924,"lon":5.38913,"is_reserved":false,"is_disabled":false,"rental_uris":{"android":"levelo://app?vid=26e4630f-86de-46b0-99ae-238d33afc551","ios":"levelo://app?vid=26e4630f-86de-46b0-99ae-238d33afc551"},"vehicle_type_id":"4","last_reported":1726999741,"current_range_meters":7200,"station_id":"ce4bhhh2rcd13ifvqfl0","pricing_plan_id":"cebpf4jnsgd1na2vs0mg"},{"bike_id":"01e8431f-a13b-454d-b813-a0fc9c3247ba","system_id":"levelo_inurba_marseille","lat":43.32338,"lon":5.40613,"is_reserved":false,"is_disabled":false,"rental_uris":{"android":"levelo://app?vid=01e8431f-a13b-454d-b813-a0fc9c3247ba","ios":"levelo://app?vid=01e8431f-a13b-454d-b813-a0fc9c3247ba"},"vehicle_type_id":"4","last_reported":1726999741,"current_range_meters":39200,"station_id":"ce4bhq92rcd13ifvqhjg","pricing_plan_id":"cebpf4jnsgd1na2vs0mg"},{"bike_id":"22402a9b-b95e-4eaa-8764-9794e83700f8","system_id":"levelo_inurba_marseille","lat":43.33023,"lon":5.39035,"is_reserved":false,"is_disabled":false,"rental_uris":{"android":"levelo://app?vid=22402a9b-b95e-4eaa-8764-9794e83700f8","ios":"levelo://app?vid=22402a9b-b95e-4eaa-8764-9794e83700f8"},"vehicle_type_id":"4","last_reported":1726999741,"current_range_meters":17600,"station_id":"ce4bhr92rcd13ifvqhrg","pricing_plan_id":"cebpf4jnsgd1na2vs0mg"},{"bike_id":"3e4320c1-bb2c-49ed-92cc-9ddd9d99b15f","system_id":"levelo_inurba_marseille","lat":43.3149,"lon":5.37308,"is_reserved":false,"is_disabled":false,"rental_uris":{"android":"levelo://app?vid=3e4320c1-bb2c-49ed-92cc-9ddd9d99b15f","ios":"levelo://app?vid=3e4320c1-bb2c-49ed-92cc-9ddd9d99b15f"},"vehicle_type_id":"4","last_reported":1726999741,"current_range_meters":24400,"station_id":"ce4bgt12rcd13ifvqcd0","pricing_plan_id":"cebpf4jnsgd1na2vs0mg"},{"bike_id":"ecd87928-9ce4-40b2-bd15-1cb3e0aae524","system_id":"levelo_inurba_marseille","lat":43.24172,"lon":5.36394,"is_reserved":false,"is_disabled":false,"rental_uris":{"android":"levelo://app?vid=ecd87928-9ce4-40b2-bd15-1cb3e0aae524","ios":"levelo://app?vid=ecd87928-9ce4-40b2-bd15-1cb3e0aae524"},"vehicle_type_id":"4","last_reported":1726999741,"current_range_meters":34000,"station_id":"cpo36qri1sfpv3e86is0","pricing_plan_id":"cebpf4jnsgd1na2vs0mg"},{"bike_id":"d323bc23-4105-4d98-87ab-fb3899c88f8a","system_id":"levelo_inurba_marseille","lat":43.23193,"lon":5.35556,"is_reserved":false,"is_disabled":false,"rental_uris":{"android":"levelo://app?vid=d323bc23-4105-4d98-87ab-fb3899c88f8a","ios":"levelo://app?vid=d323bc23-4105-4d98-87ab-fb3899c88f8a"},"vehicle_type_id":"4","last_reported":1726999741,"current_range_meters":32400,"station_id":"ce4bhu92rcd13ifvqi70","pricing_plan_id":"cebpf4jnsgd1na2vs0mg"},{"bike_id":"98b2fe6b-3c1e-4282-92dc-0a5549efb1a8","system_id":"levelo_inurba_marseille","lat":43.30785,"lon":5.37652,"is_reserved":false,"is_disabled":false,"rental_uris":{"android":"levelo://app?vid=98b2fe6b-3c1e-4282-92dc-0a5549efb1a8","ios":"levelo://app?vid=98b2fe6b-3c1e-4282-92dc-0a5549efb1a8"},"vehicle_type_id":"4","last_reported":1726999741,"current_range_meters":39200,"station_id":"ce4bgv92rcd13ifvqcq0","pricing_plan_id":"cebpf4jnsgd1na2vs0mg"},{"bike_id":"80d2c233-0f73-4e62-bd29-3578b96fea28","system_id":"levelo_inurba_marseille","lat":43.30476,"lon":5.37908,"is_reserved":false,"is_disabled":false,"rental_uris":{"android":"levelo://app?vid=80d2c233-0f73-4e62-bd29-3578b96fea28","ios":"levelo://app?vid=80d2c233-0f73-4e62-bd29-3578b96fea28"},"vehicle_type_id":"4","last_reported":1726999741,"current_range_meters":39200,"station_id":"ce4bgup2rcd13ifvqcn0","pricing_plan_id":"cebpf4jnsgd1na2vs0mg"},{"bike_id":"8c95e4dd-dcfd-43d4-9a20-cea16208859d","system_id":"levelo_inurba_marseille","lat":43.25003,"lon":5.38911,"is_reserved":false,"is_disabled":false,"rental_uris":{"android":"levelo://app?vid=8c95e4dd-dcfd-43d4-9a20-cea16208859d","ios":"levelo://app?vid=8c95e4dd-dcfd-43d4-9a20-cea16208859d"},"vehicle_type_id":"4","last_reported":1726999741,"current_range_meters":27200,"station_id":"ce4bhgp2rcd13ifvqfd0","pricing_plan_id":"cebpf4jnsgd1na2vs0mg"},{"bike_id":"5de90350-eece-4dc9-8c24-5e5f8a365ac4","system_id":"levelo_inurba_marseille","lat":43.30796,"lon":5.43526,"is_reserved":false,"is_disabled":false,"rental_uris":{"android":"levelo://app?vid=5de90350-eece-4dc9-8c24-5e5f8a365ac4","ios":"levelo://app?vid=5de90350-eece-4dc9-8c24-5e5f8a365ac4"},"vehicle_type_id":"4","last_reported":1726999741,"current_range_meters":38800,"station_id":"ce4bhph2rcd13ifvqheg","pricing_plan_id":"cebpf4jnsgd1na2vs0mg"},{"bike_id":"3d0f40b7-f380-478b-9503-dfbda12b4705","system_id":"levelo_inurba_marseille","lat":43.28616,"lon":5.35099,"is_reserved":false,"is_disabled":false,"rental_uris":{"android":"levelo://app?vid=3d0f40b7-f380-478b-9503-dfbda12b4705","ios":"levelo://app?vid=3d0f40b7-f380-478b-9503-dfbda12b4705"},"vehicle_type_id":"4","last_reported":1726999741,"current_range_meters":27600,"station_id":"ce4bhch2rcd13ifvqeug","pricing_plan_id":"cebpf4jnsgd1na2vs0mg"},{"bike_id":"0737e8a2-e51d-4ee4-807a-f6c5a9811bbb","system_id":"levelo_inurba_marseille","lat":43.31066,"lon":5.38351,"is_reserved":false,"is_disabled":false,"rental_uris":{"android":"levelo://app?vid=0737e8a2-e51d-4ee4-807a-f6c5a9811bbb","ios":"levelo://app?vid=0737e8a2-e51d-4ee4-807a-f6c5a9811bbb"},"vehicle_type_id":"4","last_reported":1726999741,"current_range_meters":37600,"station_id":"ce4bgv92rcd13ifvqcr0","pricing_plan_id":"cebpf4jnsgd1na2vs0mg"},