{"last_updated":1767517885,"ttl":60,"version":"2.2","data":{"bikes":[{"bike_id":"ddadb22a-87ae-403a-8f50-fcfddb4a2105","system_id":"levelo_inurba_marseille","lat":43.28473,"lon":5.38406,"is_reserved":false,"is_disabled":false,"rental_uris":{"android":"levelo://app?vid=ddadb22a-87ae-403a-8f50-fcfddb4a2105","ios":"levelo://app?vid=ddadb22a-87ae-403a-8f50-fcfddb4a2105"},"vehicle_type_id":"4","last_reported":1767517886,"current_range_meters":2800,"station_id":"ce4bh512rcd13ifvqe3g","pricing_plan_id":"cebpf4jnsgd1na2vs0mg"},{"bike_id":"cacd189b-364d-4b1a-8882-a16ba27a8c11","system_id":"levelo_inurba_marseille","lat":43.237883,"lon":5.366321,"is_reserved":false,"is_disabled":false,"rental_uris":{"android":"levelo://app?vid=cacd189b-364d-4b1a-8882-a16ba27a8c11","ios":"levelo://app?vid=cacd189b-364d-4b1a-8882-a16ba27a8c11"},"vehicle_type_id":"4","last_reported":1767517886,"current_range_meters":2800,"station_id":"st_d3nk18o9ro0c73en2l3g","pricing_plan_id":"cebpf4jnsgd1na2vs0mg"},{"bike_id":"0c95dd9f-c660-4b76-b09f-1fe6a5fcdd5e","system_id":"levelo_inurba_marseille","lat":43.32354,"lon":5.36741,"is_reserved":false,"is_disabled":false,"rental_uris":{"android":"levelo://app?vid=0c95dd9f-c660-4b76-b09f-1fe6a5fcdd5e","ios":"levelo://app?vid=0c95dd9f-c660-4b76-b09f-1fe6a5fcdd5e"},"vehicle_type_id":"4","last_reported":1767517886,"current_range_meters":2800,"station_id":"ce4bhsh2rcd13ifvqi2g","pricing_plan_id":"cebpf4jnsgd1na2vs0mg"},{"bike_id":"e9946f23-a16f-4b6d-a8aa-e4b6ba3d7478","system_id":"levelo_inurba_marseille","lat":43.28609,"lon":5.399,"is_reserved":false,"is_disabled":false,"rental_uris":{"android":"levelo://app?vid=e9946f23-a16f-4b6d-a8aa-e4b6ba3d7478","ios":"levelo://app?vid=e9946f23-a16f-4b6d-a8aa-e4b6ba3d7478"},"vehicle_type_id":"4","last_reported":1767517886,"current_range_meters":2800,"station_id":"st_d4a7ka997mjs738ck50g","pricing_plan_id":"cebpf4jnsgd1na2vs0mg"},{"bike_id":"b069e66b-3d24-44ee-a3b6-26964d74bee5","system_id":"levelo_inurba_marseille","lat":43.28002,"lon":5.40616,"is_reserved":false,"is_disabled":false,"rental_uris":{"android":"levelo://app?vid=b069e66b-3d24-44ee-a3b6-26964d74bee5","ios":"levelo://app?vid=b069e66b-3d24-44ee-a3b6-26964d74bee5"},"vehicle_type_id":"4","last_reported":1767517886,"current_range_meters":2800,"station_id":"","pricing_plan_id":"cebpf4jnsgd1na2vs0mg"},{"bike_id":"f67fdd8e-3a18-4359-8f12-09494150cb39","system_id":"levelo_inurba_marseille","lat":43.24399,"lon":5.37063,"is_reserved":false,"is_disabled":false,"rental_uris":{"android":"levelo://app?vid=f67fdd8e-3a18-4359-8f12-09494150cb39","ios":"levelo://app?vid=f67fdd8e-3a18-4359-8f12-09494150cb39"},"vehicle_type_id":"4","last_reported":1767517886,"current_range_meters":2800,"station_id":"ce4bhhh2rcd13ifvqfk0","pricing_plan_id":"cebpf4jnsgd1na2vs0mg"},{"bike_id":"0ec00df7-3d5b-4681-970c-d49011aaf88f","system_id":"levelo_inurba_marseille","lat":43.27829,"lon":5.39203,"is_reserved":false,"is_disabled":false,"rental_uris":{"android":"levelo://app?vid=0ec00df7-3d5b-4681-970c-d49011aaf88f","ios":"levelo://app?vid=0ec00df7-3d5b-4681-970c-d49011aaf88f"},"vehicle_type_id":"4","last_reported":1767517886,"current_range_meters":2800,"station_id":"ce4bhjp2rcd13ifvqga0","pricing_plan_id":"cebpf4jnsgd1na2vs0mg"},{"bike_id":"65131df1-0bed-43f7-938b-a392665de4f0","system_id":"levelo_inurba_marseille","lat":43.2705,"lon":5.42282,"is_reserved":false,"is_disabled":false,"rental_uris":{"android":"levelo://app?vid=65131df1-0bed-43f7-938b-a392665de4f0","ios":"levelo://app?vid=65131df1-0bed-43f7-938b-a392665de4f0"},"vehicle_type_id":"4","last_reported":1767517886,"current_range_meters":3200,"station_id":"ce4bhk92rcd13ifvqgb0","pricing_plan_id":"cebpf4jnsgd1na2vs0mg"},{"bike_id":"9255467e-14b4-4b38-a086-cb9c5423bc3f","system_id":"levelo_inurba_marseille","lat":43.293738,"lon":5.378582,"is_reserved":false,"is_disabled":false,"rental_uris":{"android":"levelo://app?vid=9255467e-14b4-4b38-a086-cb9c5423bc3f","ios":"levelo://app?vid=9255467e-14b4-4b38-a086-cb9c5423bc3f"},"vehicle_type_id":"4","last_reported":1767517886,"current_range_meters":3200,"station_id":"ce4bgjh2rcd13ifvqbf0","pricing_plan_id":"cebpf4jnsgd1na2vs0mg"},{"bike_id":"3b391aa1-1907-4005-88cc-7a9ac12c81d0","system_id":"levelo_inurba_marseille","lat":43.23971,"lon":5.36603,"is_reserved":false,"is_disabled":false,"rental_uris":{"android":"levelo://app?vid=3b391aa1-1907-4005-88cc-7a9ac12c81d0","ios":"levelo://app?vid=3b391aa1-1907-4005-88cc-7a9ac12c81d0"},"vehicle_type_id":"4","last_reported":1767517886,"current_range_meters":3200,"station_id":"ce4bhi12rcd13ifvqfp0","pricing_plan_id":"cebpf4jnsgd1na2vs0mg"},{"bike_id":"e6ac950a-7f37-49d7-bcb1-d5634532fda3","system_id":"levelo_inurba_marseille","lat":43.2756,"lon":5.38438,"is_reserved":false,"is_disabled":false,"rental_uris":{"android":"levelo://app?vid=e6ac950a-7f37-49d7-bcb1-d5634532fda3","ios":"levelo://app?vid=e6ac950a-7f37-49d7-bcb1-d5634532fda3"},"vehicle_type_id":"4","last_reported":1767517886,"current_range_meters":3200,"station_id":"ce4bhh92rcd13ifvqfi0","pricing_plan_id":"cebpf4jnsgd1na2vs0mg"},{"bike_id":"8ce78bae-db8a-4d0d-a610-7b09e4add19f","system_id":"levelo_inurba_marseille","lat":43.271681,"lon":5.409879,"is_reserved":false,"is_disabled":false,"rental_uris":{"android":"levelo://app?vid=8ce78bae-db8a-4d0d-a610-7b09e4add19f","ios":"levelo://app?vid=8ce78bae-db8a-4d0d-a610-7b09e4add19f"},"vehicle_type_id":"4","last_reported":1767517886,"current_range_meters":3200,"station_id":"ce4bhl12rcd13ifvqgf0","pricing_plan_id":"cebpf4jnsgd1na2vs0mg"},{"bike_id":"8b720c35-4823-48af-825c-0c71ab5317be","system_id":"levelo_inurba_marseille","lat":43.2795,"lon":5.41056,"is_reserved":false,"is_disabled":true,"rental_uris":{"android":"levelo://app?vid=8b720c35-4823-48af-825c-0c71ab5317be","ios":"levelo://app?vid=8b720c35-4823-48af-825c-0c71ab5317be"},"vehicle_type_id":"4","last_reported":1767517886,"current_range_meters":3200,"station_id":"ce4bhnp2rcd13ifvqh0g","pricing_plan_id":"cebpf4jnsgd1na2vs0mg"},{"bike_id":"145bab88-2f1e-4291-8a33-4a944fe2542c","system_id":"levelo_inurba_marseille","lat":43.30424,"lon":5.39787,"is_reserved":false,"is_disabled":false,"rental_uris":{"android":"levelo://app?vid=145bab88-2f1e-4291-8a33-4a944fe2542c","ios":"levelo://app?vid=145bab88-2f1e-4291-8a33-4a944fe2542c"},"vehicle_type_id":"4","last_reported":1767517886,"current_range_meters":3200,"station_id":"ce4bh092rcd13ifvqd20","pricing_plan_id":"cebpf4jnsgd1na2vs0mg"},{"bike_id":"47a9e8ce-5a44-441a-9695-e8dc7f3c9dfa","system_id":"levelo_inurba_marseille","lat":43.30725,"lon":5.4244,"is_reserved":false,"is_disabled":false,"rental_uris":{"android":"levelo://app?vid=47a9e8ce-5a44-441a-9695-e8dc7f3c9dfa","ios":"levelo://app?vid=47a9e8ce-5a44-441a-9695-e8dc7f3c9dfa"},"vehicle_type_id":"4","last_reported":1767517886,"current_range_meters":3600,"station_id":"st_cvj6ca6bvosntc0bfgr0","pricing_plan_id":"cebpf4jnsgd1na2vs0mg"},{"bike_id":"d21a3e34-58bc-4d1b-9ac9-a8532bb50fd1","system_id":"levelo_inurba_marseille","lat":43.29818,"lon":5.44092,"is_reserved":false,"is_disabled":false,"rental_uris":{"android":"levelo://app?vid=d21a3e34-58bc-4d1b-9ac9-a8532bb50fd1","ios":"levelo://app?vid=d21a3e34-58bc-4d1b-9ac9-a8532bb50fd1"},"vehicle_type_id":"4","last_reported":1767517886,"current_range_meters":3600,"station_id":"","pricing_plan_id":"cebpf4jnsgd1na2vs0mg"},{"bike_id":"1e895ccc-52e7-4971-b1eb-1726250f7268","system_id":"levelo_inurba_marseille","lat":43.22928,"lon":5.35396,"is_reserved":false,"is_disabled":false,"rental_uris":{"android":"levelo://app?vid=1e895ccc-52e7-4971-b1eb-1726250f7268","ios":"levelo://app?vid=1e895ccc-52e7-4971-b1eb-1726250f7268"},"vehicle_type_id":"4","last_reported":1767517886,"current_range_meters":3600,"station_id":"cpo3532slgdg3j2ikp40","pricing_plan_id":"cebpf4jnsgd1na2vs0mg"},{"bike_id":"ef571db9-6dc4-4434-a047-459ec60cc0fd","system_id":"levelo_inurba_marseille","lat":43.29044,"lon":5.37163,"is_reserved":false,"is_disabled":false,"rental_uris":{"android":"levelo://app?vid=ef571db9-6dc4-4434-a047-459ec60cc0fd","ios":"levelo://app?vid=ef571db9-6dc4-4434-a047-459ec60cc0fd"},"vehicle_type_id":"4","last_reported":1767517886,"current_range_meters":3600,"station_id":"ce4bh5p2rcd13ifvqe4g","pricing_plan_id":"cebpf4jnsgd1na2vs0mg"},{"bike_id":"6e46a9cb-7614-40af-b58d-78c6ad0e81c2","system_id":"levelo_inurba_marseille","lat":43.27978,"lon":5.38694,"is_reserved":false,"is_disabled":false,"rental_uris":{"android":"levelo://app?vid=6e46a9cb-7614-40af-b58d-78c6ad0e81c2","ios":"levelo://app?vid=6e46a9cb-7614-40af-b58d-78c6ad0e81c2"},"vehicle_type_id":"4","last_reported":1767517886,"current_range_meters":3600,"station_id":"ce4bhg12rcd13ifvqf80","pricing_plan_id":"cebpf4jnsgd1na2vs0mg"},{"bike_id":"50847222-7570-497c-b8ce-fec631a7bec9","system_id":"levelo_inurba_marseille","lat":43.3105,"lon":5.37167,"is_reserved":false,"is_disabled":false,"rental_uris":{"android":"levelo://app?vid=50847222-7570-497c-b8ce-fec631a7bec9","ios":"levelo://app?vid=50847222-7570-497c-b8ce-fec631a7bec9"},"vehicle_type_id":"4","last_reported":1767517886,"current_range_meters":4000,"station_id":"st_d4kl2rp97mjs73e7tdfg","pricing_plan_id":"cebpf4jnsgd1na2vs0mg"},{"bike_id":"34f3a292-6f55-4da9-baea-9c8e3ef09af6","system_id":"levelo_inurba_marseille","lat":43.25499,"lon":5.37655,"is_reserved":false,"is_disabled":false,"rental_uris":{"android":"levelo://app?vid=34f3a292-6f55-4da9-baea-9c8e3ef09af6","ios":"levelo://app?vid=34f3a292-6f55-4da9-baea-9c8e3ef09af6"},"vehicle_type_id":"4","last_reported":1767517886,"current_range_meters":4000,"station_id":"ce4bhh12rcd13ifvqff0","pricing_plan_id":"cebpf4jnsgd1na2vs0mg"},{"bike_id":"6af309a2-8f26-4463-a2f8-b68c7d811285","system_id":"levelo_inurba_marseille","lat":43.30841,"lon":5.37516,"is_reserved":false,"is_disabled":false,"rental_uris":{"android":"levelo://app?vid=6af309a2-8f26-4463-a2f8-b68c7d811285","ios":"levelo://app?vid=6af309a2-8f26-4463-a2f8-b68c7d811285"},"vehicle_type_id":"4","last_reported":1767517886,"current_range_meters":4000,"station_id":"","pricing_plan_id":"cebpf4jnsgd1na2vs0mg"},{"bike_id":"1cb07a07-9f8b-49b3-899d-e4d88daca5ff","system_id":"levelo_inurba_marseille","lat":43.260215,"lon":5.407665,"is_reserved":false,"is_disabled":false,"rental_uris":{"android":"levelo://app?vid=1cb07a07-9f8b-49b3-899d-e4d88daca5ff","ios":"levelo://app?vid=1cb07a07-9f8b-49b3-899d-e4d88daca5ff"},"vehicle_type_id":"4","last_reported":1767517886,"current_range_meters":4000,"station_id":"","pricing_plan_id":"cebpf4jnsgd1na2vs0mg"},{"bike_id":"dc9feb7e-742c-4c15-83bb-7db4fa4848d4","system_id":"levelo_inurba_marseille","lat":43.32845,"lon":5.36683,"is_reserved":false,"is_disabled":false,"rental_uris":{"android":"levelo://app?vid=dc9feb7e-742c-4c15-83bb-7db4fa4848d4","ios":"levelo://app?vid=dc9feb7e-742c-4c15-83bb-7db4fa4848d4"},"vehicle_type_id":"4","last_reported":1767517886,"current_range_meters":4000,"station_id":"","pricing_plan_id":"cebpf4jnsgd1na2vs0mg"},{"bike_id":"be59f674-a0bd-4fc3-a219-9eada39112de","system_id":"levelo_inurba_marseille","lat":43.299648,"lon":5.373664,"is_reserved":false,"is_disabled":false,"rental_uris":{"android":"levelo://app?vid=be59f674-a0bd-4fc3-a219-9eada39112de","ios":"levelo://app?vid=be59f674-a0bd-4fc3-a219-9eada39112de"},"vehicle_type_id":"4","last_reported":1767517886,"current_range_meters":4000,"station_id":"","pricing_plan_id":"cebpf4jnsgd1na2vs0mg"},{"bike_id":"369c8c7b-dd26-491c-8ac1-e59e015c794f","system_id":"levelo_inurba_marseille","lat":43.2781,"lon":5.40701,"is_reserved":false,"is_disabled":false,"rental_uris":{"android":"levelo://app?vid=369c8c7b-dd26-491c-8ac1-e59e015c794f","ios":"levelo://app?vid=369c8c7b-dd26-491c-8ac1-e59e015c794f"},"vehicle_type_id":"4","last_reported":1767517886,"current_range_meters":4000,"station_id":"ce4bhnh2rcd13ifvqgtg","pricing_plan_id":"cebpf4jnsgd1na2vs0mg"},{"bike_id":"f6a515b6-0743-4a5b-b2ec-32565099009c","system_id":"levelo_inurba_marseille","lat":43.237893,"lon":5.366354,"is_reserved":false,"is_disabled":false,"rental_uris":{"android":"levelo://app?vid=f6a515b6-0743-4a5b-b2ec-32565099009c","ios":"levelo://app?vid=f6a515b6-0743-4a5b-b2ec-32565099009c"},"vehicle_type_id":"4","last_reported":1767517886,"current_range_meters":4000,"station_id":"st_d3nk18o9ro0c73en2l3g","pricing_plan_id":"cebpf4jnsgd1na2vs0mg"},{"bike_id":"e493b9f3-75a9-4b83-a37d-a0c34b5cbb80","system_id":"levelo_inurba_marseille","lat":43.24649,"lon":5.38905,"is_reserved":false,"is_disabled":false,"rental_uris":{"android":"levelo://app?vid=e493b9f3-75a9-4b83-a37d-a0c34b5cbb80","ios":"levelo://app?vid=e493b9f3-75a9-4b83-a37d-a0c34b5cbb80"},"vehicle_type_id":"4","last_reported":1767517886,"current_range_meters":4000,"station_id":"ce4bhg12rcd13ifvqf60","pricing_plan_id":"cebpf4jnsgd1na2vs0mg"},{"bike_id":"074722cb-2569-4df8-9492-e46ca66ccdc6","system_id":"levelo_inurba_marseille","lat":43.31106,"lon":5.37109,"is_reserved":false,"is_disabled":false,"rental_uris":{"android":"levelo://app?vid=074722cb-2569-4df8-9492-e46ca66ccdc6","ios":"levelo://app?vid=074722cb-2569-4df8-9492-e46ca66ccdc6"},"vehicle_type_id":"4","last_reported":1767517886,"current_range_meters":4400,"station_id":"","pricing_plan_id":"cebpf4jnsgd1na2vs0mg"},{"bike_id":"1cf00ace-af9d-4f39-bffd-9c136c39e3d6","system_id":"levelo_inurba_marseille","lat":43.30638,"lon":5.401,"is_reserved":false,"is_disabled":false,"rental_uris":{"android":"levelo://app?vid=1cf00ace-af9d-4f39-bffd-9c136c39e3d6","ios":"levelo://app?vid=1cf00ace-af9d-4f39-bffd-9c136c39e3d6"},"vehicle_type_id":"4","last_reported":1767517886,"current_range_meters":4400,"station_id":"ce4bh112rcd13ifvqda0","pricing_plan_id":"cebpf4jnsgd1na2vs0mg"},{"bike_id":"f73476a1-8b2a-42dc-b112-79fd77bdf5e0","system_id":"levelo_inurba_marseille","lat":43.27205,"lon":5.41004,"is_reserved":false,"is_disabled":false,"rental_uris":{"android":"levelo://app?vid=f73476a1-8b2a-42dc-b112-79fd77bdf5e0","ios":"levelo://app?vid=f73476a1-8b2a-42dc-b112-79fd77bdf5e0"},"vehicle_type_id":"4","last_reported":1767517886,"current_range_meters":4400,"station_id":"ce4bhl12rcd13ifvqgf0","pricing_plan_id":"cebpf4jnsgd1na2vs0mg"},{"bike_id":"ddea6b53-a329-474e-b86a-40e23ca5f3fa","system_id":"levelo_inurba_marseille","lat":43.26213,"lon":5.3746,"is_reserved":false,"is_disabled":false,"rental_uris":{"android":"levelo://app?vid=ddea6b53-a329-474e-b86a-40e23ca5f3fa","ios":"levelo://app?vid=ddea6b53-a329-474e-b86a-40e23ca5f3fa"},"vehicle_type_id":"4","last_reported":1767517886,"current_range_meters":4400,"station_id":"ce4bhgp2rcd13ifvqfc0","pricing_plan_id":"cebpf4jnsgd1na2vs0mg"},{"bike_id":"64715ed3-7658-44a3-8c77-eceed2009a4b","system_id":"levelo_inurba_marseille","lat":43.264936,"lon":5.39547,"is_reserved":false,"is_disabled":false,"rental_uris":{"android":"levelo://app?vid=64715ed3-7658-44a3-8c77-eceed2009a4b","ios":"levelo://app?vid=64715ed3-7658-44a3-8c77-eceed2009a4b"},"vehicle_type_id":"4","last_reported":1767517886,"current_range_meters":4400,"station_id":"ce4bhi12rcd13ifvqfq0","pricing_plan_id":"cebpf4jnsgd1na2vs0mg"},{"bike_id":"650cf425-f87e-4c30-9156-354d5fef94cd","system_id":"levelo_inurba_marseille","lat":43.30146,"lon":5.36739,"is_reserved":false,"is_disabled":false,"rental_uris":{"android":"levelo://app?vid=650cf425-f87e-4c30-9156-354d5fef94cd","ios":"levelo://app?vid=650cf425-f87e-4c30-9156-354d5fef94cd"},"vehicle_type_id":"4","last_reported":1767517886,"current_range_meters":4400,"station_id":"","pricing_plan_id":"cebpf4jnsgd1na2vs0mg"},{"bike_id":"91458b19-cb25-4f18-83db-4ba9d96005a9","system_id":"levelo_inurba_marseille","lat":43.286101,"lon":5.398868,"is_reserved":false,"is_disabled":false,"rental_uris":{"android":"levelo://app?vid=91458b19-cb25-4f18-83db-4ba9d96005a9","ios":"levelo://app?vid=91458b19-cb25-4f18-83db-4ba9d96005a9"},"vehicle_type_id":"4","last_reported":1767517886,"current_range_meters":4400,"station_id":"ce4bho92rcd13ifvqh3g","pricing_plan_id":"cebpf4jnsgd1na2vs0mg"},{"bike_id":"404f2b1d-81e8-46fa-93c1-979440fc0e54","system_id":"levelo_inurba_marseille","lat":43.29835,"lon":5.36272,"is_reserved":false,"is_disabled":false,"rental_uris":{"android":"levelo://app?vid=404f2b1d-81e8-46fa-93c1-979440fc0e54","ios":"levelo://app?vid=404f2b1d-81e8-46fa-93c1-979440fc0e54"},"vehicle_type_id":"4","last_reported":1767517886,"current_range_meters":4400,"station_id":"ce4bgpp2rcd13ifvqc3g","pricing_plan_id":"cebpf4jnsgd1na2vs0mg"},{"bike_id":"a5e341dd-f678-4ec1-a7c6-1c53bd98d5b6","system_id":"levelo_inurba_marseille","lat":43.29752,"lon":5.38054,"is_reserved":false,"is_disabled":false,"rental_uris":{"android":"levelo://app?vid=a5e341dd-f678-4ec1-a7c6-1c53bd98d5b6","ios":"levelo://app?vid=a5e341dd-f678-4ec1-a7c6-1c53bd98d5b6"},"vehicle_type_id":"4","last_reported":1767517886,"current_range_meters":4400,"station_id":"","pricing_plan_id":"cebpf4jnsgd1na2vs0mg"},{"bike_id":"eebd9e1f-1ba5-43d8-ba3e-599639161f1a","system_id":"levelo_inurba_marseille","lat":43.27383,"lon":5.3912,"is_reserved":false,"is_disabled":false,"rental_uris":{"android":"levelo://app?vid=eebd9e1f-1ba5-43d8-ba3e-599639161f1a","ios":"levelo://app?vid=eebd9e1f-1ba5-43d8-ba3e-599639161f1a"},"vehicle_type_id":"4","last_reported":1767517886,"current_range_meters":4400,"station_id":"ce4bhgp2rcd13ifvqfe0","pricing_plan_id":"cebpf4jnsgd1na2vs0mg"},{"bike_id":"a3be4a7c-7544-49a9-8048-28fcde31ea3d","system_id":"levelo_inurba_marseille","lat":43.292753,"lon":5.373417,"is_reserved":false,"is_disabled":false,"rental_uris":{"android":"levelo://app?vid=a3be4a7c-7544-49a9-8048-28fcde31ea3d","ios":"levelo://app?vid=a3be4a7c-7544-49a9-8048-28fcde31ea3d"},"vehicle_type_id":"4","last_reported":1767517886,"current_range_meters":4400,"station_id":"","pricing_plan_id":"cebpf4jnsgd1na2vs0mg"},{"bike_id":"efd33062-2cef-445f-af98-648f578e9c2a","system_id":"levelo_inurba_marseille","lat":43.32645,"lon":5.41937,"is_reserved":false,"is_disabled":false,"rental_uris":{"android":"levelo://app?vid=efd33062-2cef-445f-af98-648f578e9c2a","ios":"levelo://app?vid=efd33062-2cef-445f-af98-648f578e9c2a"},"vehicle_type_id":"4","last_reported":1767517886,"current_range_meters":4800,"station_id":"","pricing_plan_id":"cebpf4jnsgd1na2vs0mg"},{"bike_id":"27e3db41-e25d-4703-9c18-718b047d8c1b","system_id":"levelo_inurba_marseille","lat":43.3143,"lon":5.38106,"is_reserved":false,"is_disabled":false,"rental_uris":{"android":"levelo://app?vid=27e3db41-e25d-4703-9c18-718b047d8c1b","ios":"levelo://app?vid=27e3db41-e25d-4703-9c18-718b047d8c1b"},"vehicle_type_id":"4","last_reported":1767517886,"current_range_meters":4800,"station_id":"","pricing_plan_id":"cebpf4jnsgd1na2vs0mg"},{"bike_id":"9cba9baa-48dc-42d2-aaaa-ab922cc16ffc","system_id":"levelo_inurba_marseille","lat":43.24077,"lon":5.37766,"is_reserved":false,"is_disabled":false,"rental_uris":{"android":"levelo://app?vid=9cba9baa-48dc-42d2-aaaa-ab922cc16ffc","ios":"levelo://app?vid=9cba9baa-48dc-42d2-aaaa-ab922cc16ffc"},"vehicle_type_id":"4","last_reported":1767517886,"current_range_meters":4800,"station_id":"ce4bhnp2rcd13ifvqgvg","pricing_plan_id":"cebpf4jnsgd1na2vs0mg"},{"bike_id":"09315f4b-b214-48b0-882c-a8c14108b93a","system_id":"levelo_inurba_marseille","lat":43.27179,"lon":5.40996,"is_reserved":false,"is_disabled":false,"rental_uris":{"android":"levelo://app?vid=09315f4b-b214-48b0-882c-a8c14108b93a","ios":"levelo://app?vid=09315f4b-b214-48b0-882c-a8c14108b93a"},"vehicle_type_id":"4","last_reported":1767517886,"current_range_meters":4800,"station_id":"ce4bhl12rcd13ifvqgf0","pricing_plan_id":"cebpf4jnsgd1na2vs0mg"},{"bike_id":"faae1c22-eb69-4a6a-9fdd-05bf4896a93c","system_id":"levelo_inurba_marseille","lat":43.28495,"lon":5.48422,"is_reserved":false,"is_disabled":false,"rental_uris":{"android":"levelo://app?vid=faae1c22-eb69-4a6a-9fdd-05bf4896a93c","ios":"levelo://app?vid=faae1c22-eb69-4a6a-9fdd-05bf4896a93c"},"vehicle_type_id":"4","last_reported":1767517886,"current_range_meters":4800,"station_id":"","pricing_plan_id":"cebpf4jnsgd1na2vs0mg"},{"bike_id":"cdb95399-40ba-4ee9-9e4b-631cf7ca51d9","system_id":"levelo_inurba_marseille","lat":43.28264,"lon":5.3509,"is_reserved":false,"is_disabled":false,"rental_uris":{"android":"levelo://app?vid=cdb95399-40ba-4ee9-9e4b-631cf7ca51d9","ios":"levelo://app?vid=cdb95399-40ba-4ee9-9e4b-631cf7ca51d9"},"vehicle_type_id":"4","last_reported":1767517886,"current_range_meters":4800,"station_id":"ce4bhbp2rcd13ifvqerg","pricing_plan_id":"cebpf4jnsgd1na2vs0mg"},{"bike_id":"74300c5a-bf04-44b2-b2bc-1efcfcf64187","system_id":"levelo_inurba_marseille","lat":43.29984,"lon":5.37094,"is_reserved":false,"is_disabled":false,"rental_uris":{"android":"levelo://app?vid=74300c5a-bf04-44b2-b2bc-1efcfcf64187","ios":"levelo://app?vid=74300c5a-bf04-44b2-b2bc-1efcfcf64187"},"vehicle_type_id":"4","last_reported":1767517886,"current_range_meters":4800,"station_id":"","pricing_plan_id":"cebpf4jnsgd1na2vs0mg"},{"bike_id":"322ce5af-392a-4808-ba06-a769c670c8d4","system_id":"levelo_inurba_marseille","lat":43.31165,"lon":5.38739,"is_reserved":false,"is_disabled":false,"rental_uris":{"android":"levelo://app?vid=322ce5af-392a-4808-ba06-a769c670c8d4","ios":"levelo://app?vid=322ce5af-392a-4808-ba06-a769c670c8d4"},"vehicle_type_id":"4","last_reported":1767517886,"current_range_meters":4800,"station_id":"ce4bgv12rcd13ifvqcp0","pricing_plan_id":"cebpf4jnsgd1na2vs0mg"},{"bike_id":"596f9f2e-754a-4bff-95d7-fb2758b09a2e","system_id":"levelo_inurba_marseille","lat":43.32355,"lon":5.36762,"is_reserved":false,"is_disabled":false,"rental_uris":{"android":"levelo://app?vid=596f9f2e-754a-4bff-95d7-fb2758b09a2e","ios":"levelo://app?vid=596f9f2e-754a-4bff-95d7-fb2758b09a2e"},"vehicle_type_id":"4","last_reported":1767517886,"current_range_meters":4800,"station_id":"ce4bhsh2rcd13ifvqi2g","pricing_plan_id":"cebpf4jnsgd1na2vs0mg"},{"bike_id":"d21ecf43-9b53-4ee7-aa3a-25d90ceab79f","system_id":"levelo_inurba_marseille","lat":43.24082,"lon":5.37795,"is_reserved":false,"is_disabled":false,"rental_uris":{"android":"levelo://app?vid=d21ecf43-9b53-4ee7-aa3a-25d90ceab79f","ios":"levelo://app?vid=d21ecf43-9b53-4ee7-aa3a-25d90ceab79f"},"vehicle_type_id":"4","last_reported":1767517886,"current_range_meters":4800,"station_id":"ce4bhnp2rcd13ifvqgvg","pricing_plan_id":"cebpf4jnsgd1na2vs0mg"},{"bike_id":"557fcc01-1a31-4734-96a9-4bc57201480a","system_id":"levelo_inurba_marseille","lat":43.31582,"lon":5.37199,"is_reserved":false,"is_disabled":false,"rental_uris":{"android":"levelo://app?vid=557fcc01-1a31-4734-96a9-4bc57201480a","ios":"levelo://app?vid=557fcc01-1a31-4734-96a9-4bc57201480a"},"vehicle_type_id":"4","last_reported":1767517886,"current_range_meters":4800,"station_id":"","pricing_plan_id":"cebpf4jnsgd1na2vs0mg"},{"bike_id":"ac0c123e-ed59-4a7e-a27e-86326b93124d","system_id":"levelo_inurba_marseille","lat":43.28479,"lon":5.38368,"is_reserved":false,"is_disabled":false,"rental_uris":{"android":"levelo://app?vid=ac0c123e-ed59-4a7e-a27e-86326b93124d","ios":"levelo://app?vid=ac0c123e-ed59-4a7e-a27e-86326b93124d"},"vehicle_type_id":"4","last_reported":1767517886,"current_range_meters":5600,"station_id":"ce4bh512rcd13ifvqe3g","pricing_plan_id":"cebpf4jnsgd1na2vs0mg"},{"bike_id":"607f6356-92f4-49b1-8436-7911c576c661","system_id":"levelo_inurba_marseille","lat":43.2929,"lon":5.37406,"is_reserved":false,"is_disabled":false,"rental_uris":{"android":"levelo://app?vid=607f6356-92f4-49b1-8436-7911c576c661","ios":"levelo://app?vid=607f6356-92f4-49b1-8436-7911c576c661"},"vehicle_type_id":"4","last_reported":1767517886,"current_range_meters":5600,"station_id":"ce4bgi12rcd13ifvqb70","pricing_plan_id":"cebpf4jnsgd1na2vs0mg"},{"bike_id":"bbd145e1-db8d-40b0-b146-2b7542d40bf1","system_id":"levelo_inurba_marseille","lat":43.26804,"lon":5.40265,"is_reserved":false,"is_disabled":false,"rental_uris":{"android":"levelo://app?vid=bbd145e1-db8d-40b0-b146-2b7542d40bf1","ios":"levelo://app?vid=bbd145e1-db8d-40b0-b146-2b7542d40bf1"},"vehicle_type_id":"4","last_reported":1767517886,"current_range_meters":5600,"station_id":"ce501612rcd8frsf0b60","pricing_plan_id":"cebpf4jnsgd1na2vs0mg"},{"bike_id":"394b2473-e75b-4508-a6de-dc82472511d3","system_id":"levelo_inurba_marseille","lat":43.26391,"lon":5.41087,"is_reserved":false,"is_disabled":true,"rental_uris":{"android":"levelo://app?vid=394b2473-e75b-4508-a6de-dc82472511d3","ios":"levelo://app?vid=394b2473-e75b-4508-a6de-dc82472511d3"},"vehicle_type_id":"4","last_reported":1767517886,"current_range_meters":5600,"station_id":"","pricing_plan_id":"cebpf4jnsgd1na2vs0mg"},{"bike_id":"0cc8f38b-2aab-4edc-80d1-8d77bb645f60","system_id":"levelo_inurba_marseille","lat":43.25502,"lon":5.37666,"is_reserved":false,"is_disabled":true,"rental_uris":{"android":"levelo://app?vid=0cc8f38b-2aab-4edc-80d1-8d77bb645f60","ios":"levelo://app?vid=0cc8f38b-2aab-4edc-80d1-8d77bb645f60"},"vehicle_type_id":"4","last_reported":1767517886,"current_range_meters":5600,"station_id":"ce4bhh12rcd13ifvqff0","pricing_plan_id":"cebpf4jnsgd1na2vs0mg"},{"bike_id":"7ee1c09d-a306-4e72-a256-6549ce7578c9","system_id":"levelo_inurba_marseille","lat":43.29155,"lon":5.3731,"is_reserved":false,"is_disabled":false,"rental_uris":{"android":"levelo://app?vid=7ee1c09d-a306-4e72-a256-6549ce7578c9","ios":"levelo://app?vid=7ee1c09d-a306-4e72-a256-6549ce7578c9"},"vehicle_type_id":"4","last_reported":1767517886,"current_range_meters":5600,"station_id":"","pricing_plan_id":"cebpf4jnsgd1na2vs0mg"},{"bike_id":"b8312627-13c4-4db1-bc05-2c9ecea4546c","system_id":"levelo_inurba_marseille","lat":43.28492,"lon":5.39197,"is_reserved":false,"is_disabled":false,"rental_uris":{"android":"levelo://app?vid=b8312627-13c4-4db1-bc05-2c9ecea4546c","ios":"levelo://app?vid=b8312627-13c4-4db1-bc05-2c9ecea4546c"},"vehicle_type_id":"4","last_reported":1767517886,"current_range_meters":5600,"station_id":"","pricing_plan_id":"cebpf4jnsgd1na2vs0mg"},{"bike_id":"b357b06c-84a1-42eb-85bc-16a2d56a5e8b","system_id":"levelo_inurba_marseille","lat":43.30004,"lon":5.37362,"is_reserved":false,"is_disabled":false,"rental_uris":{"android":"levelo://app?vid=b357b06c-84a1-42eb-85bc-16a2d56a5e8b","ios":"levelo://app?vid=b357b06c-84a1-42eb-85bc-16a2d56a5e8b"},"vehicle_type_id":"4","last_reported":1767517886,"current_range_meters":5600,"station_id":"","pricing_plan_id":"cebpf4jnsgd1na2vs0mg"},{"bike_id":"58b6dc99-1c36-4d32-8300-9a2a8006c2bb","system_id":"levelo_inurba_marseille","lat":43.26193,"lon":5.37453,"is_reserved":false,"is_disabled":false,"rental_uris":{"android":"levelo://app?vid=58b6dc99-1c36-4d32-8300-9a2a8006c2bb","ios":"levelo://app?vid=58b6dc99-1c36-4d32-8300-9a2a8006c2bb"},"vehicle_type_id":"4","last_reported":1767517886,"current_range_meters":5600,"station_id":"ce4bhgp2rcd13ifvqfc0","pricing_plan_id":"cebpf4jnsgd1na2vs0mg"},{"bike_id":"c9d548ba-2a02-4b82-91f9-b5968320bd23","system_id":"levelo_inurba_marseille","lat":43.23187,"lon":5.35564,"is_reserved":false,"is_disabled":false,"rental_uris":{"android":"levelo://app?vid=c9d548ba-2a02-4b82-91f9-b5968320bd23","ios":"levelo://app?vid=c9d548ba-2a02-4b82-91f9-b5968320bd23"},"vehicle_type_id":"4","last_reported":1767517886,"current_range_meters":5600,"station_id":"ce4bhu92rcd13ifvqi70","pricing_plan_id":"cebpf4jnsgd1na2vs0mg"},{"bike_id":"98b4bf10-5ec2-4366-ab8c-e9dac7b370e9","system_id":"levelo_inurba_marseille","lat":43.24167,"lon":5.39735,"is_reserved":false,"is_disabled":false,"rental_uris":{"android":"levelo://app?vid=98b4bf10-5ec2-4366-ab8c-e9dac7b370e9","ios":"levelo://app?vid=98b4bf10-5ec2-4366-ab8c-e9dac7b370e9"},"vehicle_type_id":"4","last_reported":1767517886,"current_range_meters":5600,"station_id":"ce4bhn12rcd13ifvqgpg","pricing_plan_id":"cebpf4jnsgd1na2vs0mg"},{"bike_id":"1b7c6f3c-988f-4f25-92b6-b4ccf4e5adbb","system_id":"levelo_inurba_marseille","lat":43.29271,"lon":5.40121,"is_reserved":false,"is_disabled":false,"rental_uris":{"android":"levelo://app?vid=1b7c6f3c-988f-4f25-92b6-b4ccf4e5adbb","ios":"levelo://app?vid=1b7c6f3c-988f-4f25-92b6-b4ccf4e5adbb"},"vehicle_type_id":"4","last_reported":1767517886,"current_range_meters":5600,"station_id":"ce4bh312rcd13ifvqdk0","pricing_plan_id":"cebpf4jnsgd1na2vs0mg"},{"bike_id":"94c39127-581d-45d5-8c05-88fb55c746d4","system_id":"levelo_inurba_marseille","lat":43.30127,"lon":5.387728,"is_reserved":false,"is_disabled":false,"rental_uris":{"android":"levelo://app?vid=94c39127-581d-45d5-8c05-88fb55c746d4","ios":"levelo://app?vid=94c39127-581d-45d5-8c05-88fb55c746d4"},"vehicle_type_id":"4","last_reported":1767517886,"current_range_meters":6000,"station_id":"ce4bgkh2rcd13ifvqbk0","pricing_plan_id":"cebpf4jnsgd1na2vs0mg"},{"bike_id":"093623d6-2d73-411a-8372-4b522432f61f","system_id":"levelo_inurba_marseille","lat":43.24624,"lon":5.43157,"is_reserved":false,"is_disabled":false,"rental_uris":{"android":"levelo://app?vid=093623d6-2d73-411a-8372-4b522432f61f","ios":"levelo://app?vid=093623d6-2d73-411a-8372-4b522432f61f"},"vehicle_type_id":"4","last_reported":1767517886,"current_range_meters":6000,"station_id":"st_d2m6c4gdas8pm72e190g","pricing_plan_id":"cebpf4jnsgd1na2vs0mg"},{"bike_id":"71953d87-3b66-440f-961e-1a3651e4f016","system_id":"levelo_inurba_marseille","lat":43.28464,"lon":5.38418,"is_reserved":false,"is_disabled":false,"rental_uris":{"android":"levelo://app?vid=71953d87-3b66-440f-961e-1a3651e4f016","ios":"levelo://app?vid=71953d87-3b66-440f-961e-1a3651e4f016"},"vehicle_type_id":"4","last_reported":1767517886,"current_range_meters":6000,"station_id":"ce4bh512rcd13ifvqe3g","pricing_plan_id":"cebpf4jnsgd1na2vs0mg"},{"bike_id":"ca0c01c7-fbdb-4547-a3b0-3f7514c0d05b","system_id":"levelo_inurba_marseille","lat":43.28418,"lon":5.34994,"is_reserved":false,"is_disabled":false,"rental_uris":{"android":"levelo://app?vid=ca0c01c7-fbdb-4547-a3b0-3f7514c0d05b","ios":"levelo://app?vid=ca0c01c7-fbdb-4547-a3b0-3f7514c0d05b"},"vehicle_type_id":"4","last_reported":1767517886,"current_range_meters":6000,"station_id":"ce4bhbh2rcd13ifvqepg","pricing_plan_id":"cebpf4jnsgd1na2vs0mg"},{"bike_id":"bfe47bf6-799b-4ef6-b357-3d67dfdabb79","system_id":"levelo_inurba_marseille","lat":43.335408,"lon":5.374707,"is_reserved":false,"is_disabled":false,"rental_uris":{"android":"levelo://app?vid=bfe47bf6-799b-4ef6-b357-3d67dfdabb79","ios":"levelo://app?vid=bfe47bf6-799b-4ef6-b357-3d67dfdabb79"},"vehicle_type_id":"4","last_reported":1767517886,"current_range_meters":6000,"station_id":"st_d46tts09ee8s73dlu43g","pricing_plan_id":"cebpf4jnsgd1na2vs0mg"},{"bike_id":"2bcf6ae4-322c-43d0-9880-65aeda24ed67","system_id":"levelo_inurba_marseille","lat":43.324232,"lon":5.368957,"is_reserved":false,"is_disabled":false,"rental_uris":{"android":"levelo://app?vid=2bcf6ae4-322c-43d0-9880-65aeda24ed67","ios":"levelo://app?vid=2bcf6ae4-322c-43d0-9880-65aeda24ed67"},"vehicle_type_id":"4","last_reported":1767517886,"current_range_meters":6000,"station_id":"","pricing_plan_id":"cebpf4jnsgd1na2vs0mg"},{"bike_id":"d1028c8d-4c1a-4ce3-bb87-06b106258967","system_id":"levelo_inurba_marseille","lat":43.30091,"lon":5.37088,"is_reserved":false,"is_disabled":false,"rental_uris":{"android":"levelo://app?vid=d1028c8d-4c1a-4ce3-bb87-06b106258967","ios":"levelo://app?vid=d1028c8d-4c1a-4ce3-bb87-06b106258967"},"vehicle_type_id":"4","last_reported":1767517886,"current_range_meters":6000,"station_id":"","pricing_plan_id":"cebpf4jnsgd1na2vs0mg"},{"bike_id":"2d78d04f-3c3b-4c68-b06d-a38be4a7154f","system_id":"levelo_inurba_marseille","lat":43.284133,"lon":5.374997,"is_reserved":false,"is_disabled":false,"rental_uris":{"android":"levelo://app?vid=2d78d04f-3c3b-4c68-b06d-a38be4a7154f","ios":"levelo://app?vid=2d78d04f-3c3b-4c68-b06d-a38be4a7154f"},"vehicle_type_id":"4","last_reported":1767517886,"current_range_meters":6000,"station_id":"ce4bh4p2rcd13ifvqe1g","pricing_plan_id":"cebpf4jnsgd1na2vs0mg"},{"bike_id":"32d1c9cb-e782-47ae-910a-dae58bcdf1e2","system_id":"levelo_inurba_marseille","lat":43.24081,"lon":5.378,"is_reserved":false,"is_disabled":false,"rental_uris":{"android":"levelo://app?vid=32d1c9cb-e782-47ae-910a-dae58bcdf1e2","ios":"levelo://app?vid=32d1c9cb-e782-47ae-910a-dae58bcdf1e2"},"vehicle_type_id":"4","last_reported":1767517886,"current_range_meters":6000,"station_id":"ce4bhnp2rcd13ifvqgvg","pricing_plan_id":"cebpf4jnsgd1na2vs0mg"},{"bike_id":"61de8b69-7704-4d24-bebb-39e846fd4b45","system_id":"levelo_inurba_marseille","lat":43.30085,"lon":5.37807,"is_reserved":false,"is_disabled":false,"rental_uris":{"android":"levelo://app?vid=61de8b69-7704-4d24-bebb-39e846fd4b45","ios":"levelo://app?vid=61de8b69-7704-4d24-bebb-39e846fd4b45"},"vehicle_type_id":"4","last_reported":1767517886,"current_range_meters":6000,"station_id":"","pricing_plan_id":"cebpf4jnsgd1na2vs0mg"},{"bike_id":"9f76342a-9caa-49c8-a5a4-4ac2e1abd64a","system_id":"levelo_inurba_marseille","lat":43.34136,"lon":5.40911,"is_reserved":false,"is_disabled":false,"rental_uris":{"android":"levelo://app?vid=9f76342a-9caa-49c8-a5a4-4ac2e1abd64a","ios":"levelo://app?vid=9f76342a-9caa-49c8-a5a4-4ac2e1abd64a"},"vehicle_type_id":"4","last_reported":1767517886,"current_range_meters":6000,"station_id":"ce4bhqh2rcd13ifvqhlg","pricing_plan_id":"cebpf4jnsgd1na2vs0mg"},{"bike_id":"03395ae2-aecb-4dc7-941a-44274a6d702f","system_id":"levelo_inurba_marseille","lat":43.28103,"lon":5.37867,"is_reserved":false,"is_disabled":false,"rental_uris":{"android":"levelo://app?vid=03395ae2-aecb-4dc7-941a-44274a6d702f","ios":"levelo://app?vid=03395ae2-aecb-4dc7-941a-44274a6d702f"},"vehicle_type_id":"4","last_reported":1767517886,"current_range_meters":6000,"station_id":"ce4bha12rcd13ifvqee0","pricing_plan_id":"cebpf4jnsgd1na2vs0mg"},{"bike_id":"d49d55fc-f15f-4a66-a00d-73bd545b8ffd","system_id":"levelo_inurba_marseille","lat":43.2904,"lon":5.40003,"is_reserved":false,"is_disabled":false,"rental_uris":{"android":"levelo://app?vid=d49d55fc-f15f-4a66-a00d-73bd545b8ffd","ios":"levelo://app?vid=d49d55fc-f15f-4a66-a00d-73bd545b8ffd"},"vehicle_type_id":"4","last_reported":1767517886,"current_range_meters":6000,"station_id":"ce4bh392rcd13ifvqdm0","pricing_plan_id":"cebpf4jnsgd1na2vs0mg"},{"bike_id":"fd2d24be-3ca8-4d58-ac4a-6481fce6f9d2","system_id":"levelo_inurba_marseille","lat":43.27077,"lon":5.42286,"is_reserved":false,"is_disabled":false,"rental_uris":{"android":"levelo://app?vid=fd2d24be-3ca8-4d58-ac4a-6481fce6f9d2","ios":"levelo://app?vid=fd2d24be-3ca8-4d58-ac4a-6481fce6f9d2"},"vehicle_type_id":"4","last_reported":1767517886,"current_range_meters":6000,"station_id":"ce4bhk92rcd13ifvqgb0","pricing_plan_id":"cebpf4jnsgd1na2vs0mg"},{"bike_id":"ca48d4ad-26ca-4dea-a200-be3e43176f3f","system_id":"levelo_inurba_marseille","lat":43.33219,"lon":5.41282,"is_reserved":false,"is_disabled":false,"rental_uris":{"android":"levelo://app?vid=ca48d4ad-26ca-4dea-a200-be3e43176f3f","ios":"levelo://app?vid=ca48d4ad-26ca-4dea-a200-be3e43176f3f"},"vehicle_type_id":"4","last_reported":1767517886,"current_range_meters":6000,"station_id":"","pricing_plan_id":"cebpf4jnsgd1na2vs0mg"},{"bike_id":"cf1dde7c-2421-4aa1-aa32-84342583dd5b","system_id":"levelo_inurba_marseille","lat":43.24081,"lon":5.37749,"is_reserved":false,"is_disabled":false,"rental_uris":{"android":"levelo://app?vid=cf1dde7c-2421-4aa1-aa32-84342583dd5b","ios":"levelo://app?vid=cf1dde7c-2421-4aa1-aa32-84342583dd5b"},"vehicle_type_id":"4","last_reported":1767517886,"current_range_meters":6000,"station_id":"ce4bhnp2rcd13ifvqgvg","pricing_plan_id":"cebpf4jnsgd1na2vs0mg"},{"bike_id":"6e7957d0-639e-41a7-bf82-10829831a67f","system_id":"levelo_inurba_marseille","lat":43.32356,"lon":5.367559,"is_reserved":false,"is_disabled":false,"rental_uris":{"android":"levelo://app?vid=6e7957d0-639e-41a7-bf82-10829831a67f","ios":"levelo://app?vid=6e7957d0-639e-41a7-bf82-10829831a67f"},"vehicle_type_id":"4","last_reported":1767517886,"current_range_meters":6000,"station_id":"ce4bhsh2rcd13ifvqi2g","pricing_plan_id":"cebpf4jnsgd1na2vs0mg"},{"bike_id":"7d88ce0c-ae9b-49e1-a08d-95a335fd71ed","system_id":"levelo_inurba_marseille","lat":43.2853,"lon":5.44116,"is_reserved":false,"is_disabled":false,"rental_uris":{"android":"levelo://app?vid=7d88ce0c-ae9b-49e1-a08d-95a335fd71ed","ios":"levelo://app?vid=7d88ce0c-ae9b-49e1-a08d-95a335fd71ed"},"vehicle_type_id":"4","last_reported":1767517886,"current_range_meters":6000,"station_id":"st_d3j3df2ikq2c7380ej80","pricing_plan_id":"cebpf4jnsgd1na2vs0mg"},{"bike_id":"32088daf-19b4-43c2-bb3d-ac36d2b03bd3","system_id":"levelo_inurba_marseille","lat":43.24399,"lon":5.37084,"is_reserved":false,"is_disabled":false,"rental_uris":{"android":"levelo://app?vid=32088daf-19b4-43c2-bb3d-ac36d2b03bd3","ios":"levelo://app?vid=32088daf-19b4-43c2-bb3d-ac36d2b03bd3"},"vehicle_type_id":"4","last_reported":1767517886,"current_range_meters":6000,"station_id":"ce4bhhh2rcd13ifvqfk0","pricing_plan_id":"cebpf4jnsgd1na2vs0mg"},{"bike_id":"49ef3dc2-550a-40fd-90a5-2c9557c9abd1","system_id":"levelo_inurba_marseille","lat":43.26551,"lon":5.37286,"is_reserved":false,"is_disabled":false,"rental_uris":{"android":"levelo://app?vid=49ef3dc2-550a-40fd-90a5-2c9557c9abd1","ios":"levelo://app?vid=49ef3dc2-550a-40fd-90a5-2c9557c9abd1"},"vehicle_type_id":"4","last_reported":1767517886,"current_range_meters":6000,"station_id":"ce4bhg12rcd13ifvqf70","pricing_plan_id":"cebpf4jnsgd1na2vs0mg"},{"bike_id":"e987523a-ef8b-4c5d-94b4-e53d7fa7dfe0","system_id":"levelo_inurba_marseille","lat":43.24871,"lon":5.38562,"is_reserved":false,"is_disabled":false,"rental_uris":{"android":"levelo://app?vid=e987523a-ef8b-4c5d-94b4-e53d7fa7dfe0","ios":"levelo://app?vid=e987523a-ef8b-4c5d-94b4-e53d7fa7dfe0"},"vehicle_type_id":"4","last_reported":1767517886,"current_range_meters":6400,"station_id":"","pricing_plan_id":"cebpf4jnsgd1na2vs0mg"},{"bike_id":"bd7fa06c-6e0f-4e4a-bb60-37e105cca255","system_id":"levelo_inurba_marseille","lat":43.28399,"lon":5.37544,"is_reserved":false,"is_disabled":false,"rental_uris":{"android":"levelo://app?vid=bd7fa06c-6e0f-4e4a-bb60-37e105cca255","ios":"levelo://app?vid=bd7fa06c-6e0f-4e4a-bb60-37e105cca255"},"vehicle_type_id":"4","last_reported":1767517886,"current_range_meters":6400,"station_id":"ce4bh412rcd13ifvqds0","pricing_plan_id":"cebpf4jnsgd1na2vs0mg"},{"bike_id":"780fe4f2-2a78-414b-a56d-dd9ca4f3ea66","system_id":"levelo_inurba_marseille","lat":43.29589,"lon":5.38091,"is_reserved":false,"is_disabled":false,"rental_uris":{"android":"levelo://app?vid=780fe4f2-2a78-414b-a56d-dd9ca4f3ea66","ios":"levelo://app?vid=780fe4f2-2a78-414b-a56d-dd9ca4f3ea66"},"vehicle_type_id":"4","last_reported":1767517886,"current_range_meters":6400,"station_id":"ce4bgl12rcd13ifvqbo0","pricing_plan_id":"cebpf4jnsgd1na2vs0mg"},{"bike_id":"32430d05-1fb8-4eba-b545-baa9ce76d5e5","system_id":"levelo_inurba_marseille","lat":43.28864,"lon":5.42528,"is_reserved":false,"is_disabled":false,"rental_uris":{"android":"levelo://app?vid=32430d05-1fb8-4eba-b545-baa9ce76d5e5","ios":"levelo://app?vid=32430d05-1fb8-4eba-b545-baa9ce76d5e5"},"vehicle_type_id":"4","last_reported":1767517886,"current_range_meters":6400,"station_id":"st_d3b462108ojc7389ooeg","pricing_plan_id":"cebpf4jnsgd1na2vs0mg"},{"bike_id":"96d87c0e-8e58-4458-9a61-596f9aad61aa","system_id":"levelo_inurba_marseille","lat":43.211885,"lon":5.35073,"is_reserved":false,"is_disabled":false,"rental_uris":{"android":"levelo://app?vid=96d87c0e-8e58-4458-9a61-596f9aad61aa","ios":"levelo://app?vid=96d87c0e-8e58-4458-9a61-596f9aad61aa"},"vehicle_type_id":"4","last_reported":1767517886,"current_range_meters":6400,"station_id":"st_cvj6sg6p6f1abm77japg","pricing_plan_id":"cebpf4jnsgd1na2vs0mg"},{"bike_id":"4f9276e2-ba43-4c1d-afca-9c0080feecdf","system_id":"levelo_inurba_marseille","lat":43.32363,"lon":5.36743,"is_reserved":false,"is_disabled":false,"rental_uris":{"android":"levelo://app?vid=4f9276e2-ba43-4c1d-afca-9c0080feecdf","ios":"levelo://app?vid=4f9276e2-ba43-4c1d-afca-9c0080feecdf"},"vehicle_type_id":"4","last_reported":1767517886,"current_range_meters":6400,"station_id":"ce4bhsh2rcd13ifvqi2g","pricing_plan_id":"cebpf4jnsgd1na2vs0mg"},{"bike_id":"9a67c4b7-b002-47fb-91b0-cf920a32496e","system_id":"levelo_inurba_marseille","lat":43.26563,"lon":5.4032,"is_reserved":false,"is_disabled":false,"rental_uris":{"android":"levelo://app?vid=9a67c4b7-b002-47fb-91b0-cf920a32496e","ios":"levelo://app?vid=9a67c4b7-b002-47fb-91b0-cf920a32496e"},"vehicle_type_id":"4","last_reported":1767517886,"current_range_meters":6400,"station_id":"ce4bhmp2rcd13ifvqgng","pricing_plan_id":"cebpf4jnsgd1na2vs0mg"},{"bike_id":"d67904e3-d432-4bb6-9c59-13ac7cead46a","system_id":"levelo_inurba_marseille","lat":43.32353,"lon":5.36746,"is_reserved":false,"is_disabled":false,"rental_uris":{"android":"levelo://app?vid=d67904e3-d432-4bb6-9c59-13ac7cead46a","ios":"levelo://app?vid=d67904e3-d432-4bb6-9c59-13ac7cead46a"},"vehicle_type_id":"4","last_reported":1767517886,"current_range_meters":6400,"station_id":"ce4bhsh2rcd13ifvqi2g","pricing_plan_id":"cebpf4jnsgd1na2vs0mg"},{"bike_id":"a3868a4f-64f2-455d-866c-159991a9a86d","system_id":"levelo_inurba_marseille","lat":43.29621,"lon":5.40616,"is_reserved":false,"is_disabled":false,"rental_uris":{"android":"levelo://app?vid=a3868a4f-64f2-455d-866c-159991a9a86d","ios":"levelo://app?vid=a3868a4f-64f2-455d-866c-159991a9a86d"},"vehicle_type_id":"4","last_reported":1767517886,"current_range_meters":6400,"station_id":"ce4bh0h2rcd13ifvqd60","pricing_plan_id":"cebpf4jnsgd1na2vs0mg"},{"bike_id":"712f33ed-df68-4bba-8e91-9690bf5aa186","system_id":"levelo_inurba_marseille","lat":43.32488,"lon":5.38303,"is_reserved":false,"is_disabled":false,"rental_uris":{"android":"levelo://app?vid=712f33ed-df68-4bba-8e91-9690bf5aa186","ios":"levelo://app?vid=712f33ed-df68-4bba-8e91-9690bf5aa186"},"vehicle_type_id":"4","last_reported":1767517886,"current_range_meters":6400,"station_id":"st_d4asgbiv49dc73anf9m0","pricing_plan_id":"cebpf4jnsgd1na2vs0mg"},{"bike_id":"006976d2-d3cb-439d-b972-b36d863282da","system_id":"levelo_inurba_marseille","lat":43.2841,"lon":5.35002,"is_reserved":false,"is_disabled":false,"rental_uris":{"android":"levelo://app?vid=006976d2-d3cb-439d-b972-b36d863282da","ios":"levelo://app?vid=006976d2-d3cb-439d-b972-b36d863282da"},"vehicle_type_id":"4","last_reported":1767517886,"current_range_meters":6400,"station_id":"ce4bhbh2rcd13ifvqepg","pricing_plan_id":"cebpf4jnsgd1na2vs0mg"},{"bike_id":"2c743da8-f960-47cb-810b-7ca0edf6fdfa","system_id":"levelo_inurba_marseille","lat":43.27894,"lon":5.38026,"is_reserved":false,"is_disabled":false,"rental_uris":{"android":"levelo://app?vid=2c743da8-f960-47cb-810b-7ca0edf6fdfa","ios":"levelo://app?vid=2c743da8-f960-47cb-810b-7ca0edf6fdfa"},"vehicle_type_id":"4","last_reported":1767517886,"current_range_meters":6400,"station_id":"ce4bhf92rcd13ifvqf50","pricing_plan_id":"cebpf4jnsgd1na2vs0mg"},{"bike_id":"f98e3a20-3a1b-480f-90ff-c4be368bab5e","system_id":"levelo_inurba_marseille","lat":43.2962,"lon":5.37725,"is_reserved":false,"is_disabled":false,"rental_uris":{"android":"levelo://app?vid=f98e3a20-3a1b-480f-90ff-c4be368bab5e","ios":"levelo://app?vid=f98e3a20-3a1b-480f-90ff-c4be368bab5e"},"vehicle_type_id":"4","last_reported":1767517886,"current_range_meters":6400,"station_id":"ce4bgi92rcd13ifvqb90","pricing_plan_id":"cebpf4jnsgd1na2vs0mg"},{"bike_id":"488bbe71-5d11-4c78-b0d1-df86f5509b1d","system_id":"levelo_inurba_marseille","lat":43.23803,"lon":5.36615,"is_reserved":false,"is_disabled":false,"rental_uris":{"android":"levelo://app?vid=488bbe71-5d11-4c78-b0d1-df86f5509b1d","ios":"levelo://app?vid=488bbe71-5d11-4c78-b0d1-df86f5509b1d"},"vehicle_type_id":"4","last_reported":1767517886,"current_range_meters":6400,"station_id":"st_d3nk18o9ro0c73en2l3g","pricing_plan_id":"cebpf4jnsgd1na2vs0mg"},{"bike_id":"8e3b45c6-7fdf-429f-9c1e-6729d3aac358","system_id":"levelo_inurba_marseille","lat":43.3105,"lon":5.37157,"is_reserved":false,"is_disabled":false,"rental_uris":{"android":"levelo://app?vid=8e3b45c6-7fdf-429f-9c1e-6729d3aac358","ios":"levelo://app?vid=8e3b45c6-7fdf-429f-9c1e-6729d3aac358"},"vehicle_type_id":"4","last_reported":1767517886,"current_range_meters":6400,"station_id":"st_d4kl2rp97mjs73e7tdfg","pricing_plan_id":"cebpf4jnsgd1na2vs0mg"},{"bike_id":"ad04117d-b152-4ebe-9d0d-f71c42ab46e0","system_id":"levelo_inurba_marseille","lat":43.29592,"lon":5.37595,"is_reserved":false,"is_disabled":true,"rental_uris":{"android":"levelo://app?vid=ad04117d-b152-4ebe-9d0d-f71c42ab46e0","ios":"levelo://app?vid=ad04117d-b152-4ebe-9d0d-f71c42ab46e0"},"vehicle_type_id":"4","last_reported":1767517886,"current_range_meters":6400,"station_id":"","pricing_plan_id":"cebpf4jnsgd1na2vs0mg"},{"bike_id":"94e31e6d-82b1-4a72-8d23-2ac15df71e4c","system_id":"levelo_inurba_marseille","lat":43.28879,"lon":5.42542,"is_reserved":false,"is_disabled":false,"rental_uris":{"android":"levelo://app?vid=94e31e6d-82b1-4a72-8d23-2ac15df71e4c","ios":"levelo://app?vid=94e31e6d-82b1-4a72-8d23-2ac15df71e4c"},"vehicle_type_id":"4","last_reported":1767517886,"current_range_meters":6400,"station_id":"st_d3b462108ojc7389ooeg","pricing_plan_id":"cebpf4jnsgd1na2vs0mg"},{"bike_id":"e8cb542a-c910-418d-8827-3aecad0225e3","system_id":"levelo_inurba_marseille","lat":43.28411,"lon":5.34992,"is_reserved":false,"is_disabled":false,"rental_uris":{"android":"levelo://app?vid=e8cb542a-c910-418d-8827-3aecad0225e3","ios":"levelo://app?vid=e8cb542a-c910-418d-8827-3aecad0225e3"},"vehicle_type_id":"4","last_reported":1767517886,"current_range_meters":6400,"station_id":"ce4bhbh2rcd13ifvqepg","pricing_plan_id":"cebpf4jnsgd1na2vs0mg"},{"bike_id":"5ed51bc0-851e-44e4-9f66-c5e3e5c8f26a","system_id":"levelo_inurba_marseille","lat":43.272093,"lon":5.391906,"is_reserved":false,"is_disabled":true,"rental_uris":{"android":"levelo://app?vid=5ed51bc0-851e-44e4-9f66-c5e3e5c8f26a","ios":"levelo://app?vid=5ed51bc0-851e-44e4-9f66-c5e3e5c8f26a"},"vehicle_type_id":"4","last_reported":1767517886,"current_range_meters":6800,"station_id":"ce4bhhp2rcd13ifvqfm0","pricing_plan_id":"cebpf4jnsgd1na2vs0mg"},{"bike_id":"091087be-27fe-438d-bb66-a525fac98399","system_id":"levelo_inurba_marseille","lat":43.27376,"lon":5.36252,"is_reserved":false,"is_disabled":false,"rental_uris":{"android":"levelo://app?vid=091087be-27fe-438d-bb66-a525fac98399","ios":"levelo://app?vid=091087be-27fe-438d-bb66-a525fac98399"},"vehicle_type_id":"4","last_reported":1767517886,"current_range_meters":6800,"station_id":"ce4bhbh2rcd13ifvqeo0","pricing_plan_id":"cebpf4jnsgd1na2vs0mg"},{"bike_id":"1ad626a8-48f8-44b7-8f92-c1cbcf226f43","system_id":"levelo_inurba_marseille","lat":43.24823,"lon":5.37461,"is_reserved":false,"is_disabled":false,"rental_uris":{"android":"levelo://app?vid=1ad626a8-48f8-44b7-8f92-c1cbcf226f43","ios":"levelo://app?vid=1ad626a8-48f8-44b7-8f92-c1cbcf226f43"},"vehicle_type_id":"4","last_reported":1767517886,"current_range_meters":6800,"station_id":"ce4bhgh2rcd13ifvqfb0","pricing_plan_id":"cebpf4jnsgd1na2vs0mg"},{"bike_id":"814dfdf1-b113-4a5f-9d64-6af2dbd9bae1","system_id":"levelo_inurba_marseille","lat":43.24646,"lon":5.43144,"is_reserved":false,"is_disabled":false,"rental_uris":{"android":"levelo://app?vid=814dfdf1-b113-4a5f-9d64-6af2dbd9bae1","ios":"levelo://app?vid=814dfdf1-b113-4a5f-9d64-6af2dbd9bae1"},"vehicle_type_id":"4","last_reported":1767517886,"current_range_meters":6800,"station_id":"st_d2m6c4gdas8pm72e190g","pricing_plan_id":"cebpf4jnsgd1na2vs0mg"},{"bike_id":"c3f97c6b-2dc7-4135-9316-e5d0c425f8a0","system_id":"levelo_inurba_marseille","lat":43.2693,"lon":5.38666,"is_reserved":false,"is_disabled":false,"rental_uris":{"android":"levelo://app?vid=c3f97c6b-2dc7-4135-9316-e5d0c425f8a0","ios":"levelo://app?vid=c3f97c6b-2dc7-4135-9316-e5d0c425f8a0"},"vehicle_type_id":"4","last_reported":1767517886,"current_range_meters":6800,"station_id":"ce4bhh92rcd13ifvqfh0","pricing_plan_id":"cebpf4jnsgd1na2vs0mg"},{"bike_id":"8daa6ea0-c51c-417e-b7c7-aa57a3739cb8","system_id":"levelo_inurba_marseille","lat":43.29736,"lon":5.38073,"is_reserved":false,"is_disabled":false,"rental_uris":{"android":"levelo://app?vid=8daa6ea0-c51c-417e-b7c7-aa57a3739cb8","ios":"levelo://app?vid=8daa6ea0-c51c-417e-b7c7-aa57a3739cb8"},"vehicle_type_id":"4","last_reported":1767517886,"current_range_meters":6800,"station_id":"","pricing_plan_id":"cebpf4jnsgd1na2vs0mg"},{"bike_id":"d16182f3-e665-458f-b0d2-66b3db8796ce","system_id":"levelo_inurba_marseille","lat":43.26226,"lon":5.37474,"is_reserved":false,"is_disabled":false,"rental_uris":{"android":"levelo://app?vid=d16182f3-e665-458f-b0d2-66b3db8796ce","ios":"levelo://app?vid=d16182f3-e665-458f-b0d2-66b3db8796ce"},"vehicle_type_id":"4","last_reported":1767517886,"current_range_meters":6800,"station_id":"","pricing_plan_id":"cebpf4jnsgd1na2vs0mg"},{"bike_id":"fcd440e6-5539-4d36-8905-9b19c9c5332a","system_id":"levelo_inurba_marseille","lat":43.27076,"lon":5.39138,"is_reserved":false,"is_disabled":false,"rental_uris":{"android":"levelo://app?vid=fcd440e6-5539-4d36-8905-9b19c9c5332a","ios":"levelo://app?vid=fcd440e6-5539-4d36-8905-9b19c9c5332a"},"vehicle_type_id":"4","last_reported":1767517886,"current_range_meters":6800,"station_id":"","pricing_plan_id":"cebpf4jnsgd1na2vs0mg"},{"bike_id":"17e06372-e52b-4bdd-90cd-8338755c84dc","system_id":"levelo_inurba_marseille","lat":43.23146,"lon":5.4371,"is_reserved":false,"is_disabled":false,"rental_uris":{"android":"levelo://app?vid=17e06372-e52b-4bdd-90cd-8338755c84dc","ios":"levelo://app?vid=17e06372-e52b-4bdd-90cd-8338755c84dc"},"vehicle_type_id":"4","last_reported":1767517886,"current_range_meters":6800,"station_id":"ce4bhmp2rcd13ifvqgog","pricing_plan_id":"cebpf4jnsgd1na2vs0mg"},{"bike_id":"e44cab74-f685-400b-b393-d23149de2a52","system_id":"levelo_inurba_marseille","lat":43.24164,"lon":5.36389,"is_reserved":false,"is_disabled":false,"rental_uris":{"android":"levelo://app?vid=e44cab74-f685-400b-b393-d23149de2a52","ios":"levelo://app?vid=e44cab74-f685-400b-b393-d23149de2a52"},"vehicle_type_id":"4","last_reported":1767517886,"current_range_meters":6800,"station_id":"cpo36qri1sfpv3e86is0","pricing_plan_id":"cebpf4jnsgd1na2vs0mg"},{"bike_id":"cb035583-71ec-465e-ae20-89a3af35ac5e","system_id":"levelo_inurba_marseille","lat":43.24553,"lon":5.41337,"is_reserved":false,"is_disabled":false,"rental_uris":{"android":"levelo://app?vid=cb035583-71ec-465e-ae20-89a3af35ac5e","ios":"levelo://app?vid=cb035583-71ec-465e-ae20-89a3af35ac5e"},"vehicle_type_id":"4","last_reported":1767517886,"current_range_meters":6800,"station_id":"","pricing_plan_id":"cebpf4jnsgd1na2vs0mg"},{"bike_id":"4dc8c32f-96ad-4bbe-8f82-5ce45a16b000","system_id":"levelo_inurba_marseille","lat":43.26211,"lon":5.37457,"is_reserved":false,"is_disabled":false,"rental_uris":{"android":"levelo://app?vid=4dc8c32f-96ad-4bbe-8f82-5ce45a16b000","ios":"levelo://app?vid=4dc8c32f-96ad-4bbe-8f82-5ce45a16b000"},"vehicle_type_id":"4","last_reported":1767517886,"current_range_meters":6800,"station_id":"ce4bhgp2rcd13ifvqfc0","pricing_plan_id":"cebpf4jnsgd1na2vs0mg"},{"bike_id":"9b9a02b1-30e9-4c59-a73a-f63944fd90e9","system_id":"levelo_inurba_marseille","lat":43.3414,"lon":5.40918,"is_reserved":false,"is_disabled":false,"rental_uris":{"android":"levelo://app?vid=9b9a02b1-30e9-4c59-a73a-f63944fd90e9","ios":"levelo://app?vid=9b9a02b1-30e9-4c59-a73a-f63944fd90e9"},"vehicle_type_id":"4","last_reported":1767517886,"current_range_meters":6800,"station_id":"ce4bhqh2rcd13ifvqhlg","pricing_plan_id":"cebpf4jnsgd1na2vs0mg"},{"bike_id":"430519a3-d72e-4fda-925c-d5b2f7504f0e","system_id":"levelo_inurba_marseille","lat":43.2582,"lon":5.39443,"is_reserved":false,"is_disabled":false,"rental_uris":{"android":"levelo://app?vid=430519a3-d72e-4fda-925c-d5b2f7504f0e","ios":"levelo://app?vid=430519a3-d72e-4fda-925c-d5b2f7504f0e"},"vehicle_type_id":"4","last_reported":1767517886,"current_range_meters":6800,"station_id":"ce4bhip2rcd13ifvqft0","pricing_plan_id":"cebpf4jnsgd1na2vs0mg"},{"bike_id":"55a7fced-b1cf-4260-b657-21d693c02d14","system_id":"levelo_inurba_marseille","lat":43.28405,"lon":5.37521,"is_reserved":false,"is_disabled":false,"rental_uris":{"android":"levelo://app?vid=55a7fced-b1cf-4260-b657-21d693c02d14","ios":"levelo://app?vid=55a7fced-b1cf-4260-b657-21d693c02d14"},"vehicle_type_id":"4","last_reported":1767517886,"current_range_meters":6800,"station_id":"ce4bh412rcd13ifvqds0","pricing_plan_id":"cebpf4jnsgd1na2vs0mg"},{"bike_id":"e6d9500a-84c5-42cc-8272-3c33a326b727","system_id":"levelo_inurba_marseille","lat":43.30736,"lon":5.42445,"is_reserved":false,"is_disabled":false,"rental_uris":{"android":"levelo://app?vid=e6d9500a-84c5-42cc-8272-3c33a326b727","ios":"levelo://app?vid=e6d9500a-84c5-42cc-8272-3c33a326b727"},"vehicle_type_id":"4","last_reported":1767517886,"current_range_meters":6800,"station_id":"st_cvj6ca6bvosntc0bfgr0","pricing_plan_id":"cebpf4jnsgd1na2vs0mg"},{"bike_id":"82f74916-00b6-44e6-bc57-ee096a3fdb34","system_id":"levelo_inurba_marseille","lat":43.29627,"lon":5.37194,"is_reserved":false,"is_disabled":false,"rental_uris":{"android":"levelo://app?vid=82f74916-00b6-44e6-bc57-ee096a3fdb34","ios":"levelo://app?vid=82f74916-00b6-44e6-bc57-ee096a3fdb34"},"vehicle_type_id":"4","last_reported":1767517886,"current_range_meters":6800,"station_id":"ce4bgnh2rcd13ifvqc0g","pricing_plan_id":"cebpf4jnsgd1na2vs0mg"},{"bike_id":"dfbf7730-1239-44b2-83d1-75c00941c80b","system_id":"levelo_inurba_marseille","lat":43.25572,"lon":5.38236,"is_reserved":false,"is_disabled":true,"rental_uris":{"android":"levelo://app?vid=dfbf7730-1239-44b2-83d1-75c00941c80b","ios":"levelo://app?vid=dfbf7730-1239-44b2-83d1-75c00941c80b"},"vehicle_type_id":"4","last_reported":1767517886,"current_range_meters":7200,"station_id":"ce4bhih2rcd13ifvqfs0","pricing_plan_id":"cebpf4jnsgd1na2vs0mg"},{"bike_id":"dd3326ea-ad71-4f86-88d6-f79309f37529","system_id":"levelo_inurba_marseille","lat":43.24394,"lon":5.37078,"is_reserved":false,"is_disabled":false,"rental_uris":{"android":"levelo://app?vid=dd3326ea-ad71-4f86-88d6-f79309f37529","ios":"levelo://app?vid=dd3326ea-ad71-4f86-88d6-f79309f37529"},"vehicle_type_id":"4","last_reported":1767517886,"current_range_meters":7200,"station_id":"ce4bhhh2rcd13ifvqfk0","pricing_plan_id":"cebpf4jnsgd1na2vs0mg"},{"bike_id":"85246bf5-791b-4c2f-925f-a931bac4026e","system_id":"levelo_inurba_marseille","lat":43.30124,"lon":5.4313,"is_reserved":false,"is_disabled":false,"rental_uris":{"android":"levelo://app?vid=85246bf5-791b-4c2f-925f-a931bac4026e","ios":"levelo://app?vid=85246bf5-791b-4c2f-925f-a931bac4026e"},"vehicle_type_id":"4","last_reported":1767517886,"current_range_meters":7200,"station_id":"st_d3js3co5814s73ftftug","pricing_plan_id":"cebpf4jnsgd1na2vs0mg"},{"bike_id":"f6da5d95-02e5-41e7-b5d8-ae93141b63e9","system_id":"levelo_inurba_marseille","lat":43.29521,"lon":5.39437,"is_reserved":false,"is_disabled":false,"rental_uris":{"android":"levelo://app?vid=f6da5d95-02e5-41e7-b5d8-ae93141b63e9","ios":"levelo://app?vid=f6da5d95-02e5-41e7-b5d8-ae93141b63e9"},"vehicle_type_id":"4","last_reported":1767517886,"current_range_meters":7200,"station_id":"ce4bh292rcd13ifvqdf0","pricing_plan_id":"cebpf4jnsgd1na2vs0mg"},{"bike_id":"b97b9366-c081-4745-90ed-0e833c3a2f7c","system_id":"levelo_inurba_marseille","lat":43.33154,"lon":5.38177,"is_reserved":false,"is_disabled":false,"rental_uris":{"android":"levelo://app?vid=b97b9366-c081-4745-90ed-0e833c3a2f7c","ios":"levelo://app?vid=b97b9366-c081-4745-90ed-0e833c3a2f7c"},"vehicle_type_id":"4","last_reported":1767517886,"current_range_meters":7200,"station_id":"","pricing_plan_id":"cebpf4jnsgd1na2vs0mg"},{"bike_id":"ec47e74c-4c77-4ced-84eb-ad537c50b956","system_id":"levelo_inurba_marseille","lat":43.21735,"lon":5.34624,"is_reserved":false,"is_disabled":true,"rental_uris":{"android":"levelo://app?vid=ec47e74c-4c77-4ced-84eb-ad537c50b956","ios":"levelo://app?vid=ec47e74c-4c77-4ced-84eb-ad537c50b956"},"vehicle_type_id":"4","last_reported":1767517886,"current_range_meters":7200,"station_id":"st_cvj6r9ubvosntc0bgbag","pricing_plan_id":"cebpf4jnsgd1na2vs0mg"},{"bike_id":"f257b2d0-1f16-4656-837f-b9ab9f001b03","system_id":"levelo_inurba_marseille","lat":43.22568,"lon":5.41633,"is_reserved":false,"is_disabled":false,"rental_uris":{"android":"levelo://app?vid=f257b2d0-1f16-4656-837f-b9ab9f001b03","ios":"levelo://app?vid=f257b2d0-1f16-4656-837f-b9ab9f001b03"},"vehicle_type_id":"4","last_reported":1767517886,"current_range_meters":7200,"station_id":"st_d2o4gvlbi1j2169b742g","pricing_plan_id":"cebpf4jnsgd1na2vs0mg"},{"bike_id":"73428eec-4c36-4c5f-9923-72dd40a75189","system_id":"levelo_inurba_marseille","lat":43.281501,"lon":5.426491,"is_reserved":false,"is_disabled":false,"rental_uris":{"android":"levelo://app?vid=73428eec-4c36-4c5f-9923-72dd40a75189","ios":"levelo://app?vid=73428eec-4c36-4c5f-9923-72dd40a75189"},"vehicle_type_id":"4","last_reported":1767517886,"current_range_meters":7200,"station_id":"ce4bhnh2rcd13ifvqgug","pricing_plan_id":"cebpf4jnsgd1na2vs0mg"},{"bike_id":"620cf3b0-e3f5-40c8-97cc-531cf5c3a491","system_id":"levelo_inurba_marseille","lat":43.2637,"lon":5.41068,"is_reserved":false,"is_disabled":false,"rental_uris":{"android":"levelo://app?vid=620cf3b0-e3f5-40c8-97cc-531cf5c3a491","ios":"levelo://app?vid=620cf3b0-e3f5-40c8-97cc-531cf5c3a491"},"vehicle_type_id":"4","last_reported":1767517886,"current_range_meters":7200,"station_id":"st_d4e5ca6na9uc73bfl5fg","pricing_plan_id":"cebpf4jnsgd1na2vs0mg"},{"bike_id":"57b725a6-cdde-4849-96a9-7686225f0651","system_id":"levelo_inurba_marseille","lat":43.2848,"lon":5.38407,"is_reserved":false,"is_disabled":false,"rental_uris":{"android":"levelo://app?vid=57b725a6-cdde-4849-96a9-7686225f0651","ios":"levelo://app?vid=57b725a6-cdde-4849-96a9-7686225f0651"},"vehicle_type_id":"4","last_reported":1767517886,"current_range_meters":7200,"station_id":"ce4bh512rcd13ifvqe3g","pricing_plan_id":"cebpf4jnsgd1na2vs0mg"},{"bike_id":"b98c4bb3-e84f-4703-8006-455cb12ed450","system_id":"levelo_inurba_marseille","lat":43.28831,"lon":5.42629,"is_reserved":false,"is_disabled":false,"rental_uris":{"android":"levelo://app?vid=b98c4bb3-e84f-4703-8006-455cb12ed450","ios":"levelo://app?vid=b98c4bb3-e84f-4703-8006-455cb12ed450"},"vehicle_type_id":"4","last_reported":1767517886,"current_range_meters":7200,"station_id":"","pricing_plan_id":"cebpf4jnsgd1na2vs0mg"},{"bike_id":"7f82846f-a9c2-426e-b04f-d573601c2c1e","system_id":"levelo_inurba_marseille","lat":43.24623,"lon":5.43166,"is_reserved":false,"is_disabled":false,"rental_uris":{"android":"levelo://app?vid=7f82846f-a9c2-426e-b04f-d573601c2c1e","ios":"levelo://app?vid=7f82846f-a9c2-426e-b04f-d573601c2c1e"},"vehicle_type_id":"4","last_reported":1767517886,"current_range_meters":7200,"station_id":"st_d2m6c4gdas8pm72e190g","pricing_plan_id":"cebpf4jnsgd1na2vs0mg"},{"bike_id":"69161e8f-51d3-4034-b7dc-9a0c99d58e5d","system_id":"levelo_inurba_marseille","lat":43.29713,"lon":5.37806,"is_reserved":false,"is_disabled":false,"rental_uris":{"android":"levelo://app?vid=69161e8f-51d3-4034-b7dc-9a0c99d58e5d","ios":"levelo://app?vid=69161e8f-51d3-4034-b7dc-9a0c99d58e5d"},"vehicle_type_id":"4","last_reported":1767517886,"current_range_meters":7200,"station_id":"","pricing_plan_id":"cebpf4jnsgd1na2vs0mg"},{"bike_id":"0dc92e3e-3c5f-49a4-8bc0-0e42b6481b83","system_id":"levelo_inurba_marseille","lat":43.23789,"lon":5.36634,"is_reserved":false,"is_disabled":false,"rental_uris":{"android":"levelo://app?vid=0dc92e3e-3c5f-49a4-8bc0-0e42b6481b83","ios":"levelo://app?vid=0dc92e3e-3c5f-49a4-8bc0-0e42b6481b83"},"vehicle_type_id":"4","last_reported":1767517886,"current_range_meters":8000,"station_id":"st_d3nk18o9ro0c73en2l3g","pricing_plan_id":"cebpf4jnsgd1na2vs0mg"},{"bike_id":"d4e62b51-cbbc-4684-91ae-3203f81121b2","system_id":"levelo_inurba_marseille","lat":43.28439,"lon":5.3856,"is_reserved":false,"is_disabled":false,"rental_uris":{"android":"levelo://app?vid=d4e62b51-cbbc-4684-91ae-3203f81121b2","ios":"levelo://app?vid=d4e62b51-cbbc-4684-91ae-3203f81121b2"},"vehicle_type_id":"4","last_reported":1767517886,"current_range_meters":8000,"station_id":"ce4bh8p2rcd13ifvqeb0","pricing_plan_id":"cebpf4jnsgd1na2vs0mg"},{"bike_id":"99b4eb98-b7eb-4379-a6b2-33d1211601ee","system_id":"levelo_inurba_marseille","lat":43.300465,"lon":5.385734,"is_reserved":false,"is_disabled":false,"rental_uris":{"android":"levelo://app?vid=99b4eb98-b7eb-4379-a6b2-33d1211601ee","ios":"levelo://app?vid=99b4eb98-b7eb-4379-a6b2-33d1211601ee"},"vehicle_type_id":"4","last_reported":1767517886,"current_range_meters":8000,"station_id":"","pricing_plan_id":"cebpf4jnsgd1na2vs0mg"},{"bike_id":"472773c4-6498-406d-9fab-c8b8c4a682a5","system_id":"levelo_inurba_marseille","lat":43.3021,"lon":5.36628,"is_reserved":false,"is_disabled":false,"rental_uris":{"android":"levelo://app?vid=472773c4-6498-406d-9fab-c8b8c4a682a5","ios":"levelo://app?vid=472773c4-6498-406d-9fab-c8b8c4a682a5"},"vehicle_type_id":"4","last_reported":1767517886,"current_range_meters":8000,"station_id":"ce4bgrh2rcd13ifvqc8g","pricing_plan_id":"cebpf4jnsgd1na2vs0mg"},{"bike_id":"069e0897-8da2-45e6-aee3-9dedd86fd186","system_id":"levelo_inurba_marseille","lat":43.26193,"lon":5.37462,"is_reserved":false,"is_disabled":false,"rental_uris":{"android":"levelo://app?vid=069e0897-8da2-45e6-aee3-9dedd86fd186","ios":"levelo://app?vid=069e0897-8da2-45e6-aee3-9dedd86fd186"},"vehicle_type_id":"4","last_reported":1767517886,"current_range_meters":8000,"station_id":"ce4bhgp2rcd13ifvqfc0","pricing_plan_id":"cebpf4jnsgd1na2vs0mg"},{"bike_id":"f631b3ee-7210-4467-997c-2fcb8a8b1933","system_id":"levelo_inurba_marseille","lat":43.266822,"lon":5.382615,"is_reserved":false,"is_disabled":false,"rental_uris":{"android":"levelo://app?vid=f631b3ee-7210-4467-997c-2fcb8a8b1933","ios":"levelo://app?vid=f631b3ee-7210-4467-997c-2fcb8a8b1933"},"vehicle_type_id":"4","last_reported":1767517886,"current_range_meters":8000,"station_id":"ce4bhg92rcd13ifvqf90","pricing_plan_id":"cebpf4jnsgd1na2vs0mg"},{"bike_id":"236dd84d-8375-4d9b-8e7d-9db60d676bfe","system_id":"levelo_inurba_marseille","lat":43.24672,"lon":5.38179,"is_reserved":false,"is_disabled":false,"rental_uris":{"android":"levelo://app?vid=236dd84d-8375-4d9b-8e7d-9db60d676bfe","ios":"levelo://app?vid=236dd84d-8375-4d9b-8e7d-9db60d676bfe"},"vehicle_type_id":"4","last_reported":1767517886,"current_range_meters":8000,"station_id":"ce4bhih2rcd13ifvqfr0","pricing_plan_id":"cebpf4jnsgd1na2vs0mg"},{"bike_id":"e44fdb7f-8720-46ac-981c-054c6ce20310","system_id":"levelo_inurba_marseille","lat":43.28467,"lon":5.48398,"is_reserved":false,"is_disabled":false,"rental_uris":{"android":"levelo://app?vid=e44fdb7f-8720-46ac-981c-054c6ce20310","ios":"levelo://app?vid=e44fdb7f-8720-46ac-981c-054c6ce20310"},"vehicle_type_id":"4","last_reported":1767517886,"current_range_meters":8000,"station_id":"st_d3svhcjqgbts73a3dn0g","pricing_plan_id":"cebpf4jnsgd1na2vs0mg"},{"bike_id":"a414d67b-9afa-4a87-9fac-f67cdff12698","system_id":"levelo_inurba_marseille","lat":43.29409,"lon":5.37993,"is_reserved":false,"is_disabled":false,"rental_uris":{"android":"levelo://app?vid=a414d67b-9afa-4a87-9fac-f67cdff12698","ios":"levelo://app?vid=a414d67b-9afa-4a87-9fac-f67cdff12698"},"vehicle_type_id":"4","last_reported":1767517886,"current_range_meters":8000,"station_id":"","pricing_plan_id":"cebpf4jnsgd1na2vs0mg"},{"bike_id":"35d860d4-6ea7-4d26-b614-c09aa12978bc","system_id":"levelo_inurba_marseille","lat":43.28815,"lon":5.3586,"is_reserved":false,"is_disabled":false,"rental_uris":{"android":"levelo://app?vid=35d860d4-6ea7-4d26-b614-c09aa12978bc","ios":"levelo://app?vid=35d860d4-6ea7-4d26-b614-c09aa12978bc"},"vehicle_type_id":"4","last_reported":1767517886,"current_range_meters":8000,"station_id":"ce4bhb12rcd13ifvqem0","pricing_plan_id":"cebpf4jnsgd1na2vs0mg"},{"bike_id":"de47c27c-1797-44e1-942e-1e625cd4c52c","system_id":"levelo_inurba_marseille","lat":43.28258,"lon":5.35083,"is_reserved":false,"is_disabled":false,"rental_uris":{"android":"levelo://app?vid=de47c27c-1797-44e1-942e-1e625cd4c52c","ios":"levelo://app?vid=de47c27c-1797-44e1-942e-1e625cd4c52c"},"vehicle_type_id":"4","last_reported":1767517886,"current_range_meters":8000,"station_id":"ce4bhbp2rcd13ifvqerg","pricing_plan_id":"cebpf4jnsgd1na2vs0mg"},{"bike_id":"4e839bab-c0a4-4f9b-8de3-cb292b501eb1","system_id":"levelo_inurba_marseille","lat":43.225341,"lon":5.348293,"is_reserved":false,"is_disabled":false,"rental_uris":{"android":"levelo://app?vid=4e839bab-c0a4-4f9b-8de3-cb292b501eb1","ios":"levelo://app?vid=4e839bab-c0a4-4f9b-8de3-cb292b501eb1"},"vehicle_type_id":"4","last_reported":1767517886,"current_range_meters":8000,"station_id":"","pricing_plan_id":"cebpf4jnsgd1na2vs0mg"},{"bike_id":"9adcd37d-8eaa-40b0-986c-a24619cab993","system_id":"levelo_inurba_marseille","lat":43.27967,"lon":5.38713,"is_reserved":false,"is_disabled":false,"rental_uris":{"android":"levelo://app?vid=9adcd37d-8eaa-40b0-986c-a24619cab993","ios":"levelo://app?vid=9adcd37d-8eaa-40b0-986c-a24619cab993"},"vehicle_type_id":"4","last_reported":1767517886,"current_range_meters":8000,"station_id":"ce4bhg12rcd13ifvqf80","pricing_plan_id":"cebpf4jnsgd1na2vs0mg"},{"bike_id":"dfdca8ae-7890-4f8d-864a-114bbb8dc8c5","system_id":"levelo_inurba_marseille","lat":43.25928,"lon":5.40925,"is_reserved":false,"is_disabled":false,"rental_uris":{"android":"levelo://app?vid=dfdca8ae-7890-4f8d-864a-114bbb8dc8c5","ios":"levelo://app?vid=dfdca8ae-7890-4f8d-864a-114bbb8dc8c5"},"vehicle_type_id":"4","last_reported":1767517886,"current_range_meters":8000,"station_id":"ce4bhm92rcd13ifvqglg","pricing_plan_id":"cebpf4jnsgd1na2vs0mg"},{"bike_id":"810c7ae0-2bf9-4fb7-9de0-ed0f816ef902","system_id":"levelo_inurba_marseille","lat":43.279485,"lon":5.410592,"is_reserved":false,"is_disabled":false,"rental_uris":{"android":"levelo://app?vid=810c7ae0-2bf9-4fb7-9de0-ed0f816ef902","ios":"levelo://app?vid=810c7ae0-2bf9-4fb7-9de0-ed0f816ef902"},"vehicle_type_id":"4","last_reported":1767517886,"current_range_meters":8000,"station_id":"ce4bhnp2rcd13ifvqh0g","pricing_plan_id":"cebpf4jnsgd1na2vs0mg"},{"bike_id":"314f1e79-75d2-4520-879c-5c75bd15a245","system_id":"levelo_inurba_marseille","lat":43.27663,"lon":5.41893,"is_reserved":false,"is_disabled":false,"rental_uris":{"android":"levelo://app?vid=314f1e79-75d2-4520-879c-5c75bd15a245","ios":"levelo://app?vid=314f1e79-75d2-4520-879c-5c75bd15a245"},"vehicle_type_id":"4","last_reported":1767517886,"current_range_meters":8000,"station_id":"","pricing_plan_id":"cebpf4jnsgd1na2vs0mg"},{"bike_id":"fbdd49c1-7e16-4b0d-9464-4f1899b2871a","system_id":"levelo_inurba_marseille","lat":43.27918,"lon":5.395855,"is_reserved":false,"is_disabled":false,"rental_uris":{"android":"levelo://app?vid=fbdd49c1-7e16-4b0d-9464-4f1899b2871a","ios":"levelo://app?vid=fbdd49c1-7e16-4b0d-9464-4f1899b2871a"},"vehicle_type_id":"4","last_reported":1767517886,"current_range_meters":8000,"station_id":"ce4bhf92rcd13ifvqf40","pricing_plan_id":"cebpf4jnsgd1na2vs0mg"},{"bike_id":"7e37952a-94ec-4f1e-959e-53f61206aa5b","system_id":"levelo_inurba_marseille","lat":43.283639,"lon":5.38621,"is_reserved":false,"is_disabled":false,"rental_uris":{"android":"levelo://app?vid=7e37952a-94ec-4f1e-959e-53f61206aa5b","ios":"levelo://app?vid=7e37952a-94ec-4f1e-959e-53f61206aa5b"},"vehicle_type_id":"4","last_reported":1767517886,"current_range_meters":8000,"station_id":"ce4bh492rcd13ifvqdvg","pricing_plan_id":"cebpf4jnsgd1na2vs0mg"},{"bike_id":"dd1e0418-c61b-4102-a323-55dfd0941e3d","system_id":"levelo_inurba_marseille","lat":43.232,"lon":5.35576,"is_reserved":false,"is_disabled":false,"rental_uris":{"android":"levelo://app?vid=dd1e0418-c61b-4102-a323-55dfd0941e3d","ios":"levelo://app?vid=dd1e0418-c61b-4102-a323-55dfd0941e3d"},"vehicle_type_id":"4","last_reported":1767517886,"current_range_meters":8000,"station_id":"ce4bhu92rcd13ifvqi70","pricing_plan_id":"cebpf4jnsgd1na2vs0mg"},{"bike_id":"9266c9ee-84f2-41f3-ba5f-42f44b708c8b","system_id":"levelo_inurba_marseille","lat":43.24624,"lon":5.43164,"is_reserved":false,"is_disabled":false,"rental_uris":{"android":"levelo://app?vid=9266c9ee-84f2-41f3-ba5f-42f44b708c8b","ios":"levelo://app?vid=9266c9ee-84f2-41f3-ba5f-42f44b708c8b"},"vehicle_type_id":"4","last_reported":1767517886,"current_range_meters":8000,"station_id":"st_d2m6c4gdas8pm72e190g","pricing_plan_id":"cebpf4jnsgd1na2vs0mg"},{"bike_id":"492fb627-7bc1-4cff-8097-e01a29adb15a","system_id":"levelo_inurba_marseille","lat":43.27315,"lon":5.39099,"is_reserved":false,"is_disabled":false,"rental_uris":{"android":"levelo://app?vid=492fb627-7bc1-4cff-8097-e01a29adb15a","ios":"levelo://app?vid=492fb627-7bc1-4cff-8097-e01a29adb15a"},"vehicle_type_id":"4","last_reported":1767517886,"current_range_meters":8400,"station_id":"ce4bhgp2rcd13ifvqfe0","pricing_plan_id":"cebpf4jnsgd1na2vs0mg"},{"bike_id":"8b09ef17-467c-4a61-8aa1-3d3e9ae5c78d","system_id":"levelo_inurba_marseille","lat":43.279475,"lon":5.410461,"is_reserved":false,"is_disabled":false,"rental_uris":{"android":"levelo://app?vid=8b09ef17-467c-4a61-8aa1-3d3e9ae5c78d","ios":"levelo://app?vid=8b09ef17-467c-4a61-8aa1-3d3e9ae5c78d"},"vehicle_type_id":"4","last_reported":1767517886,"current_range_meters":8400,"station_id":"ce4bhnp2rcd13ifvqh0g","pricing_plan_id":"cebpf4jnsgd1na2vs0mg"},{"bike_id":"067249c4-fb35-421e-9a6c-c895241c197a","system_id":"levelo_inurba_marseille","lat":43.29492,"lon":5.39292,"is_reserved":false,"is_disabled":false,"rental_uris":{"android":"levelo://app?vid=067249c4-fb35-421e-9a6c-c895241c197a","ios":"levelo://app?vid=067249c4-fb35-421e-9a6c-c895241c197a"},"vehicle_type_id":"4","last_reported":1767517886,"current_range_meters":8400,"station_id":"","pricing_plan_id":"cebpf4jnsgd1na2vs0mg"},{"bike_id":"0e471836-29c5-4d70-93bc-4b375d486538","system_id":"levelo_inurba_marseille","lat":43.29477,"lon":5.3971,"is_reserved":false,"is_disabled":false,"rental_uris":{"android":"levelo://app?vid=0e471836-29c5-4d70-93bc-4b375d486538","ios":"levelo://app?vid=0e471836-29c5-4d70-93bc-4b375d486538"},"vehicle_type_id":"4","last_reported":1767517886,"current_range_meters":8400,"station_id":"","pricing_plan_id":"cebpf4jnsgd1na2vs0mg"},{"bike_id":"7f889366-09db-4740-a1c0-e9409a42cbcc","system_id":"levelo_inurba_marseille","lat":43.312095,"lon":5.368583,"is_reserved":false,"is_disabled":false,"rental_uris":{"android":"levelo://app?vid=7f889366-09db-4740-a1c0-e9409a42cbcc","ios":"levelo://app?vid=7f889366-09db-4740-a1c0-e9409a42cbcc"},"vehicle_type_id":"4","last_reported":1767517886,"current_range_meters":8400,"station_id":"ce4bgl92rcd13ifvqbq0","pricing_plan_id":"cebpf4jnsgd1na2vs0mg"},{"bike_id":"e2488139-6496-4274-88d0-61715a22ef45","system_id":"levelo_inurba_marseille","lat":43.3078,"lon":5.38159,"is_reserved":false,"is_disabled":false,"rental_uris":{"android":"levelo://app?vid=e2488139-6496-4274-88d0-61715a22ef45","ios":"levelo://app?vid=e2488139-6496-4274-88d0-61715a22ef45"},"vehicle_type_id":"4","last_reported":1767517886,"current_range_meters":8400,"station_id":"ce4bgt12rcd13ifvqce0","pricing_plan_id":"cebpf4jnsgd1na2vs0mg"},{"bike_id":"10275e8b-e387-4c5b-870e-c1fdbcdd807e","system_id":"levelo_inurba_marseille","lat":43.24651,"lon":5.38907,"is_reserved":false,"is_disabled":false,"rental_uris":{"android":"levelo://app?vid=10275e8b-e387-4c5b-870e-c1fdbcdd807e","ios":"levelo://app?vid=10275e8b-e387-4c5b-870e-c1fdbcdd807e"},"vehicle_type_id":"4","last_reported":1767517886,"current_range_meters":8400,"station_id":"ce4bhg12rcd13ifvqf60","pricing_plan_id":"cebpf4jnsgd1na2vs0mg"},{"bike_id":"5abeab1b-faee-4efd-b658-f0a83fb10313","system_id":"levelo_inurba_marseille","lat":43.26191,"lon":5.37463,"is_reserved":false,"is_disabled":false,"rental_uris":{"android":"levelo://app?vid=5abeab1b-faee-4efd-b658-f0a83fb10313","ios":"levelo://app?vid=5abeab1b-faee-4efd-b658-f0a83fb10313"},"vehicle_type_id":"4","last_reported":1767517886,"current_range_meters":8400,"station_id":"ce4bhgp2rcd13ifvqfc0","pricing_plan_id":"cebpf4jnsgd1na2vs0mg"},{"bike_id":"9d21dcb0-ce26-48db-a303-317550439f40","system_id":"levelo_inurba_marseille","lat":43.284827,"lon":5.483885,"is_reserved":false,"is_disabled":false,"rental_uris":{"android":"levelo://app?vid=9d21dcb0-ce26-48db-a303-317550439f40","ios":"levelo://app?vid=9d21dcb0-ce26-48db-a303-317550439f40"},"vehicle_type_id":"4","last_reported":1767517886,"current_range_meters":8400,"station_id":"st_d3svhcjqgbts73a3dn0g","pricing_plan_id":"cebpf4jnsgd1na2vs0mg"},{"bike_id":"7da449bd-25d7-4771-9935-4208387ef603","system_id":"levelo_inurba_marseille","lat":43.29548,"lon":5.42305,"is_reserved":false,"is_disabled":false,"rental_uris":{"android":"levelo://app?vid=7da449bd-25d7-4771-9935-4208387ef603","ios":"levelo://app?vid=7da449bd-25d7-4771-9935-4208387ef603"},"vehicle_type_id":"4","last_reported":1767517886,"current_range_meters":8400,"station_id":"ce4bhph2rcd13ifvqhdg","pricing_plan_id":"cebpf4jnsgd1na2vs0mg"},{"bike_id":"8c17f111-46b2-48cb-bcc1-c2c2179e98af","system_id":"levelo_inurba_marseille","lat":43.30947,"lon":5.39031,"is_reserved":false,"is_disabled":false,"rental_uris":{"android":"levelo://app?vid=8c17f111-46b2-48cb-bcc1-c2c2179e98af","ios":"levelo://app?vid=8c17f111-46b2-48cb-bcc1-c2c2179e98af"},"vehicle_type_id":"4","last_reported":1767517886,"current_range_meters":8400,"station_id":"ce4bgup2rcd13ifvqco0","pricing_plan_id":"cebpf4jnsgd1na2vs0mg"},{"bike_id":"195e2e14-0016-420f-a925-0b6877e427aa","system_id":"levelo_inurba_marseille","lat":43.22929,"lon":5.35388,"is_reserved":false,"is_disabled":false,"rental_uris":{"android":"levelo://app?vid=195e2e14-0016-420f-a925-0b6877e427aa","ios":"levelo://app?vid=195e2e14-0016-420f-a925-0b6877e427aa"},"vehicle_type_id":"4","last_reported":1767517886,"current_range_meters":8400,"station_id":"cpo3532slgdg3j2ikp40","pricing_plan_id":"cebpf4jnsgd1na2vs0mg"},{"bike_id":"57e9667e-102a-45d8-a172-14fcbc607ea0","system_id":"levelo_inurba_marseille","lat":43.298,"lon":5.38102,"is_reserved":false,"is_disabled":false,"rental_uris":{"android":"levelo://app?vid=57e9667e-102a-45d8-a172-14fcbc607ea0","ios":"levelo://app?vid=57e9667e-102a-45d8-a172-14fcbc607ea0"},"vehicle_type_id":"4","last_reported":1767517886,"current_range_meters":8400,"station_id":"ce4bgip2rcd13ifvqbb0","pricing_plan_id":"cebpf4jnsgd1na2vs0mg"},{"bike_id":"f37c8ab2-4055-4d0c-bc22-679bade32c8c","system_id":"levelo_inurba_marseille","lat":43.30667,"lon":5.37233,"is_reserved":false,"is_disabled":false,"rental_uris":{"android":"levelo://app?vid=f37c8ab2-4055-4d0c-bc22-679bade32c8c","ios":"levelo://app?vid=f37c8ab2-4055-4d0c-bc22-679bade32c8c"},"vehicle_type_id":"4","last_reported":1767517886,"current_range_meters":8400,"station_id":"","pricing_plan_id":"cebpf4jnsgd1na2vs0mg"},{"bike_id":"a668d423-78fb-4d5c-b207-fb7699a9ad75","system_id":"levelo_inurba_marseille","lat":43.30146,"lon":5.38094,"is_reserved":false,"is_disabled":false,"rental_uris":{"android":"levelo://app?vid=a668d423-78fb-4d5c-b207-fb7699a9ad75","ios":"levelo://app?vid=a668d423-78fb-4d5c-b207-fb7699a9ad75"},"vehicle_type_id":"4","last_reported":1767517886,"current_range_meters":8400,"station_id":"ce4bgjp2rcd13ifvqbh0","pricing_plan_id":"cebpf4jnsgd1na2vs0mg"},{"bike_id":"c7e483c3-7784-4d50-acf7-d14f1c97a833","system_id":"levelo_inurba_marseille","lat":43.30878,"lon":5.39641,"is_reserved":false,"is_disabled":false,"rental_uris":{"android":"levelo://app?vid=c7e483c3-7784-4d50-acf7-d14f1c97a833","ios":"levelo://app?vid=c7e483c3-7784-4d50-acf7-d14f1c97a833"},"vehicle_type_id":"4","last_reported":1767517886,"current_range_meters":8400,"station_id":"ce4bh012rcd13ifvqcv0","pricing_plan_id":"cebpf4jnsgd1na2vs0mg"},{"bike_id":"7f01de1e-82c5-4abd-a8a0-bd31c8a992fa","system_id":"levelo_inurba_marseille","lat":43.29955,"lon":5.41325,"is_reserved":false,"is_disabled":true,"rental_uris":{"android":"levelo://app?vid=7f01de1e-82c5-4abd-a8a0-bd31c8a992fa","ios":"levelo://app?vid=7f01de1e-82c5-4abd-a8a0-bd31c8a992fa"},"vehicle_type_id":"4","last_reported":1767517886,"current_range_meters":8400,"station_id":"ce4bhp12rcd13ifvqh9g","pricing_plan_id":"cebpf4jnsgd1na2vs0mg"},{"bike_id":"524c1ed8-572d-4bd4-ab56-ccc941c96a3e","system_id":"levelo_inurba_marseille","lat":43.28604,"lon":5.35079,"is_reserved":false,"is_disabled":false,"rental_uris":{"android":"levelo://app?vid=524c1ed8-572d-4bd4-ab56-ccc941c96a3e","ios":"levelo://app?vid=524c1ed8-572d-4bd4-ab56-ccc941c96a3e"},"vehicle_type_id":"4","last_reported":1767517886,"current_range_meters":8400,"station_id":"ce4bhch2rcd13ifvqeug","pricing_plan_id":"cebpf4jnsgd1na2vs0mg"},{"bike_id":"47a54f1a-ce85-47fa-b51c-ccc729f00f48","system_id":"levelo_inurba_marseille","lat":43.28257,"lon":5.3509,"is_reserved":false,"is_disabled":false,"rental_uris":{"android":"levelo://app?vid=47a54f1a-ce85-47fa-b51c-ccc729f00f48","ios":"levelo://app?vid=47a54f1a-ce85-47fa-b51c-ccc729f00f48"},"vehicle_type_id":"4","last_reported":1767517886,"current_range_meters":8800,"station_id":"ce4bhbp2rcd13ifvqerg","pricing_plan_id":"cebpf4jnsgd1na2vs0mg"},{"bike_id":"1d00a4cb-00d9-4b5d-9884-747e6dfb334b","system_id":"levelo_inurba_marseille","lat":43.24692,"lon":5.38142,"is_reserved":false,"is_disabled":false,"rental_uris":{"android":"levelo://app?vid=1d00a4cb-00d9-4b5d-9884-747e6dfb334b","ios":"levelo://app?vid=1d00a4cb-00d9-4b5d-9884-747e6dfb334b"},"vehicle_type_id":"4","last_reported":1767517886,"current_range_meters":8800,"station_id":"ce4bhih2rcd13ifvqfr0","pricing_plan_id":"cebpf4jnsgd1na2vs0mg"},{"bike_id":"f013181f-1de5-4451-a771-1b7186eb6186","system_id":"levelo_inurba_marseille","lat":43.313631,"lon":5.367201,"is_reserved":false,"is_disabled":false,"rental_uris":{"android":"levelo://app?vid=f013181f-1de5-4451-a771-1b7186eb6186","ios":"levelo://app?vid=f013181f-1de5-4451-a771-1b7186eb6186"},"vehicle_type_id":"4","last_reported":1767517886,"current_range_meters":8800,"station_id":"ce4bgr92rcd13ifvqc6g","pricing_plan_id":"cebpf4jnsgd1na2vs0mg"},{"bike_id":"566db3cc-46f7-4e44-8a50-868e3cfad09c","system_id":"levelo_inurba_marseille","lat":43.26565,"lon":5.37311,"is_reserved":false,"is_disabled":false,"rental_uris":{"android":"levelo://app?vid=566db3cc-46f7-4e44-8a50-868e3cfad09c","ios":"levelo://app?vid=566db3cc-46f7-4e44-8a50-868e3cfad09c"},"vehicle_type_id":"4","last_reported":1767517886,"current_range_meters":8800,"station_id":"ce4bhg12rcd13ifvqf70","pricing_plan_id":"cebpf4jnsgd1na2vs0mg"},{"bike_id":"eec8fb5f-22f0-4df6-8592-ac99c04e663a","system_id":"levelo_inurba_marseille","lat":43.24453,"lon":5.42536,"is_reserved":false,"is_disabled":false,"rental_uris":{"android":"levelo://app?vid=eec8fb5f-22f0-4df6-8592-ac99c04e663a","ios":"levelo://app?vid=eec8fb5f-22f0-4df6-8592-ac99c04e663a"},"vehicle_type_id":"4","last_reported":1767517886,"current_range_meters":8800,"station_id":"st_d4a3vfp97mjs738cd8kg","pricing_plan_id":"cebpf4jnsgd1na2vs0mg"},{"bike_id":"088ffd9e-e621-46be-9471-ab036728f8c5","system_id":"levelo_inurba_marseille","lat":43.310536,"lon":5.37182,"is_reserved":false,"is_disabled":true,"rental_uris":{"android":"levelo://app?vid=088ffd9e-e621-46be-9471-ab036728f8c5","ios":"levelo://app?vid=088ffd9e-e621-46be-9471-ab036728f8c5"},"vehicle_type_id":"4","last_reported":1767517886,"current_range_meters":8800,"station_id":"st_d4kl2rp97mjs73e7tdfg","pricing_plan_id":"cebpf4jnsgd1na2vs0mg"},{"bike_id":"ea433994-4165-420a-9223-37582f30485d","system_id":"levelo_inurba_marseille","lat":43.30565,"lon":5.37538,"is_reserved":false,"is_disabled":false,"rental_uris":{"android":"levelo://app?vid=ea433994-4165-420a-9223-37582f30485d","ios":"levelo://app?vid=ea433994-4165-420a-9223-37582f30485d"},"vehicle_type_id":"4","last_reported":1767517886,"current_range_meters":8800,"station_id":"","pricing_plan_id":"cebpf4jnsgd1na2vs0mg"},{"bike_id":"7f505e4c-fcc4-4b29-9d3f-538f9728a5b0","system_id":"levelo_inurba_marseille","lat":43.25501,"lon":5.37668,"is_reserved":false,"is_disabled":false,"rental_uris":{"android":"levelo://app?vid=7f505e4c-fcc4-4b29-9d3f-538f9728a5b0","ios":"levelo://app?vid=7f505e4c-fcc4-4b29-9d3f-538f9728a5b0"},"vehicle_type_id":"4","last_reported":1767517886,"current_range_meters":8800,"station_id":"ce4bhh12rcd13ifvqff0","pricing_plan_id":"cebpf4jnsgd1na2vs0mg"},{"bike_id":"20600a83-ffb2-4ea6-adcc-6f03f7742df5","system_id":"levelo_inurba_marseille","lat":43.27064,"lon":5.42278,"is_reserved":false,"is_disabled":false,"rental_uris":{"android":"levelo://app?vid=20600a83-ffb2-4ea6-adcc-6f03f7742df5","ios":"levelo://app?vid=20600a83-ffb2-4ea6-adcc-6f03f7742df5"},"vehicle_type_id":"4","last_reported":1767517886,"current_range_meters":8800,"station_id":"ce4bhk92rcd13ifvqgb0","pricing_plan_id":"cebpf4jnsgd1na2vs0mg"},{"bike_id":"49eaeb99-01db-4a25-87fd-cb6c87f1647c","system_id":"levelo_inurba_marseille","lat":43.30132,"lon":5.43117,"is_reserved":false,"is_disabled":false,"rental_uris":{"android":"levelo://app?vid=49eaeb99-01db-4a25-87fd-cb6c87f1647c","ios":"levelo://app?vid=49eaeb99-01db-4a25-87fd-cb6c87f1647c"},"vehicle_type_id":"4","last_reported":1767517886,"current_range_meters":8800,"station_id":"st_d3js3co5814s73ftftug","pricing_plan_id":"cebpf4jnsgd1na2vs0mg"},{"bike_id":"a464d7a8-b316-420c-9fdb-c789d5dd1f09","system_id":"levelo_inurba_marseille","lat":43.28488,"lon":5.3842,"is_reserved":false,"is_disabled":false,"rental_uris":{"android":"levelo://app?vid=a464d7a8-b316-420c-9fdb-c789d5dd1f09","ios":"levelo://app?vid=a464d7a8-b316-420c-9fdb-c789d5dd1f09"},"vehicle_type_id":"4","last_reported":1767517886,"current_range_meters":8800,"station_id":"ce4bh512rcd13ifvqe3g","pricing_plan_id":"cebpf4jnsgd1na2vs0mg"},{"bike_id":"ab212917-0222-46c3-89cf-022c04360208","system_id":"levelo_inurba_marseille","lat":43.297601,"lon":5.427757,"is_reserved":false,"is_disabled":false,"rental_uris":{"android":"levelo://app?vid=ab212917-0222-46c3-89cf-022c04360208","ios":"levelo://app?vid=ab212917-0222-46c3-89cf-022c04360208"},"vehicle_type_id":"4","last_reported":1767517886,"current_range_meters":8800,"station_id":"st_d3md5207bmas73dh9klg","pricing_plan_id":"cebpf4jnsgd1na2vs0mg"},{"bike_id":"46c2d8b2-0f06-4ab4-9ea1-a6a2f77053d0","system_id":"levelo_inurba_marseille","lat":43.33741,"lon":5.37454,"is_reserved":false,"is_disabled":false,"rental_uris":{"android":"levelo://app?vid=46c2d8b2-0f06-4ab4-9ea1-a6a2f77053d0","ios":"levelo://app?vid=46c2d8b2-0f06-4ab4-9ea1-a6a2f77053d0"},"vehicle_type_id":"4","last_reported":1767517886,"current_range_meters":8800,"station_id":"","pricing_plan_id":"cebpf4jnsgd1na2vs0mg"},{"bike_id":"ecfba3ac-804e-418b-a7fa-cc102335e836","system_id":"levelo_inurba_marseille","lat":43.30297,"lon":5.45657,"is_reserved":false,"is_disabled":false,"rental_uris":{"android":"levelo://app?vid=ecfba3ac-804e-418b-a7fa-cc102335e836","ios":"levelo://app?vid=ecfba3ac-804e-418b-a7fa-cc102335e836"},"vehicle_type_id":"4","last_reported":1767517886,"current_range_meters":8800,"station_id":"","pricing_plan_id":"cebpf4jnsgd1na2vs0mg"},{"bike_id":"12a80fe3-61e3-412b-a4be-0e9fe67491bf","system_id":"levelo_inurba_marseille","lat":43.2551,"lon":5.37687,"is_reserved":false,"is_disabled":true,"rental_uris":{"android":"levelo://app?vid=12a80fe3-61e3-412b-a4be-0e9fe67491bf","ios":"levelo://app?vid=12a80fe3-61e3-412b-a4be-0e9fe67491bf"},"vehicle_type_id":"4","last_reported":1767517886,"current_range_meters":8800,"station_id":"ce4bhh12rcd13ifvqff0","pricing_plan_id":"cebpf4jnsgd1na2vs0mg"},{"bike_id":"2be57466-a646-4f79-84c2-74019bc2d375","system_id":"levelo_inurba_marseille","lat":43.27954,"lon":5.41066,"is_reserved":false,"is_disabled":false,"rental_uris":{"android":"levelo://app?vid=2be57466-a646-4f79-84c2-74019bc2d375","ios":"levelo://app?vid=2be57466-a646-4f79-84c2-74019bc2d375"},"vehicle_type_id":"4","last_reported":1767517886,"current_range_meters":9200,"station_id":"ce4bhnp2rcd13ifvqh0g","pricing_plan_id":"cebpf4jnsgd1na2vs0mg"},{"bike_id":"704d55d2-80bc-4f15-89c1-0da3b8afad7d","system_id":"levelo_inurba_marseille","lat":43.26565,"lon":5.39066,"is_reserved":false,"is_disabled":false,"rental_uris":{"android":"levelo://app?vid=704d55d2-80bc-4f15-89c1-0da3b8afad7d","ios":"levelo://app?vid=704d55d2-80bc-4f15-89c1-0da3b8afad7d"},"vehicle_type_id":"4","last_reported":1767517886,"current_range_meters":9200,"station_id":"","pricing_plan_id":"cebpf4jnsgd1na2vs0mg"},{"bike_id":"b89c1a06-be9e-434b-8fbf-cc734037727c","system_id":"levelo_inurba_marseille","lat":43.310771,"lon":5.424362,"is_reserved":false,"is_disabled":false,"rental_uris":{"android":"levelo://app?vid=b89c1a06-be9e-434b-8fbf-cc734037727c","ios":"levelo://app?vid=b89c1a06-be9e-434b-8fbf-cc734037727c"},"vehicle_type_id":"4","last_reported":1767517886,"current_range_meters":9200,"station_id":"ce4bhp92rcd13ifvqhag","pricing_plan_id":"cebpf4jnsgd1na2vs0mg"},{"bike_id":"69344c04-1223-40cd-b549-8d9d27c19f94","system_id":"levelo_inurba_marseille","lat":43.29917,"lon":5.37177,"is_reserved":false,"is_disabled":false,"rental_uris":{"android":"levelo://app?vid=69344c04-1223-40cd-b549-8d9d27c19f94","ios":"levelo://app?vid=69344c04-1223-40cd-b549-8d9d27c19f94"},"vehicle_type_id":"4","last_reported":1767517886,"current_range_meters":9200,"station_id":"","pricing_plan_id":"cebpf4jnsgd1na2vs0mg"},{"bike_id":"f8fd03d0-aa2f-4b76-88bf-1f61c44cd155","system_id":"levelo_inurba_marseille","lat":43.29627,"lon":5.40611,"is_reserved":false,"is_disabled":false,"rental_uris":{"android":"levelo://app?vid=f8fd03d0-aa2f-4b76-88bf-1f61c44cd155","ios":"levelo://app?vid=f8fd03d0-aa2f-4b76-88bf-1f61c44cd155"},"vehicle_type_id":"4","last_reported":1767517886,"current_range_meters":9200,"station_id":"ce4bh0h2rcd13ifvqd60","pricing_plan_id":"cebpf4jnsgd1na2vs0mg"},{"bike_id":"6e43b422-2e00-46e4-9d5a-dbe9b8598cec","system_id":"levelo_inurba_marseille","lat":43.28141,"lon":5.42635,"is_reserved":false,"is_disabled":false,"rental_uris":{"android":"levelo://app?vid=6e43b422-2e00-46e4-9d5a-dbe9b8598cec","ios":"levelo://app?vid=6e43b422-2e00-46e4-9d5a-dbe9b8598cec"},"vehicle_type_id":"4","last_reported":1767517886,"current_range_meters":9200,"station_id":"ce4bhnh2rcd13ifvqgug","pricing_plan_id":"cebpf4jnsgd1na2vs0mg"},{"bike_id":"3fedbda4-18fb-4459-8990-789e6012cbd1","system_id":"levelo_inurba_marseille","lat":43.293834,"lon":5.378644,"is_reserved":false,"is_disabled":false,"rental_uris":{"android":"levelo://app?vid=3fedbda4-18fb-4459-8990-789e6012cbd1","ios":"levelo://app?vid=3fedbda4-18fb-4459-8990-789e6012cbd1"},"vehicle_type_id":"4","last_reported":1767517886,"current_range_meters":9200,"station_id":"ce4bgjh2rcd13ifvqbf0","pricing_plan_id":"cebpf4jnsgd1na2vs0mg"},{"bike_id":"1944fe52-51b9-4699-b1f3-3c378f1c0ff5","system_id":"levelo_inurba_marseille","lat":43.288499,"lon":5.358471,"is_reserved":false,"is_disabled":false,"rental_uris":{"android":"levelo://app?vid=1944fe52-51b9-4699-b1f3-3c378f1c0ff5","ios":"levelo://app?vid=1944fe52-51b9-4699-b1f3-3c378f1c0ff5"},"vehicle_type_id":"4","last_reported":1767517886,"current_range_meters":9200,"station_id":"ce4bhb12rcd13ifvqem0","pricing_plan_id":"cebpf4jnsgd1na2vs0mg"},{"bike_id":"a26459aa-1892-44c6-a4cd-982065cec8f2","system_id":"levelo_inurba_marseille","lat":43.231429,"lon":5.437165,"is_reserved":false,"is_disabled":false,"rental_uris":{"android":"levelo://app?vid=a26459aa-1892-44c6-a4cd-982065cec8f2","ios":"levelo://app?vid=a26459aa-1892-44c6-a4cd-982065cec8f2"},"vehicle_type_id":"4","last_reported":1767517886,"current_range_meters":9200,"station_id":"ce4bhmp2rcd13ifvqgog","pricing_plan_id":"cebpf4jnsgd1na2vs0mg"},{"bike_id":"1344b698-8650-40c6-84ae-c77983c95c2f","system_id":"levelo_inurba_marseille","lat":43.289257,"lon":5.361953,"is_reserved":false,"is_disabled":false,"rental_uris":{"android":"levelo://app?vid=1344b698-8650-40c6-84ae-c77983c95c2f","ios":"levelo://app?vid=1344b698-8650-40c6-84ae-c77983c95c2f"},"vehicle_type_id":"4","last_reported":1767517886,"current_range_meters":9200,"station_id":"","pricing_plan_id":"cebpf4jnsgd1na2vs0mg"},{"bike_id":"832630b7-1265-4116-b046-a0d5dd971800","system_id":"levelo_inurba_marseille","lat":43.29761,"lon":5.37087,"is_reserved":false,"is_disabled":false,"rental_uris":{"android":"levelo://app?vid=832630b7-1265-4116-b046-a0d5dd971800","ios":"levelo://app?vid=832630b7-1265-4116-b046-a0d5dd971800"},"vehicle_type_id":"4","last_reported":1767517886,"current_range_meters":9200,"station_id":"ce4bgop2rcd13ifvqc1g","pricing_plan_id":"cebpf4jnsgd1na2vs0mg"},{"bike_id":"225bdd2a-0ec2-4312-a816-23bf65227ab6","system_id":"levelo_inurba_marseille","lat":43.26381,"lon":5.41084,"is_reserved":false,"is_disabled":true,"rental_uris":{"android":"levelo://app?vid=225bdd2a-0ec2-4312-a816-23bf65227ab6","ios":"levelo://app?vid=225bdd2a-0ec2-4312-a816-23bf65227ab6"},"vehicle_type_id":"4","last_reported":1767517886,"current_range_meters":9200,"station_id":"","pricing_plan_id":"cebpf4jnsgd1na2vs0mg"},{"bike_id":"09de8293-0bc7-4093-9fd7-78e5ee68b962","system_id":"levelo_inurba_marseille","lat":43.27977,"lon":5.41674,"is_reserved":false,"is_disabled":false,"rental_uris":{"android":"levelo://app?vid=09de8293-0bc7-4093-9fd7-78e5ee68b962","ios":"levelo://app?vid=09de8293-0bc7-4093-9fd7-78e5ee68b962"},"vehicle_type_id":"4","last_reported":1767517886,"current_range_meters":9200,"station_id":"ce4bho12rcd13ifvqh1g","pricing_plan_id":"cebpf4jnsgd1na2vs0mg"},{"bike_id":"255658a8-b46b-4069-9e30-81efa319b4d2","system_id":"levelo_inurba_marseille","lat":43.294856,"lon":5.433062,"is_reserved":false,"is_disabled":false,"rental_uris":{"android":"levelo://app?vid=255658a8-b46b-4069-9e30-81efa319b4d2","ios":"levelo://app?vid=255658a8-b46b-4069-9e30-81efa319b4d2"},"vehicle_type_id":"4","last_reported":1767517886,"current_range_meters":9200,"station_id":"st_d3j5ugp08ojc73fj9d10","pricing_plan_id":"cebpf4jnsgd1na2vs0mg"},{"bike_id":"d9609e99-0c97-4e92-9739-ba6632591c0c","system_id":"levelo_inurba_marseille","lat":43.28924,"lon":5.38426,"is_reserved":false,"is_disabled":false,"rental_uris":{"android":"levelo://app?vid=d9609e99-0c97-4e92-9739-ba6632591c0c","ios":"levelo://app?vid=d9609e99-0c97-4e92-9739-ba6632591c0c"},"vehicle_type_id":"4","last_reported":1767517886,"current_range_meters":9200,"station_id":"ce4bh612rcd13ifvqe6g","pricing_plan_id":"cebpf4jnsgd1na2vs0mg"},{"bike_id":"746607d7-0d50-445a-b435-314ed89afc68","system_id":"levelo_inurba_marseille","lat":43.299,"lon":5.43675,"is_reserved":false,"is_disabled":false,"rental_uris":{"android":"levelo://app?vid=746607d7-0d50-445a-b435-314ed89afc68","ios":"levelo://app?vid=746607d7-0d50-445a-b435-314ed89afc68"},"vehicle_type_id":"4","last_reported":1767517886,"current_range_meters":9200,"station_id":"ce4bhpp2rcd13ifvqhfg","pricing_plan_id":"cebpf4jnsgd1na2vs0mg"},{"bike_id":"f3bc2b83-f211-4612-be45-4e3acf4d48db","system_id":"levelo_inurba_marseille","lat":43.27654,"lon":5.41849,"is_reserved":false,"is_disabled":false,"rental_uris":{"android":"levelo://app?vid=f3bc2b83-f211-4612-be45-4e3acf4d48db","ios":"levelo://app?vid=f3bc2b83-f211-4612-be45-4e3acf4d48db"},"vehicle_type_id":"4","last_reported":1767517886,"current_range_meters":9200,"station_id":"","pricing_plan_id":"cebpf4jnsgd1na2vs0mg"},{"bike_id":"38478ce1-a447-4641-99f3-89c5bb836bdb","system_id":"levelo_inurba_marseille","lat":43.27443,"lon":5.41851,"is_reserved":false,"is_disabled":false,"rental_uris":{"android":"levelo://app?vid=38478ce1-a447-4641-99f3-89c5bb836bdb","ios":"levelo://app?vid=38478ce1-a447-4641-99f3-89c5bb836bdb"},"vehicle_type_id":"4","last_reported":1767517886,"current_range_meters":9200,"station_id":"","pricing_plan_id":"cebpf4jnsgd1na2vs0mg"},{"bike_id":"313a26e2-6d5c-4db1-9b5b-ccc981e39b88","system_id":"levelo_inurba_marseille","lat":43.23781,"lon":5.36639,"is_reserved":false,"is_disabled":false,"rental_uris":{"android":"levelo://app?vid=313a26e2-6d5c-4db1-9b5b-ccc981e39b88","ios":"levelo://app?vid=313a26e2-6d5c-4db1-9b5b-ccc981e39b88"},"vehicle_type_id":"4","last_reported":1767517886,"current_range_meters":9200,"station_id":"st_d3nk18o9ro0c73en2l3g","pricing_plan_id":"cebpf4jnsgd1na2vs0mg"},{"bike_id":"278b026d-7c90-4296-9421-3e0684d777fa","system_id":"levelo_inurba_marseille","lat":43.29884,"lon":5.38318,"is_reserved":false,"is_disabled":false,"rental_uris":{"android":"levelo://app?vid=278b026d-7c90-4296-9421-3e0684d777fa","ios":"levelo://app?vid=278b026d-7c90-4296-9421-3e0684d777fa"},"vehicle_type_id":"4","last_reported":1767517886,"current_range_meters":9200,"station_id":"","pricing_plan_id":"cebpf4jnsgd1na2vs0mg"},{"bike_id":"59bca459-f8ba-4ca0-be09-8ae241edab81","system_id":"levelo_inurba_marseille","lat":43.33347,"lon":5.41119,"is_reserved":false,"is_disabled":false,"rental_uris":{"android":"levelo://app?vid=59bca459-f8ba-4ca0-be09-8ae241edab81","ios":"levelo://app?vid=59bca459-f8ba-4ca0-be09-8ae241edab81"},"vehicle_type_id":"4","last_reported":1767517886,"current_range_meters":9200,"station_id":"","pricing_plan_id":"cebpf4jnsgd1na2vs0mg"},{"bike_id":"47f5f321-0859-44a5-a3e2-7e35572c8bac","system_id":"levelo_inurba_marseille","lat":43.27076,"lon":5.42279,"is_reserved":false,"is_disabled":false,"rental_uris":{"android":"levelo://app?vid=47f5f321-0859-44a5-a3e2-7e35572c8bac","ios":"levelo://app?vid=47f5f321-0859-44a5-a3e2-7e35572c8bac"},"vehicle_type_id":"4","last_reported":1767517886,"current_range_meters":9200,"station_id":"ce4bhk92rcd13ifvqgb0","pricing_plan_id":"cebpf4jnsgd1na2vs0mg"},{"bike_id":"9b4021cf-15f5-49ee-bfc4-492922ebf4c9","system_id":"levelo_inurba_marseille","lat":43.30269,"lon":5.37271,"is_reserved":false,"is_disabled":false,"rental_uris":{"android":"levelo://app?vid=9b4021cf-15f5-49ee-bfc4-492922ebf4c9","ios":"levelo://app?vid=9b4021cf-15f5-49ee-bfc4-492922ebf4c9"},"vehicle_type_id":"4","last_reported":1767517886,"current_range_meters":9200,"station_id":"","pricing_plan_id":"cebpf4jnsgd1na2vs0mg"},{"bike_id":"ba160095-ea17-4bec-ab64-1fbbfd6b48a6","system_id":"levelo_inurba_marseille","lat":43.32091,"lon":5.36805,"is_reserved":false,"is_disabled":false,"rental_uris":{"android":"levelo://app?vid=ba160095-ea17-4bec-ab64-1fbbfd6b48a6","ios":"levelo://app?vid=ba160095-ea17-4bec-ab64-1fbbfd6b48a6"},"vehicle_type_id":"4","last_reported":1767517886,"current_range_meters":9200,"station_id":"ce4bhrh2rcd13ifvqhug","pricing_plan_id":"cebpf4jnsgd1na2vs0mg"},{"bike_id":"4094af8c-8214-4832-bd97-69d151875f98","system_id":"levelo_inurba_marseille","lat":43.29772,"lon":5.39339,"is_reserved":false,"is_disabled":false,"rental_uris":{"android":"levelo://app?vid=4094af8c-8214-4832-bd97-69d151875f98","ios":"levelo://app?vid=4094af8c-8214-4832-bd97-69d151875f98"},"vehicle_type_id":"4","last_reported":1767517886,"current_range_meters":9200,"station_id":"chh1huq6cuj3fo74tm60","pricing_plan_id":"cebpf4jnsgd1na2vs0mg"},{"bike_id":"689e1e25-96b9-418c-bbe1-0e8f9558c52f","system_id":"levelo_inurba_marseille","lat":43.31365,"lon":5.37586,"is_reserved":false,"is_disabled":false,"rental_uris":{"android":"levelo://app?vid=689e1e25-96b9-418c-bbe1-0e8f9558c52f","ios":"levelo://app?vid=689e1e25-96b9-418c-bbe1-0e8f9558c52f"},"vehicle_type_id":"4","last_reported":1767517886,"current_range_meters":9200,"station_id":"","pricing_plan_id":"cebpf4jnsgd1na2vs0mg"},{"bike_id":"5fec1690-e74d-4f43-a71c-9970216e075e","system_id":"levelo_inurba_marseille","lat":43.250878,"lon":5.395211,"is_reserved":false,"is_disabled":false,"rental_uris":{"android":"levelo://app?vid=5fec1690-e74d-4f43-a71c-9970216e075e","ios":"levelo://app?vid=5fec1690-e74d-4f43-a71c-9970216e075e"},"vehicle_type_id":"4","last_reported":1767517886,"current_range_meters":9200,"station_id":"ce4bhm12rcd13ifvqgkg","pricing_plan_id":"cebpf4jnsgd1na2vs0mg"},{"bike_id":"4624d1ee-d4eb-4d7e-9132-0d5b7855618d","system_id":"levelo_inurba_marseille","lat":43.33541,"lon":5.37467,"is_reserved":false,"is_disabled":false,"rental_uris":{"android":"levelo://app?vid=4624d1ee-d4eb-4d7e-9132-0d5b7855618d","ios":"levelo://app?vid=4624d1ee-d4eb-4d7e-9132-0d5b7855618d"},"vehicle_type_id":"4","last_reported":1767517886,"current_range_meters":9600,"station_id":"st_d46tts09ee8s73dlu43g","pricing_plan_id":"cebpf4jnsgd1na2vs0mg"},{"bike_id":"febe362e-858e-44c5-b4bb-e4a7c6160c6f","system_id":"levelo_inurba_marseille","lat":43.323555,"lon":5.367424,"is_reserved":false,"is_disabled":false,"rental_uris":{"android":"levelo://app?vid=febe362e-858e-44c5-b4bb-e4a7c6160c6f","ios":"levelo://app?vid=febe362e-858e-44c5-b4bb-e4a7c6160c6f"},"vehicle_type_id":"4","last_reported":1767517886,"current_range_meters":9600,"station_id":"ce4bhsh2rcd13ifvqi2g","pricing_plan_id":"cebpf4jnsgd1na2vs0mg"},{"bike_id":"0593d738-3fdf-4466-a880-c927ee83299a","system_id":"levelo_inurba_marseille","lat":43.28725,"lon":5.40014,"is_reserved":false,"is_disabled":false,"rental_uris":{"android":"levelo://app?vid=0593d738-3fdf-4466-a880-c927ee83299a","ios":"levelo://app?vid=0593d738-3fdf-4466-a880-c927ee83299a"},"vehicle_type_id":"4","last_reported":1767517886,"current_range_meters":9600,"station_id":"ce4bho92rcd13ifvqh3g","pricing_plan_id":"cebpf4jnsgd1na2vs0mg"},{"bike_id":"18057ecb-ade7-4f09-b182-a520e78e3681","system_id":"levelo_inurba_marseille","lat":43.28475,"lon":5.38431,"is_reserved":false,"is_disabled":false,"rental_uris":{"android":"levelo://app?vid=18057ecb-ade7-4f09-b182-a520e78e3681","ios":"levelo://app?vid=18057ecb-ade7-4f09-b182-a520e78e3681"},"vehicle_type_id":"4","last_reported":1767517886,"current_range_meters":9600,"station_id":"ce4bh512rcd13ifvqe3g","pricing_plan_id":"cebpf4jnsgd1na2vs0mg"},{"bike_id":"61bede02-2851-4fcf-827d-afeac7ac0523","system_id":"levelo_inurba_marseille","lat":43.29878,"lon":5.37603,"is_reserved":false,"is_disabled":false,"rental_uris":{"android":"levelo://app?vid=61bede02-2851-4fcf-827d-afeac7ac0523","ios":"levelo://app?vid=61bede02-2851-4fcf-827d-afeac7ac0523"},"vehicle_type_id":"4","last_reported":1767517886,"current_range_meters":9600,"station_id":"ce4bhr92rcd13ifvqhrg","pricing_plan_id":"cebpf4jnsgd1na2vs0mg"},{"bike_id":"f45af1ed-ba57-4931-a22f-bc2fde3d778c","system_id":"levelo_inurba_marseille","lat":43.30368,"lon":5.42511,"is_reserved":false,"is_disabled":false,"rental_uris":{"android":"levelo://app?vid=f45af1ed-ba57-4931-a22f-bc2fde3d778c","ios":"levelo://app?vid=f45af1ed-ba57-4931-a22f-bc2fde3d778c"},"vehicle_type_id":"4","last_reported":1767517886,"current_range_meters":9600,"station_id":"ce4bhoh2rcd13ifvqh6g","pricing_plan_id":"cebpf4jnsgd1na2vs0mg"},{"bike_id":"16e48f27-7b0d-4505-a28d-1934122f2e60","system_id":"levelo_inurba_marseille","lat":43.29379,"lon":5.39898,"is_reserved":false,"is_disabled":false,"rental_uris":{"android":"levelo://app?vid=16e48f27-7b0d-4505-a28d-1934122f2e60","ios":"levelo://app?vid=16e48f27-7b0d-4505-a28d-1934122f2e60"},"vehicle_type_id":"4","last_reported":1767517886,"current_range_meters":9600,"station_id":"","pricing_plan_id":"cebpf4jnsgd1na2vs0mg"},{"bike_id":"c713e54a-b82d-4ed6-8942-6938c8451e46","system_id":"levelo_inurba_marseille","lat":43.27327,"lon":5.39105,"is_reserved":false,"is_disabled":false,"rental_uris":{"android":"levelo://app?vid=c713e54a-b82d-4ed6-8942-6938c8451e46","ios":"levelo://app?vid=c713e54a-b82d-4ed6-8942-6938c8451e46"},"vehicle_type_id":"4","last_reported":1767517886,"current_range_meters":9600,"station_id":"ce4bhgp2rcd13ifvqfe0","pricing_plan_id":"cebpf4jnsgd1na2vs0mg"},{"bike_id":"4072e431-0b6b-4633-9f4d-691f6d52b205","system_id":"levelo_inurba_marseille","lat":43.24942,"lon":5.40503,"is_reserved":false,"is_disabled":false,"rental_uris":{"android":"levelo://app?vid=4072e431-0b6b-4633-9f4d-691f6d52b205","ios":"levelo://app?vid=4072e431-0b6b-4633-9f4d-691f6d52b205"},"vehicle_type_id":"4","last_reported":1767517886,"current_range_meters":9600,"station_id":"st_d2ngiaodas8pm72gd1h0","pricing_plan_id":"cebpf4jnsgd1na2vs0mg"},{"bike_id":"c48b8ab0-3aed-485b-9e87-5ea8f52478d4","system_id":"levelo_inurba_marseille","lat":43.31563,"lon":5.38322,"is_reserved":false,"is_disabled":false,"rental_uris":{"android":"levelo://app?vid=c48b8ab0-3aed-485b-9e87-5ea8f52478d4","ios":"levelo://app?vid=c48b8ab0-3aed-485b-9e87-5ea8f52478d4"},"vehicle_type_id":"4","last_reported":1767517886,"current_range_meters":9600,"station_id":"","pricing_plan_id":"cebpf4jnsgd1na2vs0mg"},{"bike_id":"170f7dd9-6312-4e35-b5f2-97f1de07f011","system_id":"levelo_inurba_marseille","lat":43.31078,"lon":5.42432,"is_reserved":false,"is_disabled":false,"rental_uris":{"android":"levelo://app?vid=170f7dd9-6312-4e35-b5f2-97f1de07f011","ios":"levelo://app?vid=170f7dd9-6312-4e35-b5f2-97f1de07f011"},"vehicle_type_id":"4","last_reported":1767517886,"current_range_meters":9600,"station_id":"ce4bhp92rcd13ifvqhag","pricing_plan_id":"cebpf4jnsgd1na2vs0mg"},