{"last_updated":1752836986,"ttl":60,"version":"2.2","data":{"bikes":[{"bike_id":"53b742a7-31ae-4272-9bba-7740339e2a2f","system_id":"levelo_inurba_marseille","lat":43.33747,"lon":5.37463,"is_reserved":false,"is_disabled":false,"rental_uris":{"android":"levelo://app?vid=53b742a7-31ae-4272-9bba-7740339e2a2f","ios":"levelo://app?vid=53b742a7-31ae-4272-9bba-7740339e2a2f"},"vehicle_type_id":"1","last_reported":1752836987,"current_range_meters":20000,"station_id":"","pricing_plan_id":"cebpf4jnsgd1na2vs0mg"},{"bike_id":"57bb565d-2136-465a-803d-648474c4a3a7","system_id":"levelo_inurba_marseille","lat":43.31123,"lon":5.37789,"is_reserved":false,"is_disabled":false,"rental_uris":{"android":"levelo://app?vid=57bb565d-2136-465a-803d-648474c4a3a7","ios":"levelo://app?vid=57bb565d-2136-465a-803d-648474c4a3a7"},"vehicle_type_id":"4","last_reported":1752836987,"current_range_meters":3200,"station_id":"","pricing_plan_id":"cebpf4jnsgd1na2vs0mg"},{"bike_id":"da581d50-8a7a-4fd1-b852-3e78907ad563","system_id":"levelo_inurba_marseille","lat":43.3247,"lon":5.40887,"is_reserved":false,"is_disabled":false,"rental_uris":{"android":"levelo://app?vid=da581d50-8a7a-4fd1-b852-3e78907ad563","ios":"levelo://app?vid=da581d50-8a7a-4fd1-b852-3e78907ad563"},"vehicle_type_id":"4","last_reported":1752836987,"current_range_meters":3600,"station_id":"","pricing_plan_id":"cebpf4jnsgd1na2vs0mg"},{"bike_id":"83927d45-3ad9-4fc8-ae0b-8c9dc386cfb3","system_id":"levelo_inurba_marseille","lat":43.27431,"lon":5.3942,"is_reserved":false,"is_disabled":false,"rental_uris":{"android":"levelo://app?vid=83927d45-3ad9-4fc8-ae0b-8c9dc386cfb3","ios":"levelo://app?vid=83927d45-3ad9-4fc8-ae0b-8c9dc386cfb3"},"vehicle_type_id":"4","last_reported":1752836987,"current_range_meters":3600,"station_id":"ce4bhdp2rcd13ifvqf20","pricing_plan_id":"cebpf4jnsgd1na2vs0mg"},{"bike_id":"c789c720-9287-484d-839d-e803c923fd2b","system_id":"levelo_inurba_marseille","lat":43.301518,"lon":5.380959,"is_reserved":false,"is_disabled":false,"rental_uris":{"android":"levelo://app?vid=c789c720-9287-484d-839d-e803c923fd2b","ios":"levelo://app?vid=c789c720-9287-484d-839d-e803c923fd2b"},"vehicle_type_id":"4","last_reported":1752836987,"current_range_meters":4000,"station_id":"ce4bgjp2rcd13ifvqbh0","pricing_plan_id":"cebpf4jnsgd1na2vs0mg"},{"bike_id":"806115b7-fa5b-48f9-964f-55165b2767f0","system_id":"levelo_inurba_marseille","lat":43.29277,"lon":5.40125,"is_reserved":false,"is_disabled":false,"rental_uris":{"android":"levelo://app?vid=806115b7-fa5b-48f9-964f-55165b2767f0","ios":"levelo://app?vid=806115b7-fa5b-48f9-964f-55165b2767f0"},"vehicle_type_id":"4","last_reported":1752836987,"current_range_meters":3600,"station_id":"ce4bh312rcd13ifvqdk0","pricing_plan_id":"cebpf4jnsgd1na2vs0mg"},{"bike_id":"d490daa6-d95c-44e3-badc-0c26e3fa8e6e","system_id":"levelo_inurba_marseille","lat":43.23952,"lon":5.36631,"is_reserved":false,"is_disabled":true,"rental_uris":{"android":"levelo://app?vid=d490daa6-d95c-44e3-badc-0c26e3fa8e6e","ios":"levelo://app?vid=d490daa6-d95c-44e3-badc-0c26e3fa8e6e"},"vehicle_type_id":"4","last_reported":1752836987,"current_range_meters":4000,"station_id":"ce4bhi12rcd13ifvqfp0","pricing_plan_id":"cebpf4jnsgd1na2vs0mg"},{"bike_id":"0edbab36-e194-4f87-9081-23797318a304","system_id":"levelo_inurba_marseille","lat":43.29275,"lon":5.40127,"is_reserved":false,"is_disabled":false,"rental_uris":{"android":"levelo://app?vid=0edbab36-e194-4f87-9081-23797318a304","ios":"levelo://app?vid=0edbab36-e194-4f87-9081-23797318a304"},"vehicle_type_id":"4","last_reported":1752836987,"current_range_meters":4000,"station_id":"ce4bh312rcd13ifvqdk0","pricing_plan_id":"cebpf4jnsgd1na2vs0mg"},{"bike_id":"51de7427-7c78-40b8-b137-52d7c01a1b54","system_id":"levelo_inurba_marseille","lat":43.29888,"lon":5.43674,"is_reserved":false,"is_disabled":false,"rental_uris":{"android":"levelo://app?vid=51de7427-7c78-40b8-b137-52d7c01a1b54","ios":"levelo://app?vid=51de7427-7c78-40b8-b137-52d7c01a1b54"},"vehicle_type_id":"4","last_reported":1752836987,"current_range_meters":4000,"station_id":"ce4bhpp2rcd13ifvqhfg","pricing_plan_id":"cebpf4jnsgd1na2vs0mg"},{"bike_id":"fd2d4f94-f43b-4f41-a55f-7f72eea1b942","system_id":"levelo_inurba_marseille","lat":43.30964,"lon":5.39042,"is_reserved":false,"is_disabled":false,"rental_uris":{"android":"levelo://app?vid=fd2d4f94-f43b-4f41-a55f-7f72eea1b942","ios":"levelo://app?vid=fd2d4f94-f43b-4f41-a55f-7f72eea1b942"},"vehicle_type_id":"4","last_reported":1752836987,"current_range_meters":6000,"station_id":"ce4bgup2rcd13ifvqco0","pricing_plan_id":"cebpf4jnsgd1na2vs0mg"},{"bike_id":"a4fd652b-34f8-4c68-a6e6-032a5cc5e418","system_id":"levelo_inurba_marseille","lat":43.312229,"lon":5.368478,"is_reserved":false,"is_disabled":false,"rental_uris":{"android":"levelo://app?vid=a4fd652b-34f8-4c68-a6e6-032a5cc5e418","ios":"levelo://app?vid=a4fd652b-34f8-4c68-a6e6-032a5cc5e418"},"vehicle_type_id":"4","last_reported":1752836987,"current_range_meters":6400,"station_id":"ce4bgl92rcd13ifvqbq0","pricing_plan_id":"cebpf4jnsgd1na2vs0mg"},{"bike_id":"bdafb8c1-1800-4044-8dd7-d1dcc75c3b9c","system_id":"levelo_inurba_marseille","lat":43.23177,"lon":5.39987,"is_reserved":false,"is_disabled":false,"rental_uris":{"android":"levelo://app?vid=bdafb8c1-1800-4044-8dd7-d1dcc75c3b9c","ios":"levelo://app?vid=bdafb8c1-1800-4044-8dd7-d1dcc75c3b9c"},"vehicle_type_id":"4","last_reported":1752836987,"current_range_meters":6800,"station_id":"ce4bhn12rcd13ifvqgqg","pricing_plan_id":"cebpf4jnsgd1na2vs0mg"},{"bike_id":"81f88721-00d0-431c-83bf-446e11578408","system_id":"levelo_inurba_marseille","lat":43.225038,"lon":5.347854,"is_reserved":false,"is_disabled":false,"rental_uris":{"android":"levelo://app?vid=81f88721-00d0-431c-83bf-446e11578408","ios":"levelo://app?vid=81f88721-00d0-431c-83bf-446e11578408"},"vehicle_type_id":"4","last_reported":1752836987,"current_range_meters":6800,"station_id":"st_cvj5dfep6f1abm77gieg","pricing_plan_id":"cebpf4jnsgd1na2vs0mg"},{"bike_id":"9926ebb3-b641-4ad8-afc5-63a07c72a680","system_id":"levelo_inurba_marseille","lat":43.30602,"lon":5.37241,"is_reserved":false,"is_disabled":false,"rental_uris":{"android":"levelo://app?vid=9926ebb3-b641-4ad8-afc5-63a07c72a680","ios":"levelo://app?vid=9926ebb3-b641-4ad8-afc5-63a07c72a680"},"vehicle_type_id":"4","last_reported":1752836987,"current_range_meters":6800,"station_id":"ce4bgqh2rcd13ifvqc4g","pricing_plan_id":"cebpf4jnsgd1na2vs0mg"},{"bike_id":"463f629f-c9b6-4e79-97a4-dc706543d47a","system_id":"levelo_inurba_marseille","lat":43.30525,"lon":5.36556,"is_reserved":false,"is_disabled":false,"rental_uris":{"android":"levelo://app?vid=463f629f-c9b6-4e79-97a4-dc706543d47a","ios":"levelo://app?vid=463f629f-c9b6-4e79-97a4-dc706543d47a"},"vehicle_type_id":"4","last_reported":1752836987,"current_range_meters":7200,"station_id":"ce4bgs12rcd13ifvqcag","pricing_plan_id":"cebpf4jnsgd1na2vs0mg"},{"bike_id":"fec9d244-848b-4a26-82ea-1277ae3fa5bf","system_id":"levelo_inurba_marseille","lat":43.30144,"lon":5.38083,"is_reserved":false,"is_disabled":false,"rental_uris":{"android":"levelo://app?vid=fec9d244-848b-4a26-82ea-1277ae3fa5bf","ios":"levelo://app?vid=fec9d244-848b-4a26-82ea-1277ae3fa5bf"},"vehicle_type_id":"4","last_reported":1752836987,"current_range_meters":7200,"station_id":"ce4bgjp2rcd13ifvqbh0","pricing_plan_id":"cebpf4jnsgd1na2vs0mg"},{"bike_id":"89185cee-bf02-4e92-bdc5-4f5d721ca6a2","system_id":"levelo_inurba_marseille","lat":43.26229,"lon":5.40455,"is_reserved":false,"is_disabled":false,"rental_uris":{"android":"levelo://app?vid=89185cee-bf02-4e92-bdc5-4f5d721ca6a2","ios":"levelo://app?vid=89185cee-bf02-4e92-bdc5-4f5d721ca6a2"},"vehicle_type_id":"4","last_reported":1752836987,"current_range_meters":7200,"station_id":"ce4bhmh2rcd13ifvqgmg","pricing_plan_id":"cebpf4jnsgd1na2vs0mg"},{"bike_id":"e4ded312-2d3a-4c51-951d-d6237fd03f0c","system_id":"levelo_inurba_marseille","lat":43.22925,"lon":5.35373,"is_reserved":false,"is_disabled":false,"rental_uris":{"android":"levelo://app?vid=e4ded312-2d3a-4c51-951d-d6237fd03f0c","ios":"levelo://app?vid=e4ded312-2d3a-4c51-951d-d6237fd03f0c"},"vehicle_type_id":"4","last_reported":1752836987,"current_range_meters":8000,"station_id":"cpo3532slgdg3j2ikp40","pricing_plan_id":"cebpf4jnsgd1na2vs0mg"},{"bike_id":"fc4d4e4e-5717-4120-ad6f-4671cc5bdb55","system_id":"levelo_inurba_marseille","lat":43.22943,"lon":5.35376,"is_reserved":false,"is_disabled":false,"rental_uris":{"android":"levelo://app?vid=fc4d4e4e-5717-4120-ad6f-4671cc5bdb55","ios":"levelo://app?vid=fc4d4e4e-5717-4120-ad6f-4671cc5bdb55"},"vehicle_type_id":"4","last_reported":1752836987,"current_range_meters":8000,"station_id":"cpo3532slgdg3j2ikp40","pricing_plan_id":"cebpf4jnsgd1na2vs0mg"},{"bike_id":"4d45f1e9-194f-47b9-b021-5eab9e1c0b12","system_id":"levelo_inurba_marseille","lat":43.3121,"lon":5.36805,"is_reserved":false,"is_disabled":false,"rental_uris":{"android":"levelo://app?vid=4d45f1e9-194f-47b9-b021-5eab9e1c0b12","ios":"levelo://app?vid=4d45f1e9-194f-47b9-b021-5eab9e1c0b12"},"vehicle_type_id":"4","last_reported":1752836987,"current_range_meters":8400,"station_id":"ce4bgl92rcd13ifvqbq0","pricing_plan_id":"cebpf4jnsgd1na2vs0mg"},{"bike_id":"555bc53e-5286-4fb6-9154-af42b3fd9792","system_id":"levelo_inurba_marseille","lat":43.30069,"lon":5.37291,"is_reserved":false,"is_disabled":false,"rental_uris":{"android":"levelo://app?vid=555bc53e-5286-4fb6-9154-af42b3fd9792","ios":"levelo://app?vid=555bc53e-5286-4fb6-9154-af42b3fd9792"},"vehicle_type_id":"4","last_reported":1752836987,"current_range_meters":8400,"station_id":"","pricing_plan_id":"cebpf4jnsgd1na2vs0mg"},{"bike_id":"0b4aeec2-26f8-4cc4-b7a9-87e25034d77d","system_id":"levelo_inurba_marseille","lat":43.3037,"lon":5.42455,"is_reserved":false,"is_disabled":false,"rental_uris":{"android":"levelo://app?vid=0b4aeec2-26f8-4cc4-b7a9-87e25034d77d","ios":"levelo://app?vid=0b4aeec2-26f8-4cc4-b7a9-87e25034d77d"},"vehicle_type_id":"4","last_reported":1752836987,"current_range_meters":8400,"station_id":"ce4bhoh2rcd13ifvqh6g","pricing_plan_id":"cebpf4jnsgd1na2vs0mg"},{"bike_id":"c87233e0-2680-4b73-991d-183a66e5f6e8","system_id":"levelo_inurba_marseille","lat":43.265655,"lon":5.390084,"is_reserved":false,"is_disabled":false,"rental_uris":{"android":"levelo://app?vid=c87233e0-2680-4b73-991d-183a66e5f6e8","ios":"levelo://app?vid=c87233e0-2680-4b73-991d-183a66e5f6e8"},"vehicle_type_id":"4","last_reported":1752836987,"current_range_meters":8800,"station_id":"ce4bhe12rcd13ifvqf30","pricing_plan_id":"cebpf4jnsgd1na2vs0mg"},{"bike_id":"04d15a50-cb94-495c-969c-c09473f1fcda","system_id":"levelo_inurba_marseille","lat":43.296196,"lon":5.377039,"is_reserved":false,"is_disabled":true,"rental_uris":{"android":"levelo://app?vid=04d15a50-cb94-495c-969c-c09473f1fcda","ios":"levelo://app?vid=04d15a50-cb94-495c-969c-c09473f1fcda"},"vehicle_type_id":"4","last_reported":1752836987,"current_range_meters":8800,"station_id":"","pricing_plan_id":"cebpf4jnsgd1na2vs0mg"},{"bike_id":"3444bdc6-514a-4ba6-9650-f9073305e33d","system_id":"levelo_inurba_marseille","lat":43.29682,"lon":5.3698,"is_reserved":false,"is_disabled":false,"rental_uris":{"android":"levelo://app?vid=3444bdc6-514a-4ba6-9650-f9073305e33d","ios":"levelo://app?vid=3444bdc6-514a-4ba6-9650-f9073305e33d"},"vehicle_type_id":"4","last_reported":1752836987,"current_range_meters":8800,"station_id":"","pricing_plan_id":"cebpf4jnsgd1na2vs0mg"},{"bike_id":"8e6e1ca6-9684-4865-bcc2-4f4c40c74eff","system_id":"levelo_inurba_marseille","lat":43.29678,"lon":5.38752,"is_reserved":false,"is_disabled":false,"rental_uris":{"android":"levelo://app?vid=8e6e1ca6-9684-4865-bcc2-4f4c40c74eff","ios":"levelo://app?vid=8e6e1ca6-9684-4865-bcc2-4f4c40c74eff"},"vehicle_type_id":"4","last_reported":1752836987,"current_range_meters":8800,"station_id":"","pricing_plan_id":"cebpf4jnsgd1na2vs0mg"},{"bike_id":"dad9864d-a9ca-445e-b838-6e2a637cbeb2","system_id":"levelo_inurba_marseille","lat":43.239659,"lon":5.366201,"is_reserved":false,"is_disabled":false,"rental_uris":{"android":"levelo://app?vid=dad9864d-a9ca-445e-b838-6e2a637cbeb2","ios":"levelo://app?vid=dad9864d-a9ca-445e-b838-6e2a637cbeb2"},"vehicle_type_id":"4","last_reported":1752836987,"current_range_meters":9200,"station_id":"ce4bhi12rcd13ifvqfp0","pricing_plan_id":"cebpf4jnsgd1na2vs0mg"},{"bike_id":"28d27c17-e6ca-4cec-aec9-f1f6696b8a12","system_id":"levelo_inurba_marseille","lat":43.29912,"lon":5.43718,"is_reserved":false,"is_disabled":true,"rental_uris":{"android":"levelo://app?vid=28d27c17-e6ca-4cec-aec9-f1f6696b8a12","ios":"levelo://app?vid=28d27c17-e6ca-4cec-aec9-f1f6696b8a12"},"vehicle_type_id":"4","last_reported":1752836987,"current_range_meters":9200,"station_id":"","pricing_plan_id":"cebpf4jnsgd1na2vs0mg"},{"bike_id":"281014d5-1212-440a-a02d-35712870cbdc","system_id":"levelo_inurba_marseille","lat":43.25721,"lon":5.41107,"is_reserved":false,"is_disabled":false,"rental_uris":{"android":"levelo://app?vid=281014d5-1212-440a-a02d-35712870cbdc","ios":"levelo://app?vid=281014d5-1212-440a-a02d-35712870cbdc"},"vehicle_type_id":"4","last_reported":1752836987,"current_range_meters":9600,"station_id":"ce4bhkp2rcd13ifvqgd0","pricing_plan_id":"cebpf4jnsgd1na2vs0mg"},{"bike_id":"07f5ae19-0925-43ef-aab4-48ec58bc62b9","system_id":"levelo_inurba_marseille","lat":43.31452,"lon":5.37441,"is_reserved":false,"is_disabled":false,"rental_uris":{"android":"levelo://app?vid=07f5ae19-0925-43ef-aab4-48ec58bc62b9","ios":"levelo://app?vid=07f5ae19-0925-43ef-aab4-48ec58bc62b9"},"vehicle_type_id":"4","last_reported":1752836987,"current_range_meters":9600,"station_id":"","pricing_plan_id":"cebpf4jnsgd1na2vs0mg"},{"bike_id":"93b09dec-e38b-4626-9d3b-2697015dbdf8","system_id":"levelo_inurba_marseille","lat":43.28666,"lon":5.38676,"is_reserved":false,"is_disabled":false,"rental_uris":{"android":"levelo://app?vid=93b09dec-e38b-4626-9d3b-2697015dbdf8","ios":"levelo://app?vid=93b09dec-e38b-4626-9d3b-2697015dbdf8"},"vehicle_type_id":"4","last_reported":1752836987,"current_range_meters":9600,"station_id":"ce4bh492rcd13ifvqdug","pricing_plan_id":"cebpf4jnsgd1na2vs0mg"},{"bike_id":"d1e94785-07c9-4567-977b-a1d086ccac8d","system_id":"levelo_inurba_marseille","lat":43.299,"lon":5.43679,"is_reserved":false,"is_disabled":false,"rental_uris":{"android":"levelo://app?vid=d1e94785-07c9-4567-977b-a1d086ccac8d","ios":"levelo://app?vid=d1e94785-07c9-4567-977b-a1d086ccac8d"},"vehicle_type_id":"4","last_reported":1752836987,"current_range_meters":10000,"station_id":"ce4bhpp2rcd13ifvqhfg","pricing_plan_id":"cebpf4jnsgd1na2vs0mg"},{"bike_id":"e161774d-a7da-4022-9638-b9538c7b14c5","system_id":"levelo_inurba_marseille","lat":43.27999,"lon":5.40023,"is_reserved":false,"is_disabled":false,"rental_uris":{"android":"levelo://app?vid=e161774d-a7da-4022-9638-b9538c7b14c5","ios":"levelo://app?vid=e161774d-a7da-4022-9638-b9538c7b14c5"},"vehicle_type_id":"4","last_reported":1752836987,"current_range_meters":9600,"station_id":"ce4bho92rcd13ifvqh4g","pricing_plan_id":"cebpf4jnsgd1na2vs0mg"},{"bike_id":"df090a11-e981-4007-9634-55e23e4a5108","system_id":"levelo_inurba_marseille","lat":43.28417,"lon":5.34972,"is_reserved":false,"is_disabled":false,"rental_uris":{"android":"levelo://app?vid=df090a11-e981-4007-9634-55e23e4a5108","ios":"levelo://app?vid=df090a11-e981-4007-9634-55e23e4a5108"},"vehicle_type_id":"4","last_reported":1752836987,"current_range_meters":10000,"station_id":"ce4bhbh2rcd13ifvqepg","pricing_plan_id":"cebpf4jnsgd1na2vs0mg"},{"bike_id":"b861e845-045e-4bb7-9260-06d3fafca4ef","system_id":"levelo_inurba_marseille","lat":43.29902,"lon":5.43676,"is_reserved":false,"is_disabled":false,"rental_uris":{"android":"levelo://app?vid=b861e845-045e-4bb7-9260-06d3fafca4ef","ios":"levelo://app?vid=b861e845-045e-4bb7-9260-06d3fafca4ef"},"vehicle_type_id":"4","last_reported":1752836987,"current_range_meters":10800,"station_id":"ce4bhpp2rcd13ifvqhfg","pricing_plan_id":"cebpf4jnsgd1na2vs0mg"},{"bike_id":"05a49a86-21b9-49c1-b3d7-44eb8c904301","system_id":"levelo_inurba_marseille","lat":43.29895,"lon":5.43667,"is_reserved":false,"is_disabled":false,"rental_uris":{"android":"levelo://app?vid=05a49a86-21b9-49c1-b3d7-44eb8c904301","ios":"levelo://app?vid=05a49a86-21b9-49c1-b3d7-44eb8c904301"},"vehicle_type_id":"4","last_reported":1752836987,"current_range_meters":10800,"station_id":"ce4bhpp2rcd13ifvqhfg","pricing_plan_id":"cebpf4jnsgd1na2vs0mg"},{"bike_id":"87c3bbcc-5d1d-4beb-b980-536197d1b3fc","system_id":"levelo_inurba_marseille","lat":43.27055,"lon":5.40257,"is_reserved":false,"is_disabled":false,"rental_uris":{"android":"levelo://app?vid=87c3bbcc-5d1d-4beb-b980-536197d1b3fc","ios":"levelo://app?vid=87c3bbcc-5d1d-4beb-b980-536197d1b3fc"},"vehicle_type_id":"4","last_reported":1752836987,"current_range_meters":10800,"station_id":"ce4bhk92rcd13ifvqgc0","pricing_plan_id":"cebpf4jnsgd1na2vs0mg"},{"bike_id":"ba3823fb-c6a3-4066-b41a-411ec979f129","system_id":"levelo_inurba_marseille","lat":43.32337,"lon":5.40627,"is_reserved":false,"is_disabled":false,"rental_uris":{"android":"levelo://app?vid=ba3823fb-c6a3-4066-b41a-411ec979f129","ios":"levelo://app?vid=ba3823fb-c6a3-4066-b41a-411ec979f129"},"vehicle_type_id":"4","last_reported":1752836987,"current_range_meters":10800,"station_id":"ce4bhq92rcd13ifvqhjg","pricing_plan_id":"cebpf4jnsgd1na2vs0mg"},{"bike_id":"6b669775-0819-4613-92b2-a40cd98ea433","system_id":"levelo_inurba_marseille","lat":43.29709,"lon":5.377,"is_reserved":false,"is_disabled":false,"rental_uris":{"android":"levelo://app?vid=6b669775-0819-4613-92b2-a40cd98ea433","ios":"levelo://app?vid=6b669775-0819-4613-92b2-a40cd98ea433"},"vehicle_type_id":"4","last_reported":1752836987,"current_range_meters":10800,"station_id":"ce4bgkh2rcd13ifvqbl0","pricing_plan_id":"cebpf4jnsgd1na2vs0mg"},{"bike_id":"a03b1af7-12ff-4563-a529-66e87147ac5c","system_id":"levelo_inurba_marseille","lat":43.217495,"lon":5.346026,"is_reserved":false,"is_disabled":false,"rental_uris":{"android":"levelo://app?vid=a03b1af7-12ff-4563-a529-66e87147ac5c","ios":"levelo://app?vid=a03b1af7-12ff-4563-a529-66e87147ac5c"},"vehicle_type_id":"4","last_reported":1752836987,"current_range_meters":10800,"station_id":"st_cvj6r9ubvosntc0bgbag","pricing_plan_id":"cebpf4jnsgd1na2vs0mg"},{"bike_id":"edaf737d-c90f-47ff-aa14-ae2a78a26b23","system_id":"levelo_inurba_marseille","lat":43.284119,"lon":5.349746,"is_reserved":false,"is_disabled":false,"rental_uris":{"android":"levelo://app?vid=edaf737d-c90f-47ff-aa14-ae2a78a26b23","ios":"levelo://app?vid=edaf737d-c90f-47ff-aa14-ae2a78a26b23"},"vehicle_type_id":"4","last_reported":1752836987,"current_range_meters":11200,"station_id":"ce4bgup2rcd13ifvqco0","pricing_plan_id":"cebpf4jnsgd1na2vs0mg"},{"bike_id":"2ac93549-5c94-4228-8eea-782a21384d10","system_id":"levelo_inurba_marseille","lat":43.29634,"lon":5.37793,"is_reserved":false,"is_disabled":false,"rental_uris":{"android":"levelo://app?vid=2ac93549-5c94-4228-8eea-782a21384d10","ios":"levelo://app?vid=2ac93549-5c94-4228-8eea-782a21384d10"},"vehicle_type_id":"4","last_reported":1752836987,"current_range_meters":11200,"station_id":"","pricing_plan_id":"cebpf4jnsgd1na2vs0mg"},{"bike_id":"b9c220fa-ce21-46e5-9c5b-52d91725030b","system_id":"levelo_inurba_marseille","lat":43.22935,"lon":5.35368,"is_reserved":false,"is_disabled":false,"rental_uris":{"android":"levelo://app?vid=b9c220fa-ce21-46e5-9c5b-52d91725030b","ios":"levelo://app?vid=b9c220fa-ce21-46e5-9c5b-52d91725030b"},"vehicle_type_id":"4","last_reported":1752836987,"current_range_meters":11600,"station_id":"cpo3532slgdg3j2ikp40","pricing_plan_id":"cebpf4jnsgd1na2vs0mg"},{"bike_id":"9980ee6c-1e79-4af5-9f93-7034618b081a","system_id":"levelo_inurba_marseille","lat":43.30551,"lon":5.3672,"is_reserved":false,"is_disabled":true,"rental_uris":{"android":"levelo://app?vid=9980ee6c-1e79-4af5-9f93-7034618b081a","ios":"levelo://app?vid=9980ee6c-1e79-4af5-9f93-7034618b081a"},"vehicle_type_id":"4","last_reported":1752836987,"current_range_meters":11600,"station_id":"ce4bgrp2rcd13ifvqc9g","pricing_plan_id":"cebpf4jnsgd1na2vs0mg"},{"bike_id":"da891840-0cec-4ccc-961c-48903736c6fa","system_id":"levelo_inurba_marseille","lat":43.31139,"lon":5.37692,"is_reserved":false,"is_disabled":false,"rental_uris":{"android":"levelo://app?vid=da891840-0cec-4ccc-961c-48903736c6fa","ios":"levelo://app?vid=da891840-0cec-4ccc-961c-48903736c6fa"},"vehicle_type_id":"4","last_reported":1752836987,"current_range_meters":11600,"station_id":"","pricing_plan_id":"cebpf4jnsgd1na2vs0mg"},{"bike_id":"b0914e03-5bd0-4e88-bc32-7f75abdc1c21","system_id":"levelo_inurba_marseille","lat":43.27202,"lon":5.39168,"is_reserved":false,"is_disabled":false,"rental_uris":{"android":"levelo://app?vid=b0914e03-5bd0-4e88-bc32-7f75abdc1c21","ios":"levelo://app?vid=b0914e03-5bd0-4e88-bc32-7f75abdc1c21"},"vehicle_type_id":"4","last_reported":1752836987,"current_range_meters":11600,"station_id":"ce4bhhp2rcd13ifvqfm0","pricing_plan_id":"cebpf4jnsgd1na2vs0mg"},{"bike_id":"e555b545-304c-4dce-8496-1643c0f2600e","system_id":"levelo_inurba_marseille","lat":43.337444,"lon":5.374475,"is_reserved":false,"is_disabled":false,"rental_uris":{"android":"levelo://app?vid=e555b545-304c-4dce-8496-1643c0f2600e","ios":"levelo://app?vid=e555b545-304c-4dce-8496-1643c0f2600e"},"vehicle_type_id":"4","last_reported":1752836987,"current_range_meters":11600,"station_id":"","pricing_plan_id":"cebpf4jnsgd1na2vs0mg"},{"bike_id":"6044e738-af33-45ba-ab50-15778ea70c46","system_id":"levelo_inurba_marseille","lat":43.29012,"lon":5.38126,"is_reserved":false,"is_disabled":true,"rental_uris":{"android":"levelo://app?vid=6044e738-af33-45ba-ab50-15778ea70c46","ios":"levelo://app?vid=6044e738-af33-45ba-ab50-15778ea70c46"},"vehicle_type_id":"4","last_reported":1752836987,"current_range_meters":11600,"station_id":"ce4bh4p2rcd13ifvqe1g","pricing_plan_id":"cebpf4jnsgd1na2vs0mg"},{"bike_id":"9c837b99-081f-4caa-a8a3-7d6dc61e9d18","system_id":"levelo_inurba_marseille","lat":43.230628,"lon":5.35495,"is_reserved":false,"is_disabled":false,"rental_uris":{"android":"levelo://app?vid=9c837b99-081f-4caa-a8a3-7d6dc61e9d18","ios":"levelo://app?vid=9c837b99-081f-4caa-a8a3-7d6dc61e9d18"},"vehicle_type_id":"4","last_reported":1752836987,"current_range_meters":12000,"station_id":"cpo3342slgdg3j2ifvpg","pricing_plan_id":"cebpf4jnsgd1na2vs0mg"},{"bike_id":"31695fe3-ba1a-451d-a7a2-e6e81aefdddc","system_id":"levelo_inurba_marseille","lat":43.28621,"lon":5.35091,"is_reserved":false,"is_disabled":false,"rental_uris":{"android":"levelo://app?vid=31695fe3-ba1a-451d-a7a2-e6e81aefdddc","ios":"levelo://app?vid=31695fe3-ba1a-451d-a7a2-e6e81aefdddc"},"vehicle_type_id":"4","last_reported":1752836987,"current_range_meters":12000,"station_id":"ce4bhch2rcd13ifvqeug","pricing_plan_id":"cebpf4jnsgd1na2vs0mg"},{"bike_id":"affeeb0d-bb55-450c-9fc9-1dd50eb966a9","system_id":"levelo_inurba_marseille","lat":43.230558,"lon":5.354872,"is_reserved":false,"is_disabled":false,"rental_uris":{"android":"levelo://app?vid=affeeb0d-bb55-450c-9fc9-1dd50eb966a9","ios":"levelo://app?vid=affeeb0d-bb55-450c-9fc9-1dd50eb966a9"},"vehicle_type_id":"4","last_reported":1752836987,"current_range_meters":12000,"station_id":"","pricing_plan_id":"cebpf4jnsgd1na2vs0mg"},{"bike_id":"531dca68-8617-41b0-a6cd-abffc94e1d45","system_id":"levelo_inurba_marseille","lat":43.31198,"lon":5.37322,"is_reserved":false,"is_disabled":false,"rental_uris":{"android":"levelo://app?vid=531dca68-8617-41b0-a6cd-abffc94e1d45","ios":"levelo://app?vid=531dca68-8617-41b0-a6cd-abffc94e1d45"},"vehicle_type_id":"4","last_reported":1752836987,"current_range_meters":12000,"station_id":"","pricing_plan_id":"cebpf4jnsgd1na2vs0mg"},{"bike_id":"1fc66535-82b8-4139-b3bd-0a8c51a963bf","system_id":"levelo_inurba_marseille","lat":43.29981,"lon":5.37182,"is_reserved":false,"is_disabled":false,"rental_uris":{"android":"levelo://app?vid=1fc66535-82b8-4139-b3bd-0a8c51a963bf","ios":"levelo://app?vid=1fc66535-82b8-4139-b3bd-0a8c51a963bf"},"vehicle_type_id":"4","last_reported":1752836987,"current_range_meters":11600,"station_id":"ce4bgr92rcd13ifvqc7g","pricing_plan_id":"cebpf4jnsgd1na2vs0mg"},{"bike_id":"86c5c1bc-4505-40a3-a082-08da2d20fa40","system_id":"levelo_inurba_marseille","lat":43.21189,"lon":5.35075,"is_reserved":false,"is_disabled":false,"rental_uris":{"android":"levelo://app?vid=86c5c1bc-4505-40a3-a082-08da2d20fa40","ios":"levelo://app?vid=86c5c1bc-4505-40a3-a082-08da2d20fa40"},"vehicle_type_id":"4","last_reported":1752836987,"current_range_meters":12400,"station_id":"st_cvj6sg6p6f1abm77japg","pricing_plan_id":"cebpf4jnsgd1na2vs0mg"},{"bike_id":"0d87ca24-976c-4967-995f-815e40a697aa","system_id":"levelo_inurba_marseille","lat":43.32077,"lon":5.36751,"is_reserved":false,"is_disabled":false,"rental_uris":{"android":"levelo://app?vid=0d87ca24-976c-4967-995f-815e40a697aa","ios":"levelo://app?vid=0d87ca24-976c-4967-995f-815e40a697aa"},"vehicle_type_id":"4","last_reported":1752836987,"current_range_meters":12400,"station_id":"ce4bhrh2rcd13ifvqhug","pricing_plan_id":"cebpf4jnsgd1na2vs0mg"},{"bike_id":"255f63b3-d391-461e-9168-7b692342f2c5","system_id":"levelo_inurba_marseille","lat":43.211931,"lon":5.35069,"is_reserved":false,"is_disabled":false,"rental_uris":{"android":"levelo://app?vid=255f63b3-d391-461e-9168-7b692342f2c5","ios":"levelo://app?vid=255f63b3-d391-461e-9168-7b692342f2c5"},"vehicle_type_id":"4","last_reported":1752836987,"current_range_meters":12400,"station_id":"st_cvj6sg6p6f1abm77japg","pricing_plan_id":"cebpf4jnsgd1na2vs0mg"},{"bike_id":"30aaa527-b5d8-48c8-ba50-453cf21ddd86","system_id":"levelo_inurba_marseille","lat":43.292969,"lon":5.374297,"is_reserved":false,"is_disabled":false,"rental_uris":{"android":"levelo://app?vid=30aaa527-b5d8-48c8-ba50-453cf21ddd86","ios":"levelo://app?vid=30aaa527-b5d8-48c8-ba50-453cf21ddd86"},"vehicle_type_id":"4","last_reported":1752836987,"current_range_meters":12400,"station_id":"","pricing_plan_id":"cebpf4jnsgd1na2vs0mg"},{"bike_id":"e54582ed-ba92-4640-a97f-9e97144ce87f","system_id":"levelo_inurba_marseille","lat":43.32251,"lon":5.40601,"is_reserved":false,"is_disabled":false,"rental_uris":{"android":"levelo://app?vid=e54582ed-ba92-4640-a97f-9e97144ce87f","ios":"levelo://app?vid=e54582ed-ba92-4640-a97f-9e97144ce87f"},"vehicle_type_id":"4","last_reported":1752836987,"current_range_meters":12400,"station_id":"","pricing_plan_id":"cebpf4jnsgd1na2vs0mg"},{"bike_id":"2272a1cb-30d4-47dd-bed5-39b01483f853","system_id":"levelo_inurba_marseille","lat":43.22941,"lon":5.35402,"is_reserved":false,"is_disabled":false,"rental_uris":{"android":"levelo://app?vid=2272a1cb-30d4-47dd-bed5-39b01483f853","ios":"levelo://app?vid=2272a1cb-30d4-47dd-bed5-39b01483f853"},"vehicle_type_id":"4","last_reported":1752836987,"current_range_meters":12400,"station_id":"cpo3532slgdg3j2ikp40","pricing_plan_id":"cebpf4jnsgd1na2vs0mg"},{"bike_id":"4ea8786e-aecf-487d-aa97-4ce26d949f34","system_id":"levelo_inurba_marseille","lat":43.26555,"lon":5.37282,"is_reserved":false,"is_disabled":false,"rental_uris":{"android":"levelo://app?vid=4ea8786e-aecf-487d-aa97-4ce26d949f34","ios":"levelo://app?vid=4ea8786e-aecf-487d-aa97-4ce26d949f34"},"vehicle_type_id":"4","last_reported":1752836987,"current_range_meters":12400,"station_id":"ce4bhg12rcd13ifvqf70","pricing_plan_id":"cebpf4jnsgd1na2vs0mg"},{"bike_id":"186b301d-f1e0-43d8-bd3b-805f80b510fa","system_id":"levelo_inurba_marseille","lat":43.33602,"lon":5.41038,"is_reserved":false,"is_disabled":false,"rental_uris":{"android":"levelo://app?vid=186b301d-f1e0-43d8-bd3b-805f80b510fa","ios":"levelo://app?vid=186b301d-f1e0-43d8-bd3b-805f80b510fa"},"vehicle_type_id":"4","last_reported":1752836987,"current_range_meters":12400,"station_id":"ce4bhqh2rcd13ifvqhmg","pricing_plan_id":"cebpf4jnsgd1na2vs0mg"},{"bike_id":"d67b3df3-dde7-43d0-b762-84cd0544bd52","system_id":"levelo_inurba_marseille","lat":43.31694,"lon":5.40482,"is_reserved":false,"is_disabled":false,"rental_uris":{"android":"levelo://app?vid=d67b3df3-dde7-43d0-b762-84cd0544bd52","ios":"levelo://app?vid=d67b3df3-dde7-43d0-b762-84cd0544bd52"},"vehicle_type_id":"4","last_reported":1752836987,"current_range_meters":12400,"station_id":"ce4bh012rcd13ifvqd00","pricing_plan_id":"cebpf4jnsgd1na2vs0mg"},{"bike_id":"084eace8-045f-4012-9455-c501cad7ce10","system_id":"levelo_inurba_marseille","lat":43.2294,"lon":5.35379,"is_reserved":false,"is_disabled":false,"rental_uris":{"android":"levelo://app?vid=084eace8-045f-4012-9455-c501cad7ce10","ios":"levelo://app?vid=084eace8-045f-4012-9455-c501cad7ce10"},"vehicle_type_id":"4","last_reported":1752836987,"current_range_meters":12800,"station_id":"cpo3532slgdg3j2ikp40","pricing_plan_id":"cebpf4jnsgd1na2vs0mg"},{"bike_id":"9b7a5c76-646b-47e4-9aaf-9e0ac1e776a5","system_id":"levelo_inurba_marseille","lat":43.269438,"lon":5.402506,"is_reserved":false,"is_disabled":false,"rental_uris":{"android":"levelo://app?vid=9b7a5c76-646b-47e4-9aaf-9e0ac1e776a5","ios":"levelo://app?vid=9b7a5c76-646b-47e4-9aaf-9e0ac1e776a5"},"vehicle_type_id":"4","last_reported":1752836987,"current_range_meters":12800,"station_id":"cjm6bp8fraef2m0cb0m0","pricing_plan_id":"cebpf4jnsgd1na2vs0mg"},{"bike_id":"2d4a0cb5-e2d8-46df-889a-50f472905964","system_id":"levelo_inurba_marseille","lat":43.32537,"lon":5.41424,"is_reserved":false,"is_disabled":false,"rental_uris":{"android":"levelo://app?vid=2d4a0cb5-e2d8-46df-889a-50f472905964","ios":"levelo://app?vid=2d4a0cb5-e2d8-46df-889a-50f472905964"},"vehicle_type_id":"4","last_reported":1752836987,"current_range_meters":12400,"station_id":"ce4bhq12rcd13ifvqhhg","pricing_plan_id":"cebpf4jnsgd1na2vs0mg"},{"bike_id":"c900348c-81f0-48bd-94e0-fc4377e23dbe","system_id":"levelo_inurba_marseille","lat":43.22936,"lon":5.35384,"is_reserved":false,"is_disabled":false,"rental_uris":{"android":"levelo://app?vid=c900348c-81f0-48bd-94e0-fc4377e23dbe","ios":"levelo://app?vid=c900348c-81f0-48bd-94e0-fc4377e23dbe"},"vehicle_type_id":"4","last_reported":1752836987,"current_range_meters":12800,"station_id":"cpo3532slgdg3j2ikp40","pricing_plan_id":"cebpf4jnsgd1na2vs0mg"},{"bike_id":"359be540-2c16-4034-b305-96c153e6bc05","system_id":"levelo_inurba_marseille","lat":43.31266,"lon":5.40169,"is_reserved":false,"is_disabled":false,"rental_uris":{"android":"levelo://app?vid=359be540-2c16-4034-b305-96c153e6bc05","ios":"levelo://app?vid=359be540-2c16-4034-b305-96c153e6bc05"},"vehicle_type_id":"4","last_reported":1752836987,"current_range_meters":12800,"station_id":"ce4bh092rcd13ifvqd30","pricing_plan_id":"cebpf4jnsgd1na2vs0mg"},{"bike_id":"8ca268e1-e34b-4003-8905-fb50cdd1f866","system_id":"levelo_inurba_marseille","lat":43.28844,"lon":5.39317,"is_reserved":false,"is_disabled":false,"rental_uris":{"android":"levelo://app?vid=8ca268e1-e34b-4003-8905-fb50cdd1f866","ios":"levelo://app?vid=8ca268e1-e34b-4003-8905-fb50cdd1f866"},"vehicle_type_id":"4","last_reported":1752836987,"current_range_meters":13600,"station_id":"ce4bh2p2rcd13ifvqdi0","pricing_plan_id":"cebpf4jnsgd1na2vs0mg"},{"bike_id":"d01966a7-5e23-40f7-8323-4d6534e79969","system_id":"levelo_inurba_marseille","lat":43.229368,"lon":5.353735,"is_reserved":false,"is_disabled":false,"rental_uris":{"android":"levelo://app?vid=d01966a7-5e23-40f7-8323-4d6534e79969","ios":"levelo://app?vid=d01966a7-5e23-40f7-8323-4d6534e79969"},"vehicle_type_id":"4","last_reported":1752836987,"current_range_meters":13600,"station_id":"cpo3532slgdg3j2ikp40","pricing_plan_id":"cebpf4jnsgd1na2vs0mg"},{"bike_id":"22407e8b-091a-49f2-9651-f25ef54abb52","system_id":"levelo_inurba_marseille","lat":43.23961,"lon":5.36627,"is_reserved":false,"is_disabled":false,"rental_uris":{"android":"levelo://app?vid=22407e8b-091a-49f2-9651-f25ef54abb52","ios":"levelo://app?vid=22407e8b-091a-49f2-9651-f25ef54abb52"},"vehicle_type_id":"4","last_reported":1752836987,"current_range_meters":13600,"station_id":"ce4bhi12rcd13ifvqfp0","pricing_plan_id":"cebpf4jnsgd1na2vs0mg"},{"bike_id":"28682a9d-1f72-4001-81b3-ec10d0784999","system_id":"levelo_inurba_marseille","lat":43.23178,"lon":5.43671,"is_reserved":false,"is_disabled":false,"rental_uris":{"android":"levelo://app?vid=28682a9d-1f72-4001-81b3-ec10d0784999","ios":"levelo://app?vid=28682a9d-1f72-4001-81b3-ec10d0784999"},"vehicle_type_id":"4","last_reported":1752836987,"current_range_meters":13600,"station_id":"ce4bhmp2rcd13ifvqgog","pricing_plan_id":"cebpf4jnsgd1na2vs0mg"},{"bike_id":"114dd786-9289-49c4-86c7-b0d8d89a363e","system_id":"levelo_inurba_marseille","lat":43.27941,"lon":5.4105,"is_reserved":false,"is_disabled":false,"rental_uris":{"android":"levelo://app?vid=114dd786-9289-49c4-86c7-b0d8d89a363e","ios":"levelo://app?vid=114dd786-9289-49c4-86c7-b0d8d89a363e"},"vehicle_type_id":"4","last_reported":1752836987,"current_range_meters":14000,"station_id":"ce4bhnp2rcd13ifvqh0g","pricing_plan_id":"cebpf4jnsgd1na2vs0mg"},{"bike_id":"00850813-191a-46dd-a145-1fc687f071e8","system_id":"levelo_inurba_marseille","lat":43.2593,"lon":5.40902,"is_reserved":false,"is_disabled":false,"rental_uris":{"android":"levelo://app?vid=00850813-191a-46dd-a145-1fc687f071e8","ios":"levelo://app?vid=00850813-191a-46dd-a145-1fc687f071e8"},"vehicle_type_id":"4","last_reported":1752836987,"current_range_meters":14000,"station_id":"ce4bhm92rcd13ifvqglg","pricing_plan_id":"cebpf4jnsgd1na2vs0mg"},{"bike_id":"3e3ea796-dba7-4b02-b380-ab58b77a4b41","system_id":"levelo_inurba_marseille","lat":43.32359,"lon":5.36765,"is_reserved":false,"is_disabled":false,"rental_uris":{"android":"levelo://app?vid=3e3ea796-dba7-4b02-b380-ab58b77a4b41","ios":"levelo://app?vid=3e3ea796-dba7-4b02-b380-ab58b77a4b41"},"vehicle_type_id":"4","last_reported":1752836987,"current_range_meters":14000,"station_id":"ce4bhsh2rcd13ifvqi2g","pricing_plan_id":"cebpf4jnsgd1na2vs0mg"},{"bike_id":"297914b4-f29d-4efa-a16f-6b7800ec2454","system_id":"levelo_inurba_marseille","lat":43.290185,"lon":5.371985,"is_reserved":false,"is_disabled":false,"rental_uris":{"android":"levelo://app?vid=297914b4-f29d-4efa-a16f-6b7800ec2454","ios":"levelo://app?vid=297914b4-f29d-4efa-a16f-6b7800ec2454"},"vehicle_type_id":"4","last_reported":1752836987,"current_range_meters":14000,"station_id":"","pricing_plan_id":"cebpf4jnsgd1na2vs0mg"},{"bike_id":"893e1ee4-ea69-4328-b82b-a6c61dd14825","system_id":"levelo_inurba_marseille","lat":43.30481,"lon":5.37911,"is_reserved":false,"is_disabled":false,"rental_uris":{"android":"levelo://app?vid=893e1ee4-ea69-4328-b82b-a6c61dd14825","ios":"levelo://app?vid=893e1ee4-ea69-4328-b82b-a6c61dd14825"},"vehicle_type_id":"4","last_reported":1752836987,"current_range_meters":14000,"station_id":"ce4bgup2rcd13ifvqcn0","pricing_plan_id":"cebpf4jnsgd1na2vs0mg"},{"bike_id":"c6db0f6a-96fe-4e1d-8ded-c2ef38c9bab4","system_id":"levelo_inurba_marseille","lat":43.304183,"lon":5.412838,"is_reserved":false,"is_disabled":true,"rental_uris":{"android":"levelo://app?vid=c6db0f6a-96fe-4e1d-8ded-c2ef38c9bab4","ios":"levelo://app?vid=c6db0f6a-96fe-4e1d-8ded-c2ef38c9bab4"},"vehicle_type_id":"4","last_reported":1752836987,"current_range_meters":14400,"station_id":"ce4bhop2rcd13ifvqh8g","pricing_plan_id":"cebpf4jnsgd1na2vs0mg"},{"bike_id":"a36c0f87-2744-4917-a5ac-d5670122abab","system_id":"levelo_inurba_marseille","lat":43.3014,"lon":5.37413,"is_reserved":false,"is_disabled":false,"rental_uris":{"android":"levelo://app?vid=a36c0f87-2744-4917-a5ac-d5670122abab","ios":"levelo://app?vid=a36c0f87-2744-4917-a5ac-d5670122abab"},"vehicle_type_id":"4","last_reported":1752836987,"current_range_meters":14400,"station_id":"ce4bgs92rcd13ifvqcc0","pricing_plan_id":"cebpf4jnsgd1na2vs0mg"},{"bike_id":"e27ef197-3041-4d5f-b28d-a96429186281","system_id":"levelo_inurba_marseille","lat":43.29004,"lon":5.35605,"is_reserved":false,"is_disabled":false,"rental_uris":{"android":"levelo://app?vid=e27ef197-3041-4d5f-b28d-a96429186281","ios":"levelo://app?vid=e27ef197-3041-4d5f-b28d-a96429186281"},"vehicle_type_id":"4","last_reported":1752836987,"current_range_meters":14400,"station_id":"ce4bhb92rcd13ifvqen0","pricing_plan_id":"cebpf4jnsgd1na2vs0mg"},{"bike_id":"0fcf68e1-4166-44e7-993c-0dba12e07b87","system_id":"levelo_inurba_marseille","lat":43.271854,"lon":5.362776,"is_reserved":false,"is_disabled":false,"rental_uris":{"android":"levelo://app?vid=0fcf68e1-4166-44e7-993c-0dba12e07b87","ios":"levelo://app?vid=0fcf68e1-4166-44e7-993c-0dba12e07b87"},"vehicle_type_id":"4","last_reported":1752836987,"current_range_meters":14400,"station_id":"","pricing_plan_id":"cebpf4jnsgd1na2vs0mg"},{"bike_id":"be60c88c-1453-4626-be80-200258f79626","system_id":"levelo_inurba_marseille","lat":43.231905,"lon":5.355488,"is_reserved":false,"is_disabled":false,"rental_uris":{"android":"levelo://app?vid=be60c88c-1453-4626-be80-200258f79626","ios":"levelo://app?vid=be60c88c-1453-4626-be80-200258f79626"},"vehicle_type_id":"4","last_reported":1752836987,"current_range_meters":14400,"station_id":"ce4bhu92rcd13ifvqi70","pricing_plan_id":"cebpf4jnsgd1na2vs0mg"},{"bike_id":"ce7bd25b-5213-4881-a28b-f582e6a1d712","system_id":"levelo_inurba_marseille","lat":43.31419,"lon":5.36708,"is_reserved":false,"is_disabled":true,"rental_uris":{"android":"levelo://app?vid=ce7bd25b-5213-4881-a28b-f582e6a1d712","ios":"levelo://app?vid=ce7bd25b-5213-4881-a28b-f582e6a1d712"},"vehicle_type_id":"4","last_reported":1752836987,"current_range_meters":14400,"station_id":"ce4bgr92rcd13ifvqc6g","pricing_plan_id":"cebpf4jnsgd1na2vs0mg"},{"bike_id":"00ecada3-8577-4c51-98e2-f760bc2bb718","system_id":"levelo_inurba_marseille","lat":43.29422,"lon":5.43255,"is_reserved":false,"is_disabled":false,"rental_uris":{"android":"levelo://app?vid=00ecada3-8577-4c51-98e2-f760bc2bb718","ios":"levelo://app?vid=00ecada3-8577-4c51-98e2-f760bc2bb718"},"vehicle_type_id":"4","last_reported":1752836987,"current_range_meters":14400,"station_id":"","pricing_plan_id":"cebpf4jnsgd1na2vs0mg"},{"bike_id":"5dda7472-9949-46fe-b9fa-ab272459a5d6","system_id":"levelo_inurba_marseille","lat":43.323562,"lon":5.367543,"is_reserved":false,"is_disabled":false,"rental_uris":{"android":"levelo://app?vid=5dda7472-9949-46fe-b9fa-ab272459a5d6","ios":"levelo://app?vid=5dda7472-9949-46fe-b9fa-ab272459a5d6"},"vehicle_type_id":"4","last_reported":1752836987,"current_range_meters":14400,"station_id":"ce4bhsh2rcd13ifvqi2g","pricing_plan_id":"cebpf4jnsgd1na2vs0mg"},{"bike_id":"2ed1350f-0b6e-4182-a8b4-561741333858","system_id":"levelo_inurba_marseille","lat":43.279405,"lon":5.410384,"is_reserved":false,"is_disabled":false,"rental_uris":{"android":"levelo://app?vid=2ed1350f-0b6e-4182-a8b4-561741333858","ios":"levelo://app?vid=2ed1350f-0b6e-4182-a8b4-561741333858"},"vehicle_type_id":"4","last_reported":1752836987,"current_range_meters":14800,"station_id":"ce4bhnp2rcd13ifvqh0g","pricing_plan_id":"cebpf4jnsgd1na2vs0mg"},{"bike_id":"c0ebd5f9-7808-4028-a65d-fbc29d6f73db","system_id":"levelo_inurba_marseille","lat":43.29886,"lon":5.43661,"is_reserved":false,"is_disabled":false,"rental_uris":{"android":"levelo://app?vid=c0ebd5f9-7808-4028-a65d-fbc29d6f73db","ios":"levelo://app?vid=c0ebd5f9-7808-4028-a65d-fbc29d6f73db"},"vehicle_type_id":"4","last_reported":1752836987,"current_range_meters":14800,"station_id":"ce4bhpp2rcd13ifvqhfg","pricing_plan_id":"cebpf4jnsgd1na2vs0mg"},{"bike_id":"38ca60aa-6c2f-4b2a-acd2-4aaa95e6ce30","system_id":"levelo_inurba_marseille","lat":43.25579,"lon":5.38228,"is_reserved":false,"is_disabled":false,"rental_uris":{"android":"levelo://app?vid=38ca60aa-6c2f-4b2a-acd2-4aaa95e6ce30","ios":"levelo://app?vid=38ca60aa-6c2f-4b2a-acd2-4aaa95e6ce30"},"vehicle_type_id":"4","last_reported":1752836987,"current_range_meters":14800,"station_id":"ce4bhih2rcd13ifvqfs0","pricing_plan_id":"cebpf4jnsgd1na2vs0mg"},{"bike_id":"c0dc5a84-7092-4e59-b959-dd9405720a34","system_id":"levelo_inurba_marseille","lat":43.28016,"lon":5.36904,"is_reserved":false,"is_disabled":false,"rental_uris":{"android":"levelo://app?vid=c0dc5a84-7092-4e59-b959-dd9405720a34","ios":"levelo://app?vid=c0dc5a84-7092-4e59-b959-dd9405720a34"},"vehicle_type_id":"4","last_reported":1752836987,"current_range_meters":14800,"station_id":"ce4bha12rcd13ifvqef0","pricing_plan_id":"cebpf4jnsgd1na2vs0mg"},{"bike_id":"fd776c39-9ca3-48c2-8fc5-ed7a4e7cd1e5","system_id":"levelo_inurba_marseille","lat":43.27986,"lon":5.4004,"is_reserved":false,"is_disabled":false,"rental_uris":{"android":"levelo://app?vid=fd776c39-9ca3-48c2-8fc5-ed7a4e7cd1e5","ios":"levelo://app?vid=fd776c39-9ca3-48c2-8fc5-ed7a4e7cd1e5"},"vehicle_type_id":"4","last_reported":1752836987,"current_range_meters":14800,"station_id":"ce4bho92rcd13ifvqh4g","pricing_plan_id":"cebpf4jnsgd1na2vs0mg"},{"bike_id":"9e46aa88-7b19-47c3-b789-71b8902b53cb","system_id":"levelo_inurba_marseille","lat":43.281535,"lon":5.426349,"is_reserved":false,"is_disabled":false,"rental_uris":{"android":"levelo://app?vid=9e46aa88-7b19-47c3-b789-71b8902b53cb","ios":"levelo://app?vid=9e46aa88-7b19-47c3-b789-71b8902b53cb"},"vehicle_type_id":"4","last_reported":1752836987,"current_range_meters":14800,"station_id":"ce4bhnh2rcd13ifvqgug","pricing_plan_id":"cebpf4jnsgd1na2vs0mg"},{"bike_id":"5ac93e7c-286a-4c1e-b6c0-4e9963e5a9f8","system_id":"levelo_inurba_marseille","lat":43.21201,"lon":5.350792,"is_reserved":false,"is_disabled":false,"rental_uris":{"android":"levelo://app?vid=5ac93e7c-286a-4c1e-b6c0-4e9963e5a9f8","ios":"levelo://app?vid=5ac93e7c-286a-4c1e-b6c0-4e9963e5a9f8"},"vehicle_type_id":"4","last_reported":1752836987,"current_range_meters":14800,"station_id":"st_cvj6sg6p6f1abm77japg","pricing_plan_id":"cebpf4jnsgd1na2vs0mg"},{"bike_id":"42678463-d922-490b-86c7-a3a84944a69d","system_id":"levelo_inurba_marseille","lat":43.2319,"lon":5.35546,"is_reserved":false,"is_disabled":false,"rental_uris":{"android":"levelo://app?vid=42678463-d922-490b-86c7-a3a84944a69d","ios":"levelo://app?vid=42678463-d922-490b-86c7-a3a84944a69d"},"vehicle_type_id":"4","last_reported":1752836987,"current_range_meters":15200,"station_id":"ce4bhu92rcd13ifvqi70","pricing_plan_id":"cebpf4jnsgd1na2vs0mg"},{"bike_id":"5399c284-1789-461f-a475-29701ff32f4f","system_id":"levelo_inurba_marseille","lat":43.30334,"lon":5.40431,"is_reserved":false,"is_disabled":false,"rental_uris":{"android":"levelo://app?vid=5399c284-1789-461f-a475-29701ff32f4f","ios":"levelo://app?vid=5399c284-1789-461f-a475-29701ff32f4f"},"vehicle_type_id":"4","last_reported":1752836987,"current_range_meters":15200,"station_id":"ce4bh012rcd13ifvqd10","pricing_plan_id":"cebpf4jnsgd1na2vs0mg"},{"bike_id":"2d95b47d-d06f-40a4-bb6e-c13e954e3c8f","system_id":"levelo_inurba_marseille","lat":43.277245,"lon":5.414106,"is_reserved":false,"is_disabled":false,"rental_uris":{"android":"levelo://app?vid=2d95b47d-d06f-40a4-bb6e-c13e954e3c8f","ios":"levelo://app?vid=2d95b47d-d06f-40a4-bb6e-c13e954e3c8f"},"vehicle_type_id":"4","last_reported":1752836987,"current_range_meters":15200,"station_id":"","pricing_plan_id":"cebpf4jnsgd1na2vs0mg"},{"bike_id":"d3a390b1-933a-492a-aa53-06557ea51505","system_id":"levelo_inurba_marseille","lat":43.282684,"lon":5.350583,"is_reserved":false,"is_disabled":false,"rental_uris":{"android":"levelo://app?vid=d3a390b1-933a-492a-aa53-06557ea51505","ios":"levelo://app?vid=d3a390b1-933a-492a-aa53-06557ea51505"},"vehicle_type_id":"4","last_reported":1752836987,"current_range_meters":16000,"station_id":"ce4bhbp2rcd13ifvqerg","pricing_plan_id":"cebpf4jnsgd1na2vs0mg"},{"bike_id":"9a26dafa-4117-425c-8e32-1cf0f6fb0ac8","system_id":"levelo_inurba_marseille","lat":43.29297,"lon":5.37443,"is_reserved":false,"is_disabled":false,"rental_uris":{"android":"levelo://app?vid=9a26dafa-4117-425c-8e32-1cf0f6fb0ac8","ios":"levelo://app?vid=9a26dafa-4117-425c-8e32-1cf0f6fb0ac8"},"vehicle_type_id":"4","last_reported":1752836987,"current_range_meters":16000,"station_id":"ce4bgi12rcd13ifvqb70","pricing_plan_id":"cebpf4jnsgd1na2vs0mg"},{"bike_id":"813d462b-299f-414a-90aa-fd8052557ec3","system_id":"levelo_inurba_marseille","lat":43.31529,"lon":5.37242,"is_reserved":false,"is_disabled":false,"rental_uris":{"android":"levelo://app?vid=813d462b-299f-414a-90aa-fd8052557ec3","ios":"levelo://app?vid=813d462b-299f-414a-90aa-fd8052557ec3"},"vehicle_type_id":"4","last_reported":1752836987,"current_range_meters":16000,"station_id":"ce4bgt12rcd13ifvqcd0","pricing_plan_id":"cebpf4jnsgd1na2vs0mg"},{"bike_id":"b05bc36e-caa6-40ba-9315-9f202e680332","system_id":"levelo_inurba_marseille","lat":43.2937,"lon":5.378388,"is_reserved":false,"is_disabled":false,"rental_uris":{"android":"levelo://app?vid=b05bc36e-caa6-40ba-9315-9f202e680332","ios":"levelo://app?vid=b05bc36e-caa6-40ba-9315-9f202e680332"},"vehicle_type_id":"4","last_reported":1752836987,"current_range_meters":16000,"station_id":"ce4bgjh2rcd13ifvqbf0","pricing_plan_id":"cebpf4jnsgd1na2vs0mg"},{"bike_id":"e05959a5-6520-4092-8d43-8738bfb74616","system_id":"levelo_inurba_marseille","lat":43.29868,"lon":5.39743,"is_reserved":false,"is_disabled":false,"rental_uris":{"android":"levelo://app?vid=e05959a5-6520-4092-8d43-8738bfb74616","ios":"levelo://app?vid=e05959a5-6520-4092-8d43-8738bfb74616"},"vehicle_type_id":"4","last_reported":1752836987,"current_range_meters":16000,"station_id":"ce4bh0h2rcd13ifvqd50","pricing_plan_id":"cebpf4jnsgd1na2vs0mg"},{"bike_id":"f310b61a-0922-4b58-99ec-3c007edcb4df","system_id":"levelo_inurba_marseille","lat":43.27927,"lon":5.3958,"is_reserved":false,"is_disabled":false,"rental_uris":{"android":"levelo://app?vid=f310b61a-0922-4b58-99ec-3c007edcb4df","ios":"levelo://app?vid=f310b61a-0922-4b58-99ec-3c007edcb4df"},"vehicle_type_id":"4","last_reported":1752836987,"current_range_meters":16000,"station_id":"ce4bhf92rcd13ifvqf40","pricing_plan_id":"cebpf4jnsgd1na2vs0mg"},{"bike_id":"6cd13d7f-1155-433a-bba2-9bb2be544c72","system_id":"levelo_inurba_marseille","lat":43.27069,"lon":5.422777,"is_reserved":false,"is_disabled":false,"rental_uris":{"android":"levelo://app?vid=6cd13d7f-1155-433a-bba2-9bb2be544c72","ios":"levelo://app?vid=6cd13d7f-1155-433a-bba2-9bb2be544c72"},"vehicle_type_id":"4","last_reported":1752836987,"current_range_meters":16000,"station_id":"ce4bhk92rcd13ifvqgb0","pricing_plan_id":"cebpf4jnsgd1na2vs0mg"},{"bike_id":"eef93a3e-050a-4594-bd86-e7830dc7a0d1","system_id":"levelo_inurba_marseille","lat":43.295823,"lon":5.37499,"is_reserved":false,"is_disabled":false,"rental_uris":{"android":"levelo://app?vid=eef93a3e-050a-4594-bd86-e7830dc7a0d1","ios":"levelo://app?vid=eef93a3e-050a-4594-bd86-e7830dc7a0d1"},"vehicle_type_id":"4","last_reported":1752836987,"current_range_meters":16000,"station_id":"ce4bgh92rcd13ifvqb50","pricing_plan_id":"cebpf4jnsgd1na2vs0mg"},{"bike_id":"ab40eab5-f236-4422-a5a5-b90da08304bc","system_id":"levelo_inurba_marseille","lat":43.30707,"lon":5.37195,"is_reserved":false,"is_disabled":false,"rental_uris":{"android":"levelo://app?vid=ab40eab5-f236-4422-a5a5-b90da08304bc","ios":"levelo://app?vid=ab40eab5-f236-4422-a5a5-b90da08304bc"},"vehicle_type_id":"4","last_reported":1752836987,"current_range_meters":16000,"station_id":"","pricing_plan_id":"cebpf4jnsgd1na2vs0mg"},{"bike_id":"cfb52d04-9134-4c86-8269-771716b20f27","system_id":"levelo_inurba_marseille","lat":43.21189,"lon":5.35072,"is_reserved":false,"is_disabled":false,"rental_uris":{"android":"levelo://app?vid=cfb52d04-9134-4c86-8269-771716b20f27","ios":"levelo://app?vid=cfb52d04-9134-4c86-8269-771716b20f27"},"vehicle_type_id":"4","last_reported":1752836987,"current_range_meters":16000,"station_id":"st_cvj6sg6p6f1abm77japg","pricing_plan_id":"cebpf4jnsgd1na2vs0mg"},{"bike_id":"73e8d711-f620-4210-8119-0210d3afb641","system_id":"levelo_inurba_marseille","lat":43.28389,"lon":5.34981,"is_reserved":false,"is_disabled":false,"rental_uris":{"android":"levelo://app?vid=73e8d711-f620-4210-8119-0210d3afb641","ios":"levelo://app?vid=73e8d711-f620-4210-8119-0210d3afb641"},"vehicle_type_id":"4","last_reported":1752836987,"current_range_meters":16000,"station_id":"ce4bhbh2rcd13ifvqepg","pricing_plan_id":"cebpf4jnsgd1na2vs0mg"},{"bike_id":"0af664f4-b43b-4940-89ad-b9a34bdf3270","system_id":"levelo_inurba_marseille","lat":43.32344,"lon":5.40619,"is_reserved":false,"is_disabled":false,"rental_uris":{"android":"levelo://app?vid=0af664f4-b43b-4940-89ad-b9a34bdf3270","ios":"levelo://app?vid=0af664f4-b43b-4940-89ad-b9a34bdf3270"},"vehicle_type_id":"4","last_reported":1752836987,"current_range_meters":16400,"station_id":"ce4bguh2rcd13ifvqcj0","pricing_plan_id":"cebpf4jnsgd1na2vs0mg"},{"bike_id":"6fd66afa-6637-4712-aa56-c95b48a08353","system_id":"levelo_inurba_marseille","lat":43.23144,"lon":5.43711,"is_reserved":false,"is_disabled":false,"rental_uris":{"android":"levelo://app?vid=6fd66afa-6637-4712-aa56-c95b48a08353","ios":"levelo://app?vid=6fd66afa-6637-4712-aa56-c95b48a08353"},"vehicle_type_id":"4","last_reported":1752836987,"current_range_meters":16400,"station_id":"ce4bhmp2rcd13ifvqgog","pricing_plan_id":"cebpf4jnsgd1na2vs0mg"},{"bike_id":"ac0ed4be-466c-4caa-b855-3c6bbe5a11b5","system_id":"levelo_inurba_marseille","lat":43.26753,"lon":5.37182,"is_reserved":false,"is_disabled":false,"rental_uris":{"android":"levelo://app?vid=ac0ed4be-466c-4caa-b855-3c6bbe5a11b5","ios":"levelo://app?vid=ac0ed4be-466c-4caa-b855-3c6bbe5a11b5"},"vehicle_type_id":"4","last_reported":1752836987,"current_range_meters":16400,"station_id":"","pricing_plan_id":"cebpf4jnsgd1na2vs0mg"},{"bike_id":"069e2087-a51d-416a-b9f7-0ef6a30f8082","system_id":"levelo_inurba_marseille","lat":43.21191,"lon":5.35069,"is_reserved":false,"is_disabled":false,"rental_uris":{"android":"levelo://app?vid=069e2087-a51d-416a-b9f7-0ef6a30f8082","ios":"levelo://app?vid=069e2087-a51d-416a-b9f7-0ef6a30f8082"},"vehicle_type_id":"4","last_reported":1752836987,"current_range_meters":16400,"station_id":"st_cvj6sg6p6f1abm77japg","pricing_plan_id":"cebpf4jnsgd1na2vs0mg"},{"bike_id":"a67156ae-789e-45f5-ab3f-ed7d95b24540","system_id":"levelo_inurba_marseille","lat":43.211915,"lon":5.350764,"is_reserved":false,"is_disabled":false,"rental_uris":{"android":"levelo://app?vid=a67156ae-789e-45f5-ab3f-ed7d95b24540","ios":"levelo://app?vid=a67156ae-789e-45f5-ab3f-ed7d95b24540"},"vehicle_type_id":"4","last_reported":1752836987,"current_range_meters":16400,"station_id":"st_cvj6sg6p6f1abm77japg","pricing_plan_id":"cebpf4jnsgd1na2vs0mg"},{"bike_id":"edd0079d-996b-4ae3-9a31-d781f3a059ec","system_id":"levelo_inurba_marseille","lat":43.33786,"lon":5.37426,"is_reserved":false,"is_disabled":false,"rental_uris":{"android":"levelo://app?vid=edd0079d-996b-4ae3-9a31-d781f3a059ec","ios":"levelo://app?vid=edd0079d-996b-4ae3-9a31-d781f3a059ec"},"vehicle_type_id":"4","last_reported":1752836987,"current_range_meters":16400,"station_id":"","pricing_plan_id":"cebpf4jnsgd1na2vs0mg"},{"bike_id":"b7fe52dd-f025-4212-9e78-19e7f6f09593","system_id":"levelo_inurba_marseille","lat":43.211929,"lon":5.350732,"is_reserved":false,"is_disabled":false,"rental_uris":{"android":"levelo://app?vid=b7fe52dd-f025-4212-9e78-19e7f6f09593","ios":"levelo://app?vid=b7fe52dd-f025-4212-9e78-19e7f6f09593"},"vehicle_type_id":"4","last_reported":1752836987,"current_range_meters":16400,"station_id":"st_cvj6sg6p6f1abm77japg","pricing_plan_id":"cebpf4jnsgd1na2vs0mg"},{"bike_id":"693b8660-0511-46ba-8318-615f958e8501","system_id":"levelo_inurba_marseille","lat":43.30301,"lon":5.392,"is_reserved":false,"is_disabled":false,"rental_uris":{"android":"levelo://app?vid=693b8660-0511-46ba-8318-615f958e8501","ios":"levelo://app?vid=693b8660-0511-46ba-8318-615f958e8501"},"vehicle_type_id":"4","last_reported":1752836987,"current_range_meters":16800,"station_id":"ce4bgkh2rcd13ifvqbk0","pricing_plan_id":"cebpf4jnsgd1na2vs0mg"},{"bike_id":"92409ae6-2f82-4eac-ab73-93e600233f58","system_id":"levelo_inurba_marseille","lat":43.29299,"lon":5.37427,"is_reserved":false,"is_disabled":false,"rental_uris":{"android":"levelo://app?vid=92409ae6-2f82-4eac-ab73-93e600233f58","ios":"levelo://app?vid=92409ae6-2f82-4eac-ab73-93e600233f58"},"vehicle_type_id":"4","last_reported":1752836987,"current_range_meters":16800,"station_id":"ce4bgi12rcd13ifvqb70","pricing_plan_id":"cebpf4jnsgd1na2vs0mg"},{"bike_id":"6f2b188d-268c-4dbe-b8a1-874e327f8d67","system_id":"levelo_inurba_marseille","lat":43.29941,"lon":5.36553,"is_reserved":false,"is_disabled":false,"rental_uris":{"android":"levelo://app?vid=6f2b188d-268c-4dbe-b8a1-874e327f8d67","ios":"levelo://app?vid=6f2b188d-268c-4dbe-b8a1-874e327f8d67"},"vehicle_type_id":"4","last_reported":1752836987,"current_range_meters":16800,"station_id":"ce4bgm92rcd13ifvqbr0","pricing_plan_id":"cebpf4jnsgd1na2vs0mg"},{"bike_id":"8ce9b80c-19c6-4985-81c6-50f285c26740","system_id":"levelo_inurba_marseille","lat":43.23957,"lon":5.36641,"is_reserved":false,"is_disabled":false,"rental_uris":{"android":"levelo://app?vid=8ce9b80c-19c6-4985-81c6-50f285c26740","ios":"levelo://app?vid=8ce9b80c-19c6-4985-81c6-50f285c26740"},"vehicle_type_id":"4","last_reported":1752836987,"current_range_meters":16800,"station_id":"ce4bhi12rcd13ifvqfp0","pricing_plan_id":"cebpf4jnsgd1na2vs0mg"},{"bike_id":"73371026-46a3-49ca-b5b5-2d6b90c8827c","system_id":"levelo_inurba_marseille","lat":43.2994,"lon":5.36538,"is_reserved":false,"is_disabled":false,"rental_uris":{"android":"levelo://app?vid=73371026-46a3-49ca-b5b5-2d6b90c8827c","ios":"levelo://app?vid=73371026-46a3-49ca-b5b5-2d6b90c8827c"},"vehicle_type_id":"4","last_reported":1752836987,"current_range_meters":16800,"station_id":"ce4bgm92rcd13ifvqbr0","pricing_plan_id":"cebpf4jnsgd1na2vs0mg"},{"bike_id":"6cbb701b-f96a-4518-ab40-79b25cbd7037","system_id":"levelo_inurba_marseille","lat":43.29308,"lon":5.37458,"is_reserved":false,"is_disabled":false,"rental_uris":{"android":"levelo://app?vid=6cbb701b-f96a-4518-ab40-79b25cbd7037","ios":"levelo://app?vid=6cbb701b-f96a-4518-ab40-79b25cbd7037"},"vehicle_type_id":"4","last_reported":1752836987,"current_range_meters":16800,"station_id":"ce4bgi12rcd13ifvqb70","pricing_plan_id":"cebpf4jnsgd1na2vs0mg"},{"bike_id":"6d8670a9-4672-480a-9360-dae47754bdf4","system_id":"levelo_inurba_marseille","lat":43.278098,"lon":5.407111,"is_reserved":false,"is_disabled":false,"rental_uris":{"android":"levelo://app?vid=6d8670a9-4672-480a-9360-dae47754bdf4","ios":"levelo://app?vid=6d8670a9-4672-480a-9360-dae47754bdf4"},"vehicle_type_id":"4","last_reported":1752836987,"current_range_meters":16800,"station_id":"ce4bhnh2rcd13ifvqgtg","pricing_plan_id":"cebpf4jnsgd1na2vs0mg"},{"bike_id":"ba9f3e38-527b-4abb-aed1-dabb2d5ce59f","system_id":"levelo_inurba_marseille","lat":43.2692,"lon":5.40264,"is_reserved":false,"is_disabled":false,"rental_uris":{"android":"levelo://app?vid=ba9f3e38-527b-4abb-aed1-dabb2d5ce59f","ios":"levelo://app?vid=ba9f3e38-527b-4abb-aed1-dabb2d5ce59f"},"vehicle_type_id":"4","last_reported":1752836987,"current_range_meters":16800,"station_id":"cjm6bp8fraef2m0cb0m0","pricing_plan_id":"cebpf4jnsgd1na2vs0mg"},{"bike_id":"605ed834-819b-43a6-99ff-85dfd5dbb3cb","system_id":"levelo_inurba_marseille","lat":43.30533,"lon":5.36739,"is_reserved":false,"is_disabled":true,"rental_uris":{"android":"levelo://app?vid=605ed834-819b-43a6-99ff-85dfd5dbb3cb","ios":"levelo://app?vid=605ed834-819b-43a6-99ff-85dfd5dbb3cb"},"vehicle_type_id":"4","last_reported":1752836987,"current_range_meters":17600,"station_id":"ce4bgrp2rcd13ifvqc9g","pricing_plan_id":"cebpf4jnsgd1na2vs0mg"},{"bike_id":"500542d6-86a5-41ea-ad3b-7ed3dfd2aada","system_id":"levelo_inurba_marseille","lat":43.30378,"lon":5.42494,"is_reserved":false,"is_disabled":false,"rental_uris":{"android":"levelo://app?vid=500542d6-86a5-41ea-ad3b-7ed3dfd2aada","ios":"levelo://app?vid=500542d6-86a5-41ea-ad3b-7ed3dfd2aada"},"vehicle_type_id":"4","last_reported":1752836987,"current_range_meters":17600,"station_id":"ce4bhoh2rcd13ifvqh6g","pricing_plan_id":"cebpf4jnsgd1na2vs0mg"},{"bike_id":"978ef16f-2db4-4544-b66f-199c1f3b9d02","system_id":"levelo_inurba_marseille","lat":43.23145,"lon":5.43703,"is_reserved":false,"is_disabled":false,"rental_uris":{"android":"levelo://app?vid=978ef16f-2db4-4544-b66f-199c1f3b9d02","ios":"levelo://app?vid=978ef16f-2db4-4544-b66f-199c1f3b9d02"},"vehicle_type_id":"4","last_reported":1752836987,"current_range_meters":17600,"station_id":"ce4bhmp2rcd13ifvqgog","pricing_plan_id":"cebpf4jnsgd1na2vs0mg"},{"bike_id":"dbd1b317-e471-47a8-940e-d611efc62102","system_id":"levelo_inurba_marseille","lat":43.28616,"lon":5.351,"is_reserved":false,"is_disabled":false,"rental_uris":{"android":"levelo://app?vid=dbd1b317-e471-47a8-940e-d611efc62102","ios":"levelo://app?vid=dbd1b317-e471-47a8-940e-d611efc62102"},"vehicle_type_id":"4","last_reported":1752836987,"current_range_meters":17600,"station_id":"ce4bhch2rcd13ifvqeug","pricing_plan_id":"cebpf4jnsgd1na2vs0mg"},{"bike_id":"5ed7e33c-75eb-4f80-9ced-f5eee5190af4","system_id":"levelo_inurba_marseille","lat":43.29563,"lon":5.42337,"is_reserved":false,"is_disabled":false,"rental_uris":{"android":"levelo://app?vid=5ed7e33c-75eb-4f80-9ced-f5eee5190af4","ios":"levelo://app?vid=5ed7e33c-75eb-4f80-9ced-f5eee5190af4"},"vehicle_type_id":"4","last_reported":1752836987,"current_range_meters":18000,"station_id":"ce4bhph2rcd13ifvqhdg","pricing_plan_id":"cebpf4jnsgd1na2vs0mg"},{"bike_id":"afc91c81-7042-4270-a28e-07e325ae83c9","system_id":"levelo_inurba_marseille","lat":43.21193,"lon":5.35091,"is_reserved":false,"is_disabled":false,"rental_uris":{"android":"levelo://app?vid=afc91c81-7042-4270-a28e-07e325ae83c9","ios":"levelo://app?vid=afc91c81-7042-4270-a28e-07e325ae83c9"},"vehicle_type_id":"4","last_reported":1752836987,"current_range_meters":18000,"station_id":"st_cvj6sg6p6f1abm77japg","pricing_plan_id":"cebpf4jnsgd1na2vs0mg"},{"bike_id":"f6615826-0148-4509-8ae4-7a80f787f81b","system_id":"levelo_inurba_marseille","lat":43.303,"lon":5.39211,"is_reserved":false,"is_disabled":false,"rental_uris":{"android":"levelo://app?vid=f6615826-0148-4509-8ae4-7a80f787f81b","ios":"levelo://app?vid=f6615826-0148-4509-8ae4-7a80f787f81b"},"vehicle_type_id":"4","last_reported":1752836987,"current_range_meters":18000,"station_id":"ce4bgkh2rcd13ifvqbk0","pricing_plan_id":"cebpf4jnsgd1na2vs0mg"},{"bike_id":"d15a6b9a-68d5-45b5-b094-b1dbdfda1025","system_id":"levelo_inurba_marseille","lat":43.28421,"lon":5.34998,"is_reserved":false,"is_disabled":false,"rental_uris":{"android":"levelo://app?vid=d15a6b9a-68d5-45b5-b094-b1dbdfda1025","ios":"levelo://app?vid=d15a6b9a-68d5-45b5-b094-b1dbdfda1025"},"vehicle_type_id":"4","last_reported":1752836987,"current_range_meters":18000,"station_id":"ce4bhbh2rcd13ifvqepg","pricing_plan_id":"cebpf4jnsgd1na2vs0mg"},{"bike_id":"7726519b-1db2-40f8-9912-871f829407fb","system_id":"levelo_inurba_marseille","lat":43.24659,"lon":5.38163,"is_reserved":false,"is_disabled":false,"rental_uris":{"android":"levelo://app?vid=7726519b-1db2-40f8-9912-871f829407fb","ios":"levelo://app?vid=7726519b-1db2-40f8-9912-871f829407fb"},"vehicle_type_id":"4","last_reported":1752836987,"current_range_meters":18000,"station_id":"ce4bhih2rcd13ifvqfr0","pricing_plan_id":"cebpf4jnsgd1na2vs0mg"},{"bike_id":"a6ab667b-0c87-4f54-aed0-139fbc72deb3","system_id":"levelo_inurba_marseille","lat":43.26568,"lon":5.39009,"is_reserved":false,"is_disabled":false,"rental_uris":{"android":"levelo://app?vid=a6ab667b-0c87-4f54-aed0-139fbc72deb3","ios":"levelo://app?vid=a6ab667b-0c87-4f54-aed0-139fbc72deb3"},"vehicle_type_id":"4","last_reported":1752836987,"current_range_meters":18000,"station_id":"ce4bhe12rcd13ifvqf30","pricing_plan_id":"cebpf4jnsgd1na2vs0mg"},{"bike_id":"890d246d-76b2-4d4d-ae74-440de9f76e75","system_id":"levelo_inurba_marseille","lat":43.28611,"lon":5.35105,"is_reserved":false,"is_disabled":false,"rental_uris":{"android":"levelo://app?vid=890d246d-76b2-4d4d-ae74-440de9f76e75","ios":"levelo://app?vid=890d246d-76b2-4d4d-ae74-440de9f76e75"},"vehicle_type_id":"4","last_reported":1752836987,"current_range_meters":18000,"station_id":"ce4bhch2rcd13ifvqeug","pricing_plan_id":"cebpf4jnsgd1na2vs0mg"},{"bike_id":"5016f77e-53a9-4155-a2d9-8f4505a7613a","system_id":"levelo_inurba_marseille","lat":43.25732,"lon":5.41101,"is_reserved":false,"is_disabled":false,"rental_uris":{"android":"levelo://app?vid=5016f77e-53a9-4155-a2d9-8f4505a7613a","ios":"levelo://app?vid=5016f77e-53a9-4155-a2d9-8f4505a7613a"},"vehicle_type_id":"4","last_reported":1752836987,"current_range_meters":18000,"station_id":"ce4bhkp2rcd13ifvqgd0","pricing_plan_id":"cebpf4jnsgd1na2vs0mg"},{"bike_id":"94c07cb2-0943-4d24-99f2-97bdab47aa3f","system_id":"levelo_inurba_marseille","lat":43.337444,"lon":5.374475,"is_reserved":false,"is_disabled":false,"rental_uris":{"android":"levelo://app?vid=94c07cb2-0943-4d24-99f2-97bdab47aa3f","ios":"levelo://app?vid=94c07cb2-0943-4d24-99f2-97bdab47aa3f"},"vehicle_type_id":"4","last_reported":1752836987,"current_range_meters":18000,"station_id":"","pricing_plan_id":"cebpf4jnsgd1na2vs0mg"},{"bike_id":"701d86d9-1665-4244-88e8-89e487f17c6d","system_id":"levelo_inurba_marseille","lat":43.25083,"lon":5.3951,"is_reserved":false,"is_disabled":false,"rental_uris":{"android":"levelo://app?vid=701d86d9-1665-4244-88e8-89e487f17c6d","ios":"levelo://app?vid=701d86d9-1665-4244-88e8-89e487f17c6d"},"vehicle_type_id":"4","last_reported":1752836987,"current_range_meters":18800,"station_id":"ce4bhm12rcd13ifvqgkg","pricing_plan_id":"cebpf4jnsgd1na2vs0mg"},{"bike_id":"fb4debf2-1f8f-411c-bd26-e8013aa9592a","system_id":"levelo_inurba_marseille","lat":43.273139,"lon":5.390726,"is_reserved":false,"is_disabled":false,"rental_uris":{"android":"levelo://app?vid=fb4debf2-1f8f-411c-bd26-e8013aa9592a","ios":"levelo://app?vid=fb4debf2-1f8f-411c-bd26-e8013aa9592a"},"vehicle_type_id":"4","last_reported":1752836987,"current_range_meters":18800,"station_id":"","pricing_plan_id":"cebpf4jnsgd1na2vs0mg"},{"bike_id":"bd7f0af5-ae40-44b6-bc39-9b4e2b89534b","system_id":"levelo_inurba_marseille","lat":43.29868,"lon":5.39734,"is_reserved":false,"is_disabled":false,"rental_uris":{"android":"levelo://app?vid=bd7f0af5-ae40-44b6-bc39-9b4e2b89534b","ios":"levelo://app?vid=bd7f0af5-ae40-44b6-bc39-9b4e2b89534b"},"vehicle_type_id":"4","last_reported":1752836987,"current_range_meters":18800,"station_id":"","pricing_plan_id":"cebpf4jnsgd1na2vs0mg"},{"bike_id":"9c581ff5-4d16-47b7-be24-99b611d8da2e","system_id":"levelo_inurba_marseille","lat":43.29855,"lon":5.36291,"is_reserved":false,"is_disabled":false,"rental_uris":{"android":"levelo://app?vid=9c581ff5-4d16-47b7-be24-99b611d8da2e","ios":"levelo://app?vid=9c581ff5-4d16-47b7-be24-99b611d8da2e"},"vehicle_type_id":"4","last_reported":1752836987,"current_range_meters":18800,"station_id":"ce4bgpp2rcd13ifvqc3g","pricing_plan_id":"cebpf4jnsgd1na2vs0mg"},{"bike_id":"458457e9-77df-4b4c-ae77-a722f1ba3f6a","system_id":"levelo_inurba_marseille","lat":43.31175,"lon":5.3872,"is_reserved":false,"is_disabled":false,"rental_uris":{"android":"levelo://app?vid=458457e9-77df-4b4c-ae77-a722f1ba3f6a","ios":"levelo://app?vid=458457e9-77df-4b4c-ae77-a722f1ba3f6a"},"vehicle_type_id":"4","last_reported":1752836987,"current_range_meters":18800,"station_id":"ce4bgv12rcd13ifvqcp0","pricing_plan_id":"cebpf4jnsgd1na2vs0mg"},{"bike_id":"1bea52eb-b99a-43e3-8fce-07ed497a87d3","system_id":"levelo_inurba_marseille","lat":43.32339,"lon":5.4061,"is_reserved":false,"is_disabled":false,"rental_uris":{"android":"levelo://app?vid=1bea52eb-b99a-43e3-8fce-07ed497a87d3","ios":"levelo://app?vid=1bea52eb-b99a-43e3-8fce-07ed497a87d3"},"vehicle_type_id":"4","last_reported":1752836987,"current_range_meters":18800,"station_id":"ce4bhq92rcd13ifvqhjg","pricing_plan_id":"cebpf4jnsgd1na2vs0mg"},{"bike_id":"8207cd3c-f39c-4af5-8898-0290cae9b619","system_id":"levelo_inurba_marseille","lat":43.23967,"lon":5.36635,"is_reserved":false,"is_disabled":false,"rental_uris":{"android":"levelo://app?vid=8207cd3c-f39c-4af5-8898-0290cae9b619","ios":"levelo://app?vid=8207cd3c-f39c-4af5-8898-0290cae9b619"},"vehicle_type_id":"4","last_reported":1752836987,"current_range_meters":18800,"station_id":"ce4bhi12rcd13ifvqfp0","pricing_plan_id":"cebpf4jnsgd1na2vs0mg"},{"bike_id":"82fa2dd1-a60b-4609-896b-9efe58a19369","system_id":"levelo_inurba_marseille","lat":43.305346,"lon":5.365582,"is_reserved":false,"is_disabled":false,"rental_uris":{"android":"levelo://app?vid=82fa2dd1-a60b-4609-896b-9efe58a19369","ios":"levelo://app?vid=82fa2dd1-a60b-4609-896b-9efe58a19369"},"vehicle_type_id":"4","last_reported":1752836987,"current_range_meters":18800,"station_id":"ce4bgs12rcd13ifvqcag","pricing_plan_id":"cebpf4jnsgd1na2vs0mg"},{"bike_id":"96579d04-b9e9-484c-9b9a-af500e5e8552","system_id":"levelo_inurba_marseille","lat":43.326754,"lon":5.363982,"is_reserved":false,"is_disabled":false,"rental_uris":{"android":"levelo://app?vid=96579d04-b9e9-484c-9b9a-af500e5e8552","ios":"levelo://app?vid=96579d04-b9e9-484c-9b9a-af500e5e8552"},"vehicle_type_id":"4","last_reported":1752836987,"current_range_meters":18800,"station_id":"","pricing_plan_id":"cebpf4jnsgd1na2vs0mg"},{"bike_id":"f90f1efc-2add-4576-a300-db6e14a5c471","system_id":"levelo_inurba_marseille","lat":43.321066,"lon":5.367874,"is_reserved":false,"is_disabled":false,"rental_uris":{"android":"levelo://app?vid=f90f1efc-2add-4576-a300-db6e14a5c471","ios":"levelo://app?vid=f90f1efc-2add-4576-a300-db6e14a5c471"},"vehicle_type_id":"4","last_reported":1752836987,"current_range_meters":19200,"station_id":"ce4bhrh2rcd13ifvqhug","pricing_plan_id":"cebpf4jnsgd1na2vs0mg"},{"bike_id":"ffbf048d-ac83-4072-83b3-80052b86d6b0","system_id":"levelo_inurba_marseille","lat":43.21753,"lon":5.34612,"is_reserved":false,"is_disabled":false,"rental_uris":{"android":"levelo://app?vid=ffbf048d-ac83-4072-83b3-80052b86d6b0","ios":"levelo://app?vid=ffbf048d-ac83-4072-83b3-80052b86d6b0"},"vehicle_type_id":"4","last_reported":1752836987,"current_range_meters":19200,"station_id":"st_cvj6r9ubvosntc0bgbag","pricing_plan_id":"cebpf4jnsgd1na2vs0mg"},{"bike_id":"6d1a5811-4117-41c5-a767-6b28cc4c80e0","system_id":"levelo_inurba_marseille","lat":43.27941,"lon":5.4111,"is_reserved":false,"is_disabled":false,"rental_uris":{"android":"levelo://app?vid=6d1a5811-4117-41c5-a767-6b28cc4c80e0","ios":"levelo://app?vid=6d1a5811-4117-41c5-a767-6b28cc4c80e0"},"vehicle_type_id":"4","last_reported":1752836987,"current_range_meters":19200,"station_id":"ce4bhnp2rcd13ifvqh0g","pricing_plan_id":"cebpf4jnsgd1na2vs0mg"},{"bike_id":"c4101f22-83e9-4b05-a209-59aa6ee31956","system_id":"levelo_inurba_marseille","lat":43.28606,"lon":5.37064,"is_reserved":false,"is_disabled":false,"rental_uris":{"android":"levelo://app?vid=c4101f22-83e9-4b05-a209-59aa6ee31956","ios":"levelo://app?vid=c4101f22-83e9-4b05-a209-59aa6ee31956"},"vehicle_type_id":"4","last_reported":1752836987,"current_range_meters":19200,"station_id":"ce4bht12rcd13ifvqi60","pricing_plan_id":"cebpf4jnsgd1na2vs0mg"},{"bike_id":"cb7b541b-4aa0-476b-ac1b-c83b6acaa65d","system_id":"levelo_inurba_marseille","lat":43.24182,"lon":5.36421,"is_reserved":false,"is_disabled":false,"rental_uris":{"android":"levelo://app?vid=cb7b541b-4aa0-476b-ac1b-c83b6acaa65d","ios":"levelo://app?vid=cb7b541b-4aa0-476b-ac1b-c83b6acaa65d"},"vehicle_type_id":"4","last_reported":1752836987,"current_range_meters":19600,"station_id":"cpo36qri1sfpv3e86is0","pricing_plan_id":"cebpf4jnsgd1na2vs0mg"},{"bike_id":"7a7fd7cf-f8b9-4749-b31b-4bd24165641e","system_id":"levelo_inurba_marseille","lat":43.265582,"lon":5.390062,"is_reserved":false,"is_disabled":false,"rental_uris":{"android":"levelo://app?vid=7a7fd7cf-f8b9-4749-b31b-4bd24165641e","ios":"levelo://app?vid=7a7fd7cf-f8b9-4749-b31b-4bd24165641e"},"vehicle_type_id":"4","last_reported":1752836987,"current_range_meters":19600,"station_id":"ce4bhe12rcd13ifvqf30","pricing_plan_id":"cebpf4jnsgd1na2vs0mg"},{"bike_id":"1d219207-082f-4dad-98a2-fb16c401173b","system_id":"levelo_inurba_marseille","lat":43.26941,"lon":5.40257,"is_reserved":false,"is_disabled":false,"rental_uris":{"android":"levelo://app?vid=1d219207-082f-4dad-98a2-fb16c401173b","ios":"levelo://app?vid=1d219207-082f-4dad-98a2-fb16c401173b"},"vehicle_type_id":"4","last_reported":1752836987,"current_range_meters":19600,"station_id":"cjm6bp8fraef2m0cb0m0","pricing_plan_id":"cebpf4jnsgd1na2vs0mg"},{"bike_id":"fadad232-4e5a-48b2-822d-e4a3903e49c5","system_id":"levelo_inurba_marseille","lat":43.30139,"lon":5.39873,"is_reserved":false,"is_disabled":false,"rental_uris":{"android":"levelo://app?vid=fadad232-4e5a-48b2-822d-e4a3903e49c5","ios":"levelo://app?vid=fadad232-4e5a-48b2-822d-e4a3903e49c5"},"vehicle_type_id":"4","last_reported":1752836987,"current_range_meters":19600,"station_id":"ce4bh0h2rcd13ifvqd40","pricing_plan_id":"cebpf4jnsgd1na2vs0mg"},{"bike_id":"0666bfcb-027c-4d77-a147-9d07c92d2f62","system_id":"levelo_inurba_marseille","lat":43.27995,"lon":5.4164,"is_reserved":false,"is_disabled":false,"rental_uris":{"android":"levelo://app?vid=0666bfcb-027c-4d77-a147-9d07c92d2f62","ios":"levelo://app?vid=0666bfcb-027c-4d77-a147-9d07c92d2f62"},"vehicle_type_id":"4","last_reported":1752836987,"current_range_meters":19600,"station_id":"ce4bho12rcd13ifvqh1g","pricing_plan_id":"cebpf4jnsgd1na2vs0mg"},{"bike_id":"a7b92e07-0d22-4b45-8ef1-b763127c437f","system_id":"levelo_inurba_marseille","lat":43.32522,"lon":5.37607,"is_reserved":false,"is_disabled":false,"rental_uris":{"android":"levelo://app?vid=a7b92e07-0d22-4b45-8ef1-b763127c437f","ios":"levelo://app?vid=a7b92e07-0d22-4b45-8ef1-b763127c437f"},"vehicle_type_id":"4","last_reported":1752836987,"current_range_meters":19600,"station_id":"","pricing_plan_id":"cebpf4jnsgd1na2vs0mg"},{"bike_id":"10d391b5-c179-4f9b-944d-e8c56b01a775","system_id":"levelo_inurba_marseille","lat":43.217689,"lon":5.346073,"is_reserved":false,"is_disabled":false,"rental_uris":{"android":"levelo://app?vid=10d391b5-c179-4f9b-944d-e8c56b01a775","ios":"levelo://app?vid=10d391b5-c179-4f9b-944d-e8c56b01a775"},"vehicle_type_id":"4","last_reported":1752836987,"current_range_meters":19600,"station_id":"st_cvj6r9ubvosntc0bgbag","pricing_plan_id":"cebpf4jnsgd1na2vs0mg"},{"bike_id":"e5cc7247-2d3e-4ff4-872b-4d3c72778572","system_id":"levelo_inurba_marseille","lat":43.24663,"lon":5.38164,"is_reserved":false,"is_disabled":false,"rental_uris":{"android":"levelo://app?vid=e5cc7247-2d3e-4ff4-872b-4d3c72778572","ios":"levelo://app?vid=e5cc7247-2d3e-4ff4-872b-4d3c72778572"},"vehicle_type_id":"4","last_reported":1752836987,"current_range_meters":19600,"station_id":"ce4bhih2rcd13ifvqfr0","pricing_plan_id":"cebpf4jnsgd1na2vs0mg"},{"bike_id":"b788a2dd-efd6-48c2-ab22-c5bf878f04b3","system_id":"levelo_inurba_marseille","lat":43.25934,"lon":5.40919,"is_reserved":false,"is_disabled":false,"rental_uris":{"android":"levelo://app?vid=b788a2dd-efd6-48c2-ab22-c5bf878f04b3","ios":"levelo://app?vid=b788a2dd-efd6-48c2-ab22-c5bf878f04b3"},"vehicle_type_id":"4","last_reported":1752836987,"current_range_meters":20000,"station_id":"ce4bhm92rcd13ifvqglg","pricing_plan_id":"cebpf4jnsgd1na2vs0mg"},{"bike_id":"aacce92b-4365-4bf0-ae27-3a02b5869286","system_id":"levelo_inurba_marseille","lat":43.33724,"lon":5.39189,"is_reserved":false,"is_disabled":false,"rental_uris":{"android":"levelo://app?vid=aacce92b-4365-4bf0-ae27-3a02b5869286","ios":"levelo://app?vid=aacce92b-4365-4bf0-ae27-3a02b5869286"},"vehicle_type_id":"4","last_reported":1752836987,"current_range_meters":20000,"station_id":"ce4bhr92rcd13ifvqhsg","pricing_plan_id":"cebpf4jnsgd1na2vs0mg"},{"bike_id":"e09e500f-f2a2-4207-a386-857bd8a7e3a7","system_id":"levelo_inurba_marseille","lat":43.25933,"lon":5.4091,"is_reserved":false,"is_disabled":false,"rental_uris":{"android":"levelo://app?vid=e09e500f-f2a2-4207-a386-857bd8a7e3a7","ios":"levelo://app?vid=e09e500f-f2a2-4207-a386-857bd8a7e3a7"},"vehicle_type_id":"4","last_reported":1752836987,"current_range_meters":20000,"station_id":"ce4bhm92rcd13ifvqglg","pricing_plan_id":"cebpf4jnsgd1na2vs0mg"},{"bike_id":"ed69570e-9aea-4980-8eb9-8acacdfdcbbd","system_id":"levelo_inurba_marseille","lat":43.29864,"lon":5.39731,"is_reserved":false,"is_disabled":false,"rental_uris":{"android":"levelo://app?vid=ed69570e-9aea-4980-8eb9-8acacdfdcbbd","ios":"levelo://app?vid=ed69570e-9aea-4980-8eb9-8acacdfdcbbd"},"vehicle_type_id":"4","last_reported":1752836987,"current_range_meters":20000,"station_id":"ce4bh0h2rcd13ifvqd50","pricing_plan_id":"cebpf4jnsgd1na2vs0mg"},{"bike_id":"75c386ec-2b11-4ceb-a42e-98a6dc1d6c01","system_id":"levelo_inurba_marseille","lat":43.211935,"lon":5.35074,"is_reserved":false,"is_disabled":false,"rental_uris":{"android":"levelo://app?vid=75c386ec-2b11-4ceb-a42e-98a6dc1d6c01","ios":"levelo://app?vid=75c386ec-2b11-4ceb-a42e-98a6dc1d6c01"},"vehicle_type_id":"4","last_reported":1752836987,"current_range_meters":20000,"station_id":"st_cvj6sg6p6f1abm77japg","pricing_plan_id":"cebpf4jnsgd1na2vs0mg"},{"bike_id":"46661889-22f3-4d8f-b11a-c953e76d405e","system_id":"levelo_inurba_marseille","lat":43.30863,"lon":5.36825,"is_reserved":false,"is_disabled":false,"rental_uris":{"android":"levelo://app?vid=46661889-22f3-4d8f-b11a-c953e76d405e","ios":"levelo://app?vid=46661889-22f3-4d8f-b11a-c953e76d405e"},"vehicle_type_id":"4","last_reported":1752836987,"current_range_meters":20000,"station_id":"","pricing_plan_id":"cebpf4jnsgd1na2vs0mg"},{"bike_id":"a1b76488-3899-44cf-86a3-646054e8ea69","system_id":"levelo_inurba_marseille","lat":43.29531,"lon":5.37504,"is_reserved":false,"is_disabled":false,"rental_uris":{"android":"levelo://app?vid=a1b76488-3899-44cf-86a3-646054e8ea69","ios":"levelo://app?vid=a1b76488-3899-44cf-86a3-646054e8ea69"},"vehicle_type_id":"4","last_reported":1752836987,"current_range_meters":19600,"station_id":"ce4bgkp2rcd13ifvqbmg","pricing_plan_id":"cebpf4jnsgd1na2vs0mg"},{"bike_id":"bce28990-c259-4e2d-bdfe-a36a64f61f0b","system_id":"levelo_inurba_marseille","lat":43.31708,"lon":5.40485,"is_reserved":false,"is_disabled":false,"rental_uris":{"android":"levelo://app?vid=bce28990-c259-4e2d-bdfe-a36a64f61f0b","ios":"levelo://app?vid=bce28990-c259-4e2d-bdfe-a36a64f61f0b"},"vehicle_type_id":"4","last_reported":1752836987,"current_range_meters":20400,"station_id":"ce4bh012rcd13ifvqd00","pricing_plan_id":"cebpf4jnsgd1na2vs0mg"},{"bike_id":"a7245722-efb4-4b5e-b395-d708d3239db4","system_id":"levelo_inurba_marseille","lat":43.32365,"lon":5.38888,"is_reserved":false,"is_disabled":false,"rental_uris":{"android":"levelo://app?vid=a7245722-efb4-4b5e-b395-d708d3239db4","ios":"levelo://app?vid=a7245722-efb4-4b5e-b395-d708d3239db4"},"vehicle_type_id":"4","last_reported":1752836987,"current_range_meters":20400,"station_id":"ce4bhqp2rcd13ifvqhog","pricing_plan_id":"cebpf4jnsgd1na2vs0mg"},{"bike_id":"45dea0eb-918d-49f1-8341-001e35c226f0","system_id":"levelo_inurba_marseille","lat":43.21181,"lon":5.35059,"is_reserved":false,"is_disabled":false,"rental_uris":{"android":"levelo://app?vid=45dea0eb-918d-49f1-8341-001e35c226f0","ios":"levelo://app?vid=45dea0eb-918d-49f1-8341-001e35c226f0"},"vehicle_type_id":"4","last_reported":1752836987,"current_range_meters":20400,"station_id":"st_cvj6sg6p6f1abm77japg","pricing_plan_id":"cebpf4jnsgd1na2vs0mg"},{"bike_id":"255c16ba-9911-4256-ba44-ab4896a6c775","system_id":"levelo_inurba_marseille","lat":43.2841,"lon":5.34976,"is_reserved":false,"is_disabled":false,"rental_uris":{"android":"levelo://app?vid=255c16ba-9911-4256-ba44-ab4896a6c775","ios":"levelo://app?vid=255c16ba-9911-4256-ba44-ab4896a6c775"},"vehicle_type_id":"4","last_reported":1752836987,"current_range_meters":20400,"station_id":"ce4bhbh2rcd13ifvqepg","pricing_plan_id":"cebpf4jnsgd1na2vs0mg"},{"bike_id":"05b2c427-c6ef-47d8-8731-dda485f1f0ba","system_id":"levelo_inurba_marseille","lat":43.3065,"lon":5.40059,"is_reserved":false,"is_disabled":false,"rental_uris":{"android":"levelo://app?vid=05b2c427-c6ef-47d8-8731-dda485f1f0ba","ios":"levelo://app?vid=05b2c427-c6ef-47d8-8731-dda485f1f0ba"},"vehicle_type_id":"4","last_reported":1752836987,"current_range_meters":20400,"station_id":"ce4bh112rcd13ifvqda0","pricing_plan_id":"cebpf4jnsgd1na2vs0mg"},{"bike_id":"1086cdd5-ad25-44f0-8889-94cb7d7f28e0","system_id":"levelo_inurba_marseille","lat":43.2308,"lon":5.3552,"is_reserved":false,"is_disabled":false,"rental_uris":{"android":"levelo://app?vid=1086cdd5-ad25-44f0-8889-94cb7d7f28e0","ios":"levelo://app?vid=1086cdd5-ad25-44f0-8889-94cb7d7f28e0"},"vehicle_type_id":"4","last_reported":1752836987,"current_range_meters":20400,"station_id":"cpo3342slgdg3j2ifvpg","pricing_plan_id":"cebpf4jnsgd1na2vs0mg"},{"bike_id":"ae514fe1-85ea-4b12-b065-9e5a24663928","system_id":"levelo_inurba_marseille","lat":43.21198,"lon":5.35079,"is_reserved":false,"is_disabled":false,"rental_uris":{"android":"levelo://app?vid=ae514fe1-85ea-4b12-b065-9e5a24663928","ios":"levelo://app?vid=ae514fe1-85ea-4b12-b065-9e5a24663928"},"vehicle_type_id":"4","last_reported":1752836987,"current_range_meters":20400,"station_id":"st_cvj6sg6p6f1abm77japg","pricing_plan_id":"cebpf4jnsgd1na2vs0mg"},{"bike_id":"f2361893-8a72-4ce2-a059-c26f80f7c090","system_id":"levelo_inurba_marseille","lat":43.274919,"lon":5.424495,"is_reserved":false,"is_disabled":false,"rental_uris":{"android":"levelo://app?vid=f2361893-8a72-4ce2-a059-c26f80f7c090","ios":"levelo://app?vid=f2361893-8a72-4ce2-a059-c26f80f7c090"},"vehicle_type_id":"4","last_reported":1752836987,"current_range_meters":20400,"station_id":"","pricing_plan_id":"cebpf4jnsgd1na2vs0mg"},{"bike_id":"c563397a-8e95-43de-9482-c447bf9c775e","system_id":"levelo_inurba_marseille","lat":43.293342,"lon":5.411725,"is_reserved":false,"is_disabled":false,"rental_uris":{"android":"levelo://app?vid=c563397a-8e95-43de-9482-c447bf9c775e","ios":"levelo://app?vid=c563397a-8e95-43de-9482-c447bf9c775e"},"vehicle_type_id":"4","last_reported":1752836987,"current_range_meters":20400,"station_id":"","pricing_plan_id":"cebpf4jnsgd1na2vs0mg"},{"bike_id":"a2c797ac-91ff-4987-81ca-78f615ca3bf1","system_id":"levelo_inurba_marseille","lat":43.275621,"lon":5.384195,"is_reserved":false,"is_disabled":false,"rental_uris":{"android":"levelo://app?vid=a2c797ac-91ff-4987-81ca-78f615ca3bf1","ios":"levelo://app?vid=a2c797ac-91ff-4987-81ca-78f615ca3bf1"},"vehicle_type_id":"4","last_reported":1752836987,"current_range_meters":20400,"station_id":"ce4bhh92rcd13ifvqfi0","pricing_plan_id":"cebpf4jnsgd1na2vs0mg"},{"bike_id":"4a2af6fb-f040-4dff-9ff5-d70c4f952e83","system_id":"levelo_inurba_marseille","lat":43.31509,"lon":5.37309,"is_reserved":false,"is_disabled":true,"rental_uris":{"android":"levelo://app?vid=4a2af6fb-f040-4dff-9ff5-d70c4f952e83","ios":"levelo://app?vid=4a2af6fb-f040-4dff-9ff5-d70c4f952e83"},"vehicle_type_id":"4","last_reported":1752836987,"current_range_meters":20800,"station_id":"ce4bgt12rcd13ifvqcd0","pricing_plan_id":"cebpf4jnsgd1na2vs0mg"},{"bike_id":"d2fa22aa-c34d-4a77-b023-d06add13aae8","system_id":"levelo_inurba_marseille","lat":43.24579,"lon":5.39567,"is_reserved":false,"is_disabled":false,"rental_uris":{"android":"levelo://app?vid=d2fa22aa-c34d-4a77-b023-d06add13aae8","ios":"levelo://app?vid=d2fa22aa-c34d-4a77-b023-d06add13aae8"},"vehicle_type_id":"4","last_reported":1752836987,"current_range_meters":20800,"station_id":"","pricing_plan_id":"cebpf4jnsgd1na2vs0mg"},{"bike_id":"c9e13ae8-81d2-45a5-adef-f1b61a66153b","system_id":"levelo_inurba_marseille","lat":43.239489,"lon":5.366168,"is_reserved":false,"is_disabled":false,"rental_uris":{"android":"levelo://app?vid=c9e13ae8-81d2-45a5-adef-f1b61a66153b","ios":"levelo://app?vid=c9e13ae8-81d2-45a5-adef-f1b61a66153b"},"vehicle_type_id":"4","last_reported":1752836987,"current_range_meters":20800,"station_id":"ce4bhi12rcd13ifvqfp0","pricing_plan_id":"cebpf4jnsgd1na2vs0mg"},{"bike_id":"d5682ac4-d3d7-4293-a625-5f43c905db0c","system_id":"levelo_inurba_marseille","lat":43.28413,"lon":5.34987,"is_reserved":false,"is_disabled":false,"rental_uris":{"android":"levelo://app?vid=d5682ac4-d3d7-4293-a625-5f43c905db0c","ios":"levelo://app?vid=d5682ac4-d3d7-4293-a625-5f43c905db0c"},"vehicle_type_id":"4","last_reported":1752836987,"current_range_meters":20800,"station_id":"ce4bhbh2rcd13ifvqepg","pricing_plan_id":"cebpf4jnsgd1na2vs0mg"},{"bike_id":"90d4f77e-262c-4d22-9803-80c7c88599a7","system_id":"levelo_inurba_marseille","lat":43.337444,"lon":5.374475,"is_reserved":false,"is_disabled":false,"rental_uris":{"android":"levelo://app?vid=90d4f77e-262c-4d22-9803-80c7c88599a7","ios":"levelo://app?vid=90d4f77e-262c-4d22-9803-80c7c88599a7"},"vehicle_type_id":"4","last_reported":1752836987,"current_range_meters":20800,"station_id":"","pricing_plan_id":"cebpf4jnsgd1na2vs0mg"},{"bike_id":"a168d389-ea1d-4756-ad9b-cf73a31ab442","system_id":"levelo_inurba_marseille","lat":43.288747,"lon":5.400098,"is_reserved":false,"is_disabled":false,"rental_uris":{"android":"levelo://app?vid=a168d389-ea1d-4756-ad9b-cf73a31ab442","ios":"levelo://app?vid=a168d389-ea1d-4756-ad9b-cf73a31ab442"},"vehicle_type_id":"4","last_reported":1752836987,"current_range_meters":20800,"station_id":"","pricing_plan_id":"cebpf4jnsgd1na2vs0mg"},{"bike_id":"44e89ad7-16a2-4910-805f-061f2aee5ab7","system_id":"levelo_inurba_marseille","lat":43.23192,"lon":5.35658,"is_reserved":false,"is_disabled":false,"rental_uris":{"android":"levelo://app?vid=44e89ad7-16a2-4910-805f-061f2aee5ab7","ios":"levelo://app?vid=44e89ad7-16a2-4910-805f-061f2aee5ab7"},"vehicle_type_id":"4","last_reported":1752836987,"current_range_meters":20800,"station_id":"ce4bhu92rcd13ifvqi70","pricing_plan_id":"cebpf4jnsgd1na2vs0mg"},{"bike_id":"93f01abd-31fe-477b-ae07-02e7dee9d156","system_id":"levelo_inurba_marseille","lat":43.29708,"lon":5.37699,"is_reserved":false,"is_disabled":false,"rental_uris":{"android":"levelo://app?vid=93f01abd-31fe-477b-ae07-02e7dee9d156","ios":"levelo://app?vid=93f01abd-31fe-477b-ae07-02e7dee9d156"},"vehicle_type_id":"4","last_reported":1752836987,"current_range_meters":20800,"station_id":"ce4bgkh2rcd13ifvqbl0","pricing_plan_id":"cebpf4jnsgd1na2vs0mg"},{"bike_id":"91243f73-e066-4646-a12b-37ceb2df5e2a","system_id":"levelo_inurba_marseille","lat":43.29712,"lon":5.36623,"is_reserved":false,"is_disabled":false,"rental_uris":{"android":"levelo://app?vid=91243f73-e066-4646-a12b-37ceb2df5e2a","ios":"levelo://app?vid=91243f73-e066-4646-a12b-37ceb2df5e2a"},"vehicle_type_id":"4","last_reported":1752836987,"current_range_meters":20800,"station_id":"ce4bgn12rcd13ifvqbt0","pricing_plan_id":"cebpf4jnsgd1na2vs0mg"},{"bike_id":"22ab0a30-ae16-4f7e-880b-fb0e1a4ab54f","system_id":"levelo_inurba_marseille","lat":43.21754,"lon":5.34607,"is_reserved":false,"is_disabled":false,"rental_uris":{"android":"levelo://app?vid=22ab0a30-ae16-4f7e-880b-fb0e1a4ab54f","ios":"levelo://app?vid=22ab0a30-ae16-4f7e-880b-fb0e1a4ab54f"},"vehicle_type_id":"4","last_reported":1752836987,"current_range_meters":20800,"station_id":"st_cvj6r9ubvosntc0bgbag","pricing_plan_id":"cebpf4jnsgd1na2vs0mg"},{"bike_id":"15160059-9bf5-494a-be99-658ad104b550","system_id":"levelo_inurba_marseille","lat":43.31685,"lon":5.40477,"is_reserved":false,"is_disabled":false,"rental_uris":{"android":"levelo://app?vid=15160059-9bf5-494a-be99-658ad104b550","ios":"levelo://app?vid=15160059-9bf5-494a-be99-658ad104b550"},"vehicle_type_id":"4","last_reported":1752836987,"current_range_meters":20800,"station_id":"ce4bh012rcd13ifvqd00","pricing_plan_id":"cebpf4jnsgd1na2vs0mg"},{"bike_id":"947bdcf7-b643-4d82-afe5-c8a99091049a","system_id":"levelo_inurba_marseille","lat":43.29628,"lon":5.37735,"is_reserved":false,"is_disabled":false,"rental_uris":{"android":"levelo://app?vid=947bdcf7-b643-4d82-afe5-c8a99091049a","ios":"levelo://app?vid=947bdcf7-b643-4d82-afe5-c8a99091049a"},"vehicle_type_id":"4","last_reported":1752836987,"current_range_meters":20800,"station_id":"ce4bgi92rcd13ifvqb90","pricing_plan_id":"cebpf4jnsgd1na2vs0mg"},{"bike_id":"bd4f2166-3fd0-4dcc-b0eb-f1e53c57f556","system_id":"levelo_inurba_marseille","lat":43.211925,"lon":5.350729,"is_reserved":false,"is_disabled":false,"rental_uris":{"android":"levelo://app?vid=bd4f2166-3fd0-4dcc-b0eb-f1e53c57f556","ios":"levelo://app?vid=bd4f2166-3fd0-4dcc-b0eb-f1e53c57f556"},"vehicle_type_id":"4","last_reported":1752836987,"current_range_meters":21600,"station_id":"st_cvj6sg6p6f1abm77japg","pricing_plan_id":"cebpf4jnsgd1na2vs0mg"},{"bike_id":"7d2e6ecd-0d15-4ac8-a6d8-81feb309d46f","system_id":"levelo_inurba_marseille","lat":43.29435,"lon":5.39749,"is_reserved":false,"is_disabled":false,"rental_uris":{"android":"levelo://app?vid=7d2e6ecd-0d15-4ac8-a6d8-81feb309d46f","ios":"levelo://app?vid=7d2e6ecd-0d15-4ac8-a6d8-81feb309d46f"},"vehicle_type_id":"4","last_reported":1752836987,"current_range_meters":21600,"station_id":"ce4bh3h2rcd13ifvqdo0","pricing_plan_id":"cebpf4jnsgd1na2vs0mg"},{"bike_id":"7174d1cb-3612-498c-a0b5-81e5ed4633ed","system_id":"levelo_inurba_marseille","lat":43.29262,"lon":5.38436,"is_reserved":false,"is_disabled":false,"rental_uris":{"android":"levelo://app?vid=7174d1cb-3612-498c-a0b5-81e5ed4633ed","ios":"levelo://app?vid=7174d1cb-3612-498c-a0b5-81e5ed4633ed"},"vehicle_type_id":"4","last_reported":1752836987,"current_range_meters":21600,"station_id":"ce4bh692rcd13ifvqea0","pricing_plan_id":"cebpf4jnsgd1na2vs0mg"},{"bike_id":"4d21dc74-acd4-4932-a08d-fffdc3457604","system_id":"levelo_inurba_marseille","lat":43.28618,"lon":5.35103,"is_reserved":false,"is_disabled":false,"rental_uris":{"android":"levelo://app?vid=4d21dc74-acd4-4932-a08d-fffdc3457604","ios":"levelo://app?vid=4d21dc74-acd4-4932-a08d-fffdc3457604"},"vehicle_type_id":"4","last_reported":1752836987,"current_range_meters":21600,"station_id":"ce4bhch2rcd13ifvqeug","pricing_plan_id":"cebpf4jnsgd1na2vs0mg"},{"bike_id":"423f1338-219c-4f01-8e6d-d117d7e4897e","system_id":"levelo_inurba_marseille","lat":43.29787,"lon":5.39357,"is_reserved":false,"is_disabled":false,"rental_uris":{"android":"levelo://app?vid=423f1338-219c-4f01-8e6d-d117d7e4897e","ios":"levelo://app?vid=423f1338-219c-4f01-8e6d-d117d7e4897e"},"vehicle_type_id":"4","last_reported":1752836987,"current_range_meters":21600,"station_id":"chh1huq6cuj3fo74tm60","pricing_plan_id":"cebpf4jnsgd1na2vs0mg"},{"bike_id":"10eab293-d963-46d8-bf07-69713ceade0c","system_id":"levelo_inurba_marseille","lat":43.244138,"lon":5.369068,"is_reserved":false,"is_disabled":true,"rental_uris":{"android":"levelo://app?vid=10eab293-d963-46d8-bf07-69713ceade0c","ios":"levelo://app?vid=10eab293-d963-46d8-bf07-69713ceade0c"},"vehicle_type_id":"4","last_reported":1752836987,"current_range_meters":21600,"station_id":"ce4bhhh2rcd13ifvqfk0","pricing_plan_id":"cebpf4jnsgd1na2vs0mg"},{"bike_id":"27866799-0f88-406e-b61b-a80d55d57dcf","system_id":"levelo_inurba_marseille","lat":43.29222,"lon":5.36047,"is_reserved":false,"is_disabled":false,"rental_uris":{"android":"levelo://app?vid=27866799-0f88-406e-b61b-a80d55d57dcf","ios":"levelo://app?vid=27866799-0f88-406e-b61b-a80d55d57dcf"},"vehicle_type_id":"4","last_reported":1752836987,"current_range_meters":21600,"station_id":"ce4bhbh2rcd13ifvqeqg","pricing_plan_id":"cebpf4jnsgd1na2vs0mg"},{"bike_id":"9e06df4d-0134-44ee-99de-5e991fc17a23","system_id":"levelo_inurba_marseille","lat":43.29982,"lon":5.37174,"is_reserved":false,"is_disabled":false,"rental_uris":{"android":"levelo://app?vid=9e06df4d-0134-44ee-99de-5e991fc17a23","ios":"levelo://app?vid=9e06df4d-0134-44ee-99de-5e991fc17a23"},"vehicle_type_id":"4","last_reported":1752836987,"current_range_meters":21600,"station_id":"ce4bgr92rcd13ifvqc7g","pricing_plan_id":"cebpf4jnsgd1na2vs0mg"},{"bike_id":"e9ee96f0-8c73-4717-853d-123024a6113f","system_id":"levelo_inurba_marseille","lat":43.26687,"lon":5.38272,"is_reserved":false,"is_disabled":false,"rental_uris":{"android":"levelo://app?vid=e9ee96f0-8c73-4717-853d-123024a6113f","ios":"levelo://app?vid=e9ee96f0-8c73-4717-853d-123024a6113f"},"vehicle_type_id":"4","last_reported":1752836987,"current_range_meters":21600,"station_id":"ce4bhg92rcd13ifvqf90","pricing_plan_id":"cebpf4jnsgd1na2vs0mg"},{"bike_id":"b16378ba-2af9-44b1-9c68-730a24374af2","system_id":"levelo_inurba_marseille","lat":43.31685,"lon":5.40474,"is_reserved":false,"is_disabled":false,"rental_uris":{"android":"levelo://app?vid=b16378ba-2af9-44b1-9c68-730a24374af2","ios":"levelo://app?vid=b16378ba-2af9-44b1-9c68-730a24374af2"},"vehicle_type_id":"4","last_reported":1752836987,"current_range_meters":22000,"station_id":"ce4bh012rcd13ifvqd00","pricing_plan_id":"cebpf4jnsgd1na2vs0mg"},{"bike_id":"8589dbcd-f36a-43bd-b476-98993ef48300","system_id":"levelo_inurba_marseille","lat":43.29565,"lon":5.42272,"is_reserved":false,"is_disabled":false,"rental_uris":{"android":"levelo://app?vid=8589dbcd-f36a-43bd-b476-98993ef48300","ios":"levelo://app?vid=8589dbcd-f36a-43bd-b476-98993ef48300"},"vehicle_type_id":"4","last_reported":1752836987,"current_range_meters":22000,"station_id":"ce4bhph2rcd13ifvqhdg","pricing_plan_id":"cebpf4jnsgd1na2vs0mg"},{"bike_id":"6fa55551-7ee3-432c-b4b4-68fe465643f8","system_id":"levelo_inurba_marseille","lat":43.29696,"lon":5.37288,"is_reserved":false,"is_disabled":false,"rental_uris":{"android":"levelo://app?vid=6fa55551-7ee3-432c-b4b4-68fe465643f8","ios":"levelo://app?vid=6fa55551-7ee3-432c-b4b4-68fe465643f8"},"vehicle_type_id":"4","last_reported":1752836987,"current_range_meters":22000,"station_id":"ce4bgk12rcd13ifvqbj0","pricing_plan_id":"cebpf4jnsgd1na2vs0mg"},{"bike_id":"9f3fb44b-9669-4fa1-9855-6d2294683aef","system_id":"levelo_inurba_marseille","lat":43.29905,"lon":5.38141,"is_reserved":false,"is_disabled":false,"rental_uris":{"android":"levelo://app?vid=9f3fb44b-9669-4fa1-9855-6d2294683aef","ios":"levelo://app?vid=9f3fb44b-9669-4fa1-9855-6d2294683aef"},"vehicle_type_id":"4","last_reported":1752836987,"current_range_meters":22000,"station_id":"ce4bgj12rcd13ifvqbc0","pricing_plan_id":"cebpf4jnsgd1na2vs0mg"},{"bike_id":"cda818c1-13a3-4a98-92e1-e121948e0bb3","system_id":"levelo_inurba_marseille","lat":43.29893,"lon":5.39762,"is_reserved":false,"is_disabled":false,"rental_uris":{"android":"levelo://app?vid=cda818c1-13a3-4a98-92e1-e121948e0bb3","ios":"levelo://app?vid=cda818c1-13a3-4a98-92e1-e121948e0bb3"},"vehicle_type_id":"4","last_reported":1752836987,"current_range_meters":22000,"station_id":"ce4bh0h2rcd13ifvqd50","pricing_plan_id":"cebpf4jnsgd1na2vs0mg"},{"bike_id":"b485ab37-376c-4713-ac28-32d2bb4978e2","system_id":"levelo_inurba_marseille","lat":43.292195,"lon":5.360449,"is_reserved":false,"is_disabled":false,"rental_uris":{"android":"levelo://app?vid=b485ab37-376c-4713-ac28-32d2bb4978e2","ios":"levelo://app?vid=b485ab37-376c-4713-ac28-32d2bb4978e2"},"vehicle_type_id":"4","last_reported":1752836987,"current_range_meters":22000,"station_id":"ce4bhbh2rcd13ifvqeqg","pricing_plan_id":"cebpf4jnsgd1na2vs0mg"},{"bike_id":"b2d8de19-5228-47c5-a04d-d8664c46de68","system_id":"levelo_inurba_marseille","lat":43.22944,"lon":5.35393,"is_reserved":false,"is_disabled":false,"rental_uris":{"android":"levelo://app?vid=b2d8de19-5228-47c5-a04d-d8664c46de68","ios":"levelo://app?vid=b2d8de19-5228-47c5-a04d-d8664c46de68"},"vehicle_type_id":"4","last_reported":1752836987,"current_range_meters":22000,"station_id":"cpo3532slgdg3j2ikp40","pricing_plan_id":"cebpf4jnsgd1na2vs0mg"},{"bike_id":"2b7302bc-13a1-421a-b212-2b92f54a074c","system_id":"levelo_inurba_marseille","lat":43.29931,"lon":5.36538,"is_reserved":false,"is_disabled":false,"rental_uris":{"android":"levelo://app?vid=2b7302bc-13a1-421a-b212-2b92f54a074c","ios":"levelo://app?vid=2b7302bc-13a1-421a-b212-2b92f54a074c"},"vehicle_type_id":"4","last_reported":1752836987,"current_range_meters":22000,"station_id":"ce4bgm92rcd13ifvqbr0","pricing_plan_id":"cebpf4jnsgd1na2vs0mg"},{"bike_id":"8ee74232-a482-42ec-96cd-1c4269433797","system_id":"levelo_inurba_marseille","lat":43.280377,"lon":5.369343,"is_reserved":false,"is_disabled":false,"rental_uris":{"android":"levelo://app?vid=8ee74232-a482-42ec-96cd-1c4269433797","ios":"levelo://app?vid=8ee74232-a482-42ec-96cd-1c4269433797"},"vehicle_type_id":"4","last_reported":1752836987,"current_range_meters":22000,"station_id":"ce4bha12rcd13ifvqef0","pricing_plan_id":"cebpf4jnsgd1na2vs0mg"},{"bike_id":"e119a308-ad6d-4ac5-8965-22b96b757f74","system_id":"levelo_inurba_marseille","lat":43.22932,"lon":5.35399,"is_reserved":false,"is_disabled":false,"rental_uris":{"android":"levelo://app?vid=e119a308-ad6d-4ac5-8965-22b96b757f74","ios":"levelo://app?vid=e119a308-ad6d-4ac5-8965-22b96b757f74"},"vehicle_type_id":"4","last_reported":1752836987,"current_range_meters":22000,"station_id":"cpo3532slgdg3j2ikp40","pricing_plan_id":"cebpf4jnsgd1na2vs0mg"},{"bike_id":"a123b2c9-57ea-4984-a7e0-c4b564f3eb66","system_id":"levelo_inurba_marseille","lat":43.25019,"lon":5.38929,"is_reserved":false,"is_disabled":false,"rental_uris":{"android":"levelo://app?vid=a123b2c9-57ea-4984-a7e0-c4b564f3eb66","ios":"levelo://app?vid=a123b2c9-57ea-4984-a7e0-c4b564f3eb66"},"vehicle_type_id":"4","last_reported":1752836987,"current_range_meters":22000,"station_id":"ce4bhgp2rcd13ifvqfd0","pricing_plan_id":"cebpf4jnsgd1na2vs0mg"},{"bike_id":"7243c05a-9b60-450b-8335-40e91495839d","system_id":"levelo_inurba_marseille","lat":43.22938,"lon":5.3538,"is_reserved":false,"is_disabled":false,"rental_uris":{"android":"levelo://app?vid=7243c05a-9b60-450b-8335-40e91495839d","ios":"levelo://app?vid=7243c05a-9b60-450b-8335-40e91495839d"},"vehicle_type_id":"4","last_reported":1752836987,"current_range_meters":22400,"station_id":"cpo3532slgdg3j2ikp40","pricing_plan_id":"cebpf4jnsgd1na2vs0mg"},{"bike_id":"a34e0568-3ec6-494b-8a2c-ee61c1f50877","system_id":"levelo_inurba_marseille","lat":43.30167,"lon":5.38079,"is_reserved":false,"is_disabled":false,"rental_uris":{"android":"levelo://app?vid=a34e0568-3ec6-494b-8a2c-ee61c1f50877","ios":"levelo://app?vid=a34e0568-3ec6-494b-8a2c-ee61c1f50877"},"vehicle_type_id":"4","last_reported":1752836987,"current_range_meters":22400,"station_id":"ce4bgjp2rcd13ifvqbh0","pricing_plan_id":"cebpf4jnsgd1na2vs0mg"},{"bike_id":"ee134bca-9c17-4f13-8d1c-688b3a0f6428","system_id":"levelo_inurba_marseille","lat":43.29216,"lon":5.36056,"is_reserved":false,"is_disabled":false,"rental_uris":{"android":"levelo://app?vid=ee134bca-9c17-4f13-8d1c-688b3a0f6428","ios":"levelo://app?vid=ee134bca-9c17-4f13-8d1c-688b3a0f6428"},"vehicle_type_id":"4","last_reported":1752836987,"current_range_meters":22400,"station_id":"ce4bhbh2rcd13ifvqeqg","pricing_plan_id":"cebpf4jnsgd1na2vs0mg"},{"bike_id":"310340c0-5882-48be-9676-ff4a92a32492","system_id":"levelo_inurba_marseille","lat":43.29787,"lon":5.38108,"is_reserved":false,"is_disabled":false,"rental_uris":{"android":"levelo://app?vid=310340c0-5882-48be-9676-ff4a92a32492","ios":"levelo://app?vid=310340c0-5882-48be-9676-ff4a92a32492"},"vehicle_type_id":"4","last_reported":1752836987,"current_range_meters":22400,"station_id":"ce4bgip2rcd13ifvqbb0","pricing_plan_id":"cebpf4jnsgd1na2vs0mg"},{"bike_id":"40dbf01f-904f-44d0-8a0a-2cb7ad52fc98","system_id":"levelo_inurba_marseille","lat":43.30461,"lon":5.37903,"is_reserved":false,"is_disabled":false,"rental_uris":{"android":"levelo://app?vid=40dbf01f-904f-44d0-8a0a-2cb7ad52fc98","ios":"levelo://app?vid=40dbf01f-904f-44d0-8a0a-2cb7ad52fc98"},"vehicle_type_id":"4","last_reported":1752836987,"current_range_meters":22000,"station_id":"ce4bgup2rcd13ifvqcn0","pricing_plan_id":"cebpf4jnsgd1na2vs0mg"},{"bike_id":"158422b9-1628-470c-9ef7-ebee5ce90c1e","system_id":"levelo_inurba_marseille","lat":43.21184,"lon":5.35098,"is_reserved":false,"is_disabled":false,"rental_uris":{"android":"levelo://app?vid=158422b9-1628-470c-9ef7-ebee5ce90c1e","ios":"levelo://app?vid=158422b9-1628-470c-9ef7-ebee5ce90c1e"},"vehicle_type_id":"4","last_reported":1752836987,"current_range_meters":22400,"station_id":"st_cvj6sg6p6f1abm77japg","pricing_plan_id":"cebpf4jnsgd1na2vs0mg"},{"bike_id":"ea37c249-bc61-4eea-862b-e2e11472cda2","system_id":"levelo_inurba_marseille","lat":43.29285,"lon":5.36828,"is_reserved":false,"is_disabled":true,"rental_uris":{"android":"levelo://app?vid=ea37c249-bc61-4eea-862b-e2e11472cda2","ios":"levelo://app?vid=ea37c249-bc61-4eea-862b-e2e11472cda2"},"vehicle_type_id":"4","last_reported":1752836987,"current_range_meters":22400,"station_id":"ce4bhbp2rcd13ifvqesg","pricing_plan_id":"cebpf4jnsgd1na2vs0mg"},{"bike_id":"6d8fdb8a-5ecd-4c4a-a296-183c4836506e","system_id":"levelo_inurba_marseille","lat":43.29052,"lon":5.37563,"is_reserved":false,"is_disabled":false,"rental_uris":{"android":"levelo://app?vid=6d8fdb8a-5ecd-4c4a-a296-183c4836506e","ios":"levelo://app?vid=6d8fdb8a-5ecd-4c4a-a296-183c4836506e"},"vehicle_type_id":"4","last_reported":1752836987,"current_range_meters":22800,"station_id":"ce4bh692rcd13ifvqe90","pricing_plan_id":"cebpf4jnsgd1na2vs0mg"},{"bike_id":"db6082c9-fd3d-440f-b102-ba0374c47f35","system_id":"levelo_inurba_marseille","lat":43.30378,"lon":5.42495,"is_reserved":false,"is_disabled":false,"rental_uris":{"android":"levelo://app?vid=db6082c9-fd3d-440f-b102-ba0374c47f35","ios":"levelo://app?vid=db6082c9-fd3d-440f-b102-ba0374c47f35"},"vehicle_type_id":"4","last_reported":1752836987,"current_range_meters":22800,"station_id":"ce4bhoh2rcd13ifvqh6g","pricing_plan_id":"cebpf4jnsgd1na2vs0mg"},{"bike_id":"def684fe-5ae6-4eaf-af4f-a8755d3dab4f","system_id":"levelo_inurba_marseille","lat":43.284718,"lon":5.384179,"is_reserved":false,"is_disabled":false,"rental_uris":{"android":"levelo://app?vid=def684fe-5ae6-4eaf-af4f-a8755d3dab4f","ios":"levelo://app?vid=def684fe-5ae6-4eaf-af4f-a8755d3dab4f"},"vehicle_type_id":"4","last_reported":1752836987,"current_range_meters":22800,"station_id":"","pricing_plan_id":"cebpf4jnsgd1na2vs0mg"},{"bike_id":"a4795ad9-c788-4afa-ac2d-1d2f4adf3f7e","system_id":"levelo_inurba_marseille","lat":43.29898,"lon":5.38902,"is_reserved":false,"is_disabled":false,"rental_uris":{"android":"levelo://app?vid=a4795ad9-c788-4afa-ac2d-1d2f4adf3f7e","ios":"levelo://app?vid=a4795ad9-c788-4afa-ac2d-1d2f4adf3f7e"},"vehicle_type_id":"4","last_reported":1752836987,"current_range_meters":22400,"station_id":"ce4bh392rcd13ifvqdl0","pricing_plan_id":"cebpf4jnsgd1na2vs0mg"},{"bike_id":"277f73ee-8db4-4a1f-9451-3cbb3954d1c3","system_id":"levelo_inurba_marseille","lat":43.28271,"lon":5.35071,"is_reserved":false,"is_disabled":false,"rental_uris":{"android":"levelo://app?vid=277f73ee-8db4-4a1f-9451-3cbb3954d1c3","ios":"levelo://app?vid=277f73ee-8db4-4a1f-9451-3cbb3954d1c3"},"vehicle_type_id":"4","last_reported":1752836987,"current_range_meters":22800,"station_id":"ce4bhbp2rcd13ifvqerg","pricing_plan_id":"cebpf4jnsgd1na2vs0mg"},{"bike_id":"a6b2eb04-3682-41c3-af97-7c95e3ceb17b","system_id":"levelo_inurba_marseille","lat":43.30413,"lon":5.4128,"is_reserved":false,"is_disabled":false,"rental_uris":{"android":"levelo://app?vid=a6b2eb04-3682-41c3-af97-7c95e3ceb17b","ios":"levelo://app?vid=a6b2eb04-3682-41c3-af97-7c95e3ceb17b"},"vehicle_type_id":"4","last_reported":1752836987,"current_range_meters":22800,"station_id":"ce4bhop2rcd13ifvqh8g","pricing_plan_id":"cebpf4jnsgd1na2vs0mg"},{"bike_id":"7b0f6482-f94c-49b9-84b2-6435003ade55","system_id":"levelo_inurba_marseille","lat":43.28625,"lon":5.35109,"is_reserved":false,"is_disabled":false,"rental_uris":{"android":"levelo://app?vid=7b0f6482-f94c-49b9-84b2-6435003ade55","ios":"levelo://app?vid=7b0f6482-f94c-49b9-84b2-6435003ade55"},"vehicle_type_id":"4","last_reported":1752836987,"current_range_meters":22800,"station_id":"ce4bhch2rcd13ifvqeug","pricing_plan_id":"cebpf4jnsgd1na2vs0mg"},{"bike_id":"95b5bcfa-54af-48c0-bd18-8f73f959ce2b","system_id":"levelo_inurba_marseille","lat":43.31935,"lon":5.37313,"is_reserved":false,"is_disabled":false,"rental_uris":{"android":"levelo://app?vid=95b5bcfa-54af-48c0-bd18-8f73f959ce2b","ios":"levelo://app?vid=95b5bcfa-54af-48c0-bd18-8f73f959ce2b"},"vehicle_type_id":"4","last_reported":1752836987,"current_range_meters":22800,"station_id":"","pricing_plan_id":"cebpf4jnsgd1na2vs0mg"},{"bike_id":"499bd19e-983c-4e25-8d16-18a24001edbb","system_id":"levelo_inurba_marseille","lat":43.26757,"lon":5.39889,"is_reserved":false,"is_disabled":false,"rental_uris":{"android":"levelo://app?vid=499bd19e-983c-4e25-8d16-18a24001edbb","ios":"levelo://app?vid=499bd19e-983c-4e25-8d16-18a24001edbb"},"vehicle_type_id":"4","last_reported":1752836987,"current_range_meters":22800,"station_id":"","pricing_plan_id":"cebpf4jnsgd1na2vs0mg"},{"bike_id":"1dfd9a97-4b4b-40a5-9341-f43e84efa447","system_id":"levelo_inurba_marseille","lat":43.30471,"lon":5.3791,"is_reserved":false,"is_disabled":false,"rental_uris":{"android":"levelo://app?vid=1dfd9a97-4b4b-40a5-9341-f43e84efa447","ios":"levelo://app?vid=1dfd9a97-4b4b-40a5-9341-f43e84efa447"},"vehicle_type_id":"4","last_reported":1752836987,"current_range_meters":22800,"station_id":"ce4bgup2rcd13ifvqcn0","pricing_plan_id":"cebpf4jnsgd1na2vs0mg"},