{"last_updated":1729854498,"ttl":60,"version":"2.2","data":{"bikes":[{"bike_id":"b26becba-408d-4c6b-899d-9ed83ab1d8c2","system_id":"levelo_inurba_marseille","lat":43.28459,"lon":5.35888,"is_reserved":false,"is_disabled":false,"rental_uris":{"android":"levelo://app?vid=b26becba-408d-4c6b-899d-9ed83ab1d8c2","ios":"levelo://app?vid=b26becba-408d-4c6b-899d-9ed83ab1d8c2"},"vehicle_type_id":"4","last_reported":1729854498,"current_range_meters":2800,"station_id":"ce4bhah2rcd13ifvqei0","pricing_plan_id":"cebpf4jnsgd1na2vs0mg"},{"bike_id":"f0e60227-485c-4325-a605-4b3e5abc339d","system_id":"levelo_inurba_marseille","lat":43.31227,"lon":5.36855,"is_reserved":false,"is_disabled":false,"rental_uris":{"android":"levelo://app?vid=f0e60227-485c-4325-a605-4b3e5abc339d","ios":"levelo://app?vid=f0e60227-485c-4325-a605-4b3e5abc339d"},"vehicle_type_id":"4","last_reported":1729854498,"current_range_meters":4800,"station_id":"ce4bgl92rcd13ifvqbq0","pricing_plan_id":"cebpf4jnsgd1na2vs0mg"},{"bike_id":"f6889a90-227e-48b2-b580-a78b4e9afea0","system_id":"levelo_inurba_marseille","lat":43.27375,"lon":5.36252,"is_reserved":false,"is_disabled":false,"rental_uris":{"android":"levelo://app?vid=f6889a90-227e-48b2-b580-a78b4e9afea0","ios":"levelo://app?vid=f6889a90-227e-48b2-b580-a78b4e9afea0"},"vehicle_type_id":"4","last_reported":1729854498,"current_range_meters":2000,"station_id":"ce4bhbh2rcd13ifvqeo0","pricing_plan_id":"cebpf4jnsgd1na2vs0mg"},{"bike_id":"d227bc31-1306-40f7-9ee1-53a5dc14a10d","system_id":"levelo_inurba_marseille","lat":43.2621,"lon":5.37444,"is_reserved":false,"is_disabled":false,"rental_uris":{"android":"levelo://app?vid=d227bc31-1306-40f7-9ee1-53a5dc14a10d","ios":"levelo://app?vid=d227bc31-1306-40f7-9ee1-53a5dc14a10d"},"vehicle_type_id":"4","last_reported":1729854498,"current_range_meters":38800,"station_id":"ce4bhgp2rcd13ifvqfc0","pricing_plan_id":"cebpf4jnsgd1na2vs0mg"},{"bike_id":"65ea6052-c3bf-48e1-87bf-af9b6259ddfa","system_id":"levelo_inurba_marseille","lat":43.28417,"lon":5.34981,"is_reserved":false,"is_disabled":false,"rental_uris":{"android":"levelo://app?vid=65ea6052-c3bf-48e1-87bf-af9b6259ddfa","ios":"levelo://app?vid=65ea6052-c3bf-48e1-87bf-af9b6259ddfa"},"vehicle_type_id":"4","last_reported":1729854498,"current_range_meters":2800,"station_id":"ce4bhbh2rcd13ifvqepg","pricing_plan_id":"cebpf4jnsgd1na2vs0mg"},{"bike_id":"0305f07b-3d86-40ef-b6b1-15fef9ab5479","system_id":"levelo_inurba_marseille","lat":43.23963,"lon":5.36627,"is_reserved":false,"is_disabled":false,"rental_uris":{"android":"levelo://app?vid=0305f07b-3d86-40ef-b6b1-15fef9ab5479","ios":"levelo://app?vid=0305f07b-3d86-40ef-b6b1-15fef9ab5479"},"vehicle_type_id":"4","last_reported":1729854498,"current_range_meters":35600,"station_id":"ce4bhi12rcd13ifvqfp0","pricing_plan_id":"cebpf4jnsgd1na2vs0mg"},{"bike_id":"65846a0d-9c45-4a2c-b681-0230636f0681","system_id":"levelo_inurba_marseille","lat":43.29366,"lon":5.37845,"is_reserved":false,"is_disabled":false,"rental_uris":{"android":"levelo://app?vid=65846a0d-9c45-4a2c-b681-0230636f0681","ios":"levelo://app?vid=65846a0d-9c45-4a2c-b681-0230636f0681"},"vehicle_type_id":"4","last_reported":1729854498,"current_range_meters":38000,"station_id":"ce4bgjh2rcd13ifvqbf0","pricing_plan_id":"cebpf4jnsgd1na2vs0mg"},{"bike_id":"13c43b8d-ffa7-491f-b40e-bff24fee7eb8","system_id":"levelo_inurba_marseille","lat":43.29257,"lon":5.38451,"is_reserved":false,"is_disabled":false,"rental_uris":{"android":"levelo://app?vid=13c43b8d-ffa7-491f-b40e-bff24fee7eb8","ios":"levelo://app?vid=13c43b8d-ffa7-491f-b40e-bff24fee7eb8"},"vehicle_type_id":"4","last_reported":1729854498,"current_range_meters":30800,"station_id":"ce4bh692rcd13ifvqea0","pricing_plan_id":"cebpf4jnsgd1na2vs0mg"},{"bike_id":"5dbd4e97-606f-4b8b-af2c-f584021ff0f2","system_id":"levelo_inurba_marseille","lat":43.29843,"lon":5.36271,"is_reserved":false,"is_disabled":false,"rental_uris":{"android":"levelo://app?vid=5dbd4e97-606f-4b8b-af2c-f584021ff0f2","ios":"levelo://app?vid=5dbd4e97-606f-4b8b-af2c-f584021ff0f2"},"vehicle_type_id":"4","last_reported":1729854498,"current_range_meters":38800,"station_id":"ce4bgpp2rcd13ifvqc3g","pricing_plan_id":"cebpf4jnsgd1na2vs0mg"},{"bike_id":"17cc3263-8d87-4e65-91ba-1ec1f501875b","system_id":"levelo_inurba_marseille","lat":43.2985,"lon":5.36287,"is_reserved":false,"is_disabled":false,"rental_uris":{"android":"levelo://app?vid=17cc3263-8d87-4e65-91ba-1ec1f501875b","ios":"levelo://app?vid=17cc3263-8d87-4e65-91ba-1ec1f501875b"},"vehicle_type_id":"4","last_reported":1729854498,"current_range_meters":38000,"station_id":"ce4bgpp2rcd13ifvqc3g","pricing_plan_id":"cebpf4jnsgd1na2vs0mg"},{"bike_id":"306b2ea7-9316-4329-855b-a3e26ca327bd","system_id":"levelo_inurba_marseille","lat":43.2757,"lon":5.38409,"is_reserved":false,"is_disabled":false,"rental_uris":{"android":"levelo://app?vid=306b2ea7-9316-4329-855b-a3e26ca327bd","ios":"levelo://app?vid=306b2ea7-9316-4329-855b-a3e26ca327bd"},"vehicle_type_id":"4","last_reported":1729854498,"current_range_meters":9200,"station_id":"ce4bhh92rcd13ifvqfi0","pricing_plan_id":"cebpf4jnsgd1na2vs0mg"},{"bike_id":"ec42d640-b1ce-4853-9bf3-e5b4f690085c","system_id":"levelo_inurba_marseille","lat":43.29784,"lon":5.37094,"is_reserved":false,"is_disabled":false,"rental_uris":{"android":"levelo://app?vid=ec42d640-b1ce-4853-9bf3-e5b4f690085c","ios":"levelo://app?vid=ec42d640-b1ce-4853-9bf3-e5b4f690085c"},"vehicle_type_id":"4","last_reported":1729854498,"current_range_meters":37600,"station_id":"ce4bgop2rcd13ifvqc1g","pricing_plan_id":"cebpf4jnsgd1na2vs0mg"},{"bike_id":"71ea47f3-653d-4f00-abfb-61856e11b6e1","system_id":"levelo_inurba_marseille","lat":43.30606,"lon":5.37215,"is_reserved":false,"is_disabled":false,"rental_uris":{"android":"levelo://app?vid=71ea47f3-653d-4f00-abfb-61856e11b6e1","ios":"levelo://app?vid=71ea47f3-653d-4f00-abfb-61856e11b6e1"},"vehicle_type_id":"4","last_reported":1729854498,"current_range_meters":24000,"station_id":"ce4bgqh2rcd13ifvqc4g","pricing_plan_id":"cebpf4jnsgd1na2vs0mg"},{"bike_id":"c7bd9ff5-6d8b-4a07-b8c5-98b9b11bf05b","system_id":"levelo_inurba_marseille","lat":43.28154,"lon":5.42648,"is_reserved":false,"is_disabled":false,"rental_uris":{"android":"levelo://app?vid=c7bd9ff5-6d8b-4a07-b8c5-98b9b11bf05b","ios":"levelo://app?vid=c7bd9ff5-6d8b-4a07-b8c5-98b9b11bf05b"},"vehicle_type_id":"4","last_reported":1729854498,"current_range_meters":32000,"station_id":"ce4bhnh2rcd13ifvqgug","pricing_plan_id":"cebpf4jnsgd1na2vs0mg"},{"bike_id":"606a0a9f-39b1-4893-a64f-c13dd2ae381e","system_id":"levelo_inurba_marseille","lat":43.31231,"lon":5.36864,"is_reserved":false,"is_disabled":false,"rental_uris":{"android":"levelo://app?vid=606a0a9f-39b1-4893-a64f-c13dd2ae381e","ios":"levelo://app?vid=606a0a9f-39b1-4893-a64f-c13dd2ae381e"},"vehicle_type_id":"4","last_reported":1729854498,"current_range_meters":21600,"station_id":"ce4bgl92rcd13ifvqbq0","pricing_plan_id":"cebpf4jnsgd1na2vs0mg"},{"bike_id":"26b9e837-5b91-41a1-ad8f-50c0e2155aef","system_id":"levelo_inurba_marseille","lat":43.29581,"lon":5.36745,"is_reserved":false,"is_disabled":false,"rental_uris":{"android":"levelo://app?vid=26b9e837-5b91-41a1-ad8f-50c0e2155aef","ios":"levelo://app?vid=26b9e837-5b91-41a1-ad8f-50c0e2155aef"},"vehicle_type_id":"4","last_reported":1729854498,"current_range_meters":32400,"station_id":"ce4bgph2rcd13ifvqc2g","pricing_plan_id":"cebpf4jnsgd1na2vs0mg"},{"bike_id":"eeb63546-6c25-4b1b-b0f8-e0c3402c67fa","system_id":"levelo_inurba_marseille","lat":43.27816,"lon":5.40712,"is_reserved":false,"is_disabled":false,"rental_uris":{"android":"levelo://app?vid=eeb63546-6c25-4b1b-b0f8-e0c3402c67fa","ios":"levelo://app?vid=eeb63546-6c25-4b1b-b0f8-e0c3402c67fa"},"vehicle_type_id":"4","last_reported":1729854498,"current_range_meters":24400,"station_id":"ce4bhnh2rcd13ifvqgtg","pricing_plan_id":"cebpf4jnsgd1na2vs0mg"},{"bike_id":"c2cd772d-a89a-45c5-804b-deed79417483","system_id":"levelo_inurba_marseille","lat":43.30465,"lon":5.37899,"is_reserved":false,"is_disabled":false,"rental_uris":{"android":"levelo://app?vid=c2cd772d-a89a-45c5-804b-deed79417483","ios":"levelo://app?vid=c2cd772d-a89a-45c5-804b-deed79417483"},"vehicle_type_id":"4","last_reported":1729854498,"current_range_meters":38000,"station_id":"ce4bgup2rcd13ifvqcn0","pricing_plan_id":"cebpf4jnsgd1na2vs0mg"},{"bike_id":"e130cf78-8420-42ef-935c-589ad91611cf","system_id":"levelo_inurba_marseille","lat":43.32656,"lon":5.40987,"is_reserved":false,"is_disabled":false,"rental_uris":{"android":"levelo://app?vid=e130cf78-8420-42ef-935c-589ad91611cf","ios":"levelo://app?vid=e130cf78-8420-42ef-935c-589ad91611cf"},"vehicle_type_id":"4","last_reported":1729854498,"current_range_meters":39200,"station_id":"ce4bhpp2rcd13ifvqhgg","pricing_plan_id":"cebpf4jnsgd1na2vs0mg"},{"bike_id":"83b93c0d-fd1e-413e-9772-9048be31d163","system_id":"levelo_inurba_marseille","lat":43.31702,"lon":5.3774,"is_reserved":false,"is_disabled":false,"rental_uris":{"android":"levelo://app?vid=83b93c0d-fd1e-413e-9772-9048be31d163","ios":"levelo://app?vid=83b93c0d-fd1e-413e-9772-9048be31d163"},"vehicle_type_id":"4","last_reported":1729854498,"current_range_meters":38400,"station_id":"ce4bgth2rcd13ifvqch0","pricing_plan_id":"cebpf4jnsgd1na2vs0mg"},{"bike_id":"b96e5ad2-6170-42fb-96e0-dfa4b1b1b3d8","system_id":"levelo_inurba_marseille","lat":43.30335,"lon":5.40431,"is_reserved":false,"is_disabled":false,"rental_uris":{"android":"levelo://app?vid=b96e5ad2-6170-42fb-96e0-dfa4b1b1b3d8","ios":"levelo://app?vid=b96e5ad2-6170-42fb-96e0-dfa4b1b1b3d8"},"vehicle_type_id":"4","last_reported":1729854498,"current_range_meters":4400,"station_id":"ce4bh012rcd13ifvqd10","pricing_plan_id":"cebpf4jnsgd1na2vs0mg"},{"bike_id":"784dd773-f509-4455-843a-8e8b8177e5e1","system_id":"levelo_inurba_marseille","lat":43.31707,"lon":5.3774,"is_reserved":false,"is_disabled":false,"rental_uris":{"android":"levelo://app?vid=784dd773-f509-4455-843a-8e8b8177e5e1","ios":"levelo://app?vid=784dd773-f509-4455-843a-8e8b8177e5e1"},"vehicle_type_id":"4","last_reported":1729854498,"current_range_meters":38800,"station_id":"ce4bgth2rcd13ifvqch0","pricing_plan_id":"cebpf4jnsgd1na2vs0mg"},{"bike_id":"477a05e3-ff20-4d77-9014-d23eaf544f51","system_id":"levelo_inurba_marseille","lat":43.30534,"lon":5.36534,"is_reserved":false,"is_disabled":false,"rental_uris":{"android":"levelo://app?vid=477a05e3-ff20-4d77-9014-d23eaf544f51","ios":"levelo://app?vid=477a05e3-ff20-4d77-9014-d23eaf544f51"},"vehicle_type_id":"4","last_reported":1729854498,"current_range_meters":38800,"station_id":"ce4bgs12rcd13ifvqcag","pricing_plan_id":"cebpf4jnsgd1na2vs0mg"},{"bike_id":"4d560569-a164-411b-ae2a-c884e3d1bdb4","system_id":"levelo_inurba_marseille","lat":43.31489,"lon":5.37308,"is_reserved":false,"is_disabled":false,"rental_uris":{"android":"levelo://app?vid=4d560569-a164-411b-ae2a-c884e3d1bdb4","ios":"levelo://app?vid=4d560569-a164-411b-ae2a-c884e3d1bdb4"},"vehicle_type_id":"4","last_reported":1729854498,"current_range_meters":22800,"station_id":"ce4bgt12rcd13ifvqcd0","pricing_plan_id":"cebpf4jnsgd1na2vs0mg"},{"bike_id":"91b8c862-3f62-4df1-9e54-fa2f551617f3","system_id":"levelo_inurba_marseille","lat":43.2621,"lon":5.37442,"is_reserved":false,"is_disabled":false,"rental_uris":{"android":"levelo://app?vid=91b8c862-3f62-4df1-9e54-fa2f551617f3","ios":"levelo://app?vid=91b8c862-3f62-4df1-9e54-fa2f551617f3"},"vehicle_type_id":"4","last_reported":1729854498,"current_range_meters":36800,"station_id":"ce4bhgp2rcd13ifvqfc0","pricing_plan_id":"cebpf4jnsgd1na2vs0mg"},{"bike_id":"b5280a4e-5993-4f8e-83ef-b79f0bc022bd","system_id":"levelo_inurba_marseille","lat":43.24649,"lon":5.38882,"is_reserved":false,"is_disabled":false,"rental_uris":{"android":"levelo://app?vid=b5280a4e-5993-4f8e-83ef-b79f0bc022bd","ios":"levelo://app?vid=b5280a4e-5993-4f8e-83ef-b79f0bc022bd"},"vehicle_type_id":"4","last_reported":1729854498,"current_range_meters":8400,"station_id":"ce4bhg12rcd13ifvqf60","pricing_plan_id":"cebpf4jnsgd1na2vs0mg"},{"bike_id":"bdd8ff7c-fd85-48f5-ba32-460bcd604075","system_id":"levelo_inurba_marseille","lat":43.29227,"lon":5.36072,"is_reserved":false,"is_disabled":false,"rental_uris":{"android":"levelo://app?vid=bdd8ff7c-fd85-48f5-ba32-460bcd604075","ios":"levelo://app?vid=bdd8ff7c-fd85-48f5-ba32-460bcd604075"},"vehicle_type_id":"4","last_reported":1729854498,"current_range_meters":24400,"station_id":"ce4bhbh2rcd13ifvqeqg","pricing_plan_id":"cebpf4jnsgd1na2vs0mg"},{"bike_id":"7969dd37-faf1-43ba-9922-f50db8b11586","system_id":"levelo_inurba_marseille","lat":43.32477,"lon":5.36572,"is_reserved":false,"is_disabled":false,"rental_uris":{"android":"levelo://app?vid=7969dd37-faf1-43ba-9922-f50db8b11586","ios":"levelo://app?vid=7969dd37-faf1-43ba-9922-f50db8b11586"},"vehicle_type_id":"4","last_reported":1729854498,"current_range_meters":22000,"station_id":"ce4bhs12rcd13ifvqhvg","pricing_plan_id":"cebpf4jnsgd1na2vs0mg"},{"bike_id":"a3c8b941-730e-478f-ae5c-ade3509a1344","system_id":"levelo_inurba_marseille","lat":43.23152,"lon":5.437173,"is_reserved":false,"is_disabled":false,"rental_uris":{"android":"levelo://app?vid=a3c8b941-730e-478f-ae5c-ade3509a1344","ios":"levelo://app?vid=a3c8b941-730e-478f-ae5c-ade3509a1344"},"vehicle_type_id":"4","last_reported":1729854498,"current_range_meters":22800,"station_id":"ce4bhmp2rcd13ifvqgog","pricing_plan_id":"cebpf4jnsgd1na2vs0mg"},{"bike_id":"46e85f9c-1bad-4940-8580-20c0eeba5600","system_id":"levelo_inurba_marseille","lat":43.32338,"lon":5.4062,"is_reserved":false,"is_disabled":false,"rental_uris":{"android":"levelo://app?vid=46e85f9c-1bad-4940-8580-20c0eeba5600","ios":"levelo://app?vid=46e85f9c-1bad-4940-8580-20c0eeba5600"},"vehicle_type_id":"4","last_reported":1729854498,"current_range_meters":36800,"station_id":"ce4bhq92rcd13ifvqhjg","pricing_plan_id":"cebpf4jnsgd1na2vs0mg"},{"bike_id":"3b8fddf8-31a7-40d0-a1eb-aa565a9717d9","system_id":"levelo_inurba_marseille","lat":43.27171,"lon":5.40989,"is_reserved":false,"is_disabled":false,"rental_uris":{"android":"levelo://app?vid=3b8fddf8-31a7-40d0-a1eb-aa565a9717d9","ios":"levelo://app?vid=3b8fddf8-31a7-40d0-a1eb-aa565a9717d9"},"vehicle_type_id":"4","last_reported":1729854498,"current_range_meters":38000,"station_id":"ce4bhl12rcd13ifvqgf0","pricing_plan_id":"cebpf4jnsgd1na2vs0mg"},{"bike_id":"3263d8af-9310-4682-954e-d8ed34eb8db0","system_id":"levelo_inurba_marseille","lat":43.281,"lon":5.37854,"is_reserved":false,"is_disabled":false,"rental_uris":{"android":"levelo://app?vid=3263d8af-9310-4682-954e-d8ed34eb8db0","ios":"levelo://app?vid=3263d8af-9310-4682-954e-d8ed34eb8db0"},"vehicle_type_id":"4","last_reported":1729854498,"current_range_meters":38800,"station_id":"ce4bha12rcd13ifvqee0","pricing_plan_id":"cebpf4jnsgd1na2vs0mg"},{"bike_id":"d8c777a5-ff2f-4acd-9afb-ab01807654a6","system_id":"levelo_inurba_marseille","lat":43.30888,"lon":5.37188,"is_reserved":false,"is_disabled":false,"rental_uris":{"android":"levelo://app?vid=d8c777a5-ff2f-4acd-9afb-ab01807654a6","ios":"levelo://app?vid=d8c777a5-ff2f-4acd-9afb-ab01807654a6"},"vehicle_type_id":"4","last_reported":1729854498,"current_range_meters":38800,"station_id":"ce4bguh2rcd13ifvqckg","pricing_plan_id":"cebpf4jnsgd1na2vs0mg"},{"bike_id":"00e9b183-3bbe-4d20-babe-08ea608f4fa5","system_id":"levelo_inurba_marseille","lat":43.3205,"lon":5.4153,"is_reserved":false,"is_disabled":false,"rental_uris":{"android":"levelo://app?vid=00e9b183-3bbe-4d20-babe-08ea608f4fa5","ios":"levelo://app?vid=00e9b183-3bbe-4d20-babe-08ea608f4fa5"},"vehicle_type_id":"4","last_reported":1729854498,"current_range_meters":16400,"station_id":"ce4bhq92rcd13ifvqhkg","pricing_plan_id":"cebpf4jnsgd1na2vs0mg"},{"bike_id":"97ce6431-cdfe-4c86-8575-534875aed7f5","system_id":"levelo_inurba_marseille","lat":43.3053,"lon":5.36659,"is_reserved":false,"is_disabled":false,"rental_uris":{"android":"levelo://app?vid=97ce6431-cdfe-4c86-8575-534875aed7f5","ios":"levelo://app?vid=97ce6431-cdfe-4c86-8575-534875aed7f5"},"vehicle_type_id":"4","last_reported":1729854498,"current_range_meters":3200,"station_id":"","pricing_plan_id":"cebpf4jnsgd1na2vs0mg"},{"bike_id":"ddf1220d-b7b8-47ef-b02e-eb813f8e3275","system_id":"levelo_inurba_marseille","lat":43.30356,"lon":5.41876,"is_reserved":false,"is_disabled":false,"rental_uris":{"android":"levelo://app?vid=ddf1220d-b7b8-47ef-b02e-eb813f8e3275","ios":"levelo://app?vid=ddf1220d-b7b8-47ef-b02e-eb813f8e3275"},"vehicle_type_id":"4","last_reported":1729854498,"current_range_meters":38800,"station_id":"ce4bhop2rcd13ifvqh7g","pricing_plan_id":"cebpf4jnsgd1na2vs0mg"},{"bike_id":"a218d3bf-6966-4027-8491-6cfa91298b46","system_id":"levelo_inurba_marseille","lat":43.3055,"lon":5.36542,"is_reserved":false,"is_disabled":false,"rental_uris":{"android":"levelo://app?vid=a218d3bf-6966-4027-8491-6cfa91298b46","ios":"levelo://app?vid=a218d3bf-6966-4027-8491-6cfa91298b46"},"vehicle_type_id":"4","last_reported":1729854498,"current_range_meters":30800,"station_id":"ce4bgs12rcd13ifvqcag","pricing_plan_id":"cebpf4jnsgd1na2vs0mg"},{"bike_id":"7402b623-c097-44ef-9305-adaad9aacce3","system_id":"levelo_inurba_marseille","lat":43.27816,"lon":5.40718,"is_reserved":false,"is_disabled":false,"rental_uris":{"android":"levelo://app?vid=7402b623-c097-44ef-9305-adaad9aacce3","ios":"levelo://app?vid=7402b623-c097-44ef-9305-adaad9aacce3"},"vehicle_type_id":"4","last_reported":1729854498,"current_range_meters":28400,"station_id":"ce4bhnh2rcd13ifvqgtg","pricing_plan_id":"cebpf4jnsgd1na2vs0mg"},{"bike_id":"5861e0c6-45d8-420f-96b4-076eb4ea4be9","system_id":"levelo_inurba_marseille","lat":43.247815,"lon":5.40067,"is_reserved":false,"is_disabled":false,"rental_uris":{"android":"levelo://app?vid=5861e0c6-45d8-420f-96b4-076eb4ea4be9","ios":"levelo://app?vid=5861e0c6-45d8-420f-96b4-076eb4ea4be9"},"vehicle_type_id":"4","last_reported":1729854498,"current_range_meters":36800,"station_id":"","pricing_plan_id":"cebpf4jnsgd1na2vs0mg"},{"bike_id":"c7136736-6c6b-48b4-8789-a836689aec7d","system_id":"levelo_inurba_marseille","lat":43.336121,"lon":5.410364,"is_reserved":false,"is_disabled":false,"rental_uris":{"android":"levelo://app?vid=c7136736-6c6b-48b4-8789-a836689aec7d","ios":"levelo://app?vid=c7136736-6c6b-48b4-8789-a836689aec7d"},"vehicle_type_id":"4","last_reported":1729854498,"current_range_meters":14800,"station_id":"ce4bhqh2rcd13ifvqhmg","pricing_plan_id":"cebpf4jnsgd1na2vs0mg"},{"bike_id":"914f0f9a-8742-42ce-8150-682312e03291","system_id":"levelo_inurba_marseille","lat":43.25824,"lon":5.39435,"is_reserved":false,"is_disabled":false,"rental_uris":{"android":"levelo://app?vid=914f0f9a-8742-42ce-8150-682312e03291","ios":"levelo://app?vid=914f0f9a-8742-42ce-8150-682312e03291"},"vehicle_type_id":"4","last_reported":1729854498,"current_range_meters":27200,"station_id":"ce4bhip2rcd13ifvqft0","pricing_plan_id":"cebpf4jnsgd1na2vs0mg"},{"bike_id":"c47ee947-2909-41a5-bbe0-603cbb5c8694","system_id":"levelo_inurba_marseille","lat":43.27951,"lon":5.41048,"is_reserved":false,"is_disabled":false,"rental_uris":{"android":"levelo://app?vid=c47ee947-2909-41a5-bbe0-603cbb5c8694","ios":"levelo://app?vid=c47ee947-2909-41a5-bbe0-603cbb5c8694"},"vehicle_type_id":"4","last_reported":1729854498,"current_range_meters":11600,"station_id":"ce4bhnp2rcd13ifvqh0g","pricing_plan_id":"cebpf4jnsgd1na2vs0mg"},{"bike_id":"8486fe9d-9ef0-4e60-ba73-6eb6a17c52a8","system_id":"levelo_inurba_marseille","lat":43.315667,"lon":5.405697,"is_reserved":false,"is_disabled":false,"rental_uris":{"android":"levelo://app?vid=8486fe9d-9ef0-4e60-ba73-6eb6a17c52a8","ios":"levelo://app?vid=8486fe9d-9ef0-4e60-ba73-6eb6a17c52a8"},"vehicle_type_id":"4","last_reported":1729854498,"current_range_meters":9200,"station_id":"","pricing_plan_id":"cebpf4jnsgd1na2vs0mg"},{"bike_id":"172208e9-70cd-4b52-b8b5-db9312e32f6a","system_id":"levelo_inurba_marseille","lat":43.24545,"lon":5.39521,"is_reserved":false,"is_disabled":false,"rental_uris":{"android":"levelo://app?vid=172208e9-70cd-4b52-b8b5-db9312e32f6a","ios":"levelo://app?vid=172208e9-70cd-4b52-b8b5-db9312e32f6a"},"vehicle_type_id":"4","last_reported":1729854498,"current_range_meters":25600,"station_id":"ce4bhlp2rcd13ifvqgjg","pricing_plan_id":"cebpf4jnsgd1na2vs0mg"},{"bike_id":"ec0d691e-b85d-4e3a-aa9a-5105477bf0fc","system_id":"levelo_inurba_marseille","lat":43.29183,"lon":5.35799,"is_reserved":false,"is_disabled":false,"rental_uris":{"android":"levelo://app?vid=ec0d691e-b85d-4e3a-aa9a-5105477bf0fc","ios":"levelo://app?vid=ec0d691e-b85d-4e3a-aa9a-5105477bf0fc"},"vehicle_type_id":"4","last_reported":1729854498,"current_range_meters":25600,"station_id":"ce4bhb12rcd13ifvqel0","pricing_plan_id":"cebpf4jnsgd1na2vs0mg"},{"bike_id":"7c911ca5-1694-4d8e-abd5-b2c07520be01","system_id":"levelo_inurba_marseille","lat":43.28151,"lon":5.42632,"is_reserved":false,"is_disabled":false,"rental_uris":{"android":"levelo://app?vid=7c911ca5-1694-4d8e-abd5-b2c07520be01","ios":"levelo://app?vid=7c911ca5-1694-4d8e-abd5-b2c07520be01"},"vehicle_type_id":"4","last_reported":1729854498,"current_range_meters":12400,"station_id":"ce4bhnh2rcd13ifvqgug","pricing_plan_id":"cebpf4jnsgd1na2vs0mg"},{"bike_id":"222f03e8-7565-49de-b148-fe24b12bb6fe","system_id":"levelo_inurba_marseille","lat":43.27314,"lon":5.39091,"is_reserved":false,"is_disabled":false,"rental_uris":{"android":"levelo://app?vid=222f03e8-7565-49de-b148-fe24b12bb6fe","ios":"levelo://app?vid=222f03e8-7565-49de-b148-fe24b12bb6fe"},"vehicle_type_id":"4","last_reported":1729854498,"current_range_meters":25600,"station_id":"ce4bhgp2rcd13ifvqfe0","pricing_plan_id":"cebpf4jnsgd1na2vs0mg"},{"bike_id":"e3ee5f84-4d74-4ce5-9540-764d9f311735","system_id":"levelo_inurba_marseille","lat":43.30287,"lon":5.37698,"is_reserved":false,"is_disabled":false,"rental_uris":{"android":"levelo://app?vid=e3ee5f84-4d74-4ce5-9540-764d9f311735","ios":"levelo://app?vid=e3ee5f84-4d74-4ce5-9540-764d9f311735"},"vehicle_type_id":"4","last_reported":1729854498,"current_range_meters":28400,"station_id":"ce4bguh2rcd13ifvqcj0","pricing_plan_id":"cebpf4jnsgd1na2vs0mg"},{"bike_id":"55f31542-79d5-4876-8508-e9985cb2a203","system_id":"levelo_inurba_marseille","lat":43.28427,"lon":5.34975,"is_reserved":false,"is_disabled":false,"rental_uris":{"android":"levelo://app?vid=55f31542-79d5-4876-8508-e9985cb2a203","ios":"levelo://app?vid=55f31542-79d5-4876-8508-e9985cb2a203"},"vehicle_type_id":"4","last_reported":1729854498,"current_range_meters":31200,"station_id":"ce4bhbh2rcd13ifvqepg","pricing_plan_id":"cebpf4jnsgd1na2vs0mg"},{"bike_id":"715745bc-065e-4943-a31b-5124914d687d","system_id":"levelo_inurba_marseille","lat":43.30552,"lon":5.36551,"is_reserved":false,"is_disabled":false,"rental_uris":{"android":"levelo://app?vid=715745bc-065e-4943-a31b-5124914d687d","ios":"levelo://app?vid=715745bc-065e-4943-a31b-5124914d687d"},"vehicle_type_id":"4","last_reported":1729854498,"current_range_meters":38800,"station_id":"ce4bgs12rcd13ifvqcag","pricing_plan_id":"cebpf4jnsgd1na2vs0mg"},{"bike_id":"83f1afd1-5a5f-4a6c-9b5f-b8e93cc8874f","system_id":"levelo_inurba_marseille","lat":43.23187,"lon":5.3998,"is_reserved":false,"is_disabled":false,"rental_uris":{"android":"levelo://app?vid=83f1afd1-5a5f-4a6c-9b5f-b8e93cc8874f","ios":"levelo://app?vid=83f1afd1-5a5f-4a6c-9b5f-b8e93cc8874f"},"vehicle_type_id":"4","last_reported":1729854498,"current_range_meters":16400,"station_id":"ce4bhn12rcd13ifvqgqg","pricing_plan_id":"cebpf4jnsgd1na2vs0mg"},{"bike_id":"ca44a8a5-4afa-47fd-ad40-024074c60cce","system_id":"levelo_inurba_marseille","lat":43.30608,"lon":5.37218,"is_reserved":false,"is_disabled":false,"rental_uris":{"android":"levelo://app?vid=ca44a8a5-4afa-47fd-ad40-024074c60cce","ios":"levelo://app?vid=ca44a8a5-4afa-47fd-ad40-024074c60cce"},"vehicle_type_id":"4","last_reported":1729854498,"current_range_meters":29600,"station_id":"ce4bgqh2rcd13ifvqc4g","pricing_plan_id":"cebpf4jnsgd1na2vs0mg"},{"bike_id":"1fe7a754-88e8-464c-a31c-86bf41ad4349","system_id":"levelo_inurba_marseille","lat":43.30292,"lon":5.37695,"is_reserved":false,"is_disabled":false,"rental_uris":{"android":"levelo://app?vid=1fe7a754-88e8-464c-a31c-86bf41ad4349","ios":"levelo://app?vid=1fe7a754-88e8-464c-a31c-86bf41ad4349"},"vehicle_type_id":"4","last_reported":1729854498,"current_range_meters":22800,"station_id":"ce4bguh2rcd13ifvqcj0","pricing_plan_id":"cebpf4jnsgd1na2vs0mg"},{"bike_id":"e87bf839-8191-4ec0-98e6-d3aaab031203","system_id":"levelo_inurba_marseille","lat":43.29022,"lon":5.38125,"is_reserved":false,"is_disabled":false,"rental_uris":{"android":"levelo://app?vid=e87bf839-8191-4ec0-98e6-d3aaab031203","ios":"levelo://app?vid=e87bf839-8191-4ec0-98e6-d3aaab031203"},"vehicle_type_id":"4","last_reported":1729854498,"current_range_meters":28400,"station_id":"ce4bh4p2rcd13ifvqe1g","pricing_plan_id":"cebpf4jnsgd1na2vs0mg"},{"bike_id":"67449323-dba1-4f5f-94ad-8d67c84bea65","system_id":"levelo_inurba_marseille","lat":43.26938,"lon":5.40241,"is_reserved":false,"is_disabled":false,"rental_uris":{"android":"levelo://app?vid=67449323-dba1-4f5f-94ad-8d67c84bea65","ios":"levelo://app?vid=67449323-dba1-4f5f-94ad-8d67c84bea65"},"vehicle_type_id":"4","last_reported":1729854498,"current_range_meters":39200,"station_id":"cjm6bp8fraef2m0cb0m0","pricing_plan_id":"cebpf4jnsgd1na2vs0mg"},{"bike_id":"2f11c33a-2d96-4a66-8697-04fd04c433f4","system_id":"levelo_inurba_marseille","lat":43.30136,"lon":5.37412,"is_reserved":false,"is_disabled":false,"rental_uris":{"android":"levelo://app?vid=2f11c33a-2d96-4a66-8697-04fd04c433f4","ios":"levelo://app?vid=2f11c33a-2d96-4a66-8697-04fd04c433f4"},"vehicle_type_id":"4","last_reported":1729854498,"current_range_meters":38800,"station_id":"ce4bgs92rcd13ifvqcc0","pricing_plan_id":"cebpf4jnsgd1na2vs0mg"},{"bike_id":"455da4b8-7bd3-4921-800d-eb5ed9fc8320","system_id":"levelo_inurba_marseille","lat":43.26569,"lon":5.39007,"is_reserved":false,"is_disabled":false,"rental_uris":{"android":"levelo://app?vid=455da4b8-7bd3-4921-800d-eb5ed9fc8320","ios":"levelo://app?vid=455da4b8-7bd3-4921-800d-eb5ed9fc8320"},"vehicle_type_id":"4","last_reported":1729854498,"current_range_meters":6800,"station_id":"ce4bhe12rcd13ifvqf30","pricing_plan_id":"cebpf4jnsgd1na2vs0mg"},{"bike_id":"716b360f-9353-40b4-ad62-c3b53b661c12","system_id":"levelo_inurba_marseille","lat":43.30535,"lon":5.36701,"is_reserved":false,"is_disabled":false,"rental_uris":{"android":"levelo://app?vid=716b360f-9353-40b4-ad62-c3b53b661c12","ios":"levelo://app?vid=716b360f-9353-40b4-ad62-c3b53b661c12"},"vehicle_type_id":"4","last_reported":1729854498,"current_range_meters":38800,"station_id":"ce4bgrp2rcd13ifvqc9g","pricing_plan_id":"cebpf4jnsgd1na2vs0mg"},{"bike_id":"baac1178-6264-4714-be4f-30295c956493","system_id":"levelo_inurba_marseille","lat":43.309434,"lon":5.390398,"is_reserved":false,"is_disabled":false,"rental_uris":{"android":"levelo://app?vid=baac1178-6264-4714-be4f-30295c956493","ios":"levelo://app?vid=baac1178-6264-4714-be4f-30295c956493"},"vehicle_type_id":"4","last_reported":1729854498,"current_range_meters":40000,"station_id":"ce4bgup2rcd13ifvqco0","pricing_plan_id":"cebpf4jnsgd1na2vs0mg"},{"bike_id":"d3bbf7db-dbd7-4c37-82f1-086f96c4acff","system_id":"levelo_inurba_marseille","lat":43.30911,"lon":5.36855,"is_reserved":false,"is_disabled":false,"rental_uris":{"android":"levelo://app?vid=d3bbf7db-dbd7-4c37-82f1-086f96c4acff","ios":"levelo://app?vid=d3bbf7db-dbd7-4c37-82f1-086f96c4acff"},"vehicle_type_id":"4","last_reported":1729854498,"current_range_meters":31200,"station_id":"ce4bgn92rcd13ifvqbvg","pricing_plan_id":"cebpf4jnsgd1na2vs0mg"},{"bike_id":"7a9bebfb-3ca8-461f-9edc-3e4de00c7841","system_id":"levelo_inurba_marseille","lat":43.25581,"lon":5.38234,"is_reserved":false,"is_disabled":false,"rental_uris":{"android":"levelo://app?vid=7a9bebfb-3ca8-461f-9edc-3e4de00c7841","ios":"levelo://app?vid=7a9bebfb-3ca8-461f-9edc-3e4de00c7841"},"vehicle_type_id":"4","last_reported":1729854498,"current_range_meters":38800,"station_id":"ce4bhih2rcd13ifvqfs0","pricing_plan_id":"cebpf4jnsgd1na2vs0mg"},{"bike_id":"5197b22a-f45b-4c54-a770-b6956908d64e","system_id":"levelo_inurba_marseille","lat":43.29004,"lon":5.35623,"is_reserved":false,"is_disabled":false,"rental_uris":{"android":"levelo://app?vid=5197b22a-f45b-4c54-a770-b6956908d64e","ios":"levelo://app?vid=5197b22a-f45b-4c54-a770-b6956908d64e"},"vehicle_type_id":"4","last_reported":1729854498,"current_range_meters":38800,"station_id":"ce4bhb92rcd13ifvqen0","pricing_plan_id":"cebpf4jnsgd1na2vs0mg"},{"bike_id":"be8fbca4-3dcd-4e0e-96d2-8c570f59713c","system_id":"levelo_inurba_marseille","lat":43.3248,"lon":5.36567,"is_reserved":false,"is_disabled":false,"rental_uris":{"android":"levelo://app?vid=be8fbca4-3dcd-4e0e-96d2-8c570f59713c","ios":"levelo://app?vid=be8fbca4-3dcd-4e0e-96d2-8c570f59713c"},"vehicle_type_id":"4","last_reported":1729854498,"current_range_meters":18800,"station_id":"ce4bhs12rcd13ifvqhvg","pricing_plan_id":"cebpf4jnsgd1na2vs0mg"},{"bike_id":"2c83906e-34b2-4de1-a842-6d257980343c","system_id":"levelo_inurba_marseille","lat":43.32368,"lon":5.389,"is_reserved":false,"is_disabled":false,"rental_uris":{"android":"levelo://app?vid=2c83906e-34b2-4de1-a842-6d257980343c","ios":"levelo://app?vid=2c83906e-34b2-4de1-a842-6d257980343c"},"vehicle_type_id":"4","last_reported":1729854498,"current_range_meters":13600,"station_id":"ce4bhqp2rcd13ifvqhog","pricing_plan_id":"cebpf4jnsgd1na2vs0mg"},{"bike_id":"cf28c0ba-748d-4e8a-b8af-61e44f800fb1","system_id":"levelo_inurba_marseille","lat":43.2439,"lon":5.37065,"is_reserved":false,"is_disabled":false,"rental_uris":{"android":"levelo://app?vid=cf28c0ba-748d-4e8a-b8af-61e44f800fb1","ios":"levelo://app?vid=cf28c0ba-748d-4e8a-b8af-61e44f800fb1"},"vehicle_type_id":"4","last_reported":1729854498,"current_range_meters":4400,"station_id":"ce4bhhh2rcd13ifvqfk0","pricing_plan_id":"cebpf4jnsgd1na2vs0mg"},{"bike_id":"0978337b-52ac-4291-bcd2-c1368e3546f7","system_id":"levelo_inurba_marseille","lat":43.26939,"lon":5.38624,"is_reserved":false,"is_disabled":false,"rental_uris":{"android":"levelo://app?vid=0978337b-52ac-4291-bcd2-c1368e3546f7","ios":"levelo://app?vid=0978337b-52ac-4291-bcd2-c1368e3546f7"},"vehicle_type_id":"4","last_reported":1729854498,"current_range_meters":22000,"station_id":"ce4bhh92rcd13ifvqfh0","pricing_plan_id":"cebpf4jnsgd1na2vs0mg"},{"bike_id":"6288cad3-6351-4144-a64d-3e5dcd25dfbd","system_id":"levelo_inurba_marseille","lat":43.29027,"lon":5.39964,"is_reserved":false,"is_disabled":false,"rental_uris":{"android":"levelo://app?vid=6288cad3-6351-4144-a64d-3e5dcd25dfbd","ios":"levelo://app?vid=6288cad3-6351-4144-a64d-3e5dcd25dfbd"},"vehicle_type_id":"4","last_reported":1729854498,"current_range_meters":20400,"station_id":"ce4bh392rcd13ifvqdm0","pricing_plan_id":"cebpf4jnsgd1na2vs0mg"},{"bike_id":"82d8898e-e94c-47af-b02a-d946261e7001","system_id":"levelo_inurba_marseille","lat":43.31715,"lon":5.37758,"is_reserved":false,"is_disabled":false,"rental_uris":{"android":"levelo://app?vid=82d8898e-e94c-47af-b02a-d946261e7001","ios":"levelo://app?vid=82d8898e-e94c-47af-b02a-d946261e7001"},"vehicle_type_id":"4","last_reported":1729854498,"current_range_meters":38800,"station_id":"ce4bgth2rcd13ifvqch0","pricing_plan_id":"cebpf4jnsgd1na2vs0mg"},{"bike_id":"6f9da69e-c80a-49b0-83e7-588296c1045f","system_id":"levelo_inurba_marseille","lat":43.24996,"lon":5.38927,"is_reserved":false,"is_disabled":false,"rental_uris":{"android":"levelo://app?vid=6f9da69e-c80a-49b0-83e7-588296c1045f","ios":"levelo://app?vid=6f9da69e-c80a-49b0-83e7-588296c1045f"},"vehicle_type_id":"4","last_reported":1729854498,"current_range_meters":23200,"station_id":"ce4bhgp2rcd13ifvqfd0","pricing_plan_id":"cebpf4jnsgd1na2vs0mg"},{"bike_id":"eda20d13-c206-4b88-85e8-a17922f9a47f","system_id":"levelo_inurba_marseille","lat":43.30133,"lon":5.37399,"is_reserved":false,"is_disabled":false,"rental_uris":{"android":"levelo://app?vid=eda20d13-c206-4b88-85e8-a17922f9a47f","ios":"levelo://app?vid=eda20d13-c206-4b88-85e8-a17922f9a47f"},"vehicle_type_id":"4","last_reported":1729854498,"current_range_meters":18000,"station_id":"ce4bgs92rcd13ifvqcc0","pricing_plan_id":"cebpf4jnsgd1na2vs0mg"},{"bike_id":"e860f859-3cdb-4bc6-ae31-5dd560c8ebb3","system_id":"levelo_inurba_marseille","lat":43.30142,"lon":5.3741,"is_reserved":false,"is_disabled":false,"rental_uris":{"android":"levelo://app?vid=e860f859-3cdb-4bc6-ae31-5dd560c8ebb3","ios":"levelo://app?vid=e860f859-3cdb-4bc6-ae31-5dd560c8ebb3"},"vehicle_type_id":"4","last_reported":1729854498,"current_range_meters":25200,"station_id":"ce4bgs92rcd13ifvqcc0","pricing_plan_id":"cebpf4jnsgd1na2vs0mg"},{"bike_id":"ec517bc8-aab9-4441-9a5a-13b6295f2e39","system_id":"levelo_inurba_marseille","lat":43.22933,"lon":5.35376,"is_reserved":false,"is_disabled":false,"rental_uris":{"android":"levelo://app?vid=ec517bc8-aab9-4441-9a5a-13b6295f2e39","ios":"levelo://app?vid=ec517bc8-aab9-4441-9a5a-13b6295f2e39"},"vehicle_type_id":"4","last_reported":1729854498,"current_range_meters":19600,"station_id":"cpo3532slgdg3j2ikp40","pricing_plan_id":"cebpf4jnsgd1na2vs0mg"},{"bike_id":"d95500fb-2f36-4b62-be38-9e13d96fb812","system_id":"levelo_inurba_marseille","lat":43.26808,"lon":5.40262,"is_reserved":false,"is_disabled":false,"rental_uris":{"android":"levelo://app?vid=d95500fb-2f36-4b62-be38-9e13d96fb812","ios":"levelo://app?vid=d95500fb-2f36-4b62-be38-9e13d96fb812"},"vehicle_type_id":"4","last_reported":1729854498,"current_range_meters":25200,"station_id":"ce501612rcd8frsf0b60","pricing_plan_id":"cebpf4jnsgd1na2vs0mg"},{"bike_id":"6f820fd5-7f57-4c04-9601-efc0f344f7fa","system_id":"levelo_inurba_marseille","lat":43.290552,"lon":5.371653,"is_reserved":false,"is_disabled":false,"rental_uris":{"android":"levelo://app?vid=6f820fd5-7f57-4c04-9601-efc0f344f7fa","ios":"levelo://app?vid=6f820fd5-7f57-4c04-9601-efc0f344f7fa"},"vehicle_type_id":"4","last_reported":1729854498,"current_range_meters":38800,"station_id":"ce4bh5p2rcd13ifvqe4g","pricing_plan_id":"cebpf4jnsgd1na2vs0mg"},{"bike_id":"beacce13-cfcb-4737-a324-ad3de89dd7fd","system_id":"levelo_inurba_marseille","lat":43.25002,"lon":5.38922,"is_reserved":false,"is_disabled":false,"rental_uris":{"android":"levelo://app?vid=beacce13-cfcb-4737-a324-ad3de89dd7fd","ios":"levelo://app?vid=beacce13-cfcb-4737-a324-ad3de89dd7fd"},"vehicle_type_id":"4","last_reported":1729854498,"current_range_meters":32000,"station_id":"ce4bhgp2rcd13ifvqfd0","pricing_plan_id":"cebpf4jnsgd1na2vs0mg"},{"bike_id":"de595e9f-21d0-4d38-9ba3-3fdfbb06736b","system_id":"levelo_inurba_marseille","lat":43.2867,"lon":5.36345,"is_reserved":false,"is_disabled":false,"rental_uris":{"android":"levelo://app?vid=de595e9f-21d0-4d38-9ba3-3fdfbb06736b","ios":"levelo://app?vid=de595e9f-21d0-4d38-9ba3-3fdfbb06736b"},"vehicle_type_id":"4","last_reported":1729854498,"current_range_meters":28000,"station_id":"ce4bhah2rcd13ifvqej0","pricing_plan_id":"cebpf4jnsgd1na2vs0mg"},{"bike_id":"356c8c35-b85a-416a-8e03-c91a9f35166d","system_id":"levelo_inurba_marseille","lat":43.28044,"lon":5.36948,"is_reserved":false,"is_disabled":false,"rental_uris":{"android":"levelo://app?vid=356c8c35-b85a-416a-8e03-c91a9f35166d","ios":"levelo://app?vid=356c8c35-b85a-416a-8e03-c91a9f35166d"},"vehicle_type_id":"4","last_reported":1729854498,"current_range_meters":12000,"station_id":"ce4bha12rcd13ifvqef0","pricing_plan_id":"cebpf4jnsgd1na2vs0mg"},{"bike_id":"f0b863c8-76f9-4f06-a6ca-be71cfa200a0","system_id":"levelo_inurba_marseille","lat":43.29255,"lon":5.40913,"is_reserved":false,"is_disabled":false,"rental_uris":{"android":"levelo://app?vid=f0b863c8-76f9-4f06-a6ca-be71cfa200a0","ios":"levelo://app?vid=f0b863c8-76f9-4f06-a6ca-be71cfa200a0"},"vehicle_type_id":"4","last_reported":1729854498,"current_range_meters":38800,"station_id":"ce4bh192rcd13ifvqdc0","pricing_plan_id":"cebpf4jnsgd1na2vs0mg"},{"bike_id":"47dc4271-d82f-46d3-a4ac-2d0aa82174df","system_id":"levelo_inurba_marseille","lat":43.30552,"lon":5.36527,"is_reserved":false,"is_disabled":false,"rental_uris":{"android":"levelo://app?vid=47dc4271-d82f-46d3-a4ac-2d0aa82174df","ios":"levelo://app?vid=47dc4271-d82f-46d3-a4ac-2d0aa82174df"},"vehicle_type_id":"4","last_reported":1729854498,"current_range_meters":38800,"station_id":"ce4bgs12rcd13ifvqcag","pricing_plan_id":"cebpf4jnsgd1na2vs0mg"},{"bike_id":"6cb0d09c-4434-41fe-bab7-3f2ab7b0ac84","system_id":"levelo_inurba_marseille","lat":43.23055,"lon":5.35495,"is_reserved":false,"is_disabled":false,"rental_uris":{"android":"levelo://app?vid=6cb0d09c-4434-41fe-bab7-3f2ab7b0ac84","ios":"levelo://app?vid=6cb0d09c-4434-41fe-bab7-3f2ab7b0ac84"},"vehicle_type_id":"4","last_reported":1729854498,"current_range_meters":22400,"station_id":"cpo3342slgdg3j2ifvpg","pricing_plan_id":"cebpf4jnsgd1na2vs0mg"},{"bike_id":"b85af3b3-7a60-4c70-a2e1-012a71c6422b","system_id":"levelo_inurba_marseille","lat":43.25932,"lon":5.40916,"is_reserved":false,"is_disabled":false,"rental_uris":{"android":"levelo://app?vid=b85af3b3-7a60-4c70-a2e1-012a71c6422b","ios":"levelo://app?vid=b85af3b3-7a60-4c70-a2e1-012a71c6422b"},"vehicle_type_id":"4","last_reported":1729854498,"current_range_meters":12800,"station_id":"ce4bhm92rcd13ifvqglg","pricing_plan_id":"cebpf4jnsgd1na2vs0mg"},{"bike_id":"923a0501-692d-49db-bfcd-86ee4a19a967","system_id":"levelo_inurba_marseille","lat":43.31363,"lon":5.38483,"is_reserved":false,"is_disabled":false,"rental_uris":{"android":"levelo://app?vid=923a0501-692d-49db-bfcd-86ee4a19a967","ios":"levelo://app?vid=923a0501-692d-49db-bfcd-86ee4a19a967"},"vehicle_type_id":"4","last_reported":1729854498,"current_range_meters":38800,"station_id":"ce4bgt92rcd13ifvqcf0","pricing_plan_id":"cebpf4jnsgd1na2vs0mg"},{"bike_id":"5e1bf0fa-7960-4ffb-9deb-46d3ab8de545","system_id":"levelo_inurba_marseille","lat":43.30146,"lon":5.387769,"is_reserved":false,"is_disabled":false,"rental_uris":{"android":"levelo://app?vid=5e1bf0fa-7960-4ffb-9deb-46d3ab8de545","ios":"levelo://app?vid=5e1bf0fa-7960-4ffb-9deb-46d3ab8de545"},"vehicle_type_id":"4","last_reported":1729854498,"current_range_meters":38400,"station_id":"ce4bgup2rcd13ifvqco0","pricing_plan_id":"cebpf4jnsgd1na2vs0mg"},{"bike_id":"661e62a9-af33-4796-bf88-bdb0e3140103","system_id":"levelo_inurba_marseille","lat":43.28863,"lon":5.35851,"is_reserved":false,"is_disabled":false,"rental_uris":{"android":"levelo://app?vid=661e62a9-af33-4796-bf88-bdb0e3140103","ios":"levelo://app?vid=661e62a9-af33-4796-bf88-bdb0e3140103"},"vehicle_type_id":"4","last_reported":1729854498,"current_range_meters":38800,"station_id":"ce4bhb12rcd13ifvqem0","pricing_plan_id":"cebpf4jnsgd1na2vs0mg"},{"bike_id":"e71f7a4d-9d78-4816-9ba2-d7164ce5d966","system_id":"levelo_inurba_marseille","lat":43.29849,"lon":5.36283,"is_reserved":false,"is_disabled":false,"rental_uris":{"android":"levelo://app?vid=e71f7a4d-9d78-4816-9ba2-d7164ce5d966","ios":"levelo://app?vid=e71f7a4d-9d78-4816-9ba2-d7164ce5d966"},"vehicle_type_id":"4","last_reported":1729854498,"current_range_meters":19200,"station_id":"ce4bgpp2rcd13ifvqc3g","pricing_plan_id":"cebpf4jnsgd1na2vs0mg"},{"bike_id":"942511a3-f21a-4b98-a8c5-be58a53f915f","system_id":"levelo_inurba_marseille","lat":43.30137,"lon":5.37393,"is_reserved":false,"is_disabled":false,"rental_uris":{"android":"levelo://app?vid=942511a3-f21a-4b98-a8c5-be58a53f915f","ios":"levelo://app?vid=942511a3-f21a-4b98-a8c5-be58a53f915f"},"vehicle_type_id":"4","last_reported":1729854498,"current_range_meters":38800,"station_id":"ce4bgs92rcd13ifvqcc0","pricing_plan_id":"cebpf4jnsgd1na2vs0mg"},{"bike_id":"108c0296-d49a-4500-a655-9dc6be1eb554","system_id":"levelo_inurba_marseille","lat":43.26952,"lon":5.38624,"is_reserved":false,"is_disabled":false,"rental_uris":{"android":"levelo://app?vid=108c0296-d49a-4500-a655-9dc6be1eb554","ios":"levelo://app?vid=108c0296-d49a-4500-a655-9dc6be1eb554"},"vehicle_type_id":"4","last_reported":1729854498,"current_range_meters":39200,"station_id":"ce4bhh92rcd13ifvqfh0","pricing_plan_id":"cebpf4jnsgd1na2vs0mg"},{"bike_id":"f082fa24-964b-4afc-8d8e-65b1719eafd7","system_id":"levelo_inurba_marseille","lat":43.24389,"lon":5.37053,"is_reserved":false,"is_disabled":false,"rental_uris":{"android":"levelo://app?vid=f082fa24-964b-4afc-8d8e-65b1719eafd7","ios":"levelo://app?vid=f082fa24-964b-4afc-8d8e-65b1719eafd7"},"vehicle_type_id":"4","last_reported":1729854498,"current_range_meters":34000,"station_id":"ce4bhhh2rcd13ifvqfk0","pricing_plan_id":"cebpf4jnsgd1na2vs0mg"},{"bike_id":"6b5a2cb3-8d86-495e-bbb3-078458662957","system_id":"levelo_inurba_marseille","lat":43.28439,"lon":5.39183,"is_reserved":false,"is_disabled":false,"rental_uris":{"android":"levelo://app?vid=6b5a2cb3-8d86-495e-bbb3-078458662957","ios":"levelo://app?vid=6b5a2cb3-8d86-495e-bbb3-078458662957"},"vehicle_type_id":"4","last_reported":1729854498,"current_range_meters":36800,"station_id":"ce4bhoh2rcd13ifvqh5g","pricing_plan_id":"cebpf4jnsgd1na2vs0mg"},{"bike_id":"d9a15249-d5e6-4650-b26f-52be796878e3","system_id":"levelo_inurba_marseille","lat":43.292802,"lon":5.40118,"is_reserved":false,"is_disabled":false,"rental_uris":{"android":"levelo://app?vid=d9a15249-d5e6-4650-b26f-52be796878e3","ios":"levelo://app?vid=d9a15249-d5e6-4650-b26f-52be796878e3"},"vehicle_type_id":"4","last_reported":1729854498,"current_range_meters":15200,"station_id":"ce4bh312rcd13ifvqdk0","pricing_plan_id":"cebpf4jnsgd1na2vs0mg"},{"bike_id":"a757aba9-9d10-4756-93eb-e23d37da5d24","system_id":"levelo_inurba_marseille","lat":43.29537,"lon":5.38541,"is_reserved":false,"is_disabled":false,"rental_uris":{"android":"levelo://app?vid=a757aba9-9d10-4756-93eb-e23d37da5d24","ios":"levelo://app?vid=a757aba9-9d10-4756-93eb-e23d37da5d24"},"vehicle_type_id":"4","last_reported":1729854498,"current_range_meters":24000,"station_id":"ce4bgih2rcd13ifvqba0","pricing_plan_id":"cebpf4jnsgd1na2vs0mg"},{"bike_id":"4468208d-a0a9-4302-976f-4b7d3cc8f418","system_id":"levelo_inurba_marseille","lat":43.262,"lon":5.3792,"is_reserved":false,"is_disabled":false,"rental_uris":{"android":"levelo://app?vid=4468208d-a0a9-4302-976f-4b7d3cc8f418","ios":"levelo://app?vid=4468208d-a0a9-4302-976f-4b7d3cc8f418"},"vehicle_type_id":"4","last_reported":1729854498,"current_range_meters":38800,"station_id":"ce4bhjp2rcd13ifvqg90","pricing_plan_id":"cebpf4jnsgd1na2vs0mg"},{"bike_id":"7ebc9bdb-d16d-4077-bbd0-ac0bc6127ef4","system_id":"levelo_inurba_marseille","lat":43.30541,"lon":5.36699,"is_reserved":false,"is_disabled":false,"rental_uris":{"android":"levelo://app?vid=7ebc9bdb-d16d-4077-bbd0-ac0bc6127ef4","ios":"levelo://app?vid=7ebc9bdb-d16d-4077-bbd0-ac0bc6127ef4"},"vehicle_type_id":"4","last_reported":1729854498,"current_range_meters":18000,"station_id":"ce4bgrp2rcd13ifvqc9g","pricing_plan_id":"cebpf4jnsgd1na2vs0mg"},{"bike_id":"c352552f-04e6-42e5-9c06-19cac5a0ebeb","system_id":"levelo_inurba_marseille","lat":43.28263,"lon":5.35054,"is_reserved":false,"is_disabled":false,"rental_uris":{"android":"levelo://app?vid=c352552f-04e6-42e5-9c06-19cac5a0ebeb","ios":"levelo://app?vid=c352552f-04e6-42e5-9c06-19cac5a0ebeb"},"vehicle_type_id":"4","last_reported":1729854498,"current_range_meters":24400,"station_id":"ce4bhbp2rcd13ifvqerg","pricing_plan_id":"cebpf4jnsgd1na2vs0mg"},{"bike_id":"7c7c8b50-1cbd-4f68-accc-d82d3173b009","system_id":"levelo_inurba_marseille","lat":43.26193,"lon":5.3745,"is_reserved":false,"is_disabled":false,"rental_uris":{"android":"levelo://app?vid=7c7c8b50-1cbd-4f68-accc-d82d3173b009","ios":"levelo://app?vid=7c7c8b50-1cbd-4f68-accc-d82d3173b009"},"vehicle_type_id":"4","last_reported":1729854498,"current_range_meters":4400,"station_id":"ce4bhgp2rcd13ifvqfc0","pricing_plan_id":"cebpf4jnsgd1na2vs0mg"},{"bike_id":"18295cba-459b-4864-bdc6-9405fe3604b3","system_id":"levelo_inurba_marseille","lat":43.32473,"lon":5.36557,"is_reserved":false,"is_disabled":false,"rental_uris":{"android":"levelo://app?vid=18295cba-459b-4864-bdc6-9405fe3604b3","ios":"levelo://app?vid=18295cba-459b-4864-bdc6-9405fe3604b3"},"vehicle_type_id":"4","last_reported":1729854498,"current_range_meters":30000,"station_id":"ce4bhs12rcd13ifvqhvg","pricing_plan_id":"cebpf4jnsgd1na2vs0mg"},{"bike_id":"353334dc-ac49-405c-8600-c4c52a2a886e","system_id":"levelo_inurba_marseille","lat":43.26212,"lon":5.37439,"is_reserved":false,"is_disabled":false,"rental_uris":{"android":"levelo://app?vid=353334dc-ac49-405c-8600-c4c52a2a886e","ios":"levelo://app?vid=353334dc-ac49-405c-8600-c4c52a2a886e"},"vehicle_type_id":"4","last_reported":1729854498,"current_range_meters":36400,"station_id":"ce4bhgp2rcd13ifvqfc0","pricing_plan_id":"cebpf4jnsgd1na2vs0mg"},{"bike_id":"99ddea5b-5cd9-4b87-9290-1beed3353792","system_id":"levelo_inurba_marseille","lat":43.2439,"lon":5.37054,"is_reserved":false,"is_disabled":false,"rental_uris":{"android":"levelo://app?vid=99ddea5b-5cd9-4b87-9290-1beed3353792","ios":"levelo://app?vid=99ddea5b-5cd9-4b87-9290-1beed3353792"},"vehicle_type_id":"4","last_reported":1729854498,"current_range_meters":30400,"station_id":"ce4bhhh2rcd13ifvqfk0","pricing_plan_id":"cebpf4jnsgd1na2vs0mg"},{"bike_id":"e25afe84-1b81-4ad0-89f2-0e3ca3c9dbb7","system_id":"levelo_inurba_marseille","lat":43.30546,"lon":5.36706,"is_reserved":false,"is_disabled":false,"rental_uris":{"android":"levelo://app?vid=e25afe84-1b81-4ad0-89f2-0e3ca3c9dbb7","ios":"levelo://app?vid=e25afe84-1b81-4ad0-89f2-0e3ca3c9dbb7"},"vehicle_type_id":"4","last_reported":1729854498,"current_range_meters":15200,"station_id":"ce4bgrp2rcd13ifvqc9g","pricing_plan_id":"cebpf4jnsgd1na2vs0mg"},{"bike_id":"33246fba-e266-41ce-8dbf-069abfde1f2c","system_id":"levelo_inurba_marseille","lat":43.3014,"lon":5.37419,"is_reserved":false,"is_disabled":false,"rental_uris":{"android":"levelo://app?vid=33246fba-e266-41ce-8dbf-069abfde1f2c","ios":"levelo://app?vid=33246fba-e266-41ce-8dbf-069abfde1f2c"},"vehicle_type_id":"4","last_reported":1729854498,"current_range_meters":18000,"station_id":"ce4bgs92rcd13ifvqcc0","pricing_plan_id":"cebpf4jnsgd1na2vs0mg"},{"bike_id":"1c94711f-6e8d-4080-84e2-4aabc2656ca2","system_id":"levelo_inurba_marseille","lat":43.3133,"lon":5.397,"is_reserved":false,"is_disabled":false,"rental_uris":{"android":"levelo://app?vid=1c94711f-6e8d-4080-84e2-4aabc2656ca2","ios":"levelo://app?vid=1c94711f-6e8d-4080-84e2-4aabc2656ca2"},"vehicle_type_id":"4","last_reported":1729854498,"current_range_meters":37600,"station_id":"ce4bgvp2rcd13ifvqcu0","pricing_plan_id":"cebpf4jnsgd1na2vs0mg"},{"bike_id":"a42b0bdd-1f10-437f-813e-02df169ed0a9","system_id":"levelo_inurba_marseille","lat":43.22935,"lon":5.35374,"is_reserved":false,"is_disabled":false,"rental_uris":{"android":"levelo://app?vid=a42b0bdd-1f10-437f-813e-02df169ed0a9","ios":"levelo://app?vid=a42b0bdd-1f10-437f-813e-02df169ed0a9"},"vehicle_type_id":"4","last_reported":1729854498,"current_range_meters":27600,"station_id":"cpo3532slgdg3j2ikp40","pricing_plan_id":"cebpf4jnsgd1na2vs0mg"},{"bike_id":"df8beb4f-3009-4e99-9a90-af910bdb2109","system_id":"levelo_inurba_marseille","lat":43.34145,"lon":5.40903,"is_reserved":false,"is_disabled":false,"rental_uris":{"android":"levelo://app?vid=df8beb4f-3009-4e99-9a90-af910bdb2109","ios":"levelo://app?vid=df8beb4f-3009-4e99-9a90-af910bdb2109"},"vehicle_type_id":"4","last_reported":1729854498,"current_range_meters":28400,"station_id":"ce4bhqh2rcd13ifvqhlg","pricing_plan_id":"cebpf4jnsgd1na2vs0mg"},{"bike_id":"e1f47a00-6926-44f6-bf81-6f4d0ea068e7","system_id":"levelo_inurba_marseille","lat":43.30309,"lon":5.36901,"is_reserved":false,"is_disabled":false,"rental_uris":{"android":"levelo://app?vid=e1f47a00-6926-44f6-bf81-6f4d0ea068e7","ios":"levelo://app?vid=e1f47a00-6926-44f6-bf81-6f4d0ea068e7"},"vehicle_type_id":"4","last_reported":1729854498,"current_range_meters":6800,"station_id":"ce4bgqh2rcd13ifvqc5g","pricing_plan_id":"cebpf4jnsgd1na2vs0mg"},{"bike_id":"ea49dcab-794a-4bda-8247-77371dad772a","system_id":"levelo_inurba_marseille","lat":43.309557,"lon":5.390419,"is_reserved":false,"is_disabled":false,"rental_uris":{"android":"levelo://app?vid=ea49dcab-794a-4bda-8247-77371dad772a","ios":"levelo://app?vid=ea49dcab-794a-4bda-8247-77371dad772a"},"vehicle_type_id":"4","last_reported":1729854498,"current_range_meters":30800,"station_id":"ce4bgup2rcd13ifvqco0","pricing_plan_id":"cebpf4jnsgd1na2vs0mg"},{"bike_id":"b5d8421a-3a7b-47a5-87fe-7cf2f5f18567","system_id":"levelo_inurba_marseille","lat":43.30426,"lon":5.397473,"is_reserved":false,"is_disabled":false,"rental_uris":{"android":"levelo://app?vid=b5d8421a-3a7b-47a5-87fe-7cf2f5f18567","ios":"levelo://app?vid=b5d8421a-3a7b-47a5-87fe-7cf2f5f18567"},"vehicle_type_id":"4","last_reported":1729854498,"current_range_meters":12000,"station_id":"ce4bh092rcd13ifvqd20","pricing_plan_id":"cebpf4jnsgd1na2vs0mg"},{"bike_id":"6fd4971a-db3f-4826-9ddf-71b29c3b9231","system_id":"levelo_inurba_marseille","lat":43.27816,"lon":5.40713,"is_reserved":false,"is_disabled":false,"rental_uris":{"android":"levelo://app?vid=6fd4971a-db3f-4826-9ddf-71b29c3b9231","ios":"levelo://app?vid=6fd4971a-db3f-4826-9ddf-71b29c3b9231"},"vehicle_type_id":"4","last_reported":1729854498,"current_range_meters":14000,"station_id":"ce4bhnh2rcd13ifvqgtg","pricing_plan_id":"cebpf4jnsgd1na2vs0mg"},{"bike_id":"f9ec36ed-f1e8-4d39-a330-d53d339322cc","system_id":"levelo_inurba_marseille","lat":43.2494,"lon":5.39739,"is_reserved":false,"is_disabled":false,"rental_uris":{"android":"levelo://app?vid=f9ec36ed-f1e8-4d39-a330-d53d339322cc","ios":"levelo://app?vid=f9ec36ed-f1e8-4d39-a330-d53d339322cc"},"vehicle_type_id":"4","last_reported":1729854498,"current_range_meters":17600,"station_id":"","pricing_plan_id":"cebpf4jnsgd1na2vs0mg"},{"bike_id":"248f6835-d215-48fe-a4a3-07a56438bcff","system_id":"levelo_inurba_marseille","lat":43.30882,"lon":5.39655,"is_reserved":false,"is_disabled":false,"rental_uris":{"android":"levelo://app?vid=248f6835-d215-48fe-a4a3-07a56438bcff","ios":"levelo://app?vid=248f6835-d215-48fe-a4a3-07a56438bcff"},"vehicle_type_id":"4","last_reported":1729854498,"current_range_meters":18800,"station_id":"ce4bh012rcd13ifvqcv0","pricing_plan_id":"cebpf4jnsgd1na2vs0mg"},{"bike_id":"21b771f5-e12c-4d5b-be50-280d4e6da9bd","system_id":"levelo_inurba_marseille","lat":43.26684,"lon":5.38267,"is_reserved":false,"is_disabled":false,"rental_uris":{"android":"levelo://app?vid=21b771f5-e12c-4d5b-be50-280d4e6da9bd","ios":"levelo://app?vid=21b771f5-e12c-4d5b-be50-280d4e6da9bd"},"vehicle_type_id":"4","last_reported":1729854498,"current_range_meters":25200,"station_id":"ce4bhg92rcd13ifvqf90","pricing_plan_id":"cebpf4jnsgd1na2vs0mg"},{"bike_id":"afb327ab-a502-47c0-adaa-2501064144bc","system_id":"levelo_inurba_marseille","lat":43.27219,"lon":5.39178,"is_reserved":false,"is_disabled":false,"rental_uris":{"android":"levelo://app?vid=afb327ab-a502-47c0-adaa-2501064144bc","ios":"levelo://app?vid=afb327ab-a502-47c0-adaa-2501064144bc"},"vehicle_type_id":"4","last_reported":1729854498,"current_range_meters":30800,"station_id":"ce4bhhp2rcd13ifvqfm0","pricing_plan_id":"cebpf4jnsgd1na2vs0mg"},{"bike_id":"357054c3-00f3-44b3-960f-25031a13333e","system_id":"levelo_inurba_marseille","lat":43.29588,"lon":5.38097,"is_reserved":false,"is_disabled":false,"rental_uris":{"android":"levelo://app?vid=357054c3-00f3-44b3-960f-25031a13333e","ios":"levelo://app?vid=357054c3-00f3-44b3-960f-25031a13333e"},"vehicle_type_id":"4","last_reported":1729854498,"current_range_meters":22800,"station_id":"ce4bgl12rcd13ifvqbo0","pricing_plan_id":"cebpf4jnsgd1na2vs0mg"},{"bike_id":"9547fe9f-7da9-478b-9033-f446ea71bb69","system_id":"levelo_inurba_marseille","lat":43.31076,"lon":5.42437,"is_reserved":false,"is_disabled":false,"rental_uris":{"android":"levelo://app?vid=9547fe9f-7da9-478b-9033-f446ea71bb69","ios":"levelo://app?vid=9547fe9f-7da9-478b-9033-f446ea71bb69"},"vehicle_type_id":"4","last_reported":1729854498,"current_range_meters":37600,"station_id":"ce4bhp92rcd13ifvqhag","pricing_plan_id":"cebpf4jnsgd1na2vs0mg"},{"bike_id":"bb49900c-ddbd-4f35-b6eb-db266b9c8bcc","system_id":"levelo_inurba_marseille","lat":43.2927,"lon":5.36846,"is_reserved":false,"is_disabled":false,"rental_uris":{"android":"levelo://app?vid=bb49900c-ddbd-4f35-b6eb-db266b9c8bcc","ios":"levelo://app?vid=bb49900c-ddbd-4f35-b6eb-db266b9c8bcc"},"vehicle_type_id":"4","last_reported":1729854498,"current_range_meters":27200,"station_id":"ce4bhbp2rcd13ifvqesg","pricing_plan_id":"cebpf4jnsgd1na2vs0mg"},{"bike_id":"aa2296b3-9e48-4eb8-8736-02ee29db4f53","system_id":"levelo_inurba_marseille","lat":43.30287,"lon":5.37702,"is_reserved":false,"is_disabled":false,"rental_uris":{"android":"levelo://app?vid=aa2296b3-9e48-4eb8-8736-02ee29db4f53","ios":"levelo://app?vid=aa2296b3-9e48-4eb8-8736-02ee29db4f53"},"vehicle_type_id":"4","last_reported":1729854498,"current_range_meters":38800,"station_id":"ce4bguh2rcd13ifvqcj0","pricing_plan_id":"cebpf4jnsgd1na2vs0mg"},{"bike_id":"a969ad91-7b51-484c-ac64-0cfd2f1e6bf7","system_id":"levelo_inurba_marseille","lat":43.30546,"lon":5.36539,"is_reserved":false,"is_disabled":false,"rental_uris":{"android":"levelo://app?vid=a969ad91-7b51-484c-ac64-0cfd2f1e6bf7","ios":"levelo://app?vid=a969ad91-7b51-484c-ac64-0cfd2f1e6bf7"},"vehicle_type_id":"4","last_reported":1729854498,"current_range_meters":36400,"station_id":"ce4bgs12rcd13ifvqcag","pricing_plan_id":"cebpf4jnsgd1na2vs0mg"},{"bike_id":"2c448ac6-e14e-4172-ae75-14d07712a59f","system_id":"levelo_inurba_marseille","lat":43.31486,"lon":5.37308,"is_reserved":false,"is_disabled":false,"rental_uris":{"android":"levelo://app?vid=2c448ac6-e14e-4172-ae75-14d07712a59f","ios":"levelo://app?vid=2c448ac6-e14e-4172-ae75-14d07712a59f"},"vehicle_type_id":"4","last_reported":1729854498,"current_range_meters":8000,"station_id":"ce4bgt12rcd13ifvqcd0","pricing_plan_id":"cebpf4jnsgd1na2vs0mg"},{"bike_id":"efe0b02e-9dcd-4192-8f41-25a0bf494636","system_id":"levelo_inurba_marseille","lat":43.3249,"lon":5.36566,"is_reserved":false,"is_disabled":false,"rental_uris":{"android":"levelo://app?vid=efe0b02e-9dcd-4192-8f41-25a0bf494636","ios":"levelo://app?vid=efe0b02e-9dcd-4192-8f41-25a0bf494636"},"vehicle_type_id":"4","last_reported":1729854498,"current_range_meters":3200,"station_id":"ce4bhs12rcd13ifvqhvg","pricing_plan_id":"cebpf4jnsgd1na2vs0mg"},{"bike_id":"83813a32-8aaa-45b9-93e9-eb6e5eeb7b78","system_id":"levelo_inurba_marseille","lat":43.28481,"lon":5.38551,"is_reserved":false,"is_disabled":false,"rental_uris":{"android":"levelo://app?vid=83813a32-8aaa-45b9-93e9-eb6e5eeb7b78","ios":"levelo://app?vid=83813a32-8aaa-45b9-93e9-eb6e5eeb7b78"},"vehicle_type_id":"4","last_reported":1729854498,"current_range_meters":38800,"station_id":"ce4bh8p2rcd13ifvqeb0","pricing_plan_id":"cebpf4jnsgd1na2vs0mg"},{"bike_id":"a6372292-563d-4771-a01d-bf6771d8264b","system_id":"levelo_inurba_marseille","lat":43.29845,"lon":5.36276,"is_reserved":false,"is_disabled":false,"rental_uris":{"android":"levelo://app?vid=a6372292-563d-4771-a01d-bf6771d8264b","ios":"levelo://app?vid=a6372292-563d-4771-a01d-bf6771d8264b"},"vehicle_type_id":"4","last_reported":1729854498,"current_range_meters":14000,"station_id":"ce4bgpp2rcd13ifvqc3g","pricing_plan_id":"cebpf4jnsgd1na2vs0mg"},{"bike_id":"212337c5-c27c-4ce8-a37e-735a2e6c27ae","system_id":"levelo_inurba_marseille","lat":43.31704,"lon":5.37751,"is_reserved":false,"is_disabled":false,"rental_uris":{"android":"levelo://app?vid=212337c5-c27c-4ce8-a37e-735a2e6c27ae","ios":"levelo://app?vid=212337c5-c27c-4ce8-a37e-735a2e6c27ae"},"vehicle_type_id":"4","last_reported":1729854498,"current_range_meters":38800,"station_id":"ce4bgth2rcd13ifvqch0","pricing_plan_id":"cebpf4jnsgd1na2vs0mg"},{"bike_id":"ac5d0c42-0a97-4b76-8e63-18c0f73df0c1","system_id":"levelo_inurba_marseille","lat":43.3054,"lon":5.36694,"is_reserved":false,"is_disabled":false,"rental_uris":{"android":"levelo://app?vid=ac5d0c42-0a97-4b76-8e63-18c0f73df0c1","ios":"levelo://app?vid=ac5d0c42-0a97-4b76-8e63-18c0f73df0c1"},"vehicle_type_id":"4","last_reported":1729854498,"current_range_meters":38800,"station_id":"ce4bgrp2rcd13ifvqc9g","pricing_plan_id":"cebpf4jnsgd1na2vs0mg"},{"bike_id":"64075dcd-9a80-4209-b297-3d00a4afd336","system_id":"levelo_inurba_marseille","lat":43.30924,"lon":5.40141,"is_reserved":false,"is_disabled":false,"rental_uris":{"android":"levelo://app?vid=64075dcd-9a80-4209-b297-3d00a4afd336","ios":"levelo://app?vid=64075dcd-9a80-4209-b297-3d00a4afd336"},"vehicle_type_id":"4","last_reported":1729854498,"current_range_meters":22000,"station_id":"ce4bgvp2rcd13ifvqct0","pricing_plan_id":"cebpf4jnsgd1na2vs0mg"},{"bike_id":"fdab9983-5753-4f4a-bb1e-9e90395f2d1c","system_id":"levelo_inurba_marseille","lat":43.27951,"lon":5.41046,"is_reserved":false,"is_disabled":false,"rental_uris":{"android":"levelo://app?vid=fdab9983-5753-4f4a-bb1e-9e90395f2d1c","ios":"levelo://app?vid=fdab9983-5753-4f4a-bb1e-9e90395f2d1c"},"vehicle_type_id":"4","last_reported":1729854498,"current_range_meters":36800,"station_id":"ce4bhnp2rcd13ifvqh0g","pricing_plan_id":"cebpf4jnsgd1na2vs0mg"},{"bike_id":"82e5b345-77a3-4984-9ea4-c98235e5c41c","system_id":"levelo_inurba_marseille","lat":43.31706,"lon":5.37731,"is_reserved":false,"is_disabled":false,"rental_uris":{"android":"levelo://app?vid=82e5b345-77a3-4984-9ea4-c98235e5c41c","ios":"levelo://app?vid=82e5b345-77a3-4984-9ea4-c98235e5c41c"},"vehicle_type_id":"4","last_reported":1729854498,"current_range_meters":17600,"station_id":"ce4bgth2rcd13ifvqch0","pricing_plan_id":"cebpf4jnsgd1na2vs0mg"},{"bike_id":"000c9eb4-0f10-4dc6-84b2-7829018c9128","system_id":"levelo_inurba_marseille","lat":43.29189,"lon":5.35805,"is_reserved":false,"is_disabled":false,"rental_uris":{"android":"levelo://app?vid=000c9eb4-0f10-4dc6-84b2-7829018c9128","ios":"levelo://app?vid=000c9eb4-0f10-4dc6-84b2-7829018c9128"},"vehicle_type_id":"4","last_reported":1729854498,"current_range_meters":39200,"station_id":"ce4bhb12rcd13ifvqel0","pricing_plan_id":"cebpf4jnsgd1na2vs0mg"},{"bike_id":"ef2cb317-3d5c-439d-8b23-ffbc1fbd79d2","system_id":"levelo_inurba_marseille","lat":43.24638,"lon":5.39453,"is_reserved":false,"is_disabled":false,"rental_uris":{"android":"levelo://app?vid=ef2cb317-3d5c-439d-8b23-ffbc1fbd79d2","ios":"levelo://app?vid=ef2cb317-3d5c-439d-8b23-ffbc1fbd79d2"},"vehicle_type_id":"4","last_reported":1729854498,"current_range_meters":6400,"station_id":"ce4bhn12rcd13ifvqgpg","pricing_plan_id":"cebpf4jnsgd1na2vs0mg"},{"bike_id":"7fffb5e0-c7b9-4240-a7da-acc57e548306","system_id":"levelo_inurba_marseille","lat":43.30478,"lon":5.37905,"is_reserved":false,"is_disabled":false,"rental_uris":{"android":"levelo://app?vid=7fffb5e0-c7b9-4240-a7da-acc57e548306","ios":"levelo://app?vid=7fffb5e0-c7b9-4240-a7da-acc57e548306"},"vehicle_type_id":"4","last_reported":1729854498,"current_range_meters":38000,"station_id":"ce4bgup2rcd13ifvqcn0","pricing_plan_id":"cebpf4jnsgd1na2vs0mg"},{"bike_id":"509813a1-630d-4280-b2d5-4f200882b04b","system_id":"levelo_inurba_marseille","lat":43.23148,"lon":5.43699,"is_reserved":false,"is_disabled":false,"rental_uris":{"android":"levelo://app?vid=509813a1-630d-4280-b2d5-4f200882b04b","ios":"levelo://app?vid=509813a1-630d-4280-b2d5-4f200882b04b"},"vehicle_type_id":"4","last_reported":1729854498,"current_range_meters":14400,"station_id":"ce4bhmp2rcd13ifvqgog","pricing_plan_id":"cebpf4jnsgd1na2vs0mg"},{"bike_id":"27f07749-69c9-4079-9dec-2b38276cccb0","system_id":"levelo_inurba_marseille","lat":43.2315,"lon":5.43709,"is_reserved":false,"is_disabled":false,"rental_uris":{"android":"levelo://app?vid=27f07749-69c9-4079-9dec-2b38276cccb0","ios":"levelo://app?vid=27f07749-69c9-4079-9dec-2b38276cccb0"},"vehicle_type_id":"4","last_reported":1729854498,"current_range_meters":39200,"station_id":"ce4bhmp2rcd13ifvqgog","pricing_plan_id":"cebpf4jnsgd1na2vs0mg"},{"bike_id":"7691659f-eea1-4b4d-8db5-2728fcde3a23","system_id":"levelo_inurba_marseille","lat":43.29386,"lon":5.37528,"is_reserved":false,"is_disabled":false,"rental_uris":{"android":"levelo://app?vid=7691659f-eea1-4b4d-8db5-2728fcde3a23","ios":"levelo://app?vid=7691659f-eea1-4b4d-8db5-2728fcde3a23"},"vehicle_type_id":"4","last_reported":1729854498,"current_range_meters":26800,"station_id":"ce4bhr12rcd13ifvqhqg","pricing_plan_id":"cebpf4jnsgd1na2vs0mg"},{"bike_id":"6e382b4c-da74-42bf-b0fb-edf99b9182c7","system_id":"levelo_inurba_marseille","lat":43.30536,"lon":5.36537,"is_reserved":false,"is_disabled":false,"rental_uris":{"android":"levelo://app?vid=6e382b4c-da74-42bf-b0fb-edf99b9182c7","ios":"levelo://app?vid=6e382b4c-da74-42bf-b0fb-edf99b9182c7"},"vehicle_type_id":"4","last_reported":1729854498,"current_range_meters":38800,"station_id":"ce4bgs12rcd13ifvqcag","pricing_plan_id":"cebpf4jnsgd1na2vs0mg"},{"bike_id":"d7d957b4-1d3d-4824-8384-8c04cc68d904","system_id":"levelo_inurba_marseille","lat":43.30464,"lon":5.37904,"is_reserved":false,"is_disabled":false,"rental_uris":{"android":"levelo://app?vid=d7d957b4-1d3d-4824-8384-8c04cc68d904","ios":"levelo://app?vid=d7d957b4-1d3d-4824-8384-8c04cc68d904"},"vehicle_type_id":"4","last_reported":1729854498,"current_range_meters":38000,"station_id":"ce4bgup2rcd13ifvqcn0","pricing_plan_id":"cebpf4jnsgd1na2vs0mg"},{"bike_id":"780860b0-3fe8-40e2-926b-3762c61bab15","system_id":"levelo_inurba_marseille","lat":43.23901,"lon":5.4363,"is_reserved":false,"is_disabled":false,"rental_uris":{"android":"levelo://app?vid=780860b0-3fe8-40e2-926b-3762c61bab15","ios":"levelo://app?vid=780860b0-3fe8-40e2-926b-3762c61bab15"},"vehicle_type_id":"4","last_reported":1729854498,"current_range_meters":18000,"station_id":"","pricing_plan_id":"cebpf4jnsgd1na2vs0mg"},{"bike_id":"f60c9e82-d1ec-4d84-b346-c7732145b9a3","system_id":"levelo_inurba_marseille","lat":43.2931,"lon":5.37174,"is_reserved":false,"is_disabled":false,"rental_uris":{"android":"levelo://app?vid=f60c9e82-d1ec-4d84-b346-c7732145b9a3","ios":"levelo://app?vid=f60c9e82-d1ec-4d84-b346-c7732145b9a3"},"vehicle_type_id":"4","last_reported":1729854498,"current_range_meters":26800,"station_id":"ce4bgh92rcd13ifvqb40","pricing_plan_id":"cebpf4jnsgd1na2vs0mg"},{"bike_id":"2d00eb2b-c89a-4a28-921c-a8273c64fbe8","system_id":"levelo_inurba_marseille","lat":43.2761,"lon":5.36104,"is_reserved":false,"is_disabled":false,"rental_uris":{"android":"levelo://app?vid=2d00eb2b-c89a-4a28-921c-a8273c64fbe8","ios":"levelo://app?vid=2d00eb2b-c89a-4a28-921c-a8273c64fbe8"},"vehicle_type_id":"4","last_reported":1729854498,"current_range_meters":38800,"station_id":"ce4bgj92rcd13ifvqbe0","pricing_plan_id":"cebpf4jnsgd1na2vs0mg"},{"bike_id":"288f5a06-f00e-41f7-9829-75555a39ff93","system_id":"levelo_inurba_marseille","lat":43.29036,"lon":5.38645,"is_reserved":false,"is_disabled":false,"rental_uris":{"android":"levelo://app?vid=288f5a06-f00e-41f7-9829-75555a39ff93","ios":"levelo://app?vid=288f5a06-f00e-41f7-9829-75555a39ff93"},"vehicle_type_id":"4","last_reported":1729854498,"current_range_meters":35200,"station_id":"ce4bh4p2rcd13ifvqe0g","pricing_plan_id":"cebpf4jnsgd1na2vs0mg"},{"bike_id":"8fdb49c3-6780-47e9-be94-876157ef84d2","system_id":"levelo_inurba_marseille","lat":43.23185,"lon":5.3998,"is_reserved":false,"is_disabled":false,"rental_uris":{"android":"levelo://app?vid=8fdb49c3-6780-47e9-be94-876157ef84d2","ios":"levelo://app?vid=8fdb49c3-6780-47e9-be94-876157ef84d2"},"vehicle_type_id":"4","last_reported":1729854498,"current_range_meters":9600,"station_id":"ce4bhn12rcd13ifvqgqg","pricing_plan_id":"cebpf4jnsgd1na2vs0mg"},{"bike_id":"7c7a52d1-a038-41c8-8934-a0de794124e5","system_id":"levelo_inurba_marseille","lat":43.30321,"lon":5.368805,"is_reserved":false,"is_disabled":false,"rental_uris":{"android":"levelo://app?vid=7c7a52d1-a038-41c8-8934-a0de794124e5","ios":"levelo://app?vid=7c7a52d1-a038-41c8-8934-a0de794124e5"},"vehicle_type_id":"4","last_reported":1729854498,"current_range_meters":7200,"station_id":"ce4bgqh2rcd13ifvqc5g","pricing_plan_id":"cebpf4jnsgd1na2vs0mg"},{"bike_id":"b2abab08-9a8a-41c3-9da9-725fbf5fc847","system_id":"levelo_inurba_marseille","lat":43.24993,"lon":5.38928,"is_reserved":false,"is_disabled":false,"rental_uris":{"android":"levelo://app?vid=b2abab08-9a8a-41c3-9da9-725fbf5fc847","ios":"levelo://app?vid=b2abab08-9a8a-41c3-9da9-725fbf5fc847"},"vehicle_type_id":"4","last_reported":1729854498,"current_range_meters":35200,"station_id":"ce4bhgp2rcd13ifvqfd0","pricing_plan_id":"cebpf4jnsgd1na2vs0mg"},{"bike_id":"e1bfaf7b-1a61-40fb-920b-2d342e6d2d6c","system_id":"levelo_inurba_marseille","lat":43.29046,"lon":5.39973,"is_reserved":false,"is_disabled":false,"rental_uris":{"android":"levelo://app?vid=e1bfaf7b-1a61-40fb-920b-2d342e6d2d6c","ios":"levelo://app?vid=e1bfaf7b-1a61-40fb-920b-2d342e6d2d6c"},"vehicle_type_id":"4","last_reported":1729854498,"current_range_meters":24000,"station_id":"ce4bh392rcd13ifvqdm0","pricing_plan_id":"cebpf4jnsgd1na2vs0mg"},{"bike_id":"66f020ae-5526-4ad0-8af9-6a968240ac52","system_id":"levelo_inurba_marseille","lat":43.32481,"lon":5.3657,"is_reserved":false,"is_disabled":false,"rental_uris":{"android":"levelo://app?vid=66f020ae-5526-4ad0-8af9-6a968240ac52","ios":"levelo://app?vid=66f020ae-5526-4ad0-8af9-6a968240ac52"},"vehicle_type_id":"4","last_reported":1729854498,"current_range_meters":37600,"station_id":"ce4bhs12rcd13ifvqhvg","pricing_plan_id":"cebpf4jnsgd1na2vs0mg"},{"bike_id":"1b88a221-76ff-4926-9097-ebbd7eb0fb13","system_id":"levelo_inurba_marseille","lat":43.30527,"lon":5.36712,"is_reserved":false,"is_disabled":false,"rental_uris":{"android":"levelo://app?vid=1b88a221-76ff-4926-9097-ebbd7eb0fb13","ios":"levelo://app?vid=1b88a221-76ff-4926-9097-ebbd7eb0fb13"},"vehicle_type_id":"4","last_reported":1729854498,"current_range_meters":38000,"station_id":"ce4bgrp2rcd13ifvqc9g","pricing_plan_id":"cebpf4jnsgd1na2vs0mg"},{"bike_id":"f7944cff-3b67-4d47-ac2f-ae448bc6f1ff","system_id":"levelo_inurba_marseille","lat":43.27555,"lon":5.38423,"is_reserved":false,"is_disabled":false,"rental_uris":{"android":"levelo://app?vid=f7944cff-3b67-4d47-ac2f-ae448bc6f1ff","ios":"levelo://app?vid=f7944cff-3b67-4d47-ac2f-ae448bc6f1ff"},"vehicle_type_id":"4","last_reported":1729854498,"current_range_meters":30400,"station_id":"ce4bhh92rcd13ifvqfi0","pricing_plan_id":"cebpf4jnsgd1na2vs0mg"},{"bike_id":"c2325ea4-6c10-4af8-8197-f35dd414ac27","system_id":"levelo_inurba_marseille","lat":43.30791,"lon":5.37657,"is_reserved":false,"is_disabled":false,"rental_uris":{"android":"levelo://app?vid=c2325ea4-6c10-4af8-8197-f35dd414ac27","ios":"levelo://app?vid=c2325ea4-6c10-4af8-8197-f35dd414ac27"},"vehicle_type_id":"4","last_reported":1729854498,"current_range_meters":38800,"station_id":"ce4bgv92rcd13ifvqcq0","pricing_plan_id":"cebpf4jnsgd1na2vs0mg"},{"bike_id":"c497cbb2-8ff6-45c2-933a-870ce1b00284","system_id":"levelo_inurba_marseille","lat":43.27999,"lon":5.41662,"is_reserved":false,"is_disabled":false,"rental_uris":{"android":"levelo://app?vid=c497cbb2-8ff6-45c2-933a-870ce1b00284","ios":"levelo://app?vid=c497cbb2-8ff6-45c2-933a-870ce1b00284"},"vehicle_type_id":"4","last_reported":1729854498,"current_range_meters":16400,"station_id":"ce4bho12rcd13ifvqh1g","pricing_plan_id":"cebpf4jnsgd1na2vs0mg"},{"bike_id":"a06815de-056a-4306-8fa5-552d597a9530","system_id":"levelo_inurba_marseille","lat":43.27616,"lon":5.36102,"is_reserved":false,"is_disabled":false,"rental_uris":{"android":"levelo://app?vid=a06815de-056a-4306-8fa5-552d597a9530","ios":"levelo://app?vid=a06815de-056a-4306-8fa5-552d597a9530"},"vehicle_type_id":"4","last_reported":1729854498,"current_range_meters":36800,"station_id":"ce4bgj92rcd13ifvqbe0","pricing_plan_id":"cebpf4jnsgd1na2vs0mg"},{"bike_id":"a0b864da-a351-4305-8743-a2b0966dd4a9","system_id":"levelo_inurba_marseille","lat":43.295685,"lon":5.399768,"is_reserved":false,"is_disabled":false,"rental_uris":{"android":"levelo://app?vid=a0b864da-a351-4305-8743-a2b0966dd4a9","ios":"levelo://app?vid=a0b864da-a351-4305-8743-a2b0966dd4a9"},"vehicle_type_id":"4","last_reported":1729854498,"current_range_meters":4800,"station_id":"ce4bh312rcd13ifvqdj0","pricing_plan_id":"cebpf4jnsgd1na2vs0mg"},{"bike_id":"76f305c4-19ca-4c65-981b-e716ac110203","system_id":"levelo_inurba_marseille","lat":43.29709,"lon":5.37693,"is_reserved":false,"is_disabled":false,"rental_uris":{"android":"levelo://app?vid=76f305c4-19ca-4c65-981b-e716ac110203","ios":"levelo://app?vid=76f305c4-19ca-4c65-981b-e716ac110203"},"vehicle_type_id":"4","last_reported":1729854498,"current_range_meters":9600,"station_id":"ce4bgkh2rcd13ifvqbl0","pricing_plan_id":"cebpf4jnsgd1na2vs0mg"},{"bike_id":"86edebb0-a452-4519-8985-db568b9817e6","system_id":"levelo_inurba_marseille","lat":43.273,"lon":5.3912,"is_reserved":false,"is_disabled":false,"rental_uris":{"android":"levelo://app?vid=86edebb0-a452-4519-8985-db568b9817e6","ios":"levelo://app?vid=86edebb0-a452-4519-8985-db568b9817e6"},"vehicle_type_id":"4","last_reported":1729854498,"current_range_meters":28400,"station_id":"ce4bhgp2rcd13ifvqfe0","pricing_plan_id":"cebpf4jnsgd1na2vs0mg"},{"bike_id":"6fcb2428-d68a-4a7c-bcdc-0d507d962a65","system_id":"levelo_inurba_marseille","lat":43.24552,"lon":5.39529,"is_reserved":false,"is_disabled":false,"rental_uris":{"android":"levelo://app?vid=6fcb2428-d68a-4a7c-bcdc-0d507d962a65","ios":"levelo://app?vid=6fcb2428-d68a-4a7c-bcdc-0d507d962a65"},"vehicle_type_id":"4","last_reported":1729854498,"current_range_meters":27600,"station_id":"ce4bhlp2rcd13ifvqgjg","pricing_plan_id":"cebpf4jnsgd1na2vs0mg"},{"bike_id":"d51e70e3-e500-4ad8-afdb-77e572148b3c","system_id":"levelo_inurba_marseille","lat":43.3028,"lon":5.377,"is_reserved":false,"is_disabled":false,"rental_uris":{"android":"levelo://app?vid=d51e70e3-e500-4ad8-afdb-77e572148b3c","ios":"levelo://app?vid=d51e70e3-e500-4ad8-afdb-77e572148b3c"},"vehicle_type_id":"4","last_reported":1729854498,"current_range_meters":38400,"station_id":"ce4bguh2rcd13ifvqcj0","pricing_plan_id":"cebpf4jnsgd1na2vs0mg"},{"bike_id":"28709b84-b83d-46ed-8adb-237970d4384b","system_id":"levelo_inurba_marseille","lat":43.32359,"lon":5.38871,"is_reserved":false,"is_disabled":false,"rental_uris":{"android":"levelo://app?vid=28709b84-b83d-46ed-8adb-237970d4384b","ios":"levelo://app?vid=28709b84-b83d-46ed-8adb-237970d4384b"},"vehicle_type_id":"4","last_reported":1729854498,"current_range_meters":27600,"station_id":"ce4bhqp2rcd13ifvqhog","pricing_plan_id":"cebpf4jnsgd1na2vs0mg"},{"bike_id":"56c6f9f5-fdcb-4236-a945-56b86ab994b2","system_id":"levelo_inurba_marseille","lat":43.2922,"lon":5.3607,"is_reserved":false,"is_disabled":false,"rental_uris":{"android":"levelo://app?vid=56c6f9f5-fdcb-4236-a945-56b86ab994b2","ios":"levelo://app?vid=56c6f9f5-fdcb-4236-a945-56b86ab994b2"},"vehicle_type_id":"4","last_reported":1729854498,"current_range_meters":24800,"station_id":"ce4bhbh2rcd13ifvqeqg","pricing_plan_id":"cebpf4jnsgd1na2vs0mg"},{"bike_id":"7c35e687-ec5e-452b-83c4-66c42a1b2039","system_id":"levelo_inurba_marseille","lat":43.32661,"lon":5.40984,"is_reserved":false,"is_disabled":false,"rental_uris":{"android":"levelo://app?vid=7c35e687-ec5e-452b-83c4-66c42a1b2039","ios":"levelo://app?vid=7c35e687-ec5e-452b-83c4-66c42a1b2039"},"vehicle_type_id":"4","last_reported":1729854498,"current_range_meters":37600,"station_id":"ce4bhpp2rcd13ifvqhgg","pricing_plan_id":"cebpf4jnsgd1na2vs0mg"},{"bike_id":"ab2480f8-aa60-4622-9e24-4c0c047b28a8","system_id":"levelo_inurba_marseille","lat":43.28229,"lon":5.42371,"is_reserved":false,"is_disabled":false,"rental_uris":{"android":"levelo://app?vid=ab2480f8-aa60-4622-9e24-4c0c047b28a8","ios":"levelo://app?vid=ab2480f8-aa60-4622-9e24-4c0c047b28a8"},"vehicle_type_id":"4","last_reported":1729854498,"current_range_meters":28000,"station_id":"ce4bhnh2rcd13ifvqgug","pricing_plan_id":"cebpf4jnsgd1na2vs0mg"},{"bike_id":"6ae5c146-3499-40d3-86c2-6885fd8ebd2d","system_id":"levelo_inurba_marseille","lat":43.29585,"lon":5.36744,"is_reserved":false,"is_disabled":false,"rental_uris":{"android":"levelo://app?vid=6ae5c146-3499-40d3-86c2-6885fd8ebd2d","ios":"levelo://app?vid=6ae5c146-3499-40d3-86c2-6885fd8ebd2d"},"vehicle_type_id":"4","last_reported":1729854498,"current_range_meters":38000,"station_id":"ce4bgph2rcd13ifvqc2g","pricing_plan_id":"cebpf4jnsgd1na2vs0mg"},{"bike_id":"829f6f11-e924-4b9e-b1a8-6c9f7b4c7be1","system_id":"levelo_inurba_marseille","lat":43.30888,"lon":5.39651,"is_reserved":false,"is_disabled":false,"rental_uris":{"android":"levelo://app?vid=829f6f11-e924-4b9e-b1a8-6c9f7b4c7be1","ios":"levelo://app?vid=829f6f11-e924-4b9e-b1a8-6c9f7b4c7be1"},"vehicle_type_id":"4","last_reported":1729854498,"current_range_meters":37600,"station_id":"ce4bh012rcd13ifvqcv0","pricing_plan_id":"cebpf4jnsgd1na2vs0mg"},{"bike_id":"3180d647-e3ae-492b-947f-2366526567b6","system_id":"levelo_inurba_marseille","lat":43.29,"lon":5.3561,"is_reserved":false,"is_disabled":false,"rental_uris":{"android":"levelo://app?vid=3180d647-e3ae-492b-947f-2366526567b6","ios":"levelo://app?vid=3180d647-e3ae-492b-947f-2366526567b6"},"vehicle_type_id":"4","last_reported":1729854498,"current_range_meters":8000,"station_id":"ce4bhb92rcd13ifvqen0","pricing_plan_id":"cebpf4jnsgd1na2vs0mg"},{"bike_id":"106ffd58-5ff3-4239-b573-ce3a7d8e7a52","system_id":"levelo_inurba_marseille","lat":43.30536,"lon":5.36521,"is_reserved":false,"is_disabled":false,"rental_uris":{"android":"levelo://app?vid=106ffd58-5ff3-4239-b573-ce3a7d8e7a52","ios":"levelo://app?vid=106ffd58-5ff3-4239-b573-ce3a7d8e7a52"},"vehicle_type_id":"4","last_reported":1729854498,"current_range_meters":32800,"station_id":"ce4bgs12rcd13ifvqcag","pricing_plan_id":"cebpf4jnsgd1na2vs0mg"},{"bike_id":"ce42fb7a-0448-4758-8a74-e9e6ef4991ec","system_id":"levelo_inurba_marseille","lat":43.30355,"lon":5.41877,"is_reserved":false,"is_disabled":false,"rental_uris":{"android":"levelo://app?vid=ce42fb7a-0448-4758-8a74-e9e6ef4991ec","ios":"levelo://app?vid=ce42fb7a-0448-4758-8a74-e9e6ef4991ec"},"vehicle_type_id":"4","last_reported":1729854498,"current_range_meters":38800,"station_id":"ce4bhop2rcd13ifvqh7g","pricing_plan_id":"cebpf4jnsgd1na2vs0mg"},{"bike_id":"7eb26a9d-8d19-4652-b31d-15f0e30618f3","system_id":"levelo_inurba_marseille","lat":43.309493,"lon":5.390225,"is_reserved":false,"is_disabled":false,"rental_uris":{"android":"levelo://app?vid=7eb26a9d-8d19-4652-b31d-15f0e30618f3","ios":"levelo://app?vid=7eb26a9d-8d19-4652-b31d-15f0e30618f3"},"vehicle_type_id":"4","last_reported":1729854498,"current_range_meters":26800,"station_id":"ce4bgup2rcd13ifvqco0","pricing_plan_id":"cebpf4jnsgd1na2vs0mg"},{"bike_id":"87db467a-e28a-459b-95cf-0ad964a9e954","system_id":"levelo_inurba_marseille","lat":43.31162,"lon":5.38712,"is_reserved":false,"is_disabled":false,"rental_uris":{"android":"levelo://app?vid=87db467a-e28a-459b-95cf-0ad964a9e954","ios":"levelo://app?vid=87db467a-e28a-459b-95cf-0ad964a9e954"},"vehicle_type_id":"4","last_reported":1729854498,"current_range_meters":24000,"station_id":"ce4bgv12rcd13ifvqcp0","pricing_plan_id":"cebpf4jnsgd1na2vs0mg"},{"bike_id":"6945c7f9-6d31-4e59-87a6-a51dcf202bdb","system_id":"levelo_inurba_marseille","lat":43.26028,"lon":5.37549,"is_reserved":false,"is_disabled":false,"rental_uris":{"android":"levelo://app?vid=6945c7f9-6d31-4e59-87a6-a51dcf202bdb","ios":"levelo://app?vid=6945c7f9-6d31-4e59-87a6-a51dcf202bdb"},"vehicle_type_id":"4","last_reported":1729854498,"current_range_meters":38800,"station_id":"ce4bhgh2rcd13ifvqfa0","pricing_plan_id":"cebpf4jnsgd1na2vs0mg"},{"bike_id":"467bfdb6-1722-469c-9a5e-479cb9b4e1b6","system_id":"levelo_inurba_marseille","lat":43.26681,"lon":5.38267,"is_reserved":false,"is_disabled":false,"rental_uris":{"android":"levelo://app?vid=467bfdb6-1722-469c-9a5e-479cb9b4e1b6","ios":"levelo://app?vid=467bfdb6-1722-469c-9a5e-479cb9b4e1b6"},"vehicle_type_id":"4","last_reported":1729854498,"current_range_meters":24800,"station_id":"ce4bhg92rcd13ifvqf90","pricing_plan_id":"cebpf4jnsgd1na2vs0mg"},{"bike_id":"9a25ff9d-fe97-4115-b9c8-0a0670227486","system_id":"levelo_inurba_marseille","lat":43.29791,"lon":5.39335,"is_reserved":false,"is_disabled":false,"rental_uris":{"android":"levelo://app?vid=9a25ff9d-fe97-4115-b9c8-0a0670227486","ios":"levelo://app?vid=9a25ff9d-fe97-4115-b9c8-0a0670227486"},"vehicle_type_id":"4","last_reported":1729854498,"current_range_meters":36800,"station_id":"chh1huq6cuj3fo74tm60","pricing_plan_id":"cebpf4jnsgd1na2vs0mg"},{"bike_id":"7b117eff-2575-4b29-a3d1-e3aab34e246d","system_id":"levelo_inurba_marseille","lat":43.29266,"lon":5.38428,"is_reserved":false,"is_disabled":false,"rental_uris":{"android":"levelo://app?vid=7b117eff-2575-4b29-a3d1-e3aab34e246d","ios":"levelo://app?vid=7b117eff-2575-4b29-a3d1-e3aab34e246d"},"vehicle_type_id":"4","last_reported":1729854498,"current_range_meters":20400,"station_id":"ce4bh692rcd13ifvqea0","pricing_plan_id":"cebpf4jnsgd1na2vs0mg"},{"bike_id":"d2b4a30c-fa04-4d83-8504-421bcece3b1e","system_id":"levelo_inurba_marseille","lat":43.308863,"lon":5.371837,"is_reserved":false,"is_disabled":false,"rental_uris":{"android":"levelo://app?vid=d2b4a30c-fa04-4d83-8504-421bcece3b1e","ios":"levelo://app?vid=d2b4a30c-fa04-4d83-8504-421bcece3b1e"},"vehicle_type_id":"4","last_reported":1729854498,"current_range_meters":28000,"station_id":"ce4bguh2rcd13ifvqckg","pricing_plan_id":"cebpf4jnsgd1na2vs0mg"},{"bike_id":"efc7295f-fcba-4f79-845a-724d846571ad","system_id":"levelo_inurba_marseille","lat":43.30539,"lon":5.36546,"is_reserved":false,"is_disabled":false,"rental_uris":{"android":"levelo://app?vid=efc7295f-fcba-4f79-845a-724d846571ad","ios":"levelo://app?vid=efc7295f-fcba-4f79-845a-724d846571ad"},"vehicle_type_id":"4","last_reported":1729854498,"current_range_meters":8400,"station_id":"ce4bgs12rcd13ifvqcag","pricing_plan_id":"cebpf4jnsgd1na2vs0mg"},{"bike_id":"bd995abb-12e7-47a6-b0b9-e1f25439576a","system_id":"levelo_inurba_marseille","lat":43.24998,"lon":5.38924,"is_reserved":false,"is_disabled":false,"rental_uris":{"android":"levelo://app?vid=bd995abb-12e7-47a6-b0b9-e1f25439576a","ios":"levelo://app?vid=bd995abb-12e7-47a6-b0b9-e1f25439576a"},"vehicle_type_id":"4","last_reported":1729854498,"current_range_meters":38800,"station_id":"ce4bhgp2rcd13ifvqfd0","pricing_plan_id":"cebpf4jnsgd1na2vs0mg"},{"bike_id":"4dba9aa4-34d4-43d8-8b2e-453fccc8bd88","system_id":"levelo_inurba_marseille","lat":43.31488,"lon":5.37309,"is_reserved":false,"is_disabled":false,"rental_uris":{"android":"levelo://app?vid=4dba9aa4-34d4-43d8-8b2e-453fccc8bd88","ios":"levelo://app?vid=4dba9aa4-34d4-43d8-8b2e-453fccc8bd88"},"vehicle_type_id":"4","last_reported":1729854498,"current_range_meters":32000,"station_id":"ce4bgt12rcd13ifvqcd0","pricing_plan_id":"cebpf4jnsgd1na2vs0mg"},{"bike_id":"a563ade4-cb64-4c5e-aeb8-2ef3ebcd0402","system_id":"levelo_inurba_marseille","lat":43.3043,"lon":5.39745,"is_reserved":false,"is_disabled":false,"rental_uris":{"android":"levelo://app?vid=a563ade4-cb64-4c5e-aeb8-2ef3ebcd0402","ios":"levelo://app?vid=a563ade4-cb64-4c5e-aeb8-2ef3ebcd0402"},"vehicle_type_id":"4","last_reported":1729854498,"current_range_meters":19600,"station_id":"ce4bh092rcd13ifvqd20","pricing_plan_id":"cebpf4jnsgd1na2vs0mg"},{"bike_id":"6a858472-74ce-4cba-992e-61caea89fcad","system_id":"levelo_inurba_marseille","lat":43.27423,"lon":5.39416,"is_reserved":false,"is_disabled":false,"rental_uris":{"android":"levelo://app?vid=6a858472-74ce-4cba-992e-61caea89fcad","ios":"levelo://app?vid=6a858472-74ce-4cba-992e-61caea89fcad"},"vehicle_type_id":"4","last_reported":1729854498,"current_range_meters":38400,"station_id":"ce4bhdp2rcd13ifvqf20","pricing_plan_id":"cebpf4jnsgd1na2vs0mg"},{"bike_id":"43e0342e-7c69-4ef3-9959-2e5c770bab9f","system_id":"levelo_inurba_marseille","lat":43.229325,"lon":5.353763,"is_reserved":false,"is_disabled":false,"rental_uris":{"android":"levelo://app?vid=43e0342e-7c69-4ef3-9959-2e5c770bab9f","ios":"levelo://app?vid=43e0342e-7c69-4ef3-9959-2e5c770bab9f"},"vehicle_type_id":"4","last_reported":1729854498,"current_range_meters":18000,"station_id":"cpo3532slgdg3j2ikp40","pricing_plan_id":"cebpf4jnsgd1na2vs0mg"},{"bike_id":"30506dd3-5dff-4893-9985-60fd5a91a751","system_id":"levelo_inurba_marseille","lat":43.29578,"lon":5.36733,"is_reserved":false,"is_disabled":false,"rental_uris":{"android":"levelo://app?vid=30506dd3-5dff-4893-9985-60fd5a91a751","ios":"levelo://app?vid=30506dd3-5dff-4893-9985-60fd5a91a751"},"vehicle_type_id":"4","last_reported":1729854498,"current_range_meters":22800,"station_id":"ce4bgph2rcd13ifvqc2g","pricing_plan_id":"cebpf4jnsgd1na2vs0mg"},{"bike_id":"bcdd9255-183a-47f6-be21-33b54c39540e","system_id":"levelo_inurba_marseille","lat":43.29193,"lon":5.35797,"is_reserved":false,"is_disabled":false,"rental_uris":{"android":"levelo://app?vid=bcdd9255-183a-47f6-be21-33b54c39540e","ios":"levelo://app?vid=bcdd9255-183a-47f6-be21-33b54c39540e"},"vehicle_type_id":"4","last_reported":1729854498,"current_range_meters":26800,"station_id":"ce4bhb12rcd13ifvqel0","pricing_plan_id":"cebpf4jnsgd1na2vs0mg"},{"bike_id":"69c50a7a-8960-41bd-bcf6-67af981ebe82","system_id":"levelo_inurba_marseille","lat":43.2886,"lon":5.35844,"is_reserved":false,"is_disabled":false,"rental_uris":{"android":"levelo://app?vid=69c50a7a-8960-41bd-bcf6-67af981ebe82","ios":"levelo://app?vid=69c50a7a-8960-41bd-bcf6-67af981ebe82"},"vehicle_type_id":"4","last_reported":1729854498,"current_range_meters":37600,"station_id":"ce4bhb12rcd13ifvqem0","pricing_plan_id":"cebpf4jnsgd1na2vs0mg"},{"bike_id":"3749d91e-cba9-4045-a38e-147aad785214","system_id":"levelo_inurba_marseille","lat":43.29355,"lon":5.37836,"is_reserved":false,"is_disabled":false,"rental_uris":{"android":"levelo://app?vid=3749d91e-cba9-4045-a38e-147aad785214","ios":"levelo://app?vid=3749d91e-cba9-4045-a38e-147aad785214"},"vehicle_type_id":"4","last_reported":1729854498,"current_range_meters":33600,"station_id":"ce4bgjh2rcd13ifvqbf0","pricing_plan_id":"cebpf4jnsgd1na2vs0mg"},{"bike_id":"59a0c7ae-ebf7-4f0a-8586-2254065f7a4f","system_id":"levelo_inurba_marseille","lat":43.302307,"lon":5.390236,"is_reserved":false,"is_disabled":false,"rental_uris":{"android":"levelo://app?vid=59a0c7ae-ebf7-4f0a-8586-2254065f7a4f","ios":"levelo://app?vid=59a0c7ae-ebf7-4f0a-8586-2254065f7a4f"},"vehicle_type_id":"4","last_reported":1729854498,"current_range_meters":38800,"station_id":"ce4bgj12rcd13ifvqbc0","pricing_plan_id":"cebpf4jnsgd1na2vs0mg"},{"bike_id":"365a5e76-e012-4983-b8a9-1a07480bde83","system_id":"levelo_inurba_marseille","lat":43.23192,"lon":5.35547,"is_reserved":false,"is_disabled":false,"rental_uris":{"android":"levelo://app?vid=365a5e76-e012-4983-b8a9-1a07480bde83","ios":"levelo://app?vid=365a5e76-e012-4983-b8a9-1a07480bde83"},"vehicle_type_id":"4","last_reported":1729854498,"current_range_meters":38800,"station_id":"ce4bhu92rcd13ifvqi70","pricing_plan_id":"cebpf4jnsgd1na2vs0mg"},{"bike_id":"176c2bd2-7d0c-4278-833a-48f82a51f6ca","system_id":"levelo_inurba_marseille","lat":43.26195,"lon":5.37921,"is_reserved":false,"is_disabled":false,"rental_uris":{"android":"levelo://app?vid=176c2bd2-7d0c-4278-833a-48f82a51f6ca","ios":"levelo://app?vid=176c2bd2-7d0c-4278-833a-48f82a51f6ca"},"vehicle_type_id":"4","last_reported":1729854498,"current_range_meters":38800,"station_id":"ce4bhjp2rcd13ifvqg90","pricing_plan_id":"cebpf4jnsgd1na2vs0mg"},{"bike_id":"6feb7ded-3bea-4297-b3d7-056a1104c816","system_id":"levelo_inurba_marseille","lat":43.33119,"lon":5.38218,"is_reserved":false,"is_disabled":false,"rental_uris":{"android":"levelo://app?vid=6feb7ded-3bea-4297-b3d7-056a1104c816","ios":"levelo://app?vid=6feb7ded-3bea-4297-b3d7-056a1104c816"},"vehicle_type_id":"4","last_reported":1729854498,"current_range_meters":31200,"station_id":"","pricing_plan_id":"cebpf4jnsgd1na2vs0mg"},{"bike_id":"41f153c9-6e2f-4115-a2bf-ece305a88b3a","system_id":"levelo_inurba_marseille","lat":43.2307,"lon":5.35489,"is_reserved":false,"is_disabled":false,"rental_uris":{"android":"levelo://app?vid=41f153c9-6e2f-4115-a2bf-ece305a88b3a","ios":"levelo://app?vid=41f153c9-6e2f-4115-a2bf-ece305a88b3a"},"vehicle_type_id":"4","last_reported":1729854498,"current_range_meters":30800,"station_id":"cpo3342slgdg3j2ifvpg","pricing_plan_id":"cebpf4jnsgd1na2vs0mg"},{"bike_id":"a7a513ff-124e-45d9-a285-763e2e3c7193","system_id":"levelo_inurba_marseille","lat":43.23046,"lon":5.35497,"is_reserved":false,"is_disabled":false,"rental_uris":{"android":"levelo://app?vid=a7a513ff-124e-45d9-a285-763e2e3c7193","ios":"levelo://app?vid=a7a513ff-124e-45d9-a285-763e2e3c7193"},"vehicle_type_id":"4","last_reported":1729854498,"current_range_meters":32000,"station_id":"cpo3342slgdg3j2ifvpg","pricing_plan_id":"cebpf4jnsgd1na2vs0mg"},{"bike_id":"2b9eead0-d729-4eef-b339-573474a69b2f","system_id":"levelo_inurba_marseille","lat":43.28999,"lon":5.35605,"is_reserved":false,"is_disabled":false,"rental_uris":{"android":"levelo://app?vid=2b9eead0-d729-4eef-b339-573474a69b2f","ios":"levelo://app?vid=2b9eead0-d729-4eef-b339-573474a69b2f"},"vehicle_type_id":"4","last_reported":1729854498,"current_range_meters":30000,"station_id":"ce4bhb92rcd13ifvqen0","pricing_plan_id":"cebpf4jnsgd1na2vs0mg"},{"bike_id":"469daa12-5db6-4b47-b0de-a72fe3abdc5c","system_id":"levelo_inurba_marseille","lat":43.29103,"lon":5.38146,"is_reserved":false,"is_disabled":false,"rental_uris":{"android":"levelo://app?vid=469daa12-5db6-4b47-b0de-a72fe3abdc5c","ios":"levelo://app?vid=469daa12-5db6-4b47-b0de-a72fe3abdc5c"},"vehicle_type_id":"4","last_reported":1729854498,"current_range_meters":28400,"station_id":"ce4bh512rcd13ifvqe2g","pricing_plan_id":"cebpf4jnsgd1na2vs0mg"},{"bike_id":"b9c57647-4da0-4605-b88d-7ba47b26f5bc","system_id":"levelo_inurba_marseille","lat":43.2668,"lon":5.3827,"is_reserved":false,"is_disabled":false,"rental_uris":{"android":"levelo://app?vid=b9c57647-4da0-4605-b88d-7ba47b26f5bc","ios":"levelo://app?vid=b9c57647-4da0-4605-b88d-7ba47b26f5bc"},"vehicle_type_id":"4","last_reported":1729854498,"current_range_meters":33600,"station_id":"ce4bhg92rcd13ifvqf90","pricing_plan_id":"cebpf4jnsgd1na2vs0mg"},{"bike_id":"00c60ed0-fa94-4fc9-8a00-448baac47cc3","system_id":"levelo_inurba_marseille","lat":43.30461,"lon":5.37905,"is_reserved":false,"is_disabled":false,"rental_uris":{"android":"levelo://app?vid=00c60ed0-fa94-4fc9-8a00-448baac47cc3","ios":"levelo://app?vid=00c60ed0-fa94-4fc9-8a00-448baac47cc3"},"vehicle_type_id":"4","last_reported":1729854498,"current_range_meters":38400,"station_id":"ce4bgup2rcd13ifvqcn0","pricing_plan_id":"cebpf4jnsgd1na2vs0mg"},{"bike_id":"ffaf6d1c-64f9-4c62-bbf1-b08f3ad9a305","system_id":"levelo_inurba_marseille","lat":43.33741,"lon":5.37454,"is_reserved":false,"is_disabled":false,"rental_uris":{"android":"levelo://app?vid=ffaf6d1c-64f9-4c62-bbf1-b08f3ad9a305","ios":"levelo://app?vid=ffaf6d1c-64f9-4c62-bbf1-b08f3ad9a305"},"vehicle_type_id":"4","last_reported":1729854498,"current_range_meters":18800,"station_id":"","pricing_plan_id":"cebpf4jnsgd1na2vs0mg"},{"bike_id":"762c6d21-bc78-4a52-9810-72ccbbfb0132","system_id":"levelo_inurba_marseille","lat":43.28156,"lon":5.42643,"is_reserved":false,"is_disabled":false,"rental_uris":{"android":"levelo://app?vid=762c6d21-bc78-4a52-9810-72ccbbfb0132","ios":"levelo://app?vid=762c6d21-bc78-4a52-9810-72ccbbfb0132"},"vehicle_type_id":"4","last_reported":1729854498,"current_range_meters":32800,"station_id":"ce4bhnh2rcd13ifvqgug","pricing_plan_id":"cebpf4jnsgd1na2vs0mg"},{"bike_id":"a9439cd1-ab91-4240-9638-f44040b4f85e","system_id":"levelo_inurba_marseille","lat":43.30324,"lon":5.36901,"is_reserved":false,"is_disabled":false,"rental_uris":{"android":"levelo://app?vid=a9439cd1-ab91-4240-9638-f44040b4f85e","ios":"levelo://app?vid=a9439cd1-ab91-4240-9638-f44040b4f85e"},"vehicle_type_id":"4","last_reported":1729854498,"current_range_meters":38800,"station_id":"ce4bgqh2rcd13ifvqc5g","pricing_plan_id":"cebpf4jnsgd1na2vs0mg"},{"bike_id":"00d58f0d-ff63-4bbf-b8b4-e66a47a61934","system_id":"levelo_inurba_marseille","lat":43.272125,"lon":5.391681,"is_reserved":false,"is_disabled":false,"rental_uris":{"android":"levelo://app?vid=00d58f0d-ff63-4bbf-b8b4-e66a47a61934","ios":"levelo://app?vid=00d58f0d-ff63-4bbf-b8b4-e66a47a61934"},"vehicle_type_id":"4","last_reported":1729854498,"current_range_meters":22400,"station_id":"ce4bhh12rcd13ifvqff0","pricing_plan_id":"cebpf4jnsgd1na2vs0mg"},{"bike_id":"9c6fc028-3986-41cc-bf02-716316e6edd0","system_id":"levelo_inurba_marseille","lat":43.30872,"lon":5.3718,"is_reserved":false,"is_disabled":false,"rental_uris":{"android":"levelo://app?vid=9c6fc028-3986-41cc-bf02-716316e6edd0","ios":"levelo://app?vid=9c6fc028-3986-41cc-bf02-716316e6edd0"},"vehicle_type_id":"4","last_reported":1729854498,"current_range_meters":34000,"station_id":"ce4bguh2rcd13ifvqckg","pricing_plan_id":"cebpf4jnsgd1na2vs0mg"},{"bike_id":"ea2438cd-32f2-4e16-b6e9-6671195d9ec1","system_id":"levelo_inurba_marseille","lat":43.24661,"lon":5.38156,"is_reserved":false,"is_disabled":false,"rental_uris":{"android":"levelo://app?vid=ea2438cd-32f2-4e16-b6e9-6671195d9ec1","ios":"levelo://app?vid=ea2438cd-32f2-4e16-b6e9-6671195d9ec1"},"vehicle_type_id":"4","last_reported":1729854498,"current_range_meters":22800,"station_id":"ce4bhih2rcd13ifvqfr0","pricing_plan_id":"cebpf4jnsgd1na2vs0mg"},{"bike_id":"8b334494-4658-40b8-9961-1bec772036f2","system_id":"levelo_inurba_marseille","lat":43.29844,"lon":5.36265,"is_reserved":false,"is_disabled":false,"rental_uris":{"android":"levelo://app?vid=8b334494-4658-40b8-9961-1bec772036f2","ios":"levelo://app?vid=8b334494-4658-40b8-9961-1bec772036f2"},"vehicle_type_id":"4","last_reported":1729854498,"current_range_meters":38800,"station_id":"ce4bgpp2rcd13ifvqc3g","pricing_plan_id":"cebpf4jnsgd1na2vs0mg"},{"bike_id":"c75bb13c-6507-4ebc-9094-f6a3783bce27","system_id":"levelo_inurba_marseille","lat":43.250169,"lon":5.399014,"is_reserved":false,"is_disabled":false,"rental_uris":{"android":"levelo://app?vid=c75bb13c-6507-4ebc-9094-f6a3783bce27","ios":"levelo://app?vid=c75bb13c-6507-4ebc-9094-f6a3783bce27"},"vehicle_type_id":"4","last_reported":1729854498,"current_range_meters":23200,"station_id":"ce4bhjp2rcd13ifvqga0","pricing_plan_id":"cebpf4jnsgd1na2vs0mg"},{"bike_id":"7a406358-5396-4c2c-bdee-f94c235c7851","system_id":"levelo_inurba_marseille","lat":43.265724,"lon":5.373426,"is_reserved":false,"is_disabled":false,"rental_uris":{"android":"levelo://app?vid=7a406358-5396-4c2c-bdee-f94c235c7851","ios":"levelo://app?vid=7a406358-5396-4c2c-bdee-f94c235c7851"},"vehicle_type_id":"4","last_reported":1729854498,"current_range_meters":38800,"station_id":"ce4bhg12rcd13ifvqf70","pricing_plan_id":"cebpf4jnsgd1na2vs0mg"},{"bike_id":"210c887c-7b84-4f80-9b41-3fe3dc71fada","system_id":"levelo_inurba_marseille","lat":43.27565,"lon":5.38433,"is_reserved":false,"is_disabled":false,"rental_uris":{"android":"levelo://app?vid=210c887c-7b84-4f80-9b41-3fe3dc71fada","ios":"levelo://app?vid=210c887c-7b84-4f80-9b41-3fe3dc71fada"},"vehicle_type_id":"4","last_reported":1729854498,"current_range_meters":36800,"station_id":"ce4bhh92rcd13ifvqfi0","pricing_plan_id":"cebpf4jnsgd1na2vs0mg"},{"bike_id":"71312711-4f6c-465d-b9de-7eb006b96a28","system_id":"levelo_inurba_marseille","lat":43.26027,"lon":5.37552,"is_reserved":false,"is_disabled":false,"rental_uris":{"android":"levelo://app?vid=71312711-4f6c-465d-b9de-7eb006b96a28","ios":"levelo://app?vid=71312711-4f6c-465d-b9de-7eb006b96a28"},"vehicle_type_id":"4","last_reported":1729854498,"current_range_meters":24800,"station_id":"ce4bhgh2rcd13ifvqfa0","pricing_plan_id":"cebpf4jnsgd1na2vs0mg"},{"bike_id":"3d842674-b26d-4bd1-8c29-6b56ea1a1f40","system_id":"levelo_inurba_marseille","lat":43.24999,"lon":5.38941,"is_reserved":false,"is_disabled":false,"rental_uris":{"android":"levelo://app?vid=3d842674-b26d-4bd1-8c29-6b56ea1a1f40","ios":"levelo://app?vid=3d842674-b26d-4bd1-8c29-6b56ea1a1f40"},"vehicle_type_id":"4","last_reported":1729854498,"current_range_meters":24800,"station_id":"ce4bhgp2rcd13ifvqfd0","pricing_plan_id":"cebpf4jnsgd1na2vs0mg"},{"bike_id":"4edd932e-9306-425f-b341-6a63750e98d7","system_id":"levelo_inurba_marseille","lat":43.29844,"lon":5.36263,"is_reserved":false,"is_disabled":false,"rental_uris":{"android":"levelo://app?vid=4edd932e-9306-425f-b341-6a63750e98d7","ios":"levelo://app?vid=4edd932e-9306-425f-b341-6a63750e98d7"},"vehicle_type_id":"4","last_reported":1729854498,"current_range_meters":36000,"station_id":"ce4bgpp2rcd13ifvqc3g","pricing_plan_id":"cebpf4jnsgd1na2vs0mg"},{"bike_id":"ce990d37-ca91-4ee6-b87b-16cba875f195","system_id":"levelo_inurba_marseille","lat":43.29042,"lon":5.38121,"is_reserved":false,"is_disabled":false,"rental_uris":{"android":"levelo://app?vid=ce990d37-ca91-4ee6-b87b-16cba875f195","ios":"levelo://app?vid=ce990d37-ca91-4ee6-b87b-16cba875f195"},"vehicle_type_id":"4","last_reported":1729854498,"current_range_meters":4800,"station_id":"","pricing_plan_id":"cebpf4jnsgd1na2vs0mg"},{"bike_id":"baa0c031-6e78-4eb6-985d-4bcf9898e7aa","system_id":"levelo_inurba_marseille","lat":43.29564,"lon":5.37487,"is_reserved":false,"is_disabled":false,"rental_uris":{"android":"levelo://app?vid=baa0c031-6e78-4eb6-985d-4bcf9898e7aa","ios":"levelo://app?vid=baa0c031-6e78-4eb6-985d-4bcf9898e7aa"},"vehicle_type_id":"4","last_reported":1729854498,"current_range_meters":38800,"station_id":"ce4bgh92rcd13ifvqb50","pricing_plan_id":"cebpf4jnsgd1na2vs0mg"},{"bike_id":"b8c9ac1e-bdf8-4af3-8039-13c51d6bb64d","system_id":"levelo_inurba_marseille","lat":43.30533,"lon":5.36696,"is_reserved":false,"is_disabled":false,"rental_uris":{"android":"levelo://app?vid=b8c9ac1e-bdf8-4af3-8039-13c51d6bb64d","ios":"levelo://app?vid=b8c9ac1e-bdf8-4af3-8039-13c51d6bb64d"},"vehicle_type_id":"4","last_reported":1729854498,"current_range_meters":39200,"station_id":"ce4bgrp2rcd13ifvqc9g","pricing_plan_id":"cebpf4jnsgd1na2vs0mg"},{"bike_id":"64b170f8-2500-48ef-96a3-25f7c0707542","system_id":"levelo_inurba_marseille","lat":43.337444,"lon":5.374475,"is_reserved":false,"is_disabled":false,"rental_uris":{"android":"levelo://app?vid=64b170f8-2500-48ef-96a3-25f7c0707542","ios":"levelo://app?vid=64b170f8-2500-48ef-96a3-25f7c0707542"},"vehicle_type_id":"4","last_reported":1729854498,"current_range_meters":2800,"station_id":"","pricing_plan_id":"cebpf4jnsgd1na2vs0mg"},{"bike_id":"89f5781e-f020-44c4-9544-3d5b1aa72850","system_id":"levelo_inurba_marseille","lat":43.23198,"lon":5.35556,"is_reserved":false,"is_disabled":false,"rental_uris":{"android":"levelo://app?vid=89f5781e-f020-44c4-9544-3d5b1aa72850","ios":"levelo://app?vid=89f5781e-f020-44c4-9544-3d5b1aa72850"},"vehicle_type_id":"4","last_reported":1729854498,"current_range_meters":4400,"station_id":"ce4bhu92rcd13ifvqi70","pricing_plan_id":"cebpf4jnsgd1na2vs0mg"},{"bike_id":"4f409860-e0f7-4877-99ee-a24fed7f0e97","system_id":"levelo_inurba_marseille","lat":43.27813,"lon":5.40712,"is_reserved":false,"is_disabled":false,"rental_uris":{"android":"levelo://app?vid=4f409860-e0f7-4877-99ee-a24fed7f0e97","ios":"levelo://app?vid=4f409860-e0f7-4877-99ee-a24fed7f0e97"},"vehicle_type_id":"4","last_reported":1729854498,"current_range_meters":30400,"station_id":"ce4bhnh2rcd13ifvqgtg","pricing_plan_id":"cebpf4jnsgd1na2vs0mg"},{"bike_id":"d657a82f-ab02-452b-b617-a1426953567e","system_id":"levelo_inurba_marseille","lat":43.2619,"lon":5.37448,"is_reserved":false,"is_disabled":false,"rental_uris":{"android":"levelo://app?vid=d657a82f-ab02-452b-b617-a1426953567e","ios":"levelo://app?vid=d657a82f-ab02-452b-b617-a1426953567e"},"vehicle_type_id":"4","last_reported":1729854498,"current_range_meters":38400,"station_id":"ce4bhgp2rcd13ifvqfc0","pricing_plan_id":"cebpf4jnsgd1na2vs0mg"},{"bike_id":"00db6db4-3e33-46df-a4d8-0c8b145af454","system_id":"levelo_inurba_marseille","lat":43.329162,"lon":5.388111,"is_reserved":false,"is_disabled":false,"rental_uris":{"android":"levelo://app?vid=00db6db4-3e33-46df-a4d8-0c8b145af454","ios":"levelo://app?vid=00db6db4-3e33-46df-a4d8-0c8b145af454"},"vehicle_type_id":"4","last_reported":1729854498,"current_range_meters":16000,"station_id":"ce4bhr92rcd13ifvqhrg","pricing_plan_id":"cebpf4jnsgd1na2vs0mg"},{"bike_id":"0d8fe734-2662-47a5-a5e2-db2a5c8e764e","system_id":"levelo_inurba_marseille","lat":43.25492,"lon":5.37644,"is_reserved":false,"is_disabled":false,"rental_uris":{"android":"levelo://app?vid=0d8fe734-2662-47a5-a5e2-db2a5c8e764e","ios":"levelo://app?vid=0d8fe734-2662-47a5-a5e2-db2a5c8e764e"},"vehicle_type_id":"4","last_reported":1729854498,"current_range_meters":36000,"station_id":"ce4bhh12rcd13ifvqff0","pricing_plan_id":"cebpf4jnsgd1na2vs0mg"},{"bike_id":"a06f2332-caf7-47e4-90d2-8791d21b780b","system_id":"levelo_inurba_marseille","lat":43.2962,"lon":5.37162,"is_reserved":false,"is_disabled":false,"rental_uris":{"android":"levelo://app?vid=a06f2332-caf7-47e4-90d2-8791d21b780b","ios":"levelo://app?vid=a06f2332-caf7-47e4-90d2-8791d21b780b"},"vehicle_type_id":"4","last_reported":1729854498,"current_range_meters":25200,"station_id":"ce4bgnh2rcd13ifvqc0g","pricing_plan_id":"cebpf4jnsgd1na2vs0mg"},{"bike_id":"4ca8ad0a-be09-4f84-b34a-80128b20764b","system_id":"levelo_inurba_marseille","lat":43.30275,"lon":5.37692,"is_reserved":false,"is_disabled":false,"rental_uris":{"android":"levelo://app?vid=4ca8ad0a-be09-4f84-b34a-80128b20764b","ios":"levelo://app?vid=4ca8ad0a-be09-4f84-b34a-80128b20764b"},"vehicle_type_id":"4","last_reported":1729854498,"current_range_meters":32000,"station_id":"ce4bguh2rcd13ifvqcj0","pricing_plan_id":"cebpf4jnsgd1na2vs0mg"},{"bike_id":"32479306-bd65-4eb8-aadf-597a0bdc7cb5","system_id":"levelo_inurba_marseille","lat":43.28578,"lon":5.39474,"is_reserved":false,"is_disabled":false,"rental_uris":{"android":"levelo://app?vid=32479306-bd65-4eb8-aadf-597a0bdc7cb5","ios":"levelo://app?vid=32479306-bd65-4eb8-aadf-597a0bdc7cb5"},"vehicle_type_id":"4","last_reported":1729854498,"current_range_meters":38800,"station_id":"ce4bh292rcd13ifvqdg0","pricing_plan_id":"cebpf4jnsgd1na2vs0mg"},{"bike_id":"7bc6a6c0-faa3-435c-965e-a4e7dfe4259f","system_id":"levelo_inurba_marseille","lat":43.33755,"lon":5.37429,"is_reserved":false,"is_disabled":false,"rental_uris":{"android":"levelo://app?vid=7bc6a6c0-faa3-435c-965e-a4e7dfe4259f","ios":"levelo://app?vid=7bc6a6c0-faa3-435c-965e-a4e7dfe4259f"},"vehicle_type_id":"4","last_reported":1729854498,"current_range_meters":22400,"station_id":"","pricing_plan_id":"cebpf4jnsgd1na2vs0mg"},{"bike_id":"ddab116e-2eb7-45a6-8d92-8ad268c39db8","system_id":"levelo_inurba_marseille","lat":43.324835,"lon":5.365653,"is_reserved":false,"is_disabled":false,"rental_uris":{"android":"levelo://app?vid=ddab116e-2eb7-45a6-8d92-8ad268c39db8","ios":"levelo://app?vid=ddab116e-2eb7-45a6-8d92-8ad268c39db8"},"vehicle_type_id":"4","last_reported":1729854498,"current_range_meters":12400,"station_id":"ce4bhs12rcd13ifvqhvg","pricing_plan_id":"cebpf4jnsgd1na2vs0mg"},{"bike_id":"b37a0ae1-907f-412d-8e1a-06a9de441401","system_id":"levelo_inurba_marseille","lat":43.25085,"lon":5.39519,"is_reserved":false,"is_disabled":false,"rental_uris":{"android":"levelo://app?vid=b37a0ae1-907f-412d-8e1a-06a9de441401","ios":"levelo://app?vid=b37a0ae1-907f-412d-8e1a-06a9de441401"},"vehicle_type_id":"4","last_reported":1729854498,"current_range_meters":38800,"station_id":"ce4bhm12rcd13ifvqgkg","pricing_plan_id":"cebpf4jnsgd1na2vs0mg"},{"bike_id":"1a776dc5-f75b-43cc-b2e3-4b6d7b7fc5f2","system_id":"levelo_inurba_marseille","lat":43.2928,"lon":5.36842,"is_reserved":false,"is_disabled":false,"rental_uris":{"android":"levelo://app?vid=1a776dc5-f75b-43cc-b2e3-4b6d7b7fc5f2","ios":"levelo://app?vid=1a776dc5-f75b-43cc-b2e3-4b6d7b7fc5f2"},"vehicle_type_id":"4","last_reported":1729854498,"current_range_meters":17200,"station_id":"ce4bhbp2rcd13ifvqesg","pricing_plan_id":"cebpf4jnsgd1na2vs0mg"},{"bike_id":"2feab749-a0de-41d7-b70e-7491cf23f13e","system_id":"levelo_inurba_marseille","lat":43.28108,"lon":5.37838,"is_reserved":false,"is_disabled":false,"rental_uris":{"android":"levelo://app?vid=2feab749-a0de-41d7-b70e-7491cf23f13e","ios":"levelo://app?vid=2feab749-a0de-41d7-b70e-7491cf23f13e"},"vehicle_type_id":"4","last_reported":1729854498,"current_range_meters":34000,"station_id":"ce4bha12rcd13ifvqee0","pricing_plan_id":"cebpf4jnsgd1na2vs0mg"},{"bike_id":"20b965b5-0372-43c0-b9f5-c8648ab56c23","system_id":"levelo_inurba_marseille","lat":43.29673,"lon":5.38709,"is_reserved":false,"is_disabled":false,"rental_uris":{"android":"levelo://app?vid=20b965b5-0372-43c0-b9f5-c8648ab56c23","ios":"levelo://app?vid=20b965b5-0372-43c0-b9f5-c8648ab56c23"},"vehicle_type_id":"4","last_reported":1729854498,"current_range_meters":22000,"station_id":"ce4bh012rcd13ifvqcv0","pricing_plan_id":"cebpf4jnsgd1na2vs0mg"},